{"data": {"bikes": [{"lat": 38.929895333333334, "fusion_lat": 0.0, "type": "electric_scooter", "bike_id": "3699eba4b7a6149e77efff3cf7a6326b", "is_reserved": 0, "rental_uris": {"ios": "https://dc.lft.to/lastmile_qr_scan", "android": "https://dc.lft.to/lastmile_qr_scan"}, "is_disabled": 0, "lon": -77.034693, "name": "3699eba4b7a6149e77efff3cf7a6326b", "fusion_lon": 0.0}, {"lat": 38.9033085, "fusion_lat": 0.0, "type": "electric_scooter", "bike_id": "f37c95218b890591b7cef254a919e0e0", "is_reserved": 0, "rental_uris": {"ios": "https://dc.lft.to/lastmile_qr_scan", "android": "https://dc.lft.to/lastmile_qr_scan"}, "is_disabled": 0, "lon": -77.05009916666667, "name": "f37c95218b890591b7cef254a919e0e0", "fusion_lon": 0.0}, {"lat": 39.056348166666666, "fusion_lat": 0.0, "type": "electric_bike", "bike_id": "e9741b551949d9060bddb2a453483f24", "is_reserved": 0, "rental_uris": {"ios": "https://dc.lft.to/lastmile_qr_scan", "android": "https://dc.lft.to/lastmile_qr_scan"}, "is_disabled": 0, "lon": -77.12524966666666, "name": "e9741b551949d9060bddb2a453483f24", "fusion_lon": 0.0}, {"lat": 38.898923, "fusion_lat": 0.0, "type": "electric_scooter", "bike_id": "32338c7ff2e0629fa1ffc346f92c5e22", "is_reserved": 0, "rental_uris": {"ios": "https://dc.lft.to/lastmile_qr_scan", "android": "https://dc.lft.to/lastmile_qr_scan"}, "is_disabled": 0, "lon": -77.0198825, "name": "32338c7ff2e0629fa1ffc346f92c5e22", "fusion_lon": 0.0}, {"lat": 38.93710633333333, "fusion_lat": 0.0, "type": "electric_scooter", "bike_id": "3faac9cbe6222d8eca6cd78570849560", "is_reserved": 0, "rental_uris": {"ios": "https://dc.lft.to/lastmile_qr_scan", "android": "https://dc.lft.to/lastmile_qr_scan"}, "is_disabled": 0, "lon": -77.06099583333334, "name": "3faac9cbe6222d8eca6cd78570849560", "fusion_lon": 0.0}, {"lat": 38.966235, "fusion_lat": 0.0, "type": "electric_scooter", "bike_id": "4554ee94b9ee24b45a6545ac28588e5c", "is_reserved": 0, "rental_uris": {"ios": "https://dc.lft.to/lastmile_qr_scan", "android": "https://dc.lft.to/lastmile_qr_scan"}, "is_disabled": 0, "lon": -77.02258033333334, "name": "4554ee94b9ee24b45a6545ac28588e5c", "fusion_lon": 0.0}, {"lat": 38.90822883333333, "fusion_lat": 0.0, "type": "electric_scooter", "bike_id": "49c509c6b99031b50d1735f86421c4a4", "is_reserved": 0, "rental_uris": {"ios": "https://dc.lft.to/lastmile_qr_scan", "android": "https://dc.lft.to/lastmile_qr_scan"}, "is_disabled": 0, "lon": -77.03449683333334, "name": "49c509c6b99031b50d1735f86421c4a4", "fusion_lon": 0.0}, {"lat": 38.90100266666666, "fusion_lat": 0.0, "type": "electric_scooter", "bike_id": "a90b7f4a22d4cbf94f6ed6963a357292", "is_reserved": 0, "rental_uris": {"ios": "https://dc.lft.to/lastmile_qr_scan", "android": "https://dc.lft.to/lastmile_qr_scan"}, "is_disabled": 0, "lon": -77.02803583333333, "name": "a90b7f4a22d4cbf94f6ed6963a357292", "fusion_lon": 0.0}, {"lat": 38.89880016666667, "fusion_lat": 0.0, "type": "electric_scooter", "bike_id": "4304d3d7609644c83f5752701585a14d", "is_reserved": 0, "rental_uris": {"ios": "https://dc.lft.to/lastmile_qr_scan", "android": "https://dc.lft.to/lastmile_qr_scan"}, "is_disabled": 0, "lon": -77.01260566666667, "name": "4304d3d7609644c83f5752701585a14d", "fusion_lon": 0.0}, {"lat": 38.90684483333333, "fusion_lat": 0.0, "type": "electric_scooter", "bike_id": "8c9939d513db1300e01f053df960263f", "is_reserved": 0, "rental_uris": {"ios": "https://dc.lft.to/lastmile_qr_scan", "android": "https://dc.lft.to/lastmile_qr_scan"}, "is_disabled": 0, "lon": -77.07177366666667, "name": "8c9939d513db1300e01f053df960263f", "fusion_lon": 0.0}, {"lat": 38.90028983333333, "fusion_lat": 0.0, "type": "electric_scooter", "bike_id": "7515de4d056d15b4780883b573b66e8d", "is_reserved": 0, "rental_uris": {"ios": "https://dc.lft.to/lastmile_qr_scan", "android": "https://dc.lft.to/lastmile_qr_scan"}, "is_disabled": 0, "lon": -76.98813383333334, "name": "7515de4d056d15b4780883b573b66e8d", "fusion_lon": 0.0}, {"lat": 38.90686483333333, "fusion_lat": 0.0, "type": "electric_scooter", "bike_id": "b66d6399e070d95ee1c4c815430cbb3e", "is_reserved": 0, "rental_uris": {"ios": "https://dc.lft.to/lastmile_qr_scan", "android": "https://dc.lft.to/lastmile_qr_scan"}, "is_disabled": 0, "lon": -77.06339766666666, "name": "b66d6399e070d95ee1c4c815430cbb3e", "fusion_lon": 0.0}, {"lat": 38.89698416666667, "fusion_lat": 0.0, "type": "electric_scooter", "bike_id": "bb5298b8c90ef15850daa3c40bb258be", "is_reserved": 0, "rental_uris": {"ios": "https://dc.lft.to/lastmile_qr_scan", "android": "https://dc.lft.to/lastmile_qr_scan"}, "is_disabled": 0, "lon": -77.050278, "name": "bb5298b8c90ef15850daa3c40bb258be", "fusion_lon": 0.0}, {"lat": 38.91573, "fusion_lat": 0.0, "type": "electric_scooter", "bike_id": "82ec8702ae315e934d4afa642516c6b8", "is_reserved": 0, "rental_uris": {"ios": "https://dc.lft.to/lastmile_qr_scan", "android": "https://dc.lft.to/lastmile_qr_scan"}, "is_disabled": 0, "lon": -77.0124675, "name": "82ec8702ae315e934d4afa642516c6b8", "fusion_lon": 0.0}, {"lat": 38.87629533333333, "fusion_lat": 0.0, "type": "electric_scooter", "bike_id": "569125821b3dfed82b062acdade28858", "is_reserved": 0, "rental_uris": {"ios": "https://dc.lft.to/lastmile_qr_scan", "android": "https://dc.lft.to/lastmile_qr_scan"}, "is_disabled": 0, "lon": -77.0005675, "name": "569125821b3dfed82b062acdade28858", "fusion_lon": 0.0}, {"lat": 38.9009595, "fusion_lat": 0.0, "type": "electric_scooter", "bike_id": "a5ecd3db2d68bd749884b3904f834321", "is_reserved": 0, "rental_uris": {"ios": "https://dc.lft.to/lastmile_qr_scan", "android": "https://dc.lft.to/lastmile_qr_scan"}, "is_disabled": 0, "lon": -77.0305945, "name": "a5ecd3db2d68bd749884b3904f834321", "fusion_lon": 0.0}, {"lat": 38.924526166666666, "fusion_lat": 0.0, "type": "electric_bike", "bike_id": "2c523ecac8200d6ea5cd163e6e416adc", "is_reserved": 0, "rental_uris": {"ios": "https://dc.lft.to/lastmile_qr_scan", "android": "https://dc.lft.to/lastmile_qr_scan"}, "is_disabled": 0, "lon": -77.22569083333333, "name": "2c523ecac8200d6ea5cd163e6e416adc", "fusion_lon": 0.0}, {"lat": 38.91261166666666, "fusion_lat": 0.0, "type": "electric_scooter", "bike_id": "015da820ab9794e19ab3898d737d8bbe", "is_reserved": 0, "rental_uris": {"ios": "https://dc.lft.to/lastmile_qr_scan", "android": "https://dc.lft.to/lastmile_qr_scan"}, "is_disabled": 0, "lon": -77.04464716666666, "name": "015da820ab9794e19ab3898d737d8bbe", "fusion_lon": 0.0}, {"lat": 38.877211333333335, "fusion_lat": 0.0, "type": "electric_scooter", "bike_id": "25497d0a18178d030f37573e6a7053c6", "is_reserved": 0, "rental_uris": {"ios": "https://dc.lft.to/lastmile_qr_scan", "android": "https://dc.lft.to/lastmile_qr_scan"}, "is_disabled": 0, "lon": -77.017614, "name": "25497d0a18178d030f37573e6a7053c6", "fusion_lon": 0.0}, {"lat": 38.93542033333333, "fusion_lat": 0.0, "type": "electric_scooter", "bike_id": "b4304782b285b103f1e14ec4af9d2983", "is_reserved": 0, "rental_uris": {"ios": "https://dc.lft.to/lastmile_qr_scan", "android": "https://dc.lft.to/lastmile_qr_scan"}, "is_disabled": 0, "lon": -77.05826766666667, "name": "b4304782b285b103f1e14ec4af9d2983", "fusion_lon": 0.0}, {"lat": 38.913253166666664, "fusion_lat": 0.0, "type": "electric_scooter", "bike_id": "342f93bb958ae39f3c1c16d869e0a814", "is_reserved": 0, "rental_uris": {"ios": "https://dc.lft.to/lastmile_qr_scan", "android": "https://dc.lft.to/lastmile_qr_scan"}, "is_disabled": 0, "lon": -76.98486433333333, "name": "342f93bb958ae39f3c1c16d869e0a814", "fusion_lon": 0.0}, {"lat": 38.908168, "fusion_lat": 0.0, "type": "electric_scooter", "bike_id": "4f8bf3e678b6f0c8064376f751b50aa7", "is_reserved": 0, "rental_uris": {"ios": "https://dc.lft.to/lastmile_qr_scan", "android": "https://dc.lft.to/lastmile_qr_scan"}, "is_disabled": 0, "lon": -77.03459333333333, "name": "4f8bf3e678b6f0c8064376f751b50aa7", "fusion_lon": 0.0}, {"lat": 38.90441116666667, "fusion_lat": 0.0, "type": "electric_scooter", "bike_id": "4d6f3b14464c12ffec586d8a87690616", "is_reserved": 0, "rental_uris": {"ios": "https://dc.lft.to/lastmile_qr_scan", "android": "https://dc.lft.to/lastmile_qr_scan"}, "is_disabled": 0, "lon": -77.0345265, "name": "4d6f3b14464c12ffec586d8a87690616", "fusion_lon": 0.0}, {"lat": 38.91922, "fusion_lat": 0.0, "type": "electric_scooter", "bike_id": "57027d3feffcd2f425d41ab457441737", "is_reserved": 0, "rental_uris": {"ios": "https://dc.lft.to/lastmile_qr_scan", "android": "https://dc.lft.to/lastmile_qr_scan"}, "is_disabled": 0, "lon": -77.03339083333333, "name": "57027d3feffcd2f425d41ab457441737", "fusion_lon": 0.0}, {"lat": 38.908592666666664, "fusion_lat": 0.0, "type": "electric_scooter", "bike_id": "eed99d3e01c061a22ab8876f171a0014", "is_reserved": 0, "rental_uris": {"ios": "https://dc.lft.to/lastmile_qr_scan", "android": "https://dc.lft.to/lastmile_qr_scan"}, "is_disabled": 0, "lon": -77.03292816666666, "name": "eed99d3e01c061a22ab8876f171a0014", "fusion_lon": 0.0}, {"lat": 38.88135, "fusion_lat": 0.0, "type": "electric_scooter", "bike_id": "512b14ed4785f20e9ce6c23da9f579d4", "is_reserved": 0, "rental_uris": {"ios": "https://dc.lft.to/lastmile_qr_scan", "android": "https://dc.lft.to/lastmile_qr_scan"}, "is_disabled": 0, "lon": -77.01337783333334, "name": "512b14ed4785f20e9ce6c23da9f579d4", "fusion_lon": 0.0}, {"lat": 38.917002333333336, "fusion_lat": 0.0, "type": "electric_scooter", "bike_id": "d1650fa759a523f94fb50bef7fe2e397", "is_reserved": 0, "rental_uris": {"ios": "https://dc.lft.to/lastmile_qr_scan", "android": "https://dc.lft.to/lastmile_qr_scan"}, "is_disabled": 0, "lon": -77.01044883333333, "name": "d1650fa759a523f94fb50bef7fe2e397", "fusion_lon": 0.0}, {"lat": 38.90345683333334, "fusion_lat": 0.0, "type": "electric_scooter", "bike_id": "996381a00b257df3201ee92eb1c9a09d", "is_reserved": 0, "rental_uris": {"ios": "https://dc.lft.to/lastmile_qr_scan", "android": "https://dc.lft.to/lastmile_qr_scan"}, "is_disabled": 0, "lon": -76.99388766666667, "name": "996381a00b257df3201ee92eb1c9a09d", "fusion_lon": 0.0}, {"lat": 38.90505983333333, "fusion_lat": 0.0, "type": "electric_scooter", "bike_id": "700397700f9e21d8c42377dc8f0f1605", "is_reserved": 0, "rental_uris": {"ios": "https://dc.lft.to/lastmile_qr_scan", "android": "https://dc.lft.to/lastmile_qr_scan"}, "is_disabled": 0, "lon": -77.05747633333333, "name": "700397700f9e21d8c42377dc8f0f1605", "fusion_lon": 0.0}, {"lat": 38.903671833333334, "fusion_lat": 0.0, "type": "electric_scooter", "bike_id": "03f79055ce91d3cb662a2f6bcd807ac4", "is_reserved": 0, "rental_uris": {"ios": "https://dc.lft.to/lastmile_qr_scan", "android": "https://dc.lft.to/lastmile_qr_scan"}, "is_disabled": 0, "lon": -77.05302133333333, "name": "03f79055ce91d3cb662a2f6bcd807ac4", "fusion_lon": 0.0}, {"lat": 38.903468333333336, "fusion_lat": 0.0, "type": "electric_bike", "bike_id": "99860a4ede95d9a85abcbfaa1e46c059", "is_reserved": 0, "rental_uris": {"ios": "https://dc.lft.to/lastmile_qr_scan", "android": "https://dc.lft.to/lastmile_qr_scan"}, "is_disabled": 0, "lon": -77.0400735, "name": "99860a4ede95d9a85abcbfaa1e46c059", "fusion_lon": 0.0}, {"lat": 38.92251366666667, "fusion_lat": 0.0, "type": "electric_scooter", "bike_id": "0bdca380e69fac1decebcc5d42f6fb22", "is_reserved": 0, "rental_uris": {"ios": "https://dc.lft.to/lastmile_qr_scan", "android": "https://dc.lft.to/lastmile_qr_scan"}, "is_disabled": 0, "lon": -77.02764933333333, "name": "0bdca380e69fac1decebcc5d42f6fb22", "fusion_lon": 0.0}, {"lat": 38.91341883333333, "fusion_lat": 0.0, "type": "electric_scooter", "bike_id": "262b89383c6e6f203ba0f48f97967e94", "is_reserved": 0, "rental_uris": {"ios": "https://dc.lft.to/lastmile_qr_scan", "android": "https://dc.lft.to/lastmile_qr_scan"}, "is_disabled": 0, "lon": -77.0319555, "name": "262b89383c6e6f203ba0f48f97967e94", "fusion_lon": 0.0}, {"lat": 38.86516483333333, "fusion_lat": 0.0, "type": "electric_scooter", "bike_id": "a7fb730af2913420bc319f60758493aa", "is_reserved": 0, "rental_uris": {"ios": "https://dc.lft.to/lastmile_qr_scan", "android": "https://dc.lft.to/lastmile_qr_scan"}, "is_disabled": 0, "lon": -76.99017, "name": "a7fb730af2913420bc319f60758493aa", "fusion_lon": 0.0}, {"lat": 38.90572983333333, "fusion_lat": 0.0, "type": "electric_scooter", "bike_id": "44ff07315e559282613926ca0b2c92ab", "is_reserved": 0, "rental_uris": {"ios": "https://dc.lft.to/lastmile_qr_scan", "android": "https://dc.lft.to/lastmile_qr_scan"}, "is_disabled": 0, "lon": -77.02603033333334, "name": "44ff07315e559282613926ca0b2c92ab", "fusion_lon": 0.0}, {"lat": 38.915789333333336, "fusion_lat": 0.0, "type": "electric_scooter", "bike_id": "ac6c75c7d9fea70a89328a1542ee9e45", "is_reserved": 0, "rental_uris": {"ios": "https://dc.lft.to/lastmile_qr_scan", "android": "https://dc.lft.to/lastmile_qr_scan"}, "is_disabled": 0, "lon": -77.01230333333334, "name": "ac6c75c7d9fea70a89328a1542ee9e45", "fusion_lon": 0.0}, {"lat": 38.90845916666667, "fusion_lat": 0.0, "type": "electric_scooter", "bike_id": "22e1fe39aaed9662ccc576ae2fa26b87", "is_reserved": 0, "rental_uris": {"ios": "https://dc.lft.to/lastmile_qr_scan", "android": "https://dc.lft.to/lastmile_qr_scan"}, "is_disabled": 0, "lon": -77.04004233333333, "name": "22e1fe39aaed9662ccc576ae2fa26b87", "fusion_lon": 0.0}, {"lat": 38.922556666666665, "fusion_lat": 0.0, "type": "electric_bike", "bike_id": "00b80f056f8bca5e6f6b530478269054", "is_reserved": 0, "rental_uris": {"ios": "https://dc.lft.to/lastmile_qr_scan", "android": "https://dc.lft.to/lastmile_qr_scan"}, "is_disabled": 0, "lon": -77.01948966666667, "name": "00b80f056f8bca5e6f6b530478269054", "fusion_lon": 0.0}, {"lat": 38.891202, "fusion_lat": 0.0, "type": "electric_scooter", "bike_id": "1c7b1706eed7ca377f94f030c1d76aee", "is_reserved": 0, "rental_uris": {"ios": "https://dc.lft.to/lastmile_qr_scan", "android": "https://dc.lft.to/lastmile_qr_scan"}, "is_disabled": 0, "lon": -76.99164716666667, "name": "1c7b1706eed7ca377f94f030c1d76aee", "fusion_lon": 0.0}, {"lat": 38.844324, "fusion_lat": 0.0, "type": "electric_scooter", "bike_id": "457c6d48988e41e31146e4c1f65d0369", "is_reserved": 0, "rental_uris": {"ios": "https://dc.lft.to/lastmile_qr_scan", "android": "https://dc.lft.to/lastmile_qr_scan"}, "is_disabled": 0, "lon": -76.9977445, "name": "457c6d48988e41e31146e4c1f65d0369", "fusion_lon": 0.0}, {"lat": 38.89230366666666, "fusion_lat": 0.0, "type": "electric_scooter", "bike_id": "f449d35bca285d49efbda6c9ff8a59eb", "is_reserved": 0, "rental_uris": {"ios": "https://dc.lft.to/lastmile_qr_scan", "android": "https://dc.lft.to/lastmile_qr_scan"}, "is_disabled": 0, "lon": -77.0500375, "name": "f449d35bca285d49efbda6c9ff8a59eb", "fusion_lon": 0.0}, {"lat": 38.9198805, "fusion_lat": 0.0, "type": "electric_scooter", "bike_id": "0ca9335a5da15f9fc8f2b166d3e6bc31", "is_reserved": 0, "rental_uris": {"ios": "https://dc.lft.to/lastmile_qr_scan", "android": "https://dc.lft.to/lastmile_qr_scan"}, "is_disabled": 0, "lon": -77.02500216666667, "name": "0ca9335a5da15f9fc8f2b166d3e6bc31", "fusion_lon": 0.0}, {"lat": 38.91895, "fusion_lat": 0.0, "type": "electric_scooter", "bike_id": "edb7157ad7f9a8dabb85b6a97b34bdd9", "is_reserved": 0, "rental_uris": {"ios": "https://dc.lft.to/lastmile_qr_scan", "android": "https://dc.lft.to/lastmile_qr_scan"}, "is_disabled": 0, "lon": -77.0462065, "name": "edb7157ad7f9a8dabb85b6a97b34bdd9", "fusion_lon": 0.0}, {"lat": 38.9395685, "fusion_lat": 0.0, "type": "electric_scooter", "bike_id": "66a86eb9fd278480ff5e4184d569f19c", "is_reserved": 0, "rental_uris": {"ios": "https://dc.lft.to/lastmile_qr_scan", "android": "https://dc.lft.to/lastmile_qr_scan"}, "is_disabled": 0, "lon": -77.07248233333334, "name": "66a86eb9fd278480ff5e4184d569f19c", "fusion_lon": 0.0}, {"lat": 38.923581166666665, "fusion_lat": 0.0, "type": "electric_bike", "bike_id": "b91a3921672870a1245e2e374d544326", "is_reserved": 0, "rental_uris": {"ios": "https://dc.lft.to/lastmile_qr_scan", "android": "https://dc.lft.to/lastmile_qr_scan"}, "is_disabled": 0, "lon": -76.97136616666667, "name": "b91a3921672870a1245e2e374d544326", "fusion_lon": 0.0}, {"lat": 38.905763666666665, "fusion_lat": 0.0, "type": "electric_scooter", "bike_id": "68f311b3facda98c39499b6aba1b0f12", "is_reserved": 0, "rental_uris": {"ios": "https://dc.lft.to/lastmile_qr_scan", "android": "https://dc.lft.to/lastmile_qr_scan"}, "is_disabled": 0, "lon": -77.00022633333333, "name": "68f311b3facda98c39499b6aba1b0f12", "fusion_lon": 0.0}, {"lat": 38.90095516666667, "fusion_lat": 0.0, "type": "electric_scooter", "bike_id": "b3d84e3994b210cc105dc7b4be2c4d3f", "is_reserved": 0, "rental_uris": {"ios": "https://dc.lft.to/lastmile_qr_scan", "android": "https://dc.lft.to/lastmile_qr_scan"}, "is_disabled": 0, "lon": -77.03862783333334, "name": "b3d84e3994b210cc105dc7b4be2c4d3f", "fusion_lon": 0.0}, {"lat": 38.922749333333336, "fusion_lat": 0.0, "type": "electric_scooter", "bike_id": "f77b23974a99221d281d0cd3e64deb72", "is_reserved": 0, "rental_uris": {"ios": "https://dc.lft.to/lastmile_qr_scan", "android": "https://dc.lft.to/lastmile_qr_scan"}, "is_disabled": 0, "lon": -77.04470966666666, "name": "f77b23974a99221d281d0cd3e64deb72", "fusion_lon": 0.0}, {"lat": 38.87839183333333, "fusion_lat": 0.0, "type": "electric_scooter", "bike_id": "3c20f57c8b848d6bc0ee88a98f8fc494", "is_reserved": 0, "rental_uris": {"ios": "https://dc.lft.to/lastmile_qr_scan", "android": "https://dc.lft.to/lastmile_qr_scan"}, "is_disabled": 0, "lon": -77.019701, "name": "3c20f57c8b848d6bc0ee88a98f8fc494", "fusion_lon": 0.0}, {"lat": 38.9104645, "fusion_lat": 0.0, "type": "electric_scooter", "bike_id": "df6e03dc662e8ea3c870bc0d9a2b2707", "is_reserved": 0, "rental_uris": {"ios": "https://dc.lft.to/lastmile_qr_scan", "android": "https://dc.lft.to/lastmile_qr_scan"}, "is_disabled": 0, "lon": -77.03842816666666, "name": "df6e03dc662e8ea3c870bc0d9a2b2707", "fusion_lon": 0.0}, {"lat": 38.91720883333333, "fusion_lat": 0.0, "type": "electric_scooter", "bike_id": "c57870eb4808550da146e4a9f3cf05b8", "is_reserved": 0, "rental_uris": {"ios": "https://dc.lft.to/lastmile_qr_scan", "android": "https://dc.lft.to/lastmile_qr_scan"}, "is_disabled": 0, "lon": -77.0297265, "name": "c57870eb4808550da146e4a9f3cf05b8", "fusion_lon": 0.0}, {"lat": 38.917031333333334, "fusion_lat": 0.0, "type": "electric_scooter", "bike_id": "a2271ea1024551a71b33738032ef0bd9", "is_reserved": 0, "rental_uris": {"ios": "https://dc.lft.to/lastmile_qr_scan", "android": "https://dc.lft.to/lastmile_qr_scan"}, "is_disabled": 0, "lon": -77.02938, "name": "a2271ea1024551a71b33738032ef0bd9", "fusion_lon": 0.0}, {"lat": 38.9133875, "fusion_lat": 0.0, "type": "electric_scooter", "bike_id": "268a778ca242a6eecb1d97f1ab9f44fb", "is_reserved": 0, "rental_uris": {"ios": "https://dc.lft.to/lastmile_qr_scan", "android": "https://dc.lft.to/lastmile_qr_scan"}, "is_disabled": 0, "lon": -77.03197333333334, "name": "268a778ca242a6eecb1d97f1ab9f44fb", "fusion_lon": 0.0}, {"lat": 38.90767916666667, "fusion_lat": 0.0, "type": "electric_scooter", "bike_id": "875652ba8fd094d298bd8229744369ec", "is_reserved": 0, "rental_uris": {"ios": "https://dc.lft.to/lastmile_qr_scan", "android": "https://dc.lft.to/lastmile_qr_scan"}, "is_disabled": 0, "lon": -77.03197516666667, "name": "875652ba8fd094d298bd8229744369ec", "fusion_lon": 0.0}, {"lat": 38.902485166666665, "fusion_lat": 0.0, "type": "electric_scooter", "bike_id": "417f3e07a79231c7322f244cc7bada62", "is_reserved": 0, "rental_uris": {"ios": "https://dc.lft.to/lastmile_qr_scan", "android": "https://dc.lft.to/lastmile_qr_scan"}, "is_disabled": 0, "lon": -77.0176105, "name": "417f3e07a79231c7322f244cc7bada62", "fusion_lon": 0.0}, {"lat": 38.928565666666664, "fusion_lat": 0.0, "type": "electric_scooter", "bike_id": "479689c217e965a0dec75f7e9bfd0efd", "is_reserved": 0, "rental_uris": {"ios": "https://dc.lft.to/lastmile_qr_scan", "android": "https://dc.lft.to/lastmile_qr_scan"}, "is_disabled": 0, "lon": -77.023261, "name": "479689c217e965a0dec75f7e9bfd0efd", "fusion_lon": 0.0}, {"lat": 38.85353533333333, "fusion_lat": 0.0, "type": "electric_bike", "bike_id": "afe0532b47f66b13408deb19ded523f2", "is_reserved": 0, "rental_uris": {"ios": "https://dc.lft.to/lastmile_qr_scan", "android": "https://dc.lft.to/lastmile_qr_scan"}, "is_disabled": 0, "lon": -77.13467333333334, "name": "afe0532b47f66b13408deb19ded523f2", "fusion_lon": 0.0}, {"lat": 38.888159333333334, "fusion_lat": 0.0, "type": "electric_scooter", "bike_id": "111aab0dbf535df5e55af679aeefa1ec", "is_reserved": 0, "rental_uris": {"ios": "https://dc.lft.to/lastmile_qr_scan", "android": "https://dc.lft.to/lastmile_qr_scan"}, "is_disabled": 0, "lon": -76.93344566666667, "name": "111aab0dbf535df5e55af679aeefa1ec", "fusion_lon": 0.0}, {"lat": 38.885607, "fusion_lat": 0.0, "type": "electric_scooter", "bike_id": "e486b47ba3850f81564cb4f5836c0976", "is_reserved": 0, "rental_uris": {"ios": "https://dc.lft.to/lastmile_qr_scan", "android": "https://dc.lft.to/lastmile_qr_scan"}, "is_disabled": 0, "lon": -77.01997583333333, "name": "e486b47ba3850f81564cb4f5836c0976", "fusion_lon": 0.0}, {"lat": 38.8973685, "fusion_lat": 0.0, "type": "electric_scooter", "bike_id": "c8916828e0e1025154fc9982efb12761", "is_reserved": 0, "rental_uris": {"ios": "https://dc.lft.to/lastmile_qr_scan", "android": "https://dc.lft.to/lastmile_qr_scan"}, "is_disabled": 0, "lon": -77.04292716666667, "name": "c8916828e0e1025154fc9982efb12761", "fusion_lon": 0.0}, {"lat": 38.910400333333335, "fusion_lat": 0.0, "type": "electric_scooter", "bike_id": "8dfd5da9b57b5ef7e733f7cc04b1b5f6", "is_reserved": 0, "rental_uris": {"ios": "https://dc.lft.to/lastmile_qr_scan", "android": "https://dc.lft.to/lastmile_qr_scan"}, "is_disabled": 0, "lon": -77.01621033333333, "name": "8dfd5da9b57b5ef7e733f7cc04b1b5f6", "fusion_lon": 0.0}, {"lat": 38.90842333333333, "fusion_lat": 0.0, "type": "electric_scooter", "bike_id": "f4c943d4e5882229a54e5d914d177998", "is_reserved": 0, "rental_uris": {"ios": "https://dc.lft.to/lastmile_qr_scan", "android": "https://dc.lft.to/lastmile_qr_scan"}, "is_disabled": 0, "lon": -77.04008, "name": "f4c943d4e5882229a54e5d914d177998", "fusion_lon": 0.0}, {"lat": 38.8446015, "fusion_lat": 0.0, "type": "electric_bike", "bike_id": "d577fac762537bef3d66b956ee1aa283", "is_reserved": 0, "rental_uris": {"ios": "https://dc.lft.to/lastmile_qr_scan", "android": "https://dc.lft.to/lastmile_qr_scan"}, "is_disabled": 0, "lon": -76.9875545, "name": "d577fac762537bef3d66b956ee1aa283", "fusion_lon": 0.0}, {"lat": 38.920375, "fusion_lat": 0.0, "type": "electric_scooter", "bike_id": "97fb3195a95b1bafadbd3cc8ba12b720", "is_reserved": 0, "rental_uris": {"ios": "https://dc.lft.to/lastmile_qr_scan", "android": "https://dc.lft.to/lastmile_qr_scan"}, "is_disabled": 0, "lon": -77.01223533333334, "name": "97fb3195a95b1bafadbd3cc8ba12b720", "fusion_lon": 0.0}, {"lat": 38.905763666666665, "fusion_lat": 0.0, "type": "electric_scooter", "bike_id": "da4fb9123d4167e8959c26346a4ce32d", "is_reserved": 0, "rental_uris": {"ios": "https://dc.lft.to/lastmile_qr_scan", "android": "https://dc.lft.to/lastmile_qr_scan"}, "is_disabled": 0, "lon": -77.022105, "name": "da4fb9123d4167e8959c26346a4ce32d", "fusion_lon": 0.0}, {"lat": 38.907138833333335, "fusion_lat": 0.0, "type": "electric_scooter", "bike_id": "38c35205e816150e7d0f3fec8c19955a", "is_reserved": 0, "rental_uris": {"ios": "https://dc.lft.to/lastmile_qr_scan", "android": "https://dc.lft.to/lastmile_qr_scan"}, "is_disabled": 0, "lon": -77.032088, "name": "38c35205e816150e7d0f3fec8c19955a", "fusion_lon": 0.0}, {"lat": 38.90414, "fusion_lat": 0.0, "type": "electric_scooter", "bike_id": "0890bccc75fca4e8b08612bba149abfc", "is_reserved": 0, "rental_uris": {"ios": "https://dc.lft.to/lastmile_qr_scan", "android": "https://dc.lft.to/lastmile_qr_scan"}, "is_disabled": 0, "lon": -76.973291, "name": "0890bccc75fca4e8b08612bba149abfc", "fusion_lon": 0.0}, {"lat": 38.873015, "fusion_lat": 0.0, "type": "electric_bike", "bike_id": "956dd4ae5c2affea11c9951c1b2a83a0", "is_reserved": 0, "rental_uris": {"ios": "https://dc.lft.to/lastmile_qr_scan", "android": "https://dc.lft.to/lastmile_qr_scan"}, "is_disabled": 0, "lon": -76.96979533333334, "name": "956dd4ae5c2affea11c9951c1b2a83a0", "fusion_lon": 0.0}, {"lat": 38.9498695, "fusion_lat": 0.0, "type": "electric_scooter", "bike_id": "1099d720943f941672ede8131686239c", "is_reserved": 0, "rental_uris": {"ios": "https://dc.lft.to/lastmile_qr_scan", "android": "https://dc.lft.to/lastmile_qr_scan"}, "is_disabled": 0, "lon": -77.02704316666667, "name": "1099d720943f941672ede8131686239c", "fusion_lon": 0.0}, {"lat": 38.921919833333334, "fusion_lat": 0.0, "type": "electric_scooter", "bike_id": "ddb52d2b43304068048cbde4e9bcbfa3", "is_reserved": 0, "rental_uris": {"ios": "https://dc.lft.to/lastmile_qr_scan", "android": "https://dc.lft.to/lastmile_qr_scan"}, "is_disabled": 0, "lon": -76.99622083333334, "name": "ddb52d2b43304068048cbde4e9bcbfa3", "fusion_lon": 0.0}, {"lat": 38.881825666666664, "fusion_lat": 0.0, "type": "electric_scooter", "bike_id": "c6c9b123523a4579500d9a7d1ce63167", "is_reserved": 0, "rental_uris": {"ios": "https://dc.lft.to/lastmile_qr_scan", "android": "https://dc.lft.to/lastmile_qr_scan"}, "is_disabled": 0, "lon": -77.0357435, "name": "c6c9b123523a4579500d9a7d1ce63167", "fusion_lon": 0.0}, {"lat": 38.87826733333333, "fusion_lat": 0.0, "type": "electric_scooter", "bike_id": "a06bf1bf046360fd4c817eb26bfe0055", "is_reserved": 0, "rental_uris": {"ios": "https://dc.lft.to/lastmile_qr_scan", "android": "https://dc.lft.to/lastmile_qr_scan"}, "is_disabled": 0, "lon": -76.93107166666667, "name": "a06bf1bf046360fd4c817eb26bfe0055", "fusion_lon": 0.0}, {"lat": 38.83143283333333, "fusion_lat": 0.0, "type": "electric_scooter", "bike_id": "29acb7aaf54cf6e58a356ee3e6e82251", "is_reserved": 0, "rental_uris": {"ios": "https://dc.lft.to/lastmile_qr_scan", "android": "https://dc.lft.to/lastmile_qr_scan"}, "is_disabled": 0, "lon": -77.05130916666667, "name": "29acb7aaf54cf6e58a356ee3e6e82251", "fusion_lon": 0.0}, {"lat": 38.91863683333333, "fusion_lat": 0.0, "type": "electric_scooter", "bike_id": "5ebdf2025fdc233a615147de9e767f2c", "is_reserved": 0, "rental_uris": {"ios": "https://dc.lft.to/lastmile_qr_scan", "android": "https://dc.lft.to/lastmile_qr_scan"}, "is_disabled": 0, "lon": -77.04177483333333, "name": "5ebdf2025fdc233a615147de9e767f2c", "fusion_lon": 0.0}, {"lat": 38.9098575, "fusion_lat": 0.0, "type": "electric_scooter", "bike_id": "12d15f7400d5683477f99d77471a5fc7", "is_reserved": 0, "rental_uris": {"ios": "https://dc.lft.to/lastmile_qr_scan", "android": "https://dc.lft.to/lastmile_qr_scan"}, "is_disabled": 0, "lon": -77.0336505, "name": "12d15f7400d5683477f99d77471a5fc7", "fusion_lon": 0.0}, {"lat": 38.8794055, "fusion_lat": 0.0, "type": "electric_scooter", "bike_id": "4f018e3d40005c1ab1e52e31f9038ff4", "is_reserved": 0, "rental_uris": {"ios": "https://dc.lft.to/lastmile_qr_scan", "android": "https://dc.lft.to/lastmile_qr_scan"}, "is_disabled": 0, "lon": -77.000631, "name": "4f018e3d40005c1ab1e52e31f9038ff4", "fusion_lon": 0.0}, {"lat": 38.899645, "fusion_lat": 0.0, "type": "electric_bike", "bike_id": "3b787c32c9564bd5175ce400ef8ac173", "is_reserved": 0, "rental_uris": {"ios": "https://dc.lft.to/lastmile_qr_scan", "android": "https://dc.lft.to/lastmile_qr_scan"}, "is_disabled": 0, "lon": -76.986695, "name": "3b787c32c9564bd5175ce400ef8ac173", "fusion_lon": 0.0}, {"lat": 38.90737166666667, "fusion_lat": 0.0, "type": "electric_scooter", "bike_id": "6318b219a4177d6a6919d1d54c31a7bd", "is_reserved": 0, "rental_uris": {"ios": "https://dc.lft.to/lastmile_qr_scan", "android": "https://dc.lft.to/lastmile_qr_scan"}, "is_disabled": 0, "lon": -76.97968566666667, "name": "6318b219a4177d6a6919d1d54c31a7bd", "fusion_lon": 0.0}, {"lat": 38.9276925, "fusion_lat": 0.0, "type": "electric_bike", "bike_id": "6078fce1f149a2276c5a0ccfb83a8260", "is_reserved": 0, "rental_uris": {"ios": "https://dc.lft.to/lastmile_qr_scan", "android": "https://dc.lft.to/lastmile_qr_scan"}, "is_disabled": 0, "lon": -77.07011383333334, "name": "6078fce1f149a2276c5a0ccfb83a8260", "fusion_lon": 0.0}, {"lat": 38.86388866666667, "fusion_lat": 0.0, "type": "electric_scooter", "bike_id": "dfce419388ba704914a84a6bbdd6b8f8", "is_reserved": 0, "rental_uris": {"ios": "https://dc.lft.to/lastmile_qr_scan", "android": "https://dc.lft.to/lastmile_qr_scan"}, "is_disabled": 0, "lon": -76.99044516666666, "name": "dfce419388ba704914a84a6bbdd6b8f8", "fusion_lon": 0.0}, {"lat": 38.9057685, "fusion_lat": 0.0, "type": "electric_scooter", "bike_id": "766f7b7c94961faae9ad4431151a9aad", "is_reserved": 0, "rental_uris": {"ios": "https://dc.lft.to/lastmile_qr_scan", "android": "https://dc.lft.to/lastmile_qr_scan"}, "is_disabled": 0, "lon": -77.0419505, "name": "766f7b7c94961faae9ad4431151a9aad", "fusion_lon": 0.0}, {"lat": 38.80123566666666, "fusion_lat": 0.0, "type": "electric_bike", "bike_id": "e6e18ce1bec46bc0897ba383e61c7b48", "is_reserved": 0, "rental_uris": {"ios": "https://dc.lft.to/lastmile_qr_scan", "android": "https://dc.lft.to/lastmile_qr_scan"}, "is_disabled": 0, "lon": -77.07050716666667, "name": "e6e18ce1bec46bc0897ba383e61c7b48", "fusion_lon": 0.0}, {"lat": 38.90761883333333, "fusion_lat": 0.0, "type": "electric_scooter", "bike_id": "dcb9f6c750986b829ce2584672793f81", "is_reserved": 0, "rental_uris": {"ios": "https://dc.lft.to/lastmile_qr_scan", "android": "https://dc.lft.to/lastmile_qr_scan"}, "is_disabled": 0, "lon": -77.03181516666666, "name": "dcb9f6c750986b829ce2584672793f81", "fusion_lon": 0.0}, {"lat": 38.9647305, "fusion_lat": 0.0, "type": "electric_bike", "bike_id": "7ba3ad40352c66be5416dd62c0b29bc0", "is_reserved": 0, "rental_uris": {"ios": "https://dc.lft.to/lastmile_qr_scan", "android": "https://dc.lft.to/lastmile_qr_scan"}, "is_disabled": 0, "lon": -77.0356175, "name": "7ba3ad40352c66be5416dd62c0b29bc0", "fusion_lon": 0.0}, {"lat": 38.90084983333333, "fusion_lat": 0.0, "type": "electric_scooter", "bike_id": "130f1b6fa92886818f8e16f9f40843f0", "is_reserved": 0, "rental_uris": {"ios": "https://dc.lft.to/lastmile_qr_scan", "android": "https://dc.lft.to/lastmile_qr_scan"}, "is_disabled": 0, "lon": -77.04746766666666, "name": "130f1b6fa92886818f8e16f9f40843f0", "fusion_lon": 0.0}, {"lat": 38.92910066666666, "fusion_lat": 0.0, "type": "electric_scooter", "bike_id": "78b986418951aefd1bab78295946ac79", "is_reserved": 0, "rental_uris": {"ios": "https://dc.lft.to/lastmile_qr_scan", "android": "https://dc.lft.to/lastmile_qr_scan"}, "is_disabled": 0, "lon": -77.016372, "name": "78b986418951aefd1bab78295946ac79", "fusion_lon": 0.0}, {"lat": 38.91096983333333, "fusion_lat": 0.0, "type": "electric_scooter", "bike_id": "90b43aeefe19ad1ed10fe69d8b3ccb6a", "is_reserved": 0, "rental_uris": {"ios": "https://dc.lft.to/lastmile_qr_scan", "android": "https://dc.lft.to/lastmile_qr_scan"}, "is_disabled": 0, "lon": -77.03840616666666, "name": "90b43aeefe19ad1ed10fe69d8b3ccb6a", "fusion_lon": 0.0}, {"lat": 38.90669916666667, "fusion_lat": 0.0, "type": "electric_scooter", "bike_id": "bf71b22a8a148cfe3b56b54c845c3adb", "is_reserved": 0, "rental_uris": {"ios": "https://dc.lft.to/lastmile_qr_scan", "android": "https://dc.lft.to/lastmile_qr_scan"}, "is_disabled": 0, "lon": -77.027095, "name": "bf71b22a8a148cfe3b56b54c845c3adb", "fusion_lon": 0.0}, {"lat": 38.8727705, "fusion_lat": 0.0, "type": "electric_bike", "bike_id": "5a6c611495e53a1d27289becf316b97d", "is_reserved": 0, "rental_uris": {"ios": "https://dc.lft.to/lastmile_qr_scan", "android": "https://dc.lft.to/lastmile_qr_scan"}, "is_disabled": 0, "lon": -77.23336116666667, "name": "5a6c611495e53a1d27289becf316b97d", "fusion_lon": 0.0}, {"lat": 38.908287, "fusion_lat": 0.0, "type": "electric_scooter", "bike_id": "f172f8780aff554ac457508ff873cc3f", "is_reserved": 0, "rental_uris": {"ios": "https://dc.lft.to/lastmile_qr_scan", "android": "https://dc.lft.to/lastmile_qr_scan"}, "is_disabled": 0, "lon": -76.94160416666666, "name": "f172f8780aff554ac457508ff873cc3f", "fusion_lon": 0.0}, {"lat": 38.9074105, "fusion_lat": 0.0, "type": "electric_scooter", "bike_id": "857ebd561d6155dd0c3f8e653707ea0d", "is_reserved": 0, "rental_uris": {"ios": "https://dc.lft.to/lastmile_qr_scan", "android": "https://dc.lft.to/lastmile_qr_scan"}, "is_disabled": 0, "lon": -77.03481866666667, "name": "857ebd561d6155dd0c3f8e653707ea0d", "fusion_lon": 0.0}, {"lat": 38.92732133333333, "fusion_lat": 0.0, "type": "electric_scooter", "bike_id": "27c3d9f6800335ccdbde55095d0a6f16", "is_reserved": 0, "rental_uris": {"ios": "https://dc.lft.to/lastmile_qr_scan", "android": "https://dc.lft.to/lastmile_qr_scan"}, "is_disabled": 0, "lon": -77.039814, "name": "27c3d9f6800335ccdbde55095d0a6f16", "fusion_lon": 0.0}, {"lat": 38.90041883333333, "fusion_lat": 0.0, "type": "electric_scooter", "bike_id": "e55947a147be34ad20ae5f7850279cd9", "is_reserved": 0, "rental_uris": {"ios": "https://dc.lft.to/lastmile_qr_scan", "android": "https://dc.lft.to/lastmile_qr_scan"}, "is_disabled": 0, "lon": -77.00186616666667, "name": "e55947a147be34ad20ae5f7850279cd9", "fusion_lon": 0.0}, {"lat": 38.91381116666667, "fusion_lat": 0.0, "type": "electric_scooter", "bike_id": "30d43c3a5018d1a474580afc9301869f", "is_reserved": 0, "rental_uris": {"ios": "https://dc.lft.to/lastmile_qr_scan", "android": "https://dc.lft.to/lastmile_qr_scan"}, "is_disabled": 0, "lon": -77.04141983333334, "name": "30d43c3a5018d1a474580afc9301869f", "fusion_lon": 0.0}, {"lat": 38.92240533333333, "fusion_lat": 0.0, "type": "electric_scooter", "bike_id": "d8ce9c2d5504d1e9d744b8caf7925a83", "is_reserved": 0, "rental_uris": {"ios": "https://dc.lft.to/lastmile_qr_scan", "android": "https://dc.lft.to/lastmile_qr_scan"}, "is_disabled": 0, "lon": -77.03901916666666, "name": "d8ce9c2d5504d1e9d744b8caf7925a83", "fusion_lon": 0.0}, {"lat": 38.921330166666664, "fusion_lat": 0.0, "type": "electric_scooter", "bike_id": "fd15d3a46c14c952dbab52651817c81f", "is_reserved": 0, "rental_uris": {"ios": "https://dc.lft.to/lastmile_qr_scan", "android": "https://dc.lft.to/lastmile_qr_scan"}, "is_disabled": 0, "lon": -77.0252125, "name": "fd15d3a46c14c952dbab52651817c81f", "fusion_lon": 0.0}, {"lat": 38.899755166666665, "fusion_lat": 0.0, "type": "electric_scooter", "bike_id": "48b9ed315356b05dd17293ca3ffa561e", "is_reserved": 0, "rental_uris": {"ios": "https://dc.lft.to/lastmile_qr_scan", "android": "https://dc.lft.to/lastmile_qr_scan"}, "is_disabled": 0, "lon": -77.05264833333334, "name": "48b9ed315356b05dd17293ca3ffa561e", "fusion_lon": 0.0}, {"lat": 38.940903666666664, "fusion_lat": 0.0, "type": "electric_bike", "bike_id": "35bb4c1ff72d74a364f7dd12084eee97", "is_reserved": 0, "rental_uris": {"ios": "https://dc.lft.to/lastmile_qr_scan", "android": "https://dc.lft.to/lastmile_qr_scan"}, "is_disabled": 0, "lon": -77.08950766666666, "name": "35bb4c1ff72d74a364f7dd12084eee97", "fusion_lon": 0.0}, {"lat": 38.900286, "fusion_lat": 0.0, "type": "electric_scooter", "bike_id": "c9c074e8d0ff4c495bb672e8a019dd62", "is_reserved": 0, "rental_uris": {"ios": "https://dc.lft.to/lastmile_qr_scan", "android": "https://dc.lft.to/lastmile_qr_scan"}, "is_disabled": 0, "lon": -77.0009415, "name": "c9c074e8d0ff4c495bb672e8a019dd62", "fusion_lon": 0.0}, {"lat": 38.902173833333336, "fusion_lat": 0.0, "type": "electric_scooter", "bike_id": "31a5105cf5073c5f1ab1f14b4d3a5783", "is_reserved": 0, "rental_uris": {"ios": "https://dc.lft.to/lastmile_qr_scan", "android": "https://dc.lft.to/lastmile_qr_scan"}, "is_disabled": 0, "lon": -77.06116783333333, "name": "31a5105cf5073c5f1ab1f14b4d3a5783", "fusion_lon": 0.0}, {"lat": 38.91184533333333, "fusion_lat": 0.0, "type": "electric_scooter", "bike_id": "2cd87ed5899436320561343555715228", "is_reserved": 0, "rental_uris": {"ios": "https://dc.lft.to/lastmile_qr_scan", "android": "https://dc.lft.to/lastmile_qr_scan"}, "is_disabled": 0, "lon": -77.03283983333333, "name": "2cd87ed5899436320561343555715228", "fusion_lon": 0.0}, {"lat": 38.903342, "fusion_lat": 0.0, "type": "electric_scooter", "bike_id": "9b1eab67f3f4412a3023bbc61b305bc0", "is_reserved": 0, "rental_uris": {"ios": "https://dc.lft.to/lastmile_qr_scan", "android": "https://dc.lft.to/lastmile_qr_scan"}, "is_disabled": 0, "lon": -76.97589233333333, "name": "9b1eab67f3f4412a3023bbc61b305bc0", "fusion_lon": 0.0}, {"lat": 38.917072, "fusion_lat": 0.0, "type": "electric_scooter", "bike_id": "f450b0c2f801c255af7f5b075fc1829a", "is_reserved": 0, "rental_uris": {"ios": "https://dc.lft.to/lastmile_qr_scan", "android": "https://dc.lft.to/lastmile_qr_scan"}, "is_disabled": 0, "lon": -77.041754, "name": "f450b0c2f801c255af7f5b075fc1829a", "fusion_lon": 0.0}, {"lat": 38.870732, "fusion_lat": 0.0, "type": "electric_scooter", "bike_id": "fb604a945d7e81f1ca91c8141e7dcecc", "is_reserved": 0, "rental_uris": {"ios": "https://dc.lft.to/lastmile_qr_scan", "android": "https://dc.lft.to/lastmile_qr_scan"}, "is_disabled": 0, "lon": -76.9893275, "name": "fb604a945d7e81f1ca91c8141e7dcecc", "fusion_lon": 0.0}, {"lat": 38.923864, "fusion_lat": 0.0, "type": "electric_scooter", "bike_id": "695c9a0df36cd3e6277d0ac2746fa5b5", "is_reserved": 0, "rental_uris": {"ios": "https://dc.lft.to/lastmile_qr_scan", "android": "https://dc.lft.to/lastmile_qr_scan"}, "is_disabled": 0, "lon": -77.04316766666666, "name": "695c9a0df36cd3e6277d0ac2746fa5b5", "fusion_lon": 0.0}, {"lat": 38.91422683333333, "fusion_lat": 0.0, "type": "electric_scooter", "bike_id": "3273f651c668343889cc71909cdc249d", "is_reserved": 0, "rental_uris": {"ios": "https://dc.lft.to/lastmile_qr_scan", "android": "https://dc.lft.to/lastmile_qr_scan"}, "is_disabled": 0, "lon": -77.03444833333333, "name": "3273f651c668343889cc71909cdc249d", "fusion_lon": 0.0}, {"lat": 38.928256833333336, "fusion_lat": 0.0, "type": "electric_scooter", "bike_id": "f31772c3348061cc04c80bc5f8fe5efb", "is_reserved": 0, "rental_uris": {"ios": "https://dc.lft.to/lastmile_qr_scan", "android": "https://dc.lft.to/lastmile_qr_scan"}, "is_disabled": 0, "lon": -77.02256466666667, "name": "f31772c3348061cc04c80bc5f8fe5efb", "fusion_lon": 0.0}, {"lat": 38.896722, "fusion_lat": 0.0, "type": "electric_scooter", "bike_id": "c0d7123c645018bfe0456a0f746a4d29", "is_reserved": 0, "rental_uris": {"ios": "https://dc.lft.to/lastmile_qr_scan", "android": "https://dc.lft.to/lastmile_qr_scan"}, "is_disabled": 0, "lon": -76.98818116666666, "name": "c0d7123c645018bfe0456a0f746a4d29", "fusion_lon": 0.0}, {"lat": 38.906854833333334, "fusion_lat": 0.0, "type": "electric_scooter", "bike_id": "db87eccf7a7909fbda2c7eed2dd6b4e2", "is_reserved": 0, "rental_uris": {"ios": "https://dc.lft.to/lastmile_qr_scan", "android": "https://dc.lft.to/lastmile_qr_scan"}, "is_disabled": 0, "lon": -77.07154566666667, "name": "db87eccf7a7909fbda2c7eed2dd6b4e2", "fusion_lon": 0.0}, {"lat": 38.9210565, "fusion_lat": 0.0, "type": "electric_scooter", "bike_id": "c2c9784f9070b3f8a5fb20d4d4fdd2f1", "is_reserved": 0, "rental_uris": {"ios": "https://dc.lft.to/lastmile_qr_scan", "android": "https://dc.lft.to/lastmile_qr_scan"}, "is_disabled": 0, "lon": -77.03049116666666, "name": "c2c9784f9070b3f8a5fb20d4d4fdd2f1", "fusion_lon": 0.0}, {"lat": 38.91961633333333, "fusion_lat": 0.0, "type": "electric_scooter", "bike_id": "83c83754ad59c34b88510338f5d2fa7a", "is_reserved": 0, "rental_uris": {"ios": "https://dc.lft.to/lastmile_qr_scan", "android": "https://dc.lft.to/lastmile_qr_scan"}, "is_disabled": 0, "lon": -77.03210683333333, "name": "83c83754ad59c34b88510338f5d2fa7a", "fusion_lon": 0.0}, {"lat": 38.9136845, "fusion_lat": 0.0, "type": "electric_scooter", "bike_id": "ad6ca2d4a0cba292f12a6f2a5e0267ae", "is_reserved": 0, "rental_uris": {"ios": "https://dc.lft.to/lastmile_qr_scan", "android": "https://dc.lft.to/lastmile_qr_scan"}, "is_disabled": 0, "lon": -77.04492766666667, "name": "ad6ca2d4a0cba292f12a6f2a5e0267ae", "fusion_lon": 0.0}, {"lat": 38.90480183333333, "fusion_lat": 0.0, "type": "electric_scooter", "bike_id": "534dfa09cad8160afb321ffa861db170", "is_reserved": 0, "rental_uris": {"ios": "https://dc.lft.to/lastmile_qr_scan", "android": "https://dc.lft.to/lastmile_qr_scan"}, "is_disabled": 0, "lon": -77.05336766666667, "name": "534dfa09cad8160afb321ffa861db170", "fusion_lon": 0.0}, {"lat": 38.90565483333334, "fusion_lat": 0.0, "type": "electric_scooter", "bike_id": "7c1cd07bd42096385852d24af0e5ea6f", "is_reserved": 0, "rental_uris": {"ios": "https://dc.lft.to/lastmile_qr_scan", "android": "https://dc.lft.to/lastmile_qr_scan"}, "is_disabled": 0, "lon": -77.0447725, "name": "7c1cd07bd42096385852d24af0e5ea6f", "fusion_lon": 0.0}, {"lat": 38.90551583333333, "fusion_lat": 0.0, "type": "electric_scooter", "bike_id": "b5c7002093c43ef4824005d2c450d35a", "is_reserved": 0, "rental_uris": {"ios": "https://dc.lft.to/lastmile_qr_scan", "android": "https://dc.lft.to/lastmile_qr_scan"}, "is_disabled": 0, "lon": -77.04645833333333, "name": "b5c7002093c43ef4824005d2c450d35a", "fusion_lon": 0.0}, {"lat": 38.93221416666667, "fusion_lat": 0.0, "type": "electric_scooter", "bike_id": "c75f15da563aba984e5f1047a354708d", "is_reserved": 0, "rental_uris": {"ios": "https://dc.lft.to/lastmile_qr_scan", "android": "https://dc.lft.to/lastmile_qr_scan"}, "is_disabled": 0, "lon": -77.02962733333334, "name": "c75f15da563aba984e5f1047a354708d", "fusion_lon": 0.0}, {"lat": 38.92910783333333, "fusion_lat": 0.0, "type": "electric_scooter", "bike_id": "32c9d93a6ddca6ac2fe4a43cbf707669", "is_reserved": 0, "rental_uris": {"ios": "https://dc.lft.to/lastmile_qr_scan", "android": "https://dc.lft.to/lastmile_qr_scan"}, "is_disabled": 0, "lon": -77.03614983333334, "name": "32c9d93a6ddca6ac2fe4a43cbf707669", "fusion_lon": 0.0}, {"lat": 38.887704, "fusion_lat": 0.0, "type": "electric_scooter", "bike_id": "c38a2e9af215c9061b98dfdfb550cc73", "is_reserved": 0, "rental_uris": {"ios": "https://dc.lft.to/lastmile_qr_scan", "android": "https://dc.lft.to/lastmile_qr_scan"}, "is_disabled": 0, "lon": -76.95596916666666, "name": "c38a2e9af215c9061b98dfdfb550cc73", "fusion_lon": 0.0}, {"lat": 38.947883, "fusion_lat": 0.0, "type": "electric_bike", "bike_id": "3964a40e639e14889388ebcca26ee6ab", "is_reserved": 0, "rental_uris": {"ios": "https://dc.lft.to/lastmile_qr_scan", "android": "https://dc.lft.to/lastmile_qr_scan"}, "is_disabled": 0, "lon": -76.97210983333333, "name": "3964a40e639e14889388ebcca26ee6ab", "fusion_lon": 0.0}, {"lat": 39.024430833333334, "fusion_lat": 0.0, "type": "electric_bike", "bike_id": "f18432fc62a27824668ab6017043c239", "is_reserved": 0, "rental_uris": {"ios": "https://dc.lft.to/lastmile_qr_scan", "android": "https://dc.lft.to/lastmile_qr_scan"}, "is_disabled": 0, "lon": -77.1309845, "name": "f18432fc62a27824668ab6017043c239", "fusion_lon": 0.0}, {"lat": 38.899741166666665, "fusion_lat": 0.0, "type": "electric_scooter", "bike_id": "6c358fdad69b57432c40cf58c94d9f58", "is_reserved": 0, "rental_uris": {"ios": "https://dc.lft.to/lastmile_qr_scan", "android": "https://dc.lft.to/lastmile_qr_scan"}, "is_disabled": 0, "lon": -77.04650616666666, "name": "6c358fdad69b57432c40cf58c94d9f58", "fusion_lon": 0.0}, {"lat": 38.934208166666664, "fusion_lat": 0.0, "type": "electric_scooter", "bike_id": "53d429de37a8a89becf2e8a6ec5f9768", "is_reserved": 0, "rental_uris": {"ios": "https://dc.lft.to/lastmile_qr_scan", "android": "https://dc.lft.to/lastmile_qr_scan"}, "is_disabled": 0, "lon": -77.03911733333334, "name": "53d429de37a8a89becf2e8a6ec5f9768", "fusion_lon": 0.0}, {"lat": 38.915737, "fusion_lat": 0.0, "type": "electric_scooter", "bike_id": "fad0f35cb827f84c9bda70aa974b92f6", "is_reserved": 0, "rental_uris": {"ios": "https://dc.lft.to/lastmile_qr_scan", "android": "https://dc.lft.to/lastmile_qr_scan"}, "is_disabled": 0, "lon": -77.022934, "name": "fad0f35cb827f84c9bda70aa974b92f6", "fusion_lon": 0.0}, {"lat": 38.882285, "fusion_lat": 0.0, "type": "electric_scooter", "bike_id": "88cc35ac584fd4f6fa71cd85934c2b3b", "is_reserved": 0, "rental_uris": {"ios": "https://dc.lft.to/lastmile_qr_scan", "android": "https://dc.lft.to/lastmile_qr_scan"}, "is_disabled": 0, "lon": -77.0296935, "name": "88cc35ac584fd4f6fa71cd85934c2b3b", "fusion_lon": 0.0}, {"lat": 38.903401, "fusion_lat": 0.0, "type": "electric_scooter", "bike_id": "5e7537e50e85d42fb7aa3ce11d4115df", "is_reserved": 0, "rental_uris": {"ios": "https://dc.lft.to/lastmile_qr_scan", "android": "https://dc.lft.to/lastmile_qr_scan"}, "is_disabled": 0, "lon": -76.97582216666666, "name": "5e7537e50e85d42fb7aa3ce11d4115df", "fusion_lon": 0.0}, {"lat": 38.932186333333334, "fusion_lat": 0.0, "type": "electric_scooter", "bike_id": "a645ae6534d75c103d688b35d85cfc81", "is_reserved": 0, "rental_uris": {"ios": "https://dc.lft.to/lastmile_qr_scan", "android": "https://dc.lft.to/lastmile_qr_scan"}, "is_disabled": 0, "lon": -77.02961366666666, "name": "a645ae6534d75c103d688b35d85cfc81", "fusion_lon": 0.0}, {"lat": 38.901549, "fusion_lat": 0.0, "type": "electric_scooter", "bike_id": "868f606fb6e97081bc8c84671fca9b1a", "is_reserved": 0, "rental_uris": {"ios": "https://dc.lft.to/lastmile_qr_scan", "android": "https://dc.lft.to/lastmile_qr_scan"}, "is_disabled": 0, "lon": -76.92139783333333, "name": "868f606fb6e97081bc8c84671fca9b1a", "fusion_lon": 0.0}, {"lat": 38.85414983333333, "fusion_lat": 0.0, "type": "electric_bike", "bike_id": "ca00f5b67b057dba7d80ce1dc48eb9cd", "is_reserved": 0, "rental_uris": {"ios": "https://dc.lft.to/lastmile_qr_scan", "android": "https://dc.lft.to/lastmile_qr_scan"}, "is_disabled": 0, "lon": -77.120776, "name": "ca00f5b67b057dba7d80ce1dc48eb9cd", "fusion_lon": 0.0}, {"lat": 38.862425333333334, "fusion_lat": 0.0, "type": "electric_scooter", "bike_id": "216df23abab413d5459cbaf92724a552", "is_reserved": 0, "rental_uris": {"ios": "https://dc.lft.to/lastmile_qr_scan", "android": "https://dc.lft.to/lastmile_qr_scan"}, "is_disabled": 0, "lon": -76.994929, "name": "216df23abab413d5459cbaf92724a552", "fusion_lon": 0.0}, {"lat": 38.928756, "fusion_lat": 0.0, "type": "electric_scooter", "bike_id": "2f267cb2754bd91820e11e83d0cb0b70", "is_reserved": 0, "rental_uris": {"ios": "https://dc.lft.to/lastmile_qr_scan", "android": "https://dc.lft.to/lastmile_qr_scan"}, "is_disabled": 0, "lon": -77.03273866666666, "name": "2f267cb2754bd91820e11e83d0cb0b70", "fusion_lon": 0.0}, {"lat": 38.923350166666665, "fusion_lat": 0.0, "type": "electric_scooter", "bike_id": "6c4ca0ad2222c3341465065476ab2b5e", "is_reserved": 0, "rental_uris": {"ios": "https://dc.lft.to/lastmile_qr_scan", "android": "https://dc.lft.to/lastmile_qr_scan"}, "is_disabled": 0, "lon": -77.02333533333334, "name": "6c4ca0ad2222c3341465065476ab2b5e", "fusion_lon": 0.0}, {"lat": 38.9484195, "fusion_lat": 0.0, "type": "electric_scooter", "bike_id": "28327ff5c5a8fadfd0d6bdc8f4377806", "is_reserved": 0, "rental_uris": {"ios": "https://dc.lft.to/lastmile_qr_scan", "android": "https://dc.lft.to/lastmile_qr_scan"}, "is_disabled": 0, "lon": -77.0254495, "name": "28327ff5c5a8fadfd0d6bdc8f4377806", "fusion_lon": 0.0}, {"lat": 38.897462166666664, "fusion_lat": 0.0, "type": "electric_bike", "bike_id": "b32e35c15e3cd06f15631ef119ce37c3", "is_reserved": 0, "rental_uris": {"ios": "https://dc.lft.to/lastmile_qr_scan", "android": "https://dc.lft.to/lastmile_qr_scan"}, "is_disabled": 0, "lon": -76.92046133333334, "name": "b32e35c15e3cd06f15631ef119ce37c3", "fusion_lon": 0.0}, {"lat": 38.921711333333334, "fusion_lat": 0.0, "type": "electric_scooter", "bike_id": "a083351f3db89a241bbac174bd676c9f", "is_reserved": 0, "rental_uris": {"ios": "https://dc.lft.to/lastmile_qr_scan", "android": "https://dc.lft.to/lastmile_qr_scan"}, "is_disabled": 0, "lon": -77.032566, "name": "a083351f3db89a241bbac174bd676c9f", "fusion_lon": 0.0}, {"lat": 38.917011333333335, "fusion_lat": 0.0, "type": "electric_scooter", "bike_id": "250d9b07566e419bb2d472d542a02461", "is_reserved": 0, "rental_uris": {"ios": "https://dc.lft.to/lastmile_qr_scan", "android": "https://dc.lft.to/lastmile_qr_scan"}, "is_disabled": 0, "lon": -77.0049305, "name": "250d9b07566e419bb2d472d542a02461", "fusion_lon": 0.0}, {"lat": 38.917474, "fusion_lat": 0.0, "type": "electric_scooter", "bike_id": "4d7f82bbf842f39fcb6c7e5b684272b7", "is_reserved": 0, "rental_uris": {"ios": "https://dc.lft.to/lastmile_qr_scan", "android": "https://dc.lft.to/lastmile_qr_scan"}, "is_disabled": 0, "lon": -77.04159216666666, "name": "4d7f82bbf842f39fcb6c7e5b684272b7", "fusion_lon": 0.0}, {"lat": 38.906284, "fusion_lat": 0.0, "type": "electric_scooter", "bike_id": "b9e81d4587091abe3100343771e7a1ab", "is_reserved": 0, "rental_uris": {"ios": "https://dc.lft.to/lastmile_qr_scan", "android": "https://dc.lft.to/lastmile_qr_scan"}, "is_disabled": 0, "lon": -76.99300566666666, "name": "b9e81d4587091abe3100343771e7a1ab", "fusion_lon": 0.0}, {"lat": 38.876011166666665, "fusion_lat": 0.0, "type": "electric_scooter", "bike_id": "cb00eefdebeaad48281ee1f2b704b51d", "is_reserved": 0, "rental_uris": {"ios": "https://dc.lft.to/lastmile_qr_scan", "android": "https://dc.lft.to/lastmile_qr_scan"}, "is_disabled": 0, "lon": -77.01627416666666, "name": "cb00eefdebeaad48281ee1f2b704b51d", "fusion_lon": 0.0}, {"lat": 38.892314666666664, "fusion_lat": 0.0, "type": "electric_scooter", "bike_id": "abcb42fa68ac0502a47f6f4eba082802", "is_reserved": 0, "rental_uris": {"ios": "https://dc.lft.to/lastmile_qr_scan", "android": "https://dc.lft.to/lastmile_qr_scan"}, "is_disabled": 0, "lon": -77.025779, "name": "abcb42fa68ac0502a47f6f4eba082802", "fusion_lon": 0.0}, {"lat": 38.90724516666667, "fusion_lat": 0.0, "type": "electric_scooter", "bike_id": "87b957811e8f1ceba522a845b48ff010", "is_reserved": 0, "rental_uris": {"ios": "https://dc.lft.to/lastmile_qr_scan", "android": "https://dc.lft.to/lastmile_qr_scan"}, "is_disabled": 0, "lon": -77.02373583333333, "name": "87b957811e8f1ceba522a845b48ff010", "fusion_lon": 0.0}, {"lat": 38.922101833333336, "fusion_lat": 0.0, "type": "electric_scooter", "bike_id": "f4cc02ca3d48d01f9eb1ba6108e642e6", "is_reserved": 0, "rental_uris": {"ios": "https://dc.lft.to/lastmile_qr_scan", "android": "https://dc.lft.to/lastmile_qr_scan"}, "is_disabled": 0, "lon": -77.03296966666667, "name": "f4cc02ca3d48d01f9eb1ba6108e642e6", "fusion_lon": 0.0}, {"lat": 38.921634833333336, "fusion_lat": 0.0, "type": "electric_scooter", "bike_id": "017481b48dd774e041f6bfbc67120e0b", "is_reserved": 0, "rental_uris": {"ios": "https://dc.lft.to/lastmile_qr_scan", "android": "https://dc.lft.to/lastmile_qr_scan"}, "is_disabled": 0, "lon": -77.033364, "name": "017481b48dd774e041f6bfbc67120e0b", "fusion_lon": 0.0}, {"lat": 38.90595966666667, "fusion_lat": 0.0, "type": "electric_scooter", "bike_id": "90dc980ad8eb4f2ffbde72ee930d1f65", "is_reserved": 0, "rental_uris": {"ios": "https://dc.lft.to/lastmile_qr_scan", "android": "https://dc.lft.to/lastmile_qr_scan"}, "is_disabled": 0, "lon": -77.06715666666666, "name": "90dc980ad8eb4f2ffbde72ee930d1f65", "fusion_lon": 0.0}, {"lat": 38.945337333333335, "fusion_lat": 0.0, "type": "electric_scooter", "bike_id": "c230275dd3f7667acfd3acb487aa6f5a", "is_reserved": 0, "rental_uris": {"ios": "https://dc.lft.to/lastmile_qr_scan", "android": "https://dc.lft.to/lastmile_qr_scan"}, "is_disabled": 0, "lon": -77.0208705, "name": "c230275dd3f7667acfd3acb487aa6f5a", "fusion_lon": 0.0}, {"lat": 38.86242766666667, "fusion_lat": 0.0, "type": "electric_scooter", "bike_id": "7cbcfb2e192a729b3082787a1c899e56", "is_reserved": 0, "rental_uris": {"ios": "https://dc.lft.to/lastmile_qr_scan", "android": "https://dc.lft.to/lastmile_qr_scan"}, "is_disabled": 0, "lon": -76.99494266666666, "name": "7cbcfb2e192a729b3082787a1c899e56", "fusion_lon": 0.0}, {"lat": 38.90947416666667, "fusion_lat": 0.0, "type": "electric_scooter", "bike_id": "811b7ecc55e17891a92f8c7643c1854d", "is_reserved": 0, "rental_uris": {"ios": "https://dc.lft.to/lastmile_qr_scan", "android": "https://dc.lft.to/lastmile_qr_scan"}, "is_disabled": 0, "lon": -77.03194116666667, "name": "811b7ecc55e17891a92f8c7643c1854d", "fusion_lon": 0.0}, {"lat": 38.9172295, "fusion_lat": 0.0, "type": "electric_scooter", "bike_id": "0d37eaf3dd767087f25b9b2c964ad2ac", "is_reserved": 0, "rental_uris": {"ios": "https://dc.lft.to/lastmile_qr_scan", "android": "https://dc.lft.to/lastmile_qr_scan"}, "is_disabled": 0, "lon": -77.02977533333333, "name": "0d37eaf3dd767087f25b9b2c964ad2ac", "fusion_lon": 0.0}, {"lat": 38.877956, "fusion_lat": 0.0, "type": "electric_scooter", "bike_id": "0aee7edca846e09bf208cd80cdc350e5", "is_reserved": 0, "rental_uris": {"ios": "https://dc.lft.to/lastmile_qr_scan", "android": "https://dc.lft.to/lastmile_qr_scan"}, "is_disabled": 0, "lon": -76.930785, "name": "0aee7edca846e09bf208cd80cdc350e5", "fusion_lon": 0.0}, {"lat": 38.9181825, "fusion_lat": 0.0, "type": "electric_scooter", "bike_id": "d54dba318b501669a47877561378a242", "is_reserved": 0, "rental_uris": {"ios": "https://dc.lft.to/lastmile_qr_scan", "android": "https://dc.lft.to/lastmile_qr_scan"}, "is_disabled": 0, "lon": -77.02822283333333, "name": "d54dba318b501669a47877561378a242", "fusion_lon": 0.0}, {"lat": 38.892223666666666, "fusion_lat": 0.0, "type": "electric_scooter", "bike_id": "c300b68589c2177760d76053a67ced7f", "is_reserved": 0, "rental_uris": {"ios": "https://dc.lft.to/lastmile_qr_scan", "android": "https://dc.lft.to/lastmile_qr_scan"}, "is_disabled": 0, "lon": -77.04263583333334, "name": "c300b68589c2177760d76053a67ced7f", "fusion_lon": 0.0}, {"lat": 38.903001333333336, "fusion_lat": 0.0, "type": "electric_scooter", "bike_id": "324876a07aa2a6c62f57851a4093bd92", "is_reserved": 0, "rental_uris": {"ios": "https://dc.lft.to/lastmile_qr_scan", "android": "https://dc.lft.to/lastmile_qr_scan"}, "is_disabled": 0, "lon": -77.02136, "name": "324876a07aa2a6c62f57851a4093bd92", "fusion_lon": 0.0}, {"lat": 38.9445425, "fusion_lat": 0.0, "type": "electric_scooter", "bike_id": "9008b190bf8fadade8e47ca2c5735b38", "is_reserved": 0, "rental_uris": {"ios": "https://dc.lft.to/lastmile_qr_scan", "android": "https://dc.lft.to/lastmile_qr_scan"}, "is_disabled": 0, "lon": -77.06351016666666, "name": "9008b190bf8fadade8e47ca2c5735b38", "fusion_lon": 0.0}, {"lat": 38.911986, "fusion_lat": 0.0, "type": "electric_scooter", "bike_id": "7a891f9eca5563c26762d0297f8ff6c9", "is_reserved": 0, "rental_uris": {"ios": "https://dc.lft.to/lastmile_qr_scan", "android": "https://dc.lft.to/lastmile_qr_scan"}, "is_disabled": 0, "lon": -77.045212, "name": "7a891f9eca5563c26762d0297f8ff6c9", "fusion_lon": 0.0}, {"lat": 38.921317333333334, "fusion_lat": 0.0, "type": "electric_scooter", "bike_id": "93b762adcaed31920e01a780083efa88", "is_reserved": 0, "rental_uris": {"ios": "https://dc.lft.to/lastmile_qr_scan", "android": "https://dc.lft.to/lastmile_qr_scan"}, "is_disabled": 0, "lon": -76.992464, "name": "93b762adcaed31920e01a780083efa88", "fusion_lon": 0.0}, {"lat": 38.9178635, "fusion_lat": 0.0, "type": "electric_scooter", "bike_id": "7425d5a195f2ff90a0fa5d1167ab09e4", "is_reserved": 0, "rental_uris": {"ios": "https://dc.lft.to/lastmile_qr_scan", "android": "https://dc.lft.to/lastmile_qr_scan"}, "is_disabled": 0, "lon": -77.04215666666667, "name": "7425d5a195f2ff90a0fa5d1167ab09e4", "fusion_lon": 0.0}, {"lat": 38.92505883333333, "fusion_lat": 0.0, "type": "electric_scooter", "bike_id": "29eae565ac4d68d1d174baf26b6bb88f", "is_reserved": 0, "rental_uris": {"ios": "https://dc.lft.to/lastmile_qr_scan", "android": "https://dc.lft.to/lastmile_qr_scan"}, "is_disabled": 0, "lon": -77.022752, "name": "29eae565ac4d68d1d174baf26b6bb88f", "fusion_lon": 0.0}, {"lat": 38.919476333333336, "fusion_lat": 0.0, "type": "electric_scooter", "bike_id": "e38c65f3a3d121d40d7c247270cb0825", "is_reserved": 0, "rental_uris": {"ios": "https://dc.lft.to/lastmile_qr_scan", "android": "https://dc.lft.to/lastmile_qr_scan"}, "is_disabled": 0, "lon": -77.04560733333334, "name": "e38c65f3a3d121d40d7c247270cb0825", "fusion_lon": 0.0}, {"lat": 38.90379466666667, "fusion_lat": 0.0, "type": "electric_scooter", "bike_id": "2be515ad77c7c87726946306abce3caf", "is_reserved": 0, "rental_uris": {"ios": "https://dc.lft.to/lastmile_qr_scan", "android": "https://dc.lft.to/lastmile_qr_scan"}, "is_disabled": 0, "lon": -77.028967, "name": "2be515ad77c7c87726946306abce3caf", "fusion_lon": 0.0}, {"lat": 38.92532283333333, "fusion_lat": 0.0, "type": "electric_scooter", "bike_id": "0f83b9e54b651383d9032c94fcf141ba", "is_reserved": 0, "rental_uris": {"ios": "https://dc.lft.to/lastmile_qr_scan", "android": "https://dc.lft.to/lastmile_qr_scan"}, "is_disabled": 0, "lon": -77.02258566666667, "name": "0f83b9e54b651383d9032c94fcf141ba", "fusion_lon": 0.0}, {"lat": 38.92577933333333, "fusion_lat": 0.0, "type": "electric_scooter", "bike_id": "8cbbaa3e707fe43e742bce1f6d8801b7", "is_reserved": 0, "rental_uris": {"ios": "https://dc.lft.to/lastmile_qr_scan", "android": "https://dc.lft.to/lastmile_qr_scan"}, "is_disabled": 0, "lon": -77.044131, "name": "8cbbaa3e707fe43e742bce1f6d8801b7", "fusion_lon": 0.0}, {"lat": 39.013761833333334, "fusion_lat": 0.0, "type": "electric_bike", "bike_id": "3735478d82018064a5bd151a44559d7c", "is_reserved": 0, "rental_uris": {"ios": "https://dc.lft.to/lastmile_qr_scan", "android": "https://dc.lft.to/lastmile_qr_scan"}, "is_disabled": 0, "lon": -76.92134466666667, "name": "3735478d82018064a5bd151a44559d7c", "fusion_lon": 0.0}, {"lat": 38.909795333333335, "fusion_lat": 0.0, "type": "electric_scooter", "bike_id": "5e10d9594dfcb5b953b7f8fb0ac8618d", "is_reserved": 0, "rental_uris": {"ios": "https://dc.lft.to/lastmile_qr_scan", "android": "https://dc.lft.to/lastmile_qr_scan"}, "is_disabled": 0, "lon": -77.03309366666667, "name": "5e10d9594dfcb5b953b7f8fb0ac8618d", "fusion_lon": 0.0}, {"lat": 38.924127166666665, "fusion_lat": 0.0, "type": "electric_scooter", "bike_id": "309ca781713928a7f6f4d7de47f2eab4", "is_reserved": 0, "rental_uris": {"ios": "https://dc.lft.to/lastmile_qr_scan", "android": "https://dc.lft.to/lastmile_qr_scan"}, "is_disabled": 0, "lon": -77.020317, "name": "309ca781713928a7f6f4d7de47f2eab4", "fusion_lon": 0.0}, {"lat": 38.911932166666666, "fusion_lat": 0.0, "type": "electric_scooter", "bike_id": "4b0c0a68ed639642e2c3c6cf39a62f63", "is_reserved": 0, "rental_uris": {"ios": "https://dc.lft.to/lastmile_qr_scan", "android": "https://dc.lft.to/lastmile_qr_scan"}, "is_disabled": 0, "lon": -77.03214066666666, "name": "4b0c0a68ed639642e2c3c6cf39a62f63", "fusion_lon": 0.0}, {"lat": 38.901087833333335, "fusion_lat": 0.0, "type": "electric_scooter", "bike_id": "ef854b0bed2a8a56c523c877e1a3ac55", "is_reserved": 0, "rental_uris": {"ios": "https://dc.lft.to/lastmile_qr_scan", "android": "https://dc.lft.to/lastmile_qr_scan"}, "is_disabled": 0, "lon": -77.04730933333333, "name": "ef854b0bed2a8a56c523c877e1a3ac55", "fusion_lon": 0.0}, {"lat": 38.9085405, "fusion_lat": 0.0, "type": "electric_scooter", "bike_id": "4cee05d048ad860aa4ef4b005fa8bcc4", "is_reserved": 0, "rental_uris": {"ios": "https://dc.lft.to/lastmile_qr_scan", "android": "https://dc.lft.to/lastmile_qr_scan"}, "is_disabled": 0, "lon": -77.022384, "name": "4cee05d048ad860aa4ef4b005fa8bcc4", "fusion_lon": 0.0}, {"lat": 38.920675833333334, "fusion_lat": 0.0, "type": "electric_scooter", "bike_id": "660eec3b9900e40a2033c0ce9b9d0cc4", "is_reserved": 0, "rental_uris": {"ios": "https://dc.lft.to/lastmile_qr_scan", "android": "https://dc.lft.to/lastmile_qr_scan"}, "is_disabled": 0, "lon": -77.02939133333334, "name": "660eec3b9900e40a2033c0ce9b9d0cc4", "fusion_lon": 0.0}, {"lat": 38.9244285, "fusion_lat": 0.0, "type": "electric_scooter", "bike_id": "2a3da402194343257e3ec14570fb9aaf", "is_reserved": 0, "rental_uris": {"ios": "https://dc.lft.to/lastmile_qr_scan", "android": "https://dc.lft.to/lastmile_qr_scan"}, "is_disabled": 0, "lon": -77.04407883333333, "name": "2a3da402194343257e3ec14570fb9aaf", "fusion_lon": 0.0}, {"lat": 38.90614866666667, "fusion_lat": 0.0, "type": "electric_scooter", "bike_id": "9d4335595d0cf34f4a95c8b9d60dc2e1", "is_reserved": 0, "rental_uris": {"ios": "https://dc.lft.to/lastmile_qr_scan", "android": "https://dc.lft.to/lastmile_qr_scan"}, "is_disabled": 0, "lon": -77.04169516666667, "name": "9d4335595d0cf34f4a95c8b9d60dc2e1", "fusion_lon": 0.0}, {"lat": 38.888729833333336, "fusion_lat": 0.0, "type": "electric_scooter", "bike_id": "87d41808ec3ea469dc58688e314f5bb2", "is_reserved": 0, "rental_uris": {"ios": "https://dc.lft.to/lastmile_qr_scan", "android": "https://dc.lft.to/lastmile_qr_scan"}, "is_disabled": 0, "lon": -76.99030316666666, "name": "87d41808ec3ea469dc58688e314f5bb2", "fusion_lon": 0.0}, {"lat": 38.91966, "fusion_lat": 0.0, "type": "electric_scooter", "bike_id": "30125bab8f5fda387926e77153468215", "is_reserved": 0, "rental_uris": {"ios": "https://dc.lft.to/lastmile_qr_scan", "android": "https://dc.lft.to/lastmile_qr_scan"}, "is_disabled": 0, "lon": -77.0385555, "name": "30125bab8f5fda387926e77153468215", "fusion_lon": 0.0}, {"lat": 38.9564065, "fusion_lat": 0.0, "type": "electric_bike", "bike_id": "8691ed4446164cf2a4efbc8d55602388", "is_reserved": 0, "rental_uris": {"ios": "https://dc.lft.to/lastmile_qr_scan", "android": "https://dc.lft.to/lastmile_qr_scan"}, "is_disabled": 0, "lon": -76.99797566666666, "name": "8691ed4446164cf2a4efbc8d55602388", "fusion_lon": 0.0}, {"lat": 38.916077333333334, "fusion_lat": 0.0, "type": "electric_scooter", "bike_id": "dd6d4e528259010e7e619f33aa1f21ee", "is_reserved": 0, "rental_uris": {"ios": "https://dc.lft.to/lastmile_qr_scan", "android": "https://dc.lft.to/lastmile_qr_scan"}, "is_disabled": 0, "lon": -77.04016, "name": "dd6d4e528259010e7e619f33aa1f21ee", "fusion_lon": 0.0}, {"lat": 38.9099055, "fusion_lat": 0.0, "type": "electric_scooter", "bike_id": "623ccd55f363c6457ed3ca04c52bb653", "is_reserved": 0, "rental_uris": {"ios": "https://dc.lft.to/lastmile_qr_scan", "android": "https://dc.lft.to/lastmile_qr_scan"}, "is_disabled": 0, "lon": -77.03200266666667, "name": "623ccd55f363c6457ed3ca04c52bb653", "fusion_lon": 0.0}, {"lat": 38.9347765, "fusion_lat": 0.0, "type": "electric_scooter", "bike_id": "519170c91183dd218b73a64395e9804f", "is_reserved": 0, "rental_uris": {"ios": "https://dc.lft.to/lastmile_qr_scan", "android": "https://dc.lft.to/lastmile_qr_scan"}, "is_disabled": 0, "lon": -77.072764, "name": "519170c91183dd218b73a64395e9804f", "fusion_lon": 0.0}, {"lat": 38.9185175, "fusion_lat": 0.0, "type": "electric_scooter", "bike_id": "3664c613f92644ce88ebb3be66af084f", "is_reserved": 0, "rental_uris": {"ios": "https://dc.lft.to/lastmile_qr_scan", "android": "https://dc.lft.to/lastmile_qr_scan"}, "is_disabled": 0, "lon": -77.0319205, "name": "3664c613f92644ce88ebb3be66af084f", "fusion_lon": 0.0}, {"lat": 38.906619666666664, "fusion_lat": 0.0, "type": "electric_scooter", "bike_id": "9ad884fcbd1318118ad42e03d9a00957", "is_reserved": 0, "rental_uris": {"ios": "https://dc.lft.to/lastmile_qr_scan", "android": "https://dc.lft.to/lastmile_qr_scan"}, "is_disabled": 0, "lon": -77.029685, "name": "9ad884fcbd1318118ad42e03d9a00957", "fusion_lon": 0.0}, {"lat": 38.917073, "fusion_lat": 0.0, "type": "electric_scooter", "bike_id": "e0fc262a58e91475664ce53d900d8d1b", "is_reserved": 0, "rental_uris": {"ios": "https://dc.lft.to/lastmile_qr_scan", "android": "https://dc.lft.to/lastmile_qr_scan"}, "is_disabled": 0, "lon": -77.02829933333334, "name": "e0fc262a58e91475664ce53d900d8d1b", "fusion_lon": 0.0}, {"lat": 38.91809516666667, "fusion_lat": 0.0, "type": "electric_scooter", "bike_id": "c57c7a836fb2e7e24e3963abcb185483", "is_reserved": 0, "rental_uris": {"ios": "https://dc.lft.to/lastmile_qr_scan", "android": "https://dc.lft.to/lastmile_qr_scan"}, "is_disabled": 0, "lon": -77.03264, "name": "c57c7a836fb2e7e24e3963abcb185483", "fusion_lon": 0.0}, {"lat": 38.91120883333333, "fusion_lat": 0.0, "type": "electric_scooter", "bike_id": "96016354a595eb56579fa041101313a6", "is_reserved": 0, "rental_uris": {"ios": "https://dc.lft.to/lastmile_qr_scan", "android": "https://dc.lft.to/lastmile_qr_scan"}, "is_disabled": 0, "lon": -77.0272265, "name": "96016354a595eb56579fa041101313a6", "fusion_lon": 0.0}, {"lat": 38.892248333333335, "fusion_lat": 0.0, "type": "electric_scooter", "bike_id": "58331920fe96d29b2393cecbf8f5f692", "is_reserved": 0, "rental_uris": {"ios": "https://dc.lft.to/lastmile_qr_scan", "android": "https://dc.lft.to/lastmile_qr_scan"}, "is_disabled": 0, "lon": -77.04310283333334, "name": "58331920fe96d29b2393cecbf8f5f692", "fusion_lon": 0.0}, {"lat": 38.881707166666665, "fusion_lat": 0.0, "type": "electric_scooter", "bike_id": "9cdfe8f14d470c8fcc3fe60e7d3705dc", "is_reserved": 0, "rental_uris": {"ios": "https://dc.lft.to/lastmile_qr_scan", "android": "https://dc.lft.to/lastmile_qr_scan"}, "is_disabled": 0, "lon": -77.00198833333333, "name": "9cdfe8f14d470c8fcc3fe60e7d3705dc", "fusion_lon": 0.0}, {"lat": 38.91057466666667, "fusion_lat": 0.0, "type": "electric_scooter", "bike_id": "d7ee930ce9dbcd4b43ebd8c095283b2f", "is_reserved": 0, "rental_uris": {"ios": "https://dc.lft.to/lastmile_qr_scan", "android": "https://dc.lft.to/lastmile_qr_scan"}, "is_disabled": 0, "lon": -77.01508283333334, "name": "d7ee930ce9dbcd4b43ebd8c095283b2f", "fusion_lon": 0.0}, {"lat": 38.9079285, "fusion_lat": 0.0, "type": "electric_scooter", "bike_id": "12a34e071f56e90ab14762a09bcc0ea0", "is_reserved": 0, "rental_uris": {"ios": "https://dc.lft.to/lastmile_qr_scan", "android": "https://dc.lft.to/lastmile_qr_scan"}, "is_disabled": 0, "lon": -77.03132883333333, "name": "12a34e071f56e90ab14762a09bcc0ea0", "fusion_lon": 0.0}, {"lat": 38.934969833333334, "fusion_lat": 0.0, "type": "electric_scooter", "bike_id": "672be6be9fc127a8257224e28f364c8a", "is_reserved": 0, "rental_uris": {"ios": "https://dc.lft.to/lastmile_qr_scan", "android": "https://dc.lft.to/lastmile_qr_scan"}, "is_disabled": 0, "lon": -77.03283916666666, "name": "672be6be9fc127a8257224e28f364c8a", "fusion_lon": 0.0}, {"lat": 38.91083183333333, "fusion_lat": 0.0, "type": "electric_scooter", "bike_id": "42c815f5c1e865f9dd5ad00e2d06a80c", "is_reserved": 0, "rental_uris": {"ios": "https://dc.lft.to/lastmile_qr_scan", "android": "https://dc.lft.to/lastmile_qr_scan"}, "is_disabled": 0, "lon": -77.00853233333333, "name": "42c815f5c1e865f9dd5ad00e2d06a80c", "fusion_lon": 0.0}, {"lat": 38.9258345, "fusion_lat": 0.0, "type": "electric_scooter", "bike_id": "83a7997168db6822517c1bae19896e1a", "is_reserved": 0, "rental_uris": {"ios": "https://dc.lft.to/lastmile_qr_scan", "android": "https://dc.lft.to/lastmile_qr_scan"}, "is_disabled": 0, "lon": -77.027584, "name": "83a7997168db6822517c1bae19896e1a", "fusion_lon": 0.0}, {"lat": 38.937145, "fusion_lat": 0.0, "type": "electric_scooter", "bike_id": "72934f75306e67197b4626fbf0c0bd46", "is_reserved": 0, "rental_uris": {"ios": "https://dc.lft.to/lastmile_qr_scan", "android": "https://dc.lft.to/lastmile_qr_scan"}, "is_disabled": 0, "lon": -77.0364115, "name": "72934f75306e67197b4626fbf0c0bd46", "fusion_lon": 0.0}, {"lat": 38.899125, "fusion_lat": 0.0, "type": "electric_scooter", "bike_id": "ad766b6175535e7f1380411fd9c15e46", "is_reserved": 0, "rental_uris": {"ios": "https://dc.lft.to/lastmile_qr_scan", "android": "https://dc.lft.to/lastmile_qr_scan"}, "is_disabled": 0, "lon": -76.93408316666667, "name": "ad766b6175535e7f1380411fd9c15e46", "fusion_lon": 0.0}, {"lat": 38.83368333333333, "fusion_lat": 0.0, "type": "electric_scooter", "bike_id": "388bac2dba30d892410065a28ad6df8d", "is_reserved": 0, "rental_uris": {"ios": "https://dc.lft.to/lastmile_qr_scan", "android": "https://dc.lft.to/lastmile_qr_scan"}, "is_disabled": 0, "lon": -76.99665783333333, "name": "388bac2dba30d892410065a28ad6df8d", "fusion_lon": 0.0}, {"lat": 38.926732333333334, "fusion_lat": 0.0, "type": "electric_scooter", "bike_id": "5a6b59890a25fdec29cb2ff086ccb101", "is_reserved": 0, "rental_uris": {"ios": "https://dc.lft.to/lastmile_qr_scan", "android": "https://dc.lft.to/lastmile_qr_scan"}, "is_disabled": 0, "lon": -77.05328983333334, "name": "5a6b59890a25fdec29cb2ff086ccb101", "fusion_lon": 0.0}, {"lat": 38.911313166666666, "fusion_lat": 0.0, "type": "electric_scooter", "bike_id": "b398ffdf45f5ec44fece1f77ee307704", "is_reserved": 0, "rental_uris": {"ios": "https://dc.lft.to/lastmile_qr_scan", "android": "https://dc.lft.to/lastmile_qr_scan"}, "is_disabled": 0, "lon": -77.038564, "name": "b398ffdf45f5ec44fece1f77ee307704", "fusion_lon": 0.0}, {"lat": 38.8918335, "fusion_lat": 0.0, "type": "electric_scooter", "bike_id": "af809dec3b35f930e24a2051e4f7ef17", "is_reserved": 0, "rental_uris": {"ios": "https://dc.lft.to/lastmile_qr_scan", "android": "https://dc.lft.to/lastmile_qr_scan"}, "is_disabled": 0, "lon": -77.022052, "name": "af809dec3b35f930e24a2051e4f7ef17", "fusion_lon": 0.0}, {"lat": 38.870184, "fusion_lat": 0.0, "type": "electric_scooter", "bike_id": "ddbf6b9d3639c911bc383807373369b7", "is_reserved": 0, "rental_uris": {"ios": "https://dc.lft.to/lastmile_qr_scan", "android": "https://dc.lft.to/lastmile_qr_scan"}, "is_disabled": 0, "lon": -76.98081883333333, "name": "ddbf6b9d3639c911bc383807373369b7", "fusion_lon": 0.0}, {"lat": 38.923607, "fusion_lat": 0.0, "type": "electric_scooter", "bike_id": "f8beb5c227001e57808a46ef0cfeb88c", "is_reserved": 0, "rental_uris": {"ios": "https://dc.lft.to/lastmile_qr_scan", "android": "https://dc.lft.to/lastmile_qr_scan"}, "is_disabled": 0, "lon": -77.051034, "name": "f8beb5c227001e57808a46ef0cfeb88c", "fusion_lon": 0.0}, {"lat": 38.89222733333333, "fusion_lat": 0.0, "type": "electric_scooter", "bike_id": "1284501509506cbbfde4a06ced201a24", "is_reserved": 0, "rental_uris": {"ios": "https://dc.lft.to/lastmile_qr_scan", "android": "https://dc.lft.to/lastmile_qr_scan"}, "is_disabled": 0, "lon": -77.04861316666667, "name": "1284501509506cbbfde4a06ced201a24", "fusion_lon": 0.0}, {"lat": 38.89962416666667, "fusion_lat": 0.0, "type": "electric_scooter", "bike_id": "9cc46f9b94363542e7484a58a9c61e20", "is_reserved": 0, "rental_uris": {"ios": "https://dc.lft.to/lastmile_qr_scan", "android": "https://dc.lft.to/lastmile_qr_scan"}, "is_disabled": 0, "lon": -77.02385466666667, "name": "9cc46f9b94363542e7484a58a9c61e20", "fusion_lon": 0.0}, {"lat": 38.907244, "fusion_lat": 0.0, "type": "electric_scooter", "bike_id": "1a84fa9479dcbe8c5c46857be2647147", "is_reserved": 0, "rental_uris": {"ios": "https://dc.lft.to/lastmile_qr_scan", "android": "https://dc.lft.to/lastmile_qr_scan"}, "is_disabled": 0, "lon": -77.01467516666666, "name": "1a84fa9479dcbe8c5c46857be2647147", "fusion_lon": 0.0}, {"lat": 38.923315333333335, "fusion_lat": 0.0, "type": "electric_scooter", "bike_id": "81cb8cdbf8bca0b91860ece9e56541e3", "is_reserved": 0, "rental_uris": {"ios": "https://dc.lft.to/lastmile_qr_scan", "android": "https://dc.lft.to/lastmile_qr_scan"}, "is_disabled": 0, "lon": -77.0213185, "name": "81cb8cdbf8bca0b91860ece9e56541e3", "fusion_lon": 0.0}, {"lat": 38.89704166666667, "fusion_lat": 0.0, "type": "electric_scooter", "bike_id": "ed0dabf2d739be0c486d79969941628a", "is_reserved": 0, "rental_uris": {"ios": "https://dc.lft.to/lastmile_qr_scan", "android": "https://dc.lft.to/lastmile_qr_scan"}, "is_disabled": 0, "lon": -76.92997833333334, "name": "ed0dabf2d739be0c486d79969941628a", "fusion_lon": 0.0}, {"lat": 38.9086845, "fusion_lat": 0.0, "type": "electric_scooter", "bike_id": "3f890359c695bd28cd1af9045f43f4a4", "is_reserved": 0, "rental_uris": {"ios": "https://dc.lft.to/lastmile_qr_scan", "android": "https://dc.lft.to/lastmile_qr_scan"}, "is_disabled": 0, "lon": -77.04732933333334, "name": "3f890359c695bd28cd1af9045f43f4a4", "fusion_lon": 0.0}, {"lat": 38.909873166666664, "fusion_lat": 0.0, "type": "electric_scooter", "bike_id": "d61b8a3eee95e46a5d6cbf9413d4de85", "is_reserved": 0, "rental_uris": {"ios": "https://dc.lft.to/lastmile_qr_scan", "android": "https://dc.lft.to/lastmile_qr_scan"}, "is_disabled": 0, "lon": -77.02171583333333, "name": "d61b8a3eee95e46a5d6cbf9413d4de85", "fusion_lon": 0.0}, {"lat": 38.86632633333333, "fusion_lat": 0.0, "type": "electric_scooter", "bike_id": "c1f20e1922cfc60b017ad48c3c9ec9f3", "is_reserved": 0, "rental_uris": {"ios": "https://dc.lft.to/lastmile_qr_scan", "android": "https://dc.lft.to/lastmile_qr_scan"}, "is_disabled": 0, "lon": -76.98898766666667, "name": "c1f20e1922cfc60b017ad48c3c9ec9f3", "fusion_lon": 0.0}, {"lat": 38.910760333333336, "fusion_lat": 0.0, "type": "electric_scooter", "bike_id": "c16ab52a36e1e48d356e535d0e2178ac", "is_reserved": 0, "rental_uris": {"ios": "https://dc.lft.to/lastmile_qr_scan", "android": "https://dc.lft.to/lastmile_qr_scan"}, "is_disabled": 0, "lon": -77.03710266666667, "name": "c16ab52a36e1e48d356e535d0e2178ac", "fusion_lon": 0.0}, {"lat": 38.926568833333334, "fusion_lat": 0.0, "type": "electric_scooter", "bike_id": "13bb12b17efa37542908fef05191f9f8", "is_reserved": 0, "rental_uris": {"ios": "https://dc.lft.to/lastmile_qr_scan", "android": "https://dc.lft.to/lastmile_qr_scan"}, "is_disabled": 0, "lon": -77.03227816666667, "name": "13bb12b17efa37542908fef05191f9f8", "fusion_lon": 0.0}, {"lat": 38.902473, "fusion_lat": 0.0, "type": "electric_scooter", "bike_id": "927dd9a347cb0b2f85680ba7b91e8e95", "is_reserved": 0, "rental_uris": {"ios": "https://dc.lft.to/lastmile_qr_scan", "android": "https://dc.lft.to/lastmile_qr_scan"}, "is_disabled": 0, "lon": -77.01712883333333, "name": "927dd9a347cb0b2f85680ba7b91e8e95", "fusion_lon": 0.0}, {"lat": 38.9182335, "fusion_lat": 0.0, "type": "electric_scooter", "bike_id": "731194db4de4400610069cde8fde6f93", "is_reserved": 0, "rental_uris": {"ios": "https://dc.lft.to/lastmile_qr_scan", "android": "https://dc.lft.to/lastmile_qr_scan"}, "is_disabled": 0, "lon": -77.007661, "name": "731194db4de4400610069cde8fde6f93", "fusion_lon": 0.0}, {"lat": 38.91028466666667, "fusion_lat": 0.0, "type": "electric_scooter", "bike_id": "e91e504cf1394a2c933984da534b0a07", "is_reserved": 0, "rental_uris": {"ios": "https://dc.lft.to/lastmile_qr_scan", "android": "https://dc.lft.to/lastmile_qr_scan"}, "is_disabled": 0, "lon": -77.00758883333333, "name": "e91e504cf1394a2c933984da534b0a07", "fusion_lon": 0.0}, {"lat": 38.90856083333333, "fusion_lat": 0.0, "type": "electric_scooter", "bike_id": "b91da5febd5c0bafad7f75a272013ad1", "is_reserved": 0, "rental_uris": {"ios": "https://dc.lft.to/lastmile_qr_scan", "android": "https://dc.lft.to/lastmile_qr_scan"}, "is_disabled": 0, "lon": -77.036533, "name": "b91da5febd5c0bafad7f75a272013ad1", "fusion_lon": 0.0}, {"lat": 38.94202216666667, "fusion_lat": 0.0, "type": "electric_scooter", "bike_id": "a603eba4a5e792b4f31490e3548a2e98", "is_reserved": 0, "rental_uris": {"ios": "https://dc.lft.to/lastmile_qr_scan", "android": "https://dc.lft.to/lastmile_qr_scan"}, "is_disabled": 0, "lon": -77.025142, "name": "a603eba4a5e792b4f31490e3548a2e98", "fusion_lon": 0.0}, {"lat": 38.9067015, "fusion_lat": 0.0, "type": "electric_scooter", "bike_id": "0ac8d39781fd06aa6ac3f7d72ba1da75", "is_reserved": 0, "rental_uris": {"ios": "https://dc.lft.to/lastmile_qr_scan", "android": "https://dc.lft.to/lastmile_qr_scan"}, "is_disabled": 0, "lon": -77.02712, "name": "0ac8d39781fd06aa6ac3f7d72ba1da75", "fusion_lon": 0.0}, {"lat": 38.897414833333336, "fusion_lat": 0.0, "type": "electric_scooter", "bike_id": "daa0dcb7d14657ced3e283bff8c217e8", "is_reserved": 0, "rental_uris": {"ios": "https://dc.lft.to/lastmile_qr_scan", "android": "https://dc.lft.to/lastmile_qr_scan"}, "is_disabled": 0, "lon": -77.03341, "name": "daa0dcb7d14657ced3e283bff8c217e8", "fusion_lon": 0.0}, {"lat": 38.89866883333333, "fusion_lat": 0.0, "type": "electric_scooter", "bike_id": "ac43825c50ed072ec6f31b54ca5aac44", "is_reserved": 0, "rental_uris": {"ios": "https://dc.lft.to/lastmile_qr_scan", "android": "https://dc.lft.to/lastmile_qr_scan"}, "is_disabled": 0, "lon": -76.94663216666666, "name": "ac43825c50ed072ec6f31b54ca5aac44", "fusion_lon": 0.0}, {"lat": 38.93501666666667, "fusion_lat": 0.0, "type": "electric_scooter", "bike_id": "510103e36ea7835ed45542d060ca9b09", "is_reserved": 0, "rental_uris": {"ios": "https://dc.lft.to/lastmile_qr_scan", "android": "https://dc.lft.to/lastmile_qr_scan"}, "is_disabled": 0, "lon": -77.07398333333333, "name": "510103e36ea7835ed45542d060ca9b09", "fusion_lon": 0.0}, {"lat": 38.93094266666667, "fusion_lat": 0.0, "type": "electric_scooter", "bike_id": "591dc4aa44b421c1d86e821829a55e3c", "is_reserved": 0, "rental_uris": {"ios": "https://dc.lft.to/lastmile_qr_scan", "android": "https://dc.lft.to/lastmile_qr_scan"}, "is_disabled": 0, "lon": -77.02565316666667, "name": "591dc4aa44b421c1d86e821829a55e3c", "fusion_lon": 0.0}, {"lat": 38.929683833333335, "fusion_lat": 0.0, "type": "electric_scooter", "bike_id": "0a9b2902176e314065ed76ce5248180a", "is_reserved": 0, "rental_uris": {"ios": "https://dc.lft.to/lastmile_qr_scan", "android": "https://dc.lft.to/lastmile_qr_scan"}, "is_disabled": 0, "lon": -76.99078183333333, "name": "0a9b2902176e314065ed76ce5248180a", "fusion_lon": 0.0}, {"lat": 38.93528666666667, "fusion_lat": 0.0, "type": "electric_scooter", "bike_id": "e9755da83340859bceeb831cd742571c", "is_reserved": 0, "rental_uris": {"ios": "https://dc.lft.to/lastmile_qr_scan", "android": "https://dc.lft.to/lastmile_qr_scan"}, "is_disabled": 0, "lon": -77.0545635, "name": "e9755da83340859bceeb831cd742571c", "fusion_lon": 0.0}, {"lat": 38.9115975, "fusion_lat": 0.0, "type": "electric_scooter", "bike_id": "1124376892750a4159f7cd400b06e7a1", "is_reserved": 0, "rental_uris": {"ios": "https://dc.lft.to/lastmile_qr_scan", "android": "https://dc.lft.to/lastmile_qr_scan"}, "is_disabled": 0, "lon": -77.03849433333333, "name": "1124376892750a4159f7cd400b06e7a1", "fusion_lon": 0.0}, {"lat": 38.921229833333335, "fusion_lat": 0.0, "type": "electric_scooter", "bike_id": "ae0df6d378d772e674a335fc086c516b", "is_reserved": 0, "rental_uris": {"ios": "https://dc.lft.to/lastmile_qr_scan", "android": "https://dc.lft.to/lastmile_qr_scan"}, "is_disabled": 0, "lon": -77.03331166666666, "name": "ae0df6d378d772e674a335fc086c516b", "fusion_lon": 0.0}, {"lat": 38.90235966666667, "fusion_lat": 0.0, "type": "electric_scooter", "bike_id": "5eed47eea9160363d90486ffb0988be7", "is_reserved": 0, "rental_uris": {"ios": "https://dc.lft.to/lastmile_qr_scan", "android": "https://dc.lft.to/lastmile_qr_scan"}, "is_disabled": 0, "lon": -76.97408866666666, "name": "5eed47eea9160363d90486ffb0988be7", "fusion_lon": 0.0}, {"lat": 38.9076955, "fusion_lat": 0.0, "type": "electric_scooter", "bike_id": "f3608c5a1996df3c2f301d9bf0679e61", "is_reserved": 0, "rental_uris": {"ios": "https://dc.lft.to/lastmile_qr_scan", "android": "https://dc.lft.to/lastmile_qr_scan"}, "is_disabled": 0, "lon": -77.03219666666666, "name": "f3608c5a1996df3c2f301d9bf0679e61", "fusion_lon": 0.0}, {"lat": 38.90468166666667, "fusion_lat": 0.0, "type": "electric_scooter", "bike_id": "4ce04919502e9ec7eff7af5c03388bd8", "is_reserved": 0, "rental_uris": {"ios": "https://dc.lft.to/lastmile_qr_scan", "android": "https://dc.lft.to/lastmile_qr_scan"}, "is_disabled": 0, "lon": -77.03980583333333, "name": "4ce04919502e9ec7eff7af5c03388bd8", "fusion_lon": 0.0}, {"lat": 38.933777666666664, "fusion_lat": 0.0, "type": "electric_scooter", "bike_id": "71bec91bd0fb7083fc09efd55215865d", "is_reserved": 0, "rental_uris": {"ios": "https://dc.lft.to/lastmile_qr_scan", "android": "https://dc.lft.to/lastmile_qr_scan"}, "is_disabled": 0, "lon": -77.05761683333333, "name": "71bec91bd0fb7083fc09efd55215865d", "fusion_lon": 0.0}, {"lat": 38.90992816666667, "fusion_lat": 0.0, "type": "electric_scooter", "bike_id": "c7b05d41dddace240a2ff4eb7d75f6c6", "is_reserved": 0, "rental_uris": {"ios": "https://dc.lft.to/lastmile_qr_scan", "android": "https://dc.lft.to/lastmile_qr_scan"}, "is_disabled": 0, "lon": -77.02162416666667, "name": "c7b05d41dddace240a2ff4eb7d75f6c6", "fusion_lon": 0.0}, {"lat": 38.914828166666666, "fusion_lat": 0.0, "type": "electric_scooter", "bike_id": "225f7b66da0a4fdc6ff4d383c803e9a1", "is_reserved": 0, "rental_uris": {"ios": "https://dc.lft.to/lastmile_qr_scan", "android": "https://dc.lft.to/lastmile_qr_scan"}, "is_disabled": 0, "lon": -76.9856665, "name": "225f7b66da0a4fdc6ff4d383c803e9a1", "fusion_lon": 0.0}, {"lat": 38.9198925, "fusion_lat": 0.0, "type": "electric_scooter", "bike_id": "6540b9f579d48511bf22b6a66c66302d", "is_reserved": 0, "rental_uris": {"ios": "https://dc.lft.to/lastmile_qr_scan", "android": "https://dc.lft.to/lastmile_qr_scan"}, "is_disabled": 0, "lon": -76.9729895, "name": "6540b9f579d48511bf22b6a66c66302d", "fusion_lon": 0.0}, {"lat": 38.90244233333333, "fusion_lat": 0.0, "type": "electric_scooter", "bike_id": "2aa9b4d59cd57fe6e8264c20e0c35fc9", "is_reserved": 0, "rental_uris": {"ios": "https://dc.lft.to/lastmile_qr_scan", "android": "https://dc.lft.to/lastmile_qr_scan"}, "is_disabled": 0, "lon": -77.03254133333333, "name": "2aa9b4d59cd57fe6e8264c20e0c35fc9", "fusion_lon": 0.0}, {"lat": 38.887740666666666, "fusion_lat": 0.0, "type": "electric_scooter", "bike_id": "53ca79ced777654a23c71639eeaa7d0b", "is_reserved": 0, "rental_uris": {"ios": "https://dc.lft.to/lastmile_qr_scan", "android": "https://dc.lft.to/lastmile_qr_scan"}, "is_disabled": 0, "lon": -77.02270666666666, "name": "53ca79ced777654a23c71639eeaa7d0b", "fusion_lon": 0.0}, {"lat": 38.862201166666665, "fusion_lat": 0.0, "type": "electric_scooter", "bike_id": "1f673655d9b353d83714cb158e2ee4ec", "is_reserved": 0, "rental_uris": {"ios": "https://dc.lft.to/lastmile_qr_scan", "android": "https://dc.lft.to/lastmile_qr_scan"}, "is_disabled": 0, "lon": -76.99478416666666, "name": "1f673655d9b353d83714cb158e2ee4ec", "fusion_lon": 0.0}, {"lat": 38.874591, "fusion_lat": 0.0, "type": "electric_scooter", "bike_id": "f04a005a2f66d03fc5a2e24143260814", "is_reserved": 0, "rental_uris": {"ios": "https://dc.lft.to/lastmile_qr_scan", "android": "https://dc.lft.to/lastmile_qr_scan"}, "is_disabled": 0, "lon": -77.005439, "name": "f04a005a2f66d03fc5a2e24143260814", "fusion_lon": 0.0}, {"lat": 38.9003785, "fusion_lat": 0.0, "type": "electric_scooter", "bike_id": "aabfe0088e72af09ebb2715c2d27d38b", "is_reserved": 0, "rental_uris": {"ios": "https://dc.lft.to/lastmile_qr_scan", "android": "https://dc.lft.to/lastmile_qr_scan"}, "is_disabled": 0, "lon": -76.98056483333333, "name": "aabfe0088e72af09ebb2715c2d27d38b", "fusion_lon": 0.0}, {"lat": 38.91635516666667, "fusion_lat": 0.0, "type": "electric_scooter", "bike_id": "9ffaf7722bf822834069f1a7d7ca4913", "is_reserved": 0, "rental_uris": {"ios": "https://dc.lft.to/lastmile_qr_scan", "android": "https://dc.lft.to/lastmile_qr_scan"}, "is_disabled": 0, "lon": -77.04857683333333, "name": "9ffaf7722bf822834069f1a7d7ca4913", "fusion_lon": 0.0}, {"lat": 38.910145166666666, "fusion_lat": 0.0, "type": "electric_bike", "bike_id": "e0867b3a1e7cc3088327490e27e9fb64", "is_reserved": 0, "rental_uris": {"ios": "https://dc.lft.to/lastmile_qr_scan", "android": "https://dc.lft.to/lastmile_qr_scan"}, "is_disabled": 0, "lon": -77.22801433333333, "name": "e0867b3a1e7cc3088327490e27e9fb64", "fusion_lon": 0.0}, {"lat": 38.872916333333336, "fusion_lat": 0.0, "type": "electric_scooter", "bike_id": "1f8a76ab83746e6d76376567cc4d41ad", "is_reserved": 0, "rental_uris": {"ios": "https://dc.lft.to/lastmile_qr_scan", "android": "https://dc.lft.to/lastmile_qr_scan"}, "is_disabled": 0, "lon": -77.0098495, "name": "1f8a76ab83746e6d76376567cc4d41ad", "fusion_lon": 0.0}, {"lat": 38.869531, "fusion_lat": 0.0, "type": "electric_scooter", "bike_id": "e45ca481a06761942ff33bf56a7d7e44", "is_reserved": 0, "rental_uris": {"ios": "https://dc.lft.to/lastmile_qr_scan", "android": "https://dc.lft.to/lastmile_qr_scan"}, "is_disabled": 0, "lon": -76.98173883333334, "name": "e45ca481a06761942ff33bf56a7d7e44", "fusion_lon": 0.0}, {"lat": 38.9152075, "fusion_lat": 0.0, "type": "electric_scooter", "bike_id": "6f28fffbaec20234e6fc7d69f580875a", "is_reserved": 0, "rental_uris": {"ios": "https://dc.lft.to/lastmile_qr_scan", "android": "https://dc.lft.to/lastmile_qr_scan"}, "is_disabled": 0, "lon": -77.03191816666667, "name": "6f28fffbaec20234e6fc7d69f580875a", "fusion_lon": 0.0}, {"lat": 38.92849866666667, "fusion_lat": 0.0, "type": "electric_scooter", "bike_id": "172f707ff25e66808b1a926443760387", "is_reserved": 0, "rental_uris": {"ios": "https://dc.lft.to/lastmile_qr_scan", "android": "https://dc.lft.to/lastmile_qr_scan"}, "is_disabled": 0, "lon": -77.03318883333333, "name": "172f707ff25e66808b1a926443760387", "fusion_lon": 0.0}, {"lat": 38.9102595, "fusion_lat": 0.0, "type": "electric_scooter", "bike_id": "1f029f3924f27725435ba5aefaf80104", "is_reserved": 0, "rental_uris": {"ios": "https://dc.lft.to/lastmile_qr_scan", "android": "https://dc.lft.to/lastmile_qr_scan"}, "is_disabled": 0, "lon": -76.98616916666667, "name": "1f029f3924f27725435ba5aefaf80104", "fusion_lon": 0.0}, {"lat": 38.90104733333333, "fusion_lat": 0.0, "type": "electric_scooter", "bike_id": "e5d85250e79532057c27fddcb3484fc0", "is_reserved": 0, "rental_uris": {"ios": "https://dc.lft.to/lastmile_qr_scan", "android": "https://dc.lft.to/lastmile_qr_scan"}, "is_disabled": 0, "lon": -77.05779216666667, "name": "e5d85250e79532057c27fddcb3484fc0", "fusion_lon": 0.0}, {"lat": 38.872804, "fusion_lat": 0.0, "type": "electric_bike", "bike_id": "bd9b6fdcaffedf258cd5c6bc6f3b6cfc", "is_reserved": 0, "rental_uris": {"ios": "https://dc.lft.to/lastmile_qr_scan", "android": "https://dc.lft.to/lastmile_qr_scan"}, "is_disabled": 0, "lon": -77.23320533333333, "name": "bd9b6fdcaffedf258cd5c6bc6f3b6cfc", "fusion_lon": 0.0}, {"lat": 38.88058616666667, "fusion_lat": 0.0, "type": "electric_bike", "bike_id": "3b9bc4b39ee10b698fc9357c8b2af7d0", "is_reserved": 0, "rental_uris": {"ios": "https://dc.lft.to/lastmile_qr_scan", "android": "https://dc.lft.to/lastmile_qr_scan"}, "is_disabled": 0, "lon": -76.96234383333334, "name": "3b9bc4b39ee10b698fc9357c8b2af7d0", "fusion_lon": 0.0}, {"lat": 38.8635035, "fusion_lat": 0.0, "type": "electric_scooter", "bike_id": "a015e00348f462f8868e2d3fc0e291fc", "is_reserved": 0, "rental_uris": {"ios": "https://dc.lft.to/lastmile_qr_scan", "android": "https://dc.lft.to/lastmile_qr_scan"}, "is_disabled": 0, "lon": -76.98711516666667, "name": "a015e00348f462f8868e2d3fc0e291fc", "fusion_lon": 0.0}, {"lat": 38.9060845, "fusion_lat": 0.0, "type": "electric_scooter", "bike_id": "5ebdd4dd0b1a8b4a413ace87468fa61f", "is_reserved": 0, "rental_uris": {"ios": "https://dc.lft.to/lastmile_qr_scan", "android": "https://dc.lft.to/lastmile_qr_scan"}, "is_disabled": 0, "lon": -77.05687916666666, "name": "5ebdd4dd0b1a8b4a413ace87468fa61f", "fusion_lon": 0.0}, {"lat": 38.898257666666666, "fusion_lat": 0.0, "type": "electric_scooter", "bike_id": "c1079c83b82ec1b96b43e2d766fcd6af", "is_reserved": 0, "rental_uris": {"ios": "https://dc.lft.to/lastmile_qr_scan", "android": "https://dc.lft.to/lastmile_qr_scan"}, "is_disabled": 0, "lon": -77.03319433333333, "name": "c1079c83b82ec1b96b43e2d766fcd6af", "fusion_lon": 0.0}, {"lat": 38.92403066666667, "fusion_lat": 0.0, "type": "electric_scooter", "bike_id": "c72df23885b34cadbd9680395aea4a20", "is_reserved": 0, "rental_uris": {"ios": "https://dc.lft.to/lastmile_qr_scan", "android": "https://dc.lft.to/lastmile_qr_scan"}, "is_disabled": 0, "lon": -77.0214595, "name": "c72df23885b34cadbd9680395aea4a20", "fusion_lon": 0.0}, {"lat": 38.92917583333333, "fusion_lat": 0.0, "type": "electric_scooter", "bike_id": "66d66abb8f81ec13bcaa6d8318c19eba", "is_reserved": 0, "rental_uris": {"ios": "https://dc.lft.to/lastmile_qr_scan", "android": "https://dc.lft.to/lastmile_qr_scan"}, "is_disabled": 0, "lon": -77.03290766666667, "name": "66d66abb8f81ec13bcaa6d8318c19eba", "fusion_lon": 0.0}, {"lat": 38.90486216666667, "fusion_lat": 0.0, "type": "electric_scooter", "bike_id": "b71354eec1f6cd52eccf9aa5a3510776", "is_reserved": 0, "rental_uris": {"ios": "https://dc.lft.to/lastmile_qr_scan", "android": "https://dc.lft.to/lastmile_qr_scan"}, "is_disabled": 0, "lon": -77.03818083333333, "name": "b71354eec1f6cd52eccf9aa5a3510776", "fusion_lon": 0.0}, {"lat": 38.913354166666664, "fusion_lat": 0.0, "type": "electric_scooter", "bike_id": "90430668ecb2e87638d1117038f902a6", "is_reserved": 0, "rental_uris": {"ios": "https://dc.lft.to/lastmile_qr_scan", "android": "https://dc.lft.to/lastmile_qr_scan"}, "is_disabled": 0, "lon": -77.02692066666667, "name": "90430668ecb2e87638d1117038f902a6", "fusion_lon": 0.0}, {"lat": 38.94792483333333, "fusion_lat": 0.0, "type": "electric_scooter", "bike_id": "507b0f1858be4b7de428aabd4c890d8e", "is_reserved": 0, "rental_uris": {"ios": "https://dc.lft.to/lastmile_qr_scan", "android": "https://dc.lft.to/lastmile_qr_scan"}, "is_disabled": 0, "lon": -77.02134133333334, "name": "507b0f1858be4b7de428aabd4c890d8e", "fusion_lon": 0.0}, {"lat": 38.90058033333333, "fusion_lat": 0.0, "type": "electric_scooter", "bike_id": "af49dcf46f0566c4db879e52e65527be", "is_reserved": 0, "rental_uris": {"ios": "https://dc.lft.to/lastmile_qr_scan", "android": "https://dc.lft.to/lastmile_qr_scan"}, "is_disabled": 0, "lon": -77.01776966666667, "name": "af49dcf46f0566c4db879e52e65527be", "fusion_lon": 0.0}, {"lat": 38.904409333333334, "fusion_lat": 0.0, "type": "electric_scooter", "bike_id": "29e1e5ec833891cd97be329e9d8a552b", "is_reserved": 0, "rental_uris": {"ios": "https://dc.lft.to/lastmile_qr_scan", "android": "https://dc.lft.to/lastmile_qr_scan"}, "is_disabled": 0, "lon": -76.9849425, "name": "29e1e5ec833891cd97be329e9d8a552b", "fusion_lon": 0.0}, {"lat": 38.902456, "fusion_lat": 0.0, "type": "electric_scooter", "bike_id": "449914a95930b8a325965150a96181f4", "is_reserved": 0, "rental_uris": {"ios": "https://dc.lft.to/lastmile_qr_scan", "android": "https://dc.lft.to/lastmile_qr_scan"}, "is_disabled": 0, "lon": -77.01801133333333, "name": "449914a95930b8a325965150a96181f4", "fusion_lon": 0.0}, {"lat": 38.9078935, "fusion_lat": 0.0, "type": "electric_scooter", "bike_id": "27fa988c1280ce31776f8d9a77d4d0d6", "is_reserved": 0, "rental_uris": {"ios": "https://dc.lft.to/lastmile_qr_scan", "android": "https://dc.lft.to/lastmile_qr_scan"}, "is_disabled": 0, "lon": -77.01115966666667, "name": "27fa988c1280ce31776f8d9a77d4d0d6", "fusion_lon": 0.0}, {"lat": 38.911969666666664, "fusion_lat": 0.0, "type": "electric_scooter", "bike_id": "afe57521b3719db32a09e40b202ffc47", "is_reserved": 0, "rental_uris": {"ios": "https://dc.lft.to/lastmile_qr_scan", "android": "https://dc.lft.to/lastmile_qr_scan"}, "is_disabled": 0, "lon": -77.01780233333334, "name": "afe57521b3719db32a09e40b202ffc47", "fusion_lon": 0.0}, {"lat": 38.9003225, "fusion_lat": 0.0, "type": "electric_scooter", "bike_id": "4c12d8dbe23cb4499391991bd931bc7b", "is_reserved": 0, "rental_uris": {"ios": "https://dc.lft.to/lastmile_qr_scan", "android": "https://dc.lft.to/lastmile_qr_scan"}, "is_disabled": 0, "lon": -77.03518066666666, "name": "4c12d8dbe23cb4499391991bd931bc7b", "fusion_lon": 0.0}, {"lat": 38.951856666666664, "fusion_lat": 0.0, "type": "electric_scooter", "bike_id": "794c2001409938beef8c2f51e1a57762", "is_reserved": 0, "rental_uris": {"ios": "https://dc.lft.to/lastmile_qr_scan", "android": "https://dc.lft.to/lastmile_qr_scan"}, "is_disabled": 0, "lon": -77.02727083333333, "name": "794c2001409938beef8c2f51e1a57762", "fusion_lon": 0.0}, {"lat": 38.906752, "fusion_lat": 0.0, "type": "electric_scooter", "bike_id": "f25a5b2faf565517734d2914a5eff93d", "is_reserved": 0, "rental_uris": {"ios": "https://dc.lft.to/lastmile_qr_scan", "android": "https://dc.lft.to/lastmile_qr_scan"}, "is_disabled": 0, "lon": -77.071721, "name": "f25a5b2faf565517734d2914a5eff93d", "fusion_lon": 0.0}, {"lat": 38.95188, "fusion_lat": 0.0, "type": "electric_scooter", "bike_id": "36520ac0f3b911db80722547cc7f728d", "is_reserved": 0, "rental_uris": {"ios": "https://dc.lft.to/lastmile_qr_scan", "android": "https://dc.lft.to/lastmile_qr_scan"}, "is_disabled": 0, "lon": -77.0315975, "name": "36520ac0f3b911db80722547cc7f728d", "fusion_lon": 0.0}, {"lat": 38.862667, "fusion_lat": 0.0, "type": "electric_bike", "bike_id": "07275d97d90f192f330c59507ff17494", "is_reserved": 0, "rental_uris": {"ios": "https://dc.lft.to/lastmile_qr_scan", "android": "https://dc.lft.to/lastmile_qr_scan"}, "is_disabled": 0, "lon": -76.98346966666666, "name": "07275d97d90f192f330c59507ff17494", "fusion_lon": 0.0}, {"lat": 38.895482666666666, "fusion_lat": 0.0, "type": "electric_scooter", "bike_id": "ddc434243bb0786592bf6c334cd46e60", "is_reserved": 0, "rental_uris": {"ios": "https://dc.lft.to/lastmile_qr_scan", "android": "https://dc.lft.to/lastmile_qr_scan"}, "is_disabled": 0, "lon": -76.92949666666667, "name": "ddc434243bb0786592bf6c334cd46e60", "fusion_lon": 0.0}, {"lat": 38.857926166666665, "fusion_lat": 0.0, "type": "electric_bike", "bike_id": "66552400885b907de27bbf31fc5087fb", "is_reserved": 0, "rental_uris": {"ios": "https://dc.lft.to/lastmile_qr_scan", "android": "https://dc.lft.to/lastmile_qr_scan"}, "is_disabled": 0, "lon": -77.12018083333334, "name": "66552400885b907de27bbf31fc5087fb", "fusion_lon": 0.0}, {"lat": 38.916968833333335, "fusion_lat": 0.0, "type": "electric_scooter", "bike_id": "c6f848f9dbcc73e2162a28327eda226f", "is_reserved": 0, "rental_uris": {"ios": "https://dc.lft.to/lastmile_qr_scan", "android": "https://dc.lft.to/lastmile_qr_scan"}, "is_disabled": 0, "lon": -77.04110733333333, "name": "c6f848f9dbcc73e2162a28327eda226f", "fusion_lon": 0.0}, {"lat": 38.909389, "fusion_lat": 0.0, "type": "electric_scooter", "bike_id": "3784e473c28194e26c6792925bf889c3", "is_reserved": 0, "rental_uris": {"ios": "https://dc.lft.to/lastmile_qr_scan", "android": "https://dc.lft.to/lastmile_qr_scan"}, "is_disabled": 0, "lon": -77.02701083333334, "name": "3784e473c28194e26c6792925bf889c3", "fusion_lon": 0.0}, {"lat": 38.89741933333333, "fusion_lat": 0.0, "type": "electric_scooter", "bike_id": "e9911ab1b2a6feb00be02ab84ca8f5f4", "is_reserved": 0, "rental_uris": {"ios": "https://dc.lft.to/lastmile_qr_scan", "android": "https://dc.lft.to/lastmile_qr_scan"}, "is_disabled": 0, "lon": -77.04419566666667, "name": "e9911ab1b2a6feb00be02ab84ca8f5f4", "fusion_lon": 0.0}, {"lat": 38.9053115, "fusion_lat": 0.0, "type": "electric_scooter", "bike_id": "593aaa0e9c51e2fa89b25ebd41ceeb66", "is_reserved": 0, "rental_uris": {"ios": "https://dc.lft.to/lastmile_qr_scan", "android": "https://dc.lft.to/lastmile_qr_scan"}, "is_disabled": 0, "lon": -76.98097233333333, "name": "593aaa0e9c51e2fa89b25ebd41ceeb66", "fusion_lon": 0.0}, {"lat": 38.93512, "fusion_lat": 0.0, "type": "electric_scooter", "bike_id": "577c2a36c5393a7945ecb54b07f77dee", "is_reserved": 0, "rental_uris": {"ios": "https://dc.lft.to/lastmile_qr_scan", "android": "https://dc.lft.to/lastmile_qr_scan"}, "is_disabled": 0, "lon": -77.0329235, "name": "577c2a36c5393a7945ecb54b07f77dee", "fusion_lon": 0.0}, {"lat": 38.9590025, "fusion_lat": 0.0, "type": "electric_scooter", "bike_id": "16570bec8df06ab0f2156579929bf61e", "is_reserved": 0, "rental_uris": {"ios": "https://dc.lft.to/lastmile_qr_scan", "android": "https://dc.lft.to/lastmile_qr_scan"}, "is_disabled": 0, "lon": -77.08594333333333, "name": "16570bec8df06ab0f2156579929bf61e", "fusion_lon": 0.0}, {"lat": 38.87473816666667, "fusion_lat": 0.0, "type": "electric_scooter", "bike_id": "94da87be42998cdae0ff55642b1b198c", "is_reserved": 0, "rental_uris": {"ios": "https://dc.lft.to/lastmile_qr_scan", "android": "https://dc.lft.to/lastmile_qr_scan"}, "is_disabled": 0, "lon": -77.0159695, "name": "94da87be42998cdae0ff55642b1b198c", "fusion_lon": 0.0}, {"lat": 38.94522633333333, "fusion_lat": 0.0, "type": "electric_scooter", "bike_id": "f291c0de7165929e94ea155e60a40888", "is_reserved": 0, "rental_uris": {"ios": "https://dc.lft.to/lastmile_qr_scan", "android": "https://dc.lft.to/lastmile_qr_scan"}, "is_disabled": 0, "lon": -77.03367233333333, "name": "f291c0de7165929e94ea155e60a40888", "fusion_lon": 0.0}, {"lat": 38.9047365, "fusion_lat": 0.0, "type": "electric_scooter", "bike_id": "022a4b76ab8119e4e28b3e9c10a2458b", "is_reserved": 0, "rental_uris": {"ios": "https://dc.lft.to/lastmile_qr_scan", "android": "https://dc.lft.to/lastmile_qr_scan"}, "is_disabled": 0, "lon": -77.053438, "name": "022a4b76ab8119e4e28b3e9c10a2458b", "fusion_lon": 0.0}, {"lat": 38.924648, "fusion_lat": 0.0, "type": "electric_scooter", "bike_id": "3fd3e4996dcce616c3728a256d5370ab", "is_reserved": 0, "rental_uris": {"ios": "https://dc.lft.to/lastmile_qr_scan", "android": "https://dc.lft.to/lastmile_qr_scan"}, "is_disabled": 0, "lon": -77.0224645, "name": "3fd3e4996dcce616c3728a256d5370ab", "fusion_lon": 0.0}, {"lat": 38.90875616666667, "fusion_lat": 0.0, "type": "electric_scooter", "bike_id": "f76490ba376beb0950828e98ccc90a24", "is_reserved": 0, "rental_uris": {"ios": "https://dc.lft.to/lastmile_qr_scan", "android": "https://dc.lft.to/lastmile_qr_scan"}, "is_disabled": 0, "lon": -77.032132, "name": "f76490ba376beb0950828e98ccc90a24", "fusion_lon": 0.0}, {"lat": 38.8609755, "fusion_lat": 0.0, "type": "electric_scooter", "bike_id": "f26706842b7d6e1e54a6fe74cbfc55a5", "is_reserved": 0, "rental_uris": {"ios": "https://dc.lft.to/lastmile_qr_scan", "android": "https://dc.lft.to/lastmile_qr_scan"}, "is_disabled": 0, "lon": -76.96871966666667, "name": "f26706842b7d6e1e54a6fe74cbfc55a5", "fusion_lon": 0.0}, {"lat": 38.87342683333333, "fusion_lat": 0.0, "type": "electric_scooter", "bike_id": "45a36580d186eff16c875ffd48001a85", "is_reserved": 0, "rental_uris": {"ios": "https://dc.lft.to/lastmile_qr_scan", "android": "https://dc.lft.to/lastmile_qr_scan"}, "is_disabled": 0, "lon": -77.00253916666666, "name": "45a36580d186eff16c875ffd48001a85", "fusion_lon": 0.0}, {"lat": 38.88528266666667, "fusion_lat": 0.0, "type": "electric_scooter", "bike_id": "8563dbade3d4a8c8b6dda3166db29baa", "is_reserved": 0, "rental_uris": {"ios": "https://dc.lft.to/lastmile_qr_scan", "android": "https://dc.lft.to/lastmile_qr_scan"}, "is_disabled": 0, "lon": -77.011392, "name": "8563dbade3d4a8c8b6dda3166db29baa", "fusion_lon": 0.0}, {"lat": 38.92433483333333, "fusion_lat": 0.0, "type": "electric_bike", "bike_id": "48431ba07b7b7f2dc72811f6de7b1b3c", "is_reserved": 0, "rental_uris": {"ios": "https://dc.lft.to/lastmile_qr_scan", "android": "https://dc.lft.to/lastmile_qr_scan"}, "is_disabled": 0, "lon": -76.99652533333334, "name": "48431ba07b7b7f2dc72811f6de7b1b3c", "fusion_lon": 0.0}, {"lat": 38.905986166666665, "fusion_lat": 0.0, "type": "electric_scooter", "bike_id": "e529b5ca52af41a2e3a2c92edc7eebb4", "is_reserved": 0, "rental_uris": {"ios": "https://dc.lft.to/lastmile_qr_scan", "android": "https://dc.lft.to/lastmile_qr_scan"}, "is_disabled": 0, "lon": -77.07008383333333, "name": "e529b5ca52af41a2e3a2c92edc7eebb4", "fusion_lon": 0.0}, {"lat": 38.89743433333334, "fusion_lat": 0.0, "type": "electric_scooter", "bike_id": "270793bdbeb8bdfa4e66d97f64ec2d89", "is_reserved": 0, "rental_uris": {"ios": "https://dc.lft.to/lastmile_qr_scan", "android": "https://dc.lft.to/lastmile_qr_scan"}, "is_disabled": 0, "lon": -77.00779983333334, "name": "270793bdbeb8bdfa4e66d97f64ec2d89", "fusion_lon": 0.0}, {"lat": 38.946091, "fusion_lat": 0.0, "type": "electric_scooter", "bike_id": "bcab45a4635fedbf62ec00fd6654f552", "is_reserved": 0, "rental_uris": {"ios": "https://dc.lft.to/lastmile_qr_scan", "android": "https://dc.lft.to/lastmile_qr_scan"}, "is_disabled": 0, "lon": -77.07024883333334, "name": "bcab45a4635fedbf62ec00fd6654f552", "fusion_lon": 0.0}, {"lat": 38.907386333333335, "fusion_lat": 0.0, "type": "electric_scooter", "bike_id": "df97ba6bc2cd4791cf6cc750ad340edc", "is_reserved": 0, "rental_uris": {"ios": "https://dc.lft.to/lastmile_qr_scan", "android": "https://dc.lft.to/lastmile_qr_scan"}, "is_disabled": 0, "lon": -76.98625733333333, "name": "df97ba6bc2cd4791cf6cc750ad340edc", "fusion_lon": 0.0}, {"lat": 38.916348, "fusion_lat": 0.0, "type": "electric_scooter", "bike_id": "48ef58bce11b4c55db4d98df1bac35e6", "is_reserved": 0, "rental_uris": {"ios": "https://dc.lft.to/lastmile_qr_scan", "android": "https://dc.lft.to/lastmile_qr_scan"}, "is_disabled": 0, "lon": -77.04815816666667, "name": "48ef58bce11b4c55db4d98df1bac35e6", "fusion_lon": 0.0}, {"lat": 38.89736666666667, "fusion_lat": 0.0, "type": "electric_scooter", "bike_id": "6b7e34f7a5c8fb5d77a5f845f1d2280f", "is_reserved": 0, "rental_uris": {"ios": "https://dc.lft.to/lastmile_qr_scan", "android": "https://dc.lft.to/lastmile_qr_scan"}, "is_disabled": 0, "lon": -77.0547295, "name": "6b7e34f7a5c8fb5d77a5f845f1d2280f", "fusion_lon": 0.0},