{"data": {"bikes": [{"bike_id": "a9468d518053ff7cc5c5bd6fade542aa", "is_reserved": 0, "fusion_lon": 0.0, "lat": 38.876251333333336, "is_disabled": 0, "name": "a9468d518053ff7cc5c5bd6fade542aa", "fusion_lat": 0.0, "rental_uris": {"ios": "https://dc.lft.to/lastmile_qr_scan", "android": "https://dc.lft.to/lastmile_qr_scan"}, "lon": -76.96525066666666, "type": "electric_scooter"}, {"bike_id": "20588a7bd67b941235ddd8ee7651d012", "is_reserved": 0, "fusion_lon": 0.0, "lat": 38.90276933333333, "is_disabled": 0, "name": "20588a7bd67b941235ddd8ee7651d012", "fusion_lat": 0.0, "rental_uris": {"ios": "https://dc.lft.to/lastmile_qr_scan", "android": "https://dc.lft.to/lastmile_qr_scan"}, "lon": -77.03365166666667, "type": "electric_scooter"}, {"bike_id": "ed7f9e940236fb41468c582ede993844", "is_reserved": 0, "fusion_lon": 0.0, "lat": 38.904435166666666, "is_disabled": 0, "name": "ed7f9e940236fb41468c582ede993844", "fusion_lat": 0.0, "rental_uris": {"ios": "https://dc.lft.to/lastmile_qr_scan", "android": "https://dc.lft.to/lastmile_qr_scan"}, "lon": -76.99624483333334, "type": "electric_scooter"}, {"bike_id": "3f6450bcbe4c8e16aa22cb46c2089ae6", "is_reserved": 0, "fusion_lon": 0.0, "lat": 38.9225385, "is_disabled": 0, "name": "3f6450bcbe4c8e16aa22cb46c2089ae6", "fusion_lat": 0.0, "rental_uris": {"ios": "https://dc.lft.to/lastmile_qr_scan", "android": "https://dc.lft.to/lastmile_qr_scan"}, "lon": -77.01830483333333, "type": "electric_scooter"}, {"bike_id": "2e684b691eaf54124bdf2b894fcf4c3e", "is_reserved": 0, "fusion_lon": 0.0, "lat": 38.917612, "is_disabled": 0, "name": "2e684b691eaf54124bdf2b894fcf4c3e", "fusion_lat": 0.0, "rental_uris": {"ios": "https://dc.lft.to/lastmile_qr_scan", "android": "https://dc.lft.to/lastmile_qr_scan"}, "lon": -77.041003, "type": "electric_scooter"}, {"bike_id": "d913f8f20f912cfd161bf590e552ccae", "is_reserved": 0, "fusion_lon": 0.0, "lat": 38.84292, "is_disabled": 0, "name": "d913f8f20f912cfd161bf590e552ccae", "fusion_lat": 0.0, "rental_uris": {"ios": "https://dc.lft.to/lastmile_qr_scan", "android": "https://dc.lft.to/lastmile_qr_scan"}, "lon": -76.99945383333333, "type": "electric_scooter"}, {"bike_id": "936b3663d60b75ccc8c7d88a4576f0da", "is_reserved": 0, "fusion_lon": 0.0, "lat": 38.91189816666667, "is_disabled": 0, "name": "936b3663d60b75ccc8c7d88a4576f0da", "fusion_lat": 0.0, "rental_uris": {"ios": "https://dc.lft.to/lastmile_qr_scan", "android": "https://dc.lft.to/lastmile_qr_scan"}, "lon": -77.01620216666667, "type": "electric_scooter"}, {"bike_id": "6e05818f9689718addbab6147aabfae6", "is_reserved": 0, "fusion_lon": 0.0, "lat": 38.921184833333335, "is_disabled": 0, "name": "6e05818f9689718addbab6147aabfae6", "fusion_lat": 0.0, "rental_uris": {"ios": "https://dc.lft.to/lastmile_qr_scan", "android": "https://dc.lft.to/lastmile_qr_scan"}, "lon": -77.012107, "type": "electric_scooter"}, {"bike_id": "6e6d1a4f5cabc194d91237b30aa17b25", "is_reserved": 0, "fusion_lon": 0.0, "lat": 38.911378666666664, "is_disabled": 0, "name": "6e6d1a4f5cabc194d91237b30aa17b25", "fusion_lat": 0.0, "rental_uris": {"ios": "https://dc.lft.to/lastmile_qr_scan", "android": "https://dc.lft.to/lastmile_qr_scan"}, "lon": -77.021984, "type": "electric_scooter"}, {"bike_id": "6b382d9a1ca056a69759f2abe4aa5db9", "is_reserved": 0, "fusion_lon": 0.0, "lat": 38.941743833333334, "is_disabled": 0, "name": "6b382d9a1ca056a69759f2abe4aa5db9", "fusion_lat": 0.0, "rental_uris": {"ios": "https://dc.lft.to/lastmile_qr_scan", "android": "https://dc.lft.to/lastmile_qr_scan"}, "lon": -77.02501116666667, "type": "electric_scooter"}, {"bike_id": "128703d0c237c7e778fe387db16d10b2", "is_reserved": 0, "fusion_lon": 0.0, "lat": 38.90293166666667, "is_disabled": 0, "name": "128703d0c237c7e778fe387db16d10b2", "fusion_lat": 0.0, "rental_uris": {"ios": "https://dc.lft.to/lastmile_qr_scan", "android": "https://dc.lft.to/lastmile_qr_scan"}, "lon": -76.99856633333333, "type": "electric_scooter"}, {"bike_id": "25b69e4efb02d8c303d71fe02d618dbb", "is_reserved": 0, "fusion_lon": 0.0, "lat": 38.8935935, "is_disabled": 0, "name": "25b69e4efb02d8c303d71fe02d618dbb", "fusion_lat": 0.0, "rental_uris": {"ios": "https://dc.lft.to/lastmile_qr_scan", "android": "https://dc.lft.to/lastmile_qr_scan"}, "lon": -76.9497385, "type": "electric_scooter"}, {"bike_id": "cb05010fc3462408b273d1dac94b5a61", "is_reserved": 0, "fusion_lon": 0.0, "lat": 38.88025016666667, "is_disabled": 0, "name": "cb05010fc3462408b273d1dac94b5a61", "fusion_lat": 0.0, "rental_uris": {"ios": "https://dc.lft.to/lastmile_qr_scan", "android": "https://dc.lft.to/lastmile_qr_scan"}, "lon": -77.01934933333334, "type": "electric_scooter"}, {"bike_id": "fc83be212128acdc998c1e326e1160b4", "is_reserved": 0, "fusion_lon": 0.0, "lat": 38.89997966666667, "is_disabled": 0, "name": "fc83be212128acdc998c1e326e1160b4", "fusion_lat": 0.0, "rental_uris": {"ios": "https://dc.lft.to/lastmile_qr_scan", "android": "https://dc.lft.to/lastmile_qr_scan"}, "lon": -76.997689, "type": "electric_scooter"}, {"bike_id": "f3f028dea50383c2cda9ec5769a64b25", "is_reserved": 0, "fusion_lon": 0.0, "lat": 38.93497716666667, "is_disabled": 0, "name": "f3f028dea50383c2cda9ec5769a64b25", "fusion_lat": 0.0, "rental_uris": {"ios": "https://dc.lft.to/lastmile_qr_scan", "android": "https://dc.lft.to/lastmile_qr_scan"}, "lon": -77.058033, "type": "electric_scooter"}, {"bike_id": "403173b31f9cfb3eebd6cffa27148cfe", "is_reserved": 0, "fusion_lon": 0.0, "lat": 38.921483, "is_disabled": 0, "name": "403173b31f9cfb3eebd6cffa27148cfe", "fusion_lat": 0.0, "rental_uris": {"ios": "https://dc.lft.to/lastmile_qr_scan", "android": "https://dc.lft.to/lastmile_qr_scan"}, "lon": -77.04354433333333, "type": "electric_scooter"}, {"bike_id": "bb5546028601e7416181b9b1143f3bcc", "is_reserved": 0, "fusion_lon": 0.0, "lat": 38.936694833333334, "is_disabled": 0, "name": "bb5546028601e7416181b9b1143f3bcc", "fusion_lat": 0.0, "rental_uris": {"ios": "https://dc.lft.to/lastmile_qr_scan", "android": "https://dc.lft.to/lastmile_qr_scan"}, "lon": -76.95227666666666, "type": "electric_bike"}, {"bike_id": "0e9b2c952932c67719c2144fe9cc43b7", "is_reserved": 0, "fusion_lon": 0.0, "lat": 38.90251383333333, "is_disabled": 0, "name": "0e9b2c952932c67719c2144fe9cc43b7", "fusion_lat": 0.0, "rental_uris": {"ios": "https://dc.lft.to/lastmile_qr_scan", "android": "https://dc.lft.to/lastmile_qr_scan"}, "lon": -77.0601405, "type": "electric_scooter"}, {"bike_id": "83c6a9647d867a2b051d3cd37c895d83", "is_reserved": 0, "fusion_lon": 0.0, "lat": 38.8700505, "is_disabled": 0, "name": "83c6a9647d867a2b051d3cd37c895d83", "fusion_lat": 0.0, "rental_uris": {"ios": "https://dc.lft.to/lastmile_qr_scan", "android": "https://dc.lft.to/lastmile_qr_scan"}, "lon": -76.96023183333334, "type": "electric_bike"}, {"bike_id": "526baf9458bfa2c10986c9f36d176726", "is_reserved": 0, "fusion_lon": 0.0, "lat": 38.8369215, "is_disabled": 0, "name": "526baf9458bfa2c10986c9f36d176726", "fusion_lat": 0.0, "rental_uris": {"ios": "https://dc.lft.to/lastmile_qr_scan", "android": "https://dc.lft.to/lastmile_qr_scan"}, "lon": -77.0057875, "type": "electric_scooter"}, {"bike_id": "cef171f1a6e0d42fd2f7947512308c39", "is_reserved": 0, "fusion_lon": 0.0, "lat": 38.927636666666665, "is_disabled": 0, "name": "cef171f1a6e0d42fd2f7947512308c39", "fusion_lat": 0.0, "rental_uris": {"ios": "https://dc.lft.to/lastmile_qr_scan", "android": "https://dc.lft.to/lastmile_qr_scan"}, "lon": -77.02840333333333, "type": "electric_scooter"}, {"bike_id": "30e65f28b804a287fedbae1540aa4688", "is_reserved": 0, "fusion_lon": 0.0, "lat": 38.838586666666664, "is_disabled": 0, "name": "30e65f28b804a287fedbae1540aa4688", "fusion_lat": 0.0, "rental_uris": {"ios": "https://dc.lft.to/lastmile_qr_scan", "android": "https://dc.lft.to/lastmile_qr_scan"}, "lon": -76.99700566666667, "type": "electric_bike"}, {"bike_id": "ffbd86624b57616472d80e42edd90cb8", "is_reserved": 0, "fusion_lon": 0.0, "lat": 38.83807216666666, "is_disabled": 0, "name": "ffbd86624b57616472d80e42edd90cb8", "fusion_lat": 0.0, "rental_uris": {"ios": "https://dc.lft.to/lastmile_qr_scan", "android": "https://dc.lft.to/lastmile_qr_scan"}, "lon": -77.09524833333333, "type": "electric_bike"}, {"bike_id": "2e7e87fe5e7f027427235fdde7b0af0d", "is_reserved": 0, "fusion_lon": 0.0, "lat": 38.89737316666667, "is_disabled": 0, "name": "2e7e87fe5e7f027427235fdde7b0af0d", "fusion_lat": 0.0, "rental_uris": {"ios": "https://dc.lft.to/lastmile_qr_scan", "android": "https://dc.lft.to/lastmile_qr_scan"}, "lon": -76.9384375, "type": "electric_scooter"}, {"bike_id": "dbff309c2ec3eded5e25474658bd4378", "is_reserved": 0, "fusion_lon": 0.0, "lat": 38.865237, "is_disabled": 0, "name": "dbff309c2ec3eded5e25474658bd4378", "fusion_lat": 0.0, "rental_uris": {"ios": "https://dc.lft.to/lastmile_qr_scan", "android": "https://dc.lft.to/lastmile_qr_scan"}, "lon": -76.9902495, "type": "electric_scooter"}, {"bike_id": "5ad6a64a678f4ba97dcacdc1e2e50c88", "is_reserved": 0, "fusion_lon": 0.0, "lat": 38.917039833333334, "is_disabled": 0, "name": "5ad6a64a678f4ba97dcacdc1e2e50c88", "fusion_lat": 0.0, "rental_uris": {"ios": "https://dc.lft.to/lastmile_qr_scan", "android": "https://dc.lft.to/lastmile_qr_scan"}, "lon": -77.0417515, "type": "electric_scooter"}, {"bike_id": "36a2a8eca1d627e198a5fec6e89cf1ff", "is_reserved": 0, "fusion_lon": 0.0, "lat": 38.87622566666667, "is_disabled": 0, "name": "36a2a8eca1d627e198a5fec6e89cf1ff", "fusion_lat": 0.0, "rental_uris": {"ios": "https://dc.lft.to/lastmile_qr_scan", "android": "https://dc.lft.to/lastmile_qr_scan"}, "lon": -76.96526083333333, "type": "electric_scooter"}, {"bike_id": "928ca56b21400ee615630ec966cad47f", "is_reserved": 0, "fusion_lon": 0.0, "lat": 38.9118065, "is_disabled": 0, "name": "928ca56b21400ee615630ec966cad47f", "fusion_lat": 0.0, "rental_uris": {"ios": "https://dc.lft.to/lastmile_qr_scan", "android": "https://dc.lft.to/lastmile_qr_scan"}, "lon": -77.03131516666667, "type": "electric_scooter"}, {"bike_id": "4eae97e097822b90103da6031144457f", "is_reserved": 0, "fusion_lon": 0.0, "lat": 38.9146755, "is_disabled": 0, "name": "4eae97e097822b90103da6031144457f", "fusion_lat": 0.0, "rental_uris": {"ios": "https://dc.lft.to/lastmile_qr_scan", "android": "https://dc.lft.to/lastmile_qr_scan"}, "lon": -76.9843385, "type": "electric_scooter"}, {"bike_id": "60b30fa534f1897ef3991613d15dceb3", "is_reserved": 0, "fusion_lon": 0.0, "lat": 38.93264816666667, "is_disabled": 0, "name": "60b30fa534f1897ef3991613d15dceb3", "fusion_lat": 0.0, "rental_uris": {"ios": "https://dc.lft.to/lastmile_qr_scan", "android": "https://dc.lft.to/lastmile_qr_scan"}, "lon": -77.03941183333333, "type": "electric_scooter"}, {"bike_id": "6f09a30d76bb88aaec4d777b526fe4ca", "is_reserved": 0, "fusion_lon": 0.0, "lat": 38.94622916666667, "is_disabled": 0, "name": "6f09a30d76bb88aaec4d777b526fe4ca", "fusion_lat": 0.0, "rental_uris": {"ios": "https://dc.lft.to/lastmile_qr_scan", "android": "https://dc.lft.to/lastmile_qr_scan"}, "lon": -77.01844716666666, "type": "electric_scooter"}, {"bike_id": "b5f1c76e3c150ac341994606466512a4", "is_reserved": 0, "fusion_lon": 0.0, "lat": 38.91256466666667, "is_disabled": 0, "name": "b5f1c76e3c150ac341994606466512a4", "fusion_lat": 0.0, "rental_uris": {"ios": "https://dc.lft.to/lastmile_qr_scan", "android": "https://dc.lft.to/lastmile_qr_scan"}, "lon": -77.033884, "type": "electric_scooter"}, {"bike_id": "dee1cc88d6f5352d7f1f4bcb76aa0231", "is_reserved": 0, "fusion_lon": 0.0, "lat": 38.86663016666667, "is_disabled": 0, "name": "dee1cc88d6f5352d7f1f4bcb76aa0231", "fusion_lat": 0.0, "rental_uris": {"ios": "https://dc.lft.to/lastmile_qr_scan", "android": "https://dc.lft.to/lastmile_qr_scan"}, "lon": -76.98891633333334, "type": "electric_scooter"}, {"bike_id": "0ff04dcc548f39b9b81469c60d18ee4b", "is_reserved": 0, "fusion_lon": 0.0, "lat": 38.921174, "is_disabled": 0, "name": "0ff04dcc548f39b9b81469c60d18ee4b", "fusion_lat": 0.0, "rental_uris": {"ios": "https://dc.lft.to/lastmile_qr_scan", "android": "https://dc.lft.to/lastmile_qr_scan"}, "lon": -77.04592183333334, "type": "electric_scooter"}, {"bike_id": "1ada691d2d2d93610b6012fcd1baba82", "is_reserved": 0, "fusion_lon": 0.0, "lat": 38.92302566666667, "is_disabled": 0, "name": "1ada691d2d2d93610b6012fcd1baba82", "fusion_lat": 0.0, "rental_uris": {"ios": "https://dc.lft.to/lastmile_qr_scan", "android": "https://dc.lft.to/lastmile_qr_scan"}, "lon": -77.04236133333333, "type": "electric_scooter"}, {"bike_id": "283f6ce69ba6a73212c0fb4d2b12aab6", "is_reserved": 0, "fusion_lon": 0.0, "lat": 38.89887066666667, "is_disabled": 0, "name": "283f6ce69ba6a73212c0fb4d2b12aab6", "fusion_lat": 0.0, "rental_uris": {"ios": "https://dc.lft.to/lastmile_qr_scan", "android": "https://dc.lft.to/lastmile_qr_scan"}, "lon": -77.00371883333334, "type": "electric_scooter"}, {"bike_id": "454f43448422c2963c2ce0c12eaab95e", "is_reserved": 0, "fusion_lon": 0.0, "lat": 38.9339025, "is_disabled": 0, "name": "454f43448422c2963c2ce0c12eaab95e", "fusion_lat": 0.0, "rental_uris": {"ios": "https://dc.lft.to/lastmile_qr_scan", "android": "https://dc.lft.to/lastmile_qr_scan"}, "lon": -77.02060183333333, "type": "electric_scooter"}, {"bike_id": "6ab19945e51a9ebe3742b3393a9fb0de", "is_reserved": 0, "fusion_lon": 0.0, "lat": 38.96145333333333, "is_disabled": 0, "name": "6ab19945e51a9ebe3742b3393a9fb0de", "fusion_lat": 0.0, "rental_uris": {"ios": "https://dc.lft.to/lastmile_qr_scan", "android": "https://dc.lft.to/lastmile_qr_scan"}, "lon": -76.99772133333333, "type": "electric_scooter"}, {"bike_id": "8448beb60b59880b2929e0188b0fc926", "is_reserved": 0, "fusion_lon": 0.0, "lat": 38.924664166666666, "is_disabled": 0, "name": "8448beb60b59880b2929e0188b0fc926", "fusion_lat": 0.0, "rental_uris": {"ios": "https://dc.lft.to/lastmile_qr_scan", "android": "https://dc.lft.to/lastmile_qr_scan"}, "lon": -77.0319875, "type": "electric_scooter"}, {"bike_id": "8a0af03cc2686884ed104cc58098fb08", "is_reserved": 0, "fusion_lon": 0.0, "lat": 38.940409333333335, "is_disabled": 0, "name": "8a0af03cc2686884ed104cc58098fb08", "fusion_lat": 0.0, "rental_uris": {"ios": "https://dc.lft.to/lastmile_qr_scan", "android": "https://dc.lft.to/lastmile_qr_scan"}, "lon": -77.029767, "type": "electric_scooter"}, {"bike_id": "820f788ba1670c3dd7cf2e531f2e5886", "is_reserved": 0, "fusion_lon": 0.0, "lat": 38.853221, "is_disabled": 0, "name": "820f788ba1670c3dd7cf2e531f2e5886", "fusion_lat": 0.0, "rental_uris": {"ios": "https://dc.lft.to/lastmile_qr_scan", "android": "https://dc.lft.to/lastmile_qr_scan"}, "lon": -76.98007966666667, "type": "electric_scooter"}, {"bike_id": "f63143445761aeb0409d0722cd1f8da4", "is_reserved": 0, "fusion_lon": 0.0, "lat": 38.922147833333334, "is_disabled": 0, "name": "f63143445761aeb0409d0722cd1f8da4", "fusion_lat": 0.0, "rental_uris": {"ios": "https://dc.lft.to/lastmile_qr_scan", "android": "https://dc.lft.to/lastmile_qr_scan"}, "lon": -77.04311666666666, "type": "electric_scooter"}, {"bike_id": "1b9af49d1d38f6392ae80fc556e979a7", "is_reserved": 0, "fusion_lon": 0.0, "lat": 38.91144166666667, "is_disabled": 0, "name": "1b9af49d1d38f6392ae80fc556e979a7", "fusion_lat": 0.0, "rental_uris": {"ios": "https://dc.lft.to/lastmile_qr_scan", "android": "https://dc.lft.to/lastmile_qr_scan"}, "lon": -77.02693216666667, "type": "electric_scooter"}, {"bike_id": "8e63c12e958e2e343562c529fa253579", "is_reserved": 0, "fusion_lon": 0.0, "lat": 38.91794383333333, "is_disabled": 0, "name": "8e63c12e958e2e343562c529fa253579", "fusion_lat": 0.0, "rental_uris": {"ios": "https://dc.lft.to/lastmile_qr_scan", "android": "https://dc.lft.to/lastmile_qr_scan"}, "lon": -77.02478783333333, "type": "electric_scooter"}, {"bike_id": "526ec13dbacc9db0c87fe7199d3d27d4", "is_reserved": 0, "fusion_lon": 0.0, "lat": 38.922448833333334, "is_disabled": 0, "name": "526ec13dbacc9db0c87fe7199d3d27d4", "fusion_lat": 0.0, "rental_uris": {"ios": "https://dc.lft.to/lastmile_qr_scan", "android": "https://dc.lft.to/lastmile_qr_scan"}, "lon": -77.04134166666667, "type": "electric_scooter"}, {"bike_id": "678df2dd5cc22d6d7a09fa4f0a8ebfae", "is_reserved": 0, "fusion_lon": 0.0, "lat": 38.87081466666667, "is_disabled": 0, "name": "678df2dd5cc22d6d7a09fa4f0a8ebfae", "fusion_lat": 0.0, "rental_uris": {"ios": "https://dc.lft.to/lastmile_qr_scan", "android": "https://dc.lft.to/lastmile_qr_scan"}, "lon": -77.01213883333334, "type": "electric_scooter"}, {"bike_id": "b182dd626874aaf01d7bba76da37bed8", "is_reserved": 0, "fusion_lon": 0.0, "lat": 38.89596933333333, "is_disabled": 0, "name": "b182dd626874aaf01d7bba76da37bed8", "fusion_lat": 0.0, "rental_uris": {"ios": "https://dc.lft.to/lastmile_qr_scan", "android": "https://dc.lft.to/lastmile_qr_scan"}, "lon": -77.0423785, "type": "electric_scooter"}, {"bike_id": "5702246d9f29d06cd688d715c47095b5", "is_reserved": 0, "fusion_lon": 0.0, "lat": 38.93717633333333, "is_disabled": 0, "name": "5702246d9f29d06cd688d715c47095b5", "fusion_lat": 0.0, "rental_uris": {"ios": "https://dc.lft.to/lastmile_qr_scan", "android": "https://dc.lft.to/lastmile_qr_scan"}, "lon": -77.02441716666667, "type": "electric_scooter"}, {"bike_id": "a9b90cae9eca8c842a6ecd92560967d9", "is_reserved": 0, "fusion_lon": 0.0, "lat": 38.90551133333334, "is_disabled": 0, "name": "a9b90cae9eca8c842a6ecd92560967d9", "fusion_lat": 0.0, "rental_uris": {"ios": "https://dc.lft.to/lastmile_qr_scan", "android": "https://dc.lft.to/lastmile_qr_scan"}, "lon": -77.0221255, "type": "electric_scooter"}, {"bike_id": "6d1487c20b8d8a8a6e57e20ebb585aee", "is_reserved": 0, "fusion_lon": 0.0, "lat": 38.90652683333333, "is_disabled": 0, "name": "6d1487c20b8d8a8a6e57e20ebb585aee", "fusion_lat": 0.0, "rental_uris": {"ios": "https://dc.lft.to/lastmile_qr_scan", "android": "https://dc.lft.to/lastmile_qr_scan"}, "lon": -77.00059916666666, "type": "electric_scooter"}, {"bike_id": "cc228e5d347bc9e1deb5dc75d97e739a", "is_reserved": 0, "fusion_lon": 0.0, "lat": 38.904020833333334, "is_disabled": 0, "name": "cc228e5d347bc9e1deb5dc75d97e739a", "fusion_lat": 0.0, "rental_uris": {"ios": "https://dc.lft.to/lastmile_qr_scan", "android": "https://dc.lft.to/lastmile_qr_scan"}, "lon": -77.02072766666667, "type": "electric_scooter"}, {"bike_id": "83a6e9a054231c805146964ce8c0b566", "is_reserved": 0, "fusion_lon": 0.0, "lat": 38.920278, "is_disabled": 0, "name": "83a6e9a054231c805146964ce8c0b566", "fusion_lat": 0.0, "rental_uris": {"ios": "https://dc.lft.to/lastmile_qr_scan", "android": "https://dc.lft.to/lastmile_qr_scan"}, "lon": -77.031297, "type": "electric_scooter"}, {"bike_id": "bf4e2a62581be838d2a94236e614268f", "is_reserved": 0, "fusion_lon": 0.0, "lat": 38.91107316666667, "is_disabled": 0, "name": "bf4e2a62581be838d2a94236e614268f", "fusion_lat": 0.0, "rental_uris": {"ios": "https://dc.lft.to/lastmile_qr_scan", "android": "https://dc.lft.to/lastmile_qr_scan"}, "lon": -77.04270633333333, "type": "electric_bike"}, {"bike_id": "fb6b81e3c03fcab43f594ff16748b179", "is_reserved": 0, "fusion_lon": 0.0, "lat": 38.904360833333335, "is_disabled": 0, "name": "fb6b81e3c03fcab43f594ff16748b179", "fusion_lat": 0.0, "rental_uris": {"ios": "https://dc.lft.to/lastmile_qr_scan", "android": "https://dc.lft.to/lastmile_qr_scan"}, "lon": -77.03250833333334, "type": "electric_scooter"}, {"bike_id": "e9174384374fbdc3e068bdec03906265", "is_reserved": 0, "fusion_lon": 0.0, "lat": 38.897365, "is_disabled": 0, "name": "e9174384374fbdc3e068bdec03906265", "fusion_lat": 0.0, "rental_uris": {"ios": "https://dc.lft.to/lastmile_qr_scan", "android": "https://dc.lft.to/lastmile_qr_scan"}, "lon": -77.0450275, "type": "electric_scooter"}, {"bike_id": "b162f425f3ebf4cbe2a1c2f2d078c063", "is_reserved": 0, "fusion_lon": 0.0, "lat": 38.9105505, "is_disabled": 0, "name": "b162f425f3ebf4cbe2a1c2f2d078c063", "fusion_lat": 0.0, "rental_uris": {"ios": "https://dc.lft.to/lastmile_qr_scan", "android": "https://dc.lft.to/lastmile_qr_scan"}, "lon": -77.02194283333333, "type": "electric_scooter"}, {"bike_id": "48000682af40b4dc2eaa7a2ac23cd1d1", "is_reserved": 0, "fusion_lon": 0.0, "lat": 38.89729833333333, "is_disabled": 0, "name": "48000682af40b4dc2eaa7a2ac23cd1d1", "fusion_lat": 0.0, "rental_uris": {"ios": "https://dc.lft.to/lastmile_qr_scan", "android": "https://dc.lft.to/lastmile_qr_scan"}, "lon": -77.054755, "type": "electric_scooter"}, {"bike_id": "a788155708cec11c413d8c508b47a045", "is_reserved": 0, "fusion_lon": 0.0, "lat": 38.922623333333334, "is_disabled": 0, "name": "a788155708cec11c413d8c508b47a045", "fusion_lat": 0.0, "rental_uris": {"ios": "https://dc.lft.to/lastmile_qr_scan", "android": "https://dc.lft.to/lastmile_qr_scan"}, "lon": -77.04295683333333, "type": "electric_scooter"}, {"bike_id": "57199c407624e2f0fc8cd2a5b6e1d1ee", "is_reserved": 0, "fusion_lon": 0.0, "lat": 38.959321333333335, "is_disabled": 0, "name": "57199c407624e2f0fc8cd2a5b6e1d1ee", "fusion_lat": 0.0, "rental_uris": {"ios": "https://dc.lft.to/lastmile_qr_scan", "android": "https://dc.lft.to/lastmile_qr_scan"}, "lon": -77.03125016666667, "type": "electric_scooter"}, {"bike_id": "b0bf89423891f2d34c5eaca306c81ba7", "is_reserved": 0, "fusion_lon": 0.0, "lat": 38.912527833333336, "is_disabled": 0, "name": "b0bf89423891f2d34c5eaca306c81ba7", "fusion_lat": 0.0, "rental_uris": {"ios": "https://dc.lft.to/lastmile_qr_scan", "android": "https://dc.lft.to/lastmile_qr_scan"}, "lon": -77.02227816666667, "type": "electric_scooter"}, {"bike_id": "c2d3ed49ee2798e3a1fe92de18b4f8eb", "is_reserved": 0, "fusion_lon": 0.0, "lat": 38.9353005, "is_disabled": 0, "name": "c2d3ed49ee2798e3a1fe92de18b4f8eb", "fusion_lat": 0.0, "rental_uris": {"ios": "https://dc.lft.to/lastmile_qr_scan", "android": "https://dc.lft.to/lastmile_qr_scan"}, "lon": -77.02360816666666, "type": "electric_scooter"}, {"bike_id": "19a7ab8b9cc7d0e99194c554313e955a", "is_reserved": 0, "fusion_lon": 0.0, "lat": 38.9062835, "is_disabled": 0, "name": "19a7ab8b9cc7d0e99194c554313e955a", "fusion_lat": 0.0, "rental_uris": {"ios": "https://dc.lft.to/lastmile_qr_scan", "android": "https://dc.lft.to/lastmile_qr_scan"}, "lon": -76.98604366666666, "type": "electric_bike"}, {"bike_id": "a0938fcb7c8501cae538fb0e56ac7c51", "is_reserved": 0, "fusion_lon": 0.0, "lat": 38.90502766666667, "is_disabled": 0, "name": "a0938fcb7c8501cae538fb0e56ac7c51", "fusion_lat": 0.0, "rental_uris": {"ios": "https://dc.lft.to/lastmile_qr_scan", "android": "https://dc.lft.to/lastmile_qr_scan"}, "lon": -76.99015116666666, "type": "electric_scooter"}, {"bike_id": "cfe6076a05881f99a689fab7a1d6e15d", "is_reserved": 0, "fusion_lon": 0.0, "lat": 38.89600383333333, "is_disabled": 0, "name": "cfe6076a05881f99a689fab7a1d6e15d", "fusion_lat": 0.0, "rental_uris": {"ios": "https://dc.lft.to/lastmile_qr_scan", "android": "https://dc.lft.to/lastmile_qr_scan"}, "lon": -77.00925983333333, "type": "electric_scooter"}, {"bike_id": "f5488466abf970607bb1d9ec89732cce", "is_reserved": 0, "fusion_lon": 0.0, "lat": 38.922089, "is_disabled": 0, "name": "f5488466abf970607bb1d9ec89732cce", "fusion_lat": 0.0, "rental_uris": {"ios": "https://dc.lft.to/lastmile_qr_scan", "android": "https://dc.lft.to/lastmile_qr_scan"}, "lon": -77.03654166666666, "type": "electric_scooter"}, {"bike_id": "aaa9d9305d12330426e3480af50a88bf", "is_reserved": 0, "fusion_lon": 0.0, "lat": 38.901257666666666, "is_disabled": 0, "name": "aaa9d9305d12330426e3480af50a88bf", "fusion_lat": 0.0, "rental_uris": {"ios": "https://dc.lft.to/lastmile_qr_scan", "android": "https://dc.lft.to/lastmile_qr_scan"}, "lon": -77.042388, "type": "electric_scooter"}, {"bike_id": "9b0f3be16a26c75f01d7e883f45ab1ce", "is_reserved": 0, "fusion_lon": 0.0, "lat": 38.909905333333334, "is_disabled": 0, "name": "9b0f3be16a26c75f01d7e883f45ab1ce", "fusion_lat": 0.0, "rental_uris": {"ios": "https://dc.lft.to/lastmile_qr_scan", "android": "https://dc.lft.to/lastmile_qr_scan"}, "lon": -77.04010033333333, "type": "electric_scooter"}, {"bike_id": "2efc34dcfea35f6ba4507df5edcf7975", "is_reserved": 0, "fusion_lon": 0.0, "lat": 38.9279925, "is_disabled": 0, "name": "2efc34dcfea35f6ba4507df5edcf7975", "fusion_lat": 0.0, "rental_uris": {"ios": "https://dc.lft.to/lastmile_qr_scan", "android": "https://dc.lft.to/lastmile_qr_scan"}, "lon": -77.03273116666666, "type": "electric_scooter"}, {"bike_id": "b2da16a12598f65cd9b94b8fd949ef5e", "is_reserved": 0, "fusion_lon": 0.0, "lat": 38.898292833333336, "is_disabled": 0, "name": "b2da16a12598f65cd9b94b8fd949ef5e", "fusion_lat": 0.0, "rental_uris": {"ios": "https://dc.lft.to/lastmile_qr_scan", "android": "https://dc.lft.to/lastmile_qr_scan"}, "lon": -76.94637833333333, "type": "electric_scooter"}, {"bike_id": "a71568a70ff2f590d5b3b730ee89f13e", "is_reserved": 0, "fusion_lon": 0.0, "lat": 38.93436416666667, "is_disabled": 0, "name": "a71568a70ff2f590d5b3b730ee89f13e", "fusion_lat": 0.0, "rental_uris": {"ios": "https://dc.lft.to/lastmile_qr_scan", "android": "https://dc.lft.to/lastmile_qr_scan"}, "lon": -77.07255883333333, "type": "electric_scooter"}, {"bike_id": "6f6c77563495e77364b1ef216b1d8fda", "is_reserved": 0, "fusion_lon": 0.0, "lat": 39.051912, "is_disabled": 0, "name": "6f6c77563495e77364b1ef216b1d8fda", "fusion_lat": 0.0, "rental_uris": {"ios": "https://dc.lft.to/lastmile_qr_scan", "android": "https://dc.lft.to/lastmile_qr_scan"}, "lon": -77.10923316666667, "type": "electric_bike"}, {"bike_id": "3b0f56fb4db6b263888a95085021924c", "is_reserved": 0, "fusion_lon": 0.0, "lat": 38.903491, "is_disabled": 0, "name": "3b0f56fb4db6b263888a95085021924c", "fusion_lat": 0.0, "rental_uris": {"ios": "https://dc.lft.to/lastmile_qr_scan", "android": "https://dc.lft.to/lastmile_qr_scan"}, "lon": -77.00893866666667, "type": "electric_scooter"}, {"bike_id": "1dca6e0aa88d5345da4d300ca9827cb3", "is_reserved": 0, "fusion_lon": 0.0, "lat": 38.90579783333333, "is_disabled": 0, "name": "1dca6e0aa88d5345da4d300ca9827cb3", "fusion_lat": 0.0, "rental_uris": {"ios": "https://dc.lft.to/lastmile_qr_scan", "android": "https://dc.lft.to/lastmile_qr_scan"}, "lon": -77.06276133333333, "type": "electric_scooter"}, {"bike_id": "8b0132468843dbcbd6eaa6b17384dcf3", "is_reserved": 0, "fusion_lon": 0.0, "lat": 38.91880916666667, "is_disabled": 0, "name": "8b0132468843dbcbd6eaa6b17384dcf3", "fusion_lat": 0.0, "rental_uris": {"ios": "https://dc.lft.to/lastmile_qr_scan", "android": "https://dc.lft.to/lastmile_qr_scan"}, "lon": -77.0418115, "type": "electric_scooter"}, {"bike_id": "fb1bea4466969a1be189aa408c4477e0", "is_reserved": 0, "fusion_lon": 0.0, "lat": 38.89774466666667, "is_disabled": 0, "name": "fb1bea4466969a1be189aa408c4477e0", "fusion_lat": 0.0, "rental_uris": {"ios": "https://dc.lft.to/lastmile_qr_scan", "android": "https://dc.lft.to/lastmile_qr_scan"}, "lon": -77.03172916666666, "type": "electric_scooter"}, {"bike_id": "aa22bb013af2ce5c734aa7d0d16944a3", "is_reserved": 0, "fusion_lon": 0.0, "lat": 38.906751666666665, "is_disabled": 0, "name": "aa22bb013af2ce5c734aa7d0d16944a3", "fusion_lat": 0.0, "rental_uris": {"ios": "https://dc.lft.to/lastmile_qr_scan", "android": "https://dc.lft.to/lastmile_qr_scan"}, "lon": -77.02958916666667, "type": "electric_scooter"}, {"bike_id": "e151ce019ddfcb33ac035df293979d66", "is_reserved": 0, "fusion_lon": 0.0, "lat": 38.898937333333336, "is_disabled": 0, "name": "e151ce019ddfcb33ac035df293979d66", "fusion_lat": 0.0, "rental_uris": {"ios": "https://dc.lft.to/lastmile_qr_scan", "android": "https://dc.lft.to/lastmile_qr_scan"}, "lon": -77.04080766666667, "type": "electric_scooter"}, {"bike_id": "efc0619c20a4d8e54b78e4596b85cff7", "is_reserved": 0, "fusion_lon": 0.0, "lat": 38.90577233333333, "is_disabled": 0, "name": "efc0619c20a4d8e54b78e4596b85cff7", "fusion_lat": 0.0, "rental_uris": {"ios": "https://dc.lft.to/lastmile_qr_scan", "android": "https://dc.lft.to/lastmile_qr_scan"}, "lon": -77.06520783333333, "type": "electric_scooter"}, {"bike_id": "38126b0bc735f20b724762a27a58191b", "is_reserved": 0, "fusion_lon": 0.0, "lat": 38.910058666666664, "is_disabled": 0, "name": "38126b0bc735f20b724762a27a58191b", "fusion_lat": 0.0, "rental_uris": {"ios": "https://dc.lft.to/lastmile_qr_scan", "android": "https://dc.lft.to/lastmile_qr_scan"}, "lon": -76.99393866666666, "type": "electric_scooter"}, {"bike_id": "9db40b5a38f5e99cc50ba412c81791ca", "is_reserved": 0, "fusion_lon": 0.0, "lat": 38.861006833333334, "is_disabled": 0, "name": "9db40b5a38f5e99cc50ba412c81791ca", "fusion_lat": 0.0, "rental_uris": {"ios": "https://dc.lft.to/lastmile_qr_scan", "android": "https://dc.lft.to/lastmile_qr_scan"}, "lon": -76.98362, "type": "electric_scooter"}, {"bike_id": "92b1f2495531612038f23ad019945851", "is_reserved": 0, "fusion_lon": 0.0, "lat": 38.9096, "is_disabled": 0, "name": "92b1f2495531612038f23ad019945851", "fusion_lat": 0.0, "rental_uris": {"ios": "https://dc.lft.to/lastmile_qr_scan", "android": "https://dc.lft.to/lastmile_qr_scan"}, "lon": -77.03246616666667, "type": "electric_scooter"}, {"bike_id": "74afbc88a5572356d718aa76fc84ebae", "is_reserved": 0, "fusion_lon": 0.0, "lat": 38.8832995, "is_disabled": 0, "name": "74afbc88a5572356d718aa76fc84ebae", "fusion_lat": 0.0, "rental_uris": {"ios": "https://dc.lft.to/lastmile_qr_scan", "android": "https://dc.lft.to/lastmile_qr_scan"}, "lon": -77.031542, "type": "electric_scooter"}, {"bike_id": "a77b098fe2f81fb9983d17d12455c1b6", "is_reserved": 0, "fusion_lon": 0.0, "lat": 38.911822, "is_disabled": 0, "name": "a77b098fe2f81fb9983d17d12455c1b6", "fusion_lat": 0.0, "rental_uris": {"ios": "https://dc.lft.to/lastmile_qr_scan", "android": "https://dc.lft.to/lastmile_qr_scan"}, "lon": -77.03835266666667, "type": "electric_scooter"}, {"bike_id": "c802e1ec0ad6beeacbdbc837049ed42f", "is_reserved": 0, "fusion_lon": 0.0, "lat": 38.889851666666665, "is_disabled": 0, "name": "c802e1ec0ad6beeacbdbc837049ed42f", "fusion_lat": 0.0, "rental_uris": {"ios": "https://dc.lft.to/lastmile_qr_scan", "android": "https://dc.lft.to/lastmile_qr_scan"}, "lon": -77.00340383333334, "type": "electric_scooter"}, {"bike_id": "28019c6960ef9c396ba1af4855fe3f5d", "is_reserved": 0, "fusion_lon": 0.0, "lat": 38.9234535, "is_disabled": 0, "name": "28019c6960ef9c396ba1af4855fe3f5d", "fusion_lat": 0.0, "rental_uris": {"ios": "https://dc.lft.to/lastmile_qr_scan", "android": "https://dc.lft.to/lastmile_qr_scan"}, "lon": -77.018969, "type": "electric_scooter"}, {"bike_id": "54dc9f1554311e92ad83c6176f385e1b", "is_reserved": 0, "fusion_lon": 0.0, "lat": 38.870854666666666, "is_disabled": 0, "name": "54dc9f1554311e92ad83c6176f385e1b", "fusion_lat": 0.0, "rental_uris": {"ios": "https://dc.lft.to/lastmile_qr_scan", "android": "https://dc.lft.to/lastmile_qr_scan"}, "lon": -77.012052, "type": "electric_scooter"}, {"bike_id": "b2fcd90ac59434ea99bb7156862662b8", "is_reserved": 0, "fusion_lon": 0.0, "lat": 38.929884333333334, "is_disabled": 0, "name": "b2fcd90ac59434ea99bb7156862662b8", "fusion_lat": 0.0, "rental_uris": {"ios": "https://dc.lft.to/lastmile_qr_scan", "android": "https://dc.lft.to/lastmile_qr_scan"}, "lon": -77.03234633333334, "type": "electric_scooter"}, {"bike_id": "1a29519f190db90d37d9083f7f738186", "is_reserved": 0, "fusion_lon": 0.0, "lat": 38.9055165, "is_disabled": 0, "name": "1a29519f190db90d37d9083f7f738186", "fusion_lat": 0.0, "rental_uris": {"ios": "https://dc.lft.to/lastmile_qr_scan", "android": "https://dc.lft.to/lastmile_qr_scan"}, "lon": -77.03816166666667, "type": "electric_scooter"}, {"bike_id": "baf5e950407adfb603d2501e1022e9f1", "is_reserved": 0, "fusion_lon": 0.0, "lat": 38.921267666666665, "is_disabled": 0, "name": "baf5e950407adfb603d2501e1022e9f1", "fusion_lat": 0.0, "rental_uris": {"ios": "https://dc.lft.to/lastmile_qr_scan", "android": "https://dc.lft.to/lastmile_qr_scan"}, "lon": -77.0180365, "type": "electric_scooter"}, {"bike_id": "0510b8e67137f578ad43901307d0f1f3", "is_reserved": 0, "fusion_lon": 0.0, "lat": 38.916782, "is_disabled": 0, "name": "0510b8e67137f578ad43901307d0f1f3", "fusion_lat": 0.0, "rental_uris": {"ios": "https://dc.lft.to/lastmile_qr_scan", "android": "https://dc.lft.to/lastmile_qr_scan"}, "lon": -77.037671, "type": "electric_scooter"}, {"bike_id": "8375f5f6e825587d81f02d4113c6dcd1", "is_reserved": 0, "fusion_lon": 0.0, "lat": 38.842868333333335, "is_disabled": 0, "name": "8375f5f6e825587d81f02d4113c6dcd1", "fusion_lat": 0.0, "rental_uris": {"ios": "https://dc.lft.to/lastmile_qr_scan", "android": "https://dc.lft.to/lastmile_qr_scan"}, "lon": -76.99949466666666, "type": "electric_scooter"}, {"bike_id": "5a2dd82fcf80692126b275a737c85f04", "is_reserved": 0, "fusion_lon": 0.0, "lat": 38.91981116666667, "is_disabled": 0, "name": "5a2dd82fcf80692126b275a737c85f04", "fusion_lat": 0.0, "rental_uris": {"ios": "https://dc.lft.to/lastmile_qr_scan", "android": "https://dc.lft.to/lastmile_qr_scan"}, "lon": -77.04187983333334, "type": "electric_scooter"}, {"bike_id": "2d0a52620ce7a07ffaa3e2f0c56f4dbc", "is_reserved": 0, "fusion_lon": 0.0, "lat": 38.88472516666667, "is_disabled": 0, "name": "2d0a52620ce7a07ffaa3e2f0c56f4dbc", "fusion_lat": 0.0, "rental_uris": {"ios": "https://dc.lft.to/lastmile_qr_scan", "android": "https://dc.lft.to/lastmile_qr_scan"}, "lon": -77.01527683333333, "type": "electric_scooter"}, {"bike_id": "5c40d2307a47a3d7b1d15f541a411cc3", "is_reserved": 0, "fusion_lon": 0.0, "lat": 38.866142333333336, "is_disabled": 0, "name": "5c40d2307a47a3d7b1d15f541a411cc3", "fusion_lat": 0.0, "rental_uris": {"ios": "https://dc.lft.to/lastmile_qr_scan", "android": "https://dc.lft.to/lastmile_qr_scan"}, "lon": -76.98699083333334, "type": "electric_scooter"}, {"bike_id": "f7fe317d5cc47ba9bdbcfcc6c1a8e918", "is_reserved": 0, "fusion_lon": 0.0, "lat": 38.9075545, "is_disabled": 0, "name": "f7fe317d5cc47ba9bdbcfcc6c1a8e918", "fusion_lat": 0.0, "rental_uris": {"ios": "https://dc.lft.to/lastmile_qr_scan", "android": "https://dc.lft.to/lastmile_qr_scan"}, "lon": -77.030715, "type": "electric_scooter"}, {"bike_id": "24023f9ccd75a13af2c2813bc49add41", "is_reserved": 0, "fusion_lon": 0.0, "lat": 38.918820333333336, "is_disabled": 0, "name": "24023f9ccd75a13af2c2813bc49add41", "fusion_lat": 0.0, "rental_uris": {"ios": "https://dc.lft.to/lastmile_qr_scan", "android": "https://dc.lft.to/lastmile_qr_scan"}, "lon": -77.02975166666667, "type": "electric_scooter"}, {"bike_id": "2f20742eb02acc42585b30a944b690b8", "is_reserved": 0, "fusion_lon": 0.0, "lat": 38.96392566666667, "is_disabled": 0, "name": "2f20742eb02acc42585b30a944b690b8", "fusion_lat": 0.0, "rental_uris": {"ios": "https://dc.lft.to/lastmile_qr_scan", "android": "https://dc.lft.to/lastmile_qr_scan"}, "lon": -77.02593583333334, "type": "electric_scooter"}, {"bike_id": "3db2bfa769fdb59e45a2846c576eeabd", "is_reserved": 0, "fusion_lon": 0.0, "lat": 38.85744566666666, "is_disabled": 0, "name": "3db2bfa769fdb59e45a2846c576eeabd", "fusion_lat": 0.0, "rental_uris": {"ios": "https://dc.lft.to/lastmile_qr_scan", "android": "https://dc.lft.to/lastmile_qr_scan"}, "lon": -76.98841716666666, "type": "electric_bike"}, {"bike_id": "d836a50e515c898415fa9e36b47f6076", "is_reserved": 0, "fusion_lon": 0.0, "lat": 38.924963166666664, "is_disabled": 0, "name": "d836a50e515c898415fa9e36b47f6076", "fusion_lat": 0.0, "rental_uris": {"ios": "https://dc.lft.to/lastmile_qr_scan", "android": "https://dc.lft.to/lastmile_qr_scan"}, "lon": -77.00893466666666, "type": "electric_scooter"}, {"bike_id": "481669c259b15df52ca6e82b87771ac8", "is_reserved": 0, "fusion_lon": 0.0, "lat": 38.93419683333333, "is_disabled": 0, "name": "481669c259b15df52ca6e82b87771ac8", "fusion_lat": 0.0, "rental_uris": {"ios": "https://dc.lft.to/lastmile_qr_scan", "android": "https://dc.lft.to/lastmile_qr_scan"}, "lon": -77.03451633333333, "type": "electric_scooter"}, {"bike_id": "4589e59d7507c21db617acfc20ac4573", "is_reserved": 0, "fusion_lon": 0.0, "lat": 38.9002425, "is_disabled": 0, "name": "4589e59d7507c21db617acfc20ac4573", "fusion_lat": 0.0, "rental_uris": {"ios": "https://dc.lft.to/lastmile_qr_scan", "android": "https://dc.lft.to/lastmile_qr_scan"}, "lon": -76.998733, "type": "electric_scooter"}, {"bike_id": "320679b440de0704f8941c448696e118", "is_reserved": 0, "fusion_lon": 0.0, "lat": 38.90529216666667, "is_disabled": 0, "name": "320679b440de0704f8941c448696e118", "fusion_lat": 0.0, "rental_uris": {"ios": "https://dc.lft.to/lastmile_qr_scan", "android": "https://dc.lft.to/lastmile_qr_scan"}, "lon": -77.04357533333334, "type": "electric_scooter"}, {"bike_id": "25290e0da205c84b725b206ab5ec29a0", "is_reserved": 0, "fusion_lon": 0.0, "lat": 38.886688, "is_disabled": 0, "name": "25290e0da205c84b725b206ab5ec29a0", "fusion_lat": 0.0, "rental_uris": {"ios": "https://dc.lft.to/lastmile_qr_scan", "android": "https://dc.lft.to/lastmile_qr_scan"}, "lon": -77.00153883333333, "type": "electric_bike"}, {"bike_id": "9e69da847e612e18ad72eb0ee0ec5edc", "is_reserved": 0, "fusion_lon": 0.0, "lat": 38.961695666666664, "is_disabled": 0, "name": "9e69da847e612e18ad72eb0ee0ec5edc", "fusion_lat": 0.0, "rental_uris": {"ios": "https://dc.lft.to/lastmile_qr_scan", "android": "https://dc.lft.to/lastmile_qr_scan"}, "lon": -76.9959205, "type": "electric_bike"}, {"bike_id": "2b266dbe0226e772d662dedd235b8011", "is_reserved": 0, "fusion_lon": 0.0, "lat": 38.88223516666667, "is_disabled": 0, "name": "2b266dbe0226e772d662dedd235b8011", "fusion_lat": 0.0, "rental_uris": {"ios": "https://dc.lft.to/lastmile_qr_scan", "android": "https://dc.lft.to/lastmile_qr_scan"}, "lon": -76.926565, "type": "electric_scooter"}, {"bike_id": "bfbfb964ac0064caf7c06adb91d66d87", "is_reserved": 0, "fusion_lon": 0.0, "lat": 38.89881966666667, "is_disabled": 0, "name": "bfbfb964ac0064caf7c06adb91d66d87", "fusion_lat": 0.0, "rental_uris": {"ios": "https://dc.lft.to/lastmile_qr_scan", "android": "https://dc.lft.to/lastmile_qr_scan"}, "lon": -76.9316095, "type": "electric_scooter"}, {"bike_id": "9cef63f2015d48bc01dbf8ea0c9a3ff3", "is_reserved": 0, "fusion_lon": 0.0, "lat": 38.8921725, "is_disabled": 0, "name": "9cef63f2015d48bc01dbf8ea0c9a3ff3", "fusion_lat": 0.0, "rental_uris": {"ios": "https://dc.lft.to/lastmile_qr_scan", "android": "https://dc.lft.to/lastmile_qr_scan"}, "lon": -77.0316205, "type": "electric_scooter"}, {"bike_id": "68d6d0f92368597b5a945967564ae56c", "is_reserved": 0, "fusion_lon": 0.0, "lat": 38.8815385, "is_disabled": 0, "name": "68d6d0f92368597b5a945967564ae56c", "fusion_lat": 0.0, "rental_uris": {"ios": "https://dc.lft.to/lastmile_qr_scan", "android": "https://dc.lft.to/lastmile_qr_scan"}, "lon": -77.02741233333333, "type": "electric_scooter"}, {"bike_id": "aaabe72ce5fdbe7a8cd600d3d91331c4", "is_reserved": 0, "fusion_lon": 0.0, "lat": 38.905167, "is_disabled": 0, "name": "aaabe72ce5fdbe7a8cd600d3d91331c4", "fusion_lat": 0.0, "rental_uris": {"ios": "https://dc.lft.to/lastmile_qr_scan", "android": "https://dc.lft.to/lastmile_qr_scan"}, "lon": -77.064646, "type": "electric_scooter"}, {"bike_id": "eda474fe500c07291fd1c8bd833bbc85", "is_reserved": 0, "fusion_lon": 0.0, "lat": 38.90831466666667, "is_disabled": 0, "name": "eda474fe500c07291fd1c8bd833bbc85", "fusion_lat": 0.0, "rental_uris": {"ios": "https://dc.lft.to/lastmile_qr_scan", "android": "https://dc.lft.to/lastmile_qr_scan"}, "lon": -76.99699466666667, "type": "electric_scooter"}, {"bike_id": "0603a0c263ee960d54225b596761c587", "is_reserved": 0, "fusion_lon": 0.0, "lat": 38.92111216666667, "is_disabled": 0, "name": "0603a0c263ee960d54225b596761c587", "fusion_lat": 0.0, "rental_uris": {"ios": "https://dc.lft.to/lastmile_qr_scan", "android": "https://dc.lft.to/lastmile_qr_scan"}, "lon": -77.03184, "type": "electric_scooter"}, {"bike_id": "159e9f34ea7086222dfe8e7c223218cb", "is_reserved": 0, "fusion_lon": 0.0, "lat": 38.925681166666664, "is_disabled": 0, "name": "159e9f34ea7086222dfe8e7c223218cb", "fusion_lat": 0.0, "rental_uris": {"ios": "https://dc.lft.to/lastmile_qr_scan", "android": "https://dc.lft.to/lastmile_qr_scan"}, "lon": -77.03803466666666, "type": "electric_scooter"}, {"bike_id": "5f56f5b8772e7c4168b9a0d46656d5fc", "is_reserved": 0, "fusion_lon": 0.0, "lat": 38.92869316666667, "is_disabled": 0, "name": "5f56f5b8772e7c4168b9a0d46656d5fc", "fusion_lat": 0.0, "rental_uris": {"ios": "https://dc.lft.to/lastmile_qr_scan", "android": "https://dc.lft.to/lastmile_qr_scan"}, "lon": -77.0323995, "type": "electric_scooter"}, {"bike_id": "c5336dfc6bead64d946f94f86224f982", "is_reserved": 0, "fusion_lon": 0.0, "lat": 38.922120166666666, "is_disabled": 0, "name": "c5336dfc6bead64d946f94f86224f982", "fusion_lat": 0.0, "rental_uris": {"ios": "https://dc.lft.to/lastmile_qr_scan", "android": "https://dc.lft.to/lastmile_qr_scan"}, "lon": -77.04260983333333, "type": "electric_scooter"}, {"bike_id": "b787041b5a1867b84c6c40d00720a8c7", "is_reserved": 0, "fusion_lon": 0.0, "lat": 38.9207825, "is_disabled": 0, "name": "b787041b5a1867b84c6c40d00720a8c7", "fusion_lat": 0.0, "rental_uris": {"ios": "https://dc.lft.to/lastmile_qr_scan", "android": "https://dc.lft.to/lastmile_qr_scan"}, "lon": -77.0420045, "type": "electric_scooter"}, {"bike_id": "c8d1d686d24d87240e6cd3c6490f3869", "is_reserved": 0, "fusion_lon": 0.0, "lat": 38.900011666666664, "is_disabled": 0, "name": "c8d1d686d24d87240e6cd3c6490f3869", "fusion_lat": 0.0, "rental_uris": {"ios": "https://dc.lft.to/lastmile_qr_scan", "android": "https://dc.lft.to/lastmile_qr_scan"}, "lon": -77.0059255, "type": "electric_scooter"}, {"bike_id": "76c6ebc5b575468dd77243c5c79a6e86", "is_reserved": 0, "fusion_lon": 0.0, "lat": 38.8984935, "is_disabled": 0, "name": "76c6ebc5b575468dd77243c5c79a6e86", "fusion_lat": 0.0, "rental_uris": {"ios": "https://dc.lft.to/lastmile_qr_scan", "android": "https://dc.lft.to/lastmile_qr_scan"}, "lon": -77.02003616666667, "type": "electric_scooter"}, {"bike_id": "80187d8701865794e438ac86df7eac2c", "is_reserved": 0, "fusion_lon": 0.0, "lat": 38.8714715, "is_disabled": 0, "name": "80187d8701865794e438ac86df7eac2c", "fusion_lat": 0.0, "rental_uris": {"ios": "https://dc.lft.to/lastmile_qr_scan", "android": "https://dc.lft.to/lastmile_qr_scan"}, "lon": -76.93665483333334, "type": "electric_bike"}, {"bike_id": "1c1378859d98399bc5e2cae9dd4bb2c3", "is_reserved": 0, "fusion_lon": 0.0, "lat": 38.92684533333333, "is_disabled": 0, "name": "1c1378859d98399bc5e2cae9dd4bb2c3", "fusion_lat": 0.0, "rental_uris": {"ios": "https://dc.lft.to/lastmile_qr_scan", "android": "https://dc.lft.to/lastmile_qr_scan"}, "lon": -77.02167633333333, "type": "electric_scooter"}, {"bike_id": "274e6ea2f38e062ebaf81f7e437f09f0", "is_reserved": 0, "fusion_lon": 0.0, "lat": 38.924771, "is_disabled": 0, "name": "274e6ea2f38e062ebaf81f7e437f09f0", "fusion_lat": 0.0, "rental_uris": {"ios": "https://dc.lft.to/lastmile_qr_scan", "android": "https://dc.lft.to/lastmile_qr_scan"}, "lon": -77.027504, "type": "electric_scooter"}, {"bike_id": "aaa83fd1dab5d25241adae3084218cbe", "is_reserved": 0, "fusion_lon": 0.0, "lat": 38.88309916666667, "is_disabled": 0, "name": "aaa83fd1dab5d25241adae3084218cbe", "fusion_lat": 0.0, "rental_uris": {"ios": "https://dc.lft.to/lastmile_qr_scan", "android": "https://dc.lft.to/lastmile_qr_scan"}, "lon": -77.009376, "type": "electric_scooter"}, {"bike_id": "2f4c4d98f9706168e98ce30601514df4", "is_reserved": 0, "fusion_lon": 0.0, "lat": 38.93855933333333, "is_disabled": 0, "name": "2f4c4d98f9706168e98ce30601514df4", "fusion_lat": 0.0, "rental_uris": {"ios": "https://dc.lft.to/lastmile_qr_scan", "android": "https://dc.lft.to/lastmile_qr_scan"}, "lon": -77.02647833333333, "type": "electric_scooter"}, {"bike_id": "a2e5864e9b0e357f22ab683dc4075f77", "is_reserved": 0, "fusion_lon": 0.0, "lat": 38.920127, "is_disabled": 0, "name": "a2e5864e9b0e357f22ab683dc4075f77", "fusion_lat": 0.0, "rental_uris": {"ios": "https://dc.lft.to/lastmile_qr_scan", "android": "https://dc.lft.to/lastmile_qr_scan"}, "lon": -76.99574816666667, "type": "electric_scooter"}, {"bike_id": "39823f974eb732285d2fd020b8243798", "is_reserved": 0, "fusion_lon": 0.0, "lat": 38.89900433333333, "is_disabled": 0, "name": "39823f974eb732285d2fd020b8243798", "fusion_lat": 0.0, "rental_uris": {"ios": "https://dc.lft.to/lastmile_qr_scan", "android": "https://dc.lft.to/lastmile_qr_scan"}, "lon": -77.032613, "type": "electric_scooter"}, {"bike_id": "9e966e80727e60db1caa3806d9cfeb05", "is_reserved": 0, "fusion_lon": 0.0, "lat": 38.903468833333335, "is_disabled": 0, "name": "9e966e80727e60db1caa3806d9cfeb05", "fusion_lat": 0.0, "rental_uris": {"ios": "https://dc.lft.to/lastmile_qr_scan", "android": "https://dc.lft.to/lastmile_qr_scan"}, "lon": -77.03899866666667, "type": "electric_scooter"}, {"bike_id": "aa85a1b5ac204e166b1d4d45d709b6f8", "is_reserved": 0, "fusion_lon": 0.0, "lat": 38.905393833333335, "is_disabled": 0, "name": "aa85a1b5ac204e166b1d4d45d709b6f8", "fusion_lat": 0.0, "rental_uris": {"ios": "https://dc.lft.to/lastmile_qr_scan", "android": "https://dc.lft.to/lastmile_qr_scan"}, "lon": -77.03838783333333, "type": "electric_scooter"}, {"bike_id": "4fdb930333cd5ba92184445bd4a97d00", "is_reserved": 0, "fusion_lon": 0.0, "lat": 38.92286683333333, "is_disabled": 0, "name": "4fdb930333cd5ba92184445bd4a97d00", "fusion_lat": 0.0, "rental_uris": {"ios": "https://dc.lft.to/lastmile_qr_scan", "android": "https://dc.lft.to/lastmile_qr_scan"}, "lon": -77.03200683333333, "type": "electric_scooter"}, {"bike_id": "25b8fee3b05e0756f519b85c77dc1fd8", "is_reserved": 0, "fusion_lon": 0.0, "lat": 38.917578666666664, "is_disabled": 0, "name": "25b8fee3b05e0756f519b85c77dc1fd8", "fusion_lat": 0.0, "rental_uris": {"ios": "https://dc.lft.to/lastmile_qr_scan", "android": "https://dc.lft.to/lastmile_qr_scan"}, "lon": -77.02708383333334, "type": "electric_scooter"}, {"bike_id": "4b78f12fdb24453a6174c1eac4f5be01", "is_reserved": 0, "fusion_lon": 0.0, "lat": 38.91792383333333, "is_disabled": 0, "name": "4b78f12fdb24453a6174c1eac4f5be01", "fusion_lat": 0.0, "rental_uris": {"ios": "https://dc.lft.to/lastmile_qr_scan", "android": "https://dc.lft.to/lastmile_qr_scan"}, "lon": -77.04165566666667, "type": "electric_scooter"}, {"bike_id": "0323a94162c1567026c7d2b93230e011", "is_reserved": 0, "fusion_lon": 0.0, "lat": 38.892528, "is_disabled": 0, "name": "0323a94162c1567026c7d2b93230e011", "fusion_lat": 0.0, "rental_uris": {"ios": "https://dc.lft.to/lastmile_qr_scan", "android": "https://dc.lft.to/lastmile_qr_scan"}, "lon": -76.94338883333333, "type": "electric_scooter"}, {"bike_id": "df7b3c27aeaf6d3b51370b6db0e4d01f", "is_reserved": 0, "fusion_lon": 0.0, "lat": 38.896209, "is_disabled": 0, "name": "df7b3c27aeaf6d3b51370b6db0e4d01f", "fusion_lat": 0.0, "rental_uris": {"ios": "https://dc.lft.to/lastmile_qr_scan", "android": "https://dc.lft.to/lastmile_qr_scan"}, "lon": -76.99416416666666, "type": "electric_scooter"}, {"bike_id": "a8c7a7b318c616af2947f91a98e17ffd", "is_reserved": 0, "fusion_lon": 0.0, "lat": 38.90130216666667, "is_disabled": 0, "name": "a8c7a7b318c616af2947f91a98e17ffd", "fusion_lat": 0.0, "rental_uris": {"ios": "https://dc.lft.to/lastmile_qr_scan", "android": "https://dc.lft.to/lastmile_qr_scan"}, "lon": -76.99792633333334, "type": "electric_scooter"}, {"bike_id": "010f03825e6b0ec3debf1a0448c296a5", "is_reserved": 0, "fusion_lon": 0.0, "lat": 38.948915, "is_disabled": 0, "name": "010f03825e6b0ec3debf1a0448c296a5", "fusion_lat": 0.0, "rental_uris": {"ios": "https://dc.lft.to/lastmile_qr_scan", "android": "https://dc.lft.to/lastmile_qr_scan"}, "lon": -76.963715, "type": "electric_bike"}, {"bike_id": "4b8eba71840df822b3b4e4d8a7d09697", "is_reserved": 0, "fusion_lon": 0.0, "lat": 38.9534575, "is_disabled": 0, "name": "4b8eba71840df822b3b4e4d8a7d09697", "fusion_lat": 0.0, "rental_uris": {"ios": "https://dc.lft.to/lastmile_qr_scan", "android": "https://dc.lft.to/lastmile_qr_scan"}, "lon": -76.98091616666666, "type": "electric_bike"}, {"bike_id": "b9a407f82767001cfc859029e37d3468", "is_reserved": 0, "fusion_lon": 0.0, "lat": 38.902575, "is_disabled": 0, "name": "b9a407f82767001cfc859029e37d3468", "fusion_lat": 0.0, "rental_uris": {"ios": "https://dc.lft.to/lastmile_qr_scan", "android": "https://dc.lft.to/lastmile_qr_scan"}, "lon": -77.0393925, "type": "electric_scooter"}, {"bike_id": "81b8f6607f78ae541c1c3f81ff38f392", "is_reserved": 0, "fusion_lon": 0.0, "lat": 38.93045033333333, "is_disabled": 0, "name": "81b8f6607f78ae541c1c3f81ff38f392", "fusion_lat": 0.0, "rental_uris": {"ios": "https://dc.lft.to/lastmile_qr_scan", "android": "https://dc.lft.to/lastmile_qr_scan"}, "lon": -77.0323705, "type": "electric_bike"}, {"bike_id": "6c6d62230f931970e48af4e3536b7cc0", "is_reserved": 0, "fusion_lon": 0.0, "lat": 38.8844425, "is_disabled": 0, "name": "6c6d62230f931970e48af4e3536b7cc0", "fusion_lat": 0.0, "rental_uris": {"ios": "https://dc.lft.to/lastmile_qr_scan", "android": "https://dc.lft.to/lastmile_qr_scan"}, "lon": -77.00575566666667, "type": "electric_scooter"}, {"bike_id": "0fc2cffde0468c925320c6ec17c3b54b", "is_reserved": 0, "fusion_lon": 0.0, "lat": 38.8901035, "is_disabled": 0, "name": "0fc2cffde0468c925320c6ec17c3b54b", "fusion_lat": 0.0, "rental_uris": {"ios": "https://dc.lft.to/lastmile_qr_scan", "android": "https://dc.lft.to/lastmile_qr_scan"}, "lon": -76.94109616666667, "type": "electric_scooter"}, {"bike_id": "2d8ed2f6a74f79a3e3b6404166238db8", "is_reserved": 0, "fusion_lon": 0.0, "lat": 38.924740166666666, "is_disabled": 0, "name": "2d8ed2f6a74f79a3e3b6404166238db8", "fusion_lat": 0.0, "rental_uris": {"ios": "https://dc.lft.to/lastmile_qr_scan", "android": "https://dc.lft.to/lastmile_qr_scan"}, "lon": -77.05211333333334, "type": "electric_scooter"}, {"bike_id": "8ffa5fdc05b9676ca00a161befb4a44d", "is_reserved": 0, "fusion_lon": 0.0, "lat": 38.9408955, "is_disabled": 0, "name": "8ffa5fdc05b9676ca00a161befb4a44d", "fusion_lat": 0.0, "rental_uris": {"ios": "https://dc.lft.to/lastmile_qr_scan", "android": "https://dc.lft.to/lastmile_qr_scan"}, "lon": -77.02545683333334, "type": "electric_scooter"}, {"bike_id": "db5bd6a4a5dfe464a12a5b1a1a8165bf", "is_reserved": 0, "fusion_lon": 0.0, "lat": 38.928645, "is_disabled": 0, "name": "db5bd6a4a5dfe464a12a5b1a1a8165bf", "fusion_lat": 0.0, "rental_uris": {"ios": "https://dc.lft.to/lastmile_qr_scan", "android": "https://dc.lft.to/lastmile_qr_scan"}, "lon": -77.03332466666667, "type": "electric_scooter"}, {"bike_id": "6868a5edc9295e4b08558bc2d20204d9", "is_reserved": 0, "fusion_lon": 0.0, "lat": 38.90950866666667, "is_disabled": 0, "name": "6868a5edc9295e4b08558bc2d20204d9", "fusion_lat": 0.0, "rental_uris": {"ios": "https://dc.lft.to/lastmile_qr_scan", "android": "https://dc.lft.to/lastmile_qr_scan"}, "lon": -77.04831966666667, "type": "electric_scooter"}, {"bike_id": "0b7296e7da1f7a26e58f5a621c543e96", "is_reserved": 0, "fusion_lon": 0.0, "lat": 38.9070975, "is_disabled": 0, "name": "0b7296e7da1f7a26e58f5a621c543e96", "fusion_lat": 0.0, "rental_uris": {"ios": "https://dc.lft.to/lastmile_qr_scan", "android": "https://dc.lft.to/lastmile_qr_scan"}, "lon": -76.998, "type": "electric_scooter"}, {"bike_id": "05ea4252e8247bb9e88ad8c72ffae67f", "is_reserved": 0, "fusion_lon": 0.0, "lat": 38.935972, "is_disabled": 0, "name": "05ea4252e8247bb9e88ad8c72ffae67f", "fusion_lat": 0.0, "rental_uris": {"ios": "https://dc.lft.to/lastmile_qr_scan", "android": "https://dc.lft.to/lastmile_qr_scan"}, "lon": -77.02332083333333, "type": "electric_scooter"}, {"bike_id": "ae4f3e862d2a3bb309d49b589a0d35b3", "is_reserved": 0, "fusion_lon": 0.0, "lat": 38.882910333333335, "is_disabled": 0, "name": "ae4f3e862d2a3bb309d49b589a0d35b3", "fusion_lat": 0.0, "rental_uris": {"ios": "https://dc.lft.to/lastmile_qr_scan", "android": "https://dc.lft.to/lastmile_qr_scan"}, "lon": -76.99143333333333, "type": "electric_scooter"}, {"bike_id": "f7089b5d57088e692c2ddc6513980210", "is_reserved": 0, "fusion_lon": 0.0, "lat": 38.93411, "is_disabled": 0, "name": "f7089b5d57088e692c2ddc6513980210", "fusion_lat": 0.0, "rental_uris": {"ios": "https://dc.lft.to/lastmile_qr_scan", "android": "https://dc.lft.to/lastmile_qr_scan"}, "lon": -77.03405433333333, "type": "electric_scooter"}, {"bike_id": "735665cbc654b90b2d35f5c22ddf044a", "is_reserved": 0, "fusion_lon": 0.0, "lat": 38.8580785, "is_disabled": 0, "name": "735665cbc654b90b2d35f5c22ddf044a", "fusion_lat": 0.0, "rental_uris": {"ios": "https://dc.lft.to/lastmile_qr_scan", "android": "https://dc.lft.to/lastmile_qr_scan"}, "lon": -76.9865675, "type": "electric_scooter"}, {"bike_id": "4719f62b40b4fc9b7b93c0543865cf00", "is_reserved": 0, "fusion_lon": 0.0, "lat": 38.902535666666665, "is_disabled": 0, "name": "4719f62b40b4fc9b7b93c0543865cf00", "fusion_lat": 0.0, "rental_uris": {"ios": "https://dc.lft.to/lastmile_qr_scan", "android": "https://dc.lft.to/lastmile_qr_scan"}, "lon": -77.04110133333333, "type": "electric_scooter"}, {"bike_id": "b279b61dc2de3cb1ddb8421ad8e30c1d", "is_reserved": 0, "fusion_lon": 0.0, "lat": 38.903727, "is_disabled": 0, "name": "b279b61dc2de3cb1ddb8421ad8e30c1d", "fusion_lat": 0.0, "rental_uris": {"ios": "https://dc.lft.to/lastmile_qr_scan", "android": "https://dc.lft.to/lastmile_qr_scan"}, "lon": -77.03993716666666, "type": "electric_scooter"}, {"bike_id": "3e1b83b4fd926796debc41f33a509f96", "is_reserved": 0, "fusion_lon": 0.0, "lat": 38.8918585, "is_disabled": 0, "name": "3e1b83b4fd926796debc41f33a509f96", "fusion_lat": 0.0, "rental_uris": {"ios": "https://dc.lft.to/lastmile_qr_scan", "android": "https://dc.lft.to/lastmile_qr_scan"}, "lon": -77.12257733333334, "type": "electric_bike"}, {"bike_id": "329dfa0c80810363d1cadb473fc84782", "is_reserved": 0, "fusion_lon": 0.0, "lat": 38.93509266666667, "is_disabled": 0, "name": "329dfa0c80810363d1cadb473fc84782", "fusion_lat": 0.0, "rental_uris": {"ios": "https://dc.lft.to/lastmile_qr_scan", "android": "https://dc.lft.to/lastmile_qr_scan"}, "lon": -77.058202, "type": "electric_scooter"}, {"bike_id": "653c5955f94ef8e2525747823f2a2f28", "is_reserved": 0, "fusion_lon": 0.0, "lat": 38.895546333333336, "is_disabled": 0, "name": "653c5955f94ef8e2525747823f2a2f28", "fusion_lat": 0.0, "rental_uris": {"ios": "https://dc.lft.to/lastmile_qr_scan", "android": "https://dc.lft.to/lastmile_qr_scan"}, "lon": -76.9308265, "type": "electric_scooter"}, {"bike_id": "d2368c500cb4cfa5ff1be4ecdeb732f1", "is_reserved": 0, "fusion_lon": 0.0, "lat": 38.9064485, "is_disabled": 0, "name": "d2368c500cb4cfa5ff1be4ecdeb732f1", "fusion_lat": 0.0, "rental_uris": {"ios": "https://dc.lft.to/lastmile_qr_scan", "android": "https://dc.lft.to/lastmile_qr_scan"}, "lon": -76.98376866666666, "type": "electric_scooter"}, {"bike_id": "c215fd3c939db42a38b4dc961e8df357", "is_reserved": 0, "fusion_lon": 0.0, "lat": 38.9529245, "is_disabled": 0, "name": "c215fd3c939db42a38b4dc961e8df357", "fusion_lat": 0.0, "rental_uris": {"ios": "https://dc.lft.to/lastmile_qr_scan", "android": "https://dc.lft.to/lastmile_qr_scan"}, "lon": -76.9459835, "type": "electric_bike"}, {"bike_id": "849272a41b7c4e376be93b0d7daa4bcc", "is_reserved": 0, "fusion_lon": 0.0, "lat": 38.939635833333334, "is_disabled": 0, "name": "849272a41b7c4e376be93b0d7daa4bcc", "fusion_lat": 0.0, "rental_uris": {"ios": "https://dc.lft.to/lastmile_qr_scan", "android": "https://dc.lft.to/lastmile_qr_scan"}, "lon": -77.36090483333334, "type": "electric_bike"}, {"bike_id": "f5993ebf119ee506ffa03ad9b096b8ab", "is_reserved": 0, "fusion_lon": 0.0, "lat": 38.898362166666665, "is_disabled": 0, "name": "f5993ebf119ee506ffa03ad9b096b8ab", "fusion_lat": 0.0, "rental_uris": {"ios": "https://dc.lft.to/lastmile_qr_scan", "android": "https://dc.lft.to/lastmile_qr_scan"}, "lon": -77.03049366666667, "type": "electric_scooter"}, {"bike_id": "3d5ec73139a21bda7e06d6591ec2ae26", "is_reserved": 0, "fusion_lon": 0.0, "lat": 38.927477833333334, "is_disabled": 0, "name": "3d5ec73139a21bda7e06d6591ec2ae26", "fusion_lat": 0.0, "rental_uris": {"ios": "https://dc.lft.to/lastmile_qr_scan", "android": "https://dc.lft.to/lastmile_qr_scan"}, "lon": -77.0248455, "type": "electric_scooter"}, {"bike_id": "973f78e59950909095c49907abe6ddd4", "is_reserved": 0, "fusion_lon": 0.0, "lat": 38.902633333333334, "is_disabled": 0, "name": "973f78e59950909095c49907abe6ddd4", "fusion_lat": 0.0, "rental_uris": {"ios": "https://dc.lft.to/lastmile_qr_scan", "android": "https://dc.lft.to/lastmile_qr_scan"}, "lon": -77.03840133333334, "type": "electric_scooter"}, {"bike_id": "5ff14fc35265b7faaf655ace38dc5206", "is_reserved": 0, "fusion_lon": 0.0, "lat": 38.9231155, "is_disabled": 0, "name": "5ff14fc35265b7faaf655ace38dc5206", "fusion_lat": 0.0, "rental_uris": {"ios": "https://dc.lft.to/lastmile_qr_scan", "android": "https://dc.lft.to/lastmile_qr_scan"}, "lon": -77.04096216666667, "type": "electric_scooter"}, {"bike_id": "02a70deb388b473138cf448290e9ccf0", "is_reserved": 0, "fusion_lon": 0.0, "lat": 38.9172095, "is_disabled": 0, "name": "02a70deb388b473138cf448290e9ccf0", "fusion_lat": 0.0, "rental_uris": {"ios": "https://dc.lft.to/lastmile_qr_scan", "android": "https://dc.lft.to/lastmile_qr_scan"}, "lon": -77.0229885, "type": "electric_scooter"}, {"bike_id": "5aa7a2f903891fb9001f6dc4c87c048a", "is_reserved": 0, "fusion_lon": 0.0, "lat": 38.89939116666667, "is_disabled": 0, "name": "5aa7a2f903891fb9001f6dc4c87c048a", "fusion_lat": 0.0, "rental_uris": {"ios": "https://dc.lft.to/lastmile_qr_scan", "android": "https://dc.lft.to/lastmile_qr_scan"}, "lon": -76.99019166666666, "type": "electric_scooter"}, {"bike_id": "29f7b7fbfd8adb260d1db6ef998f6ca5", "is_reserved": 0, "fusion_lon": 0.0, "lat": 38.9290565, "is_disabled": 0, "name": "29f7b7fbfd8adb260d1db6ef998f6ca5", "fusion_lat": 0.0, "rental_uris": {"ios": "https://dc.lft.to/lastmile_qr_scan", "android": "https://dc.lft.to/lastmile_qr_scan"}, "lon": -77.03202166666667, "type": "electric_scooter"}, {"bike_id": "877d995ce25e3802e3e61f8c0a701a8e", "is_reserved": 0, "fusion_lon": 0.0, "lat": 38.909425166666665, "is_disabled": 0, "name": "877d995ce25e3802e3e61f8c0a701a8e", "fusion_lat": 0.0, "rental_uris": {"ios": "https://dc.lft.to/lastmile_qr_scan", "android": "https://dc.lft.to/lastmile_qr_scan"}, "lon": -77.04800683333333, "type": "electric_scooter"}, {"bike_id": "c226841e07c1bbf880f1a497bda89413", "is_reserved": 0, "fusion_lon": 0.0, "lat": 38.86185066666667, "is_disabled": 0, "name": "c226841e07c1bbf880f1a497bda89413", "fusion_lat": 0.0, "rental_uris": {"ios": "https://dc.lft.to/lastmile_qr_scan", "android": "https://dc.lft.to/lastmile_qr_scan"}, "lon": -76.99450016666667, "type": "electric_scooter"}, {"bike_id": "58ddd2cf58431b816ec71ee5b641bc3d", "is_reserved": 0, "fusion_lon": 0.0, "lat": 38.89816233333333, "is_disabled": 0, "name": "58ddd2cf58431b816ec71ee5b641bc3d", "fusion_lat": 0.0, "rental_uris": {"ios": "https://dc.lft.to/lastmile_qr_scan", "android": "https://dc.lft.to/lastmile_qr_scan"}, "lon": -77.0090765, "type": "electric_scooter"}, {"bike_id": "c6ca508e109ecd62425f2eca66572a90", "is_reserved": 0, "fusion_lon": 0.0, "lat": 38.917966, "is_disabled": 0, "name": "c6ca508e109ecd62425f2eca66572a90", "fusion_lat": 0.0, "rental_uris": {"ios": "https://dc.lft.to/lastmile_qr_scan", "android": "https://dc.lft.to/lastmile_qr_scan"}, "lon": -77.034376, "type": "electric_scooter"}, {"bike_id": "7fd95f2637c96593e6e12d062965c2b0", "is_reserved": 0, "fusion_lon": 0.0, "lat": 38.933964833333334, "is_disabled": 0, "name": "7fd95f2637c96593e6e12d062965c2b0", "fusion_lat": 0.0, "rental_uris": {"ios": "https://dc.lft.to/lastmile_qr_scan", "android": "https://dc.lft.to/lastmile_qr_scan"}, "lon": -77.0387955, "type": "electric_scooter"}, {"bike_id": "ce76f9a35a03cde1280381f791dbe45d", "is_reserved": 0, "fusion_lon": 0.0, "lat": 38.917637666666664, "is_disabled": 0, "name": "ce76f9a35a03cde1280381f791dbe45d", "fusion_lat": 0.0, "rental_uris": {"ios": "https://dc.lft.to/lastmile_qr_scan", "android": "https://dc.lft.to/lastmile_qr_scan"}, "lon": -77.02293966666667, "type": "electric_scooter"}, {"bike_id": "727a3bc4420b8912dc1a70bb0484c4c5", "is_reserved": 0, "fusion_lon": 0.0, "lat": 38.88366216666667, "is_disabled": 0, "name": "727a3bc4420b8912dc1a70bb0484c4c5", "fusion_lat": 0.0, "rental_uris": {"ios": "https://dc.lft.to/lastmile_qr_scan", "android": "https://dc.lft.to/lastmile_qr_scan"}, "lon": -76.99519816666667, "type": "electric_scooter"}, {"bike_id": "b045dce8cd29eed08ec0d61213b7a69c", "is_reserved": 0, "fusion_lon": 0.0, "lat": 38.871102, "is_disabled": 0, "name": "b045dce8cd29eed08ec0d61213b7a69c", "fusion_lat": 0.0, "rental_uris": {"ios": "https://dc.lft.to/lastmile_qr_scan", "android": "https://dc.lft.to/lastmile_qr_scan"}, "lon": -76.977437, "type": "electric_scooter"}, {"bike_id": "53289623eef53fdeedef6a382da421e8", "is_reserved": 0, "fusion_lon": 0.0, "lat": 38.926471666666664, "is_disabled": 0, "name": "53289623eef53fdeedef6a382da421e8", "fusion_lat": 0.0, "rental_uris": {"ios": "https://dc.lft.to/lastmile_qr_scan", "android": "https://dc.lft.to/lastmile_qr_scan"}, "lon": -77.03729816666667, "type": "electric_scooter"}, {"bike_id": "07d6233f91584eb605c32402a64d0874", "is_reserved": 0, "fusion_lon": 0.0, "lat": 38.92470766666667, "is_disabled": 0, "name": "07d6233f91584eb605c32402a64d0874", "fusion_lat": 0.0, "rental_uris": {"ios": "https://dc.lft.to/lastmile_qr_scan", "android": "https://dc.lft.to/lastmile_qr_scan"}, "lon": -77.0521625, "type": "electric_scooter"}, {"bike_id": "88407c458fe04ba46be86f0cf0b50021", "is_reserved": 0, "fusion_lon": 0.0, "lat": 38.89818783333333, "is_disabled": 0, "name": "88407c458fe04ba46be86f0cf0b50021", "fusion_lat": 0.0, "rental_uris": {"ios": "https://dc.lft.to/lastmile_qr_scan", "android": "https://dc.lft.to/lastmile_qr_scan"}, "lon": -77.03266733333334, "type": "electric_scooter"}, {"bike_id": "a73e1e73692c71be36349a9524bfcbde", "is_reserved": 0, "fusion_lon": 0.0, "lat": 38.86372633333333, "is_disabled": 0, "name": "a73e1e73692c71be36349a9524bfcbde", "fusion_lat": 0.0, "rental_uris": {"ios": "https://dc.lft.to/lastmile_qr_scan", "android": "https://dc.lft.to/lastmile_qr_scan"}, "lon": -76.9905655, "type": "electric_scooter"}, {"bike_id": "e6dfb15b079e78142b5c01146b3d1300", "is_reserved": 0, "fusion_lon": 0.0, "lat": 38.900268833333335, "is_disabled": 0, "name": "e6dfb15b079e78142b5c01146b3d1300", "fusion_lat": 0.0, "rental_uris": {"ios": "https://dc.lft.to/lastmile_qr_scan", "android": "https://dc.lft.to/lastmile_qr_scan"}, "lon": -76.99851483333333, "type": "electric_scooter"}, {"bike_id": "6f92719b19f5558294f4ea88657df25d", "is_reserved": 0, "fusion_lon": 0.0, "lat": 38.856762333333336, "is_disabled": 0, "name": "6f92719b19f5558294f4ea88657df25d", "fusion_lat": 0.0, "rental_uris": {"ios": "https://dc.lft.to/lastmile_qr_scan", "android": "https://dc.lft.to/lastmile_qr_scan"}, "lon": -77.08568816666667, "type": "electric_bike"}, {"bike_id": "805d96ea6469350d45f52f3a471f3aa6", "is_reserved": 0, "fusion_lon": 0.0, "lat": 38.852858166666664, "is_disabled": 0, "name": "805d96ea6469350d45f52f3a471f3aa6", "fusion_lat": 0.0, "rental_uris": {"ios": "https://dc.lft.to/lastmile_qr_scan", "android": "https://dc.lft.to/lastmile_qr_scan"}, "lon": -77.05276983333333, "type": "electric_bike"}, {"bike_id": "ccd9164b353377b96adf89400b9a74a6", "is_reserved": 0, "fusion_lon": 0.0, "lat": 38.865194, "is_disabled": 0, "name": "ccd9164b353377b96adf89400b9a74a6", "fusion_lat": 0.0, "rental_uris": {"ios": "https://dc.lft.to/lastmile_qr_scan", "android": "https://dc.lft.to/lastmile_qr_scan"}, "lon": -76.99037233333334, "type": "electric_scooter"}, {"bike_id": "1486fd0330c9f25038ddeed7d80853e3", "is_reserved": 0, "fusion_lon": 0.0, "lat": 38.910269, "is_disabled": 0, "name": "1486fd0330c9f25038ddeed7d80853e3", "fusion_lat": 0.0, "rental_uris": {"ios": "https://dc.lft.to/lastmile_qr_scan", "android": "https://dc.lft.to/lastmile_qr_scan"}, "lon": -77.03854766666667, "type": "electric_scooter"}, {"bike_id": "3f42c146e7954404e99b7ba0d74e2f84", "is_reserved": 0, "fusion_lon": 0.0, "lat": 38.901643166666666, "is_disabled": 0, "name": "3f42c146e7954404e99b7ba0d74e2f84", "fusion_lat": 0.0, "rental_uris": {"ios": "https://dc.lft.to/lastmile_qr_scan", "android": "https://dc.lft.to/lastmile_qr_scan"}, "lon": -76.98068216666667, "type": "electric_scooter"}, {"bike_id": "676988a8b480c468a891153dde52d7b5", "is_reserved": 0, "fusion_lon": 0.0, "lat": 38.88705866666667, "is_disabled": 0, "name": "676988a8b480c468a891153dde52d7b5", "fusion_lat": 0.0, "rental_uris": {"ios": "https://dc.lft.to/lastmile_qr_scan", "android": "https://dc.lft.to/lastmile_qr_scan"}, "lon": -77.00153316666666, "type": "electric_scooter"}, {"bike_id": "ace36c621fdac60fb5be87265a723bd0", "is_reserved": 0, "fusion_lon": 0.0, "lat": 38.91776633333333, "is_disabled": 0, "name": "ace36c621fdac60fb5be87265a723bd0", "fusion_lat": 0.0, "rental_uris": {"ios": "https://dc.lft.to/lastmile_qr_scan", "android": "https://dc.lft.to/lastmile_qr_scan"}, "lon": -76.97318583333333, "type": "electric_scooter"}, {"bike_id": "a28a0e9127d3b2b468b9665c41d0e0c2", "is_reserved": 0, "fusion_lon": 0.0, "lat": 38.91722083333333, "is_disabled": 0, "name": "a28a0e9127d3b2b468b9665c41d0e0c2", "fusion_lat": 0.0, "rental_uris": {"ios": "https://dc.lft.to/lastmile_qr_scan", "android": "https://dc.lft.to/lastmile_qr_scan"}, "lon": -77.0289745, "type": "electric_scooter"}, {"bike_id": "6c0f8338b11d594c3a1b9a13ededc490", "is_reserved": 0, "fusion_lon": 0.0, "lat": 38.9224035, "is_disabled": 0, "name": "6c0f8338b11d594c3a1b9a13ededc490", "fusion_lat": 0.0, "rental_uris": {"ios": "https://dc.lft.to/lastmile_qr_scan", "android": "https://dc.lft.to/lastmile_qr_scan"}, "lon": -77.04271516666667, "type": "electric_scooter"}, {"bike_id": "ba2ca4f2126c2413185384223d2a2d81", "is_reserved": 0, "fusion_lon": 0.0, "lat": 39.030475333333335, "is_disabled": 0, "name": "ba2ca4f2126c2413185384223d2a2d81", "fusion_lat": 0.0, "rental_uris": {"ios": "https://dc.lft.to/lastmile_qr_scan", "android": "https://dc.lft.to/lastmile_qr_scan"}, "lon": -77.09476966666666, "type": "electric_bike"}, {"bike_id": "eaa626c1bc4471364b297af63fb8202a", "is_reserved": 0, "fusion_lon": 0.0, "lat": 38.9052485, "is_disabled": 0, "name": "eaa626c1bc4471364b297af63fb8202a", "fusion_lat": 0.0, "rental_uris": {"ios": "https://dc.lft.to/lastmile_qr_scan", "android": "https://dc.lft.to/lastmile_qr_scan"}, "lon": -77.0653755, "type": "electric_scooter"}, {"bike_id": "016172026511717763c71304ee548406", "is_reserved": 0, "fusion_lon": 0.0, "lat": 38.921792833333335, "is_disabled": 0, "name": "016172026511717763c71304ee548406", "fusion_lat": 0.0, "rental_uris": {"ios": "https://dc.lft.to/lastmile_qr_scan", "android": "https://dc.lft.to/lastmile_qr_scan"}, "lon": -77.0423085, "type": "electric_scooter"}, {"bike_id": "373c1228a2f547a46228b931859bc649", "is_reserved": 0, "fusion_lon": 0.0, "lat": 38.8896025, "is_disabled": 0, "name": "373c1228a2f547a46228b931859bc649", "fusion_lat": 0.0, "rental_uris": {"ios": "https://dc.lft.to/lastmile_qr_scan", "android": "https://dc.lft.to/lastmile_qr_scan"}, "lon": -76.98039833333333, "type": "electric_scooter"}, {"bike_id": "1931d6ac3fd4f27ad5ff0ae0939bfb5f", "is_reserved": 0, "fusion_lon": 0.0, "lat": 38.90329666666667, "is_disabled": 0, "name": "1931d6ac3fd4f27ad5ff0ae0939bfb5f", "fusion_lat": 0.0, "rental_uris": {"ios": "https://dc.lft.to/lastmile_qr_scan", "android": "https://dc.lft.to/lastmile_qr_scan"}, "lon": -76.98011133333333, "type": "electric_scooter"}, {"bike_id": "17916024447f20ee8987ca5cfd390ea5", "is_reserved": 0, "fusion_lon": 0.0, "lat": 38.89823766666667, "is_disabled": 0, "name": "17916024447f20ee8987ca5cfd390ea5", "fusion_lat": 0.0, "rental_uris": {"ios": "https://dc.lft.to/lastmile_qr_scan", "android": "https://dc.lft.to/lastmile_qr_scan"}, "lon": -76.980387, "type": "electric_scooter"}, {"bike_id": "bd37f5ba9da51da37bd68ea9e18fd6e6", "is_reserved": 0, "fusion_lon": 0.0, "lat": 38.92310466666667, "is_disabled": 0, "name": "bd37f5ba9da51da37bd68ea9e18fd6e6", "fusion_lat": 0.0, "rental_uris": {"ios": "https://dc.lft.to/lastmile_qr_scan", "android": "https://dc.lft.to/lastmile_qr_scan"}, "lon": -77.02113566666667, "type": "electric_scooter"}, {"bike_id": "4d7587e3eb577e7fa41ff6dd01688ec7", "is_reserved": 0, "fusion_lon": 0.0, "lat": 38.89613383333333, "is_disabled": 0, "name": "4d7587e3eb577e7fa41ff6dd01688ec7", "fusion_lat": 0.0, "rental_uris": {"ios": "https://dc.lft.to/lastmile_qr_scan", "android": "https://dc.lft.to/lastmile_qr_scan"}, "lon": -77.0026345, "type": "electric_scooter"}, {"bike_id": "d9d4ff6893c7bf56fe42f92fe2f2b621", "is_reserved": 0, "fusion_lon": 0.0, "lat": 38.908743666666666, "is_disabled": 0, "name": "d9d4ff6893c7bf56fe42f92fe2f2b621", "fusion_lat": 0.0, "rental_uris": {"ios": "https://dc.lft.to/lastmile_qr_scan", "android": "https://dc.lft.to/lastmile_qr_scan"}, "lon": -77.04324366666667, "type": "electric_scooter"}, {"bike_id": "6dc5136a6b6e332f0f77e4fea905acc8", "is_reserved": 0, "fusion_lon": 0.0, "lat": 38.92540916666667, "is_disabled": 0, "name": "6dc5136a6b6e332f0f77e4fea905acc8", "fusion_lat": 0.0, "rental_uris": {"ios": "https://dc.lft.to/lastmile_qr_scan", "android": "https://dc.lft.to/lastmile_qr_scan"}, "lon": -76.98128, "type": "electric_scooter"}, {"bike_id": "1be35fce101613b40084b23dac6f6a21", "is_reserved": 0, "fusion_lon": 0.0, "lat": 38.92540133333333, "is_disabled": 0, "name": "1be35fce101613b40084b23dac6f6a21", "fusion_lat": 0.0, "rental_uris": {"ios": "https://dc.lft.to/lastmile_qr_scan", "android": "https://dc.lft.to/lastmile_qr_scan"}, "lon": -77.04246233333333, "type": "electric_scooter"}, {"bike_id": "02fde5c14071a4e4175b0d4d4a91f797", "is_reserved": 0, "fusion_lon": 0.0, "lat": 38.973213333333334, "is_disabled": 0, "name": "02fde5c14071a4e4175b0d4d4a91f797", "fusion_lat": 0.0, "rental_uris": {"ios": "https://dc.lft.to/lastmile_qr_scan", "android": "https://dc.lft.to/lastmile_qr_scan"}, "lon": -77.02153133333333, "type": "electric_bike"}, {"bike_id": "d44f47f05059d9dc8aaa927227f45068", "is_reserved": 0, "fusion_lon": 0.0, "lat": 38.91411633333333, "is_disabled": 0, "name": "d44f47f05059d9dc8aaa927227f45068", "fusion_lat": 0.0, "rental_uris": {"ios": "https://dc.lft.to/lastmile_qr_scan", "android": "https://dc.lft.to/lastmile_qr_scan"}, "lon": -77.03147833333334, "type": "electric_scooter"}, {"bike_id": "46a6390b554481b35ac5e28ada646afd", "is_reserved": 0, "fusion_lon": 0.0, "lat": 38.910977, "is_disabled": 0, "name": "46a6390b554481b35ac5e28ada646afd", "fusion_lat": 0.0, "rental_uris": {"ios": "https://dc.lft.to/lastmile_qr_scan", "android": "https://dc.lft.to/lastmile_qr_scan"}, "lon": -77.00363666666667, "type": "electric_scooter"}, {"bike_id": "b1e77225b67fd696465767acb6f4eee6", "is_reserved": 0, "fusion_lon": 0.0, "lat": 38.9179815, "is_disabled": 0, "name": "b1e77225b67fd696465767acb6f4eee6", "fusion_lat": 0.0, "rental_uris": {"ios": "https://dc.lft.to/lastmile_qr_scan", "android": "https://dc.lft.to/lastmile_qr_scan"}, "lon": -77.02776483333334, "type": "electric_scooter"}, {"bike_id": "63a163fc569932d0d737a7748443171f", "is_reserved": 0, "fusion_lon": 0.0, "lat": 38.9006345, "is_disabled": 0, "name": "63a163fc569932d0d737a7748443171f", "fusion_lat": 0.0, "rental_uris": {"ios": "https://dc.lft.to/lastmile_qr_scan", "android": "https://dc.lft.to/lastmile_qr_scan"}, "lon": -76.99837216666667, "type": "electric_scooter"}, {"bike_id": "ec88f4b904786b747135a757866d5ee6", "is_reserved": 0, "fusion_lon": 0.0, "lat": 38.892132833333335, "is_disabled": 0, "name": "ec88f4b904786b747135a757866d5ee6", "fusion_lat": 0.0, "rental_uris": {"ios": "https://dc.lft.to/lastmile_qr_scan", "android": "https://dc.lft.to/lastmile_qr_scan"}, "lon": -77.04872766666666, "type": "electric_scooter"}, {"bike_id": "ec1c6e9b47f8f59e4dcf224f928d8131", "is_reserved": 0, "fusion_lon": 0.0, "lat": 38.95879133333333, "is_disabled": 0, "name": "ec1c6e9b47f8f59e4dcf224f928d8131", "fusion_lat": 0.0, "rental_uris": {"ios": "https://dc.lft.to/lastmile_qr_scan", "android": "https://dc.lft.to/lastmile_qr_scan"}, "lon": -76.9249215, "type": "electric_bike"}, {"bike_id": "2837d8dc095b88bc2266e2ef95562f77", "is_reserved": 0, "fusion_lon": 0.0, "lat": 38.90314816666667, "is_disabled": 0, "name": "2837d8dc095b88bc2266e2ef95562f77", "fusion_lat": 0.0, "rental_uris": {"ios": "https://dc.lft.to/lastmile_qr_scan", "android": "https://dc.lft.to/lastmile_qr_scan"}, "lon": -77.03841333333334, "type": "electric_scooter"}, {"bike_id": "4317c2120b294293c0d66b202e0a61ab", "is_reserved": 0, "fusion_lon": 0.0, "lat": 38.9099705, "is_disabled": 0, "name": "4317c2120b294293c0d66b202e0a61ab", "fusion_lat": 0.0, "rental_uris": {"ios": "https://dc.lft.to/lastmile_qr_scan", "android": "https://dc.lft.to/lastmile_qr_scan"}, "lon": -77.02099533333333, "type": "electric_scooter"}, {"bike_id": "e03fd9a260fad88527210c63d03a53ed", "is_reserved": 0, "fusion_lon": 0.0, "lat": 38.92381983333333, "is_disabled": 0, "name": "e03fd9a260fad88527210c63d03a53ed", "fusion_lat": 0.0, "rental_uris": {"ios": "https://dc.lft.to/lastmile_qr_scan", "android": "https://dc.lft.to/lastmile_qr_scan"}, "lon": -77.027575, "type": "electric_scooter"}, {"bike_id": "b7ba729355ccdec816f4b08dab657897", "is_reserved": 0, "fusion_lon": 0.0, "lat": 38.922507833333334, "is_disabled": 0, "name": "b7ba729355ccdec816f4b08dab657897", "fusion_lat": 0.0, "rental_uris": {"ios": "https://dc.lft.to/lastmile_qr_scan", "android": "https://dc.lft.to/lastmile_qr_scan"}, "lon": -77.029841, "type": "electric_scooter"}, {"bike_id": "b911a5835e6f697572fb39fef115e530", "is_reserved": 0, "fusion_lon": 0.0, "lat": 38.908146, "is_disabled": 0, "name": "b911a5835e6f697572fb39fef115e530", "fusion_lat": 0.0, "rental_uris": {"ios": "https://dc.lft.to/lastmile_qr_scan", "android": "https://dc.lft.to/lastmile_qr_scan"}, "lon": -76.99852916666667, "type": "electric_scooter"}, {"bike_id": "b442fa2910bf267450e63ad9a8b27ec5", "is_reserved": 0, "fusion_lon": 0.0, "lat": 38.892572666666666, "is_disabled": 0, "name": "b442fa2910bf267450e63ad9a8b27ec5", "fusion_lat": 0.0, "rental_uris": {"ios": "https://dc.lft.to/lastmile_qr_scan", "android": "https://dc.lft.to/lastmile_qr_scan"}, "lon": -76.949225, "type": "electric_scooter"}, {"bike_id": "3c2c62611d1f7c6a09b3f2df039fbb1d", "is_reserved": 0, "fusion_lon": 0.0, "lat": 38.90469483333333, "is_disabled": 0, "name": "3c2c62611d1f7c6a09b3f2df039fbb1d", "fusion_lat": 0.0, "rental_uris": {"ios": "https://dc.lft.to/lastmile_qr_scan", "android": "https://dc.lft.to/lastmile_qr_scan"}, "lon": -76.98912216666666, "type": "electric_scooter"}, {"bike_id": "44229365e2b28e61c19aa7d7843653fa", "is_reserved": 0, "fusion_lon": 0.0, "lat": 38.92068116666667, "is_disabled": 0, "name": "44229365e2b28e61c19aa7d7843653fa", "fusion_lat": 0.0, "rental_uris": {"ios": "https://dc.lft.to/lastmile_qr_scan", "android": "https://dc.lft.to/lastmile_qr_scan"}, "lon": -77.04553683333333, "type": "electric_scooter"}, {"bike_id": "b00f22412e1afc26599d4a8d26a1e04b", "is_reserved": 0, "fusion_lon": 0.0, "lat": 38.904951, "is_disabled": 0, "name": "b00f22412e1afc26599d4a8d26a1e04b", "fusion_lat": 0.0, "rental_uris": {"ios": "https://dc.lft.to/lastmile_qr_scan", "android": "https://dc.lft.to/lastmile_qr_scan"}, "lon": -77.060123, "type": "electric_scooter"}, {"bike_id": "72f521719db03b20fe3a5df15fe4cb89", "is_reserved": 0, "fusion_lon": 0.0, "lat": 38.96204566666667, "is_disabled": 0, "name": "72f521719db03b20fe3a5df15fe4cb89", "fusion_lat": 0.0, "rental_uris": {"ios": "https://dc.lft.to/lastmile_qr_scan", "android": "https://dc.lft.to/lastmile_qr_scan"}, "lon": -77.0278585, "type": "electric_bike"}, {"bike_id": "c1d3a5363b306ef27b0d878e5d35ab4f", "is_reserved": 0, "fusion_lon": 0.0, "lat": 38.87480016666667, "is_disabled": 0, "name": "c1d3a5363b306ef27b0d878e5d35ab4f", "fusion_lat": 0.0, "rental_uris": {"ios": "https://dc.lft.to/lastmile_qr_scan", "android": "https://dc.lft.to/lastmile_qr_scan"}, "lon": -76.96529516666666, "type": "electric_bike"}, {"bike_id": "f247895a0a2ec671a15fb30556ff7446", "is_reserved": 0, "fusion_lon": 0.0, "lat": 38.904003833333334, "is_disabled": 0, "name": "f247895a0a2ec671a15fb30556ff7446", "fusion_lat": 0.0, "rental_uris": {"ios": "https://dc.lft.to/lastmile_qr_scan", "android": "https://dc.lft.to/lastmile_qr_scan"}, "lon": -77.04009366666666, "type": "electric_scooter"}, {"bike_id": "8890f53080822049d459b305082480f2", "is_reserved": 0, "fusion_lon": 0.0, "lat": 38.88733716666667, "is_disabled": 0, "name": "8890f53080822049d459b305082480f2", "fusion_lat": 0.0, "rental_uris": {"ios": "https://dc.lft.to/lastmile_qr_scan", "android": "https://dc.lft.to/lastmile_qr_scan"}, "lon": -77.022125, "type": "electric_scooter"}, {"bike_id": "a72ec39dda00b829728684dd3ac8aeeb", "is_reserved": 0, "fusion_lon": 0.0, "lat": 38.904156, "is_disabled": 0, "name": "a72ec39dda00b829728684dd3ac8aeeb", "fusion_lat": 0.0, "rental_uris": {"ios": "https://dc.lft.to/lastmile_qr_scan", "android": "https://dc.lft.to/lastmile_qr_scan"}, "lon": -77.04658683333334, "type": "electric_scooter"}, {"bike_id": "f7fe9289d460e54eef79e91771997048", "is_reserved": 0, "fusion_lon": 0.0, "lat": 38.9097245, "is_disabled": 0, "name": "f7fe9289d460e54eef79e91771997048", "fusion_lat": 0.0, "rental_uris": {"ios": "https://dc.lft.to/lastmile_qr_scan", "android": "https://dc.lft.to/lastmile_qr_scan"}, "lon": -77.02180866666667, "type": "electric_scooter"}, {"bike_id": "7b0bbd91a40a5b20a2b0e13606f5c3b2", "is_reserved": 0, "fusion_lon": 0.0, "lat": 38.90180333333333, "is_disabled": 0, "name": "7b0bbd91a40a5b20a2b0e13606f5c3b2", "fusion_lat": 0.0, "rental_uris": {"ios": "https://dc.lft.to/lastmile_qr_scan", "android": "https://dc.lft.to/lastmile_qr_scan"}, "lon": -77.03931416666667, "type": "electric_scooter"}, {"bike_id": "c2a4ea2b2a0d4395dff4629b9f887beb", "is_reserved": 0, "fusion_lon": 0.0, "lat": 38.91689683333333, "is_disabled": 0, "name": "c2a4ea2b2a0d4395dff4629b9f887beb", "fusion_lat": 0.0, "rental_uris": {"ios": "https://dc.lft.to/lastmile_qr_scan", "android": "https://dc.lft.to/lastmile_qr_scan"}, "lon": -77.03485183333333, "type": "electric_scooter"}, {"bike_id": "e576c95c3f7f041960b93db1320e8ffe", "is_reserved": 0, "fusion_lon": 0.0, "lat": 38.96021416666667, "is_disabled": 0, "name": "e576c95c3f7f041960b93db1320e8ffe", "fusion_lat": 0.0, "rental_uris": {"ios": "https://dc.lft.to/lastmile_qr_scan", "android": "https://dc.lft.to/lastmile_qr_scan"}, "lon": -77.03382116666667, "type": "electric_bike"}, {"bike_id": "4043f8c2b54d8c5c9a97c8a5f7518a05", "is_reserved": 0, "fusion_lon": 0.0, "lat": 38.92406066666667, "is_disabled": 0, "name": "4043f8c2b54d8c5c9a97c8a5f7518a05", "fusion_lat": 0.0, "rental_uris": {"ios": "https://dc.lft.to/lastmile_qr_scan", "android": "https://dc.lft.to/lastmile_qr_scan"}, "lon": -77.03555666666666, "type": "electric_scooter"}, {"bike_id": "4d60d9edb56216033788f3015fc92e6c", "is_reserved": 0, "fusion_lon": 0.0, "lat": 38.919458, "is_disabled": 0, "name": "4d60d9edb56216033788f3015fc92e6c", "fusion_lat": 0.0, "rental_uris": {"ios": "https://dc.lft.to/lastmile_qr_scan", "android": "https://dc.lft.to/lastmile_qr_scan"}, "lon": -77.0319915, "type": "electric_scooter"}, {"bike_id": "20de054b588f6213a1c064083837df10", "is_reserved": 0, "fusion_lon": 0.0, "lat": 38.919612, "is_disabled": 0, "name": "20de054b588f6213a1c064083837df10", "fusion_lat": 0.0, "rental_uris": {"ios": "https://dc.lft.to/lastmile_qr_scan", "android": "https://dc.lft.to/lastmile_qr_scan"}, "lon": -77.03207283333333, "type": "electric_scooter"}, {"bike_id": "5e81b36c423203935cf09cfd0b9b2374", "is_reserved": 0, "fusion_lon": 0.0, "lat": 38.919796833333336, "is_disabled": 0, "name": "5e81b36c423203935cf09cfd0b9b2374", "fusion_lat": 0.0, "rental_uris": {"ios": "https://dc.lft.to/lastmile_qr_scan", "android": "https://dc.lft.to/lastmile_qr_scan"}, "lon": -77.021846, "type": "electric_scooter"}, {"bike_id": "977592e62716e6795d9df1d57878c9db", "is_reserved": 0, "fusion_lon": 0.0, "lat": 38.82080066666666, "is_disabled": 0, "name": "977592e62716e6795d9df1d57878c9db", "fusion_lat": 0.0, "rental_uris": {"ios": "https://dc.lft.to/lastmile_qr_scan", "android": "https://dc.lft.to/lastmile_qr_scan"}, "lon": -77.05367533333333, "type": "electric_bike"}, {"bike_id": "c6fac6b0a2d836a454adb2ddc9bb2928", "is_reserved": 0, "fusion_lon": 0.0, "lat": 38.898902, "is_disabled": 0, "name": "c6fac6b0a2d836a454adb2ddc9bb2928", "fusion_lat": 0.0, "rental_uris": {"ios": "https://dc.lft.to/lastmile_qr_scan", "android": "https://dc.lft.to/lastmile_qr_scan"}, "lon": -77.00742216666667, "type": "electric_scooter"}, {"bike_id": "cd7844011d58fbff4faf9359de22e0ef", "is_reserved": 0, "fusion_lon": 0.0, "lat": 38.919144333333335, "is_disabled": 0, "name": "cd7844011d58fbff4faf9359de22e0ef", "fusion_lat": 0.0, "rental_uris": {"ios": "https://dc.lft.to/lastmile_qr_scan", "android": "https://dc.lft.to/lastmile_qr_scan"}, "lon": -77.032, "type": "electric_scooter"}, {"bike_id": "678649b1898e3a253bf04fe46d6ce49d", "is_reserved": 0, "fusion_lon": 0.0, "lat": 38.903731666666665, "is_disabled": 0, "name": "678649b1898e3a253bf04fe46d6ce49d", "fusion_lat": 0.0, "rental_uris": {"ios": "https://dc.lft.to/lastmile_qr_scan", "android": "https://dc.lft.to/lastmile_qr_scan"}, "lon": -77.020045, "type": "electric_scooter"}, {"bike_id": "5047feae6cf600bc979f93b48c46a9d2", "is_reserved": 0, "fusion_lon": 0.0, "lat": 38.905291166666665, "is_disabled": 0, "name": "5047feae6cf600bc979f93b48c46a9d2", "fusion_lat": 0.0, "rental_uris": {"ios": "https://dc.lft.to/lastmile_qr_scan", "android": "https://dc.lft.to/lastmile_qr_scan"}, "lon": -77.06142666666666, "type": "electric_scooter"}, {"bike_id": "cc6b1ab9494dc2f98f0f2dda955cffe8", "is_reserved": 0, "fusion_lon": 0.0, "lat": 38.95082, "is_disabled": 0, "name": "cc6b1ab9494dc2f98f0f2dda955cffe8", "fusion_lat": 0.0, "rental_uris": {"ios": "https://dc.lft.to/lastmile_qr_scan", "android": "https://dc.lft.to/lastmile_qr_scan"}, "lon": -77.02831483333334, "type": "electric_scooter"}, {"bike_id": "071837664c39e95b6aefecf416d020b9", "is_reserved": 0, "fusion_lon": 0.0, "lat": 38.8982215, "is_disabled": 0, "name": "071837664c39e95b6aefecf416d020b9", "fusion_lat": 0.0, "rental_uris": {"ios": "https://dc.lft.to/lastmile_qr_scan", "android": "https://dc.lft.to/lastmile_qr_scan"}, "lon": -77.04367266666667, "type": "electric_scooter"}, {"bike_id": "0d3366ce8499b69f67704ee8a236ddcd", "is_reserved": 0, "fusion_lon": 0.0, "lat": 38.9181995, "is_disabled": 0, "name": "0d3366ce8499b69f67704ee8a236ddcd", "fusion_lat": 0.0, "rental_uris": {"ios": "https://dc.lft.to/lastmile_qr_scan", "android": "https://dc.lft.to/lastmile_qr_scan"}, "lon": -77.0352955, "type": "electric_scooter"}, {"bike_id": "7ecbeba8d1579c4263398c7f59b07e89", "is_reserved": 0, "fusion_lon": 0.0, "lat": 38.92194716666667, "is_disabled": 0, "name": "7ecbeba8d1579c4263398c7f59b07e89", "fusion_lat": 0.0, "rental_uris": {"ios": "https://dc.lft.to/lastmile_qr_scan", "android": "https://dc.lft.to/lastmile_qr_scan"}, "lon": -77.04237183333333, "type": "electric_scooter"}, {"bike_id": "b18775e6ea17995ec5708627c986c699", "is_reserved": 0, "fusion_lon": 0.0, "lat": 38.935284, "is_disabled": 0, "name": "b18775e6ea17995ec5708627c986c699", "fusion_lat": 0.0, "rental_uris": {"ios": "https://dc.lft.to/lastmile_qr_scan", "android": "https://dc.lft.to/lastmile_qr_scan"}, "lon": -77.02352833333333, "type": "electric_scooter"}, {"bike_id": "420364c24dd7ccfe83b6ad7ba47b7568", "is_reserved": 0, "fusion_lon": 0.0, "lat": 38.940761333333334, "is_disabled": 0, "name": "420364c24dd7ccfe83b6ad7ba47b7568", "fusion_lat": 0.0, "rental_uris": {"ios": "https://dc.lft.to/lastmile_qr_scan", "android": "https://dc.lft.to/lastmile_qr_scan"}, "lon": -77.02720916666667, "type": "electric_scooter"}, {"bike_id": "e29d74bc82e2ffdafb88e147bbb76543", "is_reserved": 0, "fusion_lon": 0.0, "lat": 38.90238183333334, "is_disabled": 0, "name": "e29d74bc82e2ffdafb88e147bbb76543", "fusion_lat": 0.0, "rental_uris": {"ios": "https://dc.lft.to/lastmile_qr_scan", "android": "https://dc.lft.to/lastmile_qr_scan"}, "lon": -77.02683716666667, "type": "electric_scooter"}, {"bike_id": "e83359c05c973b4dd75a11c7494c3e43", "is_reserved": 0, "fusion_lon": 0.0, "lat": 38.90777633333333, "is_disabled": 0, "name": "e83359c05c973b4dd75a11c7494c3e43", "fusion_lat": 0.0, "rental_uris": {"ios": "https://dc.lft.to/lastmile_qr_scan", "android": "https://dc.lft.to/lastmile_qr_scan"}, "lon": -77.0368185, "type": "electric_scooter"}, {"bike_id": "7876b93ded335f1b3594b044deda4d09", "is_reserved": 0, "fusion_lon": 0.0, "lat": 38.806174, "is_disabled": 0, "name": "7876b93ded335f1b3594b044deda4d09", "fusion_lat": 0.0, "rental_uris": {"ios": "https://dc.lft.to/lastmile_qr_scan", "android": "https://dc.lft.to/lastmile_qr_scan"}, "lon": -77.06347783333334, "type": "electric_bike"}, {"bike_id": "9f7f8245ce4370f705259ab5f35408c5", "is_reserved": 0, "fusion_lon": 0.0, "lat": 38.86245783333333, "is_disabled": 0, "name": "9f7f8245ce4370f705259ab5f35408c5", "fusion_lat": 0.0, "rental_uris": {"ios": "https://dc.lft.to/lastmile_qr_scan", "android": "https://dc.lft.to/lastmile_qr_scan"}, "lon": -76.99479216666667, "type": "electric_scooter"}, {"bike_id": "c5b338ef7b326236e83cf61cb3e5db4f", "is_reserved": 0, "fusion_lon": 0.0, "lat": 38.9078295, "is_disabled": 0, "name": "c5b338ef7b326236e83cf61cb3e5db4f", "fusion_lat": 0.0, "rental_uris": {"ios": "https://dc.lft.to/lastmile_qr_scan", "android": "https://dc.lft.to/lastmile_qr_scan"}, "lon": -77.03673716666667, "type": "electric_scooter"}, {"bike_id": "3ca07218e0e65908eb4b291a4ceaa4f0", "is_reserved": 0, "fusion_lon": 0.0, "lat": 38.92859333333333, "is_disabled": 0, "name": "3ca07218e0e65908eb4b291a4ceaa4f0", "fusion_lat": 0.0, "rental_uris": {"ios": "https://dc.lft.to/lastmile_qr_scan", "android": "https://dc.lft.to/lastmile_qr_scan"}, "lon": -77.031009, "type": "electric_scooter"}, {"bike_id": "6e4ea69a17348c48af101e1c5cde2a19", "is_reserved": 0, "fusion_lon": 0.0, "lat": 38.92123183333333, "is_disabled": 0, "name": "6e4ea69a17348c48af101e1c5cde2a19", "fusion_lat": 0.0, "rental_uris": {"ios": "https://dc.lft.to/lastmile_qr_scan", "android": "https://dc.lft.to/lastmile_qr_scan"}, "lon": -77.03642733333334, "type": "electric_scooter"}, {"bike_id": "a1f8b75fca0078998469ed418f2d14e7", "is_reserved": 0, "fusion_lon": 0.0, "lat": 38.82260983333333, "is_disabled": 0, "name": "a1f8b75fca0078998469ed418f2d14e7", "fusion_lat": 0.0, "rental_uris": {"ios": "https://dc.lft.to/lastmile_qr_scan", "android": "https://dc.lft.to/lastmile_qr_scan"}, "lon": -77.05809466666666, "type": "electric_bike"}, {"bike_id": "29cee5b7374606e210500ff490dd8b0a", "is_reserved": 0, "fusion_lon": 0.0, "lat": 38.985055, "is_disabled": 0, "name": "29cee5b7374606e210500ff490dd8b0a", "fusion_lat": 0.0, "rental_uris": {"ios": "https://dc.lft.to/lastmile_qr_scan", "android": "https://dc.lft.to/lastmile_qr_scan"}, "lon": -76.98208666666666, "type": "electric_bike"}, {"bike_id": "7447b93d6164321041523acf1e8927f4", "is_reserved": 0, "fusion_lon": 0.0, "lat": 38.884945333333334, "is_disabled": 0, "name": "7447b93d6164321041523acf1e8927f4", "fusion_lat": 0.0, "rental_uris": {"ios": "https://dc.lft.to/lastmile_qr_scan", "android": "https://dc.lft.to/lastmile_qr_scan"}, "lon": -77.00714133333334, "type": "electric_scooter"}, {"bike_id": "33036a9143813b374ed61dadc0f73c35", "is_reserved": 0, "fusion_lon": 0.0, "lat": 38.90979266666667, "is_disabled": 0, "name": "33036a9143813b374ed61dadc0f73c35", "fusion_lat": 0.0, "rental_uris": {"ios": "https://dc.lft.to/lastmile_qr_scan", "android": "https://dc.lft.to/lastmile_qr_scan"}, "lon": -77.02406216666667, "type": "electric_scooter"}, {"bike_id": "1078873340be0f7429ba3ff9bdd5aec8", "is_reserved": 0, "fusion_lon": 0.0, "lat": 38.897068166666664, "is_disabled": 0, "name": "1078873340be0f7429ba3ff9bdd5aec8", "fusion_lat": 0.0, "rental_uris": {"ios": "https://dc.lft.to/lastmile_qr_scan", "android": "https://dc.lft.to/lastmile_qr_scan"}, "lon": -77.02398, "type": "electric_scooter"}, {"bike_id": "705e0d28130ecb67d9380999fd148ab4", "is_reserved": 0, "fusion_lon": 0.0, "lat": 38.923385, "is_disabled": 0, "name": "705e0d28130ecb67d9380999fd148ab4", "fusion_lat": 0.0, "rental_uris": {"ios": "https://dc.lft.to/lastmile_qr_scan", "android": "https://dc.lft.to/lastmile_qr_scan"}, "lon": -77.041931, "type": "electric_scooter"}, {"bike_id": "d04848a042be4c9e72eea38a1c0f41b8", "is_reserved": 0, "fusion_lon": 0.0, "lat": 38.897440833333334, "is_disabled": 0, "name": "d04848a042be4c9e72eea38a1c0f41b8", "fusion_lat": 0.0, "rental_uris": {"ios": "https://dc.lft.to/lastmile_qr_scan", "android": "https://dc.lft.to/lastmile_qr_scan"}, "lon": -77.017501, "type": "electric_scooter"}, {"bike_id": "d775cd0d0730b1a96d2f2ce2b270e864", "is_reserved": 0, "fusion_lon": 0.0, "lat": 38.89215083333333, "is_disabled": 0, "name": "d775cd0d0730b1a96d2f2ce2b270e864", "fusion_lat": 0.0, "rental_uris": {"ios": "https://dc.lft.to/lastmile_qr_scan", "android": "https://dc.lft.to/lastmile_qr_scan"}, "lon": -77.04872733333333, "type": "electric_scooter"}, {"bike_id": "09a7643a038a51dd77d6b6fedec17086", "is_reserved": 0, "fusion_lon": 0.0, "lat": 38.920887666666665, "is_disabled": 0, "name": "09a7643a038a51dd77d6b6fedec17086", "fusion_lat": 0.0, "rental_uris": {"ios": "https://dc.lft.to/lastmile_qr_scan", "android": "https://dc.lft.to/lastmile_qr_scan"}, "lon": -77.02531383333333, "type": "electric_scooter"}, {"bike_id": "1473db10fdccd2fd71910cb998492a55", "is_reserved": 0, "fusion_lon": 0.0, "lat": 38.86991316666666, "is_disabled": 0, "name": "1473db10fdccd2fd71910cb998492a55", "fusion_lat": 0.0, "rental_uris": {"ios": "https://dc.lft.to/lastmile_qr_scan", "android": "https://dc.lft.to/lastmile_qr_scan"}, "lon": -76.95983816666667, "type": "electric_bike"}, {"bike_id": "fa8d07861f6c6b5759fb2c7d601a8fc4", "is_reserved": 0, "fusion_lon": 0.0, "lat": 38.93258516666667, "is_disabled": 0, "name": "fa8d07861f6c6b5759fb2c7d601a8fc4", "fusion_lat": 0.0, "rental_uris": {"ios": "https://dc.lft.to/lastmile_qr_scan", "android": "https://dc.lft.to/lastmile_qr_scan"}, "lon": -77.03268433333334, "type": "electric_scooter"}, {"bike_id": "15f927e4de37ac0075c4e98de4232474", "is_reserved": 0, "fusion_lon": 0.0, "lat": 38.91735116666667, "is_disabled": 0, "name": "15f927e4de37ac0075c4e98de4232474", "fusion_lat": 0.0, "rental_uris": {"ios": "https://dc.lft.to/lastmile_qr_scan", "android": "https://dc.lft.to/lastmile_qr_scan"}, "lon": -77.00798383333333, "type": "electric_scooter"}, {"bike_id": "f2cc018ac9a75e64ef5754f6c76a9af8", "is_reserved": 0, "fusion_lon": 0.0, "lat": 38.921183166666665, "is_disabled": 0, "name": "f2cc018ac9a75e64ef5754f6c76a9af8", "fusion_lat": 0.0, "rental_uris": {"ios": "https://dc.lft.to/lastmile_qr_scan", "android": "https://dc.lft.to/lastmile_qr_scan"}, "lon": -77.04140166666667, "type": "electric_scooter"}, {"bike_id": "f1e52bec6876705e7a7442241b0c4842", "is_reserved": 0, "fusion_lon": 0.0, "lat": 38.8811775, "is_disabled": 0, "name": "f1e52bec6876705e7a7442241b0c4842", "fusion_lat": 0.0, "rental_uris": {"ios": "https://dc.lft.to/lastmile_qr_scan", "android": "https://dc.lft.to/lastmile_qr_scan"}, "lon": -77.00096266666667, "type": "electric_scooter"}, {"bike_id": "3d0f78ee80ae0ac563362e0671630955", "is_reserved": 0, "fusion_lon": 0.0, "lat": 38.88499816666667, "is_disabled": 0, "name": "3d0f78ee80ae0ac563362e0671630955", "fusion_lat": 0.0, "rental_uris": {"ios": "https://dc.lft.to/lastmile_qr_scan", "android": "https://dc.lft.to/lastmile_qr_scan"}, "lon": -77.00570166666667, "type": "electric_scooter"}, {"bike_id": "a5751011edd504b989ab1ef57750a725", "is_reserved": 0, "fusion_lon": 0.0, "lat": 38.90045416666667, "is_disabled": 0, "name": "a5751011edd504b989ab1ef57750a725", "fusion_lat": 0.0, "rental_uris": {"ios": "https://dc.lft.to/lastmile_qr_scan", "android": "https://dc.lft.to/lastmile_qr_scan"}, "lon": -77.00064216666667, "type": "electric_scooter"}, {"bike_id": "4856845964e3bb3f18f0be96ec057a49", "is_reserved": 0, "fusion_lon": 0.0, "lat": 38.89344616666666, "is_disabled": 0, "name": "4856845964e3bb3f18f0be96ec057a49", "fusion_lat": 0.0, "rental_uris": {"ios": "https://dc.lft.to/lastmile_qr_scan", "android": "https://dc.lft.to/lastmile_qr_scan"}, "lon": -76.9493465, "type": "electric_scooter"}, {"bike_id": "4e75d74b9cbbda5f2c92eff51286b610", "is_reserved": 0, "fusion_lon": 0.0, "lat": 38.90267633333333, "is_disabled": 0, "name": "4e75d74b9cbbda5f2c92eff51286b610", "fusion_lat": 0.0, "rental_uris": {"ios": "https://dc.lft.to/lastmile_qr_scan", "android": "https://dc.lft.to/lastmile_qr_scan"}, "lon": -77.03850316666667, "type": "electric_scooter"}, {"bike_id": "33b7495180205f5e473f1aa59d3648de", "is_reserved": 0, "fusion_lon": 0.0, "lat": 38.91941966666667, "is_disabled": 0, "name": "33b7495180205f5e473f1aa59d3648de", "fusion_lat": 0.0, "rental_uris": {"ios": "https://dc.lft.to/lastmile_qr_scan", "android": "https://dc.lft.to/lastmile_qr_scan"}, "lon": -77.04150583333333, "type": "electric_scooter"}, {"bike_id": "77cbd91c80e91fbce6a13f2f10422d15", "is_reserved": 0, "fusion_lon": 0.0, "lat": 38.873711666666665, "is_disabled": 0, "name": "77cbd91c80e91fbce6a13f2f10422d15", "fusion_lat": 0.0, "rental_uris": {"ios": "https://dc.lft.to/lastmile_qr_scan", "android": "https://dc.lft.to/lastmile_qr_scan"}, "lon": -77.11802716666666, "type": "electric_bike"}, {"bike_id": "de197938f28ddd44cec0cc130299cdea", "is_reserved": 0, "fusion_lon": 0.0, "lat": 38.921092, "is_disabled": 0, "name": "de197938f28ddd44cec0cc130299cdea", "fusion_lat": 0.0, "rental_uris": {"ios": "https://dc.lft.to/lastmile_qr_scan", "android": "https://dc.lft.to/lastmile_qr_scan"}, "lon": -77.0438055, "type": "electric_scooter"}, {"bike_id": "415afaedd0af422d01761e9647596d64", "is_reserved": 0, "fusion_lon": 0.0, "lat": 38.96556733333333, "is_disabled": 0, "name": "415afaedd0af422d01761e9647596d64", "fusion_lat": 0.0, "rental_uris": {"ios": "https://dc.lft.to/lastmile_qr_scan", "android": "https://dc.lft.to/lastmile_qr_scan"}, "lon": -77.02295216666667, "type": "electric_bike"}, {"bike_id": "ffc398c2e805db53de88f4b0abdddde6", "is_reserved": 0, "fusion_lon": 0.0, "lat": 38.878603, "is_disabled": 0, "name": "ffc398c2e805db53de88f4b0abdddde6", "fusion_lat": 0.0, "rental_uris": {"ios": "https://dc.lft.to/lastmile_qr_scan", "android": "https://dc.lft.to/lastmile_qr_scan"}, "lon": -76.9899, "type": "electric_scooter"}, {"bike_id": "5d14ff69f28de1046ab902ea4344c2db", "is_reserved": 0, "fusion_lon": 0.0, "lat": 38.944197333333335, "is_disabled": 0, "name": "5d14ff69f28de1046ab902ea4344c2db", "fusion_lat": 0.0, "rental_uris": {"ios": "https://dc.lft.to/lastmile_qr_scan", "android": "https://dc.lft.to/lastmile_qr_scan"}, "lon": -76.99205883333333, "type": "electric_scooter"}, {"bike_id": "d6a0d32c0b0985321bf1ad9f761ec676", "is_reserved": 0, "fusion_lon": 0.0, "lat": 38.905862666666664, "is_disabled": 0, "name": "d6a0d32c0b0985321bf1ad9f761ec676", "fusion_lat": 0.0, "rental_uris": {"ios": "https://dc.lft.to/lastmile_qr_scan", "android": "https://dc.lft.to/lastmile_qr_scan"}, "lon": -77.04123183333333, "type": "electric_scooter"}, {"bike_id": "d8bb85f22635e76ddeaa052abb29e175", "is_reserved": 0, "fusion_lon": 0.0, "lat": 38.900294833333334, "is_disabled": 0, "name": "d8bb85f22635e76ddeaa052abb29e175", "fusion_lat": 0.0, "rental_uris": {"ios": "https://dc.lft.to/lastmile_qr_scan", "android": "https://dc.lft.to/lastmile_qr_scan"}, "lon": -77.04335733333333, "type": "electric_scooter"}, {"bike_id": "c6a02b20ad3c32c9886402e8059f80fa", "is_reserved": 0, "fusion_lon": 0.0, "lat": 38.92815733333333, "is_disabled": 0, "name": "c6a02b20ad3c32c9886402e8059f80fa", "fusion_lat": 0.0, "rental_uris": {"ios": "https://dc.lft.to/lastmile_qr_scan", "android": "https://dc.lft.to/lastmile_qr_scan"}, "lon": -77.0371655, "type": "electric_scooter"}, {"bike_id": "e7e4dd18d628feda5fbfed0b8fa7f810", "is_reserved": 0, "fusion_lon": 0.0, "lat": 38.90260133333334, "is_disabled": 0, "name": "e7e4dd18d628feda5fbfed0b8fa7f810", "fusion_lat": 0.0, "rental_uris": {"ios": "https://dc.lft.to/lastmile_qr_scan", "android": "https://dc.lft.to/lastmile_qr_scan"}, "lon": -77.03465333333334, "type": "electric_scooter"}, {"bike_id": "3909e996b9db46bbcffa588bdfc4d7e1", "is_reserved": 0, "fusion_lon": 0.0, "lat": 38.9225555, "is_disabled": 0, "name": "3909e996b9db46bbcffa588bdfc4d7e1", "fusion_lat": 0.0, "rental_uris": {"ios": "https://dc.lft.to/lastmile_qr_scan", "android": "https://dc.lft.to/lastmile_qr_scan"}, "lon": -77.03191033333333, "type": "electric_scooter"}, {"bike_id": "ca4c1e0c2ca0db22980d2950091f8b06", "is_reserved": 0, "fusion_lon": 0.0, "lat": 38.9326175, "is_disabled": 0, "name": "ca4c1e0c2ca0db22980d2950091f8b06", "fusion_lat": 0.0, "rental_uris": {"ios": "https://dc.lft.to/lastmile_qr_scan", "android": "https://dc.lft.to/lastmile_qr_scan"}, "lon": -77.03489833333333, "type": "electric_scooter"}, {"bike_id": "968525abf54302c0e1a5480b949195c2", "is_reserved": 0, "fusion_lon": 0.0, "lat": 38.902088166666665, "is_disabled": 0, "name": "968525abf54302c0e1a5480b949195c2", "fusion_lat": 0.0, "rental_uris": {"ios": "https://dc.lft.to/lastmile_qr_scan", "android": "https://dc.lft.to/lastmile_qr_scan"}, "lon": -77.04622366666666, "type": "electric_scooter"}, {"bike_id": "b8619e7dabe55acbf799f699639ecd56", "is_reserved": 0, "fusion_lon": 0.0, "lat": 38.850610833333334, "is_disabled": 0, "name": "b8619e7dabe55acbf799f699639ecd56", "fusion_lat": 0.0, "rental_uris": {"ios": "https://dc.lft.to/lastmile_qr_scan", "android": "https://dc.lft.to/lastmile_qr_scan"}, "lon": -76.97331066666666, "type": "electric_bike"}, {"bike_id": "6da87b4670d4afe2411d87ddd2938bc4", "is_reserved": 0, "fusion_lon": 0.0, "lat": 38.920627333333336, "is_disabled": 0, "name": "6da87b4670d4afe2411d87ddd2938bc4", "fusion_lat": 0.0, "rental_uris": {"ios": "https://dc.lft.to/lastmile_qr_scan", "android": "https://dc.lft.to/lastmile_qr_scan"}, "lon": -77.0438395, "type": "electric_scooter"}, {"bike_id": "184d3b1ffe1d1f3d3f7967e6cbabf113", "is_reserved": 0, "fusion_lon": 0.0, "lat": 38.89226633333333, "is_disabled": 0, "name": "184d3b1ffe1d1f3d3f7967e6cbabf113", "fusion_lat": 0.0, "rental_uris": {"ios": "https://dc.lft.to/lastmile_qr_scan", "android": "https://dc.lft.to/lastmile_qr_scan"}, "lon": -77.02385033333333, "type": "electric_scooter"}, {"bike_id": "a91a3ca9393b020a566b69e5fbd8873b", "is_reserved": 0, "fusion_lon": 0.0, "lat": 38.9287075, "is_disabled": 0, "name": "a91a3ca9393b020a566b69e5fbd8873b", "fusion_lat": 0.0, "rental_uris": {"ios": "https://dc.lft.to/lastmile_qr_scan", "android": "https://dc.lft.to/lastmile_qr_scan"}, "lon": -77.0369035, "type": "electric_scooter"}, {"bike_id": "1091ee32d90870ea17940f701016a740", "is_reserved": 0, "fusion_lon": 0.0, "lat": 38.84815533333333, "is_disabled": 0, "name": "1091ee32d90870ea17940f701016a740", "fusion_lat": 0.0, "rental_uris": {"ios": "https://dc.lft.to/lastmile_qr_scan", "android": "https://dc.lft.to/lastmile_qr_scan"}, "lon": -76.978437, "type": "electric_bike"}, {"bike_id": "96990463d9a0277a47e11239af843022", "is_reserved": 0, "fusion_lon": 0.0, "lat": 38.940150833333334, "is_disabled": 0, "name": "96990463d9a0277a47e11239af843022", "fusion_lat": 0.0, "rental_uris": {"ios": "https://dc.lft.to/lastmile_qr_scan", "android": "https://dc.lft.to/lastmile_qr_scan"}, "lon": -77.07175333333333, "type": "electric_scooter"}, {"bike_id": "59d1b336cce37d17e8dbc1c7c3174c16", "is_reserved": 0, "fusion_lon": 0.0, "lat": 38.902862166666665, "is_disabled": 0, "name": "59d1b336cce37d17e8dbc1c7c3174c16", "fusion_lat": 0.0, "rental_uris": {"ios": "https://dc.lft.to/lastmile_qr_scan", "android": "https://dc.lft.to/lastmile_qr_scan"}, "lon": -77.039773, "type": "electric_scooter"}, {"bike_id": "5c1233e48c66cb3cd84277590bdc9ea2", "is_reserved": 0, "fusion_lon": 0.0, "lat": 38.914553, "is_disabled": 0, "name": "5c1233e48c66cb3cd84277590bdc9ea2", "fusion_lat": 0.0, "rental_uris": {"ios": "https://dc.lft.to/lastmile_qr_scan", "android": "https://dc.lft.to/lastmile_qr_scan"}, "lon": -77.046211, "type": "electric_scooter"}, {"bike_id": "c7931d9e7ba77e7119d92c3838b2573c", "is_reserved": 0, "fusion_lon": 0.0, "lat": 38.91118783333334, "is_disabled": 0, "name": "c7931d9e7ba77e7119d92c3838b2573c", "fusion_lat": 0.0, "rental_uris": {"ios": "https://dc.lft.to/lastmile_qr_scan", "android": "https://dc.lft.to/lastmile_qr_scan"}, "lon": -77.03595683333333, "type": "electric_scooter"},