{"data": {"bikes": [{"name": "59d31155bd3f7f746df890324e746db8", "fusion_lat": 0.0, "type": "electric_scooter", "lat": 38.908068166666666, "is_reserved": 0, "is_disabled": 0, "fusion_lon": 0.0, "bike_id": "59d31155bd3f7f746df890324e746db8", "lon": -77.03385416666667, "rental_uris": {"ios": "https://dc.lft.to/lastmile_qr_scan", "android": "https://dc.lft.to/lastmile_qr_scan"}}, {"name": "c2346d283110dce75ddc4a74314915ca", "fusion_lat": 0.0, "type": "electric_scooter", "lat": 38.927208, "is_reserved": 0, "is_disabled": 0, "fusion_lon": 0.0, "bike_id": "c2346d283110dce75ddc4a74314915ca", "lon": -77.00559833333334, "rental_uris": {"ios": "https://dc.lft.to/lastmile_qr_scan", "android": "https://dc.lft.to/lastmile_qr_scan"}}, {"name": "f10b641f92319939f034798252649383", "fusion_lat": 0.0, "type": "electric_bike", "lat": 38.87528733333333, "is_reserved": 0, "is_disabled": 0, "fusion_lon": 0.0, "bike_id": "f10b641f92319939f034798252649383", "lon": -77.19904983333333, "rental_uris": {"ios": "https://dc.lft.to/lastmile_qr_scan", "android": "https://dc.lft.to/lastmile_qr_scan"}}, {"name": "6f5675b54c6bd0e031c293fc47f620bf", "fusion_lat": 0.0, "type": "electric_bike", "lat": 39.094585, "is_reserved": 0, "is_disabled": 0, "fusion_lon": 0.0, "bike_id": "6f5675b54c6bd0e031c293fc47f620bf", "lon": -77.1499505, "rental_uris": {"ios": "https://dc.lft.to/lastmile_qr_scan", "android": "https://dc.lft.to/lastmile_qr_scan"}}, {"name": "6583563843463b46c38468ddf72a11a2", "fusion_lat": 0.0, "type": "electric_scooter", "lat": 38.923745333333336, "is_reserved": 0, "is_disabled": 0, "fusion_lon": 0.0, "bike_id": "6583563843463b46c38468ddf72a11a2", "lon": -77.0298745, "rental_uris": {"ios": "https://dc.lft.to/lastmile_qr_scan", "android": "https://dc.lft.to/lastmile_qr_scan"}}, {"name": "bcf77b92a6e8673d51bc3a1e0a89e75d", "fusion_lat": 0.0, "type": "electric_scooter", "lat": 38.89230416666667, "is_reserved": 0, "is_disabled": 0, "fusion_lon": 0.0, "bike_id": "bcf77b92a6e8673d51bc3a1e0a89e75d", "lon": -77.03183333333334, "rental_uris": {"ios": "https://dc.lft.to/lastmile_qr_scan", "android": "https://dc.lft.to/lastmile_qr_scan"}}, {"name": "8678262a25b540c9b2cf4026310cea8d", "fusion_lat": 0.0, "type": "electric_scooter", "lat": 38.8991075, "is_reserved": 0, "is_disabled": 0, "fusion_lon": 0.0, "bike_id": "8678262a25b540c9b2cf4026310cea8d", "lon": -76.93369816666667, "rental_uris": {"ios": "https://dc.lft.to/lastmile_qr_scan", "android": "https://dc.lft.to/lastmile_qr_scan"}}, {"name": "3a76da83a15ee12c10e721dae9a00563", "fusion_lat": 0.0, "type": "electric_scooter", "lat": 38.912597, "is_reserved": 0, "is_disabled": 0, "fusion_lon": 0.0, "bike_id": "3a76da83a15ee12c10e721dae9a00563", "lon": -77.03807033333334, "rental_uris": {"ios": "https://dc.lft.to/lastmile_qr_scan", "android": "https://dc.lft.to/lastmile_qr_scan"}}, {"name": "2ae121dc8535a62804b5d0a211f02adb", "fusion_lat": 0.0, "type": "electric_scooter", "lat": 38.918194166666666, "is_reserved": 0, "is_disabled": 0, "fusion_lon": 0.0, "bike_id": "2ae121dc8535a62804b5d0a211f02adb", "lon": -77.02796666666667, "rental_uris": {"ios": "https://dc.lft.to/lastmile_qr_scan", "android": "https://dc.lft.to/lastmile_qr_scan"}}, {"name": "728cb8517ef332d06509a7c519b66bda", "fusion_lat": 0.0, "type": "electric_bike", "lat": 38.87083466666667, "is_reserved": 0, "is_disabled": 0, "fusion_lon": 0.0, "bike_id": "728cb8517ef332d06509a7c519b66bda", "lon": -77.012079, "rental_uris": {"ios": "https://dc.lft.to/lastmile_qr_scan", "android": "https://dc.lft.to/lastmile_qr_scan"}}, {"name": "fb26796a59be6e26c2e630717a146962", "fusion_lat": 0.0, "type": "electric_scooter", "lat": 38.9313355, "is_reserved": 0, "is_disabled": 0, "fusion_lon": 0.0, "bike_id": "fb26796a59be6e26c2e630717a146962", "lon": -77.02198166666666, "rental_uris": {"ios": "https://dc.lft.to/lastmile_qr_scan", "android": "https://dc.lft.to/lastmile_qr_scan"}}, {"name": "a8a62c7fb832cbb5bd64e451c9638c97", "fusion_lat": 0.0, "type": "electric_bike", "lat": 38.8853545, "is_reserved": 0, "is_disabled": 0, "fusion_lon": 0.0, "bike_id": "a8a62c7fb832cbb5bd64e451c9638c97", "lon": -76.99756333333333, "rental_uris": {"ios": "https://dc.lft.to/lastmile_qr_scan", "android": "https://dc.lft.to/lastmile_qr_scan"}}, {"name": "091f2e0c706730ec2d980b91f519641c", "fusion_lat": 0.0, "type": "electric_scooter", "lat": 38.907264166666664, "is_reserved": 0, "is_disabled": 0, "fusion_lon": 0.0, "bike_id": "091f2e0c706730ec2d980b91f519641c", "lon": -77.0288985, "rental_uris": {"ios": "https://dc.lft.to/lastmile_qr_scan", "android": "https://dc.lft.to/lastmile_qr_scan"}}, {"name": "06a666f64be413e04e70a9aca6b365a0", "fusion_lat": 0.0, "type": "electric_scooter", "lat": 38.885899333333334, "is_reserved": 0, "is_disabled": 0, "fusion_lon": 0.0, "bike_id": "06a666f64be413e04e70a9aca6b365a0", "lon": -77.031673, "rental_uris": {"ios": "https://dc.lft.to/lastmile_qr_scan", "android": "https://dc.lft.to/lastmile_qr_scan"}}, {"name": "64920c38b3903a1acef767938b5cce4e", "fusion_lat": 0.0, "type": "electric_bike", "lat": 38.89466516666667, "is_reserved": 0, "is_disabled": 0, "fusion_lon": 0.0, "bike_id": "64920c38b3903a1acef767938b5cce4e", "lon": -77.02194283333333, "rental_uris": {"ios": "https://dc.lft.to/lastmile_qr_scan", "android": "https://dc.lft.to/lastmile_qr_scan"}}, {"name": "b1b83d64d7ac6cfbf6bba6d4f1ccbe75", "fusion_lat": 0.0, "type": "electric_scooter", "lat": 38.90962283333333, "is_reserved": 0, "is_disabled": 0, "fusion_lon": 0.0, "bike_id": "b1b83d64d7ac6cfbf6bba6d4f1ccbe75", "lon": -77.033657, "rental_uris": {"ios": "https://dc.lft.to/lastmile_qr_scan", "android": "https://dc.lft.to/lastmile_qr_scan"}}, {"name": "9f14dd97b337d25534725ebf0e6689dd", "fusion_lat": 0.0, "type": "electric_scooter", "lat": 38.91559633333333, "is_reserved": 0, "is_disabled": 0, "fusion_lon": 0.0, "bike_id": "9f14dd97b337d25534725ebf0e6689dd", "lon": -77.052136, "rental_uris": {"ios": "https://dc.lft.to/lastmile_qr_scan", "android": "https://dc.lft.to/lastmile_qr_scan"}}, {"name": "1c86349d6a69380fb95963d0536b462d", "fusion_lat": 0.0, "type": "electric_scooter", "lat": 38.876640333333334, "is_reserved": 0, "is_disabled": 0, "fusion_lon": 0.0, "bike_id": "1c86349d6a69380fb95963d0536b462d", "lon": -77.004034, "rental_uris": {"ios": "https://dc.lft.to/lastmile_qr_scan", "android": "https://dc.lft.to/lastmile_qr_scan"}}, {"name": "02c5d8008e1fcfdaea104cc11d2a0750", "fusion_lat": 0.0, "type": "electric_scooter", "lat": 38.92079666666667, "is_reserved": 0, "is_disabled": 0, "fusion_lon": 0.0, "bike_id": "02c5d8008e1fcfdaea104cc11d2a0750", "lon": -77.07547666666666, "rental_uris": {"ios": "https://dc.lft.to/lastmile_qr_scan", "android": "https://dc.lft.to/lastmile_qr_scan"}}, {"name": "f6bdfd6cf408244e92b51f99ed607e4f", "fusion_lat": 0.0, "type": "electric_scooter", "lat": 38.920729666666666, "is_reserved": 0, "is_disabled": 0, "fusion_lon": 0.0, "bike_id": "f6bdfd6cf408244e92b51f99ed607e4f", "lon": -77.032214, "rental_uris": {"ios": "https://dc.lft.to/lastmile_qr_scan", "android": "https://dc.lft.to/lastmile_qr_scan"}}, {"name": "01ac28030b0e1a9e78268f4b57c912ac", "fusion_lat": 0.0, "type": "electric_scooter", "lat": 38.90016033333333, "is_reserved": 0, "is_disabled": 0, "fusion_lon": 0.0, "bike_id": "01ac28030b0e1a9e78268f4b57c912ac", "lon": -76.99559283333333, "rental_uris": {"ios": "https://dc.lft.to/lastmile_qr_scan", "android": "https://dc.lft.to/lastmile_qr_scan"}}, {"name": "fbc5a17540e8138813e9b41779c72dfe", "fusion_lat": 0.0, "type": "electric_scooter", "lat": 38.9171905, "is_reserved": 0, "is_disabled": 0, "fusion_lon": 0.0, "bike_id": "fbc5a17540e8138813e9b41779c72dfe", "lon": -77.00811583333333, "rental_uris": {"ios": "https://dc.lft.to/lastmile_qr_scan", "android": "https://dc.lft.to/lastmile_qr_scan"}}, {"name": "ae39d463d2f390d18106bf94997187d6", "fusion_lat": 0.0, "type": "electric_scooter", "lat": 38.89731033333333, "is_reserved": 0, "is_disabled": 0, "fusion_lon": 0.0, "bike_id": "ae39d463d2f390d18106bf94997187d6", "lon": -77.023241, "rental_uris": {"ios": "https://dc.lft.to/lastmile_qr_scan", "android": "https://dc.lft.to/lastmile_qr_scan"}}, {"name": "c2b017bbe0d472e1c6847476590bfc76", "fusion_lat": 0.0, "type": "electric_scooter", "lat": 38.911945, "is_reserved": 0, "is_disabled": 0, "fusion_lon": 0.0, "bike_id": "c2b017bbe0d472e1c6847476590bfc76", "lon": -77.0344655, "rental_uris": {"ios": "https://dc.lft.to/lastmile_qr_scan", "android": "https://dc.lft.to/lastmile_qr_scan"}}, {"name": "bb8cb5bc2751332218fe3a5c6660862c", "fusion_lat": 0.0, "type": "electric_scooter", "lat": 38.86539633333334, "is_reserved": 0, "is_disabled": 0, "fusion_lon": 0.0, "bike_id": "bb8cb5bc2751332218fe3a5c6660862c", "lon": -76.98706783333333, "rental_uris": {"ios": "https://dc.lft.to/lastmile_qr_scan", "android": "https://dc.lft.to/lastmile_qr_scan"}}, {"name": "1181543db9fbd49ab6967b640339511f", "fusion_lat": 0.0, "type": "electric_scooter", "lat": 38.916811833333334, "is_reserved": 0, "is_disabled": 0, "fusion_lon": 0.0, "bike_id": "1181543db9fbd49ab6967b640339511f", "lon": -77.02353033333333, "rental_uris": {"ios": "https://dc.lft.to/lastmile_qr_scan", "android": "https://dc.lft.to/lastmile_qr_scan"}}, {"name": "628395d95dad864188c9ecc7df1fac87", "fusion_lat": 0.0, "type": "electric_scooter", "lat": 38.92060716666667, "is_reserved": 0, "is_disabled": 0, "fusion_lon": 0.0, "bike_id": "628395d95dad864188c9ecc7df1fac87", "lon": -76.97809083333334, "rental_uris": {"ios": "https://dc.lft.to/lastmile_qr_scan", "android": "https://dc.lft.to/lastmile_qr_scan"}}, {"name": "3b69024dbdf8d3452813e9f3d5ae4ac3", "fusion_lat": 0.0, "type": "electric_scooter", "lat": 38.902634166666665, "is_reserved": 0, "is_disabled": 0, "fusion_lon": 0.0, "bike_id": "3b69024dbdf8d3452813e9f3d5ae4ac3", "lon": -77.03001616666667, "rental_uris": {"ios": "https://dc.lft.to/lastmile_qr_scan", "android": "https://dc.lft.to/lastmile_qr_scan"}}, {"name": "197939a9ae8da916aaf3933fcd6c91ff", "fusion_lat": 0.0, "type": "electric_scooter", "lat": 38.91116933333333, "is_reserved": 0, "is_disabled": 0, "fusion_lon": 0.0, "bike_id": "197939a9ae8da916aaf3933fcd6c91ff", "lon": -77.00604866666667, "rental_uris": {"ios": "https://dc.lft.to/lastmile_qr_scan", "android": "https://dc.lft.to/lastmile_qr_scan"}}, {"name": "b733827cc28b60468c76b74c81ba38d4", "fusion_lat": 0.0, "type": "electric_scooter", "lat": 38.90030566666667, "is_reserved": 0, "is_disabled": 0, "fusion_lon": 0.0, "bike_id": "b733827cc28b60468c76b74c81ba38d4", "lon": -77.01178983333334, "rental_uris": {"ios": "https://dc.lft.to/lastmile_qr_scan", "android": "https://dc.lft.to/lastmile_qr_scan"}}, {"name": "ae0c34d238ecbaeba23a13448604edab", "fusion_lat": 0.0, "type": "electric_scooter", "lat": 38.915442, "is_reserved": 0, "is_disabled": 0, "fusion_lon": 0.0, "bike_id": "ae0c34d238ecbaeba23a13448604edab", "lon": -77.03854133333333, "rental_uris": {"ios": "https://dc.lft.to/lastmile_qr_scan", "android": "https://dc.lft.to/lastmile_qr_scan"}}, {"name": "2ff67e4d586ec8db993715e73ce080f1", "fusion_lat": 0.0, "type": "electric_scooter", "lat": 38.902860833333335, "is_reserved": 0, "is_disabled": 0, "fusion_lon": 0.0, "bike_id": "2ff67e4d586ec8db993715e73ce080f1", "lon": -77.04608166666667, "rental_uris": {"ios": "https://dc.lft.to/lastmile_qr_scan", "android": "https://dc.lft.to/lastmile_qr_scan"}}, {"name": "8a72f690b0b0b0ce9d0d48d5c3a61b4e", "fusion_lat": 0.0, "type": "electric_scooter", "lat": 38.91932666666666, "is_reserved": 0, "is_disabled": 0, "fusion_lon": 0.0, "bike_id": "8a72f690b0b0b0ce9d0d48d5c3a61b4e", "lon": -77.02408633333333, "rental_uris": {"ios": "https://dc.lft.to/lastmile_qr_scan", "android": "https://dc.lft.to/lastmile_qr_scan"}}, {"name": "f0a969e9c4e4d15185d248eb1bf75ecf", "fusion_lat": 0.0, "type": "electric_scooter", "lat": 38.911932, "is_reserved": 0, "is_disabled": 0, "fusion_lon": 0.0, "bike_id": "f0a969e9c4e4d15185d248eb1bf75ecf", "lon": -77.01788316666666, "rental_uris": {"ios": "https://dc.lft.to/lastmile_qr_scan", "android": "https://dc.lft.to/lastmile_qr_scan"}}, {"name": "1fa23aa4bae373e9cd7012a16c61025a", "fusion_lat": 0.0, "type": "electric_scooter", "lat": 38.909661, "is_reserved": 0, "is_disabled": 0, "fusion_lon": 0.0, "bike_id": "1fa23aa4bae373e9cd7012a16c61025a", "lon": -77.0389015, "rental_uris": {"ios": "https://dc.lft.to/lastmile_qr_scan", "android": "https://dc.lft.to/lastmile_qr_scan"}}, {"name": "26525fb48eadf613b56e347191090b20", "fusion_lat": 0.0, "type": "electric_scooter", "lat": 38.93469116666667, "is_reserved": 0, "is_disabled": 0, "fusion_lon": 0.0, "bike_id": "26525fb48eadf613b56e347191090b20", "lon": -77.02843866666667, "rental_uris": {"ios": "https://dc.lft.to/lastmile_qr_scan", "android": "https://dc.lft.to/lastmile_qr_scan"}}, {"name": "fc872b5e1f4b5f02ec274f993f7199f6", "fusion_lat": 0.0, "type": "electric_scooter", "lat": 38.9349525, "is_reserved": 0, "is_disabled": 0, "fusion_lon": 0.0, "bike_id": "fc872b5e1f4b5f02ec274f993f7199f6", "lon": -77.02544766666666, "rental_uris": {"ios": "https://dc.lft.to/lastmile_qr_scan", "android": "https://dc.lft.to/lastmile_qr_scan"}}, {"name": "82d8106a24666cdd3b6710273642e552", "fusion_lat": 0.0, "type": "electric_scooter", "lat": 38.906068833333336, "is_reserved": 0, "is_disabled": 0, "fusion_lon": 0.0, "bike_id": "82d8106a24666cdd3b6710273642e552", "lon": -77.04046533333333, "rental_uris": {"ios": "https://dc.lft.to/lastmile_qr_scan", "android": "https://dc.lft.to/lastmile_qr_scan"}}, {"name": "eedc50ff42835d2d30201a6d25ec4ee2", "fusion_lat": 0.0, "type": "electric_scooter", "lat": 38.88917033333333, "is_reserved": 0, "is_disabled": 0, "fusion_lon": 0.0, "bike_id": "eedc50ff42835d2d30201a6d25ec4ee2", "lon": -76.95371633333333, "rental_uris": {"ios": "https://dc.lft.to/lastmile_qr_scan", "android": "https://dc.lft.to/lastmile_qr_scan"}}, {"name": "9805278183dcbba83be5ae8089b3e1a8", "fusion_lat": 0.0, "type": "electric_scooter", "lat": 38.9288745, "is_reserved": 0, "is_disabled": 0, "fusion_lon": 0.0, "bike_id": "9805278183dcbba83be5ae8089b3e1a8", "lon": -77.023088, "rental_uris": {"ios": "https://dc.lft.to/lastmile_qr_scan", "android": "https://dc.lft.to/lastmile_qr_scan"}}, {"name": "17413d884db6df595b8fd736b933155d", "fusion_lat": 0.0, "type": "electric_scooter", "lat": 38.90117716666666, "is_reserved": 0, "is_disabled": 0, "fusion_lon": 0.0, "bike_id": "17413d884db6df595b8fd736b933155d", "lon": -77.0217395, "rental_uris": {"ios": "https://dc.lft.to/lastmile_qr_scan", "android": "https://dc.lft.to/lastmile_qr_scan"}}, {"name": "be5752f11fd9a9458e8551efe62b1c85", "fusion_lat": 0.0, "type": "electric_scooter", "lat": 38.92638933333333, "is_reserved": 0, "is_disabled": 0, "fusion_lon": 0.0, "bike_id": "be5752f11fd9a9458e8551efe62b1c85", "lon": -77.03693333333334, "rental_uris": {"ios": "https://dc.lft.to/lastmile_qr_scan", "android": "https://dc.lft.to/lastmile_qr_scan"}}, {"name": "ed8c10ea7c4a2b377a6a0737352d7175", "fusion_lat": 0.0, "type": "electric_scooter", "lat": 38.905693666666664, "is_reserved": 0, "is_disabled": 0, "fusion_lon": 0.0, "bike_id": "ed8c10ea7c4a2b377a6a0737352d7175", "lon": -77.0221535, "rental_uris": {"ios": "https://dc.lft.to/lastmile_qr_scan", "android": "https://dc.lft.to/lastmile_qr_scan"}}, {"name": "7b539c183537f5aa4d62a8a5d94a483f", "fusion_lat": 0.0, "type": "electric_bike", "lat": 38.85492416666666, "is_reserved": 0, "is_disabled": 0, "fusion_lon": 0.0, "bike_id": "7b539c183537f5aa4d62a8a5d94a483f", "lon": -77.11522266666667, "rental_uris": {"ios": "https://dc.lft.to/lastmile_qr_scan", "android": "https://dc.lft.to/lastmile_qr_scan"}}, {"name": "93a4b940f533a230deea693ec7ce2291", "fusion_lat": 0.0, "type": "electric_scooter", "lat": 38.8997125, "is_reserved": 0, "is_disabled": 0, "fusion_lon": 0.0, "bike_id": "93a4b940f533a230deea693ec7ce2291", "lon": -77.03169716666666, "rental_uris": {"ios": "https://dc.lft.to/lastmile_qr_scan", "android": "https://dc.lft.to/lastmile_qr_scan"}}, {"name": "e327e940da582cbe749e946b1c5f8413", "fusion_lat": 0.0, "type": "electric_scooter", "lat": 38.916839833333334, "is_reserved": 0, "is_disabled": 0, "fusion_lon": 0.0, "bike_id": "e327e940da582cbe749e946b1c5f8413", "lon": -77.0157785, "rental_uris": {"ios": "https://dc.lft.to/lastmile_qr_scan", "android": "https://dc.lft.to/lastmile_qr_scan"}}, {"name": "2a4cd82147b7231bfbe8f4b8af68ad8b", "fusion_lat": 0.0, "type": "electric_scooter", "lat": 38.8983245, "is_reserved": 0, "is_disabled": 0, "fusion_lon": 0.0, "bike_id": "2a4cd82147b7231bfbe8f4b8af68ad8b", "lon": -76.9463765, "rental_uris": {"ios": "https://dc.lft.to/lastmile_qr_scan", "android": "https://dc.lft.to/lastmile_qr_scan"}}, {"name": "8179f64723e6360719e4793f8138a06f", "fusion_lat": 0.0, "type": "electric_scooter", "lat": 38.92658766666667, "is_reserved": 0, "is_disabled": 0, "fusion_lon": 0.0, "bike_id": "8179f64723e6360719e4793f8138a06f", "lon": -77.02411383333333, "rental_uris": {"ios": "https://dc.lft.to/lastmile_qr_scan", "android": "https://dc.lft.to/lastmile_qr_scan"}}, {"name": "d2641dd9856c1f52eb4f3cdace7872e1", "fusion_lat": 0.0, "type": "electric_scooter", "lat": 38.89832166666667, "is_reserved": 0, "is_disabled": 0, "fusion_lon": 0.0, "bike_id": "d2641dd9856c1f52eb4f3cdace7872e1", "lon": -77.00740766666667, "rental_uris": {"ios": "https://dc.lft.to/lastmile_qr_scan", "android": "https://dc.lft.to/lastmile_qr_scan"}}, {"name": "8a0e9c89697f4145a0011203a409a73d", "fusion_lat": 0.0, "type": "electric_scooter", "lat": 38.911206166666666, "is_reserved": 0, "is_disabled": 0, "fusion_lon": 0.0, "bike_id": "8a0e9c89697f4145a0011203a409a73d", "lon": -77.03207983333333, "rental_uris": {"ios": "https://dc.lft.to/lastmile_qr_scan", "android": "https://dc.lft.to/lastmile_qr_scan"}}, {"name": "73f1adfcbd0384773960848dfc526e30", "fusion_lat": 0.0, "type": "electric_scooter", "lat": 38.91777916666667, "is_reserved": 0, "is_disabled": 0, "fusion_lon": 0.0, "bike_id": "73f1adfcbd0384773960848dfc526e30", "lon": -77.03449316666666, "rental_uris": {"ios": "https://dc.lft.to/lastmile_qr_scan", "android": "https://dc.lft.to/lastmile_qr_scan"}}, {"name": "62699f2db940526259f6bad287bd13f4", "fusion_lat": 0.0, "type": "electric_scooter", "lat": 38.92726733333333, "is_reserved": 0, "is_disabled": 0, "fusion_lon": 0.0, "bike_id": "62699f2db940526259f6bad287bd13f4", "lon": -77.0258875, "rental_uris": {"ios": "https://dc.lft.to/lastmile_qr_scan", "android": "https://dc.lft.to/lastmile_qr_scan"}}, {"name": "9499546b044c868e1864956a1be5daed", "fusion_lat": 0.0, "type": "electric_scooter", "lat": 38.9118925, "is_reserved": 0, "is_disabled": 0, "fusion_lon": 0.0, "bike_id": "9499546b044c868e1864956a1be5daed", "lon": -77.06095483333333, "rental_uris": {"ios": "https://dc.lft.to/lastmile_qr_scan", "android": "https://dc.lft.to/lastmile_qr_scan"}}, {"name": "9390ee1525ca81ffb9339c182b2dab3f", "fusion_lat": 0.0, "type": "electric_scooter", "lat": 38.894789, "is_reserved": 0, "is_disabled": 0, "fusion_lon": 0.0, "bike_id": "9390ee1525ca81ffb9339c182b2dab3f", "lon": -76.9487045, "rental_uris": {"ios": "https://dc.lft.to/lastmile_qr_scan", "android": "https://dc.lft.to/lastmile_qr_scan"}}, {"name": "5b19e7e006f4b992a834231e86619035", "fusion_lat": 0.0, "type": "electric_scooter", "lat": 38.914898666666666, "is_reserved": 0, "is_disabled": 0, "fusion_lon": 0.0, "bike_id": "5b19e7e006f4b992a834231e86619035", "lon": -77.01858883333334, "rental_uris": {"ios": "https://dc.lft.to/lastmile_qr_scan", "android": "https://dc.lft.to/lastmile_qr_scan"}}, {"name": "41f72b63eca931d10f9e80d527a76c22", "fusion_lat": 0.0, "type": "electric_scooter", "lat": 38.88995383333334, "is_reserved": 0, "is_disabled": 0, "fusion_lon": 0.0, "bike_id": "41f72b63eca931d10f9e80d527a76c22", "lon": -76.95411633333333, "rental_uris": {"ios": "https://dc.lft.to/lastmile_qr_scan", "android": "https://dc.lft.to/lastmile_qr_scan"}}, {"name": "47f30b57e7b8b65fc4dff44dc3d6c170", "fusion_lat": 0.0, "type": "electric_scooter", "lat": 38.896615833333335, "is_reserved": 0, "is_disabled": 0, "fusion_lon": 0.0, "bike_id": "47f30b57e7b8b65fc4dff44dc3d6c170", "lon": -77.0260115, "rental_uris": {"ios": "https://dc.lft.to/lastmile_qr_scan", "android": "https://dc.lft.to/lastmile_qr_scan"}}, {"name": "28f3007fd76e4565c0e112ed7b616daf", "fusion_lat": 0.0, "type": "electric_scooter", "lat": 38.923404166666664, "is_reserved": 0, "is_disabled": 0, "fusion_lon": 0.0, "bike_id": "28f3007fd76e4565c0e112ed7b616daf", "lon": -77.05013916666667, "rental_uris": {"ios": "https://dc.lft.to/lastmile_qr_scan", "android": "https://dc.lft.to/lastmile_qr_scan"}}, {"name": "55430681629b9c189c719922432a605b", "fusion_lat": 0.0, "type": "electric_scooter", "lat": 38.9015135, "is_reserved": 0, "is_disabled": 0, "fusion_lon": 0.0, "bike_id": "55430681629b9c189c719922432a605b", "lon": -77.03985416666667, "rental_uris": {"ios": "https://dc.lft.to/lastmile_qr_scan", "android": "https://dc.lft.to/lastmile_qr_scan"}}, {"name": "de05c37b742383aa67fd4216a0041feb", "fusion_lat": 0.0, "type": "electric_scooter", "lat": 38.91213483333333, "is_reserved": 0, "is_disabled": 0, "fusion_lon": 0.0, "bike_id": "de05c37b742383aa67fd4216a0041feb", "lon": -77.075903, "rental_uris": {"ios": "https://dc.lft.to/lastmile_qr_scan", "android": "https://dc.lft.to/lastmile_qr_scan"}}, {"name": "42c626611f1a9c4316492d38e0a7e5c0", "fusion_lat": 0.0, "type": "electric_scooter", "lat": 38.902496, "is_reserved": 0, "is_disabled": 0, "fusion_lon": 0.0, "bike_id": "42c626611f1a9c4316492d38e0a7e5c0", "lon": -77.04364766666667, "rental_uris": {"ios": "https://dc.lft.to/lastmile_qr_scan", "android": "https://dc.lft.to/lastmile_qr_scan"}}, {"name": "3044006ac61f024851202220330520bb", "fusion_lat": 0.0, "type": "electric_scooter", "lat": 38.90028216666666, "is_reserved": 0, "is_disabled": 0, "fusion_lon": 0.0, "bike_id": "3044006ac61f024851202220330520bb", "lon": -76.99959483333333, "rental_uris": {"ios": "https://dc.lft.to/lastmile_qr_scan", "android": "https://dc.lft.to/lastmile_qr_scan"}}, {"name": "cd17406ab9a454d9df0b636dc6fbabb3", "fusion_lat": 0.0, "type": "electric_scooter", "lat": 38.9236955, "is_reserved": 0, "is_disabled": 0, "fusion_lon": 0.0, "bike_id": "cd17406ab9a454d9df0b636dc6fbabb3", "lon": -77.01911616666666, "rental_uris": {"ios": "https://dc.lft.to/lastmile_qr_scan", "android": "https://dc.lft.to/lastmile_qr_scan"}}, {"name": "17ea21f96b6c5bca5d3c776c1b8e6a22", "fusion_lat": 0.0, "type": "electric_bike", "lat": 39.0519925, "is_reserved": 0, "is_disabled": 0, "fusion_lon": 0.0, "bike_id": "17ea21f96b6c5bca5d3c776c1b8e6a22", "lon": -77.10914616666666, "rental_uris": {"ios": "https://dc.lft.to/lastmile_qr_scan", "android": "https://dc.lft.to/lastmile_qr_scan"}}, {"name": "7d0ad0fd16552507b6f6d35f7a71e15b", "fusion_lat": 0.0, "type": "electric_bike", "lat": 38.84163316666667, "is_reserved": 0, "is_disabled": 0, "fusion_lon": 0.0, "bike_id": "7d0ad0fd16552507b6f6d35f7a71e15b", "lon": -77.0889025, "rental_uris": {"ios": "https://dc.lft.to/lastmile_qr_scan", "android": "https://dc.lft.to/lastmile_qr_scan"}}, {"name": "30728dc7007de0bc375348648598eff2", "fusion_lat": 0.0, "type": "electric_scooter", "lat": 38.85808683333333, "is_reserved": 0, "is_disabled": 0, "fusion_lon": 0.0, "bike_id": "30728dc7007de0bc375348648598eff2", "lon": -76.986512, "rental_uris": {"ios": "https://dc.lft.to/lastmile_qr_scan", "android": "https://dc.lft.to/lastmile_qr_scan"}}, {"name": "862eda5a0b7e25cf3b98223e0cee692a", "fusion_lat": 0.0, "type": "electric_scooter", "lat": 38.879435666666666, "is_reserved": 0, "is_disabled": 0, "fusion_lon": 0.0, "bike_id": "862eda5a0b7e25cf3b98223e0cee692a", "lon": -77.008277, "rental_uris": {"ios": "https://dc.lft.to/lastmile_qr_scan", "android": "https://dc.lft.to/lastmile_qr_scan"}}, {"name": "fe45340e12dc52775909caa3630ddeb6", "fusion_lat": 0.0, "type": "electric_scooter", "lat": 38.8972175, "is_reserved": 0, "is_disabled": 0, "fusion_lon": 0.0, "bike_id": "fe45340e12dc52775909caa3630ddeb6", "lon": -77.02054316666667, "rental_uris": {"ios": "https://dc.lft.to/lastmile_qr_scan", "android": "https://dc.lft.to/lastmile_qr_scan"}}, {"name": "4cfa9ac54148c7aa549d344acb980d49", "fusion_lat": 0.0, "type": "electric_scooter", "lat": 38.901366333333335, "is_reserved": 0, "is_disabled": 0, "fusion_lon": 0.0, "bike_id": "4cfa9ac54148c7aa549d344acb980d49", "lon": -76.99120083333334, "rental_uris": {"ios": "https://dc.lft.to/lastmile_qr_scan", "android": "https://dc.lft.to/lastmile_qr_scan"}}, {"name": "edd2a5fc5ca27eacd3ac315801a8c8f4", "fusion_lat": 0.0, "type": "electric_scooter", "lat": 38.88581516666667, "is_reserved": 0, "is_disabled": 0, "fusion_lon": 0.0, "bike_id": "edd2a5fc5ca27eacd3ac315801a8c8f4", "lon": -76.99495016666667, "rental_uris": {"ios": "https://dc.lft.to/lastmile_qr_scan", "android": "https://dc.lft.to/lastmile_qr_scan"}}, {"name": "8f9f1c110092ee53089c787e06dd3222", "fusion_lat": 0.0, "type": "electric_bike", "lat": 39.03348833333333, "is_reserved": 0, "is_disabled": 0, "fusion_lon": 0.0, "bike_id": "8f9f1c110092ee53089c787e06dd3222", "lon": -77.0490855, "rental_uris": {"ios": "https://dc.lft.to/lastmile_qr_scan", "android": "https://dc.lft.to/lastmile_qr_scan"}}, {"name": "90d4a805728e30af262e47f222ef2bda", "fusion_lat": 0.0, "type": "electric_scooter", "lat": 38.92367266666667, "is_reserved": 0, "is_disabled": 0, "fusion_lon": 0.0, "bike_id": "90d4a805728e30af262e47f222ef2bda", "lon": -77.0191945, "rental_uris": {"ios": "https://dc.lft.to/lastmile_qr_scan", "android": "https://dc.lft.to/lastmile_qr_scan"}}, {"name": "b3e5cf392ef7c8c3ff3ef20452aa2312", "fusion_lat": 0.0, "type": "electric_scooter", "lat": 38.9021105, "is_reserved": 0, "is_disabled": 0, "fusion_lon": 0.0, "bike_id": "b3e5cf392ef7c8c3ff3ef20452aa2312", "lon": -77.06124733333333, "rental_uris": {"ios": "https://dc.lft.to/lastmile_qr_scan", "android": "https://dc.lft.to/lastmile_qr_scan"}}, {"name": "000c2f113feb882a642d4b651f3c5858", "fusion_lat": 0.0, "type": "electric_scooter", "lat": 38.911393333333336, "is_reserved": 0, "is_disabled": 0, "fusion_lon": 0.0, "bike_id": "000c2f113feb882a642d4b651f3c5858", "lon": -77.04192066666667, "rental_uris": {"ios": "https://dc.lft.to/lastmile_qr_scan", "android": "https://dc.lft.to/lastmile_qr_scan"}}, {"name": "3e5da120f7b18043115a8f2d0636bbd5", "fusion_lat": 0.0, "type": "electric_scooter", "lat": 38.93953416666667, "is_reserved": 0, "is_disabled": 0, "fusion_lon": 0.0, "bike_id": "3e5da120f7b18043115a8f2d0636bbd5", "lon": -77.072487, "rental_uris": {"ios": "https://dc.lft.to/lastmile_qr_scan", "android": "https://dc.lft.to/lastmile_qr_scan"}}, {"name": "283130f921a2c50a86c92f15f7211312", "fusion_lat": 0.0, "type": "electric_scooter", "lat": 38.8871465, "is_reserved": 0, "is_disabled": 0, "fusion_lon": 0.0, "bike_id": "283130f921a2c50a86c92f15f7211312", "lon": -77.01776283333334, "rental_uris": {"ios": "https://dc.lft.to/lastmile_qr_scan", "android": "https://dc.lft.to/lastmile_qr_scan"}}, {"name": "ee704555b3e28c00551a5acb348bb072", "fusion_lat": 0.0, "type": "electric_scooter", "lat": 38.898506833333336, "is_reserved": 0, "is_disabled": 0, "fusion_lon": 0.0, "bike_id": "ee704555b3e28c00551a5acb348bb072", "lon": -77.01611083333333, "rental_uris": {"ios": "https://dc.lft.to/lastmile_qr_scan", "android": "https://dc.lft.to/lastmile_qr_scan"}}, {"name": "3328b01cb32492f7007947f41aa2a988", "fusion_lat": 0.0, "type": "electric_scooter", "lat": 38.9104125, "is_reserved": 0, "is_disabled": 0, "fusion_lon": 0.0, "bike_id": "3328b01cb32492f7007947f41aa2a988", "lon": -77.04377533333333, "rental_uris": {"ios": "https://dc.lft.to/lastmile_qr_scan", "android": "https://dc.lft.to/lastmile_qr_scan"}}, {"name": "c25828092f773af75918ca8854dd63db", "fusion_lat": 0.0, "type": "electric_bike", "lat": 38.883416833333335, "is_reserved": 0, "is_disabled": 0, "fusion_lon": 0.0, "bike_id": "c25828092f773af75918ca8854dd63db", "lon": -77.18293216666666, "rental_uris": {"ios": "https://dc.lft.to/lastmile_qr_scan", "android": "https://dc.lft.to/lastmile_qr_scan"}}, {"name": "dc9011e0a1eea62c0c9a85064b2f1bca", "fusion_lat": 0.0, "type": "electric_scooter", "lat": 38.934116833333334, "is_reserved": 0, "is_disabled": 0, "fusion_lon": 0.0, "bike_id": "dc9011e0a1eea62c0c9a85064b2f1bca", "lon": -77.04188483333333, "rental_uris": {"ios": "https://dc.lft.to/lastmile_qr_scan", "android": "https://dc.lft.to/lastmile_qr_scan"}}, {"name": "b4fbec7b46c547fffbba6b86d181378e", "fusion_lat": 0.0, "type": "electric_scooter", "lat": 38.89372083333333, "is_reserved": 0, "is_disabled": 0, "fusion_lon": 0.0, "bike_id": "b4fbec7b46c547fffbba6b86d181378e", "lon": -76.94998266666667, "rental_uris": {"ios": "https://dc.lft.to/lastmile_qr_scan", "android": "https://dc.lft.to/lastmile_qr_scan"}}, {"name": "47a68e52ebc781f1e1a2a404785fae29", "fusion_lat": 0.0, "type": "electric_scooter", "lat": 38.9200385, "is_reserved": 0, "is_disabled": 0, "fusion_lon": 0.0, "bike_id": "47a68e52ebc781f1e1a2a404785fae29", "lon": -77.081907, "rental_uris": {"ios": "https://dc.lft.to/lastmile_qr_scan", "android": "https://dc.lft.to/lastmile_qr_scan"}}, {"name": "7f484f837c99124306f26ed6574576d9", "fusion_lat": 0.0, "type": "electric_scooter", "lat": 38.885915833333335, "is_reserved": 0, "is_disabled": 0, "fusion_lon": 0.0, "bike_id": "7f484f837c99124306f26ed6574576d9", "lon": -77.02191183333333, "rental_uris": {"ios": "https://dc.lft.to/lastmile_qr_scan", "android": "https://dc.lft.to/lastmile_qr_scan"}}, {"name": "7f00df6404cd0477f0d888187520905d", "fusion_lat": 0.0, "type": "electric_scooter", "lat": 38.9301195, "is_reserved": 0, "is_disabled": 0, "fusion_lon": 0.0, "bike_id": "7f00df6404cd0477f0d888187520905d", "lon": -77.03783833333334, "rental_uris": {"ios": "https://dc.lft.to/lastmile_qr_scan", "android": "https://dc.lft.to/lastmile_qr_scan"}}, {"name": "553bd4c9a06a60546fa9d5d188f7e26a", "fusion_lat": 0.0, "type": "electric_bike", "lat": 38.928658166666665, "is_reserved": 0, "is_disabled": 0, "fusion_lon": 0.0, "bike_id": "553bd4c9a06a60546fa9d5d188f7e26a", "lon": -76.961039, "rental_uris": {"ios": "https://dc.lft.to/lastmile_qr_scan", "android": "https://dc.lft.to/lastmile_qr_scan"}}, {"name": "0f74998396458031df22679c15b5b685", "fusion_lat": 0.0, "type": "electric_scooter", "lat": 38.90854233333334, "is_reserved": 0, "is_disabled": 0, "fusion_lon": 0.0, "bike_id": "0f74998396458031df22679c15b5b685", "lon": -77.043427, "rental_uris": {"ios": "https://dc.lft.to/lastmile_qr_scan", "android": "https://dc.lft.to/lastmile_qr_scan"}}, {"name": "fd2b82246ed8979970f5248a0de4d605", "fusion_lat": 0.0, "type": "electric_scooter", "lat": 38.9047495, "is_reserved": 0, "is_disabled": 0, "fusion_lon": 0.0, "bike_id": "fd2b82246ed8979970f5248a0de4d605", "lon": -77.0280885, "rental_uris": {"ios": "https://dc.lft.to/lastmile_qr_scan", "android": "https://dc.lft.to/lastmile_qr_scan"}}, {"name": "50da26e09f682f6d197b2cecccb71a9d", "fusion_lat": 0.0, "type": "electric_scooter", "lat": 38.905722833333336, "is_reserved": 0, "is_disabled": 0, "fusion_lon": 0.0, "bike_id": "50da26e09f682f6d197b2cecccb71a9d", "lon": -77.02100283333333, "rental_uris": {"ios": "https://dc.lft.to/lastmile_qr_scan", "android": "https://dc.lft.to/lastmile_qr_scan"}}, {"name": "bd7277b58e1852d34d654d11dcb5abab", "fusion_lat": 0.0, "type": "electric_scooter", "lat": 38.96558516666666, "is_reserved": 0, "is_disabled": 0, "fusion_lon": 0.0, "bike_id": "bd7277b58e1852d34d654d11dcb5abab", "lon": -77.0161845, "rental_uris": {"ios": "https://dc.lft.to/lastmile_qr_scan", "android": "https://dc.lft.to/lastmile_qr_scan"}}, {"name": "844bc03ef707b03e286464e95e2644fe", "fusion_lat": 0.0, "type": "electric_scooter", "lat": 38.94043966666667, "is_reserved": 0, "is_disabled": 0, "fusion_lon": 0.0, "bike_id": "844bc03ef707b03e286464e95e2644fe", "lon": -77.02979516666667, "rental_uris": {"ios": "https://dc.lft.to/lastmile_qr_scan", "android": "https://dc.lft.to/lastmile_qr_scan"}}, {"name": "b7b59b6ff2f6e121b7a8bb016d6e17ff", "fusion_lat": 0.0, "type": "electric_scooter", "lat": 38.90634216666667, "is_reserved": 0, "is_disabled": 0, "fusion_lon": 0.0, "bike_id": "b7b59b6ff2f6e121b7a8bb016d6e17ff", "lon": -77.03889233333334, "rental_uris": {"ios": "https://dc.lft.to/lastmile_qr_scan", "android": "https://dc.lft.to/lastmile_qr_scan"}}, {"name": "6903809d9b93cbc08d1ccbf2f928bf0f", "fusion_lat": 0.0, "type": "electric_scooter", "lat": 38.93103816666667, "is_reserved": 0, "is_disabled": 0, "fusion_lon": 0.0, "bike_id": "6903809d9b93cbc08d1ccbf2f928bf0f", "lon": -77.037144, "rental_uris": {"ios": "https://dc.lft.to/lastmile_qr_scan", "android": "https://dc.lft.to/lastmile_qr_scan"}}, {"name": "38b624bc711920e2d4041867bde0f31e", "fusion_lat": 0.0, "type": "electric_scooter", "lat": 38.90566, "is_reserved": 0, "is_disabled": 0, "fusion_lon": 0.0, "bike_id": "38b624bc711920e2d4041867bde0f31e", "lon": -77.0486835, "rental_uris": {"ios": "https://dc.lft.to/lastmile_qr_scan", "android": "https://dc.lft.to/lastmile_qr_scan"}}, {"name": "f1fcfb9823bf1a4ca6def5e8260ee057", "fusion_lat": 0.0, "type": "electric_scooter", "lat": 38.9210985, "is_reserved": 0, "is_disabled": 0, "fusion_lon": 0.0, "bike_id": "f1fcfb9823bf1a4ca6def5e8260ee057", "lon": -77.04204266666666, "rental_uris": {"ios": "https://dc.lft.to/lastmile_qr_scan", "android": "https://dc.lft.to/lastmile_qr_scan"}}, {"name": "fcf613fc21a3da38edf480f7d468d2e3", "fusion_lat": 0.0, "type": "electric_scooter", "lat": 38.9028025, "is_reserved": 0, "is_disabled": 0, "fusion_lon": 0.0, "bike_id": "fcf613fc21a3da38edf480f7d468d2e3", "lon": -77.03832683333333, "rental_uris": {"ios": "https://dc.lft.to/lastmile_qr_scan", "android": "https://dc.lft.to/lastmile_qr_scan"}}, {"name": "9689d6751f353e89cf2861d6b90f77a7", "fusion_lat": 0.0, "type": "electric_scooter", "lat": 38.922401666666666, "is_reserved": 0, "is_disabled": 0, "fusion_lon": 0.0, "bike_id": "9689d6751f353e89cf2861d6b90f77a7", "lon": -77.03088, "rental_uris": {"ios": "https://dc.lft.to/lastmile_qr_scan", "android": "https://dc.lft.to/lastmile_qr_scan"}}, {"name": "c25e8809d97facd22cfbe6e03ad6bcf8", "fusion_lat": 0.0, "type": "electric_scooter", "lat": 38.89879333333333, "is_reserved": 0, "is_disabled": 0, "fusion_lon": 0.0, "bike_id": "c25e8809d97facd22cfbe6e03ad6bcf8", "lon": -77.01971716666667, "rental_uris": {"ios": "https://dc.lft.to/lastmile_qr_scan", "android": "https://dc.lft.to/lastmile_qr_scan"}}, {"name": "80c10e8a58b992eb957a53b72c561c12", "fusion_lat": 0.0, "type": "electric_scooter", "lat": 38.911736, "is_reserved": 0, "is_disabled": 0, "fusion_lon": 0.0, "bike_id": "80c10e8a58b992eb957a53b72c561c12", "lon": -77.0317875, "rental_uris": {"ios": "https://dc.lft.to/lastmile_qr_scan", "android": "https://dc.lft.to/lastmile_qr_scan"}}, {"name": "eca70a37c1ac0f5a004f4eb7cb92f7ab", "fusion_lat": 0.0, "type": "electric_scooter", "lat": 38.905475333333335, "is_reserved": 0, "is_disabled": 0, "fusion_lon": 0.0, "bike_id": "eca70a37c1ac0f5a004f4eb7cb92f7ab", "lon": -77.05015333333333, "rental_uris": {"ios": "https://dc.lft.to/lastmile_qr_scan", "android": "https://dc.lft.to/lastmile_qr_scan"}}, {"name": "ff0937451ce7db5d829108c2d11c513b", "fusion_lat": 0.0, "type": "electric_bike", "lat": 38.994561166666664, "is_reserved": 0, "is_disabled": 0, "fusion_lon": 0.0, "bike_id": "ff0937451ce7db5d829108c2d11c513b", "lon": -76.90810966666666, "rental_uris": {"ios": "https://dc.lft.to/lastmile_qr_scan", "android": "https://dc.lft.to/lastmile_qr_scan"}}, {"name": "f40ad14634489f14d3eb73b75e9e1316", "fusion_lat": 0.0, "type": "electric_scooter", "lat": 38.8692155, "is_reserved": 0, "is_disabled": 0, "fusion_lon": 0.0, "bike_id": "f40ad14634489f14d3eb73b75e9e1316", "lon": -76.97497383333334, "rental_uris": {"ios": "https://dc.lft.to/lastmile_qr_scan", "android": "https://dc.lft.to/lastmile_qr_scan"}}, {"name": "c5cedd33ea5fa04e6fdc8ea33d24716d", "fusion_lat": 0.0, "type": "electric_scooter", "lat": 38.943327333333336, "is_reserved": 0, "is_disabled": 0, "fusion_lon": 0.0, "bike_id": "c5cedd33ea5fa04e6fdc8ea33d24716d", "lon": -77.06048116666666, "rental_uris": {"ios": "https://dc.lft.to/lastmile_qr_scan", "android": "https://dc.lft.to/lastmile_qr_scan"}}, {"name": "ef20cc9d0b60df169c5c00cd4e0253cf", "fusion_lat": 0.0, "type": "electric_scooter", "lat": 38.895599, "is_reserved": 0, "is_disabled": 0, "fusion_lon": 0.0, "bike_id": "ef20cc9d0b60df169c5c00cd4e0253cf", "lon": -77.04675633333333, "rental_uris": {"ios": "https://dc.lft.to/lastmile_qr_scan", "android": "https://dc.lft.to/lastmile_qr_scan"}}, {"name": "5e549dd775228e7d91ba144c742ce9d0", "fusion_lat": 0.0, "type": "electric_scooter", "lat": 38.870839, "is_reserved": 0, "is_disabled": 0, "fusion_lon": 0.0, "bike_id": "5e549dd775228e7d91ba144c742ce9d0", "lon": -77.0112395, "rental_uris": {"ios": "https://dc.lft.to/lastmile_qr_scan", "android": "https://dc.lft.to/lastmile_qr_scan"}}, {"name": "6c31321a294fe11a9041064e28f41163", "fusion_lat": 0.0, "type": "electric_scooter", "lat": 38.887806833333336, "is_reserved": 0, "is_disabled": 0, "fusion_lon": 0.0, "bike_id": "6c31321a294fe11a9041064e28f41163", "lon": -76.95532816666666, "rental_uris": {"ios": "https://dc.lft.to/lastmile_qr_scan", "android": "https://dc.lft.to/lastmile_qr_scan"}}, {"name": "e33c7c23ac3ad86f38406e3f908a34e9", "fusion_lat": 0.0, "type": "electric_scooter", "lat": 38.93461816666667, "is_reserved": 0, "is_disabled": 0, "fusion_lon": 0.0, "bike_id": "e33c7c23ac3ad86f38406e3f908a34e9", "lon": -77.086402, "rental_uris": {"ios": "https://dc.lft.to/lastmile_qr_scan", "android": "https://dc.lft.to/lastmile_qr_scan"}}, {"name": "2762eadb13b850262ea56d30b5c7e3ff", "fusion_lat": 0.0, "type": "electric_scooter", "lat": 38.90572083333333, "is_reserved": 0, "is_disabled": 0, "fusion_lon": 0.0, "bike_id": "2762eadb13b850262ea56d30b5c7e3ff", "lon": -77.05706966666666, "rental_uris": {"ios": "https://dc.lft.to/lastmile_qr_scan", "android": "https://dc.lft.to/lastmile_qr_scan"}}, {"name": "c5265e79f770a995c9088ab53779de36", "fusion_lat": 0.0, "type": "electric_bike", "lat": 38.852409333333334, "is_reserved": 0, "is_disabled": 0, "fusion_lon": 0.0, "bike_id": "c5265e79f770a995c9088ab53779de36", "lon": -77.114284, "rental_uris": {"ios": "https://dc.lft.to/lastmile_qr_scan", "android": "https://dc.lft.to/lastmile_qr_scan"}}, {"name": "c4b2a2c1bf4fd307707b3d4dfe722260", "fusion_lat": 0.0, "type": "electric_scooter", "lat": 38.90733816666667, "is_reserved": 0, "is_disabled": 0, "fusion_lon": 0.0, "bike_id": "c4b2a2c1bf4fd307707b3d4dfe722260", "lon": -77.04501083333334, "rental_uris": {"ios": "https://dc.lft.to/lastmile_qr_scan", "android": "https://dc.lft.to/lastmile_qr_scan"}}, {"name": "bf2c0815417ada6e6d009f1f5c311e1f", "fusion_lat": 0.0, "type": "electric_scooter", "lat": 38.922213166666666, "is_reserved": 0, "is_disabled": 0, "fusion_lon": 0.0, "bike_id": "bf2c0815417ada6e6d009f1f5c311e1f", "lon": -77.02106983333333, "rental_uris": {"ios": "https://dc.lft.to/lastmile_qr_scan", "android": "https://dc.lft.to/lastmile_qr_scan"}}, {"name": "a9e7455bb58e54e4298bafd4676bf326", "fusion_lat": 0.0, "type": "electric_scooter", "lat": 38.88491366666667, "is_reserved": 0, "is_disabled": 0, "fusion_lon": 0.0, "bike_id": "a9e7455bb58e54e4298bafd4676bf326", "lon": -77.00712983333334, "rental_uris": {"ios": "https://dc.lft.to/lastmile_qr_scan", "android": "https://dc.lft.to/lastmile_qr_scan"}}, {"name": "2b9fdb0d5f0a115a28ba28a3fc83a3fe", "fusion_lat": 0.0, "type": "electric_scooter", "lat": 38.91272283333333, "is_reserved": 0, "is_disabled": 0, "fusion_lon": 0.0, "bike_id": "2b9fdb0d5f0a115a28ba28a3fc83a3fe", "lon": -77.03872833333334, "rental_uris": {"ios": "https://dc.lft.to/lastmile_qr_scan", "android": "https://dc.lft.to/lastmile_qr_scan"}}, {"name": "e13008b0c67167bafd1e9e45bfbe0458", "fusion_lat": 0.0, "type": "electric_scooter", "lat": 38.9056875, "is_reserved": 0, "is_disabled": 0, "fusion_lon": 0.0, "bike_id": "e13008b0c67167bafd1e9e45bfbe0458", "lon": -77.005952, "rental_uris": {"ios": "https://dc.lft.to/lastmile_qr_scan", "android": "https://dc.lft.to/lastmile_qr_scan"}}, {"name": "3e971c651cffe142055a94a5313e696f", "fusion_lat": 0.0, "type": "electric_scooter", "lat": 38.91793066666666, "is_reserved": 0, "is_disabled": 0, "fusion_lon": 0.0, "bike_id": "3e971c651cffe142055a94a5313e696f", "lon": -77.04010916666667, "rental_uris": {"ios": "https://dc.lft.to/lastmile_qr_scan", "android": "https://dc.lft.to/lastmile_qr_scan"}}, {"name": "8979a4c36ab70158eaa0853d34e5e5a2", "fusion_lat": 0.0, "type": "electric_scooter", "lat": 38.934715, "is_reserved": 0, "is_disabled": 0, "fusion_lon": 0.0, "bike_id": "8979a4c36ab70158eaa0853d34e5e5a2", "lon": -77.028504, "rental_uris": {"ios": "https://dc.lft.to/lastmile_qr_scan", "android": "https://dc.lft.to/lastmile_qr_scan"}}, {"name": "fb82408acf2209ba16d14cddf7e13910", "fusion_lat": 0.0, "type": "electric_scooter", "lat": 38.918308333333336, "is_reserved": 0, "is_disabled": 0, "fusion_lon": 0.0, "bike_id": "fb82408acf2209ba16d14cddf7e13910", "lon": -77.02699216666667, "rental_uris": {"ios": "https://dc.lft.to/lastmile_qr_scan", "android": "https://dc.lft.to/lastmile_qr_scan"}}, {"name": "7528bb7d48d1740ddda4da264d7233bd", "fusion_lat": 0.0, "type": "electric_scooter", "lat": 38.97505183333333, "is_reserved": 0, "is_disabled": 0, "fusion_lon": 0.0, "bike_id": "7528bb7d48d1740ddda4da264d7233bd", "lon": -77.01720966666667, "rental_uris": {"ios": "https://dc.lft.to/lastmile_qr_scan", "android": "https://dc.lft.to/lastmile_qr_scan"}}, {"name": "dfed52be3db266171531b25118cef215", "fusion_lat": 0.0, "type": "electric_scooter", "lat": 38.91709916666667, "is_reserved": 0, "is_disabled": 0, "fusion_lon": 0.0, "bike_id": "dfed52be3db266171531b25118cef215", "lon": -77.031415, "rental_uris": {"ios": "https://dc.lft.to/lastmile_qr_scan", "android": "https://dc.lft.to/lastmile_qr_scan"}}, {"name": "00a13c596848f64dd604ade175408799", "fusion_lat": 0.0, "type": "electric_scooter", "lat": 38.91821433333333, "is_reserved": 0, "is_disabled": 0, "fusion_lon": 0.0, "bike_id": "00a13c596848f64dd604ade175408799", "lon": -77.03219233333333, "rental_uris": {"ios": "https://dc.lft.to/lastmile_qr_scan", "android": "https://dc.lft.to/lastmile_qr_scan"}}, {"name": "6dce4beda12afea6b81ef6c7b8294786", "fusion_lat": 0.0, "type": "electric_scooter", "lat": 38.86515033333333, "is_reserved": 0, "is_disabled": 0, "fusion_lon": 0.0, "bike_id": "6dce4beda12afea6b81ef6c7b8294786", "lon": -76.97343633333334, "rental_uris": {"ios": "https://dc.lft.to/lastmile_qr_scan", "android": "https://dc.lft.to/lastmile_qr_scan"}}, {"name": "6c041d2aa067bc32f472e9c706b57ece", "fusion_lat": 0.0, "type": "electric_scooter", "lat": 38.883429666666665, "is_reserved": 0, "is_disabled": 0, "fusion_lon": 0.0, "bike_id": "6c041d2aa067bc32f472e9c706b57ece", "lon": -77.03165183333333, "rental_uris": {"ios": "https://dc.lft.to/lastmile_qr_scan", "android": "https://dc.lft.to/lastmile_qr_scan"}}, {"name": "c66f18be7fef50478fa6c4ccf20152d1", "fusion_lat": 0.0, "type": "electric_scooter", "lat": 38.89472833333333, "is_reserved": 0, "is_disabled": 0, "fusion_lon": 0.0, "bike_id": "c66f18be7fef50478fa6c4ccf20152d1", "lon": -76.98401916666667, "rental_uris": {"ios": "https://dc.lft.to/lastmile_qr_scan", "android": "https://dc.lft.to/lastmile_qr_scan"}}, {"name": "879f0f7e77fa63b649093b8b1add71bb", "fusion_lat": 0.0, "type": "electric_bike", "lat": 38.87233716666667, "is_reserved": 0, "is_disabled": 0, "fusion_lon": 0.0, "bike_id": "879f0f7e77fa63b649093b8b1add71bb", "lon": -77.01169416666667, "rental_uris": {"ios": "https://dc.lft.to/lastmile_qr_scan", "android": "https://dc.lft.to/lastmile_qr_scan"}}, {"name": "db44c16b24af60ca3a2ce06aefa27e2f", "fusion_lat": 0.0, "type": "electric_scooter", "lat": 38.899172166666666, "is_reserved": 0, "is_disabled": 0, "fusion_lon": 0.0, "bike_id": "db44c16b24af60ca3a2ce06aefa27e2f", "lon": -76.93384533333334, "rental_uris": {"ios": "https://dc.lft.to/lastmile_qr_scan", "android": "https://dc.lft.to/lastmile_qr_scan"}}, {"name": "59f856823a98f3f30ba7a78e815297d9", "fusion_lat": 0.0, "type": "electric_scooter", "lat": 38.905694, "is_reserved": 0, "is_disabled": 0, "fusion_lon": 0.0, "bike_id": "59f856823a98f3f30ba7a78e815297d9", "lon": -77.041378, "rental_uris": {"ios": "https://dc.lft.to/lastmile_qr_scan", "android": "https://dc.lft.to/lastmile_qr_scan"}}, {"name": "bef44f7f17725b14c4ec168d2b24d35b", "fusion_lat": 0.0, "type": "electric_bike", "lat": 38.93970783333333, "is_reserved": 0, "is_disabled": 0, "fusion_lon": 0.0, "bike_id": "bef44f7f17725b14c4ec168d2b24d35b", "lon": -76.98658083333333, "rental_uris": {"ios": "https://dc.lft.to/lastmile_qr_scan", "android": "https://dc.lft.to/lastmile_qr_scan"}}, {"name": "b2f1be375159aae0715f8747c6ad576b", "fusion_lat": 0.0, "type": "electric_scooter", "lat": 38.898520500000004, "is_reserved": 0, "is_disabled": 0, "fusion_lon": 0.0, "bike_id": "b2f1be375159aae0715f8747c6ad576b", "lon": -76.97547583333333, "rental_uris": {"ios": "https://dc.lft.to/lastmile_qr_scan", "android": "https://dc.lft.to/lastmile_qr_scan"}}, {"name": "b9364f08e4a6917f62873a8e94281983", "fusion_lat": 0.0, "type": "electric_scooter", "lat": 38.94316166666667, "is_reserved": 0, "is_disabled": 0, "fusion_lon": 0.0, "bike_id": "b9364f08e4a6917f62873a8e94281983", "lon": -77.05914083333333, "rental_uris": {"ios": "https://dc.lft.to/lastmile_qr_scan", "android": "https://dc.lft.to/lastmile_qr_scan"}}, {"name": "dc31111837ae51285f9eee807a382253", "fusion_lat": 0.0, "type": "electric_bike", "lat": 38.88133766666667, "is_reserved": 0, "is_disabled": 0, "fusion_lon": 0.0, "bike_id": "dc31111837ae51285f9eee807a382253", "lon": -76.98090483333333, "rental_uris": {"ios": "https://dc.lft.to/lastmile_qr_scan", "android": "https://dc.lft.to/lastmile_qr_scan"}}, {"name": "31d464483467e9bbd4da751f9e07304d", "fusion_lat": 0.0, "type": "electric_scooter", "lat": 38.876524833333335, "is_reserved": 0, "is_disabled": 0, "fusion_lon": 0.0, "bike_id": "31d464483467e9bbd4da751f9e07304d", "lon": -77.008353, "rental_uris": {"ios": "https://dc.lft.to/lastmile_qr_scan", "android": "https://dc.lft.to/lastmile_qr_scan"}}, {"name": "80a0f6719fd1bc62a22e0cb7b8052fa3", "fusion_lat": 0.0, "type": "electric_scooter", "lat": 38.884999, "is_reserved": 0, "is_disabled": 0, "fusion_lon": 0.0, "bike_id": "80a0f6719fd1bc62a22e0cb7b8052fa3", "lon": -77.005642, "rental_uris": {"ios": "https://dc.lft.to/lastmile_qr_scan", "android": "https://dc.lft.to/lastmile_qr_scan"}}, {"name": "45e661f8917f99982c0c118f2681d15b", "fusion_lat": 0.0, "type": "electric_scooter", "lat": 38.905687, "is_reserved": 0, "is_disabled": 0, "fusion_lon": 0.0, "bike_id": "45e661f8917f99982c0c118f2681d15b", "lon": -77.0221375, "rental_uris": {"ios": "https://dc.lft.to/lastmile_qr_scan", "android": "https://dc.lft.to/lastmile_qr_scan"}}, {"name": "afa045cbc3b84e1e6c2a73d633ae330f", "fusion_lat": 0.0, "type": "electric_scooter", "lat": 38.84429816666667, "is_reserved": 0, "is_disabled": 0, "fusion_lon": 0.0, "bike_id": "afa045cbc3b84e1e6c2a73d633ae330f", "lon": -76.99780216666667, "rental_uris": {"ios": "https://dc.lft.to/lastmile_qr_scan", "android": "https://dc.lft.to/lastmile_qr_scan"}}, {"name": "ddabbc2ef17193749120548d2aa45fd4", "fusion_lat": 0.0, "type": "electric_bike", "lat": 38.834383, "is_reserved": 0, "is_disabled": 0, "fusion_lon": 0.0, "bike_id": "ddabbc2ef17193749120548d2aa45fd4", "lon": -77.008232, "rental_uris": {"ios": "https://dc.lft.to/lastmile_qr_scan", "android": "https://dc.lft.to/lastmile_qr_scan"}}, {"name": "a3142d6022343e5988a1c5782f8b8b32", "fusion_lat": 0.0, "type": "electric_scooter", "lat": 38.89365033333333, "is_reserved": 0, "is_disabled": 0, "fusion_lon": 0.0, "bike_id": "a3142d6022343e5988a1c5782f8b8b32", "lon": -76.94984016666666, "rental_uris": {"ios": "https://dc.lft.to/lastmile_qr_scan", "android": "https://dc.lft.to/lastmile_qr_scan"}}, {"name": "8a8ceaa2743718d6ea2a2b7509e8b7f6", "fusion_lat": 0.0, "type": "electric_scooter", "lat": 38.8922, "is_reserved": 0, "is_disabled": 0, "fusion_lon": 0.0, "bike_id": "8a8ceaa2743718d6ea2a2b7509e8b7f6", "lon": -77.0137015, "rental_uris": {"ios": "https://dc.lft.to/lastmile_qr_scan", "android": "https://dc.lft.to/lastmile_qr_scan"}}, {"name": "c1c9542c56325fa2bfd5bd187429082e", "fusion_lat": 0.0, "type": "electric_scooter", "lat": 38.91111683333333, "is_reserved": 0, "is_disabled": 0, "fusion_lon": 0.0, "bike_id": "c1c9542c56325fa2bfd5bd187429082e", "lon": -77.03920233333334, "rental_uris": {"ios": "https://dc.lft.to/lastmile_qr_scan", "android": "https://dc.lft.to/lastmile_qr_scan"}}, {"name": "869240c3b290b1f1c2c3d2062ef4d8ba", "fusion_lat": 0.0, "type": "electric_scooter", "lat": 38.9004035, "is_reserved": 0, "is_disabled": 0, "fusion_lon": 0.0, "bike_id": "869240c3b290b1f1c2c3d2062ef4d8ba", "lon": -76.98820733333334, "rental_uris": {"ios": "https://dc.lft.to/lastmile_qr_scan", "android": "https://dc.lft.to/lastmile_qr_scan"}}, {"name": "c1e3ad032bdc75fc0ceb68d57fb221cf", "fusion_lat": 0.0, "type": "electric_bike", "lat": 38.86912433333333, "is_reserved": 0, "is_disabled": 0, "fusion_lon": 0.0, "bike_id": "c1e3ad032bdc75fc0ceb68d57fb221cf", "lon": -77.13173233333333, "rental_uris": {"ios": "https://dc.lft.to/lastmile_qr_scan", "android": "https://dc.lft.to/lastmile_qr_scan"}}, {"name": "6c0c499c8ea7cd7332a1adad71ccc0a6", "fusion_lat": 0.0, "type": "electric_scooter", "lat": 38.906979666666665, "is_reserved": 0, "is_disabled": 0, "fusion_lon": 0.0, "bike_id": "6c0c499c8ea7cd7332a1adad71ccc0a6", "lon": -77.02393283333333, "rental_uris": {"ios": "https://dc.lft.to/lastmile_qr_scan", "android": "https://dc.lft.to/lastmile_qr_scan"}}, {"name": "503a08da39859f76316422bbaac40428", "fusion_lat": 0.0, "type": "electric_scooter", "lat": 38.91028816666667, "is_reserved": 0, "is_disabled": 0, "fusion_lon": 0.0, "bike_id": "503a08da39859f76316422bbaac40428", "lon": -77.00755133333334, "rental_uris": {"ios": "https://dc.lft.to/lastmile_qr_scan", "android": "https://dc.lft.to/lastmile_qr_scan"}}, {"name": "bcd89f7eedea1da6224a79cb99b0c2b6", "fusion_lat": 0.0, "type": "electric_bike", "lat": 38.89483633333333, "is_reserved": 0, "is_disabled": 0, "fusion_lon": 0.0, "bike_id": "bcd89f7eedea1da6224a79cb99b0c2b6", "lon": -77.023222, "rental_uris": {"ios": "https://dc.lft.to/lastmile_qr_scan", "android": "https://dc.lft.to/lastmile_qr_scan"}}, {"name": "d49fff30579b58afc11d2db1323d65fe", "fusion_lat": 0.0, "type": "electric_scooter", "lat": 38.90368983333333, "is_reserved": 0, "is_disabled": 0, "fusion_lon": 0.0, "bike_id": "d49fff30579b58afc11d2db1323d65fe", "lon": -77.0465515, "rental_uris": {"ios": "https://dc.lft.to/lastmile_qr_scan", "android": "https://dc.lft.to/lastmile_qr_scan"}}, {"name": "38c5b807dac3f42bfc948ef0541d8f2d", "fusion_lat": 0.0, "type": "electric_scooter", "lat": 38.93147483333333, "is_reserved": 0, "is_disabled": 0, "fusion_lon": 0.0, "bike_id": "38c5b807dac3f42bfc948ef0541d8f2d", "lon": -77.02968416666667, "rental_uris": {"ios": "https://dc.lft.to/lastmile_qr_scan", "android": "https://dc.lft.to/lastmile_qr_scan"}}, {"name": "56c6181c1151ba3495df5fe94b9f6131", "fusion_lat": 0.0, "type": "electric_scooter", "lat": 38.90367483333333, "is_reserved": 0, "is_disabled": 0, "fusion_lon": 0.0, "bike_id": "56c6181c1151ba3495df5fe94b9f6131", "lon": -77.03219033333333, "rental_uris": {"ios": "https://dc.lft.to/lastmile_qr_scan", "android": "https://dc.lft.to/lastmile_qr_scan"}}, {"name": "6785b0a353ba86f1be0c70ed9ba55d31", "fusion_lat": 0.0, "type": "electric_scooter", "lat": 38.90967333333333, "is_reserved": 0, "is_disabled": 0, "fusion_lon": 0.0, "bike_id": "6785b0a353ba86f1be0c70ed9ba55d31", "lon": -77.02169066666667, "rental_uris": {"ios": "https://dc.lft.to/lastmile_qr_scan", "android": "https://dc.lft.to/lastmile_qr_scan"}}, {"name": "b5002e148cf0cdd8e7446cd22295b22b", "fusion_lat": 0.0, "type": "electric_scooter", "lat": 38.910556, "is_reserved": 0, "is_disabled": 0, "fusion_lon": 0.0, "bike_id": "b5002e148cf0cdd8e7446cd22295b22b", "lon": -77.04263766666666, "rental_uris": {"ios": "https://dc.lft.to/lastmile_qr_scan", "android": "https://dc.lft.to/lastmile_qr_scan"}}, {"name": "3332e31154e540320874d7594433d1bc", "fusion_lat": 0.0, "type": "electric_scooter", "lat": 38.9084455, "is_reserved": 0, "is_disabled": 0, "fusion_lon": 0.0, "bike_id": "3332e31154e540320874d7594433d1bc", "lon": -77.04338316666667, "rental_uris": {"ios": "https://dc.lft.to/lastmile_qr_scan", "android": "https://dc.lft.to/lastmile_qr_scan"}}, {"name": "01de86a4287d748fcc2be4b3c4f2d0e6", "fusion_lat": 0.0, "type": "electric_scooter", "lat": 38.898759166666665, "is_reserved": 0, "is_disabled": 0, "fusion_lon": 0.0, "bike_id": "01de86a4287d748fcc2be4b3c4f2d0e6", "lon": -76.93157166666667, "rental_uris": {"ios": "https://dc.lft.to/lastmile_qr_scan", "android": "https://dc.lft.to/lastmile_qr_scan"}}, {"name": "8b66bfc3b67047488ac58bbb5c55945a", "fusion_lat": 0.0, "type": "electric_bike", "lat": 38.863870666666664, "is_reserved": 0, "is_disabled": 0, "fusion_lon": 0.0, "bike_id": "8b66bfc3b67047488ac58bbb5c55945a", "lon": -76.98995133333334, "rental_uris": {"ios": "https://dc.lft.to/lastmile_qr_scan", "android": "https://dc.lft.to/lastmile_qr_scan"}}, {"name": "e04a9743b52a6c9e96eeae94e3d4dfd9", "fusion_lat": 0.0, "type": "electric_scooter", "lat": 38.941743833333334, "is_reserved": 0, "is_disabled": 0, "fusion_lon": 0.0, "bike_id": "e04a9743b52a6c9e96eeae94e3d4dfd9", "lon": -77.04136033333333, "rental_uris": {"ios": "https://dc.lft.to/lastmile_qr_scan", "android": "https://dc.lft.to/lastmile_qr_scan"}}, {"name": "2032cdb7d28b8e5955fe308912a1e446", "fusion_lat": 0.0, "type": "electric_scooter", "lat": 38.91186183333333, "is_reserved": 0, "is_disabled": 0, "fusion_lon": 0.0, "bike_id": "2032cdb7d28b8e5955fe308912a1e446", "lon": -77.039666, "rental_uris": {"ios": "https://dc.lft.to/lastmile_qr_scan", "android": "https://dc.lft.to/lastmile_qr_scan"}}, {"name": "8e653dc3ddcb5e3e08ac0a08c91713a1", "fusion_lat": 0.0, "type": "electric_scooter", "lat": 38.87420916666667, "is_reserved": 0, "is_disabled": 0, "fusion_lon": 0.0, "bike_id": "8e653dc3ddcb5e3e08ac0a08c91713a1", "lon": -76.97178466666666, "rental_uris": {"ios": "https://dc.lft.to/lastmile_qr_scan", "android": "https://dc.lft.to/lastmile_qr_scan"}}, {"name": "85ec04d853b07e5c9537d52903b17929", "fusion_lat": 0.0, "type": "electric_scooter", "lat": 38.90368183333333, "is_reserved": 0, "is_disabled": 0, "fusion_lon": 0.0, "bike_id": "85ec04d853b07e5c9537d52903b17929", "lon": -77.0110525, "rental_uris": {"ios": "https://dc.lft.to/lastmile_qr_scan", "android": "https://dc.lft.to/lastmile_qr_scan"}}, {"name": "7d7d79e78d08ed0263ac60d2d323b0c4", "fusion_lat": 0.0, "type": "electric_scooter", "lat": 38.900650666666664, "is_reserved": 0, "is_disabled": 0, "fusion_lon": 0.0, "bike_id": "7d7d79e78d08ed0263ac60d2d323b0c4", "lon": -77.04533333333333, "rental_uris": {"ios": "https://dc.lft.to/lastmile_qr_scan", "android": "https://dc.lft.to/lastmile_qr_scan"}}, {"name": "0d517d9df8f66a939ff9dd85326fee3a", "fusion_lat": 0.0, "type": "electric_scooter", "lat": 38.918422666666665, "is_reserved": 0, "is_disabled": 0, "fusion_lon": 0.0, "bike_id": "0d517d9df8f66a939ff9dd85326fee3a", "lon": -77.02598716666667, "rental_uris": {"ios": "https://dc.lft.to/lastmile_qr_scan", "android": "https://dc.lft.to/lastmile_qr_scan"}}, {"name": "08dbaffbe4e8e2f538edb09208433ea2", "fusion_lat": 0.0, "type": "electric_scooter", "lat": 38.919875833333336, "is_reserved": 0, "is_disabled": 0, "fusion_lon": 0.0, "bike_id": "08dbaffbe4e8e2f538edb09208433ea2", "lon": -77.03327683333333, "rental_uris": {"ios": "https://dc.lft.to/lastmile_qr_scan", "android": "https://dc.lft.to/lastmile_qr_scan"}}, {"name": "71039088271d96868694bd71554781fe", "fusion_lat": 0.0, "type": "electric_bike", "lat": 38.9951315, "is_reserved": 0, "is_disabled": 0, "fusion_lon": 0.0, "bike_id": "71039088271d96868694bd71554781fe", "lon": -77.02890083333334, "rental_uris": {"ios": "https://dc.lft.to/lastmile_qr_scan", "android": "https://dc.lft.to/lastmile_qr_scan"}}, {"name": "c1c889dc4500f2ea486cba97e9c4e9a0", "fusion_lat": 0.0, "type": "electric_scooter", "lat": 38.91493716666667, "is_reserved": 0, "is_disabled": 0, "fusion_lon": 0.0, "bike_id": "c1c889dc4500f2ea486cba97e9c4e9a0", "lon": -77.03256133333333, "rental_uris": {"ios": "https://dc.lft.to/lastmile_qr_scan", "android": "https://dc.lft.to/lastmile_qr_scan"}}, {"name": "440605257073ec1c6cf806bb26e2ef4a", "fusion_lat": 0.0, "type": "electric_scooter", "lat": 38.89227316666667, "is_reserved": 0, "is_disabled": 0, "fusion_lon": 0.0, "bike_id": "440605257073ec1c6cf806bb26e2ef4a", "lon": -77.04648483333334, "rental_uris": {"ios": "https://dc.lft.to/lastmile_qr_scan", "android": "https://dc.lft.to/lastmile_qr_scan"}}, {"name": "b651881905228fde998f3d374060fcaf", "fusion_lat": 0.0, "type": "electric_bike", "lat": 38.9489645, "is_reserved": 0, "is_disabled": 0, "fusion_lon": 0.0, "bike_id": "b651881905228fde998f3d374060fcaf", "lon": -76.96374433333334, "rental_uris": {"ios": "https://dc.lft.to/lastmile_qr_scan", "android": "https://dc.lft.to/lastmile_qr_scan"}}, {"name": "c11cc27e7473cd88ced1c16fdd4ba4d7", "fusion_lat": 0.0, "type": "electric_bike", "lat": 38.9649415, "is_reserved": 0, "is_disabled": 0, "fusion_lon": 0.0, "bike_id": "c11cc27e7473cd88ced1c16fdd4ba4d7", "lon": -77.06484933333333, "rental_uris": {"ios": "https://dc.lft.to/lastmile_qr_scan", "android": "https://dc.lft.to/lastmile_qr_scan"}}, {"name": "1a6998a18a931712eeb6be04591719a0", "fusion_lat": 0.0, "type": "electric_scooter", "lat": 38.90276883333333, "is_reserved": 0, "is_disabled": 0, "fusion_lon": 0.0, "bike_id": "1a6998a18a931712eeb6be04591719a0", "lon": -76.99860583333333, "rental_uris": {"ios": "https://dc.lft.to/lastmile_qr_scan", "android": "https://dc.lft.to/lastmile_qr_scan"}}, {"name": "0b83566a6d6366c911d435c03a40e47f", "fusion_lat": 0.0, "type": "electric_scooter", "lat": 38.906757999999996, "is_reserved": 0, "is_disabled": 0, "fusion_lon": 0.0, "bike_id": "0b83566a6d6366c911d435c03a40e47f", "lon": -77.041704, "rental_uris": {"ios": "https://dc.lft.to/lastmile_qr_scan", "android": "https://dc.lft.to/lastmile_qr_scan"}}, {"name": "13060fb70350902af60e5eb206ae93d1", "fusion_lat": 0.0, "type": "electric_scooter", "lat": 38.905877833333335, "is_reserved": 0, "is_disabled": 0, "fusion_lon": 0.0, "bike_id": "13060fb70350902af60e5eb206ae93d1", "lon": -77.044345, "rental_uris": {"ios": "https://dc.lft.to/lastmile_qr_scan", "android": "https://dc.lft.to/lastmile_qr_scan"}}, {"name": "309df0efddd66d5c2a64ae2304e5a9ea", "fusion_lat": 0.0, "type": "electric_scooter", "lat": 38.91850516666667, "is_reserved": 0, "is_disabled": 0, "fusion_lon": 0.0, "bike_id": "309df0efddd66d5c2a64ae2304e5a9ea", "lon": -77.0244635, "rental_uris": {"ios": "https://dc.lft.to/lastmile_qr_scan", "android": "https://dc.lft.to/lastmile_qr_scan"}}, {"name": "e01c681eb0ef9b19c2a08a816f996497", "fusion_lat": 0.0, "type": "electric_scooter", "lat": 38.912381, "is_reserved": 0, "is_disabled": 0, "fusion_lon": 0.0, "bike_id": "e01c681eb0ef9b19c2a08a816f996497", "lon": -77.009113, "rental_uris": {"ios": "https://dc.lft.to/lastmile_qr_scan", "android": "https://dc.lft.to/lastmile_qr_scan"}}, {"name": "50628009b1fa219f8385525c2428dbc2", "fusion_lat": 0.0, "type": "electric_scooter", "lat": 38.9329135, "is_reserved": 0, "is_disabled": 0, "fusion_lon": 0.0, "bike_id": "50628009b1fa219f8385525c2428dbc2", "lon": -77.02327916666667, "rental_uris": {"ios": "https://dc.lft.to/lastmile_qr_scan", "android": "https://dc.lft.to/lastmile_qr_scan"}}, {"name": "47ca6e46f0e549833782801f9ab6b1a7", "fusion_lat": 0.0, "type": "electric_scooter", "lat": 38.924835333333334, "is_reserved": 0, "is_disabled": 0, "fusion_lon": 0.0, "bike_id": "47ca6e46f0e549833782801f9ab6b1a7", "lon": -77.0393995, "rental_uris": {"ios": "https://dc.lft.to/lastmile_qr_scan", "android": "https://dc.lft.to/lastmile_qr_scan"}}, {"name": "7ca4955bafe65af3cd76b2339ae9a93b", "fusion_lat": 0.0, "type": "electric_scooter", "lat": 38.90504683333333, "is_reserved": 0, "is_disabled": 0, "fusion_lon": 0.0, "bike_id": "7ca4955bafe65af3cd76b2339ae9a93b", "lon": -77.06115666666666, "rental_uris": {"ios": "https://dc.lft.to/lastmile_qr_scan", "android": "https://dc.lft.to/lastmile_qr_scan"}}, {"name": "2c0a8c85e12a1b2ebdcc02e4c9d7de2b", "fusion_lat": 0.0, "type": "electric_scooter", "lat": 38.916145666666665, "is_reserved": 0, "is_disabled": 0, "fusion_lon": 0.0, "bike_id": "2c0a8c85e12a1b2ebdcc02e4c9d7de2b", "lon": -77.04280533333333, "rental_uris": {"ios": "https://dc.lft.to/lastmile_qr_scan", "android": "https://dc.lft.to/lastmile_qr_scan"}}, {"name": "96e4f46579f9767a35c2273d98047b78", "fusion_lat": 0.0, "type": "electric_scooter", "lat": 38.9012635, "is_reserved": 0, "is_disabled": 0, "fusion_lon": 0.0, "bike_id": "96e4f46579f9767a35c2273d98047b78", "lon": -77.02997983333333, "rental_uris": {"ios": "https://dc.lft.to/lastmile_qr_scan", "android": "https://dc.lft.to/lastmile_qr_scan"}}, {"name": "61d21686b324d93e45ffb6e29c6dacb6", "fusion_lat": 0.0, "type": "electric_scooter", "lat": 38.9257435, "is_reserved": 0, "is_disabled": 0, "fusion_lon": 0.0, "bike_id": "61d21686b324d93e45ffb6e29c6dacb6", "lon": -77.02850383333333, "rental_uris": {"ios": "https://dc.lft.to/lastmile_qr_scan", "android": "https://dc.lft.to/lastmile_qr_scan"}}, {"name": "b660d93e37d095603fc4390254a7285b", "fusion_lat": 0.0, "type": "electric_scooter", "lat": 38.8997085, "is_reserved": 0, "is_disabled": 0, "fusion_lon": 0.0, "bike_id": "b660d93e37d095603fc4390254a7285b", "lon": -77.02940116666667, "rental_uris": {"ios": "https://dc.lft.to/lastmile_qr_scan", "android": "https://dc.lft.to/lastmile_qr_scan"}}, {"name": "3a09ecd5472fdebb0c1f5c7b928f9995", "fusion_lat": 0.0, "type": "electric_bike", "lat": 38.99990116666667, "is_reserved": 0, "is_disabled": 0, "fusion_lon": 0.0, "bike_id": "3a09ecd5472fdebb0c1f5c7b928f9995", "lon": -77.08007933333333, "rental_uris": {"ios": "https://dc.lft.to/lastmile_qr_scan", "android": "https://dc.lft.to/lastmile_qr_scan"}}, {"name": "2dffa067b3f631e76943b3802fc26076", "fusion_lat": 0.0, "type": "electric_scooter", "lat": 38.885039, "is_reserved": 0, "is_disabled": 0, "fusion_lon": 0.0, "bike_id": "2dffa067b3f631e76943b3802fc26076", "lon": -77.00566833333333, "rental_uris": {"ios": "https://dc.lft.to/lastmile_qr_scan", "android": "https://dc.lft.to/lastmile_qr_scan"}}, {"name": "f6d75c558c0d9d7b17c9e7c36c54b754", "fusion_lat": 0.0, "type": "electric_bike", "lat": 38.862585333333335, "is_reserved": 0, "is_disabled": 0, "fusion_lon": 0.0, "bike_id": "f6d75c558c0d9d7b17c9e7c36c54b754", "lon": -77.05945166666666, "rental_uris": {"ios": "https://dc.lft.to/lastmile_qr_scan", "android": "https://dc.lft.to/lastmile_qr_scan"}}, {"name": "63dedadc2bbbbf077ae796bcbb16841d", "fusion_lat": 0.0, "type": "electric_scooter", "lat": 38.912574166666666, "is_reserved": 0, "is_disabled": 0, "fusion_lon": 0.0, "bike_id": "63dedadc2bbbbf077ae796bcbb16841d", "lon": -77.0386525, "rental_uris": {"ios": "https://dc.lft.to/lastmile_qr_scan", "android": "https://dc.lft.to/lastmile_qr_scan"}}, {"name": "c2cd566c3e591e24b307afeca0d5890f", "fusion_lat": 0.0, "type": "electric_scooter", "lat": 38.943134666666666, "is_reserved": 0, "is_disabled": 0, "fusion_lon": 0.0, "bike_id": "c2cd566c3e591e24b307afeca0d5890f", "lon": -77.02476966666667, "rental_uris": {"ios": "https://dc.lft.to/lastmile_qr_scan", "android": "https://dc.lft.to/lastmile_qr_scan"}}, {"name": "38475b30d4c45ade327cf58494c208fa", "fusion_lat": 0.0, "type": "electric_scooter", "lat": 38.862505, "is_reserved": 0, "is_disabled": 0, "fusion_lon": 0.0, "bike_id": "38475b30d4c45ade327cf58494c208fa", "lon": -76.99497133333334, "rental_uris": {"ios": "https://dc.lft.to/lastmile_qr_scan", "android": "https://dc.lft.to/lastmile_qr_scan"}}, {"name": "08756b2d7a5f669ab4acfab4553db569", "fusion_lat": 0.0, "type": "electric_scooter", "lat": 38.92981283333334, "is_reserved": 0, "is_disabled": 0, "fusion_lon": 0.0, "bike_id": "08756b2d7a5f669ab4acfab4553db569", "lon": -77.01452816666666, "rental_uris": {"ios": "https://dc.lft.to/lastmile_qr_scan", "android": "https://dc.lft.to/lastmile_qr_scan"}}, {"name": "7347de6f86967065a24c2adb073cf087", "fusion_lat": 0.0, "type": "electric_scooter", "lat": 38.891756, "is_reserved": 0, "is_disabled": 0, "fusion_lon": 0.0, "bike_id": "7347de6f86967065a24c2adb073cf087", "lon": -77.0155945, "rental_uris": {"ios": "https://dc.lft.to/lastmile_qr_scan", "android": "https://dc.lft.to/lastmile_qr_scan"}}, {"name": "aad840ae6a488438109158c96e7b35cd", "fusion_lat": 0.0, "type": "electric_scooter", "lat": 38.9122315, "is_reserved": 0, "is_disabled": 0, "fusion_lon": 0.0, "bike_id": "aad840ae6a488438109158c96e7b35cd", "lon": -77.0320155, "rental_uris": {"ios": "https://dc.lft.to/lastmile_qr_scan", "android": "https://dc.lft.to/lastmile_qr_scan"}}, {"name": "f27a339ef41b697a2c67c7ec7f69957f", "fusion_lat": 0.0, "type": "electric_bike", "lat": 38.8398525, "is_reserved": 0, "is_disabled": 0, "fusion_lon": 0.0, "bike_id": "f27a339ef41b697a2c67c7ec7f69957f", "lon": -77.00562866666667, "rental_uris": {"ios": "https://dc.lft.to/lastmile_qr_scan", "android": "https://dc.lft.to/lastmile_qr_scan"}}, {"name": "d4e311a6307cd0f9a996e36754253c86", "fusion_lat": 0.0, "type": "electric_scooter", "lat": 38.90073866666667, "is_reserved": 0, "is_disabled": 0, "fusion_lon": 0.0, "bike_id": "d4e311a6307cd0f9a996e36754253c86", "lon": -77.0497795, "rental_uris": {"ios": "https://dc.lft.to/lastmile_qr_scan", "android": "https://dc.lft.to/lastmile_qr_scan"}}, {"name": "4a3afbd44391612cedd175306cb4c194", "fusion_lat": 0.0, "type": "electric_scooter", "lat": 38.91246116666667, "is_reserved": 0, "is_disabled": 0, "fusion_lon": 0.0, "bike_id": "4a3afbd44391612cedd175306cb4c194", "lon": -77.038357, "rental_uris": {"ios": "https://dc.lft.to/lastmile_qr_scan", "android": "https://dc.lft.to/lastmile_qr_scan"}}, {"name": "7a0c53a4f5a0a33ae2e0b8305841c7d1", "fusion_lat": 0.0, "type": "electric_bike", "lat": 38.8876065, "is_reserved": 0, "is_disabled": 0, "fusion_lon": 0.0, "bike_id": "7a0c53a4f5a0a33ae2e0b8305841c7d1", "lon": -76.90072533333333, "rental_uris": {"ios": "https://dc.lft.to/lastmile_qr_scan", "android": "https://dc.lft.to/lastmile_qr_scan"}}, {"name": "437251ca1b8f79f321cb349ee33fd862", "fusion_lat": 0.0, "type": "electric_scooter", "lat": 38.86249733333333, "is_reserved": 0, "is_disabled": 0, "fusion_lon": 0.0, "bike_id": "437251ca1b8f79f321cb349ee33fd862", "lon": -76.99529433333333, "rental_uris": {"ios": "https://dc.lft.to/lastmile_qr_scan", "android": "https://dc.lft.to/lastmile_qr_scan"}}, {"name": "f9aed8867dd114f92e72da02697b08f0", "fusion_lat": 0.0, "type": "electric_scooter", "lat": 38.88596166666667, "is_reserved": 0, "is_disabled": 0, "fusion_lon": 0.0, "bike_id": "f9aed8867dd114f92e72da02697b08f0", "lon": -77.02185983333334, "rental_uris": {"ios": "https://dc.lft.to/lastmile_qr_scan", "android": "https://dc.lft.to/lastmile_qr_scan"}}, {"name": "ab160f7a5d768ca7d3db09ad7cefdf9f", "fusion_lat": 0.0, "type": "electric_scooter", "lat": 38.8766185, "is_reserved": 0, "is_disabled": 0, "fusion_lon": 0.0, "bike_id": "ab160f7a5d768ca7d3db09ad7cefdf9f", "lon": -77.00751983333333, "rental_uris": {"ios": "https://dc.lft.to/lastmile_qr_scan", "android": "https://dc.lft.to/lastmile_qr_scan"}}, {"name": "58d299e31bee3821a7ad8c6884bdfdab", "fusion_lat": 0.0, "type": "electric_bike", "lat": 38.89648483333333, "is_reserved": 0, "is_disabled": 0, "fusion_lon": 0.0, "bike_id": "58d299e31bee3821a7ad8c6884bdfdab", "lon": -77.10452166666667, "rental_uris": {"ios": "https://dc.lft.to/lastmile_qr_scan", "android": "https://dc.lft.to/lastmile_qr_scan"}}, {"name": "a6d10bf8e0fdc883aa3d3073e32653f0", "fusion_lat": 0.0, "type": "electric_scooter", "lat": 38.89671933333333, "is_reserved": 0, "is_disabled": 0, "fusion_lon": 0.0, "bike_id": "a6d10bf8e0fdc883aa3d3073e32653f0", "lon": -76.94722016666667, "rental_uris": {"ios": "https://dc.lft.to/lastmile_qr_scan", "android": "https://dc.lft.to/lastmile_qr_scan"}}, {"name": "70fb1e588bcb441d131d99881271a1a2", "fusion_lat": 0.0, "type": "electric_scooter", "lat": 38.90397816666667, "is_reserved": 0, "is_disabled": 0, "fusion_lon": 0.0, "bike_id": "70fb1e588bcb441d131d99881271a1a2", "lon": -76.989428, "rental_uris": {"ios": "https://dc.lft.to/lastmile_qr_scan", "android": "https://dc.lft.to/lastmile_qr_scan"}}, {"name": "0558ddaa0ed622c7eeadc93c194c842b", "fusion_lat": 0.0, "type": "electric_scooter", "lat": 38.91107783333333, "is_reserved": 0, "is_disabled": 0, "fusion_lon": 0.0, "bike_id": "0558ddaa0ed622c7eeadc93c194c842b", "lon": -77.04502016666666, "rental_uris": {"ios": "https://dc.lft.to/lastmile_qr_scan", "android": "https://dc.lft.to/lastmile_qr_scan"}}, {"name": "f758b178f25223d6599bcef388fa570b", "fusion_lat": 0.0, "type": "electric_scooter", "lat": 38.921008666666665, "is_reserved": 0, "is_disabled": 0, "fusion_lon": 0.0, "bike_id": "f758b178f25223d6599bcef388fa570b", "lon": -77.02693116666667, "rental_uris": {"ios": "https://dc.lft.to/lastmile_qr_scan", "android": "https://dc.lft.to/lastmile_qr_scan"}}, {"name": "3689c61337b3f10da08256936b15ab9f", "fusion_lat": 0.0, "type": "electric_scooter", "lat": 38.92357233333333, "is_reserved": 0, "is_disabled": 0, "fusion_lon": 0.0, "bike_id": "3689c61337b3f10da08256936b15ab9f", "lon": -77.0505705, "rental_uris": {"ios": "https://dc.lft.to/lastmile_qr_scan", "android": "https://dc.lft.to/lastmile_qr_scan"}}, {"name": "d3c154f946e2a9e7cc27c37409018407", "fusion_lat": 0.0, "type": "electric_scooter", "lat": 38.91419, "is_reserved": 0, "is_disabled": 0, "fusion_lon": 0.0, "bike_id": "d3c154f946e2a9e7cc27c37409018407", "lon": -77.0097905, "rental_uris": {"ios": "https://dc.lft.to/lastmile_qr_scan", "android": "https://dc.lft.to/lastmile_qr_scan"}}, {"name": "cad102287d94fea80f325092f4092720", "fusion_lat": 0.0, "type": "electric_bike", "lat": 38.868717, "is_reserved": 0, "is_disabled": 0, "fusion_lon": 0.0, "bike_id": "cad102287d94fea80f325092f4092720", "lon": -76.91662, "rental_uris": {"ios": "https://dc.lft.to/lastmile_qr_scan", "android": "https://dc.lft.to/lastmile_qr_scan"}}, {"name": "05b0e879797bc7a58b5050e16c5b6e62", "fusion_lat": 0.0, "type": "electric_scooter", "lat": 38.874761666666664, "is_reserved": 0, "is_disabled": 0, "fusion_lon": 0.0, "bike_id": "05b0e879797bc7a58b5050e16c5b6e62", "lon": -77.0106435, "rental_uris": {"ios": "https://dc.lft.to/lastmile_qr_scan", "android": "https://dc.lft.to/lastmile_qr_scan"}}, {"name": "0c91851974de3b2eb3e6e3119e2f808c", "fusion_lat": 0.0, "type": "electric_scooter", "lat": 38.8665965, "is_reserved": 0, "is_disabled": 0, "fusion_lon": 0.0, "bike_id": "0c91851974de3b2eb3e6e3119e2f808c", "lon": -76.98887983333333, "rental_uris": {"ios": "https://dc.lft.to/lastmile_qr_scan", "android": "https://dc.lft.to/lastmile_qr_scan"}}, {"name": "05cead9bc20af47e2f431be1512fdf81", "fusion_lat": 0.0, "type": "electric_scooter", "lat": 38.8995515, "is_reserved": 0, "is_disabled": 0, "fusion_lon": 0.0, "bike_id": "05cead9bc20af47e2f431be1512fdf81", "lon": -77.00894216666667, "rental_uris": {"ios": "https://dc.lft.to/lastmile_qr_scan", "android": "https://dc.lft.to/lastmile_qr_scan"}}, {"name": "f32f7e89f8d0cb2c40354368d99cde03", "fusion_lat": 0.0, "type": "electric_scooter", "lat": 38.9177835, "is_reserved": 0, "is_disabled": 0, "fusion_lon": 0.0, "bike_id": "f32f7e89f8d0cb2c40354368d99cde03", "lon": -77.04098883333333, "rental_uris": {"ios": "https://dc.lft.to/lastmile_qr_scan", "android": "https://dc.lft.to/lastmile_qr_scan"}}, {"name": "e4bef90e355c5fe468c7f61b01a7efcf", "fusion_lat": 0.0, "type": "electric_bike", "lat": 38.888619166666665, "is_reserved": 0, "is_disabled": 0, "fusion_lon": 0.0, "bike_id": "e4bef90e355c5fe468c7f61b01a7efcf", "lon": -76.99478, "rental_uris": {"ios": "https://dc.lft.to/lastmile_qr_scan", "android": "https://dc.lft.to/lastmile_qr_scan"}}, {"name": "f1f80066662ad4dc59f665d04edbfe3f", "fusion_lat": 0.0, "type": "electric_scooter", "lat": 38.8852265, "is_reserved": 0, "is_disabled": 0, "fusion_lon": 0.0, "bike_id": "f1f80066662ad4dc59f665d04edbfe3f", "lon": -77.02103783333334, "rental_uris": {"ios": "https://dc.lft.to/lastmile_qr_scan", "android": "https://dc.lft.to/lastmile_qr_scan"}}, {"name": "d3398036ee0ad9a591a1ff7d7314fff4", "fusion_lat": 0.0, "type": "electric_scooter", "lat": 38.924325333333336, "is_reserved": 0, "is_disabled": 0, "fusion_lon": 0.0, "bike_id": "d3398036ee0ad9a591a1ff7d7314fff4", "lon": -77.04214816666666, "rental_uris": {"ios": "https://dc.lft.to/lastmile_qr_scan", "android": "https://dc.lft.to/lastmile_qr_scan"}}, {"name": "84e821a2b96679639f118bc4e5aac9f4", "fusion_lat": 0.0, "type": "electric_scooter", "lat": 38.87525733333333, "is_reserved": 0, "is_disabled": 0, "fusion_lon": 0.0, "bike_id": "84e821a2b96679639f118bc4e5aac9f4", "lon": -77.01761383333333, "rental_uris": {"ios": "https://dc.lft.to/lastmile_qr_scan", "android": "https://dc.lft.to/lastmile_qr_scan"}}, {"name": "c476eae482691d7f9e472c6c8dbaeef1", "fusion_lat": 0.0, "type": "electric_scooter", "lat": 38.9170175, "is_reserved": 0, "is_disabled": 0, "fusion_lon": 0.0, "bike_id": "c476eae482691d7f9e472c6c8dbaeef1", "lon": -77.03084, "rental_uris": {"ios": "https://dc.lft.to/lastmile_qr_scan", "android": "https://dc.lft.to/lastmile_qr_scan"}}, {"name": "c9d452a3ae3d0541a4ab8329cf63736c", "fusion_lat": 0.0, "type": "electric_scooter", "lat": 38.866585666666666, "is_reserved": 0, "is_disabled": 0, "fusion_lon": 0.0, "bike_id": "c9d452a3ae3d0541a4ab8329cf63736c", "lon": -76.9888865, "rental_uris": {"ios": "https://dc.lft.to/lastmile_qr_scan", "android": "https://dc.lft.to/lastmile_qr_scan"}}, {"name": "459b379780d28855cac39a5b69081168", "fusion_lat": 0.0, "type": "electric_scooter", "lat": 38.897161, "is_reserved": 0, "is_disabled": 0, "fusion_lon": 0.0, "bike_id": "459b379780d28855cac39a5b69081168", "lon": -77.00795033333333, "rental_uris": {"ios": "https://dc.lft.to/lastmile_qr_scan", "android": "https://dc.lft.to/lastmile_qr_scan"}}, {"name": "9fd5b41b52541d09c072bdefbebab70f", "fusion_lat": 0.0, "type": "electric_scooter", "lat": 38.90235916666666, "is_reserved": 0, "is_disabled": 0, "fusion_lon": 0.0, "bike_id": "9fd5b41b52541d09c072bdefbebab70f", "lon": -77.01500383333334, "rental_uris": {"ios": "https://dc.lft.to/lastmile_qr_scan", "android": "https://dc.lft.to/lastmile_qr_scan"}}, {"name": "f48079ddbb3ad83fddc43ba40e30379f", "fusion_lat": 0.0, "type": "electric_bike", "lat": 38.90791766666667, "is_reserved": 0, "is_disabled": 0, "fusion_lon": 0.0, "bike_id": "f48079ddbb3ad83fddc43ba40e30379f", "lon": -76.9970335, "rental_uris": {"ios": "https://dc.lft.to/lastmile_qr_scan", "android": "https://dc.lft.to/lastmile_qr_scan"}}, {"name": "c0dd90303bc4c8d9d6b0ed86b650a06c", "fusion_lat": 0.0, "type": "electric_bike", "lat": 38.85617666666667, "is_reserved": 0, "is_disabled": 0, "fusion_lon": 0.0, "bike_id": "c0dd90303bc4c8d9d6b0ed86b650a06c", "lon": -77.08536383333333, "rental_uris": {"ios": "https://dc.lft.to/lastmile_qr_scan", "android": "https://dc.lft.to/lastmile_qr_scan"}}, {"name": "68a7d85a0f9907c4b7b0f323347a66c2", "fusion_lat": 0.0, "type": "electric_scooter", "lat": 38.912587, "is_reserved": 0, "is_disabled": 0, "fusion_lon": 0.0, "bike_id": "68a7d85a0f9907c4b7b0f323347a66c2", "lon": -77.03870916666666, "rental_uris": {"ios": "https://dc.lft.to/lastmile_qr_scan", "android": "https://dc.lft.to/lastmile_qr_scan"}}, {"name": "4fa162c6e9c3dc9b74f20a9e3c23bfe6", "fusion_lat": 0.0, "type": "electric_scooter", "lat": 38.930807, "is_reserved": 0, "is_disabled": 0, "fusion_lon": 0.0, "bike_id": "4fa162c6e9c3dc9b74f20a9e3c23bfe6", "lon": -77.02793466666667, "rental_uris": {"ios": "https://dc.lft.to/lastmile_qr_scan", "android": "https://dc.lft.to/lastmile_qr_scan"}}, {"name": "1ac6926d162a4597f65c65a2179b9856", "fusion_lat": 0.0, "type": "electric_scooter", "lat": 38.90907133333333, "is_reserved": 0, "is_disabled": 0, "fusion_lon": 0.0, "bike_id": "1ac6926d162a4597f65c65a2179b9856", "lon": -77.04207883333333, "rental_uris": {"ios": "https://dc.lft.to/lastmile_qr_scan", "android": "https://dc.lft.to/lastmile_qr_scan"}}, {"name": "16855c437a0ea2c6ddf824c45ac0e2b1", "fusion_lat": 0.0, "type": "electric_scooter", "lat": 38.897089666666666, "is_reserved": 0, "is_disabled": 0, "fusion_lon": 0.0, "bike_id": "16855c437a0ea2c6ddf824c45ac0e2b1", "lon": -77.00839083333334, "rental_uris": {"ios": "https://dc.lft.to/lastmile_qr_scan", "android": "https://dc.lft.to/lastmile_qr_scan"}}, {"name": "af4461cc9e34828d6310915dfff579bc", "fusion_lat": 0.0, "type": "electric_scooter", "lat": 38.900278666666665, "is_reserved": 0, "is_disabled": 0, "fusion_lon": 0.0, "bike_id": "af4461cc9e34828d6310915dfff579bc", "lon": -77.00216616666667, "rental_uris": {"ios": "https://dc.lft.to/lastmile_qr_scan", "android": "https://dc.lft.to/lastmile_qr_scan"}}, {"name": "f19f9be8c8fe6b27ad15bacd2432d8e0", "fusion_lat": 0.0, "type": "electric_scooter", "lat": 38.903250166666666, "is_reserved": 0, "is_disabled": 0, "fusion_lon": 0.0, "bike_id": "f19f9be8c8fe6b27ad15bacd2432d8e0", "lon": -77.03638383333333, "rental_uris": {"ios": "https://dc.lft.to/lastmile_qr_scan", "android": "https://dc.lft.to/lastmile_qr_scan"}}, {"name": "f3384bf1f7f12b32f337a62ea7b2c368", "fusion_lat": 0.0, "type": "electric_scooter", "lat": 38.9312435, "is_reserved": 0, "is_disabled": 0, "fusion_lon": 0.0, "bike_id": "f3384bf1f7f12b32f337a62ea7b2c368", "lon": -77.036023, "rental_uris": {"ios": "https://dc.lft.to/lastmile_qr_scan", "android": "https://dc.lft.to/lastmile_qr_scan"}}, {"name": "0760a848ba25702c758fd365381b56b2", "fusion_lat": 0.0, "type": "electric_scooter", "lat": 38.90013316666667, "is_reserved": 0, "is_disabled": 0, "fusion_lon": 0.0, "bike_id": "0760a848ba25702c758fd365381b56b2", "lon": -77.040443, "rental_uris": {"ios": "https://dc.lft.to/lastmile_qr_scan", "android": "https://dc.lft.to/lastmile_qr_scan"}}, {"name": "26d1a1bd7447b8f464172810d59b44fb", "fusion_lat": 0.0, "type": "electric_scooter", "lat": 38.93718, "is_reserved": 0, "is_disabled": 0, "fusion_lon": 0.0, "bike_id": "26d1a1bd7447b8f464172810d59b44fb", "lon": -77.0246305, "rental_uris": {"ios": "https://dc.lft.to/lastmile_qr_scan", "android": "https://dc.lft.to/lastmile_qr_scan"}}, {"name": "31700d3490732e7019f1e32cf46b94d1", "fusion_lat": 0.0, "type": "electric_scooter", "lat": 38.92152083333333, "is_reserved": 0, "is_disabled": 0, "fusion_lon": 0.0, "bike_id": "31700d3490732e7019f1e32cf46b94d1", "lon": -77.038684, "rental_uris": {"ios": "https://dc.lft.to/lastmile_qr_scan", "android": "https://dc.lft.to/lastmile_qr_scan"}}, {"name": "ea748bf297a9b0ef011774d7b3da5b15", "fusion_lat": 0.0, "type": "electric_scooter", "lat": 38.9012835, "is_reserved": 0, "is_disabled": 0, "fusion_lon": 0.0, "bike_id": "ea748bf297a9b0ef011774d7b3da5b15", "lon": -77.04231383333334, "rental_uris": {"ios": "https://dc.lft.to/lastmile_qr_scan", "android": "https://dc.lft.to/lastmile_qr_scan"}}, {"name": "6e50f5dffc7c8de081b7d69caea7318f", "fusion_lat": 0.0, "type": "electric_scooter", "lat": 38.88127466666667, "is_reserved": 0, "is_disabled": 0, "fusion_lon": 0.0, "bike_id": "6e50f5dffc7c8de081b7d69caea7318f", "lon": -77.00213016666666, "rental_uris": {"ios": "https://dc.lft.to/lastmile_qr_scan", "android": "https://dc.lft.to/lastmile_qr_scan"}}, {"name": "949e993544f98923385455a092957b3e", "fusion_lat": 0.0, "type": "electric_scooter", "lat": 38.8972585, "is_reserved": 0, "is_disabled": 0, "fusion_lon": 0.0, "bike_id": "949e993544f98923385455a092957b3e", "lon": -77.02061016666667, "rental_uris": {"ios": "https://dc.lft.to/lastmile_qr_scan", "android": "https://dc.lft.to/lastmile_qr_scan"}}, {"name": "e8b96175c5d309a781e046da5856479f", "fusion_lat": 0.0, "type": "electric_scooter", "lat": 38.907347, "is_reserved": 0, "is_disabled": 0, "fusion_lon": 0.0, "bike_id": "e8b96175c5d309a781e046da5856479f", "lon": -76.99785066666666, "rental_uris": {"ios": "https://dc.lft.to/lastmile_qr_scan", "android": "https://dc.lft.to/lastmile_qr_scan"}}, {"name": "3c3538e179effd642dc0df3a810dbf5f", "fusion_lat": 0.0, "type": "electric_scooter", "lat": 38.92156, "is_reserved": 0, "is_disabled": 0, "fusion_lon": 0.0, "bike_id": "3c3538e179effd642dc0df3a810dbf5f", "lon": -77.0338655, "rental_uris": {"ios": "https://dc.lft.to/lastmile_qr_scan", "android": "https://dc.lft.to/lastmile_qr_scan"}}, {"name": "c308ec11109ef23742ef5eedf9cdb548", "fusion_lat": 0.0, "type": "electric_scooter", "lat": 38.921611, "is_reserved": 0, "is_disabled": 0, "fusion_lon": 0.0, "bike_id": "c308ec11109ef23742ef5eedf9cdb548", "lon": -77.03387266666667, "rental_uris": {"ios": "https://dc.lft.to/lastmile_qr_scan", "android": "https://dc.lft.to/lastmile_qr_scan"}}, {"name": "95c576e363f4849e6bc6a109cbc3d391", "fusion_lat": 0.0, "type": "electric_scooter", "lat": 38.9086075, "is_reserved": 0, "is_disabled": 0, "fusion_lon": 0.0, "bike_id": "95c576e363f4849e6bc6a109cbc3d391", "lon": -77.01096183333334, "rental_uris": {"ios": "https://dc.lft.to/lastmile_qr_scan", "android": "https://dc.lft.to/lastmile_qr_scan"}}, {"name": "7ded43479ce18bb88371ddad195122ef", "fusion_lat": 0.0, "type": "electric_bike", "lat": 39.10564866666667, "is_reserved": 0, "is_disabled": 0, "fusion_lon": 0.0, "bike_id": "7ded43479ce18bb88371ddad195122ef", "lon": -77.15263916666666, "rental_uris": {"ios": "https://dc.lft.to/lastmile_qr_scan", "android": "https://dc.lft.to/lastmile_qr_scan"}}, {"name": "9190f206272c50bb0c261732d36ba8b3", "fusion_lat": 0.0, "type": "electric_scooter", "lat": 38.896021, "is_reserved": 0, "is_disabled": 0, "fusion_lon": 0.0, "bike_id": "9190f206272c50bb0c261732d36ba8b3", "lon": -77.04116966666666, "rental_uris": {"ios": "https://dc.lft.to/lastmile_qr_scan", "android": "https://dc.lft.to/lastmile_qr_scan"}}, {"name": "8a4108f31c3ed0e6c665921c7fc6ddd3", "fusion_lat": 0.0, "type": "electric_scooter", "lat": 38.876475, "is_reserved": 0, "is_disabled": 0, "fusion_lon": 0.0, "bike_id": "8a4108f31c3ed0e6c665921c7fc6ddd3", "lon": -76.965026, "rental_uris": {"ios": "https://dc.lft.to/lastmile_qr_scan", "android": "https://dc.lft.to/lastmile_qr_scan"}}, {"name": "45c375cc68e8796c010ab313aef62867", "fusion_lat": 0.0, "type": "electric_scooter", "lat": 38.919278, "is_reserved": 0, "is_disabled": 0, "fusion_lon": 0.0, "bike_id": "45c375cc68e8796c010ab313aef62867", "lon": -77.04497616666667, "rental_uris": {"ios": "https://dc.lft.to/lastmile_qr_scan", "android": "https://dc.lft.to/lastmile_qr_scan"}}, {"name": "d7bccb2e039f0dba559bc611ad40d443", "fusion_lat": 0.0, "type": "electric_bike", "lat": 38.8864925, "is_reserved": 0, "is_disabled": 0, "fusion_lon": 0.0, "bike_id": "d7bccb2e039f0dba559bc611ad40d443", "lon": -77.1622875, "rental_uris": {"ios": "https://dc.lft.to/lastmile_qr_scan", "android": "https://dc.lft.to/lastmile_qr_scan"}}, {"name": "9d24e2ff21619abd8eb71dbe1dd48882", "fusion_lat": 0.0, "type": "electric_scooter", "lat": 38.895314166666665, "is_reserved": 0, "is_disabled": 0, "fusion_lon": 0.0, "bike_id": "9d24e2ff21619abd8eb71dbe1dd48882", "lon": -76.94923583333333, "rental_uris": {"ios": "https://dc.lft.to/lastmile_qr_scan", "android": "https://dc.lft.to/lastmile_qr_scan"}}, {"name": "2b8f50ce7afeaf563345592bfff6f683", "fusion_lat": 0.0, "type": "electric_scooter", "lat": 38.896244833333334, "is_reserved": 0, "is_disabled": 0, "fusion_lon": 0.0, "bike_id": "2b8f50ce7afeaf563345592bfff6f683", "lon": -77.0238845, "rental_uris": {"ios": "https://dc.lft.to/lastmile_qr_scan", "android": "https://dc.lft.to/lastmile_qr_scan"}}, {"name": "559505070de491bc61f21878a9631a75", "fusion_lat": 0.0, "type": "electric_scooter", "lat": 38.897398333333335, "is_reserved": 0, "is_disabled": 0, "fusion_lon": 0.0, "bike_id": "559505070de491bc61f21878a9631a75", "lon": -77.04650266666667, "rental_uris": {"ios": "https://dc.lft.to/lastmile_qr_scan", "android": "https://dc.lft.to/lastmile_qr_scan"}}, {"name": "3bfa00aa44f53b0607aac50e4f1ba66e", "fusion_lat": 0.0, "type": "electric_scooter", "lat": 38.90573783333333, "is_reserved": 0, "is_disabled": 0, "fusion_lon": 0.0, "bike_id": "3bfa00aa44f53b0607aac50e4f1ba66e", "lon": -77.01421883333333, "rental_uris": {"ios": "https://dc.lft.to/lastmile_qr_scan", "android": "https://dc.lft.to/lastmile_qr_scan"}}, {"name": "33026d684322db42668da241cdda4a97", "fusion_lat": 0.0, "type": "electric_scooter", "lat": 38.91183766666666, "is_reserved": 0, "is_disabled": 0, "fusion_lon": 0.0, "bike_id": "33026d684322db42668da241cdda4a97", "lon": -77.0450115, "rental_uris": {"ios": "https://dc.lft.to/lastmile_qr_scan", "android": "https://dc.lft.to/lastmile_qr_scan"}}, {"name": "7a2432cbe1f68fe6085f7973a63b564d", "fusion_lat": 0.0, "type": "electric_scooter", "lat": 38.91512316666667, "is_reserved": 0, "is_disabled": 0, "fusion_lon": 0.0, "bike_id": "7a2432cbe1f68fe6085f7973a63b564d", "lon": -77.046092, "rental_uris": {"ios": "https://dc.lft.to/lastmile_qr_scan", "android": "https://dc.lft.to/lastmile_qr_scan"}}, {"name": "eb23ad9b56532f43541f611fb3eb23ad", "fusion_lat": 0.0, "type": "electric_scooter", "lat": 38.905787, "is_reserved": 0, "is_disabled": 0, "fusion_lon": 0.0, "bike_id": "eb23ad9b56532f43541f611fb3eb23ad", "lon": -77.03708466666667, "rental_uris": {"ios": "https://dc.lft.to/lastmile_qr_scan", "android": "https://dc.lft.to/lastmile_qr_scan"}}, {"name": "f4281c29c313870d6ec0e543a6e17712", "fusion_lat": 0.0, "type": "electric_scooter", "lat": 38.885827, "is_reserved": 0, "is_disabled": 0, "fusion_lon": 0.0, "bike_id": "f4281c29c313870d6ec0e543a6e17712", "lon": -76.9950325, "rental_uris": {"ios": "https://dc.lft.to/lastmile_qr_scan", "android": "https://dc.lft.to/lastmile_qr_scan"}}, {"name": "c5d9727d4bbddec6bcef1280e4441ad3", "fusion_lat": 0.0, "type": "electric_scooter", "lat": 38.92816083333334, "is_reserved": 0, "is_disabled": 0, "fusion_lon": 0.0, "bike_id": "c5d9727d4bbddec6bcef1280e4441ad3", "lon": -77.014102, "rental_uris": {"ios": "https://dc.lft.to/lastmile_qr_scan", "android": "https://dc.lft.to/lastmile_qr_scan"}}, {"name": "c5d5007c429af4e1ebb2a6f520eefd38", "fusion_lat": 0.0, "type": "electric_scooter", "lat": 38.916022, "is_reserved": 0, "is_disabled": 0, "fusion_lon": 0.0, "bike_id": "c5d5007c429af4e1ebb2a6f520eefd38", "lon": -77.04247966666667, "rental_uris": {"ios": "https://dc.lft.to/lastmile_qr_scan", "android": "https://dc.lft.to/lastmile_qr_scan"}}, {"name": "477c24be5f7c3f796227cfa4508f084f", "fusion_lat": 0.0, "type": "electric_scooter", "lat": 38.9167875, "is_reserved": 0, "is_disabled": 0, "fusion_lon": 0.0, "bike_id": "477c24be5f7c3f796227cfa4508f084f", "lon": -77.02962166666667, "rental_uris": {"ios": "https://dc.lft.to/lastmile_qr_scan", "android": "https://dc.lft.to/lastmile_qr_scan"}}, {"name": "1dd0b63fb398fbd91c24c23cc46ce6ac", "fusion_lat": 0.0, "type": "electric_scooter", "lat": 38.91407066666667, "is_reserved": 0, "is_disabled": 0, "fusion_lon": 0.0, "bike_id": "1dd0b63fb398fbd91c24c23cc46ce6ac", "lon": -77.03951783333333, "rental_uris": {"ios": "https://dc.lft.to/lastmile_qr_scan", "android": "https://dc.lft.to/lastmile_qr_scan"}}, {"name": "6847165ffb3067d6b2a5238b116804eb", "fusion_lat": 0.0, "type": "electric_scooter", "lat": 38.9248905, "is_reserved": 0, "is_disabled": 0, "fusion_lon": 0.0, "bike_id": "6847165ffb3067d6b2a5238b116804eb", "lon": -77.0270625, "rental_uris": {"ios": "https://dc.lft.to/lastmile_qr_scan", "android": "https://dc.lft.to/lastmile_qr_scan"}}, {"name": "0b1cb4b1e4d217fec8f68c5f2e28af5e", "fusion_lat": 0.0, "type": "electric_scooter", "lat": 38.93864816666667, "is_reserved": 0, "is_disabled": 0, "fusion_lon": 0.0, "bike_id": "0b1cb4b1e4d217fec8f68c5f2e28af5e", "lon": -77.02216583333333, "rental_uris": {"ios": "https://dc.lft.to/lastmile_qr_scan", "android": "https://dc.lft.to/lastmile_qr_scan"}}, {"name": "1d782f6c3f7d4a45939c56552fcc5c43", "fusion_lat": 0.0, "type": "electric_scooter", "lat": 38.86828383333334, "is_reserved": 0, "is_disabled": 0, "fusion_lon": 0.0, "bike_id": "1d782f6c3f7d4a45939c56552fcc5c43", "lon": -76.986162, "rental_uris": {"ios": "https://dc.lft.to/lastmile_qr_scan", "android": "https://dc.lft.to/lastmile_qr_scan"}}, {"name": "708f75ed9b474ca50b41665498855634", "fusion_lat": 0.0, "type": "electric_scooter", "lat": 38.93601783333333, "is_reserved": 0, "is_disabled": 0, "fusion_lon": 0.0, "bike_id": "708f75ed9b474ca50b41665498855634", "lon": -77.0328195, "rental_uris": {"ios": "https://dc.lft.to/lastmile_qr_scan", "android": "https://dc.lft.to/lastmile_qr_scan"}}, {"name": "078ea651b22a6c47a3e2c8de16f025d2", "fusion_lat": 0.0, "type": "electric_bike", "lat": 38.9734615, "is_reserved": 0, "is_disabled": 0, "fusion_lon": 0.0, "bike_id": "078ea651b22a6c47a3e2c8de16f025d2", "lon": -77.10038983333334, "rental_uris": {"ios": "https://dc.lft.to/lastmile_qr_scan", "android": "https://dc.lft.to/lastmile_qr_scan"}}, {"name": "ff6fa0ea6c09d6e5d664de0573e7686c", "fusion_lat": 0.0, "type": "electric_scooter", "lat": 38.931873, "is_reserved": 0, "is_disabled": 0, "fusion_lon": 0.0, "bike_id": "ff6fa0ea6c09d6e5d664de0573e7686c", "lon": -77.02834016666667, "rental_uris": {"ios": "https://dc.lft.to/lastmile_qr_scan", "android": "https://dc.lft.to/lastmile_qr_scan"}}, {"name": "77e1f16638abdeb30a27004646be81b4", "fusion_lat": 0.0, "type": "electric_scooter", "lat": 38.91031983333333, "is_reserved": 0, "is_disabled": 0, "fusion_lon": 0.0, "bike_id": "77e1f16638abdeb30a27004646be81b4", "lon": -77.04255433333333, "rental_uris": {"ios": "https://dc.lft.to/lastmile_qr_scan", "android": "https://dc.lft.to/lastmile_qr_scan"}}, {"name": "77a7139815634b4030131008da7c223e", "fusion_lat": 0.0, "type": "electric_scooter", "lat": 38.92016366666667, "is_reserved": 0, "is_disabled": 0, "fusion_lon": 0.0, "bike_id": "77a7139815634b4030131008da7c223e", "lon": -77.03467883333333, "rental_uris": {"ios": "https://dc.lft.to/lastmile_qr_scan", "android": "https://dc.lft.to/lastmile_qr_scan"}}, {"name": "50abc7122cb4aaba2cc43b7a841d7398", "fusion_lat": 0.0, "type": "electric_scooter", "lat": 38.961758, "is_reserved": 0, "is_disabled": 0, "fusion_lon": 0.0, "bike_id": "50abc7122cb4aaba2cc43b7a841d7398", "lon": -77.03225716666667, "rental_uris": {"ios": "https://dc.lft.to/lastmile_qr_scan", "android": "https://dc.lft.to/lastmile_qr_scan"}}, {"name": "c6b5fbf78881fb6d4dbd7e97ffb2bd22", "fusion_lat": 0.0, "type": "electric_scooter", "lat": 38.903922666666666, "is_reserved": 0, "is_disabled": 0, "fusion_lon": 0.0, "bike_id": "c6b5fbf78881fb6d4dbd7e97ffb2bd22", "lon": -77.04610816666667, "rental_uris": {"ios": "https://dc.lft.to/lastmile_qr_scan", "android": "https://dc.lft.to/lastmile_qr_scan"}}, {"name": "553e40000a1714dec221d40529668214", "fusion_lat": 0.0, "type": "electric_scooter", "lat": 38.8960235, "is_reserved": 0, "is_disabled": 0, "fusion_lon": 0.0, "bike_id": "553e40000a1714dec221d40529668214", "lon": -77.04680383333333, "rental_uris": {"ios": "https://dc.lft.to/lastmile_qr_scan", "android": "https://dc.lft.to/lastmile_qr_scan"}}, {"name": "ff5ef2cf16b2909d4aa635a929a2a2fd", "fusion_lat": 0.0, "type": "electric_scooter", "lat": 38.94552316666667, "is_reserved": 0, "is_disabled": 0, "fusion_lon": 0.0, "bike_id": "ff5ef2cf16b2909d4aa635a929a2a2fd", "lon": -77.04238933333333, "rental_uris": {"ios": "https://dc.lft.to/lastmile_qr_scan", "android": "https://dc.lft.to/lastmile_qr_scan"}}, {"name": "33621d7bd4102a3be719e88a4c5503ea", "fusion_lat": 0.0, "type": "electric_scooter", "lat": 38.905986, "is_reserved": 0, "is_disabled": 0, "fusion_lon": 0.0, "bike_id": "33621d7bd4102a3be719e88a4c5503ea", "lon": -77.046596, "rental_uris": {"ios": "https://dc.lft.to/lastmile_qr_scan", "android": "https://dc.lft.to/lastmile_qr_scan"}}, {"name": "e068fe7db6e46cdb17d19f8a56fe4af2", "fusion_lat": 0.0, "type": "electric_bike", "lat": 38.850607833333335, "is_reserved": 0, "is_disabled": 0, "fusion_lon": 0.0, "bike_id": "e068fe7db6e46cdb17d19f8a56fe4af2", "lon": -76.97326583333333, "rental_uris": {"ios": "https://dc.lft.to/lastmile_qr_scan", "android": "https://dc.lft.to/lastmile_qr_scan"}}, {"name": "0f8fb9aee94d297d218f509edfcfc9a6", "fusion_lat": 0.0, "type": "electric_scooter", "lat": 38.892287333333336, "is_reserved": 0, "is_disabled": 0, "fusion_lon": 0.0, "bike_id": "0f8fb9aee94d297d218f509edfcfc9a6", "lon": -77.0464005, "rental_uris": {"ios": "https://dc.lft.to/lastmile_qr_scan", "android": "https://dc.lft.to/lastmile_qr_scan"}}, {"name": "7fc8557298a380ab7ee8b964efd8f4c4", "fusion_lat": 0.0, "type": "electric_scooter", "lat": 38.920040166666666, "is_reserved": 0, "is_disabled": 0, "fusion_lon": 0.0, "bike_id": "7fc8557298a380ab7ee8b964efd8f4c4", "lon": -76.98496933333334, "rental_uris": {"ios": "https://dc.lft.to/lastmile_qr_scan", "android": "https://dc.lft.to/lastmile_qr_scan"}}, {"name": "b5dac97ec0c5b02579de9d2c116d11bc", "fusion_lat": 0.0, "type": "electric_scooter", "lat": 38.923496, "is_reserved": 0, "is_disabled": 0, "fusion_lon": 0.0, "bike_id": "b5dac97ec0c5b02579de9d2c116d11bc", "lon": -77.03534833333333, "rental_uris": {"ios": "https://dc.lft.to/lastmile_qr_scan", "android": "https://dc.lft.to/lastmile_qr_scan"}}, {"name": "eaa032d2502fc2647f7c1bd4da17d199", "fusion_lat": 0.0, "type": "electric_scooter", "lat": 38.9234605, "is_reserved": 0, "is_disabled": 0, "fusion_lon": 0.0, "bike_id": "eaa032d2502fc2647f7c1bd4da17d199", "lon": -77.05436016666667, "rental_uris": {"ios": "https://dc.lft.to/lastmile_qr_scan", "android": "https://dc.lft.to/lastmile_qr_scan"}}, {"name": "0d909e3fd8dd1573096a46ef91c23d17", "fusion_lat": 0.0, "type": "electric_scooter", "lat": 38.947004666666665, "is_reserved": 0, "is_disabled": 0, "fusion_lon": 0.0, "bike_id": "0d909e3fd8dd1573096a46ef91c23d17", "lon": -77.0194035, "rental_uris": {"ios": "https://dc.lft.to/lastmile_qr_scan", "android": "https://dc.lft.to/lastmile_qr_scan"}}, {"name": "e88694416b900d1ae0b446ff5c904dbf", "fusion_lat": 0.0, "type": "electric_scooter", "lat": 38.901357833333336, "is_reserved": 0, "is_disabled": 0, "fusion_lon": 0.0, "bike_id": "e88694416b900d1ae0b446ff5c904dbf", "lon": -77.0443055, "rental_uris": {"ios": "https://dc.lft.to/lastmile_qr_scan", "android": "https://dc.lft.to/lastmile_qr_scan"}}, {"name": "68947b65b5a98a6c9211fdaf0d6c8842", "fusion_lat": 0.0, "type": "electric_bike", "lat": 38.80791833333333, "is_reserved": 0, "is_disabled": 0, "fusion_lon": 0.0, "bike_id": "68947b65b5a98a6c9211fdaf0d6c8842", "lon": -77.1296455, "rental_uris": {"ios": "https://dc.lft.to/lastmile_qr_scan", "android": "https://dc.lft.to/lastmile_qr_scan"}}, {"name": "5cf24e8acf1a9d46d17649e17e616946", "fusion_lat": 0.0, "type": "electric_scooter", "lat": 38.8940765, "is_reserved": 0, "is_disabled": 0, "fusion_lon": 0.0, "bike_id": "5cf24e8acf1a9d46d17649e17e616946", "lon": -76.93240716666666, "rental_uris": {"ios": "https://dc.lft.to/lastmile_qr_scan", "android": "https://dc.lft.to/lastmile_qr_scan"}}, {"name": "2a6e3855285a160acf096859afab8509", "fusion_lat": 0.0, "type": "electric_scooter", "lat": 38.95904616666667, "is_reserved": 0, "is_disabled": 0, "fusion_lon": 0.0, "bike_id": "2a6e3855285a160acf096859afab8509", "lon": -77.08074283333333, "rental_uris": {"ios": "https://dc.lft.to/lastmile_qr_scan", "android": "https://dc.lft.to/lastmile_qr_scan"}}, {"name": "f242c3acdfaa118acd14356671eb53f2", "fusion_lat": 0.0, "type": "electric_bike", "lat": 38.957133666666664, "is_reserved": 0, "is_disabled": 0, "fusion_lon": 0.0, "bike_id": "f242c3acdfaa118acd14356671eb53f2", "lon": -77.01472033333333, "rental_uris": {"ios": "https://dc.lft.to/lastmile_qr_scan", "android": "https://dc.lft.to/lastmile_qr_scan"}}, {"name": "8ea8e79285616370c73107946d2ea743", "fusion_lat": 0.0, "type": "electric_scooter", "lat": 38.921014, "is_reserved": 0, "is_disabled": 0, "fusion_lon": 0.0, "bike_id": "8ea8e79285616370c73107946d2ea743", "lon": -76.99190433333334, "rental_uris": {"ios": "https://dc.lft.to/lastmile_qr_scan", "android": "https://dc.lft.to/lastmile_qr_scan"}}, {"name": "bdbf6e034db774f80e1051f6c1baa8c9", "fusion_lat": 0.0, "type": "electric_scooter", "lat": 38.9025875, "is_reserved": 0, "is_disabled": 0, "fusion_lon": 0.0, "bike_id": "bdbf6e034db774f80e1051f6c1baa8c9", "lon": -77.04491566666667, "rental_uris": {"ios": "https://dc.lft.to/lastmile_qr_scan", "android": "https://dc.lft.to/lastmile_qr_scan"}}, {"name": "fbe6cd7c73a63303518deff78bdbc4be", "fusion_lat": 0.0, "type": "electric_scooter", "lat": 38.85840533333333, "is_reserved": 0, "is_disabled": 0, "fusion_lon": 0.0, "bike_id": "fbe6cd7c73a63303518deff78bdbc4be", "lon": -76.98895433333334, "rental_uris": {"ios": "https://dc.lft.to/lastmile_qr_scan", "android": "https://dc.lft.to/lastmile_qr_scan"}}, {"name": "d03a4d499a4e377c53e0fac388ed0374", "fusion_lat": 0.0, "type": "electric_scooter", "lat": 38.9031365, "is_reserved": 0, "is_disabled": 0, "fusion_lon": 0.0, "bike_id": "d03a4d499a4e377c53e0fac388ed0374", "lon": -77.0446785, "rental_uris": {"ios": "https://dc.lft.to/lastmile_qr_scan", "android": "https://dc.lft.to/lastmile_qr_scan"}}, {"name": "2b5f110ef5d5ce6252b4fced3e3bcbd7", "fusion_lat": 0.0, "type": "electric_scooter", "lat": 38.92040433333333, "is_reserved": 0, "is_disabled": 0, "fusion_lon": 0.0, "bike_id": "2b5f110ef5d5ce6252b4fced3e3bcbd7", "lon": -77.017485, "rental_uris": {"ios": "https://dc.lft.to/lastmile_qr_scan", "android": "https://dc.lft.to/lastmile_qr_scan"}}, {"name": "fa7a86ec69238111c973dd8fdf46d9b4", "fusion_lat": 0.0, "type": "electric_bike", "lat": 39.00382366666667, "is_reserved": 0, "is_disabled": 0, "fusion_lon": 0.0, "bike_id": "fa7a86ec69238111c973dd8fdf46d9b4", "lon": -77.01287166666667, "rental_uris": {"ios": "https://dc.lft.to/lastmile_qr_scan", "android": "https://dc.lft.to/lastmile_qr_scan"}}, {"name": "df5328f6dc3233d6f03b10173d70134c", "fusion_lat": 0.0, "type": "electric_scooter", "lat": 38.932062, "is_reserved": 0, "is_disabled": 0, "fusion_lon": 0.0, "bike_id": "df5328f6dc3233d6f03b10173d70134c", "lon": -77.03663, "rental_uris": {"ios": "https://dc.lft.to/lastmile_qr_scan", "android": "https://dc.lft.to/lastmile_qr_scan"}}, {"name": "485e6f1bef891df4b082900ec344dd10", "fusion_lat": 0.0, "type": "electric_scooter", "lat": 38.90417816666667, "is_reserved": 0, "is_disabled": 0, "fusion_lon": 0.0, "bike_id": "485e6f1bef891df4b082900ec344dd10", "lon": -76.9906785, "rental_uris": {"ios": "https://dc.lft.to/lastmile_qr_scan", "android": "https://dc.lft.to/lastmile_qr_scan"}}, {"name": "498142e6ef68ebf44b53a39254ec4850", "fusion_lat": 0.0, "type": "electric_scooter", "lat": 38.884291, "is_reserved": 0, "is_disabled": 0, "fusion_lon": 0.0, "bike_id": "498142e6ef68ebf44b53a39254ec4850", "lon": -76.9574845, "rental_uris": {"ios": "https://dc.lft.to/lastmile_qr_scan", "android": "https://dc.lft.to/lastmile_qr_scan"}}, {"name": "a7f0d10304e4c105baf9b22e47b6fae3", "fusion_lat": 0.0, "type": "electric_scooter", "lat": 38.89730183333333, "is_reserved": 0, "is_disabled": 0, "fusion_lon": 0.0, "bike_id": "a7f0d10304e4c105baf9b22e47b6fae3", "lon": -77.0468285, "rental_uris": {"ios": "https://dc.lft.to/lastmile_qr_scan", "android": "https://dc.lft.to/lastmile_qr_scan"}}, {"name": "c8db9e221d214d7894ec6c1692e1aa7c", "fusion_lat": 0.0, "type": "electric_scooter", "lat": 38.904136, "is_reserved": 0, "is_disabled": 0, "fusion_lon": 0.0, "bike_id": "c8db9e221d214d7894ec6c1692e1aa7c", "lon": -77.01870533333333, "rental_uris": {"ios": "https://dc.lft.to/lastmile_qr_scan", "android": "https://dc.lft.to/lastmile_qr_scan"}}, {"name": "c85eb384bd8c9be91270519de85b12a5", "fusion_lat": 0.0, "type": "electric_scooter", "lat": 38.89877, "is_reserved": 0, "is_disabled": 0, "fusion_lon": 0.0, "bike_id": "c85eb384bd8c9be91270519de85b12a5", "lon": -76.93161233333333, "rental_uris": {"ios": "https://dc.lft.to/lastmile_qr_scan", "android": "https://dc.lft.to/lastmile_qr_scan"}},