{"data": {"bikes": [{"name": "c269268b328c90260f20e7a71ced43b5", "type": "electric_scooter", "lat": 38.90302366666667, "is_reserved": 0, "lon": -77.0382255, "fusion_lon": 0.0, "is_disabled": 0, "fusion_lat": 0.0, "bike_id": "c269268b328c90260f20e7a71ced43b5", "rental_uris": {"ios": "https://dc.lft.to/lastmile_qr_scan", "android": "https://dc.lft.to/lastmile_qr_scan"}}, {"name": "b7106c46d61cd85f5917f0b5b8410095", "type": "electric_scooter", "lat": 38.9095855, "is_reserved": 0, "lon": -76.9853835, "fusion_lon": 0.0, "is_disabled": 0, "fusion_lat": 0.0, "bike_id": "b7106c46d61cd85f5917f0b5b8410095", "rental_uris": {"ios": "https://dc.lft.to/lastmile_qr_scan", "android": "https://dc.lft.to/lastmile_qr_scan"}}, {"name": "fa96421880288c984c7de222d79633d6", "type": "electric_scooter", "lat": 38.9202105, "is_reserved": 0, "lon": -77.026091, "fusion_lon": 0.0, "is_disabled": 0, "fusion_lat": 0.0, "bike_id": "fa96421880288c984c7de222d79633d6", "rental_uris": {"ios": "https://dc.lft.to/lastmile_qr_scan", "android": "https://dc.lft.to/lastmile_qr_scan"}}, {"name": "e4a8614b10d0075a0b81fba876bbcc7d", "type": "electric_scooter", "lat": 38.91597566666667, "is_reserved": 0, "lon": -77.0270235, "fusion_lon": 0.0, "is_disabled": 0, "fusion_lat": 0.0, "bike_id": "e4a8614b10d0075a0b81fba876bbcc7d", "rental_uris": {"ios": "https://dc.lft.to/lastmile_qr_scan", "android": "https://dc.lft.to/lastmile_qr_scan"}}, {"name": "79962eae551e1498fba41e780664817d", "type": "electric_scooter", "lat": 38.9169685, "is_reserved": 0, "lon": -77.029351, "fusion_lon": 0.0, "is_disabled": 0, "fusion_lat": 0.0, "bike_id": "79962eae551e1498fba41e780664817d", "rental_uris": {"ios": "https://dc.lft.to/lastmile_qr_scan", "android": "https://dc.lft.to/lastmile_qr_scan"}}, {"name": "ae3408d42738ee5ae628080debaf4887", "type": "electric_scooter", "lat": 38.929115833333334, "is_reserved": 0, "lon": -77.01229566666666, "fusion_lon": 0.0, "is_disabled": 0, "fusion_lat": 0.0, "bike_id": "ae3408d42738ee5ae628080debaf4887", "rental_uris": {"ios": "https://dc.lft.to/lastmile_qr_scan", "android": "https://dc.lft.to/lastmile_qr_scan"}}, {"name": "7f134e5040e9f8685d638b23d5543528", "type": "electric_scooter", "lat": 38.87666433333333, "is_reserved": 0, "lon": -77.00059566666667, "fusion_lon": 0.0, "is_disabled": 0, "fusion_lat": 0.0, "bike_id": "7f134e5040e9f8685d638b23d5543528", "rental_uris": {"ios": "https://dc.lft.to/lastmile_qr_scan", "android": "https://dc.lft.to/lastmile_qr_scan"}}, {"name": "e327e5d99071de92c0b2c5de5cf4d680", "type": "electric_scooter", "lat": 38.906162333333334, "is_reserved": 0, "lon": -77.01281966666667, "fusion_lon": 0.0, "is_disabled": 0, "fusion_lat": 0.0, "bike_id": "e327e5d99071de92c0b2c5de5cf4d680", "rental_uris": {"ios": "https://dc.lft.to/lastmile_qr_scan", "android": "https://dc.lft.to/lastmile_qr_scan"}}, {"name": "4dbc2a8106120c713db4931d79e21fb6", "type": "electric_bike", "lat": 38.965368166666664, "is_reserved": 0, "lon": -77.035139, "fusion_lon": 0.0, "is_disabled": 0, "fusion_lat": 0.0, "bike_id": "4dbc2a8106120c713db4931d79e21fb6", "rental_uris": {"ios": "https://dc.lft.to/lastmile_qr_scan", "android": "https://dc.lft.to/lastmile_qr_scan"}}, {"name": "889a6a99fb9ea7283db3c6a5610f0984", "type": "electric_scooter", "lat": 38.920114166666664, "is_reserved": 0, "lon": -77.03882133333333, "fusion_lon": 0.0, "is_disabled": 0, "fusion_lat": 0.0, "bike_id": "889a6a99fb9ea7283db3c6a5610f0984", "rental_uris": {"ios": "https://dc.lft.to/lastmile_qr_scan", "android": "https://dc.lft.to/lastmile_qr_scan"}}, {"name": "2ca729dff5a5ad58885d42048436819a", "type": "electric_scooter", "lat": 38.842986, "is_reserved": 0, "lon": -76.999481, "fusion_lon": 0.0, "is_disabled": 0, "fusion_lat": 0.0, "bike_id": "2ca729dff5a5ad58885d42048436819a", "rental_uris": {"ios": "https://dc.lft.to/lastmile_qr_scan", "android": "https://dc.lft.to/lastmile_qr_scan"}}, {"name": "42795e743590783627078e40f5477de0", "type": "electric_scooter", "lat": 38.86696583333333, "is_reserved": 0, "lon": -76.98712766666667, "fusion_lon": 0.0, "is_disabled": 0, "fusion_lat": 0.0, "bike_id": "42795e743590783627078e40f5477de0", "rental_uris": {"ios": "https://dc.lft.to/lastmile_qr_scan", "android": "https://dc.lft.to/lastmile_qr_scan"}}, {"name": "bf5bce1bd6b5467cd2798accbefb776e", "type": "electric_scooter", "lat": 38.933566666666664, "is_reserved": 0, "lon": -77.07269316666667, "fusion_lon": 0.0, "is_disabled": 0, "fusion_lat": 0.0, "bike_id": "bf5bce1bd6b5467cd2798accbefb776e", "rental_uris": {"ios": "https://dc.lft.to/lastmile_qr_scan", "android": "https://dc.lft.to/lastmile_qr_scan"}}, {"name": "ebea24d45fcfc83d93b487680bc758d1", "type": "electric_scooter", "lat": 38.969857166666664, "is_reserved": 0, "lon": -77.02716666666667, "fusion_lon": 0.0, "is_disabled": 0, "fusion_lat": 0.0, "bike_id": "ebea24d45fcfc83d93b487680bc758d1", "rental_uris": {"ios": "https://dc.lft.to/lastmile_qr_scan", "android": "https://dc.lft.to/lastmile_qr_scan"}}, {"name": "de4535931f86f044fca773922c368ada", "type": "electric_scooter", "lat": 38.90081283333333, "is_reserved": 0, "lon": -77.05073, "fusion_lon": 0.0, "is_disabled": 0, "fusion_lat": 0.0, "bike_id": "de4535931f86f044fca773922c368ada", "rental_uris": {"ios": "https://dc.lft.to/lastmile_qr_scan", "android": "https://dc.lft.to/lastmile_qr_scan"}}, {"name": "e422127c7b41fd802618477155d59fad", "type": "electric_scooter", "lat": 38.884132666666666, "is_reserved": 0, "lon": -76.97605, "fusion_lon": 0.0, "is_disabled": 0, "fusion_lat": 0.0, "bike_id": "e422127c7b41fd802618477155d59fad", "rental_uris": {"ios": "https://dc.lft.to/lastmile_qr_scan", "android": "https://dc.lft.to/lastmile_qr_scan"}}, {"name": "388fe9c960b575f52835860db3cb5244", "type": "electric_scooter", "lat": 38.897391166666665, "is_reserved": 0, "lon": -77.01313666666667, "fusion_lon": 0.0, "is_disabled": 0, "fusion_lat": 0.0, "bike_id": "388fe9c960b575f52835860db3cb5244", "rental_uris": {"ios": "https://dc.lft.to/lastmile_qr_scan", "android": "https://dc.lft.to/lastmile_qr_scan"}}, {"name": "3459b5c437bd0f1d299a40418aa49645", "type": "electric_bike", "lat": 38.8133495, "is_reserved": 0, "lon": -77.05107633333333, "fusion_lon": 0.0, "is_disabled": 0, "fusion_lat": 0.0, "bike_id": "3459b5c437bd0f1d299a40418aa49645", "rental_uris": {"ios": "https://dc.lft.to/lastmile_qr_scan", "android": "https://dc.lft.to/lastmile_qr_scan"}}, {"name": "820c4d94b3535e4c56b879df0d1cf06b", "type": "electric_scooter", "lat": 38.9326145, "is_reserved": 0, "lon": -77.0350045, "fusion_lon": 0.0, "is_disabled": 0, "fusion_lat": 0.0, "bike_id": "820c4d94b3535e4c56b879df0d1cf06b", "rental_uris": {"ios": "https://dc.lft.to/lastmile_qr_scan", "android": "https://dc.lft.to/lastmile_qr_scan"}}, {"name": "203b332161eb98e38505a7baa039ed74", "type": "electric_bike", "lat": 38.98506833333333, "is_reserved": 0, "lon": -76.98207433333333, "fusion_lon": 0.0, "is_disabled": 0, "fusion_lat": 0.0, "bike_id": "203b332161eb98e38505a7baa039ed74", "rental_uris": {"ios": "https://dc.lft.to/lastmile_qr_scan", "android": "https://dc.lft.to/lastmile_qr_scan"}}, {"name": "0a1baf8bb908d33989ff3f15ff3067db", "type": "electric_scooter", "lat": 38.888734166666666, "is_reserved": 0, "lon": -77.03998716666666, "fusion_lon": 0.0, "is_disabled": 0, "fusion_lat": 0.0, "bike_id": "0a1baf8bb908d33989ff3f15ff3067db", "rental_uris": {"ios": "https://dc.lft.to/lastmile_qr_scan", "android": "https://dc.lft.to/lastmile_qr_scan"}}, {"name": "8dc1b7d4bbfbf2a1b559bd248c57569f", "type": "electric_scooter", "lat": 38.900289666666666, "is_reserved": 0, "lon": -77.01154816666667, "fusion_lon": 0.0, "is_disabled": 0, "fusion_lat": 0.0, "bike_id": "8dc1b7d4bbfbf2a1b559bd248c57569f", "rental_uris": {"ios": "https://dc.lft.to/lastmile_qr_scan", "android": "https://dc.lft.to/lastmile_qr_scan"}}, {"name": "b7f3c6b250dc3b1ffe04a95c12aca239", "type": "electric_scooter", "lat": 38.930686333333334, "is_reserved": 0, "lon": -77.0340235, "fusion_lon": 0.0, "is_disabled": 0, "fusion_lat": 0.0, "bike_id": "b7f3c6b250dc3b1ffe04a95c12aca239", "rental_uris": {"ios": "https://dc.lft.to/lastmile_qr_scan", "android": "https://dc.lft.to/lastmile_qr_scan"}}, {"name": "0f0e31449dd5b8a1ade2faeb6dacf8b3", "type": "electric_scooter", "lat": 38.86568166666667, "is_reserved": 0, "lon": -76.9854955, "fusion_lon": 0.0, "is_disabled": 0, "fusion_lat": 0.0, "bike_id": "0f0e31449dd5b8a1ade2faeb6dacf8b3", "rental_uris": {"ios": "https://dc.lft.to/lastmile_qr_scan", "android": "https://dc.lft.to/lastmile_qr_scan"}}, {"name": "ce0574573b33ca9d4d28bf22ea14a5aa", "type": "electric_scooter", "lat": 38.8973195, "is_reserved": 0, "lon": -77.05474866666667, "fusion_lon": 0.0, "is_disabled": 0, "fusion_lat": 0.0, "bike_id": "ce0574573b33ca9d4d28bf22ea14a5aa", "rental_uris": {"ios": "https://dc.lft.to/lastmile_qr_scan", "android": "https://dc.lft.to/lastmile_qr_scan"}}, {"name": "33bfcb131676a7779ed66722bb432e17", "type": "electric_bike", "lat": 38.8657, "is_reserved": 0, "lon": -76.97351183333333, "fusion_lon": 0.0, "is_disabled": 0, "fusion_lat": 0.0, "bike_id": "33bfcb131676a7779ed66722bb432e17", "rental_uris": {"ios": "https://dc.lft.to/lastmile_qr_scan", "android": "https://dc.lft.to/lastmile_qr_scan"}}, {"name": "32e62162225ba6f2c42e981191858970", "type": "electric_scooter", "lat": 38.93241316666666, "is_reserved": 0, "lon": -77.03852433333333, "fusion_lon": 0.0, "is_disabled": 0, "fusion_lat": 0.0, "bike_id": "32e62162225ba6f2c42e981191858970", "rental_uris": {"ios": "https://dc.lft.to/lastmile_qr_scan", "android": "https://dc.lft.to/lastmile_qr_scan"}}, {"name": "2523389599cfaba7879e8ec70c2af728", "type": "electric_bike", "lat": 38.96547733333333, "is_reserved": 0, "lon": -77.035157, "fusion_lon": 0.0, "is_disabled": 0, "fusion_lat": 0.0, "bike_id": "2523389599cfaba7879e8ec70c2af728", "rental_uris": {"ios": "https://dc.lft.to/lastmile_qr_scan", "android": "https://dc.lft.to/lastmile_qr_scan"}}, {"name": "1f1878cbc8d1962eb380ad5265594818", "type": "electric_scooter", "lat": 38.8843005, "is_reserved": 0, "lon": -77.02959716666666, "fusion_lon": 0.0, "is_disabled": 0, "fusion_lat": 0.0, "bike_id": "1f1878cbc8d1962eb380ad5265594818", "rental_uris": {"ios": "https://dc.lft.to/lastmile_qr_scan", "android": "https://dc.lft.to/lastmile_qr_scan"}}, {"name": "e677664f1b2d15056c63936285c5eebb", "type": "electric_scooter", "lat": 38.870258666666665, "is_reserved": 0, "lon": -77.01229216666667, "fusion_lon": 0.0, "is_disabled": 0, "fusion_lat": 0.0, "bike_id": "e677664f1b2d15056c63936285c5eebb", "rental_uris": {"ios": "https://dc.lft.to/lastmile_qr_scan", "android": "https://dc.lft.to/lastmile_qr_scan"}}, {"name": "8cd28f5450309b4adbb04fe806be582a", "type": "electric_scooter", "lat": 38.90034516666667, "is_reserved": 0, "lon": -77.00627366666667, "fusion_lon": 0.0, "is_disabled": 0, "fusion_lat": 0.0, "bike_id": "8cd28f5450309b4adbb04fe806be582a", "rental_uris": {"ios": "https://dc.lft.to/lastmile_qr_scan", "android": "https://dc.lft.to/lastmile_qr_scan"}}, {"name": "9455322194224f98330d9f6543d49227", "type": "electric_scooter", "lat": 38.94440266666667, "is_reserved": 0, "lon": -77.06352366666667, "fusion_lon": 0.0, "is_disabled": 0, "fusion_lat": 0.0, "bike_id": "9455322194224f98330d9f6543d49227", "rental_uris": {"ios": "https://dc.lft.to/lastmile_qr_scan", "android": "https://dc.lft.to/lastmile_qr_scan"}}, {"name": "ba5342b087e93de71137b57f4500f0b5", "type": "electric_scooter", "lat": 38.86241966666667, "is_reserved": 0, "lon": -76.99493566666666, "fusion_lon": 0.0, "is_disabled": 0, "fusion_lat": 0.0, "bike_id": "ba5342b087e93de71137b57f4500f0b5", "rental_uris": {"ios": "https://dc.lft.to/lastmile_qr_scan", "android": "https://dc.lft.to/lastmile_qr_scan"}}, {"name": "4a12ca9d67bf56ab6844ef0838eb29c3", "type": "electric_scooter", "lat": 38.90290566666667, "is_reserved": 0, "lon": -77.03210116666666, "fusion_lon": 0.0, "is_disabled": 0, "fusion_lat": 0.0, "bike_id": "4a12ca9d67bf56ab6844ef0838eb29c3", "rental_uris": {"ios": "https://dc.lft.to/lastmile_qr_scan", "android": "https://dc.lft.to/lastmile_qr_scan"}}, {"name": "978f312ac5faaf2eaeb677579a98318b", "type": "electric_scooter", "lat": 38.92713233333333, "is_reserved": 0, "lon": -77.0259265, "fusion_lon": 0.0, "is_disabled": 0, "fusion_lat": 0.0, "bike_id": "978f312ac5faaf2eaeb677579a98318b", "rental_uris": {"ios": "https://dc.lft.to/lastmile_qr_scan", "android": "https://dc.lft.to/lastmile_qr_scan"}}, {"name": "3b2abeb8ceb0a016d2413f1ce92aeb0d", "type": "electric_scooter", "lat": 38.90145866666667, "is_reserved": 0, "lon": -77.0464085, "fusion_lon": 0.0, "is_disabled": 0, "fusion_lat": 0.0, "bike_id": "3b2abeb8ceb0a016d2413f1ce92aeb0d", "rental_uris": {"ios": "https://dc.lft.to/lastmile_qr_scan", "android": "https://dc.lft.to/lastmile_qr_scan"}}, {"name": "bbac3fd33e4629629112310f8d656ec4", "type": "electric_bike", "lat": 38.8773675, "is_reserved": 0, "lon": -77.11844533333333, "fusion_lon": 0.0, "is_disabled": 0, "fusion_lat": 0.0, "bike_id": "bbac3fd33e4629629112310f8d656ec4", "rental_uris": {"ios": "https://dc.lft.to/lastmile_qr_scan", "android": "https://dc.lft.to/lastmile_qr_scan"}}, {"name": "03cb86e489dcc82859ac55faa67b949f", "type": "electric_scooter", "lat": 38.930686333333334, "is_reserved": 0, "lon": -77.0379805, "fusion_lon": 0.0, "is_disabled": 0, "fusion_lat": 0.0, "bike_id": "03cb86e489dcc82859ac55faa67b949f", "rental_uris": {"ios": "https://dc.lft.to/lastmile_qr_scan", "android": "https://dc.lft.to/lastmile_qr_scan"}}, {"name": "87ff6a9d7ba67c15d498de305d689ecd", "type": "electric_scooter", "lat": 38.912118666666665, "is_reserved": 0, "lon": -77.02808683333333, "fusion_lon": 0.0, "is_disabled": 0, "fusion_lat": 0.0, "bike_id": "87ff6a9d7ba67c15d498de305d689ecd", "rental_uris": {"ios": "https://dc.lft.to/lastmile_qr_scan", "android": "https://dc.lft.to/lastmile_qr_scan"}}, {"name": "231a4ce8fdfeabcd43ee7d817b8a4241", "type": "electric_scooter", "lat": 38.878875, "is_reserved": 0, "lon": -77.0227745, "fusion_lon": 0.0, "is_disabled": 0, "fusion_lat": 0.0, "bike_id": "231a4ce8fdfeabcd43ee7d817b8a4241", "rental_uris": {"ios": "https://dc.lft.to/lastmile_qr_scan", "android": "https://dc.lft.to/lastmile_qr_scan"}}, {"name": "f876f60d2535c55a2be9e6936335f6c9", "type": "electric_scooter", "lat": 38.93896816666667, "is_reserved": 0, "lon": -77.0175935, "fusion_lon": 0.0, "is_disabled": 0, "fusion_lat": 0.0, "bike_id": "f876f60d2535c55a2be9e6936335f6c9", "rental_uris": {"ios": "https://dc.lft.to/lastmile_qr_scan", "android": "https://dc.lft.to/lastmile_qr_scan"}}, {"name": "f6396242fa2dd2043d6e555af69e12dd", "type": "electric_scooter", "lat": 38.9320645, "is_reserved": 0, "lon": -77.02379316666666, "fusion_lon": 0.0, "is_disabled": 0, "fusion_lat": 0.0, "bike_id": "f6396242fa2dd2043d6e555af69e12dd", "rental_uris": {"ios": "https://dc.lft.to/lastmile_qr_scan", "android": "https://dc.lft.to/lastmile_qr_scan"}}, {"name": "e61f653b0aa8aa56fbc0f7d2e1a85d2d", "type": "electric_scooter", "lat": 38.883472166666664, "is_reserved": 0, "lon": -76.9855305, "fusion_lon": 0.0, "is_disabled": 0, "fusion_lat": 0.0, "bike_id": "e61f653b0aa8aa56fbc0f7d2e1a85d2d", "rental_uris": {"ios": "https://dc.lft.to/lastmile_qr_scan", "android": "https://dc.lft.to/lastmile_qr_scan"}}, {"name": "80e596733ca523a0e5931ba3319dc3c7", "type": "electric_scooter", "lat": 38.9140455, "is_reserved": 0, "lon": -77.041324, "fusion_lon": 0.0, "is_disabled": 0, "fusion_lat": 0.0, "bike_id": "80e596733ca523a0e5931ba3319dc3c7", "rental_uris": {"ios": "https://dc.lft.to/lastmile_qr_scan", "android": "https://dc.lft.to/lastmile_qr_scan"}}, {"name": "4707b6a9ae4d9b1114c17b55cdbad2f4", "type": "electric_scooter", "lat": 38.905958166666665, "is_reserved": 0, "lon": -77.0513305, "fusion_lon": 0.0, "is_disabled": 0, "fusion_lat": 0.0, "bike_id": "4707b6a9ae4d9b1114c17b55cdbad2f4", "rental_uris": {"ios": "https://dc.lft.to/lastmile_qr_scan", "android": "https://dc.lft.to/lastmile_qr_scan"}}, {"name": "2e980fa1bef1dc11506075e7bb1a6c39", "type": "electric_bike", "lat": 38.914035166666665, "is_reserved": 0, "lon": -77.0416295, "fusion_lon": 0.0, "is_disabled": 0, "fusion_lat": 0.0, "bike_id": "2e980fa1bef1dc11506075e7bb1a6c39", "rental_uris": {"ios": "https://dc.lft.to/lastmile_qr_scan", "android": "https://dc.lft.to/lastmile_qr_scan"}}, {"name": "30c9f2fef01adb7f1781e278e66d1146", "type": "electric_scooter", "lat": 38.911137333333336, "is_reserved": 0, "lon": -77.00232583333333, "fusion_lon": 0.0, "is_disabled": 0, "fusion_lat": 0.0, "bike_id": "30c9f2fef01adb7f1781e278e66d1146", "rental_uris": {"ios": "https://dc.lft.to/lastmile_qr_scan", "android": "https://dc.lft.to/lastmile_qr_scan"}}, {"name": "7b32ea80b581d4391546395cbd657003", "type": "electric_scooter", "lat": 38.92527833333333, "is_reserved": 0, "lon": -77.05546166666667, "fusion_lon": 0.0, "is_disabled": 0, "fusion_lat": 0.0, "bike_id": "7b32ea80b581d4391546395cbd657003", "rental_uris": {"ios": "https://dc.lft.to/lastmile_qr_scan", "android": "https://dc.lft.to/lastmile_qr_scan"}}, {"name": "502dae1e1da2e207429bf72df30351f8", "type": "electric_scooter", "lat": 38.923413833333335, "is_reserved": 0, "lon": -77.041752, "fusion_lon": 0.0, "is_disabled": 0, "fusion_lat": 0.0, "bike_id": "502dae1e1da2e207429bf72df30351f8", "rental_uris": {"ios": "https://dc.lft.to/lastmile_qr_scan", "android": "https://dc.lft.to/lastmile_qr_scan"}}, {"name": "68a7d89a9c34b26a4c9275affd823ab5", "type": "electric_scooter", "lat": 38.90145116666667, "is_reserved": 0, "lon": -76.9306495, "fusion_lon": 0.0, "is_disabled": 0, "fusion_lat": 0.0, "bike_id": "68a7d89a9c34b26a4c9275affd823ab5", "rental_uris": {"ios": "https://dc.lft.to/lastmile_qr_scan", "android": "https://dc.lft.to/lastmile_qr_scan"}}, {"name": "f06c6417cb81d9d4a63f6c362ce92e08", "type": "electric_scooter", "lat": 38.89400083333334, "is_reserved": 0, "lon": -76.948054, "fusion_lon": 0.0, "is_disabled": 0, "fusion_lat": 0.0, "bike_id": "f06c6417cb81d9d4a63f6c362ce92e08", "rental_uris": {"ios": "https://dc.lft.to/lastmile_qr_scan", "android": "https://dc.lft.to/lastmile_qr_scan"}}, {"name": "ba3aaa76e732048c71ee66ee9353f769", "type": "electric_scooter", "lat": 38.915827, "is_reserved": 0, "lon": -77.044771, "fusion_lon": 0.0, "is_disabled": 0, "fusion_lat": 0.0, "bike_id": "ba3aaa76e732048c71ee66ee9353f769", "rental_uris": {"ios": "https://dc.lft.to/lastmile_qr_scan", "android": "https://dc.lft.to/lastmile_qr_scan"}}, {"name": "0a2a43c1794c330caf418c3661f0a63f", "type": "electric_scooter", "lat": 38.918626333333336, "is_reserved": 0, "lon": -77.03653466666667, "fusion_lon": 0.0, "is_disabled": 0, "fusion_lat": 0.0, "bike_id": "0a2a43c1794c330caf418c3661f0a63f", "rental_uris": {"ios": "https://dc.lft.to/lastmile_qr_scan", "android": "https://dc.lft.to/lastmile_qr_scan"}}, {"name": "53f62b738ec3aeac9d08025522eb5379", "type": "electric_scooter", "lat": 38.9289815, "is_reserved": 0, "lon": -77.03284933333333, "fusion_lon": 0.0, "is_disabled": 0, "fusion_lat": 0.0, "bike_id": "53f62b738ec3aeac9d08025522eb5379", "rental_uris": {"ios": "https://dc.lft.to/lastmile_qr_scan", "android": "https://dc.lft.to/lastmile_qr_scan"}}, {"name": "21fd0fd8a597111a6cff9fdb63dfed93", "type": "electric_scooter", "lat": 38.922352833333335, "is_reserved": 0, "lon": -77.03359216666666, "fusion_lon": 0.0, "is_disabled": 0, "fusion_lat": 0.0, "bike_id": "21fd0fd8a597111a6cff9fdb63dfed93", "rental_uris": {"ios": "https://dc.lft.to/lastmile_qr_scan", "android": "https://dc.lft.to/lastmile_qr_scan"}}, {"name": "4cc15445c5a735a8274403bd543b7fd2", "type": "electric_scooter", "lat": 38.8571405, "is_reserved": 0, "lon": -76.9813135, "fusion_lon": 0.0, "is_disabled": 0, "fusion_lat": 0.0, "bike_id": "4cc15445c5a735a8274403bd543b7fd2", "rental_uris": {"ios": "https://dc.lft.to/lastmile_qr_scan", "android": "https://dc.lft.to/lastmile_qr_scan"}}, {"name": "00cce41ef755b061045c5ce3eb553816", "type": "electric_scooter", "lat": 38.89834183333333, "is_reserved": 0, "lon": -77.00752833333334, "fusion_lon": 0.0, "is_disabled": 0, "fusion_lat": 0.0, "bike_id": "00cce41ef755b061045c5ce3eb553816", "rental_uris": {"ios": "https://dc.lft.to/lastmile_qr_scan", "android": "https://dc.lft.to/lastmile_qr_scan"}}, {"name": "fd0729d10f02af4d4ddfb73f40f30617", "type": "electric_scooter", "lat": 38.9135185, "is_reserved": 0, "lon": -77.0319705, "fusion_lon": 0.0, "is_disabled": 0, "fusion_lat": 0.0, "bike_id": "fd0729d10f02af4d4ddfb73f40f30617", "rental_uris": {"ios": "https://dc.lft.to/lastmile_qr_scan", "android": "https://dc.lft.to/lastmile_qr_scan"}}, {"name": "094efa9057d97955d32e4b104361efd0", "type": "electric_bike", "lat": 38.83813766666667, "is_reserved": 0, "lon": -77.09523816666666, "fusion_lon": 0.0, "is_disabled": 0, "fusion_lat": 0.0, "bike_id": "094efa9057d97955d32e4b104361efd0", "rental_uris": {"ios": "https://dc.lft.to/lastmile_qr_scan", "android": "https://dc.lft.to/lastmile_qr_scan"}}, {"name": "99d0ab5d17674d72871292b14e8d459b", "type": "electric_scooter", "lat": 38.9358, "is_reserved": 0, "lon": -76.9910235, "fusion_lon": 0.0, "is_disabled": 0, "fusion_lat": 0.0, "bike_id": "99d0ab5d17674d72871292b14e8d459b", "rental_uris": {"ios": "https://dc.lft.to/lastmile_qr_scan", "android": "https://dc.lft.to/lastmile_qr_scan"}}, {"name": "a84367ace47f90d7d1ca01530540713c", "type": "electric_scooter", "lat": 38.89225883333334, "is_reserved": 0, "lon": -77.03177983333333, "fusion_lon": 0.0, "is_disabled": 0, "fusion_lat": 0.0, "bike_id": "a84367ace47f90d7d1ca01530540713c", "rental_uris": {"ios": "https://dc.lft.to/lastmile_qr_scan", "android": "https://dc.lft.to/lastmile_qr_scan"}}, {"name": "fcdffaa517d82169b157fa661a4acb25", "type": "electric_scooter", "lat": 38.92236333333334, "is_reserved": 0, "lon": -77.042437, "fusion_lon": 0.0, "is_disabled": 0, "fusion_lat": 0.0, "bike_id": "fcdffaa517d82169b157fa661a4acb25", "rental_uris": {"ios": "https://dc.lft.to/lastmile_qr_scan", "android": "https://dc.lft.to/lastmile_qr_scan"}}, {"name": "823e60279af8b1b424a15d18db0f295c", "type": "electric_scooter", "lat": 38.862051666666666, "is_reserved": 0, "lon": -76.9946575, "fusion_lon": 0.0, "is_disabled": 0, "fusion_lat": 0.0, "bike_id": "823e60279af8b1b424a15d18db0f295c", "rental_uris": {"ios": "https://dc.lft.to/lastmile_qr_scan", "android": "https://dc.lft.to/lastmile_qr_scan"}}, {"name": "f9b192cbf505093a4686f2826656af9e", "type": "electric_scooter", "lat": 38.919152, "is_reserved": 0, "lon": -77.03342433333333, "fusion_lon": 0.0, "is_disabled": 0, "fusion_lat": 0.0, "bike_id": "f9b192cbf505093a4686f2826656af9e", "rental_uris": {"ios": "https://dc.lft.to/lastmile_qr_scan", "android": "https://dc.lft.to/lastmile_qr_scan"}}, {"name": "6593c211588b750d3ecbbcdcf83ad2b3", "type": "electric_scooter", "lat": 38.92896016666667, "is_reserved": 0, "lon": -77.02501066666666, "fusion_lon": 0.0, "is_disabled": 0, "fusion_lat": 0.0, "bike_id": "6593c211588b750d3ecbbcdcf83ad2b3", "rental_uris": {"ios": "https://dc.lft.to/lastmile_qr_scan", "android": "https://dc.lft.to/lastmile_qr_scan"}}, {"name": "2392035e8ac7f691d1e2a18b6f4a863a", "type": "electric_scooter", "lat": 38.9349865, "is_reserved": 0, "lon": -77.0272125, "fusion_lon": 0.0, "is_disabled": 0, "fusion_lat": 0.0, "bike_id": "2392035e8ac7f691d1e2a18b6f4a863a", "rental_uris": {"ios": "https://dc.lft.to/lastmile_qr_scan", "android": "https://dc.lft.to/lastmile_qr_scan"}}, {"name": "e70e51a11ddf4ff6a926a7a2202f0406", "type": "electric_scooter", "lat": 38.9035395, "is_reserved": 0, "lon": -77.02517033333334, "fusion_lon": 0.0, "is_disabled": 0, "fusion_lat": 0.0, "bike_id": "e70e51a11ddf4ff6a926a7a2202f0406", "rental_uris": {"ios": "https://dc.lft.to/lastmile_qr_scan", "android": "https://dc.lft.to/lastmile_qr_scan"}}, {"name": "00644bacf6313753318127c18edc5bff", "type": "electric_scooter", "lat": 38.87734533333333, "is_reserved": 0, "lon": -76.97283233333333, "fusion_lon": 0.0, "is_disabled": 0, "fusion_lat": 0.0, "bike_id": "00644bacf6313753318127c18edc5bff", "rental_uris": {"ios": "https://dc.lft.to/lastmile_qr_scan", "android": "https://dc.lft.to/lastmile_qr_scan"}}, {"name": "0fb1274bfaa61123c73e0714e3188934", "type": "electric_scooter", "lat": 38.918304166666665, "is_reserved": 0, "lon": -77.04021416666667, "fusion_lon": 0.0, "is_disabled": 0, "fusion_lat": 0.0, "bike_id": "0fb1274bfaa61123c73e0714e3188934", "rental_uris": {"ios": "https://dc.lft.to/lastmile_qr_scan", "android": "https://dc.lft.to/lastmile_qr_scan"}}, {"name": "3815b885e673bf076dc67ca74054dac0", "type": "electric_scooter", "lat": 38.9484015, "is_reserved": 0, "lon": -77.02553633333333, "fusion_lon": 0.0, "is_disabled": 0, "fusion_lat": 0.0, "bike_id": "3815b885e673bf076dc67ca74054dac0", "rental_uris": {"ios": "https://dc.lft.to/lastmile_qr_scan", "android": "https://dc.lft.to/lastmile_qr_scan"}}, {"name": "dbc705af44499695edea62787ff4f400", "type": "electric_scooter", "lat": 38.9033305, "is_reserved": 0, "lon": -77.0383425, "fusion_lon": 0.0, "is_disabled": 0, "fusion_lat": 0.0, "bike_id": "dbc705af44499695edea62787ff4f400", "rental_uris": {"ios": "https://dc.lft.to/lastmile_qr_scan", "android": "https://dc.lft.to/lastmile_qr_scan"}}, {"name": "29001972ba327db233017213fd668e03", "type": "electric_scooter", "lat": 38.91181233333333, "is_reserved": 0, "lon": -77.0320095, "fusion_lon": 0.0, "is_disabled": 0, "fusion_lat": 0.0, "bike_id": "29001972ba327db233017213fd668e03", "rental_uris": {"ios": "https://dc.lft.to/lastmile_qr_scan", "android": "https://dc.lft.to/lastmile_qr_scan"}}, {"name": "be60e57ffbe237469691aaaeaff0f103", "type": "electric_scooter", "lat": 38.927978333333336, "is_reserved": 0, "lon": -77.04355333333334, "fusion_lon": 0.0, "is_disabled": 0, "fusion_lat": 0.0, "bike_id": "be60e57ffbe237469691aaaeaff0f103", "rental_uris": {"ios": "https://dc.lft.to/lastmile_qr_scan", "android": "https://dc.lft.to/lastmile_qr_scan"}}, {"name": "c708ddfed3d39a631ee2304f6f6f7b7b", "type": "electric_scooter", "lat": 38.91105816666666, "is_reserved": 0, "lon": -77.04670416666667, "fusion_lon": 0.0, "is_disabled": 0, "fusion_lat": 0.0, "bike_id": "c708ddfed3d39a631ee2304f6f6f7b7b", "rental_uris": {"ios": "https://dc.lft.to/lastmile_qr_scan", "android": "https://dc.lft.to/lastmile_qr_scan"}}, {"name": "43da6adb68f203f359a57948393aeca6", "type": "electric_scooter", "lat": 38.9429005, "is_reserved": 0, "lon": -77.02789383333334, "fusion_lon": 0.0, "is_disabled": 0, "fusion_lat": 0.0, "bike_id": "43da6adb68f203f359a57948393aeca6", "rental_uris": {"ios": "https://dc.lft.to/lastmile_qr_scan", "android": "https://dc.lft.to/lastmile_qr_scan"}}, {"name": "86e976f4023054904186940d760a167d", "type": "electric_scooter", "lat": 38.91204533333333, "is_reserved": 0, "lon": -77.03203233333333, "fusion_lon": 0.0, "is_disabled": 0, "fusion_lat": 0.0, "bike_id": "86e976f4023054904186940d760a167d", "rental_uris": {"ios": "https://dc.lft.to/lastmile_qr_scan", "android": "https://dc.lft.to/lastmile_qr_scan"}}, {"name": "febcf88fd120bfd70275ca56259e8054", "type": "electric_scooter", "lat": 38.949437833333334, "is_reserved": 0, "lon": -77.01620083333333, "fusion_lon": 0.0, "is_disabled": 0, "fusion_lat": 0.0, "bike_id": "febcf88fd120bfd70275ca56259e8054", "rental_uris": {"ios": "https://dc.lft.to/lastmile_qr_scan", "android": "https://dc.lft.to/lastmile_qr_scan"}}, {"name": "774e3ff0f5b3bae14a7acfb9c6abfee9", "type": "electric_scooter", "lat": 38.9200225, "is_reserved": 0, "lon": -77.03224883333333, "fusion_lon": 0.0, "is_disabled": 0, "fusion_lat": 0.0, "bike_id": "774e3ff0f5b3bae14a7acfb9c6abfee9", "rental_uris": {"ios": "https://dc.lft.to/lastmile_qr_scan", "android": "https://dc.lft.to/lastmile_qr_scan"}}, {"name": "26828815386fafacb1500e2abce154b1", "type": "electric_bike", "lat": 38.8543555, "is_reserved": 0, "lon": -77.11705716666667, "fusion_lon": 0.0, "is_disabled": 0, "fusion_lat": 0.0, "bike_id": "26828815386fafacb1500e2abce154b1", "rental_uris": {"ios": "https://dc.lft.to/lastmile_qr_scan", "android": "https://dc.lft.to/lastmile_qr_scan"}}, {"name": "0af918cb5edba1e81b9c5f389d5dbf38", "type": "electric_scooter", "lat": 38.935009, "is_reserved": 0, "lon": -77.0285245, "fusion_lon": 0.0, "is_disabled": 0, "fusion_lat": 0.0, "bike_id": "0af918cb5edba1e81b9c5f389d5dbf38", "rental_uris": {"ios": "https://dc.lft.to/lastmile_qr_scan", "android": "https://dc.lft.to/lastmile_qr_scan"}}, {"name": "cbb2ca01adf3817e8fac7dc71682ac02", "type": "electric_scooter", "lat": 38.887209666666664, "is_reserved": 0, "lon": -77.02203366666667, "fusion_lon": 0.0, "is_disabled": 0, "fusion_lat": 0.0, "bike_id": "cbb2ca01adf3817e8fac7dc71682ac02", "rental_uris": {"ios": "https://dc.lft.to/lastmile_qr_scan", "android": "https://dc.lft.to/lastmile_qr_scan"}}, {"name": "dc4b1152af031a0f98c5bfbcf2ca49b4", "type": "electric_scooter", "lat": 38.91068683333334, "is_reserved": 0, "lon": -77.0304, "fusion_lon": 0.0, "is_disabled": 0, "fusion_lat": 0.0, "bike_id": "dc4b1152af031a0f98c5bfbcf2ca49b4", "rental_uris": {"ios": "https://dc.lft.to/lastmile_qr_scan", "android": "https://dc.lft.to/lastmile_qr_scan"}}, {"name": "8e658e0a6bf687eafd3127777dbcb750", "type": "electric_scooter", "lat": 38.941809166666665, "is_reserved": 0, "lon": -77.0309155, "fusion_lon": 0.0, "is_disabled": 0, "fusion_lat": 0.0, "bike_id": "8e658e0a6bf687eafd3127777dbcb750", "rental_uris": {"ios": "https://dc.lft.to/lastmile_qr_scan", "android": "https://dc.lft.to/lastmile_qr_scan"}}, {"name": "fbfcaf9125eb24aeb8f64b3b93b921b5", "type": "electric_scooter", "lat": 38.90598816666667, "is_reserved": 0, "lon": -77.01326133333333, "fusion_lon": 0.0, "is_disabled": 0, "fusion_lat": 0.0, "bike_id": "fbfcaf9125eb24aeb8f64b3b93b921b5", "rental_uris": {"ios": "https://dc.lft.to/lastmile_qr_scan", "android": "https://dc.lft.to/lastmile_qr_scan"}}, {"name": "3d6feb47ababcf0048edc190d49a597e", "type": "electric_scooter", "lat": 38.90008, "is_reserved": 0, "lon": -76.9983625, "fusion_lon": 0.0, "is_disabled": 0, "fusion_lat": 0.0, "bike_id": "3d6feb47ababcf0048edc190d49a597e", "rental_uris": {"ios": "https://dc.lft.to/lastmile_qr_scan", "android": "https://dc.lft.to/lastmile_qr_scan"}}, {"name": "05d136f06a76ccf2c722f6cf2f9176b1", "type": "electric_scooter", "lat": 38.9071675, "is_reserved": 0, "lon": -77.02509433333333, "fusion_lon": 0.0, "is_disabled": 0, "fusion_lat": 0.0, "bike_id": "05d136f06a76ccf2c722f6cf2f9176b1", "rental_uris": {"ios": "https://dc.lft.to/lastmile_qr_scan", "android": "https://dc.lft.to/lastmile_qr_scan"}}, {"name": "eccf30b72864a784b31e691290cbb265", "type": "electric_scooter", "lat": 38.935307, "is_reserved": 0, "lon": -77.028521, "fusion_lon": 0.0, "is_disabled": 0, "fusion_lat": 0.0, "bike_id": "eccf30b72864a784b31e691290cbb265", "rental_uris": {"ios": "https://dc.lft.to/lastmile_qr_scan", "android": "https://dc.lft.to/lastmile_qr_scan"}}, {"name": "042765035d0c99be5a59b484eab6c2cb", "type": "electric_scooter", "lat": 38.90987666666667, "is_reserved": 0, "lon": -77.03197866666666, "fusion_lon": 0.0, "is_disabled": 0, "fusion_lat": 0.0, "bike_id": "042765035d0c99be5a59b484eab6c2cb", "rental_uris": {"ios": "https://dc.lft.to/lastmile_qr_scan", "android": "https://dc.lft.to/lastmile_qr_scan"}}, {"name": "cc77fd012e4655db4d20453593a7b76c", "type": "electric_scooter", "lat": 38.89528633333333, "is_reserved": 0, "lon": -77.01613883333333, "fusion_lon": 0.0, "is_disabled": 0, "fusion_lat": 0.0, "bike_id": "cc77fd012e4655db4d20453593a7b76c", "rental_uris": {"ios": "https://dc.lft.to/lastmile_qr_scan", "android": "https://dc.lft.to/lastmile_qr_scan"}}, {"name": "7bf5ccebbbb5246a0a96efede0a4601d", "type": "electric_scooter", "lat": 38.86538316666667, "is_reserved": 0, "lon": -76.9870415, "fusion_lon": 0.0, "is_disabled": 0, "fusion_lat": 0.0, "bike_id": "7bf5ccebbbb5246a0a96efede0a4601d", "rental_uris": {"ios": "https://dc.lft.to/lastmile_qr_scan", "android": "https://dc.lft.to/lastmile_qr_scan"}}, {"name": "bd702985a263e5cc93d05d740922bd6b", "type": "electric_scooter", "lat": 38.9274305, "is_reserved": 0, "lon": -77.0120345, "fusion_lon": 0.0, "is_disabled": 0, "fusion_lat": 0.0, "bike_id": "bd702985a263e5cc93d05d740922bd6b", "rental_uris": {"ios": "https://dc.lft.to/lastmile_qr_scan", "android": "https://dc.lft.to/lastmile_qr_scan"}}, {"name": "a0cfbe0acdafcbd1f30277da9abfbd56", "type": "electric_bike", "lat": 38.947066, "is_reserved": 0, "lon": -76.942382, "fusion_lon": 0.0, "is_disabled": 0, "fusion_lat": 0.0, "bike_id": "a0cfbe0acdafcbd1f30277da9abfbd56", "rental_uris": {"ios": "https://dc.lft.to/lastmile_qr_scan", "android": "https://dc.lft.to/lastmile_qr_scan"}}, {"name": "3e67a3504950abcebc0de54ead540344", "type": "electric_bike", "lat": 38.928564, "is_reserved": 0, "lon": -77.22217566666667, "fusion_lon": 0.0, "is_disabled": 0, "fusion_lat": 0.0, "bike_id": "3e67a3504950abcebc0de54ead540344", "rental_uris": {"ios": "https://dc.lft.to/lastmile_qr_scan", "android": "https://dc.lft.to/lastmile_qr_scan"}}, {"name": "5ff89d3c1d22de2b82d51ade4d2f9ae6", "type": "electric_scooter", "lat": 38.9015565, "is_reserved": 0, "lon": -77.04026883333333, "fusion_lon": 0.0, "is_disabled": 0, "fusion_lat": 0.0, "bike_id": "5ff89d3c1d22de2b82d51ade4d2f9ae6", "rental_uris": {"ios": "https://dc.lft.to/lastmile_qr_scan", "android": "https://dc.lft.to/lastmile_qr_scan"}}, {"name": "829b0e1eb4ac0846d20051a45687454f", "type": "electric_scooter", "lat": 38.89225716666667, "is_reserved": 0, "lon": -77.03964533333334, "fusion_lon": 0.0, "is_disabled": 0, "fusion_lat": 0.0, "bike_id": "829b0e1eb4ac0846d20051a45687454f", "rental_uris": {"ios": "https://dc.lft.to/lastmile_qr_scan", "android": "https://dc.lft.to/lastmile_qr_scan"}}, {"name": "2578892c9af0df75f1d84089899623d9", "type": "electric_scooter", "lat": 38.91123616666667, "is_reserved": 0, "lon": -77.024006, "fusion_lon": 0.0, "is_disabled": 0, "fusion_lat": 0.0, "bike_id": "2578892c9af0df75f1d84089899623d9", "rental_uris": {"ios": "https://dc.lft.to/lastmile_qr_scan", "android": "https://dc.lft.to/lastmile_qr_scan"}}, {"name": "66d45d6b7c1a63a26e05a6452aab3118", "type": "electric_bike", "lat": 39.0886455, "is_reserved": 0, "lon": -77.1784375, "fusion_lon": 0.0, "is_disabled": 0, "fusion_lat": 0.0, "bike_id": "66d45d6b7c1a63a26e05a6452aab3118", "rental_uris": {"ios": "https://dc.lft.to/lastmile_qr_scan", "android": "https://dc.lft.to/lastmile_qr_scan"}}, {"name": "bba2cc84d757d9b239b4f8e3a1925913", "type": "electric_scooter", "lat": 38.95649133333333, "is_reserved": 0, "lon": -77.03288333333333, "fusion_lon": 0.0, "is_disabled": 0, "fusion_lat": 0.0, "bike_id": "bba2cc84d757d9b239b4f8e3a1925913", "rental_uris": {"ios": "https://dc.lft.to/lastmile_qr_scan", "android": "https://dc.lft.to/lastmile_qr_scan"}}, {"name": "4f4fd6540b0cc876ce267eb7be4fb121", "type": "electric_scooter", "lat": 38.907201, "is_reserved": 0, "lon": -77.03265616666667, "fusion_lon": 0.0, "is_disabled": 0, "fusion_lat": 0.0, "bike_id": "4f4fd6540b0cc876ce267eb7be4fb121", "rental_uris": {"ios": "https://dc.lft.to/lastmile_qr_scan", "android": "https://dc.lft.to/lastmile_qr_scan"}}, {"name": "f952df37e01babda6a99ea1fb5819a3f", "type": "electric_scooter", "lat": 38.90678616666667, "is_reserved": 0, "lon": -77.02701616666667, "fusion_lon": 0.0, "is_disabled": 0, "fusion_lat": 0.0, "bike_id": "f952df37e01babda6a99ea1fb5819a3f", "rental_uris": {"ios": "https://dc.lft.to/lastmile_qr_scan", "android": "https://dc.lft.to/lastmile_qr_scan"}}, {"name": "7a1bb9a3f9853a5a6f276df71e506d7b", "type": "electric_scooter", "lat": 38.9051175, "is_reserved": 0, "lon": -77.041555, "fusion_lon": 0.0, "is_disabled": 0, "fusion_lat": 0.0, "bike_id": "7a1bb9a3f9853a5a6f276df71e506d7b", "rental_uris": {"ios": "https://dc.lft.to/lastmile_qr_scan", "android": "https://dc.lft.to/lastmile_qr_scan"}}, {"name": "ee091665c7f14c1ef4ee4467f8dae9bd", "type": "electric_scooter", "lat": 38.933935, "is_reserved": 0, "lon": -77.03582133333333, "fusion_lon": 0.0, "is_disabled": 0, "fusion_lat": 0.0, "bike_id": "ee091665c7f14c1ef4ee4467f8dae9bd", "rental_uris": {"ios": "https://dc.lft.to/lastmile_qr_scan", "android": "https://dc.lft.to/lastmile_qr_scan"}}, {"name": "9b9e114fb9b7b019488d78bc7de07bee", "type": "electric_scooter", "lat": 38.87772316666667, "is_reserved": 0, "lon": -76.99426716666666, "fusion_lon": 0.0, "is_disabled": 0, "fusion_lat": 0.0, "bike_id": "9b9e114fb9b7b019488d78bc7de07bee", "rental_uris": {"ios": "https://dc.lft.to/lastmile_qr_scan", "android": "https://dc.lft.to/lastmile_qr_scan"}}, {"name": "9c89163964b6c3cfdc0ca9586d4ed896", "type": "electric_scooter", "lat": 38.935250833333335, "is_reserved": 0, "lon": -77.03263516666667, "fusion_lon": 0.0, "is_disabled": 0, "fusion_lat": 0.0, "bike_id": "9c89163964b6c3cfdc0ca9586d4ed896", "rental_uris": {"ios": "https://dc.lft.to/lastmile_qr_scan", "android": "https://dc.lft.to/lastmile_qr_scan"}}, {"name": "c3d0ef42b2b062a3ccd63810332ee9ad", "type": "electric_scooter", "lat": 38.94301466666667, "is_reserved": 0, "lon": -77.021758, "fusion_lon": 0.0, "is_disabled": 0, "fusion_lat": 0.0, "bike_id": "c3d0ef42b2b062a3ccd63810332ee9ad", "rental_uris": {"ios": "https://dc.lft.to/lastmile_qr_scan", "android": "https://dc.lft.to/lastmile_qr_scan"}}, {"name": "3407def4d1604fd30a019c6bc5c208d1", "type": "electric_scooter", "lat": 38.88305733333333, "is_reserved": 0, "lon": -77.02377083333333, "fusion_lon": 0.0, "is_disabled": 0, "fusion_lat": 0.0, "bike_id": "3407def4d1604fd30a019c6bc5c208d1", "rental_uris": {"ios": "https://dc.lft.to/lastmile_qr_scan", "android": "https://dc.lft.to/lastmile_qr_scan"}}, {"name": "3b818308c733bf173bd62ce1470dd90f", "type": "electric_scooter", "lat": 38.9112055, "is_reserved": 0, "lon": -77.04356483333333, "fusion_lon": 0.0, "is_disabled": 0, "fusion_lat": 0.0, "bike_id": "3b818308c733bf173bd62ce1470dd90f", "rental_uris": {"ios": "https://dc.lft.to/lastmile_qr_scan", "android": "https://dc.lft.to/lastmile_qr_scan"}}, {"name": "6f5d8f8c14e80eef43675272934df36f", "type": "electric_scooter", "lat": 38.9248245, "is_reserved": 0, "lon": -77.05211833333334, "fusion_lon": 0.0, "is_disabled": 0, "fusion_lat": 0.0, "bike_id": "6f5d8f8c14e80eef43675272934df36f", "rental_uris": {"ios": "https://dc.lft.to/lastmile_qr_scan", "android": "https://dc.lft.to/lastmile_qr_scan"}}, {"name": "bdaece8cdf39e232a1eb4c9b2eb79731", "type": "electric_scooter", "lat": 38.90731183333333, "is_reserved": 0, "lon": -77.03405083333334, "fusion_lon": 0.0, "is_disabled": 0, "fusion_lat": 0.0, "bike_id": "bdaece8cdf39e232a1eb4c9b2eb79731", "rental_uris": {"ios": "https://dc.lft.to/lastmile_qr_scan", "android": "https://dc.lft.to/lastmile_qr_scan"}}, {"name": "05f3a76bbeeb9ffc400a40900d32999f", "type": "electric_scooter", "lat": 38.926154833333335, "is_reserved": 0, "lon": -77.03969583333334, "fusion_lon": 0.0, "is_disabled": 0, "fusion_lat": 0.0, "bike_id": "05f3a76bbeeb9ffc400a40900d32999f", "rental_uris": {"ios": "https://dc.lft.to/lastmile_qr_scan", "android": "https://dc.lft.to/lastmile_qr_scan"}}, {"name": "d01dffe63b93963baa2193c2f2f45c11", "type": "electric_bike", "lat": 38.84569583333333, "is_reserved": 0, "lon": -77.09624233333334, "fusion_lon": 0.0, "is_disabled": 0, "fusion_lat": 0.0, "bike_id": "d01dffe63b93963baa2193c2f2f45c11", "rental_uris": {"ios": "https://dc.lft.to/lastmile_qr_scan", "android": "https://dc.lft.to/lastmile_qr_scan"}}, {"name": "90c74c18260b4fa9c54412f9fe9fa71f", "type": "electric_scooter", "lat": 38.923023666666666, "is_reserved": 0, "lon": -77.01208733333333, "fusion_lon": 0.0, "is_disabled": 0, "fusion_lat": 0.0, "bike_id": "90c74c18260b4fa9c54412f9fe9fa71f", "rental_uris": {"ios": "https://dc.lft.to/lastmile_qr_scan", "android": "https://dc.lft.to/lastmile_qr_scan"}}, {"name": "b23606dcd6ab5dac60a2adcb55c1e09d", "type": "electric_scooter", "lat": 38.908409166666665, "is_reserved": 0, "lon": -77.02198933333334, "fusion_lon": 0.0, "is_disabled": 0, "fusion_lat": 0.0, "bike_id": "b23606dcd6ab5dac60a2adcb55c1e09d", "rental_uris": {"ios": "https://dc.lft.to/lastmile_qr_scan", "android": "https://dc.lft.to/lastmile_qr_scan"}}, {"name": "52edeb91a0c5f487ceda63a027c30aa0", "type": "electric_scooter", "lat": 38.9370375, "is_reserved": 0, "lon": -77.06105933333333, "fusion_lon": 0.0, "is_disabled": 0, "fusion_lat": 0.0, "bike_id": "52edeb91a0c5f487ceda63a027c30aa0", "rental_uris": {"ios": "https://dc.lft.to/lastmile_qr_scan", "android": "https://dc.lft.to/lastmile_qr_scan"}}, {"name": "942ef14c01af3823fbfb1b19b85815ef", "type": "electric_scooter", "lat": 38.91084583333333, "is_reserved": 0, "lon": -77.03181883333333, "fusion_lon": 0.0, "is_disabled": 0, "fusion_lat": 0.0, "bike_id": "942ef14c01af3823fbfb1b19b85815ef", "rental_uris": {"ios": "https://dc.lft.to/lastmile_qr_scan", "android": "https://dc.lft.to/lastmile_qr_scan"}}, {"name": "463382bf2c26a40a362192268a9b6bad", "type": "electric_scooter", "lat": 38.91943083333334, "is_reserved": 0, "lon": -77.0456585, "fusion_lon": 0.0, "is_disabled": 0, "fusion_lat": 0.0, "bike_id": "463382bf2c26a40a362192268a9b6bad", "rental_uris": {"ios": "https://dc.lft.to/lastmile_qr_scan", "android": "https://dc.lft.to/lastmile_qr_scan"}}, {"name": "6c08a3c03468812832c7ded5cf680e3b", "type": "electric_scooter", "lat": 38.87395316666667, "is_reserved": 0, "lon": -77.000253, "fusion_lon": 0.0, "is_disabled": 0, "fusion_lat": 0.0, "bike_id": "6c08a3c03468812832c7ded5cf680e3b", "rental_uris": {"ios": "https://dc.lft.to/lastmile_qr_scan", "android": "https://dc.lft.to/lastmile_qr_scan"}}, {"name": "6edcb547dba7adf9190c95c3d0c04314", "type": "electric_scooter", "lat": 38.930153833333335, "is_reserved": 0, "lon": -77.02338466666667, "fusion_lon": 0.0, "is_disabled": 0, "fusion_lat": 0.0, "bike_id": "6edcb547dba7adf9190c95c3d0c04314", "rental_uris": {"ios": "https://dc.lft.to/lastmile_qr_scan", "android": "https://dc.lft.to/lastmile_qr_scan"}}, {"name": "f2f27077be82746b80d71ac9facecfaa", "type": "electric_scooter", "lat": 38.90540883333333, "is_reserved": 0, "lon": -77.047542, "fusion_lon": 0.0, "is_disabled": 0, "fusion_lat": 0.0, "bike_id": "f2f27077be82746b80d71ac9facecfaa", "rental_uris": {"ios": "https://dc.lft.to/lastmile_qr_scan", "android": "https://dc.lft.to/lastmile_qr_scan"}}, {"name": "3151b8563a53be547194047f88f4b0c2", "type": "electric_scooter", "lat": 38.96117433333333, "is_reserved": 0, "lon": -77.02814083333334, "fusion_lon": 0.0, "is_disabled": 0, "fusion_lat": 0.0, "bike_id": "3151b8563a53be547194047f88f4b0c2", "rental_uris": {"ios": "https://dc.lft.to/lastmile_qr_scan", "android": "https://dc.lft.to/lastmile_qr_scan"}}, {"name": "72a26d6055d334e5e5258aabb13b5d11", "type": "electric_bike", "lat": 38.9991095, "is_reserved": 0, "lon": -77.04621983333334, "fusion_lon": 0.0, "is_disabled": 0, "fusion_lat": 0.0, "bike_id": "72a26d6055d334e5e5258aabb13b5d11", "rental_uris": {"ios": "https://dc.lft.to/lastmile_qr_scan", "android": "https://dc.lft.to/lastmile_qr_scan"}}, {"name": "a4ca2ed249c44172d84651fff7c6af42", "type": "electric_scooter", "lat": 38.90682966666667, "is_reserved": 0, "lon": -77.0248955, "fusion_lon": 0.0, "is_disabled": 0, "fusion_lat": 0.0, "bike_id": "a4ca2ed249c44172d84651fff7c6af42", "rental_uris": {"ios": "https://dc.lft.to/lastmile_qr_scan", "android": "https://dc.lft.to/lastmile_qr_scan"}}, {"name": "347da19d627574b97386c599c1e218db", "type": "electric_scooter", "lat": 38.86524883333333, "is_reserved": 0, "lon": -76.99031466666666, "fusion_lon": 0.0, "is_disabled": 0, "fusion_lat": 0.0, "bike_id": "347da19d627574b97386c599c1e218db", "rental_uris": {"ios": "https://dc.lft.to/lastmile_qr_scan", "android": "https://dc.lft.to/lastmile_qr_scan"}}, {"name": "d455f2f46a9fc026ab0424d8dd48f706", "type": "electric_scooter", "lat": 38.921306333333334, "is_reserved": 0, "lon": -77.03887816666666, "fusion_lon": 0.0, "is_disabled": 0, "fusion_lat": 0.0, "bike_id": "d455f2f46a9fc026ab0424d8dd48f706", "rental_uris": {"ios": "https://dc.lft.to/lastmile_qr_scan", "android": "https://dc.lft.to/lastmile_qr_scan"}}, {"name": "d5b00b4c271adb4e504ab8582acc0a00", "type": "electric_scooter", "lat": 38.899340333333335, "is_reserved": 0, "lon": -77.02987533333334, "fusion_lon": 0.0, "is_disabled": 0, "fusion_lat": 0.0, "bike_id": "d5b00b4c271adb4e504ab8582acc0a00", "rental_uris": {"ios": "https://dc.lft.to/lastmile_qr_scan", "android": "https://dc.lft.to/lastmile_qr_scan"}}, {"name": "e4e1ed81f686992cea9427faebed576a", "type": "electric_scooter", "lat": 38.91950283333333, "is_reserved": 0, "lon": -77.04537183333333, "fusion_lon": 0.0, "is_disabled": 0, "fusion_lat": 0.0, "bike_id": "e4e1ed81f686992cea9427faebed576a", "rental_uris": {"ios": "https://dc.lft.to/lastmile_qr_scan", "android": "https://dc.lft.to/lastmile_qr_scan"}}, {"name": "6566570b798e5f593dcd4f75bb48a302", "type": "electric_scooter", "lat": 38.95528483333333, "is_reserved": 0, "lon": -77.06981983333333, "fusion_lon": 0.0, "is_disabled": 0, "fusion_lat": 0.0, "bike_id": "6566570b798e5f593dcd4f75bb48a302", "rental_uris": {"ios": "https://dc.lft.to/lastmile_qr_scan", "android": "https://dc.lft.to/lastmile_qr_scan"}}, {"name": "0a3e6d225e9b42eddc8c5ced25571bd6", "type": "electric_scooter", "lat": 38.933518166666666, "is_reserved": 0, "lon": -77.0336625, "fusion_lon": 0.0, "is_disabled": 0, "fusion_lat": 0.0, "bike_id": "0a3e6d225e9b42eddc8c5ced25571bd6", "rental_uris": {"ios": "https://dc.lft.to/lastmile_qr_scan", "android": "https://dc.lft.to/lastmile_qr_scan"}}, {"name": "059f34843d629595633ec14f2acf7cf9", "type": "electric_scooter", "lat": 38.89999516666666, "is_reserved": 0, "lon": -77.02943066666667, "fusion_lon": 0.0, "is_disabled": 0, "fusion_lat": 0.0, "bike_id": "059f34843d629595633ec14f2acf7cf9", "rental_uris": {"ios": "https://dc.lft.to/lastmile_qr_scan", "android": "https://dc.lft.to/lastmile_qr_scan"}}, {"name": "3cbbe65c34e0ec05fac59a31933536cd", "type": "electric_scooter", "lat": 38.913784, "is_reserved": 0, "lon": -77.046655, "fusion_lon": 0.0, "is_disabled": 0, "fusion_lat": 0.0, "bike_id": "3cbbe65c34e0ec05fac59a31933536cd", "rental_uris": {"ios": "https://dc.lft.to/lastmile_qr_scan", "android": "https://dc.lft.to/lastmile_qr_scan"}}, {"name": "712e7bf1cbb291810c91034db366a2b3", "type": "electric_scooter", "lat": 38.9360845, "is_reserved": 0, "lon": -77.05860933333334, "fusion_lon": 0.0, "is_disabled": 0, "fusion_lat": 0.0, "bike_id": "712e7bf1cbb291810c91034db366a2b3", "rental_uris": {"ios": "https://dc.lft.to/lastmile_qr_scan", "android": "https://dc.lft.to/lastmile_qr_scan"}}, {"name": "528570f86f542b8d3e61f4660712e288", "type": "electric_scooter", "lat": 38.897353333333335, "is_reserved": 0, "lon": -77.055685, "fusion_lon": 0.0, "is_disabled": 0, "fusion_lat": 0.0, "bike_id": "528570f86f542b8d3e61f4660712e288", "rental_uris": {"ios": "https://dc.lft.to/lastmile_qr_scan", "android": "https://dc.lft.to/lastmile_qr_scan"}}, {"name": "9428229574d53b624c36bf5644d31b08", "type": "electric_scooter", "lat": 38.9079675, "is_reserved": 0, "lon": -76.996996, "fusion_lon": 0.0, "is_disabled": 0, "fusion_lat": 0.0, "bike_id": "9428229574d53b624c36bf5644d31b08", "rental_uris": {"ios": "https://dc.lft.to/lastmile_qr_scan", "android": "https://dc.lft.to/lastmile_qr_scan"}}, {"name": "3eb080f7b1ed8e5c3d6cc41a373faeef", "type": "electric_scooter", "lat": 38.8968895, "is_reserved": 0, "lon": -76.99625333333333, "fusion_lon": 0.0, "is_disabled": 0, "fusion_lat": 0.0, "bike_id": "3eb080f7b1ed8e5c3d6cc41a373faeef", "rental_uris": {"ios": "https://dc.lft.to/lastmile_qr_scan", "android": "https://dc.lft.to/lastmile_qr_scan"}}, {"name": "cdedac5fc0dc40dbb0ac8c68077f46ed", "type": "electric_scooter", "lat": 38.900726, "is_reserved": 0, "lon": -77.050178, "fusion_lon": 0.0, "is_disabled": 0, "fusion_lat": 0.0, "bike_id": "cdedac5fc0dc40dbb0ac8c68077f46ed", "rental_uris": {"ios": "https://dc.lft.to/lastmile_qr_scan", "android": "https://dc.lft.to/lastmile_qr_scan"}}, {"name": "923a572ff73beadb8e4b594f05cd1548", "type": "electric_scooter", "lat": 38.866563, "is_reserved": 0, "lon": -76.99013833333333, "fusion_lon": 0.0, "is_disabled": 0, "fusion_lat": 0.0, "bike_id": "923a572ff73beadb8e4b594f05cd1548", "rental_uris": {"ios": "https://dc.lft.to/lastmile_qr_scan", "android": "https://dc.lft.to/lastmile_qr_scan"}}, {"name": "285a8fe263ac65b888d8d35d562b1249", "type": "electric_scooter", "lat": 38.89958683333333, "is_reserved": 0, "lon": -76.98565383333333, "fusion_lon": 0.0, "is_disabled": 0, "fusion_lat": 0.0, "bike_id": "285a8fe263ac65b888d8d35d562b1249", "rental_uris": {"ios": "https://dc.lft.to/lastmile_qr_scan", "android": "https://dc.lft.to/lastmile_qr_scan"}}, {"name": "2521ef71d35e6670d2a4312c66120488", "type": "electric_scooter", "lat": 38.91332583333333, "is_reserved": 0, "lon": -77.03167983333333, "fusion_lon": 0.0, "is_disabled": 0, "fusion_lat": 0.0, "bike_id": "2521ef71d35e6670d2a4312c66120488", "rental_uris": {"ios": "https://dc.lft.to/lastmile_qr_scan", "android": "https://dc.lft.to/lastmile_qr_scan"}}, {"name": "760e04ef52f42361b8985147e0d8e5ca", "type": "electric_bike", "lat": 38.9492125, "is_reserved": 0, "lon": -77.07840016666667, "fusion_lon": 0.0, "is_disabled": 0, "fusion_lat": 0.0, "bike_id": "760e04ef52f42361b8985147e0d8e5ca", "rental_uris": {"ios": "https://dc.lft.to/lastmile_qr_scan", "android": "https://dc.lft.to/lastmile_qr_scan"}}, {"name": "18ebe9d6988158042ab95921a6c53d62", "type": "electric_scooter", "lat": 38.93768883333333, "is_reserved": 0, "lon": -77.02265416666667, "fusion_lon": 0.0, "is_disabled": 0, "fusion_lat": 0.0, "bike_id": "18ebe9d6988158042ab95921a6c53d62", "rental_uris": {"ios": "https://dc.lft.to/lastmile_qr_scan", "android": "https://dc.lft.to/lastmile_qr_scan"}}, {"name": "a12fc6a9aad07608aec30e2e98d22895", "type": "electric_scooter", "lat": 38.92482433333333, "is_reserved": 0, "lon": -77.02884216666666, "fusion_lon": 0.0, "is_disabled": 0, "fusion_lat": 0.0, "bike_id": "a12fc6a9aad07608aec30e2e98d22895", "rental_uris": {"ios": "https://dc.lft.to/lastmile_qr_scan", "android": "https://dc.lft.to/lastmile_qr_scan"}}, {"name": "c789316aeaa4f7863d2edb5c1446a868", "type": "electric_scooter", "lat": 38.89974766666667, "is_reserved": 0, "lon": -77.02182166666667, "fusion_lon": 0.0, "is_disabled": 0, "fusion_lat": 0.0, "bike_id": "c789316aeaa4f7863d2edb5c1446a868", "rental_uris": {"ios": "https://dc.lft.to/lastmile_qr_scan", "android": "https://dc.lft.to/lastmile_qr_scan"}}, {"name": "9bf4a0bb65e267ca7b60877136217cbb", "type": "electric_scooter", "lat": 38.929790833333335, "is_reserved": 0, "lon": -77.01450483333333, "fusion_lon": 0.0, "is_disabled": 0, "fusion_lat": 0.0, "bike_id": "9bf4a0bb65e267ca7b60877136217cbb", "rental_uris": {"ios": "https://dc.lft.to/lastmile_qr_scan", "android": "https://dc.lft.to/lastmile_qr_scan"}}, {"name": "fec063eebb4042d296a7bcc9a34219ed", "type": "electric_scooter", "lat": 38.930648166666664, "is_reserved": 0, "lon": -77.0297905, "fusion_lon": 0.0, "is_disabled": 0, "fusion_lat": 0.0, "bike_id": "fec063eebb4042d296a7bcc9a34219ed", "rental_uris": {"ios": "https://dc.lft.to/lastmile_qr_scan", "android": "https://dc.lft.to/lastmile_qr_scan"}}, {"name": "7494e0e38c1345bfdab198641f929fc6", "type": "electric_bike", "lat": 38.8399095, "is_reserved": 0, "lon": -77.00564733333333, "fusion_lon": 0.0, "is_disabled": 0, "fusion_lat": 0.0, "bike_id": "7494e0e38c1345bfdab198641f929fc6", "rental_uris": {"ios": "https://dc.lft.to/lastmile_qr_scan", "android": "https://dc.lft.to/lastmile_qr_scan"}}, {"name": "017883ecc8006ed4a63710e1e9022875", "type": "electric_scooter", "lat": 38.912540166666666, "is_reserved": 0, "lon": -77.03841983333334, "fusion_lon": 0.0, "is_disabled": 0, "fusion_lat": 0.0, "bike_id": "017883ecc8006ed4a63710e1e9022875", "rental_uris": {"ios": "https://dc.lft.to/lastmile_qr_scan", "android": "https://dc.lft.to/lastmile_qr_scan"}}, {"name": "f40fadf295822d4bf194b51a75c134e2", "type": "electric_scooter", "lat": 38.911258, "is_reserved": 0, "lon": -77.04419666666666, "fusion_lon": 0.0, "is_disabled": 0, "fusion_lat": 0.0, "bike_id": "f40fadf295822d4bf194b51a75c134e2", "rental_uris": {"ios": "https://dc.lft.to/lastmile_qr_scan", "android": "https://dc.lft.to/lastmile_qr_scan"}}, {"name": "2f9456a7df3d9c550de3970cd8733aef", "type": "electric_bike", "lat": 38.896846, "is_reserved": 0, "lon": -76.94063566666667, "fusion_lon": 0.0, "is_disabled": 0, "fusion_lat": 0.0, "bike_id": "2f9456a7df3d9c550de3970cd8733aef", "rental_uris": {"ios": "https://dc.lft.to/lastmile_qr_scan", "android": "https://dc.lft.to/lastmile_qr_scan"}}, {"name": "57cd166710703269ff97b77b465c10eb", "type": "electric_scooter", "lat": 38.917643166666664, "is_reserved": 0, "lon": -77.027102, "fusion_lon": 0.0, "is_disabled": 0, "fusion_lat": 0.0, "bike_id": "57cd166710703269ff97b77b465c10eb", "rental_uris": {"ios": "https://dc.lft.to/lastmile_qr_scan", "android": "https://dc.lft.to/lastmile_qr_scan"}}, {"name": "fe7afe9d70dcbb5ae0aded78ea155d34", "type": "electric_scooter", "lat": 38.895821, "is_reserved": 0, "lon": -77.02320816666666, "fusion_lon": 0.0, "is_disabled": 0, "fusion_lat": 0.0, "bike_id": "fe7afe9d70dcbb5ae0aded78ea155d34", "rental_uris": {"ios": "https://dc.lft.to/lastmile_qr_scan", "android": "https://dc.lft.to/lastmile_qr_scan"}}, {"name": "17f867ed384329d2205486b1726c5f0e", "type": "electric_scooter", "lat": 38.9231285, "is_reserved": 0, "lon": -77.04212583333333, "fusion_lon": 0.0, "is_disabled": 0, "fusion_lat": 0.0, "bike_id": "17f867ed384329d2205486b1726c5f0e", "rental_uris": {"ios": "https://dc.lft.to/lastmile_qr_scan", "android": "https://dc.lft.to/lastmile_qr_scan"}}, {"name": "c70a864b63651ed9cf011011a992beef", "type": "electric_scooter", "lat": 38.8642335, "is_reserved": 0, "lon": -76.9857505, "fusion_lon": 0.0, "is_disabled": 0, "fusion_lat": 0.0, "bike_id": "c70a864b63651ed9cf011011a992beef", "rental_uris": {"ios": "https://dc.lft.to/lastmile_qr_scan", "android": "https://dc.lft.to/lastmile_qr_scan"}}, {"name": "b9763468135628a3b24369d550aba054", "type": "electric_scooter", "lat": 38.933672333333334, "is_reserved": 0, "lon": -77.05728566666667, "fusion_lon": 0.0, "is_disabled": 0, "fusion_lat": 0.0, "bike_id": "b9763468135628a3b24369d550aba054", "rental_uris": {"ios": "https://dc.lft.to/lastmile_qr_scan", "android": "https://dc.lft.to/lastmile_qr_scan"}}, {"name": "ebec00a6cf043f6750fac2c25eaa7715", "type": "electric_scooter", "lat": 38.9013975, "is_reserved": 0, "lon": -77.0007135, "fusion_lon": 0.0, "is_disabled": 0, "fusion_lat": 0.0, "bike_id": "ebec00a6cf043f6750fac2c25eaa7715", "rental_uris": {"ios": "https://dc.lft.to/lastmile_qr_scan", "android": "https://dc.lft.to/lastmile_qr_scan"}}, {"name": "ac7b8211d146dfff15ad4ffa80885332", "type": "electric_scooter", "lat": 38.90686016666667, "is_reserved": 0, "lon": -77.02686933333334, "fusion_lon": 0.0, "is_disabled": 0, "fusion_lat": 0.0, "bike_id": "ac7b8211d146dfff15ad4ffa80885332", "rental_uris": {"ios": "https://dc.lft.to/lastmile_qr_scan", "android": "https://dc.lft.to/lastmile_qr_scan"}}, {"name": "12d49d61c14163d0670503cafacf0ee8", "type": "electric_bike", "lat": 38.88637666666666, "is_reserved": 0, "lon": -76.9547265, "fusion_lon": 0.0, "is_disabled": 0, "fusion_lat": 0.0, "bike_id": "12d49d61c14163d0670503cafacf0ee8", "rental_uris": {"ios": "https://dc.lft.to/lastmile_qr_scan", "android": "https://dc.lft.to/lastmile_qr_scan"}}, {"name": "7b2a60c5c7ae4c7abbda774898555499", "type": "electric_scooter", "lat": 38.928778, "is_reserved": 0, "lon": -77.03217333333333, "fusion_lon": 0.0, "is_disabled": 0, "fusion_lat": 0.0, "bike_id": "7b2a60c5c7ae4c7abbda774898555499", "rental_uris": {"ios": "https://dc.lft.to/lastmile_qr_scan", "android": "https://dc.lft.to/lastmile_qr_scan"}}, {"name": "1ab7c24b741e81e041ec6b89852d24b6", "type": "electric_scooter", "lat": 38.907207, "is_reserved": 0, "lon": -77.0250395, "fusion_lon": 0.0, "is_disabled": 0, "fusion_lat": 0.0, "bike_id": "1ab7c24b741e81e041ec6b89852d24b6", "rental_uris": {"ios": "https://dc.lft.to/lastmile_qr_scan", "android": "https://dc.lft.to/lastmile_qr_scan"}}, {"name": "f0198e2237fa4f848eda8aa0779da7bf", "type": "electric_scooter", "lat": 38.956487, "is_reserved": 0, "lon": -77.03286483333333, "fusion_lon": 0.0, "is_disabled": 0, "fusion_lat": 0.0, "bike_id": "f0198e2237fa4f848eda8aa0779da7bf", "rental_uris": {"ios": "https://dc.lft.to/lastmile_qr_scan", "android": "https://dc.lft.to/lastmile_qr_scan"}}, {"name": "48efb408d223d31725f62bdb2509faec", "type": "electric_scooter", "lat": 38.92372016666667, "is_reserved": 0, "lon": -77.03141266666667, "fusion_lon": 0.0, "is_disabled": 0, "fusion_lat": 0.0, "bike_id": "48efb408d223d31725f62bdb2509faec", "rental_uris": {"ios": "https://dc.lft.to/lastmile_qr_scan", "android": "https://dc.lft.to/lastmile_qr_scan"}}, {"name": "6b6306427c0e57deb0721926bb56d9eb", "type": "electric_scooter", "lat": 38.934700166666666, "is_reserved": 0, "lon": -77.072909, "fusion_lon": 0.0, "is_disabled": 0, "fusion_lat": 0.0, "bike_id": "6b6306427c0e57deb0721926bb56d9eb", "rental_uris": {"ios": "https://dc.lft.to/lastmile_qr_scan", "android": "https://dc.lft.to/lastmile_qr_scan"}}, {"name": "d34c7b9a5da984f5a6effbbde86c7fa9", "type": "electric_scooter", "lat": 38.902641833333334, "is_reserved": 0, "lon": -77.038338, "fusion_lon": 0.0, "is_disabled": 0, "fusion_lat": 0.0, "bike_id": "d34c7b9a5da984f5a6effbbde86c7fa9", "rental_uris": {"ios": "https://dc.lft.to/lastmile_qr_scan", "android": "https://dc.lft.to/lastmile_qr_scan"}}, {"name": "55b61d91a7a766111ac9398bf9ba6c73", "type": "electric_scooter", "lat": 38.858041666666665, "is_reserved": 0, "lon": -76.99123166666666, "fusion_lon": 0.0, "is_disabled": 0, "fusion_lat": 0.0, "bike_id": "55b61d91a7a766111ac9398bf9ba6c73", "rental_uris": {"ios": "https://dc.lft.to/lastmile_qr_scan", "android": "https://dc.lft.to/lastmile_qr_scan"}}, {"name": "ed705dfaee5605f782f6cd20e4df1d6b", "type": "electric_bike", "lat": 39.0036565, "is_reserved": 0, "lon": -77.013043, "fusion_lon": 0.0, "is_disabled": 0, "fusion_lat": 0.0, "bike_id": "ed705dfaee5605f782f6cd20e4df1d6b", "rental_uris": {"ios": "https://dc.lft.to/lastmile_qr_scan", "android": "https://dc.lft.to/lastmile_qr_scan"}}, {"name": "d2ee67a95f0956d9959bd7d4794a9305", "type": "electric_scooter", "lat": 38.915852, "is_reserved": 0, "lon": -77.03193033333334, "fusion_lon": 0.0, "is_disabled": 0, "fusion_lat": 0.0, "bike_id": "d2ee67a95f0956d9959bd7d4794a9305", "rental_uris": {"ios": "https://dc.lft.to/lastmile_qr_scan", "android": "https://dc.lft.to/lastmile_qr_scan"}}, {"name": "442035a3e582c3ea7d4cb6364ab0e1d5", "type": "electric_scooter", "lat": 38.902835, "is_reserved": 0, "lon": -77.036455, "fusion_lon": 0.0, "is_disabled": 0, "fusion_lat": 0.0, "bike_id": "442035a3e582c3ea7d4cb6364ab0e1d5", "rental_uris": {"ios": "https://dc.lft.to/lastmile_qr_scan", "android": "https://dc.lft.to/lastmile_qr_scan"}}, {"name": "c8fdba622990db960b71b387acc632f2", "type": "electric_scooter", "lat": 38.894233666666665, "is_reserved": 0, "lon": -76.93243816666667, "fusion_lon": 0.0, "is_disabled": 0, "fusion_lat": 0.0, "bike_id": "c8fdba622990db960b71b387acc632f2", "rental_uris": {"ios": "https://dc.lft.to/lastmile_qr_scan", "android": "https://dc.lft.to/lastmile_qr_scan"}}, {"name": "114e3dfb9e346deb668f0e3b745c3dfb", "type": "electric_scooter", "lat": 38.89998283333333, "is_reserved": 0, "lon": -77.04043466666667, "fusion_lon": 0.0, "is_disabled": 0, "fusion_lat": 0.0, "bike_id": "114e3dfb9e346deb668f0e3b745c3dfb", "rental_uris": {"ios": "https://dc.lft.to/lastmile_qr_scan", "android": "https://dc.lft.to/lastmile_qr_scan"}}, {"name": "45fc09af32564fab6e0ed70fe7710599", "type": "electric_scooter", "lat": 38.930140333333334, "is_reserved": 0, "lon": -77.02330383333333, "fusion_lon": 0.0, "is_disabled": 0, "fusion_lat": 0.0, "bike_id": "45fc09af32564fab6e0ed70fe7710599", "rental_uris": {"ios": "https://dc.lft.to/lastmile_qr_scan", "android": "https://dc.lft.to/lastmile_qr_scan"}}, {"name": "096a36353be1ae091bced7de8b56bd6a", "type": "electric_scooter", "lat": 38.906438666666666, "is_reserved": 0, "lon": -77.05120016666666, "fusion_lon": 0.0, "is_disabled": 0, "fusion_lat": 0.0, "bike_id": "096a36353be1ae091bced7de8b56bd6a", "rental_uris": {"ios": "https://dc.lft.to/lastmile_qr_scan", "android": "https://dc.lft.to/lastmile_qr_scan"}}, {"name": "d31f714adca970410dd9cd7884a85dee", "type": "electric_scooter", "lat": 38.924890833333336, "is_reserved": 0, "lon": -77.027146, "fusion_lon": 0.0, "is_disabled": 0, "fusion_lat": 0.0, "bike_id": "d31f714adca970410dd9cd7884a85dee", "rental_uris": {"ios": "https://dc.lft.to/lastmile_qr_scan", "android": "https://dc.lft.to/lastmile_qr_scan"}}, {"name": "1d1c6f81c6ddf0a8a7f04aaedc1332dc", "type": "electric_scooter", "lat": 38.9064705, "is_reserved": 0, "lon": -77.05155166666667, "fusion_lon": 0.0, "is_disabled": 0, "fusion_lat": 0.0, "bike_id": "1d1c6f81c6ddf0a8a7f04aaedc1332dc", "rental_uris": {"ios": "https://dc.lft.to/lastmile_qr_scan", "android": "https://dc.lft.to/lastmile_qr_scan"}}, {"name": "95e9473a3f450dafcc5ce621848a0755", "type": "electric_scooter", "lat": 38.897294, "is_reserved": 0, "lon": -77.0433645, "fusion_lon": 0.0, "is_disabled": 0, "fusion_lat": 0.0, "bike_id": "95e9473a3f450dafcc5ce621848a0755", "rental_uris": {"ios": "https://dc.lft.to/lastmile_qr_scan", "android": "https://dc.lft.to/lastmile_qr_scan"}}, {"name": "1bdcc3e510a4d48333d905311d18916f", "type": "electric_scooter", "lat": 38.90733783333334, "is_reserved": 0, "lon": -77.02160566666667, "fusion_lon": 0.0, "is_disabled": 0, "fusion_lat": 0.0, "bike_id": "1bdcc3e510a4d48333d905311d18916f", "rental_uris": {"ios": "https://dc.lft.to/lastmile_qr_scan", "android": "https://dc.lft.to/lastmile_qr_scan"}}, {"name": "4b31dd5357cabb3419f4c5f4a951b1e4", "type": "electric_scooter", "lat": 38.92857716666666, "is_reserved": 0, "lon": -77.03243183333333, "fusion_lon": 0.0, "is_disabled": 0, "fusion_lat": 0.0, "bike_id": "4b31dd5357cabb3419f4c5f4a951b1e4", "rental_uris": {"ios": "https://dc.lft.to/lastmile_qr_scan", "android": "https://dc.lft.to/lastmile_qr_scan"}}, {"name": "3c4890617dfab833b231f82341a06c64", "type": "electric_scooter", "lat": 38.91628683333333, "is_reserved": 0, "lon": -77.031881, "fusion_lon": 0.0, "is_disabled": 0, "fusion_lat": 0.0, "bike_id": "3c4890617dfab833b231f82341a06c64", "rental_uris": {"ios": "https://dc.lft.to/lastmile_qr_scan", "android": "https://dc.lft.to/lastmile_qr_scan"}}, {"name": "73ff3fbafd256ad7718e3ef1cf770525", "type": "electric_bike", "lat": 38.942757, "is_reserved": 0, "lon": -76.98072033333334, "fusion_lon": 0.0, "is_disabled": 0, "fusion_lat": 0.0, "bike_id": "73ff3fbafd256ad7718e3ef1cf770525", "rental_uris": {"ios": "https://dc.lft.to/lastmile_qr_scan", "android": "https://dc.lft.to/lastmile_qr_scan"}}, {"name": "0940c811932e531522231d10cf6159fb", "type": "electric_scooter", "lat": 38.94639383333333, "is_reserved": 0, "lon": -77.01922033333334, "fusion_lon": 0.0, "is_disabled": 0, "fusion_lat": 0.0, "bike_id": "0940c811932e531522231d10cf6159fb", "rental_uris": {"ios": "https://dc.lft.to/lastmile_qr_scan", "android": "https://dc.lft.to/lastmile_qr_scan"}}, {"name": "e92316d1251d89b80b8c5aecbcc02e9d", "type": "electric_scooter", "lat": 38.866597666666664, "is_reserved": 0, "lon": -76.98889333333334, "fusion_lon": 0.0, "is_disabled": 0, "fusion_lat": 0.0, "bike_id": "e92316d1251d89b80b8c5aecbcc02e9d", "rental_uris": {"ios": "https://dc.lft.to/lastmile_qr_scan", "android": "https://dc.lft.to/lastmile_qr_scan"}}, {"name": "8eb713d4c35b42f82e63d25ceb697702", "type": "electric_bike", "lat": 38.93502616666667, "is_reserved": 0, "lon": -76.98342016666666, "fusion_lon": 0.0, "is_disabled": 0, "fusion_lat": 0.0, "bike_id": "8eb713d4c35b42f82e63d25ceb697702", "rental_uris": {"ios": "https://dc.lft.to/lastmile_qr_scan", "android": "https://dc.lft.to/lastmile_qr_scan"}}, {"name": "a0d3418de9a13ad146812805737c2733", "type": "electric_scooter", "lat": 38.91011366666667, "is_reserved": 0, "lon": -76.99387966666667, "fusion_lon": 0.0, "is_disabled": 0, "fusion_lat": 0.0, "bike_id": "a0d3418de9a13ad146812805737c2733", "rental_uris": {"ios": "https://dc.lft.to/lastmile_qr_scan", "android": "https://dc.lft.to/lastmile_qr_scan"}}, {"name": "38990040c07b5a0930b338da040ceb42", "type": "electric_scooter", "lat": 38.915444666666666, "is_reserved": 0, "lon": -77.04638866666667, "fusion_lon": 0.0, "is_disabled": 0, "fusion_lat": 0.0, "bike_id": "38990040c07b5a0930b338da040ceb42", "rental_uris": {"ios": "https://dc.lft.to/lastmile_qr_scan", "android": "https://dc.lft.to/lastmile_qr_scan"}}, {"name": "9f8bf7b5cd9a6dee1c87289922c2884f", "type": "electric_scooter", "lat": 38.88457966666667, "is_reserved": 0, "lon": -76.99317066666667, "fusion_lon": 0.0, "is_disabled": 0, "fusion_lat": 0.0, "bike_id": "9f8bf7b5cd9a6dee1c87289922c2884f", "rental_uris": {"ios": "https://dc.lft.to/lastmile_qr_scan", "android": "https://dc.lft.to/lastmile_qr_scan"}}, {"name": "e9de009c05c991fe3d10432a4cb10e5d", "type": "electric_scooter", "lat": 38.896265, "is_reserved": 0, "lon": -77.01030516666667, "fusion_lon": 0.0, "is_disabled": 0, "fusion_lat": 0.0, "bike_id": "e9de009c05c991fe3d10432a4cb10e5d", "rental_uris": {"ios": "https://dc.lft.to/lastmile_qr_scan", "android": "https://dc.lft.to/lastmile_qr_scan"}}, {"name": "e4216fc95cb4cc3f2a646496c304928b", "type": "electric_scooter", "lat": 38.93670566666667, "is_reserved": 0, "lon": -77.036211, "fusion_lon": 0.0, "is_disabled": 0, "fusion_lat": 0.0, "bike_id": "e4216fc95cb4cc3f2a646496c304928b", "rental_uris": {"ios": "https://dc.lft.to/lastmile_qr_scan", "android": "https://dc.lft.to/lastmile_qr_scan"}}, {"name": "ad0aee628ec9e7ff20480a0574fc6765", "type": "electric_scooter", "lat": 38.9141235, "is_reserved": 0, "lon": -77.01296583333334, "fusion_lon": 0.0, "is_disabled": 0, "fusion_lat": 0.0, "bike_id": "ad0aee628ec9e7ff20480a0574fc6765", "rental_uris": {"ios": "https://dc.lft.to/lastmile_qr_scan", "android": "https://dc.lft.to/lastmile_qr_scan"}}, {"name": "60737c3ab063e36f8f57ed876dc2a371", "type": "electric_scooter", "lat": 38.92013383333333, "is_reserved": 0, "lon": -77.04406416666667, "fusion_lon": 0.0, "is_disabled": 0, "fusion_lat": 0.0, "bike_id": "60737c3ab063e36f8f57ed876dc2a371", "rental_uris": {"ios": "https://dc.lft.to/lastmile_qr_scan", "android": "https://dc.lft.to/lastmile_qr_scan"}}, {"name": "2bedb31740abba20970d70d1c5cc9201", "type": "electric_scooter", "lat": 38.91478433333333, "is_reserved": 0, "lon": -77.04084616666667, "fusion_lon": 0.0, "is_disabled": 0, "fusion_lat": 0.0, "bike_id": "2bedb31740abba20970d70d1c5cc9201", "rental_uris": {"ios": "https://dc.lft.to/lastmile_qr_scan", "android": "https://dc.lft.to/lastmile_qr_scan"}}, {"name": "0fdaeb230d4124d728098974b0c02f05", "type": "electric_scooter", "lat": 38.92645366666667, "is_reserved": 0, "lon": -77.0370165, "fusion_lon": 0.0, "is_disabled": 0, "fusion_lat": 0.0, "bike_id": "0fdaeb230d4124d728098974b0c02f05", "rental_uris": {"ios": "https://dc.lft.to/lastmile_qr_scan", "android": "https://dc.lft.to/lastmile_qr_scan"}}, {"name": "b7bb86140e6bbe1a7cd74682c3e3db6b", "type": "electric_scooter", "lat": 38.934521333333336, "is_reserved": 0, "lon": -77.072371, "fusion_lon": 0.0, "is_disabled": 0, "fusion_lat": 0.0, "bike_id": "b7bb86140e6bbe1a7cd74682c3e3db6b", "rental_uris": {"ios": "https://dc.lft.to/lastmile_qr_scan", "android": "https://dc.lft.to/lastmile_qr_scan"}}, {"name": "4febdb0aa450e8d4b4650cb13e6576b8", "type": "electric_scooter", "lat": 38.89885783333333, "is_reserved": 0, "lon": -76.93175316666667, "fusion_lon": 0.0, "is_disabled": 0, "fusion_lat": 0.0, "bike_id": "4febdb0aa450e8d4b4650cb13e6576b8", "rental_uris": {"ios": "https://dc.lft.to/lastmile_qr_scan", "android": "https://dc.lft.to/lastmile_qr_scan"}}, {"name": "a3d4ad4ef6a382a8fb04fc9ef4988e97", "type": "electric_scooter", "lat": 38.884969, "is_reserved": 0, "lon": -77.007273, "fusion_lon": 0.0, "is_disabled": 0, "fusion_lat": 0.0, "bike_id": "a3d4ad4ef6a382a8fb04fc9ef4988e97", "rental_uris": {"ios": "https://dc.lft.to/lastmile_qr_scan", "android": "https://dc.lft.to/lastmile_qr_scan"}}, {"name": "9f37ece9f731419265356bb90e2540e3", "type": "electric_scooter", "lat": 38.90718, "is_reserved": 0, "lon": -77.0250655, "fusion_lon": 0.0, "is_disabled": 0, "fusion_lat": 0.0, "bike_id": "9f37ece9f731419265356bb90e2540e3", "rental_uris": {"ios": "https://dc.lft.to/lastmile_qr_scan", "android": "https://dc.lft.to/lastmile_qr_scan"}}, {"name": "65bbce7e8b330c4e29b0d8d992b1274a", "type": "electric_scooter", "lat": 38.91553116666667, "is_reserved": 0, "lon": -77.02450083333333, "fusion_lon": 0.0, "is_disabled": 0, "fusion_lat": 0.0, "bike_id": "65bbce7e8b330c4e29b0d8d992b1274a", "rental_uris": {"ios": "https://dc.lft.to/lastmile_qr_scan", "android": "https://dc.lft.to/lastmile_qr_scan"}}, {"name": "fdbf462320a290eb1ae03d51979a670f", "type": "electric_scooter", "lat": 38.90523016666667, "is_reserved": 0, "lon": -77.06627383333333, "fusion_lon": 0.0, "is_disabled": 0, "fusion_lat": 0.0, "bike_id": "fdbf462320a290eb1ae03d51979a670f", "rental_uris": {"ios": "https://dc.lft.to/lastmile_qr_scan", "android": "https://dc.lft.to/lastmile_qr_scan"}}, {"name": "9c0615e82a98b7dae2efb0b238f6e363", "type": "electric_scooter", "lat": 38.91568433333333, "is_reserved": 0, "lon": -77.037711, "fusion_lon": 0.0, "is_disabled": 0, "fusion_lat": 0.0, "bike_id": "9c0615e82a98b7dae2efb0b238f6e363", "rental_uris": {"ios": "https://dc.lft.to/lastmile_qr_scan", "android": "https://dc.lft.to/lastmile_qr_scan"}}, {"name": "c6f4d7e304e9c492bce110fd95dc39bf", "type": "electric_bike", "lat": 38.969117833333335, "is_reserved": 0, "lon": -76.9565045, "fusion_lon": 0.0, "is_disabled": 0, "fusion_lat": 0.0, "bike_id": "c6f4d7e304e9c492bce110fd95dc39bf", "rental_uris": {"ios": "https://dc.lft.to/lastmile_qr_scan", "android": "https://dc.lft.to/lastmile_qr_scan"}}, {"name": "169ce10664a49220ddcf5c335e68443b", "type": "electric_scooter", "lat": 38.8743415, "is_reserved": 0, "lon": -77.02067433333333, "fusion_lon": 0.0, "is_disabled": 0, "fusion_lat": 0.0, "bike_id": "169ce10664a49220ddcf5c335e68443b", "rental_uris": {"ios": "https://dc.lft.to/lastmile_qr_scan", "android": "https://dc.lft.to/lastmile_qr_scan"}}, {"name": "94e0fb802907dc21348b7f114bf88131", "type": "electric_bike", "lat": 38.88826983333333, "is_reserved": 0, "lon": -77.049393, "fusion_lon": 0.0, "is_disabled": 0, "fusion_lat": 0.0, "bike_id": "94e0fb802907dc21348b7f114bf88131", "rental_uris": {"ios": "https://dc.lft.to/lastmile_qr_scan", "android": "https://dc.lft.to/lastmile_qr_scan"}}, {"name": "21a772e048081e404850968de51b0f61", "type": "electric_scooter", "lat": 38.907304833333335, "is_reserved": 0, "lon": -77.010914, "fusion_lon": 0.0, "is_disabled": 0, "fusion_lat": 0.0, "bike_id": "21a772e048081e404850968de51b0f61", "rental_uris": {"ios": "https://dc.lft.to/lastmile_qr_scan", "android": "https://dc.lft.to/lastmile_qr_scan"}}, {"name": "573ea8e436e0769c226ed1487e2642d6", "type": "electric_scooter", "lat": 38.9153345, "is_reserved": 0, "lon": -77.04608133333333, "fusion_lon": 0.0, "is_disabled": 0, "fusion_lat": 0.0, "bike_id": "573ea8e436e0769c226ed1487e2642d6", "rental_uris": {"ios": "https://dc.lft.to/lastmile_qr_scan", "android": "https://dc.lft.to/lastmile_qr_scan"}}, {"name": "c2bea8ecc24821b4cbd518e04626b636", "type": "electric_scooter", "lat": 38.899975166666664, "is_reserved": 0, "lon": -76.98558483333333, "fusion_lon": 0.0, "is_disabled": 0, "fusion_lat": 0.0, "bike_id": "c2bea8ecc24821b4cbd518e04626b636", "rental_uris": {"ios": "https://dc.lft.to/lastmile_qr_scan", "android": "https://dc.lft.to/lastmile_qr_scan"}}, {"name": "c6978cf1a490614f155b98b83a0b3223", "type": "electric_scooter", "lat": 38.914036, "is_reserved": 0, "lon": -77.039036, "fusion_lon": 0.0, "is_disabled": 0, "fusion_lat": 0.0, "bike_id": "c6978cf1a490614f155b98b83a0b3223", "rental_uris": {"ios": "https://dc.lft.to/lastmile_qr_scan", "android": "https://dc.lft.to/lastmile_qr_scan"}}, {"name": "78677b53785c44665e2b3cb7696b769e", "type": "electric_bike", "lat": 38.936505333333336, "is_reserved": 0, "lon": -77.03282916666667, "fusion_lon": 0.0, "is_disabled": 0, "fusion_lat": 0.0, "bike_id": "78677b53785c44665e2b3cb7696b769e", "rental_uris": {"ios": "https://dc.lft.to/lastmile_qr_scan", "android": "https://dc.lft.to/lastmile_qr_scan"}}, {"name": "61f2b23dd046d68e7ddab7e019630b20", "type": "electric_scooter", "lat": 38.912668833333335, "is_reserved": 0, "lon": -77.03141416666666, "fusion_lon": 0.0, "is_disabled": 0, "fusion_lat": 0.0, "bike_id": "61f2b23dd046d68e7ddab7e019630b20", "rental_uris": {"ios": "https://dc.lft.to/lastmile_qr_scan", "android": "https://dc.lft.to/lastmile_qr_scan"}}, {"name": "722f6234074d4bb75c9e43e3fbad103c", "type": "electric_scooter", "lat": 38.892223, "is_reserved": 0, "lon": -77.04366816666666, "fusion_lon": 0.0, "is_disabled": 0, "fusion_lat": 0.0, "bike_id": "722f6234074d4bb75c9e43e3fbad103c", "rental_uris": {"ios": "https://dc.lft.to/lastmile_qr_scan", "android": "https://dc.lft.to/lastmile_qr_scan"}}, {"name": "6a2eefc9281f721177ea9ee37ed6b6ff", "type": "electric_scooter", "lat": 38.87632116666666, "is_reserved": 0, "lon": -77.00435616666667, "fusion_lon": 0.0, "is_disabled": 0, "fusion_lat": 0.0, "bike_id": "6a2eefc9281f721177ea9ee37ed6b6ff", "rental_uris": {"ios": "https://dc.lft.to/lastmile_qr_scan", "android": "https://dc.lft.to/lastmile_qr_scan"}}, {"name": "2275621961fb48c9f421672d9956823d", "type": "electric_scooter", "lat": 38.9175575, "is_reserved": 0, "lon": -77.02709566666667, "fusion_lon": 0.0, "is_disabled": 0, "fusion_lat": 0.0, "bike_id": "2275621961fb48c9f421672d9956823d", "rental_uris": {"ios": "https://dc.lft.to/lastmile_qr_scan", "android": "https://dc.lft.to/lastmile_qr_scan"}}, {"name": "c35987278acc9b708e9ab1b47c5f28d9", "type": "electric_scooter", "lat": 38.911874166666664, "is_reserved": 0, "lon": -77.0400515, "fusion_lon": 0.0, "is_disabled": 0, "fusion_lat": 0.0, "bike_id": "c35987278acc9b708e9ab1b47c5f28d9", "rental_uris": {"ios": "https://dc.lft.to/lastmile_qr_scan", "android": "https://dc.lft.to/lastmile_qr_scan"}}, {"name": "803edbbe29f1124364fb8564581e19c5", "type": "electric_scooter", "lat": 38.895626, "is_reserved": 0, "lon": -77.05000716666666, "fusion_lon": 0.0, "is_disabled": 0, "fusion_lat": 0.0, "bike_id": "803edbbe29f1124364fb8564581e19c5", "rental_uris": {"ios": "https://dc.lft.to/lastmile_qr_scan", "android": "https://dc.lft.to/lastmile_qr_scan"}}, {"name": "229693ef4fb09dc126489c8f527ad247", "type": "electric_scooter", "lat": 38.8952595, "is_reserved": 0, "lon": -77.048518, "fusion_lon": 0.0, "is_disabled": 0, "fusion_lat": 0.0, "bike_id": "229693ef4fb09dc126489c8f527ad247", "rental_uris": {"ios": "https://dc.lft.to/lastmile_qr_scan", "android": "https://dc.lft.to/lastmile_qr_scan"}}, {"name": "178df5d0e061370d59bea631e9b91a04", "type": "electric_scooter", "lat": 38.8719795, "is_reserved": 0, "lon": -77.0057605, "fusion_lon": 0.0, "is_disabled": 0, "fusion_lat": 0.0, "bike_id": "178df5d0e061370d59bea631e9b91a04", "rental_uris": {"ios": "https://dc.lft.to/lastmile_qr_scan", "android": "https://dc.lft.to/lastmile_qr_scan"}}, {"name": "c0aff070e416290f10add0717659cd5d", "type": "electric_bike", "lat": 38.90887933333333, "is_reserved": 0, "lon": -77.031953, "fusion_lon": 0.0, "is_disabled": 0, "fusion_lat": 0.0, "bike_id": "c0aff070e416290f10add0717659cd5d", "rental_uris": {"ios": "https://dc.lft.to/lastmile_qr_scan", "android": "https://dc.lft.to/lastmile_qr_scan"}}, {"name": "24d6ff2e488d853e1e9fc3fd1a3ec93e", "type": "electric_scooter", "lat": 38.9036065, "is_reserved": 0, "lon": -77.03393883333334, "fusion_lon": 0.0, "is_disabled": 0, "fusion_lat": 0.0, "bike_id": "24d6ff2e488d853e1e9fc3fd1a3ec93e", "rental_uris": {"ios": "https://dc.lft.to/lastmile_qr_scan", "android": "https://dc.lft.to/lastmile_qr_scan"}}, {"name": "e83665d6458fd6cee90272cf5c1bca5e", "type": "electric_scooter", "lat": 38.9056405, "is_reserved": 0, "lon": -77.02371816666667, "fusion_lon": 0.0, "is_disabled": 0, "fusion_lat": 0.0, "bike_id": "e83665d6458fd6cee90272cf5c1bca5e", "rental_uris": {"ios": "https://dc.lft.to/lastmile_qr_scan", "android": "https://dc.lft.to/lastmile_qr_scan"}}, {"name": "1a15fb44508fa5f1b68c64b1404bbed2", "type": "electric_scooter", "lat": 38.91101233333333, "is_reserved": 0, "lon": -77.037401, "fusion_lon": 0.0, "is_disabled": 0, "fusion_lat": 0.0, "bike_id": "1a15fb44508fa5f1b68c64b1404bbed2", "rental_uris": {"ios": "https://dc.lft.to/lastmile_qr_scan", "android": "https://dc.lft.to/lastmile_qr_scan"}}, {"name": "e09aabe675fcea331563a52dd742b8d2", "type": "electric_bike", "lat": 38.88239566666667, "is_reserved": 0, "lon": -76.93757066666667, "fusion_lon": 0.0, "is_disabled": 0, "fusion_lat": 0.0, "bike_id": "e09aabe675fcea331563a52dd742b8d2", "rental_uris": {"ios": "https://dc.lft.to/lastmile_qr_scan", "android": "https://dc.lft.to/lastmile_qr_scan"}}, {"name": "8ff0f78ef5d4ab2a5a9e8710a24970d0", "type": "electric_scooter", "lat": 38.900449, "is_reserved": 0, "lon": -77.0319235, "fusion_lon": 0.0, "is_disabled": 0, "fusion_lat": 0.0, "bike_id": "8ff0f78ef5d4ab2a5a9e8710a24970d0", "rental_uris": {"ios": "https://dc.lft.to/lastmile_qr_scan", "android": "https://dc.lft.to/lastmile_qr_scan"}}, {"name": "26f7dbe5380dd4bd79584bce2dec1b85", "type": "electric_scooter", "lat": 38.84291316666667, "is_reserved": 0, "lon": -76.9995045, "fusion_lon": 0.0, "is_disabled": 0, "fusion_lat": 0.0, "bike_id": "26f7dbe5380dd4bd79584bce2dec1b85", "rental_uris": {"ios": "https://dc.lft.to/lastmile_qr_scan", "android": "https://dc.lft.to/lastmile_qr_scan"}}, {"name": "8c75183dc622e68406a3c66909361540", "type": "electric_bike", "lat": 38.99229166666667, "is_reserved": 0, "lon": -76.87819066666667, "fusion_lon": 0.0, "is_disabled": 0, "fusion_lat": 0.0, "bike_id": "8c75183dc622e68406a3c66909361540", "rental_uris": {"ios": "https://dc.lft.to/lastmile_qr_scan", "android": "https://dc.lft.to/lastmile_qr_scan"}}, {"name": "ccb1e51cb9cd41519aa7bb2bc5abe9dc", "type": "electric_scooter", "lat": 38.902775166666665, "is_reserved": 0, "lon": -77.06107833333333, "fusion_lon": 0.0, "is_disabled": 0, "fusion_lat": 0.0, "bike_id": "ccb1e51cb9cd41519aa7bb2bc5abe9dc", "rental_uris": {"ios": "https://dc.lft.to/lastmile_qr_scan", "android": "https://dc.lft.to/lastmile_qr_scan"}}, {"name": "22dd27a33955ef05330b98631216f1a8", "type": "electric_bike", "lat": 38.922115166666664, "is_reserved": 0, "lon": -76.98832533333334, "fusion_lon": 0.0, "is_disabled": 0, "fusion_lat": 0.0, "bike_id": "22dd27a33955ef05330b98631216f1a8", "rental_uris": {"ios": "https://dc.lft.to/lastmile_qr_scan", "android": "https://dc.lft.to/lastmile_qr_scan"}}, {"name": "8acde93afabfddaf149bf1d553b75c2e", "type": "electric_bike", "lat": 38.969122666666664, "is_reserved": 0, "lon": -76.956418, "fusion_lon": 0.0, "is_disabled": 0, "fusion_lat": 0.0, "bike_id": "8acde93afabfddaf149bf1d553b75c2e", "rental_uris": {"ios": "https://dc.lft.to/lastmile_qr_scan", "android": "https://dc.lft.to/lastmile_qr_scan"}}, {"name": "3adcee5e0bdc9f4c0b2e0ccb72c61964", "type": "electric_scooter", "lat": 38.93112966666666, "is_reserved": 0, "lon": -77.0240655, "fusion_lon": 0.0, "is_disabled": 0, "fusion_lat": 0.0, "bike_id": "3adcee5e0bdc9f4c0b2e0ccb72c61964", "rental_uris": {"ios": "https://dc.lft.to/lastmile_qr_scan", "android": "https://dc.lft.to/lastmile_qr_scan"}}, {"name": "e854da2390857bf0843cfee4fceb49f0", "type": "electric_scooter", "lat": 38.885098166666666, "is_reserved": 0, "lon": -77.03356883333333, "fusion_lon": 0.0, "is_disabled": 0, "fusion_lat": 0.0, "bike_id": "e854da2390857bf0843cfee4fceb49f0", "rental_uris": {"ios": "https://dc.lft.to/lastmile_qr_scan", "android": "https://dc.lft.to/lastmile_qr_scan"}}, {"name": "179b49749d4ba78d110a2445d93bdc15", "type": "electric_bike", "lat": 38.88272633333333, "is_reserved": 0, "lon": -76.99935533333333, "fusion_lon": 0.0, "is_disabled": 0, "fusion_lat": 0.0, "bike_id": "179b49749d4ba78d110a2445d93bdc15", "rental_uris": {"ios": "https://dc.lft.to/lastmile_qr_scan", "android": "https://dc.lft.to/lastmile_qr_scan"}}, {"name": "fe17db2a2852deb7a1e867dff93e5dba", "type": "electric_scooter", "lat": 38.91787933333333, "is_reserved": 0, "lon": -77.022961, "fusion_lon": 0.0, "is_disabled": 0, "fusion_lat": 0.0, "bike_id": "fe17db2a2852deb7a1e867dff93e5dba", "rental_uris": {"ios": "https://dc.lft.to/lastmile_qr_scan", "android": "https://dc.lft.to/lastmile_qr_scan"}}, {"name": "2129b54e0f3ee822166047535d67542f", "type": "electric_scooter", "lat": 38.903987666666666, "is_reserved": 0, "lon": -77.018287, "fusion_lon": 0.0, "is_disabled": 0, "fusion_lat": 0.0, "bike_id": "2129b54e0f3ee822166047535d67542f", "rental_uris": {"ios": "https://dc.lft.to/lastmile_qr_scan", "android": "https://dc.lft.to/lastmile_qr_scan"}}, {"name": "c3e1dd6b4193261c843cca5edef9efff", "type": "electric_scooter", "lat": 38.90558383333333, "is_reserved": 0, "lon": -77.04390783333334, "fusion_lon": 0.0, "is_disabled": 0, "fusion_lat": 0.0, "bike_id": "c3e1dd6b4193261c843cca5edef9efff", "rental_uris": {"ios": "https://dc.lft.to/lastmile_qr_scan", "android": "https://dc.lft.to/lastmile_qr_scan"}}, {"name": "7fe0b7edbdfc7f98b91613f3e6a318ae", "type": "electric_scooter", "lat": 38.920183, "is_reserved": 0, "lon": -77.0386655, "fusion_lon": 0.0, "is_disabled": 0, "fusion_lat": 0.0, "bike_id": "7fe0b7edbdfc7f98b91613f3e6a318ae", "rental_uris": {"ios": "https://dc.lft.to/lastmile_qr_scan", "android": "https://dc.lft.to/lastmile_qr_scan"}}, {"name": "2683d36f53ef2df875c2b5e7202ef731", "type": "electric_scooter", "lat": 38.940153333333335, "is_reserved": 0, "lon": -77.0717165, "fusion_lon": 0.0, "is_disabled": 0, "fusion_lat": 0.0, "bike_id": "2683d36f53ef2df875c2b5e7202ef731", "rental_uris": {"ios": "https://dc.lft.to/lastmile_qr_scan", "android": "https://dc.lft.to/lastmile_qr_scan"}}, {"name": "b456027bcb3055a8e6d671acfdc50679", "type": "electric_scooter", "lat": 38.8799915, "is_reserved": 0, "lon": -76.9853965, "fusion_lon": 0.0, "is_disabled": 0, "fusion_lat": 0.0, "bike_id": "b456027bcb3055a8e6d671acfdc50679", "rental_uris": {"ios": "https://dc.lft.to/lastmile_qr_scan", "android": "https://dc.lft.to/lastmile_qr_scan"}}, {"name": "45f53ef1be92e8dd35023e57d0a20c94", "type": "electric_scooter", "lat": 38.93173916666667, "is_reserved": 0, "lon": -77.02849333333333, "fusion_lon": 0.0, "is_disabled": 0, "fusion_lat": 0.0, "bike_id": "45f53ef1be92e8dd35023e57d0a20c94", "rental_uris": {"ios": "https://dc.lft.to/lastmile_qr_scan", "android": "https://dc.lft.to/lastmile_qr_scan"}}, {"name": "d15a84f1be17cac8d18cfa9c12983000", "type": "electric_scooter", "lat": 38.90339216666667, "is_reserved": 0, "lon": -76.97562866666667, "fusion_lon": 0.0, "is_disabled": 0, "fusion_lat": 0.0, "bike_id": "d15a84f1be17cac8d18cfa9c12983000", "rental_uris": {"ios": "https://dc.lft.to/lastmile_qr_scan", "android": "https://dc.lft.to/lastmile_qr_scan"}}, {"name": "b905eaa5404559699dd71c8ac1647eca", "type": "electric_scooter", "lat": 38.904082, "is_reserved": 0, "lon": -76.97330116666667, "fusion_lon": 0.0, "is_disabled": 0, "fusion_lat": 0.0, "bike_id": "b905eaa5404559699dd71c8ac1647eca", "rental_uris": {"ios": "https://dc.lft.to/lastmile_qr_scan", "android": "https://dc.lft.to/lastmile_qr_scan"}}, {"name": "b6602e2f18627c642acc3ff9427f4b61", "type": "electric_scooter", "lat": 38.920505666666664, "is_reserved": 0, "lon": -77.0242505, "fusion_lon": 0.0, "is_disabled": 0, "fusion_lat": 0.0, "bike_id": "b6602e2f18627c642acc3ff9427f4b61", "rental_uris": {"ios": "https://dc.lft.to/lastmile_qr_scan", "android": "https://dc.lft.to/lastmile_qr_scan"}}, {"name": "5b1f38f0419e1e824f7361f6340ee452", "type": "electric_bike", "lat": 38.858539666666665, "is_reserved": 0, "lon": -77.09750816666667, "fusion_lon": 0.0, "is_disabled": 0, "fusion_lat": 0.0, "bike_id": "5b1f38f0419e1e824f7361f6340ee452", "rental_uris": {"ios": "https://dc.lft.to/lastmile_qr_scan", "android": "https://dc.lft.to/lastmile_qr_scan"}}, {"name": "561589aca17606fc71bdad100b6c05f2", "type": "electric_scooter", "lat": 38.911086, "is_reserved": 0, "lon": -77.0139085, "fusion_lon": 0.0, "is_disabled": 0, "fusion_lat": 0.0, "bike_id": "561589aca17606fc71bdad100b6c05f2", "rental_uris": {"ios": "https://dc.lft.to/lastmile_qr_scan", "android": "https://dc.lft.to/lastmile_qr_scan"}}, {"name": "1a099a8ed93db4d8b30ae3ebbd568426", "type": "electric_scooter", "lat": 38.912712, "is_reserved": 0, "lon": -77.031436, "fusion_lon": 0.0, "is_disabled": 0, "fusion_lat": 0.0, "bike_id": "1a099a8ed93db4d8b30ae3ebbd568426", "rental_uris": {"ios": "https://dc.lft.to/lastmile_qr_scan", "android": "https://dc.lft.to/lastmile_qr_scan"}}, {"name": "21ea285e531158ebe63b40e7ebb8ab38", "type": "electric_scooter", "lat": 38.890526333333334, "is_reserved": 0, "lon": -76.9822585, "fusion_lon": 0.0, "is_disabled": 0, "fusion_lat": 0.0, "bike_id": "21ea285e531158ebe63b40e7ebb8ab38", "rental_uris": {"ios": "https://dc.lft.to/lastmile_qr_scan", "android": "https://dc.lft.to/lastmile_qr_scan"}}, {"name": "3ce2a16712ba9ab3033ea337a885d92f", "type": "electric_scooter", "lat": 38.865233333333336, "is_reserved": 0, "lon": -76.99028566666667, "fusion_lon": 0.0, "is_disabled": 0, "fusion_lat": 0.0, "bike_id": "3ce2a16712ba9ab3033ea337a885d92f", "rental_uris": {"ios": "https://dc.lft.to/lastmile_qr_scan", "android": "https://dc.lft.to/lastmile_qr_scan"}}, {"name": "c4d4187f2c1b352d22a2da584facd8c3", "type": "electric_scooter", "lat": 38.86373783333333, "is_reserved": 0, "lon": -76.99060416666667, "fusion_lon": 0.0, "is_disabled": 0, "fusion_lat": 0.0, "bike_id": "c4d4187f2c1b352d22a2da584facd8c3", "rental_uris": {"ios": "https://dc.lft.to/lastmile_qr_scan", "android": "https://dc.lft.to/lastmile_qr_scan"}}, {"name": "b9ffef22ec859456309c53078183cdd2", "type": "electric_scooter", "lat": 38.912802, "is_reserved": 0, "lon": -77.03899116666666, "fusion_lon": 0.0, "is_disabled": 0, "fusion_lat": 0.0, "bike_id": "b9ffef22ec859456309c53078183cdd2", "rental_uris": {"ios": "https://dc.lft.to/lastmile_qr_scan", "android": "https://dc.lft.to/lastmile_qr_scan"}}, {"name": "3da13d6c0024225b66c897b9889d0ee4", "type": "electric_scooter", "lat": 38.86663866666667, "is_reserved": 0, "lon": -76.98883333333333, "fusion_lon": 0.0, "is_disabled": 0, "fusion_lat": 0.0, "bike_id": "3da13d6c0024225b66c897b9889d0ee4", "rental_uris": {"ios": "https://dc.lft.to/lastmile_qr_scan", "android": "https://dc.lft.to/lastmile_qr_scan"}}, {"name": "61c6d4cf260336fa9f57b14513782dc9", "type": "electric_scooter", "lat": 38.893949166666665, "is_reserved": 0, "lon": -77.02991883333333, "fusion_lon": 0.0, "is_disabled": 0, "fusion_lat": 0.0, "bike_id": "61c6d4cf260336fa9f57b14513782dc9", "rental_uris": {"ios": "https://dc.lft.to/lastmile_qr_scan", "android": "https://dc.lft.to/lastmile_qr_scan"}}, {"name": "bde883ddf63d756e731bc494e44b9baa", "type": "electric_scooter", "lat": 38.92148916666667, "is_reserved": 0, "lon": -77.03386766666667, "fusion_lon": 0.0, "is_disabled": 0, "fusion_lat": 0.0, "bike_id": "bde883ddf63d756e731bc494e44b9baa", "rental_uris": {"ios": "https://dc.lft.to/lastmile_qr_scan", "android": "https://dc.lft.to/lastmile_qr_scan"}}, {"name": "6f77bb703611dd4d710e1b967ca75ccc", "type": "electric_bike", "lat": 38.952579666666665, "is_reserved": 0, "lon": -77.06993266666667, "fusion_lon": 0.0, "is_disabled": 0, "fusion_lat": 0.0, "bike_id": "6f77bb703611dd4d710e1b967ca75ccc", "rental_uris": {"ios": "https://dc.lft.to/lastmile_qr_scan", "android": "https://dc.lft.to/lastmile_qr_scan"}}, {"name": "23adbb50b7d94ec8ae9527b0cbd4dec5", "type": "electric_scooter", "lat": 38.911195166666666, "is_reserved": 0, "lon": -77.03849066666666, "fusion_lon": 0.0, "is_disabled": 0, "fusion_lat": 0.0, "bike_id": "23adbb50b7d94ec8ae9527b0cbd4dec5", "rental_uris": {"ios": "https://dc.lft.to/lastmile_qr_scan", "android": "https://dc.lft.to/lastmile_qr_scan"}}, {"name": "e94eb01620cc67c98d5589ef2ce4d26c", "type": "electric_scooter", "lat": 38.90596883333333, "is_reserved": 0, "lon": -77.02955066666667, "fusion_lon": 0.0, "is_disabled": 0, "fusion_lat": 0.0, "bike_id": "e94eb01620cc67c98d5589ef2ce4d26c", "rental_uris": {"ios": "https://dc.lft.to/lastmile_qr_scan", "android": "https://dc.lft.to/lastmile_qr_scan"}}, {"name": "9e8310d9f76912e13edaa9102d808f32", "type": "electric_scooter", "lat": 38.898166, "is_reserved": 0, "lon": -77.0328955, "fusion_lon": 0.0, "is_disabled": 0, "fusion_lat": 0.0, "bike_id": "9e8310d9f76912e13edaa9102d808f32", "rental_uris": {"ios": "https://dc.lft.to/lastmile_qr_scan", "android": "https://dc.lft.to/lastmile_qr_scan"}}, {"name": "bf957fa71cfce1652b830b185c21bd08", "type": "electric_scooter", "lat": 38.90952516666667, "is_reserved": 0, "lon": -77.04321183333333, "fusion_lon": 0.0, "is_disabled": 0, "fusion_lat": 0.0, "bike_id": "bf957fa71cfce1652b830b185c21bd08", "rental_uris": {"ios": "https://dc.lft.to/lastmile_qr_scan", "android": "https://dc.lft.to/lastmile_qr_scan"}}, {"name": "87626ab06f7399497f7fe238b3e886ad", "type": "electric_bike", "lat": 38.83236616666667, "is_reserved": 0, "lon": -76.94621316666667, "fusion_lon": 0.0, "is_disabled": 0, "fusion_lat": 0.0, "bike_id": "87626ab06f7399497f7fe238b3e886ad", "rental_uris": {"ios": "https://dc.lft.to/lastmile_qr_scan", "android": "https://dc.lft.to/lastmile_qr_scan"}}, {"name": "1db888494fdbc4992d540d4e89b2f8d9", "type": "electric_scooter", "lat": 38.92994433333333, "is_reserved": 0, "lon": -77.07948333333333, "fusion_lon": 0.0, "is_disabled": 0, "fusion_lat": 0.0, "bike_id": "1db888494fdbc4992d540d4e89b2f8d9", "rental_uris": {"ios": "https://dc.lft.to/lastmile_qr_scan", "android": "https://dc.lft.to/lastmile_qr_scan"}}, {"name": "f90bf5f0d946a0de26dba08c12dda7c4", "type": "electric_scooter", "lat": 38.9311155, "is_reserved": 0, "lon": -77.03809066666666, "fusion_lon": 0.0, "is_disabled": 0, "fusion_lat": 0.0, "bike_id": "f90bf5f0d946a0de26dba08c12dda7c4", "rental_uris": {"ios": "https://dc.lft.to/lastmile_qr_scan", "android": "https://dc.lft.to/lastmile_qr_scan"}}, {"name": "b71a086dbb01ce5b63d780e7ccb2b2e6", "type": "electric_scooter", "lat": 38.9396355, "is_reserved": 0, "lon": -77.02749933333334, "fusion_lon": 0.0, "is_disabled": 0, "fusion_lat": 0.0, "bike_id": "b71a086dbb01ce5b63d780e7ccb2b2e6", "rental_uris": {"ios": "https://dc.lft.to/lastmile_qr_scan", "android": "https://dc.lft.to/lastmile_qr_scan"}}, {"name": "a3e92a191d6f6f7b149e9ade0a9a70a6", "type": "electric_scooter", "lat": 38.914742833333335, "is_reserved": 0, "lon": -77.00834683333333, "fusion_lon": 0.0, "is_disabled": 0, "fusion_lat": 0.0, "bike_id": "a3e92a191d6f6f7b149e9ade0a9a70a6", "rental_uris": {"ios": "https://dc.lft.to/lastmile_qr_scan", "android": "https://dc.lft.to/lastmile_qr_scan"}}, {"name": "f102508a1784fd9647af2e0f1b8d2dbc", "type": "electric_scooter", "lat": 38.91492483333333, "is_reserved": 0, "lon": -77.02196216666667, "fusion_lon": 0.0, "is_disabled": 0, "fusion_lat": 0.0, "bike_id": "f102508a1784fd9647af2e0f1b8d2dbc", "rental_uris": {"ios": "https://dc.lft.to/lastmile_qr_scan", "android": "https://dc.lft.to/lastmile_qr_scan"}}, {"name": "04f7d4948d8bc23036cdbb653cf15489", "type": "electric_scooter", "lat": 38.9156105, "is_reserved": 0, "lon": -77.0294065, "fusion_lon": 0.0, "is_disabled": 0, "fusion_lat": 0.0, "bike_id": "04f7d4948d8bc23036cdbb653cf15489", "rental_uris": {"ios": "https://dc.lft.to/lastmile_qr_scan", "android": "https://dc.lft.to/lastmile_qr_scan"}}, {"name": "d44c10cfb884c893b47267e0d2afc6b8", "type": "electric_scooter", "lat": 38.8989295, "is_reserved": 0, "lon": -77.03282816666666, "fusion_lon": 0.0, "is_disabled": 0, "fusion_lat": 0.0, "bike_id": "d44c10cfb884c893b47267e0d2afc6b8", "rental_uris": {"ios": "https://dc.lft.to/lastmile_qr_scan", "android": "https://dc.lft.to/lastmile_qr_scan"}}, {"name": "e1fa774a93b0857e7018a32eb387123b", "type": "electric_scooter", "lat": 38.88493033333334, "is_reserved": 0, "lon": -76.99846166666667, "fusion_lon": 0.0, "is_disabled": 0, "fusion_lat": 0.0, "bike_id": "e1fa774a93b0857e7018a32eb387123b", "rental_uris": {"ios": "https://dc.lft.to/lastmile_qr_scan", "android": "https://dc.lft.to/lastmile_qr_scan"}}, {"name": "42da515ccb6b100284eaa059d074b90b", "type": "electric_scooter", "lat": 38.911210833333335, "is_reserved": 0, "lon": -77.04368916666667, "fusion_lon": 0.0, "is_disabled": 0, "fusion_lat": 0.0, "bike_id": "42da515ccb6b100284eaa059d074b90b", "rental_uris": {"ios": "https://dc.lft.to/lastmile_qr_scan", "android": "https://dc.lft.to/lastmile_qr_scan"}}, {"name": "d2c3065687418b8148aa285fedbf14ed", "type": "electric_scooter", "lat": 38.9288205, "is_reserved": 0, "lon": -77.03219966666667, "fusion_lon": 0.0, "is_disabled": 0, "fusion_lat": 0.0, "bike_id": "d2c3065687418b8148aa285fedbf14ed", "rental_uris": {"ios": "https://dc.lft.to/lastmile_qr_scan", "android": "https://dc.lft.to/lastmile_qr_scan"}}, {"name": "c09aebb5fd452bad55d13b8d2d24f65d", "type": "electric_scooter", "lat": 38.92487933333334, "is_reserved": 0, "lon": -77.0522045, "fusion_lon": 0.0, "is_disabled": 0, "fusion_lat": 0.0, "bike_id": "c09aebb5fd452bad55d13b8d2d24f65d", "rental_uris": {"ios": "https://dc.lft.to/lastmile_qr_scan", "android": "https://dc.lft.to/lastmile_qr_scan"}}, {"name": "cc9c9d554bd18778c10e797c8cb47c41", "type": "electric_bike", "lat": 38.908978833333336, "is_reserved": 0, "lon": -77.04490083333333, "fusion_lon": 0.0, "is_disabled": 0, "fusion_lat": 0.0, "bike_id": "cc9c9d554bd18778c10e797c8cb47c41", "rental_uris": {"ios": "https://dc.lft.to/lastmile_qr_scan", "android": "https://dc.lft.to/lastmile_qr_scan"}}, {"name": "cbc7a61eb7ada7c9c6233fab1530a51a", "type": "electric_scooter", "lat": 38.941849, "is_reserved": 0, "lon": -77.03027433333334, "fusion_lon": 0.0, "is_disabled": 0, "fusion_lat": 0.0, "bike_id": "cbc7a61eb7ada7c9c6233fab1530a51a", "rental_uris": {"ios": "https://dc.lft.to/lastmile_qr_scan", "android": "https://dc.lft.to/lastmile_qr_scan"}}, {"name": "96d625cbb6cadf57a552a31473f759b1", "type": "electric_bike", "lat": 39.058095333333334, "is_reserved": 0, "lon": -77.12625916666667, "fusion_lon": 0.0, "is_disabled": 0, "fusion_lat": 0.0, "bike_id": "96d625cbb6cadf57a552a31473f759b1", "rental_uris": {"ios": "https://dc.lft.to/lastmile_qr_scan", "android": "https://dc.lft.to/lastmile_qr_scan"}}, {"name": "a735b97e6b982a3c329d5d4fcc21ef6e", "type": "electric_scooter", "lat": 38.8901565, "is_reserved": 0, "lon": -76.9373065, "fusion_lon": 0.0, "is_disabled": 0, "fusion_lat": 0.0, "bike_id": "a735b97e6b982a3c329d5d4fcc21ef6e", "rental_uris": {"ios": "https://dc.lft.to/lastmile_qr_scan", "android": "https://dc.lft.to/lastmile_qr_scan"}}, {"name": "67fb190b421f0eab9ca92d7c6de0bff6", "type": "electric_bike", "lat": 38.8461555, "is_reserved": 0, "lon": -76.97830016666667, "fusion_lon": 0.0, "is_disabled": 0, "fusion_lat": 0.0, "bike_id": "67fb190b421f0eab9ca92d7c6de0bff6", "rental_uris": {"ios": "https://dc.lft.to/lastmile_qr_scan", "android": "https://dc.lft.to/lastmile_qr_scan"}}, {"name": "2590e5b6bf6a512390edf7f223e003f0", "type": "electric_scooter", "lat": 38.93456416666667, "is_reserved": 0, "lon": -77.03049416666667, "fusion_lon": 0.0, "is_disabled": 0, "fusion_lat": 0.0, "bike_id": "2590e5b6bf6a512390edf7f223e003f0", "rental_uris": {"ios": "https://dc.lft.to/lastmile_qr_scan", "android": "https://dc.lft.to/lastmile_qr_scan"}}, {"name": "25956ed890c07fd86a2ca948c3fb0dae", "type": "electric_bike", "lat": 38.952898833333336, "is_reserved": 0, "lon": -76.97805066666666, "fusion_lon": 0.0, "is_disabled": 0, "fusion_lat": 0.0, "bike_id": "25956ed890c07fd86a2ca948c3fb0dae", "rental_uris": {"ios": "https://dc.lft.to/lastmile_qr_scan", "android": "https://dc.lft.to/lastmile_qr_scan"}}, {"name": "3acad5fdd45f91897d90752abf77ce48", "type": "electric_scooter", "lat": 38.86524283333333, "is_reserved": 0, "lon": -76.9902785, "fusion_lon": 0.0, "is_disabled": 0, "fusion_lat": 0.0, "bike_id": "3acad5fdd45f91897d90752abf77ce48", "rental_uris": {"ios": "https://dc.lft.to/lastmile_qr_scan", "android": "https://dc.lft.to/lastmile_qr_scan"}}, {"name": "ddb6c935387e4d8768e1835e9a02e8ee", "type": "electric_scooter", "lat": 38.89455783333333, "is_reserved": 0, "lon": -77.01918833333333, "fusion_lon": 0.0, "is_disabled": 0, "fusion_lat": 0.0, "bike_id": "ddb6c935387e4d8768e1835e9a02e8ee", "rental_uris": {"ios": "https://dc.lft.to/lastmile_qr_scan", "android": "https://dc.lft.to/lastmile_qr_scan"}}, {"name": "98f09a9b2dbfa1be6aa0ffea573cf70a", "type": "electric_scooter", "lat": 38.886906833333335, "is_reserved": 0, "lon": -76.95761966666667, "fusion_lon": 0.0, "is_disabled": 0, "fusion_lat": 0.0, "bike_id": "98f09a9b2dbfa1be6aa0ffea573cf70a", "rental_uris": {"ios": "https://dc.lft.to/lastmile_qr_scan", "android": "https://dc.lft.to/lastmile_qr_scan"}}, {"name": "e45fb85adedabf0cdcf653b7e58ea54d", "type": "electric_bike", "lat": 38.838210333333336, "is_reserved": 0, "lon": -76.9967165, "fusion_lon": 0.0, "is_disabled": 0, "fusion_lat": 0.0, "bike_id": "e45fb85adedabf0cdcf653b7e58ea54d", "rental_uris": {"ios": "https://dc.lft.to/lastmile_qr_scan", "android": "https://dc.lft.to/lastmile_qr_scan"}}, {"name": "d6ef51e5ccb7ccb46b57c0b651ffe181", "type": "electric_scooter", "lat": 38.89741383333333, "is_reserved": 0, "lon": -76.938437, "fusion_lon": 0.0, "is_disabled": 0, "fusion_lat": 0.0, "bike_id": "d6ef51e5ccb7ccb46b57c0b651ffe181", "rental_uris": {"ios": "https://dc.lft.to/lastmile_qr_scan", "android": "https://dc.lft.to/lastmile_qr_scan"}}, {"name": "f4ec0a745f47b1f5b4f9f50bb247835d", "type": "electric_scooter", "lat": 38.921587833333334, "is_reserved": 0, "lon": -77.0422635, "fusion_lon": 0.0, "is_disabled": 0, "fusion_lat": 0.0, "bike_id": "f4ec0a745f47b1f5b4f9f50bb247835d", "rental_uris": {"ios": "https://dc.lft.to/lastmile_qr_scan", "android": "https://dc.lft.to/lastmile_qr_scan"}}, {"name": "0a12a0fa078174f41f246a5a8ec4df90", "type": "electric_scooter", "lat": 38.9058185, "is_reserved": 0, "lon": -77.0652275, "fusion_lon": 0.0, "is_disabled": 0, "fusion_lat": 0.0, "bike_id": "0a12a0fa078174f41f246a5a8ec4df90", "rental_uris": {"ios": "https://dc.lft.to/lastmile_qr_scan", "android": "https://dc.lft.to/lastmile_qr_scan"}}, {"name": "5ba9069eeac591d4f6eba437a8e34233", "type": "electric_scooter", "lat": 38.89483033333333, "is_reserved": 0, "lon": -76.99517166666666, "fusion_lon": 0.0, "is_disabled": 0, "fusion_lat": 0.0, "bike_id": "5ba9069eeac591d4f6eba437a8e34233", "rental_uris": {"ios": "https://dc.lft.to/lastmile_qr_scan", "android": "https://dc.lft.to/lastmile_qr_scan"}}, {"name": "35ab15a081723d040df3c7517c1f50a1", "type": "electric_bike", "lat": 38.888433, "is_reserved": 0, "lon": -77.0826815, "fusion_lon": 0.0, "is_disabled": 0, "fusion_lat": 0.0, "bike_id": "35ab15a081723d040df3c7517c1f50a1", "rental_uris": {"ios": "https://dc.lft.to/lastmile_qr_scan", "android": "https://dc.lft.to/lastmile_qr_scan"}}, {"name": "3d2be59b7a4fa81801dbfd606e35d695", "type": "electric_scooter", "lat": 38.89238683333333, "is_reserved": 0, "lon": -77.0153135, "fusion_lon": 0.0, "is_disabled": 0, "fusion_lat": 0.0, "bike_id": "3d2be59b7a4fa81801dbfd606e35d695", "rental_uris": {"ios": "https://dc.lft.to/lastmile_qr_scan", "android": "https://dc.lft.to/lastmile_qr_scan"}}, {"name": "70023df8a07321313c7c91cb0a4e0fff", "type": "electric_scooter", "lat": 38.932903333333336, "is_reserved": 0, "lon": -77.03982733333333, "fusion_lon": 0.0, "is_disabled": 0, "fusion_lat": 0.0, "bike_id": "70023df8a07321313c7c91cb0a4e0fff", "rental_uris": {"ios": "https://dc.lft.to/lastmile_qr_scan", "android": "https://dc.lft.to/lastmile_qr_scan"}}, {"name": "3a2b291cf07b265f87d865a777775af9", "type": "electric_scooter", "lat": 38.912708333333335, "is_reserved": 0, "lon": -77.02942816666666, "fusion_lon": 0.0, "is_disabled": 0, "fusion_lat": 0.0, "bike_id": "3a2b291cf07b265f87d865a777775af9", "rental_uris": {"ios": "https://dc.lft.to/lastmile_qr_scan", "android": "https://dc.lft.to/lastmile_qr_scan"}},