{"data": {"bikes": [{"rental_uris": {"ios": "https://dc.lft.to/lastmile_qr_scan", "android": "https://dc.lft.to/lastmile_qr_scan"}, "lon": -77.04168266666667, "type": "electric_scooter", "fusion_lat": 0.0, "lat": 38.91421183333333, "name": "063c34a4256c751c1e8e4d01d236d6ab", "fusion_lon": 0.0, "bike_id": "063c34a4256c751c1e8e4d01d236d6ab", "is_disabled": 0, "is_reserved": 0}, {"rental_uris": {"ios": "https://dc.lft.to/lastmile_qr_scan", "android": "https://dc.lft.to/lastmile_qr_scan"}, "lon": -77.03080383333334, "type": "electric_scooter", "fusion_lat": 0.0, "lat": 38.9224245, "name": "9ad10e49754d88934f5463f8e6a7413d", "fusion_lon": 0.0, "bike_id": "9ad10e49754d88934f5463f8e6a7413d", "is_disabled": 0, "is_reserved": 0}, {"rental_uris": {"ios": "https://dc.lft.to/lastmile_qr_scan", "android": "https://dc.lft.to/lastmile_qr_scan"}, "lon": -77.038983, "type": "electric_scooter", "fusion_lat": 0.0, "lat": 38.9233465, "name": "372a3868999c9ef49e4208bb62345962", "fusion_lon": 0.0, "bike_id": "372a3868999c9ef49e4208bb62345962", "is_disabled": 0, "is_reserved": 0}, {"rental_uris": {"ios": "https://dc.lft.to/lastmile_qr_scan", "android": "https://dc.lft.to/lastmile_qr_scan"}, "lon": -77.03211033333334, "type": "electric_scooter", "fusion_lat": 0.0, "lat": 38.913443666666666, "name": "3b3c29f4fd5ef9e2195c561da257ecb6", "fusion_lon": 0.0, "bike_id": "3b3c29f4fd5ef9e2195c561da257ecb6", "is_disabled": 0, "is_reserved": 0}, {"rental_uris": {"ios": "https://dc.lft.to/lastmile_qr_scan", "android": "https://dc.lft.to/lastmile_qr_scan"}, "lon": -77.12503483333333, "type": "electric_bike", "fusion_lat": 0.0, "lat": 39.024208333333334, "name": "7aa287df4a6593702f7d3c51706e3d70", "fusion_lon": 0.0, "bike_id": "7aa287df4a6593702f7d3c51706e3d70", "is_disabled": 0, "is_reserved": 0}, {"rental_uris": {"ios": "https://dc.lft.to/lastmile_qr_scan", "android": "https://dc.lft.to/lastmile_qr_scan"}, "lon": -77.03656633333334, "type": "electric_scooter", "fusion_lat": 0.0, "lat": 38.930731, "name": "44feb1513b92e13f8f38ef3777feaaa2", "fusion_lon": 0.0, "bike_id": "44feb1513b92e13f8f38ef3777feaaa2", "is_disabled": 0, "is_reserved": 0}, {"rental_uris": {"ios": "https://dc.lft.to/lastmile_qr_scan", "android": "https://dc.lft.to/lastmile_qr_scan"}, "lon": -77.02602666666667, "type": "electric_scooter", "fusion_lat": 0.0, "lat": 38.90357733333333, "name": "26be6f266b04c39d63c2e3e2a3646d86", "fusion_lon": 0.0, "bike_id": "26be6f266b04c39d63c2e3e2a3646d86", "is_disabled": 0, "is_reserved": 0}, {"rental_uris": {"ios": "https://dc.lft.to/lastmile_qr_scan", "android": "https://dc.lft.to/lastmile_qr_scan"}, "lon": -77.02338716666667, "type": "electric_scooter", "fusion_lat": 0.0, "lat": 38.9621035, "name": "65e1848f4f10c08c6148ba0f199a8163", "fusion_lon": 0.0, "bike_id": "65e1848f4f10c08c6148ba0f199a8163", "is_disabled": 0, "is_reserved": 0}, {"rental_uris": {"ios": "https://dc.lft.to/lastmile_qr_scan", "android": "https://dc.lft.to/lastmile_qr_scan"}, "lon": -77.00589833333333, "type": "electric_scooter", "fusion_lat": 0.0, "lat": 38.91563883333333, "name": "6ca5bcddd8123be78fe38715e48733ca", "fusion_lon": 0.0, "bike_id": "6ca5bcddd8123be78fe38715e48733ca", "is_disabled": 0, "is_reserved": 0}, {"rental_uris": {"ios": "https://dc.lft.to/lastmile_qr_scan", "android": "https://dc.lft.to/lastmile_qr_scan"}, "lon": -77.04390516666666, "type": "electric_scooter", "fusion_lat": 0.0, "lat": 38.92941416666667, "name": "89f480d6c112d6237cac9414a0f8cad2", "fusion_lon": 0.0, "bike_id": "89f480d6c112d6237cac9414a0f8cad2", "is_disabled": 0, "is_reserved": 0}, {"rental_uris": {"ios": "https://dc.lft.to/lastmile_qr_scan", "android": "https://dc.lft.to/lastmile_qr_scan"}, "lon": -77.22212966666666, "type": "electric_bike", "fusion_lat": 0.0, "lat": 38.92082166666667, "name": "ba48855bff8503b17fb2787873dd2ece", "fusion_lon": 0.0, "bike_id": "ba48855bff8503b17fb2787873dd2ece", "is_disabled": 0, "is_reserved": 0}, {"rental_uris": {"ios": "https://dc.lft.to/lastmile_qr_scan", "android": "https://dc.lft.to/lastmile_qr_scan"}, "lon": -77.042103, "type": "electric_scooter", "fusion_lat": 0.0, "lat": 38.9075775, "name": "5222ec531aaac9ed12899a2986e23e9d", "fusion_lon": 0.0, "bike_id": "5222ec531aaac9ed12899a2986e23e9d", "is_disabled": 0, "is_reserved": 0}, {"rental_uris": {"ios": "https://dc.lft.to/lastmile_qr_scan", "android": "https://dc.lft.to/lastmile_qr_scan"}, "lon": -77.02873283333334, "type": "electric_scooter", "fusion_lat": 0.0, "lat": 38.950792666666665, "name": "d215f64450e7837eb07747dec4839807", "fusion_lon": 0.0, "bike_id": "d215f64450e7837eb07747dec4839807", "is_disabled": 0, "is_reserved": 0}, {"rental_uris": {"ios": "https://dc.lft.to/lastmile_qr_scan", "android": "https://dc.lft.to/lastmile_qr_scan"}, "lon": -77.0552495, "type": "electric_scooter", "fusion_lat": 0.0, "lat": 38.89939583333334, "name": "2bfe72ffc3ba9dba693d59d735846494", "fusion_lon": 0.0, "bike_id": "2bfe72ffc3ba9dba693d59d735846494", "is_disabled": 0, "is_reserved": 0}, {"rental_uris": {"ios": "https://dc.lft.to/lastmile_qr_scan", "android": "https://dc.lft.to/lastmile_qr_scan"}, "lon": -77.03082566666667, "type": "electric_scooter", "fusion_lat": 0.0, "lat": 38.900236666666665, "name": "c4139dccd5f04103f6db003c5f689133", "fusion_lon": 0.0, "bike_id": "c4139dccd5f04103f6db003c5f689133", "is_disabled": 0, "is_reserved": 0}, {"rental_uris": {"ios": "https://dc.lft.to/lastmile_qr_scan", "android": "https://dc.lft.to/lastmile_qr_scan"}, "lon": -77.10511166666667, "type": "electric_bike", "fusion_lat": 0.0, "lat": 38.92854233333333, "name": "aa2c28986bfebcbec2c45527924f33d4", "fusion_lon": 0.0, "bike_id": "aa2c28986bfebcbec2c45527924f33d4", "is_disabled": 0, "is_reserved": 0}, {"rental_uris": {"ios": "https://dc.lft.to/lastmile_qr_scan", "android": "https://dc.lft.to/lastmile_qr_scan"}, "lon": -77.04469283333333, "type": "electric_scooter", "fusion_lat": 0.0, "lat": 38.91574383333333, "name": "3409bfbdcb701c10e8143ceec11f5724", "fusion_lon": 0.0, "bike_id": "3409bfbdcb701c10e8143ceec11f5724", "is_disabled": 0, "is_reserved": 0}, {"rental_uris": {"ios": "https://dc.lft.to/lastmile_qr_scan", "android": "https://dc.lft.to/lastmile_qr_scan"}, "lon": -77.08967883333334, "type": "electric_bike", "fusion_lat": 0.0, "lat": 38.841230833333334, "name": "6f3f332ff0e98c80ba36c4101365df8d", "fusion_lon": 0.0, "bike_id": "6f3f332ff0e98c80ba36c4101365df8d", "is_disabled": 0, "is_reserved": 0}, {"rental_uris": {"ios": "https://dc.lft.to/lastmile_qr_scan", "android": "https://dc.lft.to/lastmile_qr_scan"}, "lon": -77.00659183333333, "type": "electric_scooter", "fusion_lat": 0.0, "lat": 38.944631333333334, "name": "94fa2636a00b4b891e73a1b667a634e8", "fusion_lon": 0.0, "bike_id": "94fa2636a00b4b891e73a1b667a634e8", "is_disabled": 0, "is_reserved": 0}, {"rental_uris": {"ios": "https://dc.lft.to/lastmile_qr_scan", "android": "https://dc.lft.to/lastmile_qr_scan"}, "lon": -76.98402016666667, "type": "electric_scooter", "fusion_lat": 0.0, "lat": 38.8597115, "name": "ff9c37cbf3871f7726c749d1d1b48460", "fusion_lon": 0.0, "bike_id": "ff9c37cbf3871f7726c749d1d1b48460", "is_disabled": 0, "is_reserved": 0}, {"rental_uris": {"ios": "https://dc.lft.to/lastmile_qr_scan", "android": "https://dc.lft.to/lastmile_qr_scan"}, "lon": -77.02211083333333, "type": "electric_scooter", "fusion_lat": 0.0, "lat": 38.887711, "name": "61f3f303173ce8ba1307d222fb79fdda", "fusion_lon": 0.0, "bike_id": "61f3f303173ce8ba1307d222fb79fdda", "is_disabled": 0, "is_reserved": 0}, {"rental_uris": {"ios": "https://dc.lft.to/lastmile_qr_scan", "android": "https://dc.lft.to/lastmile_qr_scan"}, "lon": -77.00277716666666, "type": "electric_scooter", "fusion_lat": 0.0, "lat": 38.897508333333334, "name": "3cd578e133d3ad7b6b09a544ff728df5", "fusion_lon": 0.0, "bike_id": "3cd578e133d3ad7b6b09a544ff728df5", "is_disabled": 0, "is_reserved": 0}, {"rental_uris": {"ios": "https://dc.lft.to/lastmile_qr_scan", "android": "https://dc.lft.to/lastmile_qr_scan"}, "lon": -77.02762433333334, "type": "electric_scooter", "fusion_lat": 0.0, "lat": 38.913451, "name": "e293d537e9401a75d79da67f1b64f81e", "fusion_lon": 0.0, "bike_id": "e293d537e9401a75d79da67f1b64f81e", "is_disabled": 0, "is_reserved": 0}, {"rental_uris": {"ios": "https://dc.lft.to/lastmile_qr_scan", "android": "https://dc.lft.to/lastmile_qr_scan"}, "lon": -76.93173716666666, "type": "electric_scooter", "fusion_lat": 0.0, "lat": 38.89887733333333, "name": "e1bd7ff094ba4b6cedba555407f65a3e", "fusion_lon": 0.0, "bike_id": "e1bd7ff094ba4b6cedba555407f65a3e", "is_disabled": 0, "is_reserved": 0}, {"rental_uris": {"ios": "https://dc.lft.to/lastmile_qr_scan", "android": "https://dc.lft.to/lastmile_qr_scan"}, "lon": -77.045051, "type": "electric_scooter", "fusion_lat": 0.0, "lat": 38.9111355, "name": "753b80276ed1dd607642f9bc11fb2014", "fusion_lon": 0.0, "bike_id": "753b80276ed1dd607642f9bc11fb2014", "is_disabled": 0, "is_reserved": 0}, {"rental_uris": {"ios": "https://dc.lft.to/lastmile_qr_scan", "android": "https://dc.lft.to/lastmile_qr_scan"}, "lon": -77.05144783333333, "type": "electric_scooter", "fusion_lat": 0.0, "lat": 38.90225683333333, "name": "0c98f498ddc309d20963cdbf176e0018", "fusion_lon": 0.0, "bike_id": "0c98f498ddc309d20963cdbf176e0018", "is_disabled": 0, "is_reserved": 0}, {"rental_uris": {"ios": "https://dc.lft.to/lastmile_qr_scan", "android": "https://dc.lft.to/lastmile_qr_scan"}, "lon": -77.03282366666667, "type": "electric_scooter", "fusion_lat": 0.0, "lat": 38.907368, "name": "b36f40ffdc70eb21fb14c6a856555961", "fusion_lon": 0.0, "bike_id": "b36f40ffdc70eb21fb14c6a856555961", "is_disabled": 0, "is_reserved": 0}, {"rental_uris": {"ios": "https://dc.lft.to/lastmile_qr_scan", "android": "https://dc.lft.to/lastmile_qr_scan"}, "lon": -77.098792, "type": "electric_bike", "fusion_lat": 0.0, "lat": 38.94791683333333, "name": "78db368e359d41bad57a93079e1d58e8", "fusion_lon": 0.0, "bike_id": "78db368e359d41bad57a93079e1d58e8", "is_disabled": 0, "is_reserved": 0}, {"rental_uris": {"ios": "https://dc.lft.to/lastmile_qr_scan", "android": "https://dc.lft.to/lastmile_qr_scan"}, "lon": -77.03162533333334, "type": "electric_scooter", "fusion_lat": 0.0, "lat": 38.89392933333333, "name": "c577340093deff3599d06949c68f112b", "fusion_lon": 0.0, "bike_id": "c577340093deff3599d06949c68f112b", "is_disabled": 0, "is_reserved": 0}, {"rental_uris": {"ios": "https://dc.lft.to/lastmile_qr_scan", "android": "https://dc.lft.to/lastmile_qr_scan"}, "lon": -77.047839, "type": "electric_scooter", "fusion_lat": 0.0, "lat": 38.893748, "name": "cc5edf33c4276d57527eadd0b2b6ae7c", "fusion_lon": 0.0, "bike_id": "cc5edf33c4276d57527eadd0b2b6ae7c", "is_disabled": 0, "is_reserved": 0}, {"rental_uris": {"ios": "https://dc.lft.to/lastmile_qr_scan", "android": "https://dc.lft.to/lastmile_qr_scan"}, "lon": -77.02348916666666, "type": "electric_scooter", "fusion_lat": 0.0, "lat": 38.920735, "name": "ad1f1b0f5b57bb3c03b920dc34e595a1", "fusion_lon": 0.0, "bike_id": "ad1f1b0f5b57bb3c03b920dc34e595a1", "is_disabled": 0, "is_reserved": 0}, {"rental_uris": {"ios": "https://dc.lft.to/lastmile_qr_scan", "android": "https://dc.lft.to/lastmile_qr_scan"}, "lon": -76.92371366666667, "type": "electric_bike", "fusion_lat": 0.0, "lat": 38.883773166666664, "name": "7edf2366a9cf386c0639fa838588f317", "fusion_lon": 0.0, "bike_id": "7edf2366a9cf386c0639fa838588f317", "is_disabled": 0, "is_reserved": 0}, {"rental_uris": {"ios": "https://dc.lft.to/lastmile_qr_scan", "android": "https://dc.lft.to/lastmile_qr_scan"}, "lon": -76.99574466666667, "type": "electric_scooter", "fusion_lat": 0.0, "lat": 38.90037616666667, "name": "27bb50ce85c7e1a20d5f5a444cd2ca54", "fusion_lon": 0.0, "bike_id": "27bb50ce85c7e1a20d5f5a444cd2ca54", "is_disabled": 0, "is_reserved": 0}, {"rental_uris": {"ios": "https://dc.lft.to/lastmile_qr_scan", "android": "https://dc.lft.to/lastmile_qr_scan"}, "lon": -77.04193316666667, "type": "electric_scooter", "fusion_lat": 0.0, "lat": 38.918879, "name": "6f7be26cd5ab56cb2ec8e6cde1c8225f", "fusion_lon": 0.0, "bike_id": "6f7be26cd5ab56cb2ec8e6cde1c8225f", "is_disabled": 0, "is_reserved": 0}, {"rental_uris": {"ios": "https://dc.lft.to/lastmile_qr_scan", "android": "https://dc.lft.to/lastmile_qr_scan"}, "lon": -77.04468183333333, "type": "electric_scooter", "fusion_lat": 0.0, "lat": 38.903125333333335, "name": "302a6e36681844834c354830376b6709", "fusion_lon": 0.0, "bike_id": "302a6e36681844834c354830376b6709", "is_disabled": 0, "is_reserved": 0}, {"rental_uris": {"ios": "https://dc.lft.to/lastmile_qr_scan", "android": "https://dc.lft.to/lastmile_qr_scan"}, "lon": -77.00819433333334, "type": "electric_scooter", "fusion_lat": 0.0, "lat": 38.905755666666664, "name": "12d15d4a507485aecebc067d07e31775", "fusion_lon": 0.0, "bike_id": "12d15d4a507485aecebc067d07e31775", "is_disabled": 0, "is_reserved": 0}, {"rental_uris": {"ios": "https://dc.lft.to/lastmile_qr_scan", "android": "https://dc.lft.to/lastmile_qr_scan"}, "lon": -76.9757185, "type": "electric_bike", "fusion_lat": 0.0, "lat": 38.925106166666666, "name": "9e67fae07d91c7fcf9ef43bbf916053f", "fusion_lon": 0.0, "bike_id": "9e67fae07d91c7fcf9ef43bbf916053f", "is_disabled": 0, "is_reserved": 0}, {"rental_uris": {"ios": "https://dc.lft.to/lastmile_qr_scan", "android": "https://dc.lft.to/lastmile_qr_scan"}, "lon": -77.02860133333333, "type": "electric_scooter", "fusion_lat": 0.0, "lat": 38.91115083333333, "name": "85afafac3dabe1ac79df1041ca3748b9", "fusion_lon": 0.0, "bike_id": "85afafac3dabe1ac79df1041ca3748b9", "is_disabled": 0, "is_reserved": 0}, {"rental_uris": {"ios": "https://dc.lft.to/lastmile_qr_scan", "android": "https://dc.lft.to/lastmile_qr_scan"}, "lon": -77.02441416666667, "type": "electric_scooter", "fusion_lat": 0.0, "lat": 38.92066833333333, "name": "ca053eda97594a85ed458e2e31e48cf5", "fusion_lon": 0.0, "bike_id": "ca053eda97594a85ed458e2e31e48cf5", "is_disabled": 0, "is_reserved": 0}, {"rental_uris": {"ios": "https://dc.lft.to/lastmile_qr_scan", "android": "https://dc.lft.to/lastmile_qr_scan"}, "lon": -77.03291816666666, "type": "electric_scooter", "fusion_lat": 0.0, "lat": 38.9565625, "name": "7799ffbefb70bd865a0520181c76afcb", "fusion_lon": 0.0, "bike_id": "7799ffbefb70bd865a0520181c76afcb", "is_disabled": 0, "is_reserved": 0}, {"rental_uris": {"ios": "https://dc.lft.to/lastmile_qr_scan", "android": "https://dc.lft.to/lastmile_qr_scan"}, "lon": -77.03817466666666, "type": "electric_scooter", "fusion_lat": 0.0, "lat": 38.920625, "name": "4c8f4dc3f411fc97beeae862bfb7061b", "fusion_lon": 0.0, "bike_id": "4c8f4dc3f411fc97beeae862bfb7061b", "is_disabled": 0, "is_reserved": 0}, {"rental_uris": {"ios": "https://dc.lft.to/lastmile_qr_scan", "android": "https://dc.lft.to/lastmile_qr_scan"}, "lon": -77.02708266666667, "type": "electric_scooter", "fusion_lat": 0.0, "lat": 38.90494433333333, "name": "d877467110ded8c55883d312ea0f5dfe", "fusion_lon": 0.0, "bike_id": "d877467110ded8c55883d312ea0f5dfe", "is_disabled": 0, "is_reserved": 0}, {"rental_uris": {"ios": "https://dc.lft.to/lastmile_qr_scan", "android": "https://dc.lft.to/lastmile_qr_scan"}, "lon": -76.99585983333333, "type": "electric_scooter", "fusion_lat": 0.0, "lat": 38.955065166666664, "name": "5b17e392841948e98ea4f16bc08c241b", "fusion_lon": 0.0, "bike_id": "5b17e392841948e98ea4f16bc08c241b", "is_disabled": 0, "is_reserved": 0}, {"rental_uris": {"ios": "https://dc.lft.to/lastmile_qr_scan", "android": "https://dc.lft.to/lastmile_qr_scan"}, "lon": -77.02311466666667, "type": "electric_bike", "fusion_lat": 0.0, "lat": 38.9723205, "name": "b7147dedfcca9559f8f98d9eda8cea37", "fusion_lon": 0.0, "bike_id": "b7147dedfcca9559f8f98d9eda8cea37", "is_disabled": 0, "is_reserved": 0}, {"rental_uris": {"ios": "https://dc.lft.to/lastmile_qr_scan", "android": "https://dc.lft.to/lastmile_qr_scan"}, "lon": -77.050127, "type": "electric_scooter", "fusion_lat": 0.0, "lat": 38.8990515, "name": "3a44bdab672f41bc0cd6efc622100941", "fusion_lon": 0.0, "bike_id": "3a44bdab672f41bc0cd6efc622100941", "is_disabled": 0, "is_reserved": 0}, {"rental_uris": {"ios": "https://dc.lft.to/lastmile_qr_scan", "android": "https://dc.lft.to/lastmile_qr_scan"}, "lon": -77.12263416666667, "type": "electric_bike", "fusion_lat": 0.0, "lat": 38.891929166666664, "name": "da2ff3854b95578d113199286a717fac", "fusion_lon": 0.0, "bike_id": "da2ff3854b95578d113199286a717fac", "is_disabled": 0, "is_reserved": 0}, {"rental_uris": {"ios": "https://dc.lft.to/lastmile_qr_scan", "android": "https://dc.lft.to/lastmile_qr_scan"}, "lon": -77.02412516666666, "type": "electric_scooter", "fusion_lat": 0.0, "lat": 38.9161135, "name": "f6bf95b1166e47f420a4cf1afd0b13e4", "fusion_lon": 0.0, "bike_id": "f6bf95b1166e47f420a4cf1afd0b13e4", "is_disabled": 0, "is_reserved": 0}, {"rental_uris": {"ios": "https://dc.lft.to/lastmile_qr_scan", "android": "https://dc.lft.to/lastmile_qr_scan"}, "lon": -77.04155366666667, "type": "electric_scooter", "fusion_lat": 0.0, "lat": 38.919326, "name": "16b4252aa3bc3a5a6c16562aef8a0079", "fusion_lon": 0.0, "bike_id": "16b4252aa3bc3a5a6c16562aef8a0079", "is_disabled": 0, "is_reserved": 0}, {"rental_uris": {"ios": "https://dc.lft.to/lastmile_qr_scan", "android": "https://dc.lft.to/lastmile_qr_scan"}, "lon": -77.11221616666667, "type": "electric_bike", "fusion_lat": 0.0, "lat": 38.828788833333334, "name": "1ac45945dac9a0d80cf2fdfec06ce2bd", "fusion_lon": 0.0, "bike_id": "1ac45945dac9a0d80cf2fdfec06ce2bd", "is_disabled": 0, "is_reserved": 0}, {"rental_uris": {"ios": "https://dc.lft.to/lastmile_qr_scan", "android": "https://dc.lft.to/lastmile_qr_scan"}, "lon": -77.04200616666667, "type": "electric_scooter", "fusion_lat": 0.0, "lat": 38.907376666666664, "name": "4d45e6cf57010a981c4a92612611927d", "fusion_lon": 0.0, "bike_id": "4d45e6cf57010a981c4a92612611927d", "is_disabled": 0, "is_reserved": 0}, {"rental_uris": {"ios": "https://dc.lft.to/lastmile_qr_scan", "android": "https://dc.lft.to/lastmile_qr_scan"}, "lon": -76.93542716666667, "type": "electric_bike", "fusion_lat": 0.0, "lat": 38.9554855, "name": "bc52f1005856db08da66fe6f8cb60101", "fusion_lon": 0.0, "bike_id": "bc52f1005856db08da66fe6f8cb60101", "is_disabled": 0, "is_reserved": 0}, {"rental_uris": {"ios": "https://dc.lft.to/lastmile_qr_scan", "android": "https://dc.lft.to/lastmile_qr_scan"}, "lon": -77.033626, "type": "electric_scooter", "fusion_lat": 0.0, "lat": 38.9245025, "name": "099de79f4cc9000928c428452cb085cf", "fusion_lon": 0.0, "bike_id": "099de79f4cc9000928c428452cb085cf", "is_disabled": 0, "is_reserved": 0}, {"rental_uris": {"ios": "https://dc.lft.to/lastmile_qr_scan", "android": "https://dc.lft.to/lastmile_qr_scan"}, "lon": -77.07359366666667, "type": "electric_scooter", "fusion_lat": 0.0, "lat": 38.933524, "name": "bed3f0ce048d2204cb804559c40112f2", "fusion_lon": 0.0, "bike_id": "bed3f0ce048d2204cb804559c40112f2", "is_disabled": 0, "is_reserved": 0}, {"rental_uris": {"ios": "https://dc.lft.to/lastmile_qr_scan", "android": "https://dc.lft.to/lastmile_qr_scan"}, "lon": -77.04757633333334, "type": "electric_scooter", "fusion_lat": 0.0, "lat": 38.902522833333336, "name": "eb904714f000592e5ae294227a1bc1ae", "fusion_lon": 0.0, "bike_id": "eb904714f000592e5ae294227a1bc1ae", "is_disabled": 0, "is_reserved": 0}, {"rental_uris": {"ios": "https://dc.lft.to/lastmile_qr_scan", "android": "https://dc.lft.to/lastmile_qr_scan"}, "lon": -77.0267245, "type": "electric_scooter", "fusion_lat": 0.0, "lat": 38.899183666666666, "name": "abda200799ee56006bfbe6285ee2f0d4", "fusion_lon": 0.0, "bike_id": "abda200799ee56006bfbe6285ee2f0d4", "is_disabled": 0, "is_reserved": 0}, {"rental_uris": {"ios": "https://dc.lft.to/lastmile_qr_scan", "android": "https://dc.lft.to/lastmile_qr_scan"}, "lon": -77.07683583333333, "type": "electric_bike", "fusion_lat": 0.0, "lat": 38.83195466666667, "name": "c1b955413998d17b1266935b2385a4b2", "fusion_lon": 0.0, "bike_id": "c1b955413998d17b1266935b2385a4b2", "is_disabled": 0, "is_reserved": 0}, {"rental_uris": {"ios": "https://dc.lft.to/lastmile_qr_scan", "android": "https://dc.lft.to/lastmile_qr_scan"}, "lon": -77.01333216666667, "type": "electric_scooter", "fusion_lat": 0.0, "lat": 38.966142166666664, "name": "68dbdc5983c787bf0d8fc586e75186ed", "fusion_lon": 0.0, "bike_id": "68dbdc5983c787bf0d8fc586e75186ed", "is_disabled": 0, "is_reserved": 0}, {"rental_uris": {"ios": "https://dc.lft.to/lastmile_qr_scan", "android": "https://dc.lft.to/lastmile_qr_scan"}, "lon": -77.0323595, "type": "electric_scooter", "fusion_lat": 0.0, "lat": 38.89636016666667, "name": "c1303f72020053ce0f9d18e151766f79", "fusion_lon": 0.0, "bike_id": "c1303f72020053ce0f9d18e151766f79", "is_disabled": 0, "is_reserved": 0}, {"rental_uris": {"ios": "https://dc.lft.to/lastmile_qr_scan", "android": "https://dc.lft.to/lastmile_qr_scan"}, "lon": -77.03796133333333, "type": "electric_scooter", "fusion_lat": 0.0, "lat": 38.93609933333333, "name": "df4a681446d3cc5c17065937dd8d63ca", "fusion_lon": 0.0, "bike_id": "df4a681446d3cc5c17065937dd8d63ca", "is_disabled": 0, "is_reserved": 0}, {"rental_uris": {"ios": "https://dc.lft.to/lastmile_qr_scan", "android": "https://dc.lft.to/lastmile_qr_scan"}, "lon": -76.961758, "type": "electric_bike", "fusion_lat": 0.0, "lat": 38.918605166666666, "name": "32ddddff1147475cdebe32320bf4e8ff", "fusion_lon": 0.0, "bike_id": "32ddddff1147475cdebe32320bf4e8ff", "is_disabled": 0, "is_reserved": 0}, {"rental_uris": {"ios": "https://dc.lft.to/lastmile_qr_scan", "android": "https://dc.lft.to/lastmile_qr_scan"}, "lon": -77.02337666666666, "type": "electric_scooter", "fusion_lat": 0.0, "lat": 38.883664333333336, "name": "7a70d3864b402100f16e226591c1cedb", "fusion_lon": 0.0, "bike_id": "7a70d3864b402100f16e226591c1cedb", "is_disabled": 0, "is_reserved": 0}, {"rental_uris": {"ios": "https://dc.lft.to/lastmile_qr_scan", "android": "https://dc.lft.to/lastmile_qr_scan"}, "lon": -77.04406116666667, "type": "electric_scooter", "fusion_lat": 0.0, "lat": 38.87429616666667, "name": "4d181d2ede253e3bd7227825c792d48f", "fusion_lon": 0.0, "bike_id": "4d181d2ede253e3bd7227825c792d48f", "is_disabled": 0, "is_reserved": 0}, {"rental_uris": {"ios": "https://dc.lft.to/lastmile_qr_scan", "android": "https://dc.lft.to/lastmile_qr_scan"}, "lon": -77.039823, "type": "electric_scooter", "fusion_lat": 0.0, "lat": 38.90277616666667, "name": "592f4ab0544cb6e0be273227a2dabd05", "fusion_lon": 0.0, "bike_id": "592f4ab0544cb6e0be273227a2dabd05", "is_disabled": 0, "is_reserved": 0}, {"rental_uris": {"ios": "https://dc.lft.to/lastmile_qr_scan", "android": "https://dc.lft.to/lastmile_qr_scan"}, "lon": -77.03219833333333, "type": "electric_scooter", "fusion_lat": 0.0, "lat": 38.9169785, "name": "28413c1668c7110720cd8faaf7e0f2a9", "fusion_lon": 0.0, "bike_id": "28413c1668c7110720cd8faaf7e0f2a9", "is_disabled": 0, "is_reserved": 0}, {"rental_uris": {"ios": "https://dc.lft.to/lastmile_qr_scan", "android": "https://dc.lft.to/lastmile_qr_scan"}, "lon": -77.03185883333333, "type": "electric_scooter", "fusion_lat": 0.0, "lat": 38.91405533333333, "name": "5e16bfb629b7b793b796fea55f3d4294", "fusion_lon": 0.0, "bike_id": "5e16bfb629b7b793b796fea55f3d4294", "is_disabled": 0, "is_reserved": 0}, {"rental_uris": {"ios": "https://dc.lft.to/lastmile_qr_scan", "android": "https://dc.lft.to/lastmile_qr_scan"}, "lon": -77.0312115, "type": "electric_scooter", "fusion_lat": 0.0, "lat": 38.97380316666667, "name": "49c9c655a14ff7b2c96c2235b13c7da8", "fusion_lon": 0.0, "bike_id": "49c9c655a14ff7b2c96c2235b13c7da8", "is_disabled": 0, "is_reserved": 0}, {"rental_uris": {"ios": "https://dc.lft.to/lastmile_qr_scan", "android": "https://dc.lft.to/lastmile_qr_scan"}, "lon": -77.047053, "type": "electric_scooter", "fusion_lat": 0.0, "lat": 38.92108416666667, "name": "e02161b23592d1cc002fa5e8a2f68af0", "fusion_lon": 0.0, "bike_id": "e02161b23592d1cc002fa5e8a2f68af0", "is_disabled": 0, "is_reserved": 0}, {"rental_uris": {"ios": "https://dc.lft.to/lastmile_qr_scan", "android": "https://dc.lft.to/lastmile_qr_scan"}, "lon": -77.02482366666666, "type": "electric_bike", "fusion_lat": 0.0, "lat": 38.937268833333334, "name": "60c7323386d34e118157379b39f3cda8", "fusion_lon": 0.0, "bike_id": "60c7323386d34e118157379b39f3cda8", "is_disabled": 0, "is_reserved": 0}, {"rental_uris": {"ios": "https://dc.lft.to/lastmile_qr_scan", "android": "https://dc.lft.to/lastmile_qr_scan"}, "lon": -77.05600283333334, "type": "electric_scooter", "fusion_lat": 0.0, "lat": 38.937060333333335, "name": "bc05bb2eccf5465523433813cb811cd6", "fusion_lon": 0.0, "bike_id": "bc05bb2eccf5465523433813cb811cd6", "is_disabled": 0, "is_reserved": 0}, {"rental_uris": {"ios": "https://dc.lft.to/lastmile_qr_scan", "android": "https://dc.lft.to/lastmile_qr_scan"}, "lon": -77.13095416666667, "type": "electric_bike", "fusion_lat": 0.0, "lat": 38.86164683333333, "name": "de40a208c68e81ea8c591c46b30a55a3", "fusion_lon": 0.0, "bike_id": "de40a208c68e81ea8c591c46b30a55a3", "is_disabled": 0, "is_reserved": 0}, {"rental_uris": {"ios": "https://dc.lft.to/lastmile_qr_scan", "android": "https://dc.lft.to/lastmile_qr_scan"}, "lon": -77.03772916666667, "type": "electric_scooter", "fusion_lat": 0.0, "lat": 38.92610416666667, "name": "331fbcf95c568fefe1f70a414ae4d1f0", "fusion_lon": 0.0, "bike_id": "331fbcf95c568fefe1f70a414ae4d1f0", "is_disabled": 0, "is_reserved": 0}, {"rental_uris": {"ios": "https://dc.lft.to/lastmile_qr_scan", "android": "https://dc.lft.to/lastmile_qr_scan"}, "lon": -77.041739, "type": "electric_scooter", "fusion_lat": 0.0, "lat": 38.9185535, "name": "055ed6724156d2fbbc0b2a00487726d2", "fusion_lon": 0.0, "bike_id": "055ed6724156d2fbbc0b2a00487726d2", "is_disabled": 0, "is_reserved": 0}, {"rental_uris": {"ios": "https://dc.lft.to/lastmile_qr_scan", "android": "https://dc.lft.to/lastmile_qr_scan"}, "lon": -77.024178, "type": "electric_bike", "fusion_lat": 0.0, "lat": 38.934568166666665, "name": "b86763acb5a017dfd276ef394a07e6d3", "fusion_lon": 0.0, "bike_id": "b86763acb5a017dfd276ef394a07e6d3", "is_disabled": 0, "is_reserved": 0}, {"rental_uris": {"ios": "https://dc.lft.to/lastmile_qr_scan", "android": "https://dc.lft.to/lastmile_qr_scan"}, "lon": -77.091648, "type": "electric_bike", "fusion_lat": 0.0, "lat": 38.967612333333335, "name": "6c8ac97d1129e203029955835eb120d5", "fusion_lon": 0.0, "bike_id": "6c8ac97d1129e203029955835eb120d5", "is_disabled": 0, "is_reserved": 0}, {"rental_uris": {"ios": "https://dc.lft.to/lastmile_qr_scan", "android": "https://dc.lft.to/lastmile_qr_scan"}, "lon": -76.98760783333333, "type": "electric_scooter", "fusion_lat": 0.0, "lat": 38.84503, "name": "e4ff23534028872498cc102b967e76e3", "fusion_lon": 0.0, "bike_id": "e4ff23534028872498cc102b967e76e3", "is_disabled": 0, "is_reserved": 0}, {"rental_uris": {"ios": "https://dc.lft.to/lastmile_qr_scan", "android": "https://dc.lft.to/lastmile_qr_scan"}, "lon": -77.00086516666667, "type": "electric_scooter", "fusion_lat": 0.0, "lat": 38.908430333333335, "name": "aef23e84a59e757b3d7c05f93b5f89e4", "fusion_lon": 0.0, "bike_id": "aef23e84a59e757b3d7c05f93b5f89e4", "is_disabled": 0, "is_reserved": 0}, {"rental_uris": {"ios": "https://dc.lft.to/lastmile_qr_scan", "android": "https://dc.lft.to/lastmile_qr_scan"}, "lon": -77.04615083333333, "type": "electric_scooter", "fusion_lat": 0.0, "lat": 38.9097265, "name": "ebbc8ad8708407945e477d2ac2d66658", "fusion_lon": 0.0, "bike_id": "ebbc8ad8708407945e477d2ac2d66658", "is_disabled": 0, "is_reserved": 0}, {"rental_uris": {"ios": "https://dc.lft.to/lastmile_qr_scan", "android": "https://dc.lft.to/lastmile_qr_scan"}, "lon": -77.02570816666666, "type": "electric_scooter", "fusion_lat": 0.0, "lat": 38.887466333333336, "name": "c2db219b2cf209500cacae0c614d2ada", "fusion_lon": 0.0, "bike_id": "c2db219b2cf209500cacae0c614d2ada", "is_disabled": 0, "is_reserved": 0}, {"rental_uris": {"ios": "https://dc.lft.to/lastmile_qr_scan", "android": "https://dc.lft.to/lastmile_qr_scan"}, "lon": -77.057546, "type": "electric_scooter", "fusion_lat": 0.0, "lat": 38.934182, "name": "28d6795e509ecad0f7ca01f96e9ff4da", "fusion_lon": 0.0, "bike_id": "28d6795e509ecad0f7ca01f96e9ff4da", "is_disabled": 0, "is_reserved": 0}, {"rental_uris": {"ios": "https://dc.lft.to/lastmile_qr_scan", "android": "https://dc.lft.to/lastmile_qr_scan"}, "lon": -77.03271, "type": "electric_bike", "fusion_lat": 0.0, "lat": 38.9357395, "name": "bbe924e0281a0b692f8a85d2ab7211c9", "fusion_lon": 0.0, "bike_id": "bbe924e0281a0b692f8a85d2ab7211c9", "is_disabled": 0, "is_reserved": 0}, {"rental_uris": {"ios": "https://dc.lft.to/lastmile_qr_scan", "android": "https://dc.lft.to/lastmile_qr_scan"}, "lon": -77.07187833333333, "type": "electric_scooter", "fusion_lat": 0.0, "lat": 38.91998516666666, "name": "4154738c823aa92556405e184f1859e2", "fusion_lon": 0.0, "bike_id": "4154738c823aa92556405e184f1859e2", "is_disabled": 0, "is_reserved": 0}, {"rental_uris": {"ios": "https://dc.lft.to/lastmile_qr_scan", "android": "https://dc.lft.to/lastmile_qr_scan"}, "lon": -77.03521866666667, "type": "electric_scooter", "fusion_lat": 0.0, "lat": 38.9360185, "name": "6184fe229eb4f823d60c7e105630deca", "fusion_lon": 0.0, "bike_id": "6184fe229eb4f823d60c7e105630deca", "is_disabled": 0, "is_reserved": 0}, {"rental_uris": {"ios": "https://dc.lft.to/lastmile_qr_scan", "android": "https://dc.lft.to/lastmile_qr_scan"}, "lon": -77.02616466666667, "type": "electric_scooter", "fusion_lat": 0.0, "lat": 38.91679383333334, "name": "12d9c74eb6c2ae4dc52d91f9bfb53e31", "fusion_lon": 0.0, "bike_id": "12d9c74eb6c2ae4dc52d91f9bfb53e31", "is_disabled": 0, "is_reserved": 0}, {"rental_uris": {"ios": "https://dc.lft.to/lastmile_qr_scan", "android": "https://dc.lft.to/lastmile_qr_scan"}, "lon": -76.98355316666667, "type": "electric_scooter", "fusion_lat": 0.0, "lat": 38.88273, "name": "f1423b2939e56c006f167be722b0cc76", "fusion_lon": 0.0, "bike_id": "f1423b2939e56c006f167be722b0cc76", "is_disabled": 0, "is_reserved": 0}, {"rental_uris": {"ios": "https://dc.lft.to/lastmile_qr_scan", "android": "https://dc.lft.to/lastmile_qr_scan"}, "lon": -77.05143483333333, "type": "electric_scooter", "fusion_lat": 0.0, "lat": 38.9051305, "name": "28e0082f25f6c3113c686ffa5cef1f3f", "fusion_lon": 0.0, "bike_id": "28e0082f25f6c3113c686ffa5cef1f3f", "is_disabled": 0, "is_reserved": 0}, {"rental_uris": {"ios": "https://dc.lft.to/lastmile_qr_scan", "android": "https://dc.lft.to/lastmile_qr_scan"}, "lon": -76.98229733333334, "type": "electric_scooter", "fusion_lat": 0.0, "lat": 38.86767533333333, "name": "4e8e119cc07ce8c384e2ca7799cd2dc7", "fusion_lon": 0.0, "bike_id": "4e8e119cc07ce8c384e2ca7799cd2dc7", "is_disabled": 0, "is_reserved": 0}, {"rental_uris": {"ios": "https://dc.lft.to/lastmile_qr_scan", "android": "https://dc.lft.to/lastmile_qr_scan"}, "lon": -77.0381735, "type": "electric_scooter", "fusion_lat": 0.0, "lat": 38.9311625, "name": "c9fb63dab84e57492d917a700678e437", "fusion_lon": 0.0, "bike_id": "c9fb63dab84e57492d917a700678e437", "is_disabled": 0, "is_reserved": 0}, {"rental_uris": {"ios": "https://dc.lft.to/lastmile_qr_scan", "android": "https://dc.lft.to/lastmile_qr_scan"}, "lon": -77.0336825, "type": "electric_scooter", "fusion_lat": 0.0, "lat": 38.928662, "name": "7621146863682a174cb7f1b55c762ca3", "fusion_lon": 0.0, "bike_id": "7621146863682a174cb7f1b55c762ca3", "is_disabled": 0, "is_reserved": 0}, {"rental_uris": {"ios": "https://dc.lft.to/lastmile_qr_scan", "android": "https://dc.lft.to/lastmile_qr_scan"}, "lon": -77.0551245, "type": "electric_scooter", "fusion_lat": 0.0, "lat": 38.928436, "name": "6aebbd7961367ae6cd6272b877762d7d", "fusion_lon": 0.0, "bike_id": "6aebbd7961367ae6cd6272b877762d7d", "is_disabled": 0, "is_reserved": 0}, {"rental_uris": {"ios": "https://dc.lft.to/lastmile_qr_scan", "android": "https://dc.lft.to/lastmile_qr_scan"}, "lon": -76.98261833333333, "type": "electric_scooter", "fusion_lat": 0.0, "lat": 38.90873066666666, "name": "83fc9969045aee6e6a6b37b7f1a669e8", "fusion_lon": 0.0, "bike_id": "83fc9969045aee6e6a6b37b7f1a669e8", "is_disabled": 0, "is_reserved": 0}, {"rental_uris": {"ios": "https://dc.lft.to/lastmile_qr_scan", "android": "https://dc.lft.to/lastmile_qr_scan"}, "lon": -77.04188566666667, "type": "electric_scooter", "fusion_lat": 0.0, "lat": 38.92010783333333, "name": "9e98c028fdfa420ed633d66318f5b88d", "fusion_lon": 0.0, "bike_id": "9e98c028fdfa420ed633d66318f5b88d", "is_disabled": 0, "is_reserved": 0}, {"rental_uris": {"ios": "https://dc.lft.to/lastmile_qr_scan", "android": "https://dc.lft.to/lastmile_qr_scan"}, "lon": -77.03232383333334, "type": "electric_scooter", "fusion_lat": 0.0, "lat": 38.93142516666666, "name": "6c07194a5dde1af2d096f6001e3223df", "fusion_lon": 0.0, "bike_id": "6c07194a5dde1af2d096f6001e3223df", "is_disabled": 0, "is_reserved": 0}, {"rental_uris": {"ios": "https://dc.lft.to/lastmile_qr_scan", "android": "https://dc.lft.to/lastmile_qr_scan"}, "lon": -76.981746, "type": "electric_scooter", "fusion_lat": 0.0, "lat": 38.8958135, "name": "87cb1488e24476ff9979abe27794293d", "fusion_lon": 0.0, "bike_id": "87cb1488e24476ff9979abe27794293d", "is_disabled": 0, "is_reserved": 0}, {"rental_uris": {"ios": "https://dc.lft.to/lastmile_qr_scan", "android": "https://dc.lft.to/lastmile_qr_scan"}, "lon": -77.01954483333333, "type": "electric_scooter", "fusion_lat": 0.0, "lat": 38.902509333333334, "name": "fdbafcde4fc3795454cbbae9b9ad9fb8", "fusion_lon": 0.0, "bike_id": "fdbafcde4fc3795454cbbae9b9ad9fb8", "is_disabled": 0, "is_reserved": 0}, {"rental_uris": {"ios": "https://dc.lft.to/lastmile_qr_scan", "android": "https://dc.lft.to/lastmile_qr_scan"}, "lon": -77.03189666666667, "type": "electric_scooter", "fusion_lat": 0.0, "lat": 38.9133395, "name": "00e58b601a595ded36f56c84ccca8a76", "fusion_lon": 0.0, "bike_id": "00e58b601a595ded36f56c84ccca8a76", "is_disabled": 0, "is_reserved": 0}, {"rental_uris": {"ios": "https://dc.lft.to/lastmile_qr_scan", "android": "https://dc.lft.to/lastmile_qr_scan"}, "lon": -77.04174066666667, "type": "electric_scooter", "fusion_lat": 0.0, "lat": 38.91466716666667, "name": "8fa9688f7b5d9e6c5f37e45bd7e38cd2", "fusion_lon": 0.0, "bike_id": "8fa9688f7b5d9e6c5f37e45bd7e38cd2", "is_disabled": 0, "is_reserved": 0}, {"rental_uris": {"ios": "https://dc.lft.to/lastmile_qr_scan", "android": "https://dc.lft.to/lastmile_qr_scan"}, "lon": -77.0320025, "type": "electric_scooter", "fusion_lat": 0.0, "lat": 38.917989166666665, "name": "b0a8da0f514a089a4b4379f3c6d994fa", "fusion_lon": 0.0, "bike_id": "b0a8da0f514a089a4b4379f3c6d994fa", "is_disabled": 0, "is_reserved": 0}, {"rental_uris": {"ios": "https://dc.lft.to/lastmile_qr_scan", "android": "https://dc.lft.to/lastmile_qr_scan"}, "lon": -76.9918735, "type": "electric_bike", "fusion_lat": 0.0, "lat": 38.90249416666666, "name": "7bfcf6394d03849d388f17bb560311c3", "fusion_lon": 0.0, "bike_id": "7bfcf6394d03849d388f17bb560311c3", "is_disabled": 0, "is_reserved": 0}, {"rental_uris": {"ios": "https://dc.lft.to/lastmile_qr_scan", "android": "https://dc.lft.to/lastmile_qr_scan"}, "lon": -77.0395835, "type": "electric_scooter", "fusion_lat": 0.0, "lat": 38.89230766666667, "name": "e31f9b316234df7ca0cbde1173ac23ac", "fusion_lon": 0.0, "bike_id": "e31f9b316234df7ca0cbde1173ac23ac", "is_disabled": 0, "is_reserved": 0}, {"rental_uris": {"ios": "https://dc.lft.to/lastmile_qr_scan", "android": "https://dc.lft.to/lastmile_qr_scan"}, "lon": -76.909445, "type": "electric_bike", "fusion_lat": 0.0, "lat": 38.85420083333333, "name": "63bdf7ed7edbd5cbee03cfe04df98f60", "fusion_lon": 0.0, "bike_id": "63bdf7ed7edbd5cbee03cfe04df98f60", "is_disabled": 0, "is_reserved": 0}, {"rental_uris": {"ios": "https://dc.lft.to/lastmile_qr_scan", "android": "https://dc.lft.to/lastmile_qr_scan"}, "lon": -77.01873033333334, "type": "electric_scooter", "fusion_lat": 0.0, "lat": 38.88745816666667, "name": "1d1650d97244bcf2c068b41762104fd8", "fusion_lon": 0.0, "bike_id": "1d1650d97244bcf2c068b41762104fd8", "is_disabled": 0, "is_reserved": 0}, {"rental_uris": {"ios": "https://dc.lft.to/lastmile_qr_scan", "android": "https://dc.lft.to/lastmile_qr_scan"}, "lon": -77.02553216666666, "type": "electric_scooter", "fusion_lat": 0.0, "lat": 38.9247635, "name": "612bd40b9c8c533032e12c24cf058cfe", "fusion_lon": 0.0, "bike_id": "612bd40b9c8c533032e12c24cf058cfe", "is_disabled": 0, "is_reserved": 0}, {"rental_uris": {"ios": "https://dc.lft.to/lastmile_qr_scan", "android": "https://dc.lft.to/lastmile_qr_scan"}, "lon": -76.9873415, "type": "electric_scooter", "fusion_lat": 0.0, "lat": 38.8671905, "name": "7f382f07d6d93a5b814837ac8bbfa265", "fusion_lon": 0.0, "bike_id": "7f382f07d6d93a5b814837ac8bbfa265", "is_disabled": 0, "is_reserved": 0}, {"rental_uris": {"ios": "https://dc.lft.to/lastmile_qr_scan", "android": "https://dc.lft.to/lastmile_qr_scan"}, "lon": -77.08088483333333, "type": "electric_bike", "fusion_lat": 0.0, "lat": 38.90699983333333, "name": "6bdaf9cf927c92de10be156ec5b17ac2", "fusion_lon": 0.0, "bike_id": "6bdaf9cf927c92de10be156ec5b17ac2", "is_disabled": 0, "is_reserved": 0}, {"rental_uris": {"ios": "https://dc.lft.to/lastmile_qr_scan", "android": "https://dc.lft.to/lastmile_qr_scan"}, "lon": -77.02471716666666, "type": "electric_scooter", "fusion_lat": 0.0, "lat": 38.91920666666667, "name": "ed097ff8a2be1aa62bb5e87272dc0895", "fusion_lon": 0.0, "bike_id": "ed097ff8a2be1aa62bb5e87272dc0895", "is_disabled": 0, "is_reserved": 0}, {"rental_uris": {"ios": "https://dc.lft.to/lastmile_qr_scan", "android": "https://dc.lft.to/lastmile_qr_scan"}, "lon": -77.0398175, "type": "electric_scooter", "fusion_lat": 0.0, "lat": 38.901261833333336, "name": "85ed86b26092c3684b8634249c9f24a8", "fusion_lon": 0.0, "bike_id": "85ed86b26092c3684b8634249c9f24a8", "is_disabled": 0, "is_reserved": 0}, {"rental_uris": {"ios": "https://dc.lft.to/lastmile_qr_scan", "android": "https://dc.lft.to/lastmile_qr_scan"}, "lon": -77.08826033333334, "type": "electric_bike", "fusion_lat": 0.0, "lat": 38.90977183333333, "name": "ba8e98c6e77b0fb3d7c197d41acbad7c", "fusion_lon": 0.0, "bike_id": "ba8e98c6e77b0fb3d7c197d41acbad7c", "is_disabled": 0, "is_reserved": 0}, {"rental_uris": {"ios": "https://dc.lft.to/lastmile_qr_scan", "android": "https://dc.lft.to/lastmile_qr_scan"}, "lon": -76.94748516666667, "type": "electric_scooter", "fusion_lat": 0.0, "lat": 38.89676583333333, "name": "804e2fd1aaa3d47f7eaa47f93b85d1cf", "fusion_lon": 0.0, "bike_id": "804e2fd1aaa3d47f7eaa47f93b85d1cf", "is_disabled": 0, "is_reserved": 0}, {"rental_uris": {"ios": "https://dc.lft.to/lastmile_qr_scan", "android": "https://dc.lft.to/lastmile_qr_scan"}, "lon": -77.03196516666667, "type": "electric_scooter", "fusion_lat": 0.0, "lat": 38.91569066666667, "name": "1f89017e2ea4d1c1b8ba23e40221d392", "fusion_lon": 0.0, "bike_id": "1f89017e2ea4d1c1b8ba23e40221d392", "is_disabled": 0, "is_reserved": 0}, {"rental_uris": {"ios": "https://dc.lft.to/lastmile_qr_scan", "android": "https://dc.lft.to/lastmile_qr_scan"}, "lon": -77.0360355, "type": "electric_scooter", "fusion_lat": 0.0, "lat": 38.95619966666667, "name": "bd190e1ac8ead97ebe82ad1fdcdd0cb3", "fusion_lon": 0.0, "bike_id": "bd190e1ac8ead97ebe82ad1fdcdd0cb3", "is_disabled": 0, "is_reserved": 0}, {"rental_uris": {"ios": "https://dc.lft.to/lastmile_qr_scan", "android": "https://dc.lft.to/lastmile_qr_scan"}, "lon": -77.01512816666667, "type": "electric_scooter", "fusion_lat": 0.0, "lat": 38.91057683333333, "name": "48845cc49e441985be275fffd662bc6d", "fusion_lon": 0.0, "bike_id": "48845cc49e441985be275fffd662bc6d", "is_disabled": 0, "is_reserved": 0}, {"rental_uris": {"ios": "https://dc.lft.to/lastmile_qr_scan", "android": "https://dc.lft.to/lastmile_qr_scan"}, "lon": -77.02893866666666, "type": "electric_scooter", "fusion_lat": 0.0, "lat": 38.95846216666666, "name": "48b5c77490e0c41a4cb4b88f0713ef36", "fusion_lon": 0.0, "bike_id": "48b5c77490e0c41a4cb4b88f0713ef36", "is_disabled": 0, "is_reserved": 0}, {"rental_uris": {"ios": "https://dc.lft.to/lastmile_qr_scan", "android": "https://dc.lft.to/lastmile_qr_scan"}, "lon": -77.0367395, "type": "electric_scooter", "fusion_lat": 0.0, "lat": 38.90691266666666, "name": "7c818ebc7c1f2c46e9628db069d91aae", "fusion_lon": 0.0, "bike_id": "7c818ebc7c1f2c46e9628db069d91aae", "is_disabled": 0, "is_reserved": 0}, {"rental_uris": {"ios": "https://dc.lft.to/lastmile_qr_scan", "android": "https://dc.lft.to/lastmile_qr_scan"}, "lon": -77.01208216666667, "type": "electric_scooter", "fusion_lat": 0.0, "lat": 38.9198075, "name": "1958f09a9baa6d74f963b3d2ce79e6b8", "fusion_lon": 0.0, "bike_id": "1958f09a9baa6d74f963b3d2ce79e6b8", "is_disabled": 0, "is_reserved": 0}, {"rental_uris": {"ios": "https://dc.lft.to/lastmile_qr_scan", "android": "https://dc.lft.to/lastmile_qr_scan"}, "lon": -77.03362633333333, "type": "electric_scooter", "fusion_lat": 0.0, "lat": 38.93589983333333, "name": "d413d605c6988ae9077ba850f89b7c4a", "fusion_lon": 0.0, "bike_id": "d413d605c6988ae9077ba850f89b7c4a", "is_disabled": 0, "is_reserved": 0}, {"rental_uris": {"ios": "https://dc.lft.to/lastmile_qr_scan", "android": "https://dc.lft.to/lastmile_qr_scan"}, "lon": -77.020998, "type": "electric_scooter", "fusion_lat": 0.0, "lat": 38.885153, "name": "6860a73275f8d7007ddc9826648da35b", "fusion_lon": 0.0, "bike_id": "6860a73275f8d7007ddc9826648da35b", "is_disabled": 0, "is_reserved": 0}, {"rental_uris": {"ios": "https://dc.lft.to/lastmile_qr_scan", "android": "https://dc.lft.to/lastmile_qr_scan"}, "lon": -77.0418625, "type": "electric_scooter", "fusion_lat": 0.0, "lat": 38.912059666666664, "name": "cde146d42bfcec7e00831ee215acf7d1", "fusion_lon": 0.0, "bike_id": "cde146d42bfcec7e00831ee215acf7d1", "is_disabled": 0, "is_reserved": 0}, {"rental_uris": {"ios": "https://dc.lft.to/lastmile_qr_scan", "android": "https://dc.lft.to/lastmile_qr_scan"}, "lon": -77.0419895, "type": "electric_scooter", "fusion_lat": 0.0, "lat": 38.90579233333333, "name": "dd06bc71e29477c1102927f1cae0fc58", "fusion_lon": 0.0, "bike_id": "dd06bc71e29477c1102927f1cae0fc58", "is_disabled": 0, "is_reserved": 0}, {"rental_uris": {"ios": "https://dc.lft.to/lastmile_qr_scan", "android": "https://dc.lft.to/lastmile_qr_scan"}, "lon": -77.0240135, "type": "electric_scooter", "fusion_lat": 0.0, "lat": 38.915920666666665, "name": "edbcb821d93ed5db8c1c8eb1b9d39cb0", "fusion_lon": 0.0, "bike_id": "edbcb821d93ed5db8c1c8eb1b9d39cb0", "is_disabled": 0, "is_reserved": 0}, {"rental_uris": {"ios": "https://dc.lft.to/lastmile_qr_scan", "android": "https://dc.lft.to/lastmile_qr_scan"}, "lon": -77.026007, "type": "electric_scooter", "fusion_lat": 0.0, "lat": 38.887459, "name": "9835799d9a28b4c57ba29383af716395", "fusion_lon": 0.0, "bike_id": "9835799d9a28b4c57ba29383af716395", "is_disabled": 0, "is_reserved": 0}, {"rental_uris": {"ios": "https://dc.lft.to/lastmile_qr_scan", "android": "https://dc.lft.to/lastmile_qr_scan"}, "lon": -76.975943, "type": "electric_scooter", "fusion_lat": 0.0, "lat": 38.90332383333333, "name": "3e336ecc2356a07009fdac34517e6445", "fusion_lon": 0.0, "bike_id": "3e336ecc2356a07009fdac34517e6445", "is_disabled": 0, "is_reserved": 0}, {"rental_uris": {"ios": "https://dc.lft.to/lastmile_qr_scan", "android": "https://dc.lft.to/lastmile_qr_scan"}, "lon": -77.04353066666667, "type": "electric_bike", "fusion_lat": 0.0, "lat": 38.920659666666666, "name": "5253fd6865dce793cd49fecff2805cf9", "fusion_lon": 0.0, "bike_id": "5253fd6865dce793cd49fecff2805cf9", "is_disabled": 0, "is_reserved": 0}, {"rental_uris": {"ios": "https://dc.lft.to/lastmile_qr_scan", "android": "https://dc.lft.to/lastmile_qr_scan"}, "lon": -77.00255116666666, "type": "electric_bike", "fusion_lat": 0.0, "lat": 38.908864333333334, "name": "81e4192d1ec646547d71c4979a50134b", "fusion_lon": 0.0, "bike_id": "81e4192d1ec646547d71c4979a50134b", "is_disabled": 0, "is_reserved": 0}, {"rental_uris": {"ios": "https://dc.lft.to/lastmile_qr_scan", "android": "https://dc.lft.to/lastmile_qr_scan"}, "lon": -77.0417465, "type": "electric_scooter", "fusion_lat": 0.0, "lat": 38.90247883333333, "name": "055ad20e516439d9939c00f869c4effc", "fusion_lon": 0.0, "bike_id": "055ad20e516439d9939c00f869c4effc", "is_disabled": 0, "is_reserved": 0}, {"rental_uris": {"ios": "https://dc.lft.to/lastmile_qr_scan", "android": "https://dc.lft.to/lastmile_qr_scan"}, "lon": -77.00334666666667, "type": "electric_scooter", "fusion_lat": 0.0, "lat": 38.89363016666667, "name": "6f65da91be641d4ad49caf88d93ea2c4", "fusion_lon": 0.0, "bike_id": "6f65da91be641d4ad49caf88d93ea2c4", "is_disabled": 0, "is_reserved": 0}, {"rental_uris": {"ios": "https://dc.lft.to/lastmile_qr_scan", "android": "https://dc.lft.to/lastmile_qr_scan"}, "lon": -77.04370783333333, "type": "electric_scooter", "fusion_lat": 0.0, "lat": 38.93346183333333, "name": "ce8ed7aa737fe44a9d858f231c8f13ce", "fusion_lon": 0.0, "bike_id": "ce8ed7aa737fe44a9d858f231c8f13ce", "is_disabled": 0, "is_reserved": 0}, {"rental_uris": {"ios": "https://dc.lft.to/lastmile_qr_scan", "android": "https://dc.lft.to/lastmile_qr_scan"}, "lon": -76.95819683333333, "type": "electric_scooter", "fusion_lat": 0.0, "lat": 38.890593833333334, "name": "43fc7a56cb130cd95030017446a8b1bf", "fusion_lon": 0.0, "bike_id": "43fc7a56cb130cd95030017446a8b1bf", "is_disabled": 0, "is_reserved": 0}, {"rental_uris": {"ios": "https://dc.lft.to/lastmile_qr_scan", "android": "https://dc.lft.to/lastmile_qr_scan"}, "lon": -77.0321405, "type": "electric_scooter", "fusion_lat": 0.0, "lat": 38.91699366666667, "name": "e50153a8afa581a900548502fa1b6f56", "fusion_lon": 0.0, "bike_id": "e50153a8afa581a900548502fa1b6f56", "is_disabled": 0, "is_reserved": 0}, {"rental_uris": {"ios": "https://dc.lft.to/lastmile_qr_scan", "android": "https://dc.lft.to/lastmile_qr_scan"}, "lon": -77.03569333333333, "type": "electric_scooter", "fusion_lat": 0.0, "lat": 38.91828816666667, "name": "02fba52b8d3269b59e32aa15fe78bcfd", "fusion_lon": 0.0, "bike_id": "02fba52b8d3269b59e32aa15fe78bcfd", "is_disabled": 0, "is_reserved": 0}, {"rental_uris": {"ios": "https://dc.lft.to/lastmile_qr_scan", "android": "https://dc.lft.to/lastmile_qr_scan"}, "lon": -77.09524983333333, "type": "electric_bike", "fusion_lat": 0.0, "lat": 38.838148333333336, "name": "eb8df12e44375546420555129c461623", "fusion_lon": 0.0, "bike_id": "eb8df12e44375546420555129c461623", "is_disabled": 0, "is_reserved": 0}, {"rental_uris": {"ios": "https://dc.lft.to/lastmile_qr_scan", "android": "https://dc.lft.to/lastmile_qr_scan"}, "lon": -77.0334835, "type": "electric_scooter", "fusion_lat": 0.0, "lat": 38.88519616666667, "name": "343638dd87cdc3e622b43a086d71566d", "fusion_lon": 0.0, "bike_id": "343638dd87cdc3e622b43a086d71566d", "is_disabled": 0, "is_reserved": 0}, {"rental_uris": {"ios": "https://dc.lft.to/lastmile_qr_scan", "android": "https://dc.lft.to/lastmile_qr_scan"}, "lon": -77.03201983333334, "type": "electric_scooter", "fusion_lat": 0.0, "lat": 38.91327916666667, "name": "101b00dd102a35f3f62c35f43352212a", "fusion_lon": 0.0, "bike_id": "101b00dd102a35f3f62c35f43352212a", "is_disabled": 0, "is_reserved": 0}, {"rental_uris": {"ios": "https://dc.lft.to/lastmile_qr_scan", "android": "https://dc.lft.to/lastmile_qr_scan"}, "lon": -77.05591483333333, "type": "electric_scooter", "fusion_lat": 0.0, "lat": 38.927816, "name": "0cc0d10b718362d84d70f99d0e8c9d68", "fusion_lon": 0.0, "bike_id": "0cc0d10b718362d84d70f99d0e8c9d68", "is_disabled": 0, "is_reserved": 0}, {"rental_uris": {"ios": "https://dc.lft.to/lastmile_qr_scan", "android": "https://dc.lft.to/lastmile_qr_scan"}, "lon": -77.0452175, "type": "electric_scooter", "fusion_lat": 0.0, "lat": 38.90971733333333, "name": "4591e2d9a6c34d90e461fa92e0eb090c", "fusion_lon": 0.0, "bike_id": "4591e2d9a6c34d90e461fa92e0eb090c", "is_disabled": 0, "is_reserved": 0}, {"rental_uris": {"ios": "https://dc.lft.to/lastmile_qr_scan", "android": "https://dc.lft.to/lastmile_qr_scan"}, "lon": -77.04446183333333, "type": "electric_scooter", "fusion_lat": 0.0, "lat": 38.91881433333333, "name": "9d72672aa2b43ebafb9d39d4c596b674", "fusion_lon": 0.0, "bike_id": "9d72672aa2b43ebafb9d39d4c596b674", "is_disabled": 0, "is_reserved": 0}, {"rental_uris": {"ios": "https://dc.lft.to/lastmile_qr_scan", "android": "https://dc.lft.to/lastmile_qr_scan"}, "lon": -77.03961083333333, "type": "electric_scooter", "fusion_lat": 0.0, "lat": 38.89235266666667, "name": "02e01e8b437565a077e5efc53a8287aa", "fusion_lon": 0.0, "bike_id": "02e01e8b437565a077e5efc53a8287aa", "is_disabled": 0, "is_reserved": 0}, {"rental_uris": {"ios": "https://dc.lft.to/lastmile_qr_scan", "android": "https://dc.lft.to/lastmile_qr_scan"}, "lon": -77.03189366666666, "type": "electric_scooter", "fusion_lat": 0.0, "lat": 38.913113, "name": "b0eaf1a1f8c4c58bb28f6e73edaa38ef", "fusion_lon": 0.0, "bike_id": "b0eaf1a1f8c4c58bb28f6e73edaa38ef", "is_disabled": 0, "is_reserved": 0}, {"rental_uris": {"ios": "https://dc.lft.to/lastmile_qr_scan", "android": "https://dc.lft.to/lastmile_qr_scan"}, "lon": -77.02845316666667, "type": "electric_scooter", "fusion_lat": 0.0, "lat": 38.89387166666667, "name": "ae8606f8979312c1a41488ec0a3942b1", "fusion_lon": 0.0, "bike_id": "ae8606f8979312c1a41488ec0a3942b1", "is_disabled": 0, "is_reserved": 0}, {"rental_uris": {"ios": "https://dc.lft.to/lastmile_qr_scan", "android": "https://dc.lft.to/lastmile_qr_scan"}, "lon": -77.03833366666667, "type": "electric_scooter", "fusion_lat": 0.0, "lat": 38.92070233333333, "name": "f33e02cc1f8f89b16497fed374f00101", "fusion_lon": 0.0, "bike_id": "f33e02cc1f8f89b16497fed374f00101", "is_disabled": 0, "is_reserved": 0}, {"rental_uris": {"ios": "https://dc.lft.to/lastmile_qr_scan", "android": "https://dc.lft.to/lastmile_qr_scan"}, "lon": -77.043706, "type": "electric_scooter", "fusion_lat": 0.0, "lat": 38.902673, "name": "6e2b1f65bfa09bf6b4f3875991659177", "fusion_lon": 0.0, "bike_id": "6e2b1f65bfa09bf6b4f3875991659177", "is_disabled": 0, "is_reserved": 0}, {"rental_uris": {"ios": "https://dc.lft.to/lastmile_qr_scan", "android": "https://dc.lft.to/lastmile_qr_scan"}, "lon": -77.06574966666666, "type": "electric_bike", "fusion_lat": 0.0, "lat": 38.911340833333334, "name": "e733fe3d5046d2b03212432c9a89ae51", "fusion_lon": 0.0, "bike_id": "e733fe3d5046d2b03212432c9a89ae51", "is_disabled": 0, "is_reserved": 0}, {"rental_uris": {"ios": "https://dc.lft.to/lastmile_qr_scan", "android": "https://dc.lft.to/lastmile_qr_scan"}, "lon": -76.94651116666667, "type": "electric_scooter", "fusion_lat": 0.0, "lat": 38.8982865, "name": "cdd74d98e1a0dfcb93d0e8816f83dcff", "fusion_lon": 0.0, "bike_id": "cdd74d98e1a0dfcb93d0e8816f83dcff", "is_disabled": 0, "is_reserved": 0}, {"rental_uris": {"ios": "https://dc.lft.to/lastmile_qr_scan", "android": "https://dc.lft.to/lastmile_qr_scan"}, "lon": -77.02393416666666, "type": "electric_scooter", "fusion_lat": 0.0, "lat": 38.91604666666667, "name": "4d51a7d3ad04f7fc6a554e23cd68a188", "fusion_lon": 0.0, "bike_id": "4d51a7d3ad04f7fc6a554e23cd68a188", "is_disabled": 0, "is_reserved": 0}, {"rental_uris": {"ios": "https://dc.lft.to/lastmile_qr_scan", "android": "https://dc.lft.to/lastmile_qr_scan"}, "lon": -76.97252116666667, "type": "electric_bike", "fusion_lat": 0.0, "lat": 38.957437166666665, "name": "e80c6303d6515180d3353d9d1418fe82", "fusion_lon": 0.0, "bike_id": "e80c6303d6515180d3353d9d1418fe82", "is_disabled": 0, "is_reserved": 0}, {"rental_uris": {"ios": "https://dc.lft.to/lastmile_qr_scan", "android": "https://dc.lft.to/lastmile_qr_scan"}, "lon": -76.95660116666667, "type": "electric_scooter", "fusion_lat": 0.0, "lat": 38.8961265, "name": "4d1568c3b7e474c1b4c1ea21164183d0", "fusion_lon": 0.0, "bike_id": "4d1568c3b7e474c1b4c1ea21164183d0", "is_disabled": 0, "is_reserved": 0}, {"rental_uris": {"ios": "https://dc.lft.to/lastmile_qr_scan", "android": "https://dc.lft.to/lastmile_qr_scan"}, "lon": -77.04715833333333, "type": "electric_scooter", "fusion_lat": 0.0, "lat": 38.91785483333334, "name": "acb07671238da686cc9f7761d843d991", "fusion_lon": 0.0, "bike_id": "acb07671238da686cc9f7761d843d991", "is_disabled": 0, "is_reserved": 0}, {"rental_uris": {"ios": "https://dc.lft.to/lastmile_qr_scan", "android": "https://dc.lft.to/lastmile_qr_scan"}, "lon": -77.031994, "type": "electric_scooter", "fusion_lat": 0.0, "lat": 38.917379333333336, "name": "ab67b5bd9ed3822192110801f412885c", "fusion_lon": 0.0, "bike_id": "ab67b5bd9ed3822192110801f412885c", "is_disabled": 0, "is_reserved": 0}, {"rental_uris": {"ios": "https://dc.lft.to/lastmile_qr_scan", "android": "https://dc.lft.to/lastmile_qr_scan"}, "lon": -77.01089933333333, "type": "electric_scooter", "fusion_lat": 0.0, "lat": 38.91634916666667, "name": "1554ba15f96031f6b70ee04b45c00bb3", "fusion_lon": 0.0, "bike_id": "1554ba15f96031f6b70ee04b45c00bb3", "is_disabled": 0, "is_reserved": 0}, {"rental_uris": {"ios": "https://dc.lft.to/lastmile_qr_scan", "android": "https://dc.lft.to/lastmile_qr_scan"}, "lon": -77.00132283333333, "type": "electric_scooter", "fusion_lat": 0.0, "lat": 38.914979833333334, "name": "e2471e056b4278ed4a33219a6e14723e", "fusion_lon": 0.0, "bike_id": "e2471e056b4278ed4a33219a6e14723e", "is_disabled": 0, "is_reserved": 0}, {"rental_uris": {"ios": "https://dc.lft.to/lastmile_qr_scan", "android": "https://dc.lft.to/lastmile_qr_scan"}, "lon": -77.03445066666667, "type": "electric_scooter", "fusion_lat": 0.0, "lat": 38.917892, "name": "82265d7e629793a9a7969881d3ee005b", "fusion_lon": 0.0, "bike_id": "82265d7e629793a9a7969881d3ee005b", "is_disabled": 0, "is_reserved": 0}, {"rental_uris": {"ios": "https://dc.lft.to/lastmile_qr_scan", "android": "https://dc.lft.to/lastmile_qr_scan"}, "lon": -77.03467966666666, "type": "electric_scooter", "fusion_lat": 0.0, "lat": 38.92073333333333, "name": "60442a805a7067a18998eafa073f3c11", "fusion_lon": 0.0, "bike_id": "60442a805a7067a18998eafa073f3c11", "is_disabled": 0, "is_reserved": 0}, {"rental_uris": {"ios": "https://dc.lft.to/lastmile_qr_scan", "android": "https://dc.lft.to/lastmile_qr_scan"}, "lon": -77.02044016666666, "type": "electric_scooter", "fusion_lat": 0.0, "lat": 38.915619666666665, "name": "68a60bb76826ebacca7bb4057397c952", "fusion_lon": 0.0, "bike_id": "68a60bb76826ebacca7bb4057397c952", "is_disabled": 0, "is_reserved": 0}, {"rental_uris": {"ios": "https://dc.lft.to/lastmile_qr_scan", "android": "https://dc.lft.to/lastmile_qr_scan"}, "lon": -76.98368266666667, "type": "electric_scooter", "fusion_lat": 0.0, "lat": 38.86484, "name": "4105e1c3c0be5b31c604eebc8f91f4f7", "fusion_lon": 0.0, "bike_id": "4105e1c3c0be5b31c604eebc8f91f4f7", "is_disabled": 0, "is_reserved": 0}, {"rental_uris": {"ios": "https://dc.lft.to/lastmile_qr_scan", "android": "https://dc.lft.to/lastmile_qr_scan"}, "lon": -76.96766933333333, "type": "electric_scooter", "fusion_lat": 0.0, "lat": 38.8614495, "name": "f32e6e21ecf2eaa3a4e5daa735864261", "fusion_lon": 0.0, "bike_id": "f32e6e21ecf2eaa3a4e5daa735864261", "is_disabled": 0, "is_reserved": 0}, {"rental_uris": {"ios": "https://dc.lft.to/lastmile_qr_scan", "android": "https://dc.lft.to/lastmile_qr_scan"}, "lon": -77.0322175, "type": "electric_scooter", "fusion_lat": 0.0, "lat": 38.89228283333333, "name": "7692de212b94bb80bc406f8d5b80a6ce", "fusion_lon": 0.0, "bike_id": "7692de212b94bb80bc406f8d5b80a6ce", "is_disabled": 0, "is_reserved": 0}, {"rental_uris": {"ios": "https://dc.lft.to/lastmile_qr_scan", "android": "https://dc.lft.to/lastmile_qr_scan"}, "lon": -77.02207216666666, "type": "electric_scooter", "fusion_lat": 0.0, "lat": 38.916291, "name": "6afe9293e1f96bdc0d0547c27a97c41e", "fusion_lon": 0.0, "bike_id": "6afe9293e1f96bdc0d0547c27a97c41e", "is_disabled": 0, "is_reserved": 0}, {"rental_uris": {"ios": "https://dc.lft.to/lastmile_qr_scan", "android": "https://dc.lft.to/lastmile_qr_scan"}, "lon": -77.03046116666667, "type": "electric_scooter", "fusion_lat": 0.0, "lat": 38.917124666666666, "name": "df27dd6e7f0276522c88c79ab7d150f0", "fusion_lon": 0.0, "bike_id": "df27dd6e7f0276522c88c79ab7d150f0", "is_disabled": 0, "is_reserved": 0}, {"rental_uris": {"ios": "https://dc.lft.to/lastmile_qr_scan", "android": "https://dc.lft.to/lastmile_qr_scan"}, "lon": -77.11427583333334, "type": "electric_bike", "fusion_lat": 0.0, "lat": 38.85249, "name": "332603e7ce93cc34724ecf58630c60a3", "fusion_lon": 0.0, "bike_id": "332603e7ce93cc34724ecf58630c60a3", "is_disabled": 0, "is_reserved": 0}, {"rental_uris": {"ios": "https://dc.lft.to/lastmile_qr_scan", "android": "https://dc.lft.to/lastmile_qr_scan"}, "lon": -77.03999783333333, "type": "electric_scooter", "fusion_lat": 0.0, "lat": 38.91827216666667, "name": "7fca26b79fcad3b812c7a3bb6501c9ef", "fusion_lon": 0.0, "bike_id": "7fca26b79fcad3b812c7a3bb6501c9ef", "is_disabled": 0, "is_reserved": 0}, {"rental_uris": {"ios": "https://dc.lft.to/lastmile_qr_scan", "android": "https://dc.lft.to/lastmile_qr_scan"}, "lon": -77.03069083333334, "type": "electric_scooter", "fusion_lat": 0.0, "lat": 38.8996295, "name": "c19c7aea10f344cf87d4934dec538202", "fusion_lon": 0.0, "bike_id": "c19c7aea10f344cf87d4934dec538202", "is_disabled": 0, "is_reserved": 0}, {"rental_uris": {"ios": "https://dc.lft.to/lastmile_qr_scan", "android": "https://dc.lft.to/lastmile_qr_scan"}, "lon": -77.04469316666666, "type": "electric_scooter", "fusion_lat": 0.0, "lat": 38.908811166666666, "name": "f12d6eb774192a50b753b5c294aed0dd", "fusion_lon": 0.0, "bike_id": "f12d6eb774192a50b753b5c294aed0dd", "is_disabled": 0, "is_reserved": 0}, {"rental_uris": {"ios": "https://dc.lft.to/lastmile_qr_scan", "android": "https://dc.lft.to/lastmile_qr_scan"}, "lon": -77.02849683333334, "type": "electric_scooter", "fusion_lat": 0.0, "lat": 38.911205, "name": "95d8e666303f4e1ceb316ff2bf42d7b7", "fusion_lon": 0.0, "bike_id": "95d8e666303f4e1ceb316ff2bf42d7b7", "is_disabled": 0, "is_reserved": 0}, {"rental_uris": {"ios": "https://dc.lft.to/lastmile_qr_scan", "android": "https://dc.lft.to/lastmile_qr_scan"}, "lon": -77.022139, "type": "electric_scooter", "fusion_lat": 0.0, "lat": 38.8877515, "name": "d43cbb5f933fb9ef466ff3e87b738a92", "fusion_lon": 0.0, "bike_id": "d43cbb5f933fb9ef466ff3e87b738a92", "is_disabled": 0, "is_reserved": 0}, {"rental_uris": {"ios": "https://dc.lft.to/lastmile_qr_scan", "android": "https://dc.lft.to/lastmile_qr_scan"}, "lon": -77.02782883333333, "type": "electric_scooter", "fusion_lat": 0.0, "lat": 38.92384166666667, "name": "1d85647ded5447307ba9c3d0761800bc", "fusion_lon": 0.0, "bike_id": "1d85647ded5447307ba9c3d0761800bc", "is_disabled": 0, "is_reserved": 0}, {"rental_uris": {"ios": "https://dc.lft.to/lastmile_qr_scan", "android": "https://dc.lft.to/lastmile_qr_scan"}, "lon": -76.97941666666667, "type": "electric_scooter", "fusion_lat": 0.0, "lat": 38.902447333333335, "name": "9da9469a6eba7b02c42e0bcc6594e265", "fusion_lon": 0.0, "bike_id": "9da9469a6eba7b02c42e0bcc6594e265", "is_disabled": 0, "is_reserved": 0}, {"rental_uris": {"ios": "https://dc.lft.to/lastmile_qr_scan", "android": "https://dc.lft.to/lastmile_qr_scan"}, "lon": -76.97935, "type": "electric_scooter", "fusion_lat": 0.0, "lat": 38.866103, "name": "ae071c56cb180bc5a090402b3ff353b3", "fusion_lon": 0.0, "bike_id": "ae071c56cb180bc5a090402b3ff353b3", "is_disabled": 0, "is_reserved": 0}, {"rental_uris": {"ios": "https://dc.lft.to/lastmile_qr_scan", "android": "https://dc.lft.to/lastmile_qr_scan"}, "lon": -77.01794016666666, "type": "electric_scooter", "fusion_lat": 0.0, "lat": 38.905641333333335, "name": "37322f099254972f841eba352cf8923f", "fusion_lon": 0.0, "bike_id": "37322f099254972f841eba352cf8923f", "is_disabled": 0, "is_reserved": 0}, {"rental_uris": {"ios": "https://dc.lft.to/lastmile_qr_scan", "android": "https://dc.lft.to/lastmile_qr_scan"}, "lon": -77.00333566666667, "type": "electric_scooter", "fusion_lat": 0.0, "lat": 38.89368233333333, "name": "8fe2b307de3b6fe0b105f73e5a0fccea", "fusion_lon": 0.0, "bike_id": "8fe2b307de3b6fe0b105f73e5a0fccea", "is_disabled": 0, "is_reserved": 0}, {"rental_uris": {"ios": "https://dc.lft.to/lastmile_qr_scan", "android": "https://dc.lft.to/lastmile_qr_scan"}, "lon": -77.02202916666667, "type": "electric_scooter", "fusion_lat": 0.0, "lat": 38.9104015, "name": "181abf26fa189e6d41ffcd5739ce75a6", "fusion_lon": 0.0, "bike_id": "181abf26fa189e6d41ffcd5739ce75a6", "is_disabled": 0, "is_reserved": 0}, {"rental_uris": {"ios": "https://dc.lft.to/lastmile_qr_scan", "android": "https://dc.lft.to/lastmile_qr_scan"}, "lon": -76.98570816666667, "type": "electric_scooter", "fusion_lat": 0.0, "lat": 38.8996255, "name": "156ec80a0d64e143fa650f67e7496943", "fusion_lon": 0.0, "bike_id": "156ec80a0d64e143fa650f67e7496943", "is_disabled": 0, "is_reserved": 0}, {"rental_uris": {"ios": "https://dc.lft.to/lastmile_qr_scan", "android": "https://dc.lft.to/lastmile_qr_scan"}, "lon": -77.02653183333334, "type": "electric_scooter", "fusion_lat": 0.0, "lat": 38.91060133333333, "name": "c3e14063e879f819393a949cd023d781", "fusion_lon": 0.0, "bike_id": "c3e14063e879f819393a949cd023d781", "is_disabled": 0, "is_reserved": 0}, {"rental_uris": {"ios": "https://dc.lft.to/lastmile_qr_scan", "android": "https://dc.lft.to/lastmile_qr_scan"}, "lon": -77.0281455, "type": "electric_scooter", "fusion_lat": 0.0, "lat": 38.914976, "name": "3e1dace82aeac0b3dc050e0666ae7858", "fusion_lon": 0.0, "bike_id": "3e1dace82aeac0b3dc050e0666ae7858", "is_disabled": 0, "is_reserved": 0}, {"rental_uris": {"ios": "https://dc.lft.to/lastmile_qr_scan", "android": "https://dc.lft.to/lastmile_qr_scan"}, "lon": -77.02847716666666, "type": "electric_scooter", "fusion_lat": 0.0, "lat": 38.9111765, "name": "c2b695a78109ea3a3981a158782b0416", "fusion_lon": 0.0, "bike_id": "c2b695a78109ea3a3981a158782b0416", "is_disabled": 0, "is_reserved": 0}, {"rental_uris": {"ios": "https://dc.lft.to/lastmile_qr_scan", "android": "https://dc.lft.to/lastmile_qr_scan"}, "lon": -77.04577883333333, "type": "electric_scooter", "fusion_lat": 0.0, "lat": 38.921322, "name": "455c89ad53aa3ce0fd1719d119fd0ad1", "fusion_lon": 0.0, "bike_id": "455c89ad53aa3ce0fd1719d119fd0ad1", "is_disabled": 0, "is_reserved": 0}, {"rental_uris": {"ios": "https://dc.lft.to/lastmile_qr_scan", "android": "https://dc.lft.to/lastmile_qr_scan"}, "lon": -77.01520116666667, "type": "electric_scooter", "fusion_lat": 0.0, "lat": 38.91765566666667, "name": "9bc7fd51c0a2e68971089611c1f39e76", "fusion_lon": 0.0, "bike_id": "9bc7fd51c0a2e68971089611c1f39e76", "is_disabled": 0, "is_reserved": 0}, {"rental_uris": {"ios": "https://dc.lft.to/lastmile_qr_scan", "android": "https://dc.lft.to/lastmile_qr_scan"}, "lon": -77.03974416666667, "type": "electric_scooter", "fusion_lat": 0.0, "lat": 38.899234, "name": "bdb36bfe5f19b0037ff4355f83b4918c", "fusion_lon": 0.0, "bike_id": "bdb36bfe5f19b0037ff4355f83b4918c", "is_disabled": 0, "is_reserved": 0}, {"rental_uris": {"ios": "https://dc.lft.to/lastmile_qr_scan", "android": "https://dc.lft.to/lastmile_qr_scan"}, "lon": -77.027169, "type": "electric_scooter", "fusion_lat": 0.0, "lat": 38.892243, "name": "f31f9731028f25f4d9ffd83474e5a6c2", "fusion_lon": 0.0, "bike_id": "f31f9731028f25f4d9ffd83474e5a6c2", "is_disabled": 0, "is_reserved": 0}, {"rental_uris": {"ios": "https://dc.lft.to/lastmile_qr_scan", "android": "https://dc.lft.to/lastmile_qr_scan"}, "lon": -76.99486933333333, "type": "electric_scooter", "fusion_lat": 0.0, "lat": 38.93205783333333, "name": "44cf0115623432fb6905ef14d3e92fa3", "fusion_lon": 0.0, "bike_id": "44cf0115623432fb6905ef14d3e92fa3", "is_disabled": 0, "is_reserved": 0}, {"rental_uris": {"ios": "https://dc.lft.to/lastmile_qr_scan", "android": "https://dc.lft.to/lastmile_qr_scan"}, "lon": -77.05004116666667, "type": "electric_scooter", "fusion_lat": 0.0, "lat": 38.892337, "name": "4a575ac33c56a85f377585db9bfe5759", "fusion_lon": 0.0, "bike_id": "4a575ac33c56a85f377585db9bfe5759", "is_disabled": 0, "is_reserved": 0}, {"rental_uris": {"ios": "https://dc.lft.to/lastmile_qr_scan", "android": "https://dc.lft.to/lastmile_qr_scan"}, "lon": -76.93826716666666, "type": "electric_scooter", "fusion_lat": 0.0, "lat": 38.89764533333334, "name": "85e15b3d2908ebc03014d9d7b99747bd", "fusion_lon": 0.0, "bike_id": "85e15b3d2908ebc03014d9d7b99747bd", "is_disabled": 0, "is_reserved": 0}, {"rental_uris": {"ios": "https://dc.lft.to/lastmile_qr_scan", "android": "https://dc.lft.to/lastmile_qr_scan"}, "lon": -77.035439, "type": "electric_scooter", "fusion_lat": 0.0, "lat": 38.924075333333334, "name": "b663c1938359c8b3a468c0351ed4a3c5", "fusion_lon": 0.0, "bike_id": "b663c1938359c8b3a468c0351ed4a3c5", "is_disabled": 0, "is_reserved": 0}, {"rental_uris": {"ios": "https://dc.lft.to/lastmile_qr_scan", "android": "https://dc.lft.to/lastmile_qr_scan"}, "lon": -77.00117266666666, "type": "electric_scooter", "fusion_lat": 0.0, "lat": 38.894382, "name": "47e4cf74de8dff6f1b6eb2d102cc8482", "fusion_lon": 0.0, "bike_id": "47e4cf74de8dff6f1b6eb2d102cc8482", "is_disabled": 0, "is_reserved": 0}, {"rental_uris": {"ios": "https://dc.lft.to/lastmile_qr_scan", "android": "https://dc.lft.to/lastmile_qr_scan"}, "lon": -77.03256983333333, "type": "electric_scooter", "fusion_lat": 0.0, "lat": 38.93534183333333, "name": "412d239431fcc8c5fb8eb71f021040de", "fusion_lon": 0.0, "bike_id": "412d239431fcc8c5fb8eb71f021040de", "is_disabled": 0, "is_reserved": 0}, {"rental_uris": {"ios": "https://dc.lft.to/lastmile_qr_scan", "android": "https://dc.lft.to/lastmile_qr_scan"}, "lon": -77.03131116666667, "type": "electric_scooter", "fusion_lat": 0.0, "lat": 38.9237665, "name": "a850fee16bfafaebd58858cc15461821", "fusion_lon": 0.0, "bike_id": "a850fee16bfafaebd58858cc15461821", "is_disabled": 0, "is_reserved": 0}, {"rental_uris": {"ios": "https://dc.lft.to/lastmile_qr_scan", "android": "https://dc.lft.to/lastmile_qr_scan"}, "lon": -77.0442405, "type": "electric_scooter", "fusion_lat": 0.0, "lat": 38.921337, "name": "e2595f16312ad33908198d37abd1d325", "fusion_lon": 0.0, "bike_id": "e2595f16312ad33908198d37abd1d325", "is_disabled": 0, "is_reserved": 0}, {"rental_uris": {"ios": "https://dc.lft.to/lastmile_qr_scan", "android": "https://dc.lft.to/lastmile_qr_scan"}, "lon": -77.00196333333334, "type": "electric_scooter", "fusion_lat": 0.0, "lat": 38.894472, "name": "5010f0152d4ad118390da7a3d35a4b64", "fusion_lon": 0.0, "bike_id": "5010f0152d4ad118390da7a3d35a4b64", "is_disabled": 0, "is_reserved": 0}, {"rental_uris": {"ios": "https://dc.lft.to/lastmile_qr_scan", "android": "https://dc.lft.to/lastmile_qr_scan"}, "lon": -77.04620833333334, "type": "electric_scooter", "fusion_lat": 0.0, "lat": 38.90265933333333, "name": "c156e1a7f462ff80b199156462d3cedb", "fusion_lon": 0.0, "bike_id": "c156e1a7f462ff80b199156462d3cedb", "is_disabled": 0, "is_reserved": 0}, {"rental_uris": {"ios": "https://dc.lft.to/lastmile_qr_scan", "android": "https://dc.lft.to/lastmile_qr_scan"}, "lon": -77.05560666666666, "type": "electric_scooter", "fusion_lat": 0.0, "lat": 38.89980583333333, "name": "0f24fc6386ca3ca94c67766de2080d1c", "fusion_lon": 0.0, "bike_id": "0f24fc6386ca3ca94c67766de2080d1c", "is_disabled": 0, "is_reserved": 0}, {"rental_uris": {"ios": "https://dc.lft.to/lastmile_qr_scan", "android": "https://dc.lft.to/lastmile_qr_scan"}, "lon": -76.99331966666666, "type": "electric_bike", "fusion_lat": 0.0, "lat": 38.96197316666667, "name": "ef3df69323fd79c868dee471e28672b5", "fusion_lon": 0.0, "bike_id": "ef3df69323fd79c868dee471e28672b5", "is_disabled": 0, "is_reserved": 0}, {"rental_uris": {"ios": "https://dc.lft.to/lastmile_qr_scan", "android": "https://dc.lft.to/lastmile_qr_scan"}, "lon": -77.02978883333333, "type": "electric_bike", "fusion_lat": 0.0, "lat": 38.9370095, "name": "789a5de38b7994d9312064e73ab03554", "fusion_lon": 0.0, "bike_id": "789a5de38b7994d9312064e73ab03554", "is_disabled": 0, "is_reserved": 0}, {"rental_uris": {"ios": "https://dc.lft.to/lastmile_qr_scan", "android": "https://dc.lft.to/lastmile_qr_scan"}, "lon": -77.00930283333334, "type": "electric_scooter", "fusion_lat": 0.0, "lat": 38.89609316666667, "name": "6c1c5d54ded59fad8cab6fa76bd6dedb", "fusion_lon": 0.0, "bike_id": "6c1c5d54ded59fad8cab6fa76bd6dedb", "is_disabled": 0, "is_reserved": 0}, {"rental_uris": {"ios": "https://dc.lft.to/lastmile_qr_scan", "android": "https://dc.lft.to/lastmile_qr_scan"}, "lon": -77.029299, "type": "electric_scooter", "fusion_lat": 0.0, "lat": 38.882234833333335, "name": "c15882b83766a0384cbb5c98a9d7404b", "fusion_lon": 0.0, "bike_id": "c15882b83766a0384cbb5c98a9d7404b", "is_disabled": 0, "is_reserved": 0}, {"rental_uris": {"ios": "https://dc.lft.to/lastmile_qr_scan", "android": "https://dc.lft.to/lastmile_qr_scan"}, "lon": -77.02718783333333, "type": "electric_scooter", "fusion_lat": 0.0, "lat": 38.89964666666667, "name": "a9961750731ad3a976d830a3f808d954", "fusion_lon": 0.0, "bike_id": "a9961750731ad3a976d830a3f808d954", "is_disabled": 0, "is_reserved": 0}, {"rental_uris": {"ios": "https://dc.lft.to/lastmile_qr_scan", "android": "https://dc.lft.to/lastmile_qr_scan"}, "lon": -77.01872916666666, "type": "electric_scooter", "fusion_lat": 0.0, "lat": 38.949007, "name": "7aee69401ea6242a14d9549229ecdcde", "fusion_lon": 0.0, "bike_id": "7aee69401ea6242a14d9549229ecdcde", "is_disabled": 0, "is_reserved": 0}, {"rental_uris": {"ios": "https://dc.lft.to/lastmile_qr_scan", "android": "https://dc.lft.to/lastmile_qr_scan"}, "lon": -77.03202733333333, "type": "electric_scooter", "fusion_lat": 0.0, "lat": 38.90862033333333, "name": "983a94be42206f1b8a8714e762e955f1", "fusion_lon": 0.0, "bike_id": "983a94be42206f1b8a8714e762e955f1", "is_disabled": 0, "is_reserved": 0}, {"rental_uris": {"ios": "https://dc.lft.to/lastmile_qr_scan", "android": "https://dc.lft.to/lastmile_qr_scan"}, "lon": -77.073635, "type": "electric_scooter", "fusion_lat": 0.0, "lat": 38.9374785, "name": "c81eae7c19cc3d83f6a0aef93f2dec09", "fusion_lon": 0.0, "bike_id": "c81eae7c19cc3d83f6a0aef93f2dec09", "is_disabled": 0, "is_reserved": 0}, {"rental_uris": {"ios": "https://dc.lft.to/lastmile_qr_scan", "android": "https://dc.lft.to/lastmile_qr_scan"}, "lon": -77.0664245, "type": "electric_scooter", "fusion_lat": 0.0, "lat": 38.91384333333333, "name": "42f073de975832db01445ac13bff106b", "fusion_lon": 0.0, "bike_id": "42f073de975832db01445ac13bff106b", "is_disabled": 0, "is_reserved": 0}, {"rental_uris": {"ios": "https://dc.lft.to/lastmile_qr_scan", "android": "https://dc.lft.to/lastmile_qr_scan"}, "lon": -76.96524683333334, "type": "electric_scooter", "fusion_lat": 0.0, "lat": 38.876324833333335, "name": "a854cc0e31c06cbb55626a326ebc1c19", "fusion_lon": 0.0, "bike_id": "a854cc0e31c06cbb55626a326ebc1c19", "is_disabled": 0, "is_reserved": 0}, {"rental_uris": {"ios": "https://dc.lft.to/lastmile_qr_scan", "android": "https://dc.lft.to/lastmile_qr_scan"}, "lon": -77.03810016666667, "type": "electric_scooter", "fusion_lat": 0.0, "lat": 38.91572, "name": "bf3120f607fed702eec3f4fb219e918c", "fusion_lon": 0.0, "bike_id": "bf3120f607fed702eec3f4fb219e918c", "is_disabled": 0, "is_reserved": 0}, {"rental_uris": {"ios": "https://dc.lft.to/lastmile_qr_scan", "android": "https://dc.lft.to/lastmile_qr_scan"}, "lon": -77.02097333333333, "type": "electric_scooter", "fusion_lat": 0.0, "lat": 38.934547333333335, "name": "6e3894ca407970c468ff8d72f7eb80ba", "fusion_lon": 0.0, "bike_id": "6e3894ca407970c468ff8d72f7eb80ba", "is_disabled": 0, "is_reserved": 0}, {"rental_uris": {"ios": "https://dc.lft.to/lastmile_qr_scan", "android": "https://dc.lft.to/lastmile_qr_scan"}, "lon": -77.03868716666666, "type": "electric_scooter", "fusion_lat": 0.0, "lat": 38.903942, "name": "870e4673ae4a725af23e97278c7d0d22", "fusion_lon": 0.0, "bike_id": "870e4673ae4a725af23e97278c7d0d22", "is_disabled": 0, "is_reserved": 0}, {"rental_uris": {"ios": "https://dc.lft.to/lastmile_qr_scan", "android": "https://dc.lft.to/lastmile_qr_scan"}, "lon": -77.04678283333334, "type": "electric_scooter", "fusion_lat": 0.0, "lat": 38.92138083333333, "name": "8790462ad7fb89cb0541f5bc31dabdb8", "fusion_lon": 0.0, "bike_id": "8790462ad7fb89cb0541f5bc31dabdb8", "is_disabled": 0, "is_reserved": 0}, {"rental_uris": {"ios": "https://dc.lft.to/lastmile_qr_scan", "android": "https://dc.lft.to/lastmile_qr_scan"}, "lon": -76.94667266666667, "type": "electric_scooter", "fusion_lat": 0.0, "lat": 38.898723833333335, "name": "6e4f20ec3c0cfff417d21f3480031cbc", "fusion_lon": 0.0, "bike_id": "6e4f20ec3c0cfff417d21f3480031cbc", "is_disabled": 0, "is_reserved": 0}, {"rental_uris": {"ios": "https://dc.lft.to/lastmile_qr_scan", "android": "https://dc.lft.to/lastmile_qr_scan"}, "lon": -77.0118775, "type": "electric_scooter", "fusion_lat": 0.0, "lat": 38.915506, "name": "9c472b30f6161f0f4c7eeb97fd219f9b", "fusion_lon": 0.0, "bike_id": "9c472b30f6161f0f4c7eeb97fd219f9b", "is_disabled": 0, "is_reserved": 0}, {"rental_uris": {"ios": "https://dc.lft.to/lastmile_qr_scan", "android": "https://dc.lft.to/lastmile_qr_scan"}, "lon": -77.03948166666666, "type": "electric_scooter", "fusion_lat": 0.0, "lat": 38.90820016666667, "name": "fa40a70c5c08705a8e24e9ed8befa26c", "fusion_lon": 0.0, "bike_id": "fa40a70c5c08705a8e24e9ed8befa26c", "is_disabled": 0, "is_reserved": 0}, {"rental_uris": {"ios": "https://dc.lft.to/lastmile_qr_scan", "android": "https://dc.lft.to/lastmile_qr_scan"}, "lon": -77.02864033333333, "type": "electric_scooter", "fusion_lat": 0.0, "lat": 38.9112445, "name": "4a0e43226eaf90d410ae03ce622c56b0", "fusion_lon": 0.0, "bike_id": "4a0e43226eaf90d410ae03ce622c56b0", "is_disabled": 0, "is_reserved": 0}, {"rental_uris": {"ios": "https://dc.lft.to/lastmile_qr_scan", "android": "https://dc.lft.to/lastmile_qr_scan"}, "lon": -76.98939066666667, "type": "electric_bike", "fusion_lat": 0.0, "lat": 38.9286395, "name": "948c73036448a5fbb87dd68c5d0eaa1b", "fusion_lon": 0.0, "bike_id": "948c73036448a5fbb87dd68c5d0eaa1b", "is_disabled": 0, "is_reserved": 0}, {"rental_uris": {"ios": "https://dc.lft.to/lastmile_qr_scan", "android": "https://dc.lft.to/lastmile_qr_scan"}, "lon": -77.03706083333333, "type": "electric_scooter", "fusion_lat": 0.0, "lat": 38.926430833333335, "name": "6eb1c44589225430372d89b4df69a6a5", "fusion_lon": 0.0, "bike_id": "6eb1c44589225430372d89b4df69a6a5", "is_disabled": 0, "is_reserved": 0}, {"rental_uris": {"ios": "https://dc.lft.to/lastmile_qr_scan", "android": "https://dc.lft.to/lastmile_qr_scan"}, "lon": -77.00511833333333, "type": "electric_scooter", "fusion_lat": 0.0, "lat": 38.90576633333333, "name": "5562ee30244dc08a8979f1980ec47ca5", "fusion_lon": 0.0, "bike_id": "5562ee30244dc08a8979f1980ec47ca5", "is_disabled": 0, "is_reserved": 0}, {"rental_uris": {"ios": "https://dc.lft.to/lastmile_qr_scan", "android": "https://dc.lft.to/lastmile_qr_scan"}, "lon": -76.94855416666667, "type": "electric_scooter", "fusion_lat": 0.0, "lat": 38.883021166666666, "name": "ee3533e2cd49589ffed387bae488b99a", "fusion_lon": 0.0, "bike_id": "ee3533e2cd49589ffed387bae488b99a", "is_disabled": 0, "is_reserved": 0}, {"rental_uris": {"ios": "https://dc.lft.to/lastmile_qr_scan", "android": "https://dc.lft.to/lastmile_qr_scan"}, "lon": -77.0384645, "type": "electric_scooter", "fusion_lat": 0.0, "lat": 38.908725833333335, "name": "b2eca3b9db56f193206c169a67247dec", "fusion_lon": 0.0, "bike_id": "b2eca3b9db56f193206c169a67247dec", "is_disabled": 0, "is_reserved": 0}, {"rental_uris": {"ios": "https://dc.lft.to/lastmile_qr_scan", "android": "https://dc.lft.to/lastmile_qr_scan"}, "lon": -77.0252965, "type": "electric_scooter", "fusion_lat": 0.0, "lat": 38.92493666666667, "name": "2fb0f9ae5c9a526c6d4c4a6f070ff49e", "fusion_lon": 0.0, "bike_id": "2fb0f9ae5c9a526c6d4c4a6f070ff49e", "is_disabled": 0, "is_reserved": 0}, {"rental_uris": {"ios": "https://dc.lft.to/lastmile_qr_scan", "android": "https://dc.lft.to/lastmile_qr_scan"}, "lon": -77.00788433333334, "type": "electric_scooter", "fusion_lat": 0.0, "lat": 38.906521833333336, "name": "3a676c91d2d131bf26da5293e12690e6", "fusion_lon": 0.0, "bike_id": "3a676c91d2d131bf26da5293e12690e6", "is_disabled": 0, "is_reserved": 0}, {"rental_uris": {"ios": "https://dc.lft.to/lastmile_qr_scan", "android": "https://dc.lft.to/lastmile_qr_scan"}, "lon": -77.04129116666667, "type": "electric_scooter", "fusion_lat": 0.0, "lat": 38.90366683333333, "name": "95d3d4fd2a98b5b9f622d10c94b94637", "fusion_lon": 0.0, "bike_id": "95d3d4fd2a98b5b9f622d10c94b94637", "is_disabled": 0, "is_reserved": 0}, {"rental_uris": {"ios": "https://dc.lft.to/lastmile_qr_scan", "android": "https://dc.lft.to/lastmile_qr_scan"}, "lon": -76.94972366666667, "type": "electric_scooter", "fusion_lat": 0.0, "lat": 38.8937225, "name": "0590c9021b81f462a6cde1206b5d41d2", "fusion_lon": 0.0, "bike_id": "0590c9021b81f462a6cde1206b5d41d2", "is_disabled": 0, "is_reserved": 0}, {"rental_uris": {"ios": "https://dc.lft.to/lastmile_qr_scan", "android": "https://dc.lft.to/lastmile_qr_scan"}, "lon": -77.024879, "type": "electric_scooter", "fusion_lat": 0.0, "lat": 38.89758166666667, "name": "6e3c25870188ee4602f42c7881f54a39", "fusion_lon": 0.0, "bike_id": "6e3c25870188ee4602f42c7881f54a39", "is_disabled": 0, "is_reserved": 0}, {"rental_uris": {"ios": "https://dc.lft.to/lastmile_qr_scan", "android": "https://dc.lft.to/lastmile_qr_scan"}, "lon": -76.99829533333333, "type": "electric_scooter", "fusion_lat": 0.0, "lat": 38.90060366666667, "name": "569fccc4221aad2f32786e9c289f513c", "fusion_lon": 0.0, "bike_id": "569fccc4221aad2f32786e9c289f513c", "is_disabled": 0, "is_reserved": 0}, {"rental_uris": {"ios": "https://dc.lft.to/lastmile_qr_scan", "android": "https://dc.lft.to/lastmile_qr_scan"}, "lon": -77.03862116666667, "type": "electric_scooter", "fusion_lat": 0.0, "lat": 38.903982666666664, "name": "306f4219d13d37ee25b57c03693ad904", "fusion_lon": 0.0, "bike_id": "306f4219d13d37ee25b57c03693ad904", "is_disabled": 0, "is_reserved": 0}, {"rental_uris": {"ios": "https://dc.lft.to/lastmile_qr_scan", "android": "https://dc.lft.to/lastmile_qr_scan"}, "lon": -77.03659683333333, "type": "electric_scooter", "fusion_lat": 0.0, "lat": 38.93082616666667, "name": "4776719498fe9431ed165f1adaa0aec5", "fusion_lon": 0.0, "bike_id": "4776719498fe9431ed165f1adaa0aec5", "is_disabled": 0, "is_reserved": 0}, {"rental_uris": {"ios": "https://dc.lft.to/lastmile_qr_scan", "android": "https://dc.lft.to/lastmile_qr_scan"}, "lon": -76.98849966666667, "type": "electric_scooter", "fusion_lat": 0.0, "lat": 38.90348733333333, "name": "7f38a2f37d92230265f1b429615214f6", "fusion_lon": 0.0, "bike_id": "7f38a2f37d92230265f1b429615214f6", "is_disabled": 0, "is_reserved": 0}, {"rental_uris": {"ios": "https://dc.lft.to/lastmile_qr_scan", "android": "https://dc.lft.to/lastmile_qr_scan"}, "lon": -77.02488583333333, "type": "electric_scooter", "fusion_lat": 0.0, "lat": 38.90962283333333, "name": "4e860df83799a27b430fa611cc025906", "fusion_lon": 0.0, "bike_id": "4e860df83799a27b430fa611cc025906", "is_disabled": 0, "is_reserved": 0}, {"rental_uris": {"ios": "https://dc.lft.to/lastmile_qr_scan", "android": "https://dc.lft.to/lastmile_qr_scan"}, "lon": -77.023189, "type": "electric_scooter", "fusion_lat": 0.0, "lat": 38.9090985, "name": "a3b188bb21e3fcfd822a0b1103ca04ff", "fusion_lon": 0.0, "bike_id": "a3b188bb21e3fcfd822a0b1103ca04ff", "is_disabled": 0, "is_reserved": 0}, {"rental_uris": {"ios": "https://dc.lft.to/lastmile_qr_scan", "android": "https://dc.lft.to/lastmile_qr_scan"}, "lon": -77.0176855, "type": "electric_bike", "fusion_lat": 0.0, "lat": 38.87714233333333, "name": "30789ef4653e587c1b7c72e3ffed8e89", "fusion_lon": 0.0, "bike_id": "30789ef4653e587c1b7c72e3ffed8e89", "is_disabled": 0, "is_reserved": 0}, {"rental_uris": {"ios": "https://dc.lft.to/lastmile_qr_scan", "android": "https://dc.lft.to/lastmile_qr_scan"}, "lon": -77.03837933333334, "type": "electric_scooter", "fusion_lat": 0.0, "lat": 38.912882833333335, "name": "4004f855e9b561b8b2c21c44569fcd1b", "fusion_lon": 0.0, "bike_id": "4004f855e9b561b8b2c21c44569fcd1b", "is_disabled": 0, "is_reserved": 0}, {"rental_uris": {"ios": "https://dc.lft.to/lastmile_qr_scan", "android": "https://dc.lft.to/lastmile_qr_scan"}, "lon": -77.02782233333333, "type": "electric_scooter", "fusion_lat": 0.0, "lat": 38.9237965, "name": "fd03d8406bc719be3cc0c52dd57c8c00", "fusion_lon": 0.0, "bike_id": "fd03d8406bc719be3cc0c52dd57c8c00", "is_disabled": 0, "is_reserved": 0}, {"rental_uris": {"ios": "https://dc.lft.to/lastmile_qr_scan", "android": "https://dc.lft.to/lastmile_qr_scan"}, "lon": -77.04726233333334, "type": "electric_scooter", "fusion_lat": 0.0, "lat": 38.90966266666667, "name": "b6fbca68e6e2faefeda13ba06a87c02e", "fusion_lon": 0.0, "bike_id": "b6fbca68e6e2faefeda13ba06a87c02e", "is_disabled": 0, "is_reserved": 0}, {"rental_uris": {"ios": "https://dc.lft.to/lastmile_qr_scan", "android": "https://dc.lft.to/lastmile_qr_scan"}, "lon": -77.03312266666667, "type": "electric_scooter", "fusion_lat": 0.0, "lat": 38.90128383333333, "name": "834315bae483ea9709853aa668a5e11a", "fusion_lon": 0.0, "bike_id": "834315bae483ea9709853aa668a5e11a", "is_disabled": 0, "is_reserved": 0}, {"rental_uris": {"ios": "https://dc.lft.to/lastmile_qr_scan", "android": "https://dc.lft.to/lastmile_qr_scan"}, "lon": -77.02146983333333, "type": "electric_scooter", "fusion_lat": 0.0, "lat": 38.92826566666667, "name": "c88907829a31440343351f8b8ab32823", "fusion_lon": 0.0, "bike_id": "c88907829a31440343351f8b8ab32823", "is_disabled": 0, "is_reserved": 0}, {"rental_uris": {"ios": "https://dc.lft.to/lastmile_qr_scan", "android": "https://dc.lft.to/lastmile_qr_scan"}, "lon": -77.04253583333333, "type": "electric_scooter", "fusion_lat": 0.0, "lat": 38.9220595, "name": "eb0fbb4c0a6ce8b1c146da9ef7d26ec2", "fusion_lon": 0.0, "bike_id": "eb0fbb4c0a6ce8b1c146da9ef7d26ec2", "is_disabled": 0, "is_reserved": 0}, {"rental_uris": {"ios": "https://dc.lft.to/lastmile_qr_scan", "android": "https://dc.lft.to/lastmile_qr_scan"}, "lon": -77.0365135, "type": "electric_scooter", "fusion_lat": 0.0, "lat": 38.956298833333335, "name": "97ea149ec1f10d9742da9796575c56fa", "fusion_lon": 0.0, "bike_id": "97ea149ec1f10d9742da9796575c56fa", "is_disabled": 0, "is_reserved": 0}, {"rental_uris": {"ios": "https://dc.lft.to/lastmile_qr_scan", "android": "https://dc.lft.to/lastmile_qr_scan"}, "lon": -77.03670016666666, "type": "electric_scooter", "fusion_lat": 0.0, "lat": 38.917313166666666, "name": "9729ca37d8d0690870bfb0a3b04e5b21", "fusion_lon": 0.0, "bike_id": "9729ca37d8d0690870bfb0a3b04e5b21", "is_disabled": 0, "is_reserved": 0}, {"rental_uris": {"ios": "https://dc.lft.to/lastmile_qr_scan", "android": "https://dc.lft.to/lastmile_qr_scan"}, "lon": -77.09213216666667, "type": "electric_scooter", "fusion_lat": 0.0, "lat": 38.9172555, "name": "3394bb279d12cfd7c9f75b6950554a49", "fusion_lon": 0.0, "bike_id": "3394bb279d12cfd7c9f75b6950554a49", "is_disabled": 0, "is_reserved": 0}, {"rental_uris": {"ios": "https://dc.lft.to/lastmile_qr_scan", "android": "https://dc.lft.to/lastmile_qr_scan"}, "lon": -77.03667383333334, "type": "electric_scooter", "fusion_lat": 0.0, "lat": 38.91681916666667, "name": "6c10ca03f138c0b4d2f5fef7a8b60e85", "fusion_lon": 0.0, "bike_id": "6c10ca03f138c0b4d2f5fef7a8b60e85", "is_disabled": 0, "is_reserved": 0}, {"rental_uris": {"ios": "https://dc.lft.to/lastmile_qr_scan", "android": "https://dc.lft.to/lastmile_qr_scan"}, "lon": -77.03853, "type": "electric_scooter", "fusion_lat": 0.0, "lat": 38.902676666666665, "name": "cfc8ab395d1ff29226fc62065a9f8e2d", "fusion_lon": 0.0, "bike_id": "cfc8ab395d1ff29226fc62065a9f8e2d", "is_disabled": 0, "is_reserved": 0}, {"rental_uris": {"ios": "https://dc.lft.to/lastmile_qr_scan", "android": "https://dc.lft.to/lastmile_qr_scan"}, "lon": -77.0283475, "type": "electric_scooter", "fusion_lat": 0.0, "lat": 38.887707666666664, "name": "f55b5dee789159bda8d71575067e98ff", "fusion_lon": 0.0, "bike_id": "f55b5dee789159bda8d71575067e98ff", "is_disabled": 0, "is_reserved": 0}, {"rental_uris": {"ios": "https://dc.lft.to/lastmile_qr_scan", "android": "https://dc.lft.to/lastmile_qr_scan"}, "lon": -77.01439433333333, "type": "electric_scooter", "fusion_lat": 0.0, "lat": 38.929956833333335, "name": "96f97001158d112715c611d9365db588", "fusion_lon": 0.0, "bike_id": "96f97001158d112715c611d9365db588", "is_disabled": 0, "is_reserved": 0}, {"rental_uris": {"ios": "https://dc.lft.to/lastmile_qr_scan", "android": "https://dc.lft.to/lastmile_qr_scan"}, "lon": -77.03262366666667, "type": "electric_scooter", "fusion_lat": 0.0, "lat": 38.938225333333335, "name": "c5ac23d25bada5215bf57a4974388658", "fusion_lon": 0.0, "bike_id": "c5ac23d25bada5215bf57a4974388658", "is_disabled": 0, "is_reserved": 0}, {"rental_uris": {"ios": "https://dc.lft.to/lastmile_qr_scan", "android": "https://dc.lft.to/lastmile_qr_scan"}, "lon": -77.01586983333333, "type": "electric_scooter", "fusion_lat": 0.0, "lat": 38.95718433333333, "name": "0af4ea671f89b8af1fc9efcc6a9bd4cd", "fusion_lon": 0.0, "bike_id": "0af4ea671f89b8af1fc9efcc6a9bd4cd", "is_disabled": 0, "is_reserved": 0}, {"rental_uris": {"ios": "https://dc.lft.to/lastmile_qr_scan", "android": "https://dc.lft.to/lastmile_qr_scan"}, "lon": -77.034597, "type": "electric_scooter", "fusion_lat": 0.0, "lat": 38.91852016666667, "name": "a75187d16817cdb2f20aaa4c64100e3c", "fusion_lon": 0.0, "bike_id": "a75187d16817cdb2f20aaa4c64100e3c", "is_disabled": 0, "is_reserved": 0}, {"rental_uris": {"ios": "https://dc.lft.to/lastmile_qr_scan", "android": "https://dc.lft.to/lastmile_qr_scan"}, "lon": -77.04540816666666, "type": "electric_scooter", "fusion_lat": 0.0, "lat": 38.91942366666667, "name": "2ef169bd88ab48690addc743c9cdfd4e", "fusion_lon": 0.0, "bike_id": "2ef169bd88ab48690addc743c9cdfd4e", "is_disabled": 0, "is_reserved": 0}, {"rental_uris": {"ios": "https://dc.lft.to/lastmile_qr_scan", "android": "https://dc.lft.to/lastmile_qr_scan"}, "lon": -77.02601283333334, "type": "electric_scooter", "fusion_lat": 0.0, "lat": 38.88426183333333, "name": "1f5ffd9bb5b1200a7951c179e30f6e97", "fusion_lon": 0.0, "bike_id": "1f5ffd9bb5b1200a7951c179e30f6e97", "is_disabled": 0, "is_reserved": 0}, {"rental_uris": {"ios": "https://dc.lft.to/lastmile_qr_scan", "android": "https://dc.lft.to/lastmile_qr_scan"}, "lon": -77.06094583333334, "type": "electric_scooter", "fusion_lat": 0.0, "lat": 38.9122455, "name": "dc56ee2bd2fb8803a4e7cd4b1be75398", "fusion_lon": 0.0, "bike_id": "dc56ee2bd2fb8803a4e7cd4b1be75398", "is_disabled": 0, "is_reserved": 0}, {"rental_uris": {"ios": "https://dc.lft.to/lastmile_qr_scan", "android": "https://dc.lft.to/lastmile_qr_scan"}, "lon": -76.97330583333333, "type": "electric_bike", "fusion_lat": 0.0, "lat": 38.85065616666667, "name": "beaa85168c6439baa00f8d795212a909", "fusion_lon": 0.0, "bike_id": "beaa85168c6439baa00f8d795212a909", "is_disabled": 0, "is_reserved": 0}, {"rental_uris": {"ios": "https://dc.lft.to/lastmile_qr_scan", "android": "https://dc.lft.to/lastmile_qr_scan"}, "lon": -77.03192566666667, "type": "electric_scooter", "fusion_lat": 0.0, "lat": 38.917396, "name": "fcc0edddef9e40b4b8d5eab0b9074709", "fusion_lon": 0.0, "bike_id": "fcc0edddef9e40b4b8d5eab0b9074709", "is_disabled": 0, "is_reserved": 0}, {"rental_uris": {"ios": "https://dc.lft.to/lastmile_qr_scan", "android": "https://dc.lft.to/lastmile_qr_scan"}, "lon": -77.05262033333334, "type": "electric_scooter", "fusion_lat": 0.0, "lat": 38.910197833333335, "name": "98f4d593151bfc897a6f6d69ba372e2d", "fusion_lon": 0.0, "bike_id": "98f4d593151bfc897a6f6d69ba372e2d", "is_disabled": 0, "is_reserved": 0}, {"rental_uris": {"ios": "https://dc.lft.to/lastmile_qr_scan", "android": "https://dc.lft.to/lastmile_qr_scan"}, "lon": -77.03978033333334, "type": "electric_scooter", "fusion_lat": 0.0, "lat": 38.9027045, "name": "67eb44a4720d26b7e6e30b2a6052ecd9", "fusion_lon": 0.0, "bike_id": "67eb44a4720d26b7e6e30b2a6052ecd9", "is_disabled": 0, "is_reserved": 0}, {"rental_uris": {"ios": "https://dc.lft.to/lastmile_qr_scan", "android": "https://dc.lft.to/lastmile_qr_scan"}, "lon": -77.03196, "type": "electric_scooter", "fusion_lat": 0.0, "lat": 38.91312033333333, "name": "e417fc50d93e44f9ca61ce0851829385", "fusion_lon": 0.0, "bike_id": "e417fc50d93e44f9ca61ce0851829385", "is_disabled": 0, "is_reserved": 0}, {"rental_uris": {"ios": "https://dc.lft.to/lastmile_qr_scan", "android": "https://dc.lft.to/lastmile_qr_scan"}, "lon": -77.02852883333334, "type": "electric_scooter", "fusion_lat": 0.0, "lat": 38.911271666666664, "name": "a5e8b4315fb8a6564c8b962503124022", "fusion_lon": 0.0, "bike_id": "a5e8b4315fb8a6564c8b962503124022", "is_disabled": 0, "is_reserved": 0}, {"rental_uris": {"ios": "https://dc.lft.to/lastmile_qr_scan", "android": "https://dc.lft.to/lastmile_qr_scan"}, "lon": -77.00763933333333, "type": "electric_scooter", "fusion_lat": 0.0, "lat": 38.907656833333334, "name": "cd14d61f3fa33db4857510556770b9db", "fusion_lon": 0.0, "bike_id": "cd14d61f3fa33db4857510556770b9db", "is_disabled": 0, "is_reserved": 0}, {"rental_uris": {"ios": "https://dc.lft.to/lastmile_qr_scan", "android": "https://dc.lft.to/lastmile_qr_scan"}, "lon": -77.03262533333333, "type": "electric_scooter", "fusion_lat": 0.0, "lat": 38.93639566666667, "name": "874bf4ab08076f5aadc2bfc8912da27d", "fusion_lon": 0.0, "bike_id": "874bf4ab08076f5aadc2bfc8912da27d", "is_disabled": 0, "is_reserved": 0}, {"rental_uris": {"ios": "https://dc.lft.to/lastmile_qr_scan", "android": "https://dc.lft.to/lastmile_qr_scan"}, "lon": -77.03273116666666, "type": "electric_scooter", "fusion_lat": 0.0, "lat": 38.93231866666667, "name": "5cbd703edd17e14597d849199e059d4d", "fusion_lon": 0.0, "bike_id": "5cbd703edd17e14597d849199e059d4d", "is_disabled": 0, "is_reserved": 0}, {"rental_uris": {"ios": "https://dc.lft.to/lastmile_qr_scan", "android": "https://dc.lft.to/lastmile_qr_scan"}, "lon": -77.0361315, "type": "electric_scooter", "fusion_lat": 0.0, "lat": 38.90257833333333, "name": "f91a2e758b08388ce74fa29e19cfc623", "fusion_lon": 0.0, "bike_id": "f91a2e758b08388ce74fa29e19cfc623", "is_disabled": 0, "is_reserved": 0}, {"rental_uris": {"ios": "https://dc.lft.to/lastmile_qr_scan", "android": "https://dc.lft.to/lastmile_qr_scan"}, "lon": -77.02357033333334, "type": "electric_scooter", "fusion_lat": 0.0, "lat": 38.922798666666665, "name": "de186b5f5ebe3013b5aa47dae149fe84", "fusion_lon": 0.0, "bike_id": "de186b5f5ebe3013b5aa47dae149fe84", "is_disabled": 0, "is_reserved": 0}, {"rental_uris": {"ios": "https://dc.lft.to/lastmile_qr_scan", "android": "https://dc.lft.to/lastmile_qr_scan"}, "lon": -77.06782633333333, "type": "electric_scooter", "fusion_lat": 0.0, "lat": 38.952095666666665, "name": "ecd66ecba5dfb3addc8d6e76c20e2ff4", "fusion_lon": 0.0, "bike_id": "ecd66ecba5dfb3addc8d6e76c20e2ff4", "is_disabled": 0, "is_reserved": 0}, {"rental_uris": {"ios": "https://dc.lft.to/lastmile_qr_scan", "android": "https://dc.lft.to/lastmile_qr_scan"}, "lon": -77.002107, "type": "electric_scooter", "fusion_lat": 0.0, "lat": 38.90219716666667, "name": "970df86b49ed66a0cf14f57e9d00dfba", "fusion_lon": 0.0, "bike_id": "970df86b49ed66a0cf14f57e9d00dfba", "is_disabled": 0, "is_reserved": 0}, {"rental_uris": {"ios": "https://dc.lft.to/lastmile_qr_scan", "android": "https://dc.lft.to/lastmile_qr_scan"}, "lon": -77.03214583333333, "type": "electric_scooter", "fusion_lat": 0.0, "lat": 38.9135365, "name": "3c52496082d089fd53da7ff4628ae72d", "fusion_lon": 0.0, "bike_id": "3c52496082d089fd53da7ff4628ae72d", "is_disabled": 0, "is_reserved": 0}, {"rental_uris": {"ios": "https://dc.lft.to/lastmile_qr_scan", "android": "https://dc.lft.to/lastmile_qr_scan"}, "lon": -77.03190366666666, "type": "electric_scooter", "fusion_lat": 0.0, "lat": 38.915706, "name": "473e3e9fa12c1ae9b78e5e9a99aac1cf", "fusion_lon": 0.0, "bike_id": "473e3e9fa12c1ae9b78e5e9a99aac1cf", "is_disabled": 0, "is_reserved": 0}, {"rental_uris": {"ios": "https://dc.lft.to/lastmile_qr_scan", "android": "https://dc.lft.to/lastmile_qr_scan"}, "lon": -77.03214333333334, "type": "electric_scooter", "fusion_lat": 0.0, "lat": 38.911946, "name": "d79926f4a50c99af06393074da8b7ed7", "fusion_lon": 0.0, "bike_id": "d79926f4a50c99af06393074da8b7ed7", "is_disabled": 0, "is_reserved": 0}, {"rental_uris": {"ios": "https://dc.lft.to/lastmile_qr_scan", "android": "https://dc.lft.to/lastmile_qr_scan"}, "lon": -77.03483433333334, "type": "electric_scooter", "fusion_lat": 0.0, "lat": 38.91715666666666, "name": "a5f1ac3b6118cad36acb24ee2fa49176", "fusion_lon": 0.0, "bike_id": "a5f1ac3b6118cad36acb24ee2fa49176", "is_disabled": 0, "is_reserved": 0}, {"rental_uris": {"ios": "https://dc.lft.to/lastmile_qr_scan", "android": "https://dc.lft.to/lastmile_qr_scan"}, "lon": -77.00741316666667, "type": "electric_scooter", "fusion_lat": 0.0, "lat": 38.955240333333336, "name": "191dd6fff4cfa3e4740f4fa6a7668a56", "fusion_lon": 0.0, "bike_id": "191dd6fff4cfa3e4740f4fa6a7668a56", "is_disabled": 0, "is_reserved": 0}, {"rental_uris": {"ios": "https://dc.lft.to/lastmile_qr_scan", "android": "https://dc.lft.to/lastmile_qr_scan"}, "lon": -77.002145, "type": "electric_scooter", "fusion_lat": 0.0, "lat": 38.90483416666667, "name": "9991e081717232f2110d022e1cd2e972", "fusion_lon": 0.0, "bike_id": "9991e081717232f2110d022e1cd2e972", "is_disabled": 0, "is_reserved": 0}, {"rental_uris": {"ios": "https://dc.lft.to/lastmile_qr_scan", "android": "https://dc.lft.to/lastmile_qr_scan"}, "lon": -76.96553883333333, "type": "electric_bike", "fusion_lat": 0.0, "lat": 38.951054, "name": "a6f1c4cb8b3db5820d6b882aece8e1c1", "fusion_lon": 0.0, "bike_id": "a6f1c4cb8b3db5820d6b882aece8e1c1", "is_disabled": 0, "is_reserved": 0}, {"rental_uris": {"ios": "https://dc.lft.to/lastmile_qr_scan", "android": "https://dc.lft.to/lastmile_qr_scan"}, "lon": -77.00319316666666, "type": "electric_scooter", "fusion_lat": 0.0, "lat": 38.901283166666666, "name": "f8b972c792696de3c2927e5d809c563f", "fusion_lon": 0.0, "bike_id": "f8b972c792696de3c2927e5d809c563f", "is_disabled": 0, "is_reserved": 0}, {"rental_uris": {"ios": "https://dc.lft.to/lastmile_qr_scan", "android": "https://dc.lft.to/lastmile_qr_scan"}, "lon": -77.013857, "type": "electric_scooter", "fusion_lat": 0.0, "lat": 38.92869233333333, "name": "9e8a49ae965b628f7ba8c696ba1cfaef", "fusion_lon": 0.0, "bike_id": "9e8a49ae965b628f7ba8c696ba1cfaef", "is_disabled": 0, "is_reserved": 0}, {"rental_uris": {"ios": "https://dc.lft.to/lastmile_qr_scan", "android": "https://dc.lft.to/lastmile_qr_scan"}, "lon": -77.033524, "type": "electric_scooter", "fusion_lat": 0.0, "lat": 38.911159833333336, "name": "762e85e577118b076938279b893523e7", "fusion_lon": 0.0, "bike_id": "762e85e577118b076938279b893523e7", "is_disabled": 0, "is_reserved": 0}, {"rental_uris": {"ios": "https://dc.lft.to/lastmile_qr_scan", "android": "https://dc.lft.to/lastmile_qr_scan"}, "lon": -77.02183966666666, "type": "electric_scooter", "fusion_lat": 0.0, "lat": 38.90982566666667, "name": "623fea6fd4e6647afa780850daf8ea39", "fusion_lon": 0.0, "bike_id": "623fea6fd4e6647afa780850daf8ea39", "is_disabled": 0, "is_reserved": 0}, {"rental_uris": {"ios": "https://dc.lft.to/lastmile_qr_scan", "android": "https://dc.lft.to/lastmile_qr_scan"}, "lon": -77.00265666666667, "type": "electric_scooter", "fusion_lat": 0.0, "lat": 38.8774535, "name": "4fde4cbf4a8fb5e5d61b48889816207d", "fusion_lon": 0.0, "bike_id": "4fde4cbf4a8fb5e5d61b48889816207d", "is_disabled": 0, "is_reserved": 0}, {"rental_uris": {"ios": "https://dc.lft.to/lastmile_qr_scan", "android": "https://dc.lft.to/lastmile_qr_scan"}, "lon": -77.06514816666666, "type": "electric_scooter", "fusion_lat": 0.0, "lat": 38.905317, "name": "b5d2667f48ee12347580908cc936ac0e", "fusion_lon": 0.0, "bike_id": "b5d2667f48ee12347580908cc936ac0e", "is_disabled": 0, "is_reserved": 0}, {"rental_uris": {"ios": "https://dc.lft.to/lastmile_qr_scan", "android": "https://dc.lft.to/lastmile_qr_scan"}, "lon": -77.003469, "type": "electric_scooter", "fusion_lat": 0.0, "lat": 38.8915865, "name": "2e1f92a88aa30eabec40bff5fa6ac1e2", "fusion_lon": 0.0, "bike_id": "2e1f92a88aa30eabec40bff5fa6ac1e2", "is_disabled": 0, "is_reserved": 0}, {"rental_uris": {"ios": "https://dc.lft.to/lastmile_qr_scan", "android": "https://dc.lft.to/lastmile_qr_scan"}, "lon": -77.19908666666667, "type": "electric_bike", "fusion_lat": 0.0, "lat": 38.87533833333333, "name": "e3d376deac701fbffcc16453e3a06031", "fusion_lon": 0.0, "bike_id": "e3d376deac701fbffcc16453e3a06031", "is_disabled": 0, "is_reserved": 0}, {"rental_uris": {"ios": "https://dc.lft.to/lastmile_qr_scan", "android": "https://dc.lft.to/lastmile_qr_scan"}, "lon": -77.02958633333333, "type": "electric_bike", "fusion_lat": 0.0, "lat": 38.911577333333334, "name": "4c2ad1c3ddbbe247c1dbe3ee94043bc6", "fusion_lon": 0.0, "bike_id": "4c2ad1c3ddbbe247c1dbe3ee94043bc6", "is_disabled": 0, "is_reserved": 0}, {"rental_uris": {"ios": "https://dc.lft.to/lastmile_qr_scan", "android": "https://dc.lft.to/lastmile_qr_scan"}, "lon": -77.149869, "type": "electric_bike", "fusion_lat": 0.0, "lat": 39.094622, "name": "96df5f8319970925f405a7ea0dfc234f", "fusion_lon": 0.0, "bike_id": "96df5f8319970925f405a7ea0dfc234f", "is_disabled": 0, "is_reserved": 0}, {"rental_uris": {"ios": "https://dc.lft.to/lastmile_qr_scan", "android": "https://dc.lft.to/lastmile_qr_scan"}, "lon": -77.03635516666667, "type": "electric_scooter", "fusion_lat": 0.0, "lat": 38.94923083333333, "name": "64a0b0cca734719b3fd2053ddb9d1492", "fusion_lon": 0.0, "bike_id": "64a0b0cca734719b3fd2053ddb9d1492", "is_disabled": 0, "is_reserved": 0}, {"rental_uris": {"ios": "https://dc.lft.to/lastmile_qr_scan", "android": "https://dc.lft.to/lastmile_qr_scan"}, "lon": -77.0248385, "type": "electric_scooter", "fusion_lat": 0.0, "lat": 38.9311115, "name": "1964a21139860c256c06f38333470419", "fusion_lon": 0.0, "bike_id": "1964a21139860c256c06f38333470419", "is_disabled": 0, "is_reserved": 0}, {"rental_uris": {"ios": "https://dc.lft.to/lastmile_qr_scan", "android": "https://dc.lft.to/lastmile_qr_scan"}, "lon": -77.006537, "type": "electric_scooter", "fusion_lat": 0.0, "lat": 38.90862416666667, "name": "987c9adad59310092db4d6cf25c9845b", "fusion_lon": 0.0, "bike_id": "987c9adad59310092db4d6cf25c9845b", "is_disabled": 0, "is_reserved": 0}, {"rental_uris": {"ios": "https://dc.lft.to/lastmile_qr_scan", "android": "https://dc.lft.to/lastmile_qr_scan"}, "lon": -77.0050555, "type": "electric_scooter", "fusion_lat": 0.0, "lat": 38.87541016666667, "name": "2c48c6c3a7b5ea3f5344160b73c82e79", "fusion_lon": 0.0, "bike_id": "2c48c6c3a7b5ea3f5344160b73c82e79", "is_disabled": 0, "is_reserved": 0}, {"rental_uris": {"ios": "https://dc.lft.to/lastmile_qr_scan", "android": "https://dc.lft.to/lastmile_qr_scan"}, "lon": -77.02499633333333, "type": "electric_scooter", "fusion_lat": 0.0, "lat": 38.942961833333335, "name": "ab695c9f993dbfd21daec033c2c208b4", "fusion_lon": 0.0, "bike_id": "ab695c9f993dbfd21daec033c2c208b4", "is_disabled": 0, "is_reserved": 0}, {"rental_uris": {"ios": "https://dc.lft.to/lastmile_qr_scan", "android": "https://dc.lft.to/lastmile_qr_scan"}, "lon": -77.00215933333334, "type": "electric_scooter", "fusion_lat": 0.0, "lat": 38.90520566666667, "name": "9c180f0adb55d40b1e4834bfee382951", "fusion_lon": 0.0, "bike_id": "9c180f0adb55d40b1e4834bfee382951", "is_disabled": 0, "is_reserved": 0}, {"rental_uris": {"ios": "https://dc.lft.to/lastmile_qr_scan", "android": "https://dc.lft.to/lastmile_qr_scan"}, "lon": -77.02191116666667, "type": "electric_scooter", "fusion_lat": 0.0, "lat": 38.91064266666667, "name": "ac889ce051afa8e0fc3b8b5ed955bce7", "fusion_lon": 0.0, "bike_id": "ac889ce051afa8e0fc3b8b5ed955bce7", "is_disabled": 0, "is_reserved": 0}, {"rental_uris": {"ios": "https://dc.lft.to/lastmile_qr_scan", "android": "https://dc.lft.to/lastmile_qr_scan"}, "lon": -77.03154516666666, "type": "electric_scooter", "fusion_lat": 0.0, "lat": 38.909712, "name": "3e2457d5b127a4d7df547281f44363fc", "fusion_lon": 0.0, "bike_id": "3e2457d5b127a4d7df547281f44363fc", "is_disabled": 0, "is_reserved": 0}, {"rental_uris": {"ios": "https://dc.lft.to/lastmile_qr_scan", "android": "https://dc.lft.to/lastmile_qr_scan"}, "lon": -76.99170266666667, "type": "electric_scooter", "fusion_lat": 0.0, "lat": 38.879299, "name": "91fe6f54a48ef17ba6f1762fdae9ce9f", "fusion_lon": 0.0, "bike_id": "91fe6f54a48ef17ba6f1762fdae9ce9f", "is_disabled": 0, "is_reserved": 0}, {"rental_uris": {"ios": "https://dc.lft.to/lastmile_qr_scan", "android": "https://dc.lft.to/lastmile_qr_scan"}, "lon": -77.0647465, "type": "electric_bike", "fusion_lat": 0.0, "lat": 38.97389316666667, "name": "d51e268ad2d17dbca88bdd7029e989f0", "fusion_lon": 0.0, "bike_id": "d51e268ad2d17dbca88bdd7029e989f0", "is_disabled": 0, "is_reserved": 0},