{"data": {"bikes": [{"is_reserved": 0, "type": "electric_scooter", "fusion_lat": 0.0, "is_disabled": 0, "rental_uris": {"ios": "https://dc.lft.to/lastmile_qr_scan", "android": "https://dc.lft.to/lastmile_qr_scan"}, "bike_id": "ddb8e4796250941b848f46635a0b3511", "lat": 38.923490666666666, "name": "ddb8e4796250941b848f46635a0b3511", "lon": -77.035244, "fusion_lon": 0.0}, {"is_reserved": 0, "type": "electric_scooter", "fusion_lat": 0.0, "is_disabled": 0, "rental_uris": {"ios": "https://dc.lft.to/lastmile_qr_scan", "android": "https://dc.lft.to/lastmile_qr_scan"}, "bike_id": "6d8aa97ba6ce11c0f651f003c85575dc", "lat": 38.9215705, "name": "6d8aa97ba6ce11c0f651f003c85575dc", "lon": -77.03466316666666, "fusion_lon": 0.0}, {"is_reserved": 0, "type": "electric_bike", "fusion_lat": 0.0, "is_disabled": 0, "rental_uris": {"ios": "https://dc.lft.to/lastmile_qr_scan", "android": "https://dc.lft.to/lastmile_qr_scan"}, "bike_id": "5dc676536727355fee7f419b58ae1ed4", "lat": 38.948393333333335, "name": "5dc676536727355fee7f419b58ae1ed4", "lon": -77.05430383333334, "fusion_lon": 0.0}, {"is_reserved": 0, "type": "electric_scooter", "fusion_lat": 0.0, "is_disabled": 0, "rental_uris": {"ios": "https://dc.lft.to/lastmile_qr_scan", "android": "https://dc.lft.to/lastmile_qr_scan"}, "bike_id": "a76797b318bce37f9f5b78a550c6ba6e", "lat": 38.926120166666664, "name": "a76797b318bce37f9f5b78a550c6ba6e", "lon": -77.02162516666667, "fusion_lon": 0.0}, {"is_reserved": 0, "type": "electric_scooter", "fusion_lat": 0.0, "is_disabled": 0, "rental_uris": {"ios": "https://dc.lft.to/lastmile_qr_scan", "android": "https://dc.lft.to/lastmile_qr_scan"}, "bike_id": "7d47b82822e8d5d7775cd1e65258b342", "lat": 38.8871485, "name": "7d47b82822e8d5d7775cd1e65258b342", "lon": -77.031717, "fusion_lon": 0.0}, {"is_reserved": 0, "type": "electric_scooter", "fusion_lat": 0.0, "is_disabled": 0, "rental_uris": {"ios": "https://dc.lft.to/lastmile_qr_scan", "android": "https://dc.lft.to/lastmile_qr_scan"}, "bike_id": "a4766576db7ed12395722bf969365757", "lat": 38.892055166666665, "name": "a4766576db7ed12395722bf969365757", "lon": -76.92922316666667, "fusion_lon": 0.0}, {"is_reserved": 0, "type": "electric_bike", "fusion_lat": 0.0, "is_disabled": 0, "rental_uris": {"ios": "https://dc.lft.to/lastmile_qr_scan", "android": "https://dc.lft.to/lastmile_qr_scan"}, "bike_id": "d5493bcb9c8f84e41fc754008fb401b0", "lat": 38.90380616666667, "name": "d5493bcb9c8f84e41fc754008fb401b0", "lon": -77.00185383333333, "fusion_lon": 0.0}, {"is_reserved": 0, "type": "electric_scooter", "fusion_lat": 0.0, "is_disabled": 0, "rental_uris": {"ios": "https://dc.lft.to/lastmile_qr_scan", "android": "https://dc.lft.to/lastmile_qr_scan"}, "bike_id": "6000b06ffc95765cffb347efef4542b6", "lat": 38.89364166666667, "name": "6000b06ffc95765cffb347efef4542b6", "lon": -77.0195455, "fusion_lon": 0.0}, {"is_reserved": 0, "type": "electric_scooter", "fusion_lat": 0.0, "is_disabled": 0, "rental_uris": {"ios": "https://dc.lft.to/lastmile_qr_scan", "android": "https://dc.lft.to/lastmile_qr_scan"}, "bike_id": "f937a707d2c759647c2c4a047a98de70", "lat": 38.88985433333333, "name": "f937a707d2c759647c2c4a047a98de70", "lon": -76.98812383333333, "fusion_lon": 0.0}, {"is_reserved": 0, "type": "electric_bike", "fusion_lat": 0.0, "is_disabled": 0, "rental_uris": {"ios": "https://dc.lft.to/lastmile_qr_scan", "android": "https://dc.lft.to/lastmile_qr_scan"}, "bike_id": "f9d60eaff0f5b604c9d61c859a1baeb9", "lat": 38.899808666666665, "name": "f9d60eaff0f5b604c9d61c859a1baeb9", "lon": -76.997929, "fusion_lon": 0.0}, {"is_reserved": 0, "type": "electric_scooter", "fusion_lat": 0.0, "is_disabled": 0, "rental_uris": {"ios": "https://dc.lft.to/lastmile_qr_scan", "android": "https://dc.lft.to/lastmile_qr_scan"}, "bike_id": "67fa3f871fc6073ab77042656fd6942d", "lat": 38.9203905, "name": "67fa3f871fc6073ab77042656fd6942d", "lon": -77.0167535, "fusion_lon": 0.0}, {"is_reserved": 0, "type": "electric_scooter", "fusion_lat": 0.0, "is_disabled": 0, "rental_uris": {"ios": "https://dc.lft.to/lastmile_qr_scan", "android": "https://dc.lft.to/lastmile_qr_scan"}, "bike_id": "a2dcadb7d95e3a70a63726bfd8f637e9", "lat": 38.89964583333333, "name": "a2dcadb7d95e3a70a63726bfd8f637e9", "lon": -77.01609316666666, "fusion_lon": 0.0}, {"is_reserved": 0, "type": "electric_scooter", "fusion_lat": 0.0, "is_disabled": 0, "rental_uris": {"ios": "https://dc.lft.to/lastmile_qr_scan", "android": "https://dc.lft.to/lastmile_qr_scan"}, "bike_id": "eba6293a163c7616d7a6ad87b828f130", "lat": 38.887433333333334, "name": "eba6293a163c7616d7a6ad87b828f130", "lon": -77.01412066666667, "fusion_lon": 0.0}, {"is_reserved": 0, "type": "electric_scooter", "fusion_lat": 0.0, "is_disabled": 0, "rental_uris": {"ios": "https://dc.lft.to/lastmile_qr_scan", "android": "https://dc.lft.to/lastmile_qr_scan"}, "bike_id": "bd56d5a70804cd9d33b7b5f6eea01a27", "lat": 38.904159, "name": "bd56d5a70804cd9d33b7b5f6eea01a27", "lon": -76.9853205, "fusion_lon": 0.0}, {"is_reserved": 0, "type": "electric_scooter", "fusion_lat": 0.0, "is_disabled": 0, "rental_uris": {"ios": "https://dc.lft.to/lastmile_qr_scan", "android": "https://dc.lft.to/lastmile_qr_scan"}, "bike_id": "2ae99f804fdfd1359560cef96ab2ee96", "lat": 38.87172066666667, "name": "2ae99f804fdfd1359560cef96ab2ee96", "lon": -77.0062295, "fusion_lon": 0.0}, {"is_reserved": 0, "type": "electric_scooter", "fusion_lat": 0.0, "is_disabled": 0, "rental_uris": {"ios": "https://dc.lft.to/lastmile_qr_scan", "android": "https://dc.lft.to/lastmile_qr_scan"}, "bike_id": "6d15c904202fb6d7c6bbb4336d999e0c", "lat": 38.92459766666666, "name": "6d15c904202fb6d7c6bbb4336d999e0c", "lon": -77.03786216666667, "fusion_lon": 0.0}, {"is_reserved": 0, "type": "electric_scooter", "fusion_lat": 0.0, "is_disabled": 0, "rental_uris": {"ios": "https://dc.lft.to/lastmile_qr_scan", "android": "https://dc.lft.to/lastmile_qr_scan"}, "bike_id": "3b5a065d12cf39a9c3bfb399046b2cd1", "lat": 38.893967, "name": "3b5a065d12cf39a9c3bfb399046b2cd1", "lon": -77.0499635, "fusion_lon": 0.0}, {"is_reserved": 0, "type": "electric_scooter", "fusion_lat": 0.0, "is_disabled": 0, "rental_uris": {"ios": "https://dc.lft.to/lastmile_qr_scan", "android": "https://dc.lft.to/lastmile_qr_scan"}, "bike_id": "21eb0865834abb1650bc1c57397de26c", "lat": 38.905787, "name": "21eb0865834abb1650bc1c57397de26c", "lon": -77.06264733333333, "fusion_lon": 0.0}, {"is_reserved": 0, "type": "electric_bike", "fusion_lat": 0.0, "is_disabled": 0, "rental_uris": {"ios": "https://dc.lft.to/lastmile_qr_scan", "android": "https://dc.lft.to/lastmile_qr_scan"}, "bike_id": "c3bed249242810b0ce6996d99eebd769", "lat": 38.84857483333333, "name": "c3bed249242810b0ce6996d99eebd769", "lon": -77.06830383333333, "fusion_lon": 0.0}, {"is_reserved": 0, "type": "electric_scooter", "fusion_lat": 0.0, "is_disabled": 0, "rental_uris": {"ios": "https://dc.lft.to/lastmile_qr_scan", "android": "https://dc.lft.to/lastmile_qr_scan"}, "bike_id": "42f87812ca74876c6797fa861bb36eb1", "lat": 38.89744683333333, "name": "42f87812ca74876c6797fa861bb36eb1", "lon": -77.00864266666666, "fusion_lon": 0.0}, {"is_reserved": 0, "type": "electric_scooter", "fusion_lat": 0.0, "is_disabled": 0, "rental_uris": {"ios": "https://dc.lft.to/lastmile_qr_scan", "android": "https://dc.lft.to/lastmile_qr_scan"}, "bike_id": "93f471ec68726e78b26863d663b90dbc", "lat": 38.905482, "name": "93f471ec68726e78b26863d663b90dbc", "lon": -77.0627145, "fusion_lon": 0.0}, {"is_reserved": 0, "type": "electric_scooter", "fusion_lat": 0.0, "is_disabled": 0, "rental_uris": {"ios": "https://dc.lft.to/lastmile_qr_scan", "android": "https://dc.lft.to/lastmile_qr_scan"}, "bike_id": "9d920d9a4ebf5562004b74c7e37f478b", "lat": 38.9291355, "name": "9d920d9a4ebf5562004b74c7e37f478b", "lon": -77.03761, "fusion_lon": 0.0}, {"is_reserved": 0, "type": "electric_bike", "fusion_lat": 0.0, "is_disabled": 0, "rental_uris": {"ios": "https://dc.lft.to/lastmile_qr_scan", "android": "https://dc.lft.to/lastmile_qr_scan"}, "bike_id": "93a8d314137ec5961cc92ed406bea81d", "lat": 38.99095916666667, "name": "93a8d314137ec5961cc92ed406bea81d", "lon": -76.99370333333333, "fusion_lon": 0.0}, {"is_reserved": 0, "type": "electric_scooter", "fusion_lat": 0.0, "is_disabled": 0, "rental_uris": {"ios": "https://dc.lft.to/lastmile_qr_scan", "android": "https://dc.lft.to/lastmile_qr_scan"}, "bike_id": "592bc1439e0ff86aadacdd5ac2c95cd6", "lat": 38.9061045, "name": "592bc1439e0ff86aadacdd5ac2c95cd6", "lon": -76.98980266666666, "fusion_lon": 0.0}, {"is_reserved": 0, "type": "electric_scooter", "fusion_lat": 0.0, "is_disabled": 0, "rental_uris": {"ios": "https://dc.lft.to/lastmile_qr_scan", "android": "https://dc.lft.to/lastmile_qr_scan"}, "bike_id": "a9655500f33d6ec5cfef70fda46a3b11", "lat": 38.891958833333334, "name": "a9655500f33d6ec5cfef70fda46a3b11", "lon": -77.023624, "fusion_lon": 0.0}, {"is_reserved": 0, "type": "electric_scooter", "fusion_lat": 0.0, "is_disabled": 0, "rental_uris": {"ios": "https://dc.lft.to/lastmile_qr_scan", "android": "https://dc.lft.to/lastmile_qr_scan"}, "bike_id": "eb3ba1aef09a947ba59a7b4f0f6fe9bb", "lat": 38.8997815, "name": "eb3ba1aef09a947ba59a7b4f0f6fe9bb", "lon": -77.047253, "fusion_lon": 0.0}, {"is_reserved": 0, "type": "electric_scooter", "fusion_lat": 0.0, "is_disabled": 0, "rental_uris": {"ios": "https://dc.lft.to/lastmile_qr_scan", "android": "https://dc.lft.to/lastmile_qr_scan"}, "bike_id": "615266188c6df7f793d999f39d711073", "lat": 38.90656766666667, "name": "615266188c6df7f793d999f39d711073", "lon": -77.01610216666667, "fusion_lon": 0.0}, {"is_reserved": 0, "type": "electric_bike", "fusion_lat": 0.0, "is_disabled": 0, "rental_uris": {"ios": "https://dc.lft.to/lastmile_qr_scan", "android": "https://dc.lft.to/lastmile_qr_scan"}, "bike_id": "a38eec79286e31a8ae996e8ab1e74b56", "lat": 38.8348825, "name": "a38eec79286e31a8ae996e8ab1e74b56", "lon": -77.0043575, "fusion_lon": 0.0}, {"is_reserved": 0, "type": "electric_scooter", "fusion_lat": 0.0, "is_disabled": 0, "rental_uris": {"ios": "https://dc.lft.to/lastmile_qr_scan", "android": "https://dc.lft.to/lastmile_qr_scan"}, "bike_id": "46fc87fd73a4af54c55c0e5d798bf7b1", "lat": 38.898379166666665, "name": "46fc87fd73a4af54c55c0e5d798bf7b1", "lon": -77.01881066666667, "fusion_lon": 0.0}, {"is_reserved": 0, "type": "electric_bike", "fusion_lat": 0.0, "is_disabled": 0, "rental_uris": {"ios": "https://dc.lft.to/lastmile_qr_scan", "android": "https://dc.lft.to/lastmile_qr_scan"}, "bike_id": "f164a29d34a750373c06536a8a9c36d5", "lat": 38.98226966666667, "name": "f164a29d34a750373c06536a8a9c36d5", "lon": -77.09547683333334, "fusion_lon": 0.0}, {"is_reserved": 0, "type": "electric_scooter", "fusion_lat": 0.0, "is_disabled": 0, "rental_uris": {"ios": "https://dc.lft.to/lastmile_qr_scan", "android": "https://dc.lft.to/lastmile_qr_scan"}, "bike_id": "f34a0fc95b361d523729e2ac24f74e57", "lat": 38.89845016666666, "name": "f34a0fc95b361d523729e2ac24f74e57", "lon": -77.00199783333333, "fusion_lon": 0.0}, {"is_reserved": 0, "type": "electric_scooter", "fusion_lat": 0.0, "is_disabled": 0, "rental_uris": {"ios": "https://dc.lft.to/lastmile_qr_scan", "android": "https://dc.lft.to/lastmile_qr_scan"}, "bike_id": "9f010c209970bf0eb199b5eb2cbf0712", "lat": 38.91406816666667, "name": "9f010c209970bf0eb199b5eb2cbf0712", "lon": -77.04565566666666, "fusion_lon": 0.0}, {"is_reserved": 0, "type": "electric_bike", "fusion_lat": 0.0, "is_disabled": 0, "rental_uris": {"ios": "https://dc.lft.to/lastmile_qr_scan", "android": "https://dc.lft.to/lastmile_qr_scan"}, "bike_id": "1e2d9deafe1cde5d81ff113d119a3e7d", "lat": 38.97473733333333, "name": "1e2d9deafe1cde5d81ff113d119a3e7d", "lon": -76.98672266666667, "fusion_lon": 0.0}, {"is_reserved": 0, "type": "electric_scooter", "fusion_lat": 0.0, "is_disabled": 0, "rental_uris": {"ios": "https://dc.lft.to/lastmile_qr_scan", "android": "https://dc.lft.to/lastmile_qr_scan"}, "bike_id": "a3bbd322394b1ef65316c05d4921ff0c", "lat": 38.89955633333334, "name": "a3bbd322394b1ef65316c05d4921ff0c", "lon": -77.04752833333333, "fusion_lon": 0.0}, {"is_reserved": 0, "type": "electric_bike", "fusion_lat": 0.0, "is_disabled": 0, "rental_uris": {"ios": "https://dc.lft.to/lastmile_qr_scan", "android": "https://dc.lft.to/lastmile_qr_scan"}, "bike_id": "97ad856d8664f7ecab35f156caea96a7", "lat": 38.8408945, "name": "97ad856d8664f7ecab35f156caea96a7", "lon": -76.97026183333334, "fusion_lon": 0.0}, {"is_reserved": 0, "type": "electric_bike", "fusion_lat": 0.0, "is_disabled": 0, "rental_uris": {"ios": "https://dc.lft.to/lastmile_qr_scan", "android": "https://dc.lft.to/lastmile_qr_scan"}, "bike_id": "9627577c537bfdeec3d55b710f5e81ea", "lat": 38.89103183333334, "name": "9627577c537bfdeec3d55b710f5e81ea", "lon": -77.087452, "fusion_lon": 0.0}, {"is_reserved": 0, "type": "electric_bike", "fusion_lat": 0.0, "is_disabled": 0, "rental_uris": {"ios": "https://dc.lft.to/lastmile_qr_scan", "android": "https://dc.lft.to/lastmile_qr_scan"}, "bike_id": "23d9b8622a06ec06b58b290d60e65b6f", "lat": 39.0229445, "name": "23d9b8622a06ec06b58b290d60e65b6f", "lon": -77.021044, "fusion_lon": 0.0}, {"is_reserved": 0, "type": "electric_scooter", "fusion_lat": 0.0, "is_disabled": 0, "rental_uris": {"ios": "https://dc.lft.to/lastmile_qr_scan", "android": "https://dc.lft.to/lastmile_qr_scan"}, "bike_id": "ee743f42b6bb20393b6f9d41661e639f", "lat": 38.9281015, "name": "ee743f42b6bb20393b6f9d41661e639f", "lon": -77.0360715, "fusion_lon": 0.0}, {"is_reserved": 0, "type": "electric_scooter", "fusion_lat": 0.0, "is_disabled": 0, "rental_uris": {"ios": "https://dc.lft.to/lastmile_qr_scan", "android": "https://dc.lft.to/lastmile_qr_scan"}, "bike_id": "df9a1463bc107227680e462c27a95e31", "lat": 38.93194, "name": "df9a1463bc107227680e462c27a95e31", "lon": -77.023552, "fusion_lon": 0.0}, {"is_reserved": 0, "type": "electric_scooter", "fusion_lat": 0.0, "is_disabled": 0, "rental_uris": {"ios": "https://dc.lft.to/lastmile_qr_scan", "android": "https://dc.lft.to/lastmile_qr_scan"}, "bike_id": "97ad3d45b27eec7fef28a7ef38f85359", "lat": 38.934053666666664, "name": "97ad3d45b27eec7fef28a7ef38f85359", "lon": -77.0454805, "fusion_lon": 0.0}, {"is_reserved": 0, "type": "electric_scooter", "fusion_lat": 0.0, "is_disabled": 0, "rental_uris": {"ios": "https://dc.lft.to/lastmile_qr_scan", "android": "https://dc.lft.to/lastmile_qr_scan"}, "bike_id": "bd382f37bea706405fa32004401d864f", "lat": 38.91350283333333, "name": "bd382f37bea706405fa32004401d864f", "lon": -76.9714, "fusion_lon": 0.0}, {"is_reserved": 0, "type": "electric_scooter", "fusion_lat": 0.0, "is_disabled": 0, "rental_uris": {"ios": "https://dc.lft.to/lastmile_qr_scan", "android": "https://dc.lft.to/lastmile_qr_scan"}, "bike_id": "4e182fe2ca316f95c27fcd9b63e6a574", "lat": 38.898308166666666, "name": "4e182fe2ca316f95c27fcd9b63e6a574", "lon": -77.04826816666667, "fusion_lon": 0.0}, {"is_reserved": 0, "type": "electric_bike", "fusion_lat": 0.0, "is_disabled": 0, "rental_uris": {"ios": "https://dc.lft.to/lastmile_qr_scan", "android": "https://dc.lft.to/lastmile_qr_scan"}, "bike_id": "f14c4ecce82d147ec5d756a6694a80ef", "lat": 38.91031983333333, "name": "f14c4ecce82d147ec5d756a6694a80ef", "lon": -76.92332883333333, "fusion_lon": 0.0}, {"is_reserved": 0, "type": "electric_scooter", "fusion_lat": 0.0, "is_disabled": 0, "rental_uris": {"ios": "https://dc.lft.to/lastmile_qr_scan", "android": "https://dc.lft.to/lastmile_qr_scan"}, "bike_id": "822b4d8f6536f3fef6c73e1a04e36906", "lat": 38.91454366666667, "name": "822b4d8f6536f3fef6c73e1a04e36906", "lon": -77.021966, "fusion_lon": 0.0}, {"is_reserved": 0, "type": "electric_scooter", "fusion_lat": 0.0, "is_disabled": 0, "rental_uris": {"ios": "https://dc.lft.to/lastmile_qr_scan", "android": "https://dc.lft.to/lastmile_qr_scan"}, "bike_id": "e9101de329f02928c453521344e3ec49", "lat": 38.93034183333333, "name": "e9101de329f02928c453521344e3ec49", "lon": -77.03806666666667, "fusion_lon": 0.0}, {"is_reserved": 0, "type": "electric_scooter", "fusion_lat": 0.0, "is_disabled": 0, "rental_uris": {"ios": "https://dc.lft.to/lastmile_qr_scan", "android": "https://dc.lft.to/lastmile_qr_scan"}, "bike_id": "8cfd14224bcd8d9c351acf3ee15df47c", "lat": 38.89982166666667, "name": "8cfd14224bcd8d9c351acf3ee15df47c", "lon": -77.02699216666667, "fusion_lon": 0.0}, {"is_reserved": 0, "type": "electric_scooter", "fusion_lat": 0.0, "is_disabled": 0, "rental_uris": {"ios": "https://dc.lft.to/lastmile_qr_scan", "android": "https://dc.lft.to/lastmile_qr_scan"}, "bike_id": "f17e081a2c4ac8008320517af3de6e4e", "lat": 38.909160666666665, "name": "f17e081a2c4ac8008320517af3de6e4e", "lon": -77.049419, "fusion_lon": 0.0}, {"is_reserved": 0, "type": "electric_scooter", "fusion_lat": 0.0, "is_disabled": 0, "rental_uris": {"ios": "https://dc.lft.to/lastmile_qr_scan", "android": "https://dc.lft.to/lastmile_qr_scan"}, "bike_id": "6363b56a82f4eb84461fc16ea697233a", "lat": 38.924122, "name": "6363b56a82f4eb84461fc16ea697233a", "lon": -77.02008166666667, "fusion_lon": 0.0}, {"is_reserved": 0, "type": "electric_scooter", "fusion_lat": 0.0, "is_disabled": 0, "rental_uris": {"ios": "https://dc.lft.to/lastmile_qr_scan", "android": "https://dc.lft.to/lastmile_qr_scan"}, "bike_id": "467d734ddf6fccec6b491d805a585b61", "lat": 38.89239233333333, "name": "467d734ddf6fccec6b491d805a585b61", "lon": -77.02609416666667, "fusion_lon": 0.0}, {"is_reserved": 0, "type": "electric_scooter", "fusion_lat": 0.0, "is_disabled": 0, "rental_uris": {"ios": "https://dc.lft.to/lastmile_qr_scan", "android": "https://dc.lft.to/lastmile_qr_scan"}, "bike_id": "8d7b87e7d52df1e2a08b151534f618a9", "lat": 38.891650166666665, "name": "8d7b87e7d52df1e2a08b151534f618a9", "lon": -77.01542433333333, "fusion_lon": 0.0}, {"is_reserved": 0, "type": "electric_scooter", "fusion_lat": 0.0, "is_disabled": 0, "rental_uris": {"ios": "https://dc.lft.to/lastmile_qr_scan", "android": "https://dc.lft.to/lastmile_qr_scan"}, "bike_id": "99c1e42c408534fda875719dc0054aa4", "lat": 38.90022483333333, "name": "99c1e42c408534fda875719dc0054aa4", "lon": -77.00747366666667, "fusion_lon": 0.0}, {"is_reserved": 0, "type": "electric_scooter", "fusion_lat": 0.0, "is_disabled": 0, "rental_uris": {"ios": "https://dc.lft.to/lastmile_qr_scan", "android": "https://dc.lft.to/lastmile_qr_scan"}, "bike_id": "fb478e2211ccbaf2a8c95659d7665fee", "lat": 38.90505983333333, "name": "fb478e2211ccbaf2a8c95659d7665fee", "lon": -77.02949983333333, "fusion_lon": 0.0}, {"is_reserved": 0, "type": "electric_scooter", "fusion_lat": 0.0, "is_disabled": 0, "rental_uris": {"ios": "https://dc.lft.to/lastmile_qr_scan", "android": "https://dc.lft.to/lastmile_qr_scan"}, "bike_id": "4cdd14f5cf7a8a55514fffd9557129fe", "lat": 38.92332433333333, "name": "4cdd14f5cf7a8a55514fffd9557129fe", "lon": -77.04302166666666, "fusion_lon": 0.0}, {"is_reserved": 0, "type": "electric_scooter", "fusion_lat": 0.0, "is_disabled": 0, "rental_uris": {"ios": "https://dc.lft.to/lastmile_qr_scan", "android": "https://dc.lft.to/lastmile_qr_scan"}, "bike_id": "1a1d71e525b2f2e335e31fa57cbc1741", "lat": 38.919507833333334, "name": "1a1d71e525b2f2e335e31fa57cbc1741", "lon": -77.0138975, "fusion_lon": 0.0}, {"is_reserved": 0, "type": "electric_scooter", "fusion_lat": 0.0, "is_disabled": 0, "rental_uris": {"ios": "https://dc.lft.to/lastmile_qr_scan", "android": "https://dc.lft.to/lastmile_qr_scan"}, "bike_id": "c4d5c84a44b89036a43f85fd520f19fa", "lat": 38.88304466666666, "name": "c4d5c84a44b89036a43f85fd520f19fa", "lon": -76.993705, "fusion_lon": 0.0}, {"is_reserved": 0, "type": "electric_scooter", "fusion_lat": 0.0, "is_disabled": 0, "rental_uris": {"ios": "https://dc.lft.to/lastmile_qr_scan", "android": "https://dc.lft.to/lastmile_qr_scan"}, "bike_id": "ef1865ec700f810083ed3d27088505fc", "lat": 38.938423666666665, "name": "ef1865ec700f810083ed3d27088505fc", "lon": -77.01955783333334, "fusion_lon": 0.0}, {"is_reserved": 0, "type": "electric_scooter", "fusion_lat": 0.0, "is_disabled": 0, "rental_uris": {"ios": "https://dc.lft.to/lastmile_qr_scan", "android": "https://dc.lft.to/lastmile_qr_scan"}, "bike_id": "1c4b3ed69b201061ef8d04289c503809", "lat": 38.924781333333335, "name": "1c4b3ed69b201061ef8d04289c503809", "lon": -77.02712733333334, "fusion_lon": 0.0}, {"is_reserved": 0, "type": "electric_scooter", "fusion_lat": 0.0, "is_disabled": 0, "rental_uris": {"ios": "https://dc.lft.to/lastmile_qr_scan", "android": "https://dc.lft.to/lastmile_qr_scan"}, "bike_id": "23ad8bb43ccf7eaae69895e451f29f83", "lat": 38.9050785, "name": "23ad8bb43ccf7eaae69895e451f29f83", "lon": -76.95185166666667, "fusion_lon": 0.0}, {"is_reserved": 0, "type": "electric_scooter", "fusion_lat": 0.0, "is_disabled": 0, "rental_uris": {"ios": "https://dc.lft.to/lastmile_qr_scan", "android": "https://dc.lft.to/lastmile_qr_scan"}, "bike_id": "75b154a765b5ec84fbd1918ffbf46b73", "lat": 38.896651166666665, "name": "75b154a765b5ec84fbd1918ffbf46b73", "lon": -76.93208583333333, "fusion_lon": 0.0}, {"is_reserved": 0, "type": "electric_scooter", "fusion_lat": 0.0, "is_disabled": 0, "rental_uris": {"ios": "https://dc.lft.to/lastmile_qr_scan", "android": "https://dc.lft.to/lastmile_qr_scan"}, "bike_id": "a7c2702b7fa938735b5900d6c190ed56", "lat": 38.897268, "name": "a7c2702b7fa938735b5900d6c190ed56", "lon": -77.0191045, "fusion_lon": 0.0}, {"is_reserved": 0, "type": "electric_scooter", "fusion_lat": 0.0, "is_disabled": 0, "rental_uris": {"ios": "https://dc.lft.to/lastmile_qr_scan", "android": "https://dc.lft.to/lastmile_qr_scan"}, "bike_id": "2a4d448b1298dec47ae54c5fbc928ca4", "lat": 38.880799833333334, "name": "2a4d448b1298dec47ae54c5fbc928ca4", "lon": -76.98515933333333, "fusion_lon": 0.0}, {"is_reserved": 0, "type": "electric_scooter", "fusion_lat": 0.0, "is_disabled": 0, "rental_uris": {"ios": "https://dc.lft.to/lastmile_qr_scan", "android": "https://dc.lft.to/lastmile_qr_scan"}, "bike_id": "ba32a403dcebf766f9fb33e8092da4b1", "lat": 38.8854245, "name": "ba32a403dcebf766f9fb33e8092da4b1", "lon": -76.9597385, "fusion_lon": 0.0}, {"is_reserved": 0, "type": "electric_bike", "fusion_lat": 0.0, "is_disabled": 0, "rental_uris": {"ios": "https://dc.lft.to/lastmile_qr_scan", "android": "https://dc.lft.to/lastmile_qr_scan"}, "bike_id": "f18dbd712023351130fc8f63b439f5a8", "lat": 38.860101666666665, "name": "f18dbd712023351130fc8f63b439f5a8", "lon": -77.0653185, "fusion_lon": 0.0}, {"is_reserved": 0, "type": "electric_scooter", "fusion_lat": 0.0, "is_disabled": 0, "rental_uris": {"ios": "https://dc.lft.to/lastmile_qr_scan", "android": "https://dc.lft.to/lastmile_qr_scan"}, "bike_id": "af8ff52d3547c2b54d38b8eccc2a2aab", "lat": 38.900234833333336, "name": "af8ff52d3547c2b54d38b8eccc2a2aab", "lon": -77.020047, "fusion_lon": 0.0}, {"is_reserved": 0, "type": "electric_scooter", "fusion_lat": 0.0, "is_disabled": 0, "rental_uris": {"ios": "https://dc.lft.to/lastmile_qr_scan", "android": "https://dc.lft.to/lastmile_qr_scan"}, "bike_id": "554229119a6e66769d9e0d583cbf0521", "lat": 38.94267766666667, "name": "554229119a6e66769d9e0d583cbf0521", "lon": -77.08193083333333, "fusion_lon": 0.0}, {"is_reserved": 0, "type": "electric_scooter", "fusion_lat": 0.0, "is_disabled": 0, "rental_uris": {"ios": "https://dc.lft.to/lastmile_qr_scan", "android": "https://dc.lft.to/lastmile_qr_scan"}, "bike_id": "e08db57546eb6b1f8109edb27aa647d4", "lat": 38.912585166666666, "name": "e08db57546eb6b1f8109edb27aa647d4", "lon": -77.009922, "fusion_lon": 0.0}, {"is_reserved": 0, "type": "electric_scooter", "fusion_lat": 0.0, "is_disabled": 0, "rental_uris": {"ios": "https://dc.lft.to/lastmile_qr_scan", "android": "https://dc.lft.to/lastmile_qr_scan"}, "bike_id": "8109e482dd728d15637262ebfc11b068", "lat": 38.899586, "name": "8109e482dd728d15637262ebfc11b068", "lon": -77.01507516666666, "fusion_lon": 0.0}, {"is_reserved": 0, "type": "electric_scooter", "fusion_lat": 0.0, "is_disabled": 0, "rental_uris": {"ios": "https://dc.lft.to/lastmile_qr_scan", "android": "https://dc.lft.to/lastmile_qr_scan"}, "bike_id": "48675708ecbaa584f1d9375735eb24fa", "lat": 38.95634716666667, "name": "48675708ecbaa584f1d9375735eb24fa", "lon": -77.03631516666667, "fusion_lon": 0.0}, {"is_reserved": 0, "type": "electric_scooter", "fusion_lat": 0.0, "is_disabled": 0, "rental_uris": {"ios": "https://dc.lft.to/lastmile_qr_scan", "android": "https://dc.lft.to/lastmile_qr_scan"}, "bike_id": "99279f4b878f3b08e79be5f49acf7439", "lat": 38.8919225, "name": "99279f4b878f3b08e79be5f49acf7439", "lon": -77.02125966666667, "fusion_lon": 0.0}, {"is_reserved": 0, "type": "electric_scooter", "fusion_lat": 0.0, "is_disabled": 0, "rental_uris": {"ios": "https://dc.lft.to/lastmile_qr_scan", "android": "https://dc.lft.to/lastmile_qr_scan"}, "bike_id": "0d0262ab8777152839d2aa1d08b82363", "lat": 38.92999366666667, "name": "0d0262ab8777152839d2aa1d08b82363", "lon": -77.03799733333334, "fusion_lon": 0.0}, {"is_reserved": 0, "type": "electric_scooter", "fusion_lat": 0.0, "is_disabled": 0, "rental_uris": {"ios": "https://dc.lft.to/lastmile_qr_scan", "android": "https://dc.lft.to/lastmile_qr_scan"}, "bike_id": "3fb89b5f6e928362575f306ca7fc4b01", "lat": 38.90119083333333, "name": "3fb89b5f6e928362575f306ca7fc4b01", "lon": -77.04104983333333, "fusion_lon": 0.0}, {"is_reserved": 0, "type": "electric_scooter", "fusion_lat": 0.0, "is_disabled": 0, "rental_uris": {"ios": "https://dc.lft.to/lastmile_qr_scan", "android": "https://dc.lft.to/lastmile_qr_scan"}, "bike_id": "c9f8dc5292afc05a1db69561fd7452ec", "lat": 38.893320333333335, "name": "c9f8dc5292afc05a1db69561fd7452ec", "lon": -76.92891183333333, "fusion_lon": 0.0}, {"is_reserved": 0, "type": "electric_scooter", "fusion_lat": 0.0, "is_disabled": 0, "rental_uris": {"ios": "https://dc.lft.to/lastmile_qr_scan", "android": "https://dc.lft.to/lastmile_qr_scan"}, "bike_id": "5ca47bc0a2267bc1c3d3173c19640206", "lat": 38.89242816666667, "name": "5ca47bc0a2267bc1c3d3173c19640206", "lon": -77.03352516666666, "fusion_lon": 0.0}, {"is_reserved": 0, "type": "electric_scooter", "fusion_lat": 0.0, "is_disabled": 0, "rental_uris": {"ios": "https://dc.lft.to/lastmile_qr_scan", "android": "https://dc.lft.to/lastmile_qr_scan"}, "bike_id": "a55e5c66c21acc5c78ea92d001c1b66a", "lat": 38.9555, "name": "a55e5c66c21acc5c78ea92d001c1b66a", "lon": -77.033357, "fusion_lon": 0.0}, {"is_reserved": 0, "type": "electric_scooter", "fusion_lat": 0.0, "is_disabled": 0, "rental_uris": {"ios": "https://dc.lft.to/lastmile_qr_scan", "android": "https://dc.lft.to/lastmile_qr_scan"}, "bike_id": "ca09b3909aa310589d9dd06624540e9f", "lat": 38.89843316666666, "name": "ca09b3909aa310589d9dd06624540e9f", "lon": -77.0020355, "fusion_lon": 0.0}, {"is_reserved": 0, "type": "electric_bike", "fusion_lat": 0.0, "is_disabled": 0, "rental_uris": {"ios": "https://dc.lft.to/lastmile_qr_scan", "android": "https://dc.lft.to/lastmile_qr_scan"}, "bike_id": "ba66be1e53bd1d8ebdb621f81fd8ee3f", "lat": 38.974371166666664, "name": "ba66be1e53bd1d8ebdb621f81fd8ee3f", "lon": -77.09617566666667, "fusion_lon": 0.0}, {"is_reserved": 0, "type": "electric_scooter", "fusion_lat": 0.0, "is_disabled": 0, "rental_uris": {"ios": "https://dc.lft.to/lastmile_qr_scan", "android": "https://dc.lft.to/lastmile_qr_scan"}, "bike_id": "d9ff1af473568506eebe0a2b61b6c79a", "lat": 38.855424666666664, "name": "d9ff1af473568506eebe0a2b61b6c79a", "lon": -76.98662716666666, "fusion_lon": 0.0}, {"is_reserved": 0, "type": "electric_scooter", "fusion_lat": 0.0, "is_disabled": 0, "rental_uris": {"ios": "https://dc.lft.to/lastmile_qr_scan", "android": "https://dc.lft.to/lastmile_qr_scan"}, "bike_id": "dbea1ef304cfa1790168136b6b518fb2", "lat": 38.90590983333333, "name": "dbea1ef304cfa1790168136b6b518fb2", "lon": -77.065906, "fusion_lon": 0.0}, {"is_reserved": 0, "type": "electric_scooter", "fusion_lat": 0.0, "is_disabled": 0, "rental_uris": {"ios": "https://dc.lft.to/lastmile_qr_scan", "android": "https://dc.lft.to/lastmile_qr_scan"}, "bike_id": "76ba60ec246c43941bd1ea2c5d12716a", "lat": 38.905482, "name": "76ba60ec246c43941bd1ea2c5d12716a", "lon": -77.05321366666666, "fusion_lon": 0.0}, {"is_reserved": 0, "type": "electric_scooter", "fusion_lat": 0.0, "is_disabled": 0, "rental_uris": {"ios": "https://dc.lft.to/lastmile_qr_scan", "android": "https://dc.lft.to/lastmile_qr_scan"}, "bike_id": "932d7165b59236fa3505a8cb17c00223", "lat": 38.917061833333335, "name": "932d7165b59236fa3505a8cb17c00223", "lon": -77.02410116666667, "fusion_lon": 0.0}, {"is_reserved": 0, "type": "electric_scooter", "fusion_lat": 0.0, "is_disabled": 0, "rental_uris": {"ios": "https://dc.lft.to/lastmile_qr_scan", "android": "https://dc.lft.to/lastmile_qr_scan"}, "bike_id": "814f0e4ad7634784685b39ce16832acc", "lat": 38.946457833333334, "name": "814f0e4ad7634784685b39ce16832acc", "lon": -77.01742433333334, "fusion_lon": 0.0}, {"is_reserved": 0, "type": "electric_bike", "fusion_lat": 0.0, "is_disabled": 0, "rental_uris": {"ios": "https://dc.lft.to/lastmile_qr_scan", "android": "https://dc.lft.to/lastmile_qr_scan"}, "bike_id": "9c9d312c02423e1935bd0513b45b3774", "lat": 38.87525483333334, "name": "9c9d312c02423e1935bd0513b45b3774", "lon": -77.00828216666666, "fusion_lon": 0.0}, {"is_reserved": 0, "type": "electric_scooter", "fusion_lat": 0.0, "is_disabled": 0, "rental_uris": {"ios": "https://dc.lft.to/lastmile_qr_scan", "android": "https://dc.lft.to/lastmile_qr_scan"}, "bike_id": "939a83eee62e435380b737030291e40e", "lat": 38.916853333333336, "name": "939a83eee62e435380b737030291e40e", "lon": -77.02948916666666, "fusion_lon": 0.0}, {"is_reserved": 0, "type": "electric_scooter", "fusion_lat": 0.0, "is_disabled": 0, "rental_uris": {"ios": "https://dc.lft.to/lastmile_qr_scan", "android": "https://dc.lft.to/lastmile_qr_scan"}, "bike_id": "23c9cb4fc6a107fe7bfd3f37f6304ea1", "lat": 38.94268533333333, "name": "23c9cb4fc6a107fe7bfd3f37f6304ea1", "lon": -77.02937616666667, "fusion_lon": 0.0}, {"is_reserved": 0, "type": "electric_scooter", "fusion_lat": 0.0, "is_disabled": 0, "rental_uris": {"ios": "https://dc.lft.to/lastmile_qr_scan", "android": "https://dc.lft.to/lastmile_qr_scan"}, "bike_id": "a613423d65a19a2dbfda6ba89f54aa32", "lat": 38.9097295, "name": "a613423d65a19a2dbfda6ba89f54aa32", "lon": -77.0240245, "fusion_lon": 0.0}, {"is_reserved": 0, "type": "electric_scooter", "fusion_lat": 0.0, "is_disabled": 0, "rental_uris": {"ios": "https://dc.lft.to/lastmile_qr_scan", "android": "https://dc.lft.to/lastmile_qr_scan"}, "bike_id": "051b708cfc52b74657d981fa708522d2", "lat": 38.918629333333335, "name": "051b708cfc52b74657d981fa708522d2", "lon": -77.0280945, "fusion_lon": 0.0}, {"is_reserved": 0, "type": "electric_scooter", "fusion_lat": 0.0, "is_disabled": 0, "rental_uris": {"ios": "https://dc.lft.to/lastmile_qr_scan", "android": "https://dc.lft.to/lastmile_qr_scan"}, "bike_id": "184ca0523279bf83dc454461a03f1622", "lat": 38.905052166666664, "name": "184ca0523279bf83dc454461a03f1622", "lon": -77.05128216666667, "fusion_lon": 0.0}, {"is_reserved": 0, "type": "electric_scooter", "fusion_lat": 0.0, "is_disabled": 0, "rental_uris": {"ios": "https://dc.lft.to/lastmile_qr_scan", "android": "https://dc.lft.to/lastmile_qr_scan"}, "bike_id": "e3b585ec455f4970a72aa3db4de4facb", "lat": 38.90266, "name": "e3b585ec455f4970a72aa3db4de4facb", "lon": -77.02715766666667, "fusion_lon": 0.0}, {"is_reserved": 0, "type": "electric_bike", "fusion_lat": 0.0, "is_disabled": 0, "rental_uris": {"ios": "https://dc.lft.to/lastmile_qr_scan", "android": "https://dc.lft.to/lastmile_qr_scan"}, "bike_id": "a2f4001cd26f384f227d61587f6e687a", "lat": 38.901298, "name": "a2f4001cd26f384f227d61587f6e687a", "lon": -76.99602333333333, "fusion_lon": 0.0}, {"is_reserved": 0, "type": "electric_scooter", "fusion_lat": 0.0, "is_disabled": 0, "rental_uris": {"ios": "https://dc.lft.to/lastmile_qr_scan", "android": "https://dc.lft.to/lastmile_qr_scan"}, "bike_id": "f77819340252b7e340fb5bb1c98a017c", "lat": 38.9194365, "name": "f77819340252b7e340fb5bb1c98a017c", "lon": -77.01394733333333, "fusion_lon": 0.0}, {"is_reserved": 0, "type": "electric_scooter", "fusion_lat": 0.0, "is_disabled": 0, "rental_uris": {"ios": "https://dc.lft.to/lastmile_qr_scan", "android": "https://dc.lft.to/lastmile_qr_scan"}, "bike_id": "d33d024ca75b99d6253d391eb0a83640", "lat": 38.89221933333334, "name": "d33d024ca75b99d6253d391eb0a83640", "lon": -77.02232566666666, "fusion_lon": 0.0}, {"is_reserved": 0, "type": "electric_scooter", "fusion_lat": 0.0, "is_disabled": 0, "rental_uris": {"ios": "https://dc.lft.to/lastmile_qr_scan", "android": "https://dc.lft.to/lastmile_qr_scan"}, "bike_id": "6f16ba06dddb3253c28da24e517f0fbc", "lat": 38.93659066666667, "name": "6f16ba06dddb3253c28da24e517f0fbc", "lon": -77.0661075, "fusion_lon": 0.0}, {"is_reserved": 0, "type": "electric_scooter", "fusion_lat": 0.0, "is_disabled": 0, "rental_uris": {"ios": "https://dc.lft.to/lastmile_qr_scan", "android": "https://dc.lft.to/lastmile_qr_scan"}, "bike_id": "085b404c0ffb42ea788944fcb7ac4246", "lat": 38.887366666666665, "name": "085b404c0ffb42ea788944fcb7ac4246", "lon": -77.01531433333334, "fusion_lon": 0.0}, {"is_reserved": 0, "type": "electric_bike", "fusion_lat": 0.0, "is_disabled": 0, "rental_uris": {"ios": "https://dc.lft.to/lastmile_qr_scan", "android": "https://dc.lft.to/lastmile_qr_scan"}, "bike_id": "f26d48e50b815d65c5fca3185a7e6d36", "lat": 38.96430316666667, "name": "f26d48e50b815d65c5fca3185a7e6d36", "lon": -77.031869, "fusion_lon": 0.0}, {"is_reserved": 0, "type": "electric_scooter", "fusion_lat": 0.0, "is_disabled": 0, "rental_uris": {"ios": "https://dc.lft.to/lastmile_qr_scan", "android": "https://dc.lft.to/lastmile_qr_scan"}, "bike_id": "98fcaeaaeab1edf93e14a62307d21fbd", "lat": 38.887457833333336, "name": "98fcaeaaeab1edf93e14a62307d21fbd", "lon": -77.026285, "fusion_lon": 0.0}, {"is_reserved": 0, "type": "electric_scooter", "fusion_lat": 0.0, "is_disabled": 0, "rental_uris": {"ios": "https://dc.lft.to/lastmile_qr_scan", "android": "https://dc.lft.to/lastmile_qr_scan"}, "bike_id": "2b10beae941945a9ba93b9b088b9ffd6", "lat": 38.921073, "name": "2b10beae941945a9ba93b9b088b9ffd6", "lon": -77.04172816666667, "fusion_lon": 0.0}, {"is_reserved": 0, "type": "electric_scooter", "fusion_lat": 0.0, "is_disabled": 0, "rental_uris": {"ios": "https://dc.lft.to/lastmile_qr_scan", "android": "https://dc.lft.to/lastmile_qr_scan"}, "bike_id": "8932f9e955f4315db3c0d96ce5650dd9", "lat": 38.928731166666665, "name": "8932f9e955f4315db3c0d96ce5650dd9", "lon": -77.032467, "fusion_lon": 0.0}, {"is_reserved": 0, "type": "electric_scooter", "fusion_lat": 0.0, "is_disabled": 0, "rental_uris": {"ios": "https://dc.lft.to/lastmile_qr_scan", "android": "https://dc.lft.to/lastmile_qr_scan"}, "bike_id": "c573bd9c60d8c001df74453ae06d482e", "lat": 38.89499383333333, "name": "c573bd9c60d8c001df74453ae06d482e", "lon": -77.02288966666667, "fusion_lon": 0.0}, {"is_reserved": 0, "type": "electric_scooter", "fusion_lat": 0.0, "is_disabled": 0, "rental_uris": {"ios": "https://dc.lft.to/lastmile_qr_scan", "android": "https://dc.lft.to/lastmile_qr_scan"}, "bike_id": "5e0a105012db84cf5b53815ebfbe828f", "lat": 38.922194, "name": "5e0a105012db84cf5b53815ebfbe828f", "lon": -77.04244383333334, "fusion_lon": 0.0}, {"is_reserved": 0, "type": "electric_scooter", "fusion_lat": 0.0, "is_disabled": 0, "rental_uris": {"ios": "https://dc.lft.to/lastmile_qr_scan", "android": "https://dc.lft.to/lastmile_qr_scan"}, "bike_id": "76c4b79ee1093bf03e237c03608dbe66", "lat": 38.90982433333333, "name": "76c4b79ee1093bf03e237c03608dbe66", "lon": -77.02875816666666, "fusion_lon": 0.0}, {"is_reserved": 0, "type": "electric_bike", "fusion_lat": 0.0, "is_disabled": 0, "rental_uris": {"ios": "https://dc.lft.to/lastmile_qr_scan", "android": "https://dc.lft.to/lastmile_qr_scan"}, "bike_id": "d0df243a169d9658463f770b81e8be76", "lat": 38.829248, "name": "d0df243a169d9658463f770b81e8be76", "lon": -77.06879183333334, "fusion_lon": 0.0}, {"is_reserved": 0, "type": "electric_scooter", "fusion_lat": 0.0, "is_disabled": 0, "rental_uris": {"ios": "https://dc.lft.to/lastmile_qr_scan", "android": "https://dc.lft.to/lastmile_qr_scan"}, "bike_id": "eee1a321bd32175cf14d8387e169a754", "lat": 38.92332966666667, "name": "eee1a321bd32175cf14d8387e169a754", "lon": -77.03513166666667, "fusion_lon": 0.0}, {"is_reserved": 0, "type": "electric_scooter", "fusion_lat": 0.0, "is_disabled": 0, "rental_uris": {"ios": "https://dc.lft.to/lastmile_qr_scan", "android": "https://dc.lft.to/lastmile_qr_scan"}, "bike_id": "135ca647d2a2830ad23cc43c9a4fc908", "lat": 38.92370066666667, "name": "135ca647d2a2830ad23cc43c9a4fc908", "lon": -77.040972, "fusion_lon": 0.0}, {"is_reserved": 0, "type": "electric_scooter", "fusion_lat": 0.0, "is_disabled": 0, "rental_uris": {"ios": "https://dc.lft.to/lastmile_qr_scan", "android": "https://dc.lft.to/lastmile_qr_scan"}, "bike_id": "9b03f651fc941ca2128dfe02341bb1cd", "lat": 38.92239566666667, "name": "9b03f651fc941ca2128dfe02341bb1cd", "lon": -77.03662983333334, "fusion_lon": 0.0}, {"is_reserved": 0, "type": "electric_scooter", "fusion_lat": 0.0, "is_disabled": 0, "rental_uris": {"ios": "https://dc.lft.to/lastmile_qr_scan", "android": "https://dc.lft.to/lastmile_qr_scan"}, "bike_id": "4c416eaa923e8ddbfacf19a4ce294401", "lat": 38.880370166666665, "name": "4c416eaa923e8ddbfacf19a4ce294401", "lon": -76.92723216666667, "fusion_lon": 0.0}, {"is_reserved": 0, "type": "electric_scooter", "fusion_lat": 0.0, "is_disabled": 0, "rental_uris": {"ios": "https://dc.lft.to/lastmile_qr_scan", "android": "https://dc.lft.to/lastmile_qr_scan"}, "bike_id": "36aa6957f42ee11e7411699e4065e43c", "lat": 38.90630783333334, "name": "36aa6957f42ee11e7411699e4065e43c", "lon": -77.05026866666667, "fusion_lon": 0.0}, {"is_reserved": 0, "type": "electric_scooter", "fusion_lat": 0.0, "is_disabled": 0, "rental_uris": {"ios": "https://dc.lft.to/lastmile_qr_scan", "android": "https://dc.lft.to/lastmile_qr_scan"}, "bike_id": "964fc55ef71a45446abcb42e6b312552", "lat": 38.94171566666667, "name": "964fc55ef71a45446abcb42e6b312552", "lon": -77.02535516666667, "fusion_lon": 0.0}, {"is_reserved": 0, "type": "electric_scooter", "fusion_lat": 0.0, "is_disabled": 0, "rental_uris": {"ios": "https://dc.lft.to/lastmile_qr_scan", "android": "https://dc.lft.to/lastmile_qr_scan"}, "bike_id": "dc4a8446f5b7a15980e7c36b4d3c4343", "lat": 38.89908783333333, "name": "dc4a8446f5b7a15980e7c36b4d3c4343", "lon": -76.93385549999999, "fusion_lon": 0.0}, {"is_reserved": 0, "type": "electric_bike", "fusion_lat": 0.0, "is_disabled": 0, "rental_uris": {"ios": "https://dc.lft.to/lastmile_qr_scan", "android": "https://dc.lft.to/lastmile_qr_scan"}, "bike_id": "ebb6e8380a13f0c1f31a833cda8cd865", "lat": 38.8776205, "name": "ebb6e8380a13f0c1f31a833cda8cd865", "lon": -77.01052283333334, "fusion_lon": 0.0}, {"is_reserved": 0, "type": "electric_scooter", "fusion_lat": 0.0, "is_disabled": 0, "rental_uris": {"ios": "https://dc.lft.to/lastmile_qr_scan", "android": "https://dc.lft.to/lastmile_qr_scan"}, "bike_id": "a0fba09f6541a7d0316e3f0082415551", "lat": 38.92015166666667, "name": "a0fba09f6541a7d0316e3f0082415551", "lon": -77.071386, "fusion_lon": 0.0}, {"is_reserved": 0, "type": "electric_scooter", "fusion_lat": 0.0, "is_disabled": 0, "rental_uris": {"ios": "https://dc.lft.to/lastmile_qr_scan", "android": "https://dc.lft.to/lastmile_qr_scan"}, "bike_id": "2b49030b5652af8475477ecf96e9114c", "lat": 38.92071283333333, "name": "2b49030b5652af8475477ecf96e9114c", "lon": -77.02512016666667, "fusion_lon": 0.0}, {"is_reserved": 0, "type": "electric_scooter", "fusion_lat": 0.0, "is_disabled": 0, "rental_uris": {"ios": "https://dc.lft.to/lastmile_qr_scan", "android": "https://dc.lft.to/lastmile_qr_scan"}, "bike_id": "3be8efd36cfaa76b4e439b67cb3836cc", "lat": 38.897339333333335, "name": "3be8efd36cfaa76b4e439b67cb3836cc", "lon": -77.04150466666667, "fusion_lon": 0.0}, {"is_reserved": 0, "type": "electric_scooter", "fusion_lat": 0.0, "is_disabled": 0, "rental_uris": {"ios": "https://dc.lft.to/lastmile_qr_scan", "android": "https://dc.lft.to/lastmile_qr_scan"}, "bike_id": "3b9170828e17145da66234e4f601c2a9", "lat": 38.87843766666667, "name": "3b9170828e17145da66234e4f601c2a9", "lon": -77.00573583333333, "fusion_lon": 0.0}, {"is_reserved": 0, "type": "electric_scooter", "fusion_lat": 0.0, "is_disabled": 0, "rental_uris": {"ios": "https://dc.lft.to/lastmile_qr_scan", "android": "https://dc.lft.to/lastmile_qr_scan"}, "bike_id": "fff39d38c93e02422d23cc462eeee478", "lat": 38.9322275, "name": "fff39d38c93e02422d23cc462eeee478", "lon": -77.03530433333333, "fusion_lon": 0.0}, {"is_reserved": 0, "type": "electric_scooter", "fusion_lat": 0.0, "is_disabled": 0, "rental_uris": {"ios": "https://dc.lft.to/lastmile_qr_scan", "android": "https://dc.lft.to/lastmile_qr_scan"}, "bike_id": "a9e89bb82ae7b3dd87f3da5aafff41f0", "lat": 38.903437833333335, "name": "a9e89bb82ae7b3dd87f3da5aafff41f0", "lon": -76.97491766666667, "fusion_lon": 0.0}, {"is_reserved": 0, "type": "electric_scooter", "fusion_lat": 0.0, "is_disabled": 0, "rental_uris": {"ios": "https://dc.lft.to/lastmile_qr_scan", "android": "https://dc.lft.to/lastmile_qr_scan"}, "bike_id": "96e892daf9ce1958665feb69ffdda4e0", "lat": 38.939304, "name": "96e892daf9ce1958665feb69ffdda4e0", "lon": -77.02590533333333, "fusion_lon": 0.0}, {"is_reserved": 0, "type": "electric_scooter", "fusion_lat": 0.0, "is_disabled": 0, "rental_uris": {"ios": "https://dc.lft.to/lastmile_qr_scan", "android": "https://dc.lft.to/lastmile_qr_scan"}, "bike_id": "e1c76faa5388778f08804af90987b62a", "lat": 38.92372983333333, "name": "e1c76faa5388778f08804af90987b62a", "lon": -77.0291805, "fusion_lon": 0.0}, {"is_reserved": 0, "type": "electric_scooter", "fusion_lat": 0.0, "is_disabled": 0, "rental_uris": {"ios": "https://dc.lft.to/lastmile_qr_scan", "android": "https://dc.lft.to/lastmile_qr_scan"}, "bike_id": "f3e993387f8292cfe755a0ef60580238", "lat": 38.904123166666665, "name": "f3e993387f8292cfe755a0ef60580238", "lon": -77.0324635, "fusion_lon": 0.0}, {"is_reserved": 0, "type": "electric_scooter", "fusion_lat": 0.0, "is_disabled": 0, "rental_uris": {"ios": "https://dc.lft.to/lastmile_qr_scan", "android": "https://dc.lft.to/lastmile_qr_scan"}, "bike_id": "11b61bc6d5c84885f9b715190620af9f", "lat": 38.88635983333333, "name": "11b61bc6d5c84885f9b715190620af9f", "lon": -77.02216433333334, "fusion_lon": 0.0}, {"is_reserved": 0, "type": "electric_scooter", "fusion_lat": 0.0, "is_disabled": 0, "rental_uris": {"ios": "https://dc.lft.to/lastmile_qr_scan", "android": "https://dc.lft.to/lastmile_qr_scan"}, "bike_id": "e67214b347a511b77cc2ce2fb3c4ff92", "lat": 38.916246, "name": "e67214b347a511b77cc2ce2fb3c4ff92", "lon": -77.00500216666667, "fusion_lon": 0.0}, {"is_reserved": 0, "type": "electric_scooter", "fusion_lat": 0.0, "is_disabled": 0, "rental_uris": {"ios": "https://dc.lft.to/lastmile_qr_scan", "android": "https://dc.lft.to/lastmile_qr_scan"}, "bike_id": "f6bb73b8b7e46aa92e7114a17c44b1ad", "lat": 38.901934, "name": "f6bb73b8b7e46aa92e7114a17c44b1ad", "lon": -76.999488, "fusion_lon": 0.0}, {"is_reserved": 0, "type": "electric_bike", "fusion_lat": 0.0, "is_disabled": 0, "rental_uris": {"ios": "https://dc.lft.to/lastmile_qr_scan", "android": "https://dc.lft.to/lastmile_qr_scan"}, "bike_id": "7524e4490d07f138a7ba97c5afdf5593", "lat": 38.9264585, "name": "7524e4490d07f138a7ba97c5afdf5593", "lon": -77.0901995, "fusion_lon": 0.0}, {"is_reserved": 0, "type": "electric_scooter", "fusion_lat": 0.0, "is_disabled": 0, "rental_uris": {"ios": "https://dc.lft.to/lastmile_qr_scan", "android": "https://dc.lft.to/lastmile_qr_scan"}, "bike_id": "e459f87ac42e25bd890af1b390ac0916", "lat": 38.906082833333336, "name": "e459f87ac42e25bd890af1b390ac0916", "lon": -77.00548266666667, "fusion_lon": 0.0}, {"is_reserved": 0, "type": "electric_bike", "fusion_lat": 0.0, "is_disabled": 0, "rental_uris": {"ios": "https://dc.lft.to/lastmile_qr_scan", "android": "https://dc.lft.to/lastmile_qr_scan"}, "bike_id": "82648ca6a892f7c0a19eb05ece498e67", "lat": 38.97153016666667, "name": "82648ca6a892f7c0a19eb05ece498e67", "lon": -76.983633, "fusion_lon": 0.0}, {"is_reserved": 0, "type": "electric_scooter", "fusion_lat": 0.0, "is_disabled": 0, "rental_uris": {"ios": "https://dc.lft.to/lastmile_qr_scan", "android": "https://dc.lft.to/lastmile_qr_scan"}, "bike_id": "413896c1ef365ba183dec3f86d4c7147", "lat": 38.92053083333333, "name": "413896c1ef365ba183dec3f86d4c7147", "lon": -76.99886183333334, "fusion_lon": 0.0}, {"is_reserved": 0, "type": "electric_scooter", "fusion_lat": 0.0, "is_disabled": 0, "rental_uris": {"ios": "https://dc.lft.to/lastmile_qr_scan", "android": "https://dc.lft.to/lastmile_qr_scan"}, "bike_id": "a65eeefa7e5b0a71ad9cdee74f9c7428", "lat": 38.92170333333333, "name": "a65eeefa7e5b0a71ad9cdee74f9c7428", "lon": -77.03836183333334, "fusion_lon": 0.0}, {"is_reserved": 0, "type": "electric_scooter", "fusion_lat": 0.0, "is_disabled": 0, "rental_uris": {"ios": "https://dc.lft.to/lastmile_qr_scan", "android": "https://dc.lft.to/lastmile_qr_scan"}, "bike_id": "715862d0aed4a2275c492b1a2699065a", "lat": 38.9233215, "name": "715862d0aed4a2275c492b1a2699065a", "lon": -77.028084, "fusion_lon": 0.0}, {"is_reserved": 0, "type": "electric_scooter", "fusion_lat": 0.0, "is_disabled": 0, "rental_uris": {"ios": "https://dc.lft.to/lastmile_qr_scan", "android": "https://dc.lft.to/lastmile_qr_scan"}, "bike_id": "92082017ba77a395bdbb5fc1f2810c1c", "lat": 38.91817283333334, "name": "92082017ba77a395bdbb5fc1f2810c1c", "lon": -77.03164833333334, "fusion_lon": 0.0}, {"is_reserved": 0, "type": "electric_scooter", "fusion_lat": 0.0, "is_disabled": 0, "rental_uris": {"ios": "https://dc.lft.to/lastmile_qr_scan", "android": "https://dc.lft.to/lastmile_qr_scan"}, "bike_id": "b505b4cec8cedb8e85700a61cf70fbab", "lat": 38.909078, "name": "b505b4cec8cedb8e85700a61cf70fbab", "lon": -77.03511716666667, "fusion_lon": 0.0}, {"is_reserved": 0, "type": "electric_scooter", "fusion_lat": 0.0, "is_disabled": 0, "rental_uris": {"ios": "https://dc.lft.to/lastmile_qr_scan", "android": "https://dc.lft.to/lastmile_qr_scan"}, "bike_id": "9e115c5211e7dc7b5f05863711cb42ef", "lat": 38.901500666666664, "name": "9e115c5211e7dc7b5f05863711cb42ef", "lon": -77.038107, "fusion_lon": 0.0}, {"is_reserved": 0, "type": "electric_scooter", "fusion_lat": 0.0, "is_disabled": 0, "rental_uris": {"ios": "https://dc.lft.to/lastmile_qr_scan", "android": "https://dc.lft.to/lastmile_qr_scan"}, "bike_id": "603485398a81293f41158178ac3ab408", "lat": 38.89995616666667, "name": "603485398a81293f41158178ac3ab408", "lon": -77.02633, "fusion_lon": 0.0}, {"is_reserved": 0, "type": "electric_scooter", "fusion_lat": 0.0, "is_disabled": 0, "rental_uris": {"ios": "https://dc.lft.to/lastmile_qr_scan", "android": "https://dc.lft.to/lastmile_qr_scan"}, "bike_id": "93801b542ced165c89787dcc8612acb2", "lat": 38.921594, "name": "93801b542ced165c89787dcc8612acb2", "lon": -77.0338245, "fusion_lon": 0.0}, {"is_reserved": 0, "type": "electric_scooter", "fusion_lat": 0.0, "is_disabled": 0, "rental_uris": {"ios": "https://dc.lft.to/lastmile_qr_scan", "android": "https://dc.lft.to/lastmile_qr_scan"}, "bike_id": "555d5bec2068929d2b914875707a3a7f", "lat": 38.92162833333333, "name": "555d5bec2068929d2b914875707a3a7f", "lon": -77.0402835, "fusion_lon": 0.0}, {"is_reserved": 0, "type": "electric_bike", "fusion_lat": 0.0, "is_disabled": 0, "rental_uris": {"ios": "https://dc.lft.to/lastmile_qr_scan", "android": "https://dc.lft.to/lastmile_qr_scan"}, "bike_id": "f338c59b9809624fa6d42bc444225686", "lat": 38.81937166666667, "name": "f338c59b9809624fa6d42bc444225686", "lon": -77.00212333333333, "fusion_lon": 0.0}, {"is_reserved": 0, "type": "electric_scooter", "fusion_lat": 0.0, "is_disabled": 0, "rental_uris": {"ios": "https://dc.lft.to/lastmile_qr_scan", "android": "https://dc.lft.to/lastmile_qr_scan"}, "bike_id": "09e1567eae159994b46a7a985a606529", "lat": 38.92342133333333, "name": "09e1567eae159994b46a7a985a606529", "lon": -77.05787433333333, "fusion_lon": 0.0}, {"is_reserved": 0, "type": "electric_scooter", "fusion_lat": 0.0, "is_disabled": 0, "rental_uris": {"ios": "https://dc.lft.to/lastmile_qr_scan", "android": "https://dc.lft.to/lastmile_qr_scan"}, "bike_id": "d90c4550dc267ac6332e6b9772613ce4", "lat": 38.91584616666667, "name": "d90c4550dc267ac6332e6b9772613ce4", "lon": -76.98299366666667, "fusion_lon": 0.0}, {"is_reserved": 0, "type": "electric_scooter", "fusion_lat": 0.0, "is_disabled": 0, "rental_uris": {"ios": "https://dc.lft.to/lastmile_qr_scan", "android": "https://dc.lft.to/lastmile_qr_scan"}, "bike_id": "6a03af66d67e8dbbf603898f0654b873", "lat": 38.8662875, "name": "6a03af66d67e8dbbf603898f0654b873", "lon": -76.982612, "fusion_lon": 0.0}, {"is_reserved": 0, "type": "electric_scooter", "fusion_lat": 0.0, "is_disabled": 0, "rental_uris": {"ios": "https://dc.lft.to/lastmile_qr_scan", "android": "https://dc.lft.to/lastmile_qr_scan"}, "bike_id": "a00a654d228a94903b7714e507776b91", "lat": 38.90608566666667, "name": "a00a654d228a94903b7714e507776b91", "lon": -77.0055435, "fusion_lon": 0.0}, {"is_reserved": 0, "type": "electric_scooter", "fusion_lat": 0.0, "is_disabled": 0, "rental_uris": {"ios": "https://dc.lft.to/lastmile_qr_scan", "android": "https://dc.lft.to/lastmile_qr_scan"}, "bike_id": "94b84472862cbb9046e3c790a9f8dc2f", "lat": 38.9235095, "name": "94b84472862cbb9046e3c790a9f8dc2f", "lon": -77.04146133333333, "fusion_lon": 0.0}, {"is_reserved": 0, "type": "electric_scooter", "fusion_lat": 0.0, "is_disabled": 0, "rental_uris": {"ios": "https://dc.lft.to/lastmile_qr_scan", "android": "https://dc.lft.to/lastmile_qr_scan"}, "bike_id": "1bdd7339c25523cd40cde12e5d71292f", "lat": 38.8763565, "name": "1bdd7339c25523cd40cde12e5d71292f", "lon": -76.99294783333333, "fusion_lon": 0.0}, {"is_reserved": 0, "type": "electric_scooter", "fusion_lat": 0.0, "is_disabled": 0, "rental_uris": {"ios": "https://dc.lft.to/lastmile_qr_scan", "android": "https://dc.lft.to/lastmile_qr_scan"}, "bike_id": "e09fdecdbc2af735718e4dfcacfaca99", "lat": 38.9017945, "name": "e09fdecdbc2af735718e4dfcacfaca99", "lon": -76.9984595, "fusion_lon": 0.0}, {"is_reserved": 0, "type": "electric_scooter", "fusion_lat": 0.0, "is_disabled": 0, "rental_uris": {"ios": "https://dc.lft.to/lastmile_qr_scan", "android": "https://dc.lft.to/lastmile_qr_scan"}, "bike_id": "fba503630549c3f9ad2a68604f5494bd", "lat": 38.901842, "name": "fba503630549c3f9ad2a68604f5494bd", "lon": -77.0022095, "fusion_lon": 0.0}, {"is_reserved": 0, "type": "electric_scooter", "fusion_lat": 0.0, "is_disabled": 0, "rental_uris": {"ios": "https://dc.lft.to/lastmile_qr_scan", "android": "https://dc.lft.to/lastmile_qr_scan"}, "bike_id": "9c2eb4c718b71ea09e379e89f11ab958", "lat": 38.902405, "name": "9c2eb4c718b71ea09e379e89f11ab958", "lon": -77.01953516666667, "fusion_lon": 0.0}, {"is_reserved": 0, "type": "electric_bike", "fusion_lat": 0.0, "is_disabled": 0, "rental_uris": {"ios": "https://dc.lft.to/lastmile_qr_scan", "android": "https://dc.lft.to/lastmile_qr_scan"}, "bike_id": "a9aaa97b333fc59f345efddbaf6d0a13", "lat": 38.911921666666665, "name": "a9aaa97b333fc59f345efddbaf6d0a13", "lon": -77.01123666666666, "fusion_lon": 0.0}, {"is_reserved": 0, "type": "electric_scooter", "fusion_lat": 0.0, "is_disabled": 0, "rental_uris": {"ios": "https://dc.lft.to/lastmile_qr_scan", "android": "https://dc.lft.to/lastmile_qr_scan"}, "bike_id": "56086a011e0cae60259e37f3dafa295c", "lat": 38.9350835, "name": "56086a011e0cae60259e37f3dafa295c", "lon": -77.05696283333333, "fusion_lon": 0.0}, {"is_reserved": 0, "type": "electric_scooter", "fusion_lat": 0.0, "is_disabled": 0, "rental_uris": {"ios": "https://dc.lft.to/lastmile_qr_scan", "android": "https://dc.lft.to/lastmile_qr_scan"}, "bike_id": "54b11ea570a1b63bb911fcb50f2a8298", "lat": 38.905314, "name": "54b11ea570a1b63bb911fcb50f2a8298", "lon": -77.05686866666667, "fusion_lon": 0.0}, {"is_reserved": 0, "type": "electric_scooter", "fusion_lat": 0.0, "is_disabled": 0, "rental_uris": {"ios": "https://dc.lft.to/lastmile_qr_scan", "android": "https://dc.lft.to/lastmile_qr_scan"}, "bike_id": "d871af95f32142d6c9c22c0513bd0f12", "lat": 38.8924375, "name": "d871af95f32142d6c9c22c0513bd0f12", "lon": -77.02613333333333, "fusion_lon": 0.0}, {"is_reserved": 0, "type": "electric_scooter", "fusion_lat": 0.0, "is_disabled": 0, "rental_uris": {"ios": "https://dc.lft.to/lastmile_qr_scan", "android": "https://dc.lft.to/lastmile_qr_scan"}, "bike_id": "6c47adfa80e4b53a439a19dde75f3bae", "lat": 38.88521983333333, "name": "6c47adfa80e4b53a439a19dde75f3bae", "lon": -76.99608633333334, "fusion_lon": 0.0}, {"is_reserved": 0, "type": "electric_bike", "fusion_lat": 0.0, "is_disabled": 0, "rental_uris": {"ios": "https://dc.lft.to/lastmile_qr_scan", "android": "https://dc.lft.to/lastmile_qr_scan"}, "bike_id": "5ca29ac26c6df877e4d98be17fa2f3f2", "lat": 38.91155716666667, "name": "5ca29ac26c6df877e4d98be17fa2f3f2", "lon": -77.00280416666666, "fusion_lon": 0.0}, {"is_reserved": 0, "type": "electric_scooter", "fusion_lat": 0.0, "is_disabled": 0, "rental_uris": {"ios": "https://dc.lft.to/lastmile_qr_scan", "android": "https://dc.lft.to/lastmile_qr_scan"}, "bike_id": "59000355c89de093143b612867d21ecf", "lat": 38.901838, "name": "59000355c89de093143b612867d21ecf", "lon": -77.00205516666666, "fusion_lon": 0.0}, {"is_reserved": 0, "type": "electric_bike", "fusion_lat": 0.0, "is_disabled": 0, "rental_uris": {"ios": "https://dc.lft.to/lastmile_qr_scan", "android": "https://dc.lft.to/lastmile_qr_scan"}, "bike_id": "9ae7b75c10261246db6316707dfe45a9", "lat": 38.87738916666667, "name": "9ae7b75c10261246db6316707dfe45a9", "lon": -77.14873466666667, "fusion_lon": 0.0}, {"is_reserved": 0, "type": "electric_scooter", "fusion_lat": 0.0, "is_disabled": 0, "rental_uris": {"ios": "https://dc.lft.to/lastmile_qr_scan", "android": "https://dc.lft.to/lastmile_qr_scan"}, "bike_id": "7d846c2996a66c8c65cae0b547331ab0", "lat": 38.91930116666666, "name": "7d846c2996a66c8c65cae0b547331ab0", "lon": -77.04618416666666, "fusion_lon": 0.0}, {"is_reserved": 0, "type": "electric_scooter", "fusion_lat": 0.0, "is_disabled": 0, "rental_uris": {"ios": "https://dc.lft.to/lastmile_qr_scan", "android": "https://dc.lft.to/lastmile_qr_scan"}, "bike_id": "f7a4b56f0749f27b82f7aa93bd9041df", "lat": 38.88103, "name": "f7a4b56f0749f27b82f7aa93bd9041df", "lon": -77.012374, "fusion_lon": 0.0}, {"is_reserved": 0, "type": "electric_scooter", "fusion_lat": 0.0, "is_disabled": 0, "rental_uris": {"ios": "https://dc.lft.to/lastmile_qr_scan", "android": "https://dc.lft.to/lastmile_qr_scan"}, "bike_id": "23635f8222bde9cb6510c53d4a801877", "lat": 38.898194333333336, "name": "23635f8222bde9cb6510c53d4a801877", "lon": -77.03349533333333, "fusion_lon": 0.0}, {"is_reserved": 0, "type": "electric_scooter", "fusion_lat": 0.0, "is_disabled": 0, "rental_uris": {"ios": "https://dc.lft.to/lastmile_qr_scan", "android": "https://dc.lft.to/lastmile_qr_scan"}, "bike_id": "f1f0fb495112a7385fdea7095fe51551", "lat": 38.878343666666666, "name": "f1f0fb495112a7385fdea7095fe51551", "lon": -77.00849533333333, "fusion_lon": 0.0}, {"is_reserved": 0, "type": "electric_scooter", "fusion_lat": 0.0, "is_disabled": 0, "rental_uris": {"ios": "https://dc.lft.to/lastmile_qr_scan", "android": "https://dc.lft.to/lastmile_qr_scan"}, "bike_id": "f8215a0c2af935529613a25436930415", "lat": 38.907717166666664, "name": "f8215a0c2af935529613a25436930415", "lon": -77.04516, "fusion_lon": 0.0}, {"is_reserved": 0, "type": "electric_bike", "fusion_lat": 0.0, "is_disabled": 0, "rental_uris": {"ios": "https://dc.lft.to/lastmile_qr_scan", "android": "https://dc.lft.to/lastmile_qr_scan"}, "bike_id": "256b1c5e901a65460e6ea421227e2fd6", "lat": 39.005301, "name": "256b1c5e901a65460e6ea421227e2fd6", "lon": -77.10401216666666, "fusion_lon": 0.0}, {"is_reserved": 0, "type": "electric_scooter", "fusion_lat": 0.0, "is_disabled": 0, "rental_uris": {"ios": "https://dc.lft.to/lastmile_qr_scan", "android": "https://dc.lft.to/lastmile_qr_scan"}, "bike_id": "0e4d6e709046e9fe6980d0d662789318", "lat": 38.92969383333333, "name": "0e4d6e709046e9fe6980d0d662789318", "lon": -77.02337333333334, "fusion_lon": 0.0}, {"is_reserved": 0, "type": "electric_scooter", "fusion_lat": 0.0, "is_disabled": 0, "rental_uris": {"ios": "https://dc.lft.to/lastmile_qr_scan", "android": "https://dc.lft.to/lastmile_qr_scan"}, "bike_id": "912c481640c9dc507279f8f16eccfd22", "lat": 38.87614133333334, "name": "912c481640c9dc507279f8f16eccfd22", "lon": -77.00562116666667, "fusion_lon": 0.0}, {"is_reserved": 0, "type": "electric_scooter", "fusion_lat": 0.0, "is_disabled": 0, "rental_uris": {"ios": "https://dc.lft.to/lastmile_qr_scan", "android": "https://dc.lft.to/lastmile_qr_scan"}, "bike_id": "e91b083602592487e1c7d8206b9f55e3", "lat": 38.90954033333333, "name": "e91b083602592487e1c7d8206b9f55e3", "lon": -77.02315233333333, "fusion_lon": 0.0}, {"is_reserved": 0, "type": "electric_scooter", "fusion_lat": 0.0, "is_disabled": 0, "rental_uris": {"ios": "https://dc.lft.to/lastmile_qr_scan", "android": "https://dc.lft.to/lastmile_qr_scan"}, "bike_id": "911094c1a77dbd291a788f166ddead25", "lat": 38.922598666666666, "name": "911094c1a77dbd291a788f166ddead25", "lon": -77.0366565, "fusion_lon": 0.0}, {"is_reserved": 0, "type": "electric_scooter", "fusion_lat": 0.0, "is_disabled": 0, "rental_uris": {"ios": "https://dc.lft.to/lastmile_qr_scan", "android": "https://dc.lft.to/lastmile_qr_scan"}, "bike_id": "7355cfe80617ff09aed10155d96d2fb5", "lat": 38.898412666666665, "name": "7355cfe80617ff09aed10155d96d2fb5", "lon": -77.00057616666666, "fusion_lon": 0.0}, {"is_reserved": 0, "type": "electric_scooter", "fusion_lat": 0.0, "is_disabled": 0, "rental_uris": {"ios": "https://dc.lft.to/lastmile_qr_scan", "android": "https://dc.lft.to/lastmile_qr_scan"}, "bike_id": "eefdc7ecbc4def2790479a53bf612a60", "lat": 38.88581833333333, "name": "eefdc7ecbc4def2790479a53bf612a60", "lon": -77.0122725, "fusion_lon": 0.0}, {"is_reserved": 0, "type": "electric_bike", "fusion_lat": 0.0, "is_disabled": 0, "rental_uris": {"ios": "https://dc.lft.to/lastmile_qr_scan", "android": "https://dc.lft.to/lastmile_qr_scan"}, "bike_id": "ba405659a88fab674182aab847772c51", "lat": 38.865625, "name": "ba405659a88fab674182aab847772c51", "lon": -76.97476466666667, "fusion_lon": 0.0}, {"is_reserved": 0, "type": "electric_scooter", "fusion_lat": 0.0, "is_disabled": 0, "rental_uris": {"ios": "https://dc.lft.to/lastmile_qr_scan", "android": "https://dc.lft.to/lastmile_qr_scan"}, "bike_id": "b28e3f6b5ea161edcaf30de3a03a1e6d", "lat": 38.900636, "name": "b28e3f6b5ea161edcaf30de3a03a1e6d", "lon": -77.0132995, "fusion_lon": 0.0}, {"is_reserved": 0, "type": "electric_scooter", "fusion_lat": 0.0, "is_disabled": 0, "rental_uris": {"ios": "https://dc.lft.to/lastmile_qr_scan", "android": "https://dc.lft.to/lastmile_qr_scan"}, "bike_id": "74bcec0da590a4a29288ec6b99a7cef7", "lat": 38.92947066666667, "name": "74bcec0da590a4a29288ec6b99a7cef7", "lon": -77.05497516666667, "fusion_lon": 0.0}, {"is_reserved": 0, "type": "electric_bike", "fusion_lat": 0.0, "is_disabled": 0, "rental_uris": {"ios": "https://dc.lft.to/lastmile_qr_scan", "android": "https://dc.lft.to/lastmile_qr_scan"}, "bike_id": "76f311bde76cd8937a8c9e750bd88bce", "lat": 38.824285, "name": "76f311bde76cd8937a8c9e750bd88bce", "lon": -77.120408, "fusion_lon": 0.0}, {"is_reserved": 0, "type": "electric_bike", "fusion_lat": 0.0, "is_disabled": 0, "rental_uris": {"ios": "https://dc.lft.to/lastmile_qr_scan", "android": "https://dc.lft.to/lastmile_qr_scan"}, "bike_id": "9027b424276aa20b7a70cfde15ecb543", "lat": 38.85631433333333, "name": "9027b424276aa20b7a70cfde15ecb543", "lon": -77.0684195, "fusion_lon": 0.0}, {"is_reserved": 0, "type": "electric_scooter", "fusion_lat": 0.0, "is_disabled": 0, "rental_uris": {"ios": "https://dc.lft.to/lastmile_qr_scan", "android": "https://dc.lft.to/lastmile_qr_scan"}, "bike_id": "211b70fe6555feaa0f070693dde3d541", "lat": 38.8941075, "name": "211b70fe6555feaa0f070693dde3d541", "lon": -77.01084166666666, "fusion_lon": 0.0}, {"is_reserved": 0, "type": "electric_scooter", "fusion_lat": 0.0, "is_disabled": 0, "rental_uris": {"ios": "https://dc.lft.to/lastmile_qr_scan", "android": "https://dc.lft.to/lastmile_qr_scan"}, "bike_id": "35751af6f31a4036a7ce223ad3568c1b", "lat": 38.9078045, "name": "35751af6f31a4036a7ce223ad3568c1b", "lon": -77.0433545, "fusion_lon": 0.0}, {"is_reserved": 0, "type": "electric_scooter", "fusion_lat": 0.0, "is_disabled": 0, "rental_uris": {"ios": "https://dc.lft.to/lastmile_qr_scan", "android": "https://dc.lft.to/lastmile_qr_scan"}, "bike_id": "ace88bd7e0e9a98bd7fdaee9eff38cf9", "lat": 38.9096665, "name": "ace88bd7e0e9a98bd7fdaee9eff38cf9", "lon": -77.04595766666667, "fusion_lon": 0.0}, {"is_reserved": 0, "type": "electric_scooter", "fusion_lat": 0.0, "is_disabled": 0, "rental_uris": {"ios": "https://dc.lft.to/lastmile_qr_scan", "android": "https://dc.lft.to/lastmile_qr_scan"}, "bike_id": "c99a4ea26e27500db3fc5c05afc9b014", "lat": 38.882512, "name": "c99a4ea26e27500db3fc5c05afc9b014", "lon": -76.99504916666666, "fusion_lon": 0.0}, {"is_reserved": 0, "type": "electric_scooter", "fusion_lat": 0.0, "is_disabled": 0, "rental_uris": {"ios": "https://dc.lft.to/lastmile_qr_scan", "android": "https://dc.lft.to/lastmile_qr_scan"}, "bike_id": "8c0e97eedd0ed01b5ee0865dda62637b", "lat": 38.9170315, "name": "8c0e97eedd0ed01b5ee0865dda62637b", "lon": -77.04678083333333, "fusion_lon": 0.0}, {"is_reserved": 0, "type": "electric_bike", "fusion_lat": 0.0, "is_disabled": 0, "rental_uris": {"ios": "https://dc.lft.to/lastmile_qr_scan", "android": "https://dc.lft.to/lastmile_qr_scan"}, "bike_id": "cea052eeabbc1704cd0efc7e19aaca2f", "lat": 38.92866816666667, "name": "cea052eeabbc1704cd0efc7e19aaca2f", "lon": -76.96105533333333, "fusion_lon": 0.0}, {"is_reserved": 0, "type": "electric_scooter", "fusion_lat": 0.0, "is_disabled": 0, "rental_uris": {"ios": "https://dc.lft.to/lastmile_qr_scan", "android": "https://dc.lft.to/lastmile_qr_scan"}, "bike_id": "ccabc4ff236676b2b7b5f8c752e4ef30", "lat": 38.911855833333334, "name": "ccabc4ff236676b2b7b5f8c752e4ef30", "lon": -77.03220983333334, "fusion_lon": 0.0}, {"is_reserved": 0, "type": "electric_scooter", "fusion_lat": 0.0, "is_disabled": 0, "rental_uris": {"ios": "https://dc.lft.to/lastmile_qr_scan", "android": "https://dc.lft.to/lastmile_qr_scan"}, "bike_id": "82855cee31b0c38e7bc372906314c90c", "lat": 38.916898833333335, "name": "82855cee31b0c38e7bc372906314c90c", "lon": -77.02595033333333, "fusion_lon": 0.0}, {"is_reserved": 0, "type": "electric_scooter", "fusion_lat": 0.0, "is_disabled": 0, "rental_uris": {"ios": "https://dc.lft.to/lastmile_qr_scan", "android": "https://dc.lft.to/lastmile_qr_scan"}, "bike_id": "e580a75fe1ba576e28be7c78124dcba9", "lat": 38.917351833333335, "name": "e580a75fe1ba576e28be7c78124dcba9", "lon": -77.06892916666666, "fusion_lon": 0.0}, {"is_reserved": 0, "type": "electric_bike", "fusion_lat": 0.0, "is_disabled": 0, "rental_uris": {"ios": "https://dc.lft.to/lastmile_qr_scan", "android": "https://dc.lft.to/lastmile_qr_scan"}, "bike_id": "0802dd24c50e649645ad006f417608eb", "lat": 38.804813333333335, "name": "0802dd24c50e649645ad006f417608eb", "lon": -76.99104266666667, "fusion_lon": 0.0}, {"is_reserved": 0, "type": "electric_bike", "fusion_lat": 0.0, "is_disabled": 0, "rental_uris": {"ios": "https://dc.lft.to/lastmile_qr_scan", "android": "https://dc.lft.to/lastmile_qr_scan"}, "bike_id": "54a0c2723356d9bf2890d0ddce0fcf4a", "lat": 38.902308166666664, "name": "54a0c2723356d9bf2890d0ddce0fcf4a", "lon": -76.974285, "fusion_lon": 0.0}, {"is_reserved": 0, "type": "electric_scooter", "fusion_lat": 0.0, "is_disabled": 0, "rental_uris": {"ios": "https://dc.lft.to/lastmile_qr_scan", "android": "https://dc.lft.to/lastmile_qr_scan"}, "bike_id": "daf6c4504c8a267c96c687d95bdaa409", "lat": 38.899619, "name": "daf6c4504c8a267c96c687d95bdaa409", "lon": -77.01609816666667, "fusion_lon": 0.0}, {"is_reserved": 0, "type": "electric_scooter", "fusion_lat": 0.0, "is_disabled": 0, "rental_uris": {"ios": "https://dc.lft.to/lastmile_qr_scan", "android": "https://dc.lft.to/lastmile_qr_scan"}, "bike_id": "5bc9024dc6b3ba742c76ac9374b5d45a", "lat": 38.89960883333333, "name": "5bc9024dc6b3ba742c76ac9374b5d45a", "lon": -77.016071, "fusion_lon": 0.0}, {"is_reserved": 0, "type": "electric_scooter", "fusion_lat": 0.0, "is_disabled": 0, "rental_uris": {"ios": "https://dc.lft.to/lastmile_qr_scan", "android": "https://dc.lft.to/lastmile_qr_scan"}, "bike_id": "45751a846051303ec36b1e0dff3876e4", "lat": 38.922096, "name": "45751a846051303ec36b1e0dff3876e4", "lon": -77.01848666666666, "fusion_lon": 0.0}, {"is_reserved": 0, "type": "electric_scooter", "fusion_lat": 0.0, "is_disabled": 0, "rental_uris": {"ios": "https://dc.lft.to/lastmile_qr_scan", "android": "https://dc.lft.to/lastmile_qr_scan"}, "bike_id": "606b021e4774e5bae1e7212efdb5de2d", "lat": 38.90078533333333, "name": "606b021e4774e5bae1e7212efdb5de2d", "lon": -77.0486285, "fusion_lon": 0.0}, {"is_reserved": 0, "type": "electric_scooter", "fusion_lat": 0.0, "is_disabled": 0, "rental_uris": {"ios": "https://dc.lft.to/lastmile_qr_scan", "android": "https://dc.lft.to/lastmile_qr_scan"}, "bike_id": "3a88c06e8aed9860640b8102160fe561", "lat": 38.90451933333333, "name": "3a88c06e8aed9860640b8102160fe561", "lon": -76.9327275, "fusion_lon": 0.0}, {"is_reserved": 0, "type": "electric_scooter", "fusion_lat": 0.0, "is_disabled": 0, "rental_uris": {"ios": "https://dc.lft.to/lastmile_qr_scan", "android": "https://dc.lft.to/lastmile_qr_scan"}, "bike_id": "2677f56e167bb317f234fc53b6c94e8c", "lat": 38.90185266666667, "name": "2677f56e167bb317f234fc53b6c94e8c", "lon": -76.98265083333334, "fusion_lon": 0.0}, {"is_reserved": 0, "type": "electric_scooter", "fusion_lat": 0.0, "is_disabled": 0, "rental_uris": {"ios": "https://dc.lft.to/lastmile_qr_scan", "android": "https://dc.lft.to/lastmile_qr_scan"}, "bike_id": "383d2cbffabde0816487009fbda5f69a", "lat": 38.94490483333333, "name": "383d2cbffabde0816487009fbda5f69a", "lon": -77.00737616666666, "fusion_lon": 0.0}, {"is_reserved": 0, "type": "electric_scooter", "fusion_lat": 0.0, "is_disabled": 0, "rental_uris": {"ios": "https://dc.lft.to/lastmile_qr_scan", "android": "https://dc.lft.to/lastmile_qr_scan"}, "bike_id": "60cdf4781780f05cd877acd51aa8d5b5", "lat": 38.901858833333335, "name": "60cdf4781780f05cd877acd51aa8d5b5", "lon": -76.9995265, "fusion_lon": 0.0}, {"is_reserved": 0, "type": "electric_scooter", "fusion_lat": 0.0, "is_disabled": 0, "rental_uris": {"ios": "https://dc.lft.to/lastmile_qr_scan", "android": "https://dc.lft.to/lastmile_qr_scan"}, "bike_id": "3fa9fd7beb768dcefcc35d46d2656776", "lat": 38.89365166666666, "name": "3fa9fd7beb768dcefcc35d46d2656776", "lon": -76.94105166666667, "fusion_lon": 0.0}, {"is_reserved": 0, "type": "electric_bike", "fusion_lat": 0.0, "is_disabled": 0, "rental_uris": {"ios": "https://dc.lft.to/lastmile_qr_scan", "android": "https://dc.lft.to/lastmile_qr_scan"}, "bike_id": "6445fe6d46621f267548919760d79264", "lat": 38.915319333333336, "name": "6445fe6d46621f267548919760d79264", "lon": -77.06660233333334, "fusion_lon": 0.0}, {"is_reserved": 0, "type": "electric_bike", "fusion_lat": 0.0, "is_disabled": 0, "rental_uris": {"ios": "https://dc.lft.to/lastmile_qr_scan", "android": "https://dc.lft.to/lastmile_qr_scan"}, "bike_id": "d2097412c54661db96716dd8903afe83", "lat": 39.00001666666667, "name": "d2097412c54661db96716dd8903afe83", "lon": -76.91802916666667, "fusion_lon": 0.0}, {"is_reserved": 0, "type": "electric_scooter", "fusion_lat": 0.0, "is_disabled": 0, "rental_uris": {"ios": "https://dc.lft.to/lastmile_qr_scan", "android": "https://dc.lft.to/lastmile_qr_scan"}, "bike_id": "5e208bec5ac25875b7e560fb80e09989", "lat": 38.9039425, "name": "5e208bec5ac25875b7e560fb80e09989", "lon": -77.03240416666667, "fusion_lon": 0.0}, {"is_reserved": 0, "type": "electric_scooter", "fusion_lat": 0.0, "is_disabled": 0, "rental_uris": {"ios": "https://dc.lft.to/lastmile_qr_scan", "android": "https://dc.lft.to/lastmile_qr_scan"}, "bike_id": "cc57107cd0a49faeecde3bfbd14a6014", "lat": 38.921676166666664, "name": "cc57107cd0a49faeecde3bfbd14a6014", "lon": -77.04354866666667, "fusion_lon": 0.0}, {"is_reserved": 0, "type": "electric_scooter", "fusion_lat": 0.0, "is_disabled": 0, "rental_uris": {"ios": "https://dc.lft.to/lastmile_qr_scan", "android": "https://dc.lft.to/lastmile_qr_scan"}, "bike_id": "fb9bd12756daef3fbee1e3c0043c54b0", "lat": 38.88717166666667, "name": "fb9bd12756daef3fbee1e3c0043c54b0", "lon": -77.02197183333334, "fusion_lon": 0.0}, {"is_reserved": 0, "type": "electric_scooter", "fusion_lat": 0.0, "is_disabled": 0, "rental_uris": {"ios": "https://dc.lft.to/lastmile_qr_scan", "android": "https://dc.lft.to/lastmile_qr_scan"}, "bike_id": "f38fd1f99edf0f3412a34ef75b27791a", "lat": 38.92264266666667, "name": "f38fd1f99edf0f3412a34ef75b27791a", "lon": -77.03690266666666, "fusion_lon": 0.0}, {"is_reserved": 0, "type": "electric_scooter", "fusion_lat": 0.0, "is_disabled": 0, "rental_uris": {"ios": "https://dc.lft.to/lastmile_qr_scan", "android": "https://dc.lft.to/lastmile_qr_scan"}, "bike_id": "a398b10a7b3b2f74d2fff5dbbe774516", "lat": 38.90600216666667, "name": "a398b10a7b3b2f74d2fff5dbbe774516", "lon": -77.05838516666667, "fusion_lon": 0.0}, {"is_reserved": 0, "type": "electric_scooter", "fusion_lat": 0.0, "is_disabled": 0, "rental_uris": {"ios": "https://dc.lft.to/lastmile_qr_scan", "android": "https://dc.lft.to/lastmile_qr_scan"}, "bike_id": "0d94f2dc895f81a47196d5b93a392262", "lat": 38.90193416666666, "name": "0d94f2dc895f81a47196d5b93a392262", "lon": -76.98844733333334, "fusion_lon": 0.0}, {"is_reserved": 0, "type": "electric_scooter", "fusion_lat": 0.0, "is_disabled": 0, "rental_uris": {"ios": "https://dc.lft.to/lastmile_qr_scan", "android": "https://dc.lft.to/lastmile_qr_scan"}, "bike_id": "9b572cc60258f7d2ef2c88f298bd4bdd", "lat": 38.91696566666667, "name": "9b572cc60258f7d2ef2c88f298bd4bdd", "lon": -77.0271965, "fusion_lon": 0.0}, {"is_reserved": 0, "type": "electric_bike", "fusion_lat": 0.0, "is_disabled": 0, "rental_uris": {"ios": "https://dc.lft.to/lastmile_qr_scan", "android": "https://dc.lft.to/lastmile_qr_scan"}, "bike_id": "56f61ab53ebc61eab63d4ce3aba8998b", "lat": 38.807401666666664, "name": "56f61ab53ebc61eab63d4ce3aba8998b", "lon": -77.0968635, "fusion_lon": 0.0}, {"is_reserved": 0, "type": "electric_scooter", "fusion_lat": 0.0, "is_disabled": 0, "rental_uris": {"ios": "https://dc.lft.to/lastmile_qr_scan", "android": "https://dc.lft.to/lastmile_qr_scan"}, "bike_id": "5c7de4ec942b2132ab9027bbc68e305f", "lat": 38.927308, "name": "5c7de4ec942b2132ab9027bbc68e305f", "lon": -77.05253716666667, "fusion_lon": 0.0}, {"is_reserved": 0, "type": "electric_scooter", "fusion_lat": 0.0, "is_disabled": 0, "rental_uris": {"ios": "https://dc.lft.to/lastmile_qr_scan", "android": "https://dc.lft.to/lastmile_qr_scan"}, "bike_id": "1beaba068e8a0b36b9cb862f551b382d", "lat": 38.919314, "name": "1beaba068e8a0b36b9cb862f551b382d", "lon": -77.04497416666666, "fusion_lon": 0.0}, {"is_reserved": 0, "type": "electric_bike", "fusion_lat": 0.0, "is_disabled": 0, "rental_uris": {"ios": "https://dc.lft.to/lastmile_qr_scan", "android": "https://dc.lft.to/lastmile_qr_scan"}, "bike_id": "058087834abf46a92fe317718edbd3b4", "lat": 38.871731833333335, "name": "058087834abf46a92fe317718edbd3b4", "lon": -77.2339305, "fusion_lon": 0.0}, {"is_reserved": 0, "type": "electric_scooter", "fusion_lat": 0.0, "is_disabled": 0, "rental_uris": {"ios": "https://dc.lft.to/lastmile_qr_scan", "android": "https://dc.lft.to/lastmile_qr_scan"}, "bike_id": "6aa2325ff081c58477aa07f4caa3a8ce", "lat": 38.90142183333333, "name": "6aa2325ff081c58477aa07f4caa3a8ce", "lon": -77.04164233333333, "fusion_lon": 0.0}, {"is_reserved": 0, "type": "electric_scooter", "fusion_lat": 0.0, "is_disabled": 0, "rental_uris": {"ios": "https://dc.lft.to/lastmile_qr_scan", "android": "https://dc.lft.to/lastmile_qr_scan"}, "bike_id": "cbc252c60132a4df30d29f0d33a4fd44", "lat": 38.8923145, "name": "cbc252c60132a4df30d29f0d33a4fd44", "lon": -77.049969, "fusion_lon": 0.0}, {"is_reserved": 0, "type": "electric_scooter", "fusion_lat": 0.0, "is_disabled": 0, "rental_uris": {"ios": "https://dc.lft.to/lastmile_qr_scan", "android": "https://dc.lft.to/lastmile_qr_scan"}, "bike_id": "e3c8fe4e05bfb8f391e58a979720f350", "lat": 38.88430483333333, "name": "e3c8fe4e05bfb8f391e58a979720f350", "lon": -77.03037183333333, "fusion_lon": 0.0}, {"is_reserved": 0, "type": "electric_bike", "fusion_lat": 0.0, "is_disabled": 0, "rental_uris": {"ios": "https://dc.lft.to/lastmile_qr_scan", "android": "https://dc.lft.to/lastmile_qr_scan"}, "bike_id": "5b5f845dd793f1f8d26cb6d61d30ab2d", "lat": 38.983658166666665, "name": "5b5f845dd793f1f8d26cb6d61d30ab2d", "lon": -76.98846066666667, "fusion_lon": 0.0}, {"is_reserved": 0, "type": "electric_scooter", "fusion_lat": 0.0, "is_disabled": 0, "rental_uris": {"ios": "https://dc.lft.to/lastmile_qr_scan", "android": "https://dc.lft.to/lastmile_qr_scan"}, "bike_id": "2847cc7f806fecc2237bcdc3b7ab363b", "lat": 38.95428916666667, "name": "2847cc7f806fecc2237bcdc3b7ab363b", "lon": -77.0185305, "fusion_lon": 0.0}, {"is_reserved": 0, "type": "electric_scooter", "fusion_lat": 0.0, "is_disabled": 0, "rental_uris": {"ios": "https://dc.lft.to/lastmile_qr_scan", "android": "https://dc.lft.to/lastmile_qr_scan"}, "bike_id": "e05c4d38951b2125615295ec77bde4bb", "lat": 38.8963225, "name": "e05c4d38951b2125615295ec77bde4bb", "lon": -77.02644233333334, "fusion_lon": 0.0}, {"is_reserved": 0, "type": "electric_bike", "fusion_lat": 0.0, "is_disabled": 0, "rental_uris": {"ios": "https://dc.lft.to/lastmile_qr_scan", "android": "https://dc.lft.to/lastmile_qr_scan"}, "bike_id": "5655ee44d70c154abe95bfbb2f1f5557", "lat": 38.867512833333336, "name": "5655ee44d70c154abe95bfbb2f1f5557", "lon": -76.945337, "fusion_lon": 0.0}, {"is_reserved": 0, "type": "electric_scooter", "fusion_lat": 0.0, "is_disabled": 0, "rental_uris": {"ios": "https://dc.lft.to/lastmile_qr_scan", "android": "https://dc.lft.to/lastmile_qr_scan"}, "bike_id": "93a66e1d3983615baff026edd7fb54ee", "lat": 38.932445, "name": "93a66e1d3983615baff026edd7fb54ee", "lon": -77.03857316666667, "fusion_lon": 0.0}, {"is_reserved": 0, "type": "electric_scooter", "fusion_lat": 0.0, "is_disabled": 0, "rental_uris": {"ios": "https://dc.lft.to/lastmile_qr_scan", "android": "https://dc.lft.to/lastmile_qr_scan"}, "bike_id": "b7fc5c99726263843db6ecfb5aed306c", "lat": 38.887714333333335, "name": "b7fc5c99726263843db6ecfb5aed306c", "lon": -76.9326345, "fusion_lon": 0.0}, {"is_reserved": 0, "type": "electric_scooter", "fusion_lat": 0.0, "is_disabled": 0, "rental_uris": {"ios": "https://dc.lft.to/lastmile_qr_scan", "android": "https://dc.lft.to/lastmile_qr_scan"}, "bike_id": "5db2f4353aa2ac81e34b1468da781c2c", "lat": 38.90559833333333, "name": "5db2f4353aa2ac81e34b1468da781c2c", "lon": -77.02657583333334, "fusion_lon": 0.0}, {"is_reserved": 0, "type": "electric_scooter", "fusion_lat": 0.0, "is_disabled": 0, "rental_uris": {"ios": "https://dc.lft.to/lastmile_qr_scan", "android": "https://dc.lft.to/lastmile_qr_scan"}, "bike_id": "572d559c268347a66af9ed46ce42d00b", "lat": 38.90684266666667, "name": "572d559c268347a66af9ed46ce42d00b", "lon": -77.06339583333333, "fusion_lon": 0.0}, {"is_reserved": 0, "type": "electric_bike", "fusion_lat": 0.0, "is_disabled": 0, "rental_uris": {"ios": "https://dc.lft.to/lastmile_qr_scan", "android": "https://dc.lft.to/lastmile_qr_scan"}, "bike_id": "7aed4d42da3dd7b020e98fdea85ee71f", "lat": 38.90026916666667, "name": "7aed4d42da3dd7b020e98fdea85ee71f", "lon": -77.05586033333333, "fusion_lon": 0.0}, {"is_reserved": 0, "type": "electric_scooter", "fusion_lat": 0.0, "is_disabled": 0, "rental_uris": {"ios": "https://dc.lft.to/lastmile_qr_scan", "android": "https://dc.lft.to/lastmile_qr_scan"}, "bike_id": "6920a1487da5fd0e11a1dadf791642d6", "lat": 38.921624, "name": "6920a1487da5fd0e11a1dadf791642d6", "lon": -77.0403545, "fusion_lon": 0.0}, {"is_reserved": 0, "type": "electric_scooter", "fusion_lat": 0.0, "is_disabled": 0, "rental_uris": {"ios": "https://dc.lft.to/lastmile_qr_scan", "android": "https://dc.lft.to/lastmile_qr_scan"}, "bike_id": "e0f9fe22d7d69e2304cba0caa92d0994", "lat": 38.905689833333334, "name": "e0f9fe22d7d69e2304cba0caa92d0994", "lon": -77.02403416666667, "fusion_lon": 0.0}, {"is_reserved": 0, "type": "electric_scooter", "fusion_lat": 0.0, "is_disabled": 0, "rental_uris": {"ios": "https://dc.lft.to/lastmile_qr_scan", "android": "https://dc.lft.to/lastmile_qr_scan"}, "bike_id": "2fabd88df05e45f46e3ad323493a429a", "lat": 38.89898916666667, "name": "2fabd88df05e45f46e3ad323493a429a", "lon": -77.02316833333333, "fusion_lon": 0.0}, {"is_reserved": 0, "type": "electric_scooter", "fusion_lat": 0.0, "is_disabled": 0, "rental_uris": {"ios": "https://dc.lft.to/lastmile_qr_scan", "android": "https://dc.lft.to/lastmile_qr_scan"}, "bike_id": "21ef3ecbb4c8eba8ca9d76e4492d69f9", "lat": 38.9171395, "name": "21ef3ecbb4c8eba8ca9d76e4492d69f9", "lon": -77.03851216666666, "fusion_lon": 0.0}, {"is_reserved": 0, "type": "electric_scooter", "fusion_lat": 0.0, "is_disabled": 0, "rental_uris": {"ios": "https://dc.lft.to/lastmile_qr_scan", "android": "https://dc.lft.to/lastmile_qr_scan"}, "bike_id": "a5890e16fb84f96bbb162f8e168a3212", "lat": 38.9536665, "name": "a5890e16fb84f96bbb162f8e168a3212", "lon": -76.99838183333334, "fusion_lon": 0.0}, {"is_reserved": 0, "type": "electric_scooter", "fusion_lat": 0.0, "is_disabled": 0, "rental_uris": {"ios": "https://dc.lft.to/lastmile_qr_scan", "android": "https://dc.lft.to/lastmile_qr_scan"}, "bike_id": "99891f1b6cf70e769fa238738811c209", "lat": 38.9246285, "name": "99891f1b6cf70e769fa238738811c209", "lon": -77.03777183333334, "fusion_lon": 0.0}, {"is_reserved": 0, "type": "electric_scooter", "fusion_lat": 0.0, "is_disabled": 0, "rental_uris": {"ios": "https://dc.lft.to/lastmile_qr_scan", "android": "https://dc.lft.to/lastmile_qr_scan"}, "bike_id": "df2439e6ad3ffb56d42f3aea68c89018", "lat": 38.936984333333335, "name": "df2439e6ad3ffb56d42f3aea68c89018", "lon": -77.05597016666667, "fusion_lon": 0.0}, {"is_reserved": 0, "type": "electric_scooter", "fusion_lat": 0.0, "is_disabled": 0, "rental_uris": {"ios": "https://dc.lft.to/lastmile_qr_scan", "android": "https://dc.lft.to/lastmile_qr_scan"}, "bike_id": "735765b66392a7ec043802bc5ee7ee03", "lat": 38.912630166666666, "name": "735765b66392a7ec043802bc5ee7ee03", "lon": -77.01024666666666, "fusion_lon": 0.0}, {"is_reserved": 0, "type": "electric_scooter", "fusion_lat": 0.0, "is_disabled": 0, "rental_uris": {"ios": "https://dc.lft.to/lastmile_qr_scan", "android": "https://dc.lft.to/lastmile_qr_scan"}, "bike_id": "7b43606a6eed6900397d790554353c82", "lat": 38.88580666666667, "name": "7b43606a6eed6900397d790554353c82", "lon": -77.01225316666667, "fusion_lon": 0.0}, {"is_reserved": 0, "type": "electric_scooter", "fusion_lat": 0.0, "is_disabled": 0, "rental_uris": {"ios": "https://dc.lft.to/lastmile_qr_scan", "android": "https://dc.lft.to/lastmile_qr_scan"}, "bike_id": "24987e1528c57c8a8c536eeedc4f0881", "lat": 38.92039333333334, "name": "24987e1528c57c8a8c536eeedc4f0881", "lon": -77.02592783333333, "fusion_lon": 0.0}, {"is_reserved": 0, "type": "electric_scooter", "fusion_lat": 0.0, "is_disabled": 0, "rental_uris": {"ios": "https://dc.lft.to/lastmile_qr_scan", "android": "https://dc.lft.to/lastmile_qr_scan"}, "bike_id": "0ad767c3ca1c7eb8f3bec31d0f2c6b16", "lat": 38.893269333333336, "name": "0ad767c3ca1c7eb8f3bec31d0f2c6b16", "lon": -76.93929016666667, "fusion_lon": 0.0}, {"is_reserved": 0, "type": "electric_scooter", "fusion_lat": 0.0, "is_disabled": 0, "rental_uris": {"ios": "https://dc.lft.to/lastmile_qr_scan", "android": "https://dc.lft.to/lastmile_qr_scan"}, "bike_id": "082df1cefb996b79d9d4b4bc251a9680", "lat": 38.95256633333333, "name": "082df1cefb996b79d9d4b4bc251a9680", "lon": -77.02073933333334, "fusion_lon": 0.0}, {"is_reserved": 0, "type": "electric_scooter", "fusion_lat": 0.0, "is_disabled": 0, "rental_uris": {"ios": "https://dc.lft.to/lastmile_qr_scan", "android": "https://dc.lft.to/lastmile_qr_scan"}, "bike_id": "6369125edaa49eef3c29c9987450051c", "lat": 38.92070566666666, "name": "6369125edaa49eef3c29c9987450051c", "lon": -77.02422666666666, "fusion_lon": 0.0}, {"is_reserved": 0, "type": "electric_scooter", "fusion_lat": 0.0, "is_disabled": 0, "rental_uris": {"ios": "https://dc.lft.to/lastmile_qr_scan", "android": "https://dc.lft.to/lastmile_qr_scan"}, "bike_id": "65889b2fe246150220a756c7636821dc", "lat": 38.88639716666667, "name": "65889b2fe246150220a756c7636821dc", "lon": -77.0122535, "fusion_lon": 0.0}, {"is_reserved": 0, "type": "electric_scooter", "fusion_lat": 0.0, "is_disabled": 0, "rental_uris": {"ios": "https://dc.lft.to/lastmile_qr_scan", "android": "https://dc.lft.to/lastmile_qr_scan"}, "bike_id": "adf90cf19a37eb81f708711915fc850f", "lat": 38.89477083333333, "name": "adf90cf19a37eb81f708711915fc850f", "lon": -77.0217725, "fusion_lon": 0.0}, {"is_reserved": 0, "type": "electric_scooter", "fusion_lat": 0.0, "is_disabled": 0, "rental_uris": {"ios": "https://dc.lft.to/lastmile_qr_scan", "android": "https://dc.lft.to/lastmile_qr_scan"}, "bike_id": "ad170e7740039cf36f2446163d2f4c05", "lat": 38.883153, "name": "ad170e7740039cf36f2446163d2f4c05", "lon": -76.93151866666666, "fusion_lon": 0.0}, {"is_reserved": 0, "type": "electric_bike", "fusion_lat": 0.0, "is_disabled": 0, "rental_uris": {"ios": "https://dc.lft.to/lastmile_qr_scan", "android": "https://dc.lft.to/lastmile_qr_scan"}, "bike_id": "a267880af2fbba6eb98c5872ac1e4cf5", "lat": 38.830478, "name": "a267880af2fbba6eb98c5872ac1e4cf5", "lon": -77.0081895, "fusion_lon": 0.0}, {"is_reserved": 0, "type": "electric_scooter", "fusion_lat": 0.0, "is_disabled": 0, "rental_uris": {"ios": "https://dc.lft.to/lastmile_qr_scan", "android": "https://dc.lft.to/lastmile_qr_scan"}, "bike_id": "f903ac30d60cf19f04ea6a675bdcfc46", "lat": 38.89846466666667, "name": "f903ac30d60cf19f04ea6a675bdcfc46", "lon": -77.02848566666667, "fusion_lon": 0.0}, {"is_reserved": 0, "type": "electric_scooter", "fusion_lat": 0.0, "is_disabled": 0, "rental_uris": {"ios": "https://dc.lft.to/lastmile_qr_scan", "android": "https://dc.lft.to/lastmile_qr_scan"}, "bike_id": "97cb56cdac09771722537e8e773f06e5", "lat": 38.93530716666667, "name": "97cb56cdac09771722537e8e773f06e5", "lon": -77.02355816666666, "fusion_lon": 0.0}, {"is_reserved": 0, "type": "electric_scooter", "fusion_lat": 0.0, "is_disabled": 0, "rental_uris": {"ios": "https://dc.lft.to/lastmile_qr_scan", "android": "https://dc.lft.to/lastmile_qr_scan"}, "bike_id": "59368f1302e0e421c6084b0f10e8ea18", "lat": 38.89965466666666, "name": "59368f1302e0e421c6084b0f10e8ea18", "lon": -76.93764466666667, "fusion_lon": 0.0}, {"is_reserved": 0, "type": "electric_scooter", "fusion_lat": 0.0, "is_disabled": 0, "rental_uris": {"ios": "https://dc.lft.to/lastmile_qr_scan", "android": "https://dc.lft.to/lastmile_qr_scan"}, "bike_id": "307657a24a1d96a97cfb876adad633c9", "lat": 38.9034495, "name": "307657a24a1d96a97cfb876adad633c9", "lon": -77.011059, "fusion_lon": 0.0}, {"is_reserved": 0, "type": "electric_scooter", "fusion_lat": 0.0, "is_disabled": 0, "rental_uris": {"ios": "https://dc.lft.to/lastmile_qr_scan", "android": "https://dc.lft.to/lastmile_qr_scan"}, "bike_id": "3fd8a4445645340587e205f8415ade1f", "lat": 38.8923505, "name": "3fd8a4445645340587e205f8415ade1f", "lon": -77.02787016666667, "fusion_lon": 0.0}, {"is_reserved": 0, "type": "electric_bike", "fusion_lat": 0.0, "is_disabled": 0, "rental_uris": {"ios": "https://dc.lft.to/lastmile_qr_scan", "android": "https://dc.lft.to/lastmile_qr_scan"}, "bike_id": "d0f6c73ba2362119ab62e566bb884752", "lat": 38.8462885, "name": "d0f6c73ba2362119ab62e566bb884752", "lon": -77.06935866666667, "fusion_lon": 0.0}, {"is_reserved": 0, "type": "electric_scooter", "fusion_lat": 0.0, "is_disabled": 0, "rental_uris": {"ios": "https://dc.lft.to/lastmile_qr_scan", "android": "https://dc.lft.to/lastmile_qr_scan"}, "bike_id": "1ec260c8ffbc78c1b2f2b8d885e4cb62", "lat": 38.916107, "name": "1ec260c8ffbc78c1b2f2b8d885e4cb62", "lon": -77.03201933333334, "fusion_lon": 0.0}, {"is_reserved": 0, "type": "electric_scooter", "fusion_lat": 0.0, "is_disabled": 0, "rental_uris": {"ios": "https://dc.lft.to/lastmile_qr_scan", "android": "https://dc.lft.to/lastmile_qr_scan"}, "bike_id": "52cacf47d6db67bb1ec928d2931161bd", "lat": 38.92077033333333, "name": "52cacf47d6db67bb1ec928d2931161bd", "lon": -77.036569, "fusion_lon": 0.0}, {"is_reserved": 0, "type": "electric_scooter", "fusion_lat": 0.0, "is_disabled": 0, "rental_uris": {"ios": "https://dc.lft.to/lastmile_qr_scan", "android": "https://dc.lft.to/lastmile_qr_scan"}, "bike_id": "356ebb3e1048a7d36ffe8281c64fda9b", "lat": 38.8995565, "name": "356ebb3e1048a7d36ffe8281c64fda9b", "lon": -77.04724833333333, "fusion_lon": 0.0}, {"is_reserved": 0, "type": "electric_scooter", "fusion_lat": 0.0, "is_disabled": 0, "rental_uris": {"ios": "https://dc.lft.to/lastmile_qr_scan", "android": "https://dc.lft.to/lastmile_qr_scan"}, "bike_id": "5dc7acd1acf95e398bad766319d924b7", "lat": 38.9170455, "name": "5dc7acd1acf95e398bad766319d924b7", "lon": -77.033174, "fusion_lon": 0.0}, {"is_reserved": 0, "type": "electric_scooter", "fusion_lat": 0.0, "is_disabled": 0, "rental_uris": {"ios": "https://dc.lft.to/lastmile_qr_scan", "android": "https://dc.lft.to/lastmile_qr_scan"}, "bike_id": "73438e3ca68031d96ea5c9339a7e4833", "lat": 38.924584833333334, "name": "73438e3ca68031d96ea5c9339a7e4833", "lon": -77.02237383333333, "fusion_lon": 0.0}, {"is_reserved": 0, "type": "electric_scooter", "fusion_lat": 0.0, "is_disabled": 0, "rental_uris": {"ios": "https://dc.lft.to/lastmile_qr_scan", "android": "https://dc.lft.to/lastmile_qr_scan"}, "bike_id": "d6e251eb5ca010e559d1c2d328ef95b1", "lat": 38.917743333333334, "name": "d6e251eb5ca010e559d1c2d328ef95b1", "lon": -77.02413083333333, "fusion_lon": 0.0}, {"is_reserved": 0, "type": "electric_scooter", "fusion_lat": 0.0, "is_disabled": 0, "rental_uris": {"ios": "https://dc.lft.to/lastmile_qr_scan", "android": "https://dc.lft.to/lastmile_qr_scan"}, "bike_id": "bd832684563a9401ad9e8c31576d956d", "lat": 38.905135666666666, "name": "bd832684563a9401ad9e8c31576d956d", "lon": -77.0483935, "fusion_lon": 0.0}, {"is_reserved": 0, "type": "electric_scooter", "fusion_lat": 0.0, "is_disabled": 0, "rental_uris": {"ios": "https://dc.lft.to/lastmile_qr_scan", "android": "https://dc.lft.to/lastmile_qr_scan"}, "bike_id": "9f573a90922f4a0e16def1e51281b9b2", "lat": 38.8998275, "name": "9f573a90922f4a0e16def1e51281b9b2", "lon": -77.02692333333333, "fusion_lon": 0.0}, {"is_reserved": 0, "type": "electric_scooter", "fusion_lat": 0.0, "is_disabled": 0, "rental_uris": {"ios": "https://dc.lft.to/lastmile_qr_scan", "android": "https://dc.lft.to/lastmile_qr_scan"}, "bike_id": "eded864af7afdc437e75830c400894fc", "lat": 38.900326666666665, "name": "eded864af7afdc437e75830c400894fc", "lon": -77.03469733333333, "fusion_lon": 0.0}, {"is_reserved": 0, "type": "electric_bike", "fusion_lat": 0.0, "is_disabled": 0, "rental_uris": {"ios": "https://dc.lft.to/lastmile_qr_scan", "android": "https://dc.lft.to/lastmile_qr_scan"}, "bike_id": "d6adf650a494b22cb329f3cec33408ed", "lat": 38.9425745, "name": "d6adf650a494b22cb329f3cec33408ed", "lon": -76.99070983333333, "fusion_lon": 0.0}, {"is_reserved": 0, "type": "electric_bike", "fusion_lat": 0.0, "is_disabled": 0, "rental_uris": {"ios": "https://dc.lft.to/lastmile_qr_scan", "android": "https://dc.lft.to/lastmile_qr_scan"}, "bike_id": "43ae336ac558aba83f4fb55043c96f9e", "lat": 38.954156, "name": "43ae336ac558aba83f4fb55043c96f9e", "lon": -76.9812565, "fusion_lon": 0.0}, {"is_reserved": 0, "type": "electric_scooter", "fusion_lat": 0.0, "is_disabled": 0, "rental_uris": {"ios": "https://dc.lft.to/lastmile_qr_scan", "android": "https://dc.lft.to/lastmile_qr_scan"}, "bike_id": "8fbd44e473ff5b617a9bed3215c39058", "lat": 38.91121833333333, "name": "8fbd44e473ff5b617a9bed3215c39058", "lon": -77.036461, "fusion_lon": 0.0}, {"is_reserved": 0, "type": "electric_scooter", "fusion_lat": 0.0, "is_disabled": 0, "rental_uris": {"ios": "https://dc.lft.to/lastmile_qr_scan", "android": "https://dc.lft.to/lastmile_qr_scan"}, "bike_id": "e4d2357f9ee210d0cbfdf196a33f35ce", "lat": 38.901755666666666, "name": "e4d2357f9ee210d0cbfdf196a33f35ce", "lon": -77.00212833333333, "fusion_lon": 0.0}, {"is_reserved": 0, "type": "electric_scooter", "fusion_lat": 0.0, "is_disabled": 0, "rental_uris": {"ios": "https://dc.lft.to/lastmile_qr_scan", "android": "https://dc.lft.to/lastmile_qr_scan"}, "bike_id": "00cf86c4b4c9f3886ed9aab3bcaca758", "lat": 38.8814825, "name": "00cf86c4b4c9f3886ed9aab3bcaca758", "lon": -77.01294183333333, "fusion_lon": 0.0}, {"is_reserved": 0, "type": "electric_bike", "fusion_lat": 0.0, "is_disabled": 0, "rental_uris": {"ios": "https://dc.lft.to/lastmile_qr_scan", "android": "https://dc.lft.to/lastmile_qr_scan"}, "bike_id": "11a2994161cbf75e3b63ac6ca20667f0", "lat": 38.906938, "name": "11a2994161cbf75e3b63ac6ca20667f0", "lon": -76.95253816666667, "fusion_lon": 0.0}, {"is_reserved": 0, "type": "electric_scooter", "fusion_lat": 0.0, "is_disabled": 0, "rental_uris": {"ios": "https://dc.lft.to/lastmile_qr_scan", "android": "https://dc.lft.to/lastmile_qr_scan"}, "bike_id": "c6ddb322d9aa4012458654d85da4579a", "lat": 38.896692333333334, "name": "c6ddb322d9aa4012458654d85da4579a", "lon": -77.03346266666667, "fusion_lon": 0.0}, {"is_reserved": 0, "type": "electric_scooter", "fusion_lat": 0.0, "is_disabled": 0, "rental_uris": {"ios": "https://dc.lft.to/lastmile_qr_scan", "android": "https://dc.lft.to/lastmile_qr_scan"}, "bike_id": "597cb04a333eac14cfc999ea0bb1e54f", "lat": 38.89655533333333, "name": "597cb04a333eac14cfc999ea0bb1e54f", "lon": -77.0512635, "fusion_lon": 0.0}, {"is_reserved": 0, "type": "electric_scooter", "fusion_lat": 0.0, "is_disabled": 0, "rental_uris": {"ios": "https://dc.lft.to/lastmile_qr_scan", "android": "https://dc.lft.to/lastmile_qr_scan"}, "bike_id": "e49a09d43ce7ac17f4816e0a8b5fa8af", "lat": 38.9028145, "name": "e49a09d43ce7ac17f4816e0a8b5fa8af", "lon": -77.022758, "fusion_lon": 0.0}, {"is_reserved": 0, "type": "electric_scooter", "fusion_lat": 0.0, "is_disabled": 0, "rental_uris": {"ios": "https://dc.lft.to/lastmile_qr_scan", "android": "https://dc.lft.to/lastmile_qr_scan"}, "bike_id": "9cdfb157fa2d4bb8795f9a8043b4140e", "lat": 38.942620166666664, "name": "9cdfb157fa2d4bb8795f9a8043b4140e", "lon": -76.98470183333333, "fusion_lon": 0.0}, {"is_reserved": 0, "type": "electric_scooter", "fusion_lat": 0.0, "is_disabled": 0, "rental_uris": {"ios": "https://dc.lft.to/lastmile_qr_scan", "android": "https://dc.lft.to/lastmile_qr_scan"}, "bike_id": "2e6cd3cf0b5944529c1ed891ba6689aa", "lat": 38.883557833333334, "name": "2e6cd3cf0b5944529c1ed891ba6689aa", "lon": -76.957684, "fusion_lon": 0.0}, {"is_reserved": 0, "type": "electric_scooter", "fusion_lat": 0.0, "is_disabled": 0, "rental_uris": {"ios": "https://dc.lft.to/lastmile_qr_scan", "android": "https://dc.lft.to/lastmile_qr_scan"}, "bike_id": "12de7a1df1dfba1fd30b60b545bfd83b", "lat": 38.94715566666667, "name": "12de7a1df1dfba1fd30b60b545bfd83b", "lon": -77.06802933333333, "fusion_lon": 0.0}, {"is_reserved": 0, "type": "electric_scooter", "fusion_lat": 0.0, "is_disabled": 0, "rental_uris": {"ios": "https://dc.lft.to/lastmile_qr_scan", "android": "https://dc.lft.to/lastmile_qr_scan"}, "bike_id": "4af1e4a6dba046c3b07c170cc4dfe36d", "lat": 38.91705983333333, "name": "4af1e4a6dba046c3b07c170cc4dfe36d", "lon": -77.03333316666667, "fusion_lon": 0.0}, {"is_reserved": 0, "type": "electric_scooter", "fusion_lat": 0.0, "is_disabled": 0, "rental_uris": {"ios": "https://dc.lft.to/lastmile_qr_scan", "android": "https://dc.lft.to/lastmile_qr_scan"}, "bike_id": "f440d3a21c91ce9f08b7d22e7d56ca79", "lat": 38.89605733333333, "name": "f440d3a21c91ce9f08b7d22e7d56ca79", "lon": -77.02756883333333, "fusion_lon": 0.0}, {"is_reserved": 0, "type": "electric_scooter", "fusion_lat": 0.0, "is_disabled": 0, "rental_uris": {"ios": "https://dc.lft.to/lastmile_qr_scan", "android": "https://dc.lft.to/lastmile_qr_scan"}, "bike_id": "75d7abdd592a56f54cb222cafb4fef2c", "lat": 38.9650115, "name": "75d7abdd592a56f54cb222cafb4fef2c", "lon": -77.06288433333333, "fusion_lon": 0.0}, {"is_reserved": 0, "type": "electric_scooter", "fusion_lat": 0.0, "is_disabled": 0, "rental_uris": {"ios": "https://dc.lft.to/lastmile_qr_scan", "android": "https://dc.lft.to/lastmile_qr_scan"}, "bike_id": "5e406b88b420bd868f01cac68b12ae96", "lat": 38.912678666666665, "name": "5e406b88b420bd868f01cac68b12ae96", "lon": -77.01683883333334, "fusion_lon": 0.0}, {"is_reserved": 0, "type": "electric_scooter", "fusion_lat": 0.0, "is_disabled": 0, "rental_uris": {"ios": "https://dc.lft.to/lastmile_qr_scan", "android": "https://dc.lft.to/lastmile_qr_scan"}, "bike_id": "2c82c1778d255a263fd8b2a21cdd6e55", "lat": 38.88396083333333, "name": "2c82c1778d255a263fd8b2a21cdd6e55", "lon": -77.03039033333333, "fusion_lon": 0.0}, {"is_reserved": 0, "type": "electric_bike", "fusion_lat": 0.0, "is_disabled": 0, "rental_uris": {"ios": "https://dc.lft.to/lastmile_qr_scan", "android": "https://dc.lft.to/lastmile_qr_scan"}, "bike_id": "9c72633d72362b32597034423093704c", "lat": 39.084343, "name": "9c72633d72362b32597034423093704c", "lon": -76.951366, "fusion_lon": 0.0}, {"is_reserved": 0, "type": "electric_scooter", "fusion_lat": 0.0, "is_disabled": 0, "rental_uris": {"ios": "https://dc.lft.to/lastmile_qr_scan", "android": "https://dc.lft.to/lastmile_qr_scan"}, "bike_id": "f16582b02a1282b129e5067fe39f608f", "lat": 38.91781783333333, "name": "f16582b02a1282b129e5067fe39f608f", "lon": -77.02309566666666, "fusion_lon": 0.0}, {"is_reserved": 0, "type": "electric_scooter", "fusion_lat": 0.0, "is_disabled": 0, "rental_uris": {"ios": "https://dc.lft.to/lastmile_qr_scan", "android": "https://dc.lft.to/lastmile_qr_scan"}, "bike_id": "4805bc81869b13aff3a251bef903e5b6", "lat": 38.9158585, "name": "4805bc81869b13aff3a251bef903e5b6", "lon": -77.03173183333334, "fusion_lon": 0.0}, {"is_reserved": 0, "type": "electric_bike", "fusion_lat": 0.0, "is_disabled": 0, "rental_uris": {"ios": "https://dc.lft.to/lastmile_qr_scan", "android": "https://dc.lft.to/lastmile_qr_scan"}, "bike_id": "2431b51edd07bfde8a95314f57fc89bb", "lat": 38.84095666666666, "name": "2431b51edd07bfde8a95314f57fc89bb", "lon": -77.0894375, "fusion_lon": 0.0}, {"is_reserved": 0, "type": "electric_scooter", "fusion_lat": 0.0, "is_disabled": 0, "rental_uris": {"ios": "https://dc.lft.to/lastmile_qr_scan", "android": "https://dc.lft.to/lastmile_qr_scan"}, "bike_id": "7c845fded985578d68e7740a036a1149", "lat": 38.901945, "name": "7c845fded985578d68e7740a036a1149", "lon": -77.04876283333333, "fusion_lon": 0.0}, {"is_reserved": 0, "type": "electric_scooter", "fusion_lat": 0.0, "is_disabled": 0, "rental_uris": {"ios": "https://dc.lft.to/lastmile_qr_scan", "android": "https://dc.lft.to/lastmile_qr_scan"}, "bike_id": "a859d517be23413dc1f66e9cf577c739", "lat": 38.9326225, "name": "a859d517be23413dc1f66e9cf577c739", "lon": -77.0326335, "fusion_lon": 0.0}, {"is_reserved": 0, "type": "electric_scooter", "fusion_lat": 0.0, "is_disabled": 0, "rental_uris": {"ios": "https://dc.lft.to/lastmile_qr_scan", "android": "https://dc.lft.to/lastmile_qr_scan"}, "bike_id": "03b8aa59b80f80b5c65571213f388d95", "lat": 38.926780666666666, "name": "03b8aa59b80f80b5c65571213f388d95", "lon": -77.00872433333333, "fusion_lon": 0.0}, {"is_reserved": 0, "type": "electric_scooter", "fusion_lat": 0.0, "is_disabled": 0, "rental_uris": {"ios": "https://dc.lft.to/lastmile_qr_scan", "android": "https://dc.lft.to/lastmile_qr_scan"}, "bike_id": "6a454fe9c533c0d7e2a0f1f8820e12ac", "lat": 38.883868, "name": "6a454fe9c533c0d7e2a0f1f8820e12ac", "lon": -76.9304925, "fusion_lon": 0.0}, {"is_reserved": 0, "type": "electric_scooter", "fusion_lat": 0.0, "is_disabled": 0, "rental_uris": {"ios": "https://dc.lft.to/lastmile_qr_scan", "android": "https://dc.lft.to/lastmile_qr_scan"}, "bike_id": "84d6dfaeb5b46fe6dbcfbea34183bb4a", "lat": 38.9235735, "name": "84d6dfaeb5b46fe6dbcfbea34183bb4a", "lon": -77.02977316666667, "fusion_lon": 0.0}, {"is_reserved": 0, "type": "electric_scooter", "fusion_lat": 0.0, "is_disabled": 0, "rental_uris": {"ios": "https://dc.lft.to/lastmile_qr_scan", "android": "https://dc.lft.to/lastmile_qr_scan"}, "bike_id": "6e12dd5d99da9eb89a9d10a94e1c84d7", "lat": 38.908109, "name": "6e12dd5d99da9eb89a9d10a94e1c84d7", "lon": -77.04352866666666, "fusion_lon": 0.0}, {"is_reserved": 0, "type": "electric_scooter", "fusion_lat": 0.0, "is_disabled": 0, "rental_uris": {"ios": "https://dc.lft.to/lastmile_qr_scan", "android": "https://dc.lft.to/lastmile_qr_scan"}, "bike_id": "7a4f8c2630b5d556153e02270387db1f", "lat": 38.931607, "name": "7a4f8c2630b5d556153e02270387db1f", "lon": -77.05609833333334, "fusion_lon": 0.0}, {"is_reserved": 0, "type": "electric_bike", "fusion_lat": 0.0, "is_disabled": 0, "rental_uris": {"ios": "https://dc.lft.to/lastmile_qr_scan", "android": "https://dc.lft.to/lastmile_qr_scan"}, "bike_id": "5217baeb734d00774d224974da70d189", "lat": 38.88374966666667, "name": "5217baeb734d00774d224974da70d189", "lon": -76.923706, "fusion_lon": 0.0}, {"is_reserved": 0, "type": "electric_scooter", "fusion_lat": 0.0, "is_disabled": 0, "rental_uris": {"ios": "https://dc.lft.to/lastmile_qr_scan", "android": "https://dc.lft.to/lastmile_qr_scan"}, "bike_id": "7dc023242a728f1a89c97995da8fda63", "lat": 38.89428266666667, "name": "7dc023242a728f1a89c97995da8fda63", "lon": -77.00103, "fusion_lon": 0.0}, {"is_reserved": 0, "type": "electric_scooter", "fusion_lat": 0.0, "is_disabled": 0, "rental_uris": {"ios": "https://dc.lft.to/lastmile_qr_scan", "android": "https://dc.lft.to/lastmile_qr_scan"}, "bike_id": "ea8ec792cfa6adb303ce4762c51cbae2", "lat": 38.913599, "name": "ea8ec792cfa6adb303ce4762c51cbae2", "lon": -77.04656283333334, "fusion_lon": 0.0}, {"is_reserved": 0, "type": "electric_scooter", "fusion_lat": 0.0, "is_disabled": 0, "rental_uris": {"ios": "https://dc.lft.to/lastmile_qr_scan", "android": "https://dc.lft.to/lastmile_qr_scan"}, "bike_id": "f8a914b6a754ed1b761bbed1c789ef14", "lat": 38.93531183333333, "name": "f8a914b6a754ed1b761bbed1c789ef14", "lon": -77.05460033333334, "fusion_lon": 0.0}, {"is_reserved": 0, "type": "electric_scooter", "fusion_lat": 0.0, "is_disabled": 0, "rental_uris": {"ios": "https://dc.lft.to/lastmile_qr_scan", "android": "https://dc.lft.to/lastmile_qr_scan"}, "bike_id": "ded3b8374ebc8259af474d786d33da00", "lat": 38.88737316666667, "name": "ded3b8374ebc8259af474d786d33da00", "lon": -77.01531283333334, "fusion_lon": 0.0}, {"is_reserved": 0, "type": "electric_scooter", "fusion_lat": 0.0, "is_disabled": 0, "rental_uris": {"ios": "https://dc.lft.to/lastmile_qr_scan", "android": "https://dc.lft.to/lastmile_qr_scan"}, "bike_id": "81d41d10c96097386ce8a3e2fb4cc560", "lat": 38.87067783333333, "name": "81d41d10c96097386ce8a3e2fb4cc560", "lon": -76.9812715, "fusion_lon": 0.0}, {"is_reserved": 0, "type": "electric_scooter", "fusion_lat": 0.0, "is_disabled": 0, "rental_uris": {"ios": "https://dc.lft.to/lastmile_qr_scan", "android": "https://dc.lft.to/lastmile_qr_scan"}, "bike_id": "5e4c44daaecbb80649214f2bcadc5aab", "lat": 38.9184105, "name": "5e4c44daaecbb80649214f2bcadc5aab", "lon": -77.04175466666666, "fusion_lon": 0.0}, {"is_reserved": 0, "type": "electric_scooter", "fusion_lat": 0.0, "is_disabled": 0, "rental_uris": {"ios": "https://dc.lft.to/lastmile_qr_scan", "android": "https://dc.lft.to/lastmile_qr_scan"}, "bike_id": "53fa2974d94479149ce2913c64a40345", "lat": 38.9074595, "name": "53fa2974d94479149ce2913c64a40345", "lon": -76.99919066666666, "fusion_lon": 0.0}, {"is_reserved": 0, "type": "electric_scooter", "fusion_lat": 0.0, "is_disabled": 0, "rental_uris": {"ios": "https://dc.lft.to/lastmile_qr_scan", "android": "https://dc.lft.to/lastmile_qr_scan"}, "bike_id": "f8fe99aa0b5736113307e00345b4108e", "lat": 38.8995615, "name": "f8fe99aa0b5736113307e00345b4108e", "lon": -77.04836333333333, "fusion_lon": 0.0}, {"is_reserved": 0, "type": "electric_scooter", "fusion_lat": 0.0, "is_disabled": 0, "rental_uris": {"ios": "https://dc.lft.to/lastmile_qr_scan", "android": "https://dc.lft.to/lastmile_qr_scan"},