{"data": {"bikes": [{"rental_uris": {"ios": "https://dc.lft.to/lastmile_qr_scan", "android": "https://dc.lft.to/lastmile_qr_scan"}, "type": "electric_scooter", "name": "a860f96f16876bf5b2cfca9fb5f0301c", "is_reserved": 0, "lon": -77.03017933333334, "is_disabled": 0, "fusion_lat": 0.0, "lat": 38.9311975, "bike_id": "a860f96f16876bf5b2cfca9fb5f0301c", "fusion_lon": 0.0}, {"rental_uris": {"ios": "https://dc.lft.to/lastmile_qr_scan", "android": "https://dc.lft.to/lastmile_qr_scan"}, "type": "electric_scooter", "name": "d93e5894ee21945cf5f29a8f4c02b0af", "is_reserved": 0, "lon": -77.02943816666667, "is_disabled": 0, "fusion_lat": 0.0, "lat": 38.920624, "bike_id": "d93e5894ee21945cf5f29a8f4c02b0af", "fusion_lon": 0.0}, {"rental_uris": {"ios": "https://dc.lft.to/lastmile_qr_scan", "android": "https://dc.lft.to/lastmile_qr_scan"}, "type": "electric_scooter", "name": "71d43dcd08a7f8f24e1a6fc5e2553ee8", "is_reserved": 0, "lon": -76.99360166666666, "is_disabled": 0, "fusion_lat": 0.0, "lat": 38.900402666666665, "bike_id": "71d43dcd08a7f8f24e1a6fc5e2553ee8", "fusion_lon": 0.0}, {"rental_uris": {"ios": "https://dc.lft.to/lastmile_qr_scan", "android": "https://dc.lft.to/lastmile_qr_scan"}, "type": "electric_scooter", "name": "3daef2c659e94f5ff61ebe8ab91ca521", "is_reserved": 0, "lon": -77.02387433333334, "is_disabled": 0, "fusion_lat": 0.0, "lat": 38.92077883333333, "bike_id": "3daef2c659e94f5ff61ebe8ab91ca521", "fusion_lon": 0.0}, {"rental_uris": {"ios": "https://dc.lft.to/lastmile_qr_scan", "android": "https://dc.lft.to/lastmile_qr_scan"}, "type": "electric_scooter", "name": "49efc77ab2da32dc4eb37d25a4e3da86", "is_reserved": 0, "lon": -77.0569325, "is_disabled": 0, "fusion_lat": 0.0, "lat": 38.937226833333334, "bike_id": "49efc77ab2da32dc4eb37d25a4e3da86", "fusion_lon": 0.0}, {"rental_uris": {"ios": "https://dc.lft.to/lastmile_qr_scan", "android": "https://dc.lft.to/lastmile_qr_scan"}, "type": "electric_scooter", "name": "39c473aeea033d712b3ac37946c0fade", "is_reserved": 0, "lon": -77.0304505, "is_disabled": 0, "fusion_lat": 0.0, "lat": 38.990338666666666, "bike_id": "39c473aeea033d712b3ac37946c0fade", "fusion_lon": 0.0}, {"rental_uris": {"ios": "https://dc.lft.to/lastmile_qr_scan", "android": "https://dc.lft.to/lastmile_qr_scan"}, "type": "electric_scooter", "name": "3cd1b1d1fdeb733b88af6e00af9258ab", "is_reserved": 0, "lon": -77.02150733333333, "is_disabled": 0, "fusion_lat": 0.0, "lat": 38.916206, "bike_id": "3cd1b1d1fdeb733b88af6e00af9258ab", "fusion_lon": 0.0}, {"rental_uris": {"ios": "https://dc.lft.to/lastmile_qr_scan", "android": "https://dc.lft.to/lastmile_qr_scan"}, "type": "electric_scooter", "name": "e1bd74e46d066187224e804877bf1312", "is_reserved": 0, "lon": -77.01956416666667, "is_disabled": 0, "fusion_lat": 0.0, "lat": 38.9313565, "bike_id": "e1bd74e46d066187224e804877bf1312", "fusion_lon": 0.0}, {"rental_uris": {"ios": "https://dc.lft.to/lastmile_qr_scan", "android": "https://dc.lft.to/lastmile_qr_scan"}, "type": "electric_scooter", "name": "7068ff3b81ab89335e63ca318f7f3f22", "is_reserved": 0, "lon": -77.0171205, "is_disabled": 0, "fusion_lat": 0.0, "lat": 38.91412583333333, "bike_id": "7068ff3b81ab89335e63ca318f7f3f22", "fusion_lon": 0.0}, {"rental_uris": {"ios": "https://dc.lft.to/lastmile_qr_scan", "android": "https://dc.lft.to/lastmile_qr_scan"}, "type": "electric_scooter", "name": "23b2d40a757ba92e689c344c51c7c464", "is_reserved": 0, "lon": -77.02320483333334, "is_disabled": 0, "fusion_lat": 0.0, "lat": 38.94022866666667, "bike_id": "23b2d40a757ba92e689c344c51c7c464", "fusion_lon": 0.0}, {"rental_uris": {"ios": "https://dc.lft.to/lastmile_qr_scan", "android": "https://dc.lft.to/lastmile_qr_scan"}, "type": "electric_scooter", "name": "72e50ab3be233838349ec89920228f9b", "is_reserved": 0, "lon": -77.039617, "is_disabled": 0, "fusion_lat": 0.0, "lat": 38.90262333333333, "bike_id": "72e50ab3be233838349ec89920228f9b", "fusion_lon": 0.0}, {"rental_uris": {"ios": "https://dc.lft.to/lastmile_qr_scan", "android": "https://dc.lft.to/lastmile_qr_scan"}, "type": "electric_scooter", "name": "df2468fdb682c889744972f86b713f87", "is_reserved": 0, "lon": -77.0126855, "is_disabled": 0, "fusion_lat": 0.0, "lat": 38.89717616666667, "bike_id": "df2468fdb682c889744972f86b713f87", "fusion_lon": 0.0}, {"rental_uris": {"ios": "https://dc.lft.to/lastmile_qr_scan", "android": "https://dc.lft.to/lastmile_qr_scan"}, "type": "electric_scooter", "name": "da9528319b15c58430867da35e3ca1ba", "is_reserved": 0, "lon": -77.05203883333333, "is_disabled": 0, "fusion_lat": 0.0, "lat": 38.9035115, "bike_id": "da9528319b15c58430867da35e3ca1ba", "fusion_lon": 0.0}, {"rental_uris": {"ios": "https://dc.lft.to/lastmile_qr_scan", "android": "https://dc.lft.to/lastmile_qr_scan"}, "type": "electric_scooter", "name": "3e510d7eb75ffe7e6214eabc0b37986a", "is_reserved": 0, "lon": -77.07212283333334, "is_disabled": 0, "fusion_lat": 0.0, "lat": 38.906837, "bike_id": "3e510d7eb75ffe7e6214eabc0b37986a", "fusion_lon": 0.0}, {"rental_uris": {"ios": "https://dc.lft.to/lastmile_qr_scan", "android": "https://dc.lft.to/lastmile_qr_scan"}, "type": "electric_scooter", "name": "a6500d3d5473ff777a3ef650f3b3195b", "is_reserved": 0, "lon": -76.986668, "is_disabled": 0, "fusion_lat": 0.0, "lat": 38.90621316666667, "bike_id": "a6500d3d5473ff777a3ef650f3b3195b", "fusion_lon": 0.0}, {"rental_uris": {"ios": "https://dc.lft.to/lastmile_qr_scan", "android": "https://dc.lft.to/lastmile_qr_scan"}, "type": "electric_scooter", "name": "e73e3ded44e1c2693b7f438c9783bbca", "is_reserved": 0, "lon": -77.0296345, "is_disabled": 0, "fusion_lat": 0.0, "lat": 38.905003, "bike_id": "e73e3ded44e1c2693b7f438c9783bbca", "fusion_lon": 0.0}, {"rental_uris": {"ios": "https://dc.lft.to/lastmile_qr_scan", "android": "https://dc.lft.to/lastmile_qr_scan"}, "type": "electric_scooter", "name": "b5f52526e999dad2ac5f77ec298e7450", "is_reserved": 0, "lon": -77.012346, "is_disabled": 0, "fusion_lat": 0.0, "lat": 38.915827, "bike_id": "b5f52526e999dad2ac5f77ec298e7450", "fusion_lon": 0.0}, {"rental_uris": {"ios": "https://dc.lft.to/lastmile_qr_scan", "android": "https://dc.lft.to/lastmile_qr_scan"}, "type": "electric_scooter", "name": "2fa744284e98b27163ff4eb4f706852c", "is_reserved": 0, "lon": -77.04380116666667, "is_disabled": 0, "fusion_lat": 0.0, "lat": 38.934252666666666, "bike_id": "2fa744284e98b27163ff4eb4f706852c", "fusion_lon": 0.0}, {"rental_uris": {"ios": "https://dc.lft.to/lastmile_qr_scan", "android": "https://dc.lft.to/lastmile_qr_scan"}, "type": "electric_scooter", "name": "ae9b835623eb63bad2c4c3612a35e470", "is_reserved": 0, "lon": -76.99070833333333, "is_disabled": 0, "fusion_lat": 0.0, "lat": 38.90420016666667, "bike_id": "ae9b835623eb63bad2c4c3612a35e470", "fusion_lon": 0.0}, {"rental_uris": {"ios": "https://dc.lft.to/lastmile_qr_scan", "android": "https://dc.lft.to/lastmile_qr_scan"}, "type": "electric_scooter", "name": "f21b055db35e9d3df225b289c4c423eb", "is_reserved": 0, "lon": -76.98333283333334, "is_disabled": 0, "fusion_lat": 0.0, "lat": 38.90088183333334, "bike_id": "f21b055db35e9d3df225b289c4c423eb", "fusion_lon": 0.0}, {"rental_uris": {"ios": "https://dc.lft.to/lastmile_qr_scan", "android": "https://dc.lft.to/lastmile_qr_scan"}, "type": "electric_scooter", "name": "3860ba508b148232cb6d52f60e7a1ebb", "is_reserved": 0, "lon": -77.018874, "is_disabled": 0, "fusion_lat": 0.0, "lat": 38.897504166666664, "bike_id": "3860ba508b148232cb6d52f60e7a1ebb", "fusion_lon": 0.0}, {"rental_uris": {"ios": "https://dc.lft.to/lastmile_qr_scan", "android": "https://dc.lft.to/lastmile_qr_scan"}, "type": "electric_scooter", "name": "853aa6d9acba727f6c3139c51bdf9d7a", "is_reserved": 0, "lon": -77.02288283333333, "is_disabled": 0, "fusion_lat": 0.0, "lat": 38.9096535, "bike_id": "853aa6d9acba727f6c3139c51bdf9d7a", "fusion_lon": 0.0}, {"rental_uris": {"ios": "https://dc.lft.to/lastmile_qr_scan", "android": "https://dc.lft.to/lastmile_qr_scan"}, "type": "electric_scooter", "name": "7599e07864643c76e29f6f9775195f7d", "is_reserved": 0, "lon": -77.03650566666667, "is_disabled": 0, "fusion_lat": 0.0, "lat": 38.923878333333334, "bike_id": "7599e07864643c76e29f6f9775195f7d", "fusion_lon": 0.0}, {"rental_uris": {"ios": "https://dc.lft.to/lastmile_qr_scan", "android": "https://dc.lft.to/lastmile_qr_scan"}, "type": "electric_bike", "name": "eea9b0c90a9959f90e43d741470f28ef", "is_reserved": 0, "lon": -77.00152766666666, "is_disabled": 0, "fusion_lat": 0.0, "lat": 38.9417015, "bike_id": "eea9b0c90a9959f90e43d741470f28ef", "fusion_lon": 0.0}, {"rental_uris": {"ios": "https://dc.lft.to/lastmile_qr_scan", "android": "https://dc.lft.to/lastmile_qr_scan"}, "type": "electric_scooter", "name": "125f9c799c49ee33937af9579378e9b8", "is_reserved": 0, "lon": -76.95843033333334, "is_disabled": 0, "fusion_lat": 0.0, "lat": 38.91852133333333, "bike_id": "125f9c799c49ee33937af9579378e9b8", "fusion_lon": 0.0}, {"rental_uris": {"ios": "https://dc.lft.to/lastmile_qr_scan", "android": "https://dc.lft.to/lastmile_qr_scan"}, "type": "electric_scooter", "name": "79972a81363651952f562dcefea38555", "is_reserved": 0, "lon": -77.030509, "is_disabled": 0, "fusion_lat": 0.0, "lat": 38.907250833333336, "bike_id": "79972a81363651952f562dcefea38555", "fusion_lon": 0.0}, {"rental_uris": {"ios": "https://dc.lft.to/lastmile_qr_scan", "android": "https://dc.lft.to/lastmile_qr_scan"}, "type": "electric_scooter", "name": "2ae9eec9d12d6cda6880b8e48dd47f69", "is_reserved": 0, "lon": -77.05813233333333, "is_disabled": 0, "fusion_lat": 0.0, "lat": 38.9352185, "bike_id": "2ae9eec9d12d6cda6880b8e48dd47f69", "fusion_lon": 0.0}, {"rental_uris": {"ios": "https://dc.lft.to/lastmile_qr_scan", "android": "https://dc.lft.to/lastmile_qr_scan"}, "type": "electric_scooter", "name": "0089d0e6e33f475e62b1d78a6c04eb60", "is_reserved": 0, "lon": -77.033899, "is_disabled": 0, "fusion_lat": 0.0, "lat": 38.89989533333333, "bike_id": "0089d0e6e33f475e62b1d78a6c04eb60", "fusion_lon": 0.0}, {"rental_uris": {"ios": "https://dc.lft.to/lastmile_qr_scan", "android": "https://dc.lft.to/lastmile_qr_scan"}, "type": "electric_scooter", "name": "b32a66b3f40abfe2abaf95f92ba3f525", "is_reserved": 0, "lon": -77.03278066666667, "is_disabled": 0, "fusion_lat": 0.0, "lat": 38.919997, "bike_id": "b32a66b3f40abfe2abaf95f92ba3f525", "fusion_lon": 0.0}, {"rental_uris": {"ios": "https://dc.lft.to/lastmile_qr_scan", "android": "https://dc.lft.to/lastmile_qr_scan"}, "type": "electric_bike", "name": "cbdcc5f58d1d3f8449113adc564c10c8", "is_reserved": 0, "lon": -77.03226933333333, "is_disabled": 0, "fusion_lat": 0.0, "lat": 38.96162433333333, "bike_id": "cbdcc5f58d1d3f8449113adc564c10c8", "fusion_lon": 0.0}, {"rental_uris": {"ios": "https://dc.lft.to/lastmile_qr_scan", "android": "https://dc.lft.to/lastmile_qr_scan"}, "type": "electric_scooter", "name": "b5b536ba377cb5f09e4c8174f8d0cfa0", "is_reserved": 0, "lon": -77.033009, "is_disabled": 0, "fusion_lat": 0.0, "lat": 38.917155666666666, "bike_id": "b5b536ba377cb5f09e4c8174f8d0cfa0", "fusion_lon": 0.0}, {"rental_uris": {"ios": "https://dc.lft.to/lastmile_qr_scan", "android": "https://dc.lft.to/lastmile_qr_scan"}, "type": "electric_bike", "name": "4fdfba781241148154ee235eceb58248", "is_reserved": 0, "lon": -77.00758916666666, "is_disabled": 0, "fusion_lat": 0.0, "lat": 38.98135, "bike_id": "4fdfba781241148154ee235eceb58248", "fusion_lon": 0.0}, {"rental_uris": {"ios": "https://dc.lft.to/lastmile_qr_scan", "android": "https://dc.lft.to/lastmile_qr_scan"}, "type": "electric_scooter", "name": "c0237762186cd92da4064e975c0d27bd", "is_reserved": 0, "lon": -77.0316385, "is_disabled": 0, "fusion_lat": 0.0, "lat": 38.959368, "bike_id": "c0237762186cd92da4064e975c0d27bd", "fusion_lon": 0.0}, {"rental_uris": {"ios": "https://dc.lft.to/lastmile_qr_scan", "android": "https://dc.lft.to/lastmile_qr_scan"}, "type": "electric_scooter", "name": "89d0e189191a1221acf9fc6b9291cd7e", "is_reserved": 0, "lon": -77.04804283333333, "is_disabled": 0, "fusion_lat": 0.0, "lat": 38.899617666666664, "bike_id": "89d0e189191a1221acf9fc6b9291cd7e", "fusion_lon": 0.0}, {"rental_uris": {"ios": "https://dc.lft.to/lastmile_qr_scan", "android": "https://dc.lft.to/lastmile_qr_scan"}, "type": "electric_bike", "name": "b8edb534ad7690a726477a721189bbd7", "is_reserved": 0, "lon": -76.9887765, "is_disabled": 0, "fusion_lat": 0.0, "lat": 38.921172166666665, "bike_id": "b8edb534ad7690a726477a721189bbd7", "fusion_lon": 0.0}, {"rental_uris": {"ios": "https://dc.lft.to/lastmile_qr_scan", "android": "https://dc.lft.to/lastmile_qr_scan"}, "type": "electric_scooter", "name": "04592847a3612ad4b0ffc12d1f558a42", "is_reserved": 0, "lon": -77.02339616666667, "is_disabled": 0, "fusion_lat": 0.0, "lat": 38.929368333333336, "bike_id": "04592847a3612ad4b0ffc12d1f558a42", "fusion_lon": 0.0}, {"rental_uris": {"ios": "https://dc.lft.to/lastmile_qr_scan", "android": "https://dc.lft.to/lastmile_qr_scan"}, "type": "electric_scooter", "name": "0de181cd85e0563cd4a05994a6d057ab", "is_reserved": 0, "lon": -77.03343583333333, "is_disabled": 0, "fusion_lat": 0.0, "lat": 38.93218133333333, "bike_id": "0de181cd85e0563cd4a05994a6d057ab", "fusion_lon": 0.0}, {"rental_uris": {"ios": "https://dc.lft.to/lastmile_qr_scan", "android": "https://dc.lft.to/lastmile_qr_scan"}, "type": "electric_scooter", "name": "feb0f010c9705050637cb69c94871b4c", "is_reserved": 0, "lon": -77.01778133333333, "is_disabled": 0, "fusion_lat": 0.0, "lat": 38.90039983333333, "bike_id": "feb0f010c9705050637cb69c94871b4c", "fusion_lon": 0.0}, {"rental_uris": {"ios": "https://dc.lft.to/lastmile_qr_scan", "android": "https://dc.lft.to/lastmile_qr_scan"}, "type": "electric_scooter", "name": "bafba240ed60c7355b3b6251d47586c8", "is_reserved": 0, "lon": -77.07833016666666, "is_disabled": 0, "fusion_lat": 0.0, "lat": 38.94571716666667, "bike_id": "bafba240ed60c7355b3b6251d47586c8", "fusion_lon": 0.0}, {"rental_uris": {"ios": "https://dc.lft.to/lastmile_qr_scan", "android": "https://dc.lft.to/lastmile_qr_scan"}, "type": "electric_scooter", "name": "ba7676ee61ea0caa0b4dbcad04b0a0dc", "is_reserved": 0, "lon": -77.00280316666667, "is_disabled": 0, "fusion_lat": 0.0, "lat": 38.84610933333333, "bike_id": "ba7676ee61ea0caa0b4dbcad04b0a0dc", "fusion_lon": 0.0}, {"rental_uris": {"ios": "https://dc.lft.to/lastmile_qr_scan", "android": "https://dc.lft.to/lastmile_qr_scan"}, "type": "electric_scooter", "name": "7edb86ef0380160581bfd4bcb3ba4966", "is_reserved": 0, "lon": -76.95850683333333, "is_disabled": 0, "fusion_lat": 0.0, "lat": 38.918411166666665, "bike_id": "7edb86ef0380160581bfd4bcb3ba4966", "fusion_lon": 0.0}, {"rental_uris": {"ios": "https://dc.lft.to/lastmile_qr_scan", "android": "https://dc.lft.to/lastmile_qr_scan"}, "type": "electric_scooter", "name": "080d80fb994f8fbfa9d8a98d1c59ab0c", "is_reserved": 0, "lon": -77.03983466666666, "is_disabled": 0, "fusion_lat": 0.0, "lat": 38.902465, "bike_id": "080d80fb994f8fbfa9d8a98d1c59ab0c", "fusion_lon": 0.0}, {"rental_uris": {"ios": "https://dc.lft.to/lastmile_qr_scan", "android": "https://dc.lft.to/lastmile_qr_scan"}, "type": "electric_scooter", "name": "65cd7d7c9793ad85c8a539385b87b7b2", "is_reserved": 0, "lon": -77.04607783333333, "is_disabled": 0, "fusion_lat": 0.0, "lat": 38.905825166666666, "bike_id": "65cd7d7c9793ad85c8a539385b87b7b2", "fusion_lon": 0.0}, {"rental_uris": {"ios": "https://dc.lft.to/lastmile_qr_scan", "android": "https://dc.lft.to/lastmile_qr_scan"}, "type": "electric_scooter", "name": "7623af3d1aa79b39697e7b71ebc593d9", "is_reserved": 0, "lon": -77.0465345, "is_disabled": 0, "fusion_lat": 0.0, "lat": 38.9178945, "bike_id": "7623af3d1aa79b39697e7b71ebc593d9", "fusion_lon": 0.0}, {"rental_uris": {"ios": "https://dc.lft.to/lastmile_qr_scan", "android": "https://dc.lft.to/lastmile_qr_scan"}, "type": "electric_scooter", "name": "8fbf55f6a444321c2845362e33c85d11", "is_reserved": 0, "lon": -77.06602616666666, "is_disabled": 0, "fusion_lat": 0.0, "lat": 38.90405233333333, "bike_id": "8fbf55f6a444321c2845362e33c85d11", "fusion_lon": 0.0}, {"rental_uris": {"ios": "https://dc.lft.to/lastmile_qr_scan", "android": "https://dc.lft.to/lastmile_qr_scan"}, "type": "electric_scooter", "name": "ef0ac08a04b2b7b0fad3de8d2956b2a0", "is_reserved": 0, "lon": -77.0792235, "is_disabled": 0, "fusion_lat": 0.0, "lat": 38.9456615, "bike_id": "ef0ac08a04b2b7b0fad3de8d2956b2a0", "fusion_lon": 0.0}, {"rental_uris": {"ios": "https://dc.lft.to/lastmile_qr_scan", "android": "https://dc.lft.to/lastmile_qr_scan"}, "type": "electric_scooter", "name": "7fbd16b543040a6adee3a3589f1f6120", "is_reserved": 0, "lon": -77.0032095, "is_disabled": 0, "fusion_lat": 0.0, "lat": 38.87729683333333, "bike_id": "7fbd16b543040a6adee3a3589f1f6120", "fusion_lon": 0.0}, {"rental_uris": {"ios": "https://dc.lft.to/lastmile_qr_scan", "android": "https://dc.lft.to/lastmile_qr_scan"}, "type": "electric_scooter", "name": "d895a1ad51365e7af0fe1e86a27bdecc", "is_reserved": 0, "lon": -76.9961105, "is_disabled": 0, "fusion_lat": 0.0, "lat": 38.90320616666666, "bike_id": "d895a1ad51365e7af0fe1e86a27bdecc", "fusion_lon": 0.0}, {"rental_uris": {"ios": "https://dc.lft.to/lastmile_qr_scan", "android": "https://dc.lft.to/lastmile_qr_scan"}, "type": "electric_scooter", "name": "3a55c88de77f48ef53af76adffaa4da9", "is_reserved": 0, "lon": -77.01886616666667, "is_disabled": 0, "fusion_lat": 0.0, "lat": 38.8974725, "bike_id": "3a55c88de77f48ef53af76adffaa4da9", "fusion_lon": 0.0}, {"rental_uris": {"ios": "https://dc.lft.to/lastmile_qr_scan", "android": "https://dc.lft.to/lastmile_qr_scan"}, "type": "electric_scooter", "name": "9ec3d374ef8ec0bc08f4126a37c3666c", "is_reserved": 0, "lon": -77.02490866666666, "is_disabled": 0, "fusion_lat": 0.0, "lat": 38.940507, "bike_id": "9ec3d374ef8ec0bc08f4126a37c3666c", "fusion_lon": 0.0}, {"rental_uris": {"ios": "https://dc.lft.to/lastmile_qr_scan", "android": "https://dc.lft.to/lastmile_qr_scan"}, "type": "electric_scooter", "name": "bd8e773a0db6fed26bfa162d8fd4eba0", "is_reserved": 0, "lon": -77.07707783333333, "is_disabled": 0, "fusion_lat": 0.0, "lat": 38.893614, "bike_id": "bd8e773a0db6fed26bfa162d8fd4eba0", "fusion_lon": 0.0}, {"rental_uris": {"ios": "https://dc.lft.to/lastmile_qr_scan", "android": "https://dc.lft.to/lastmile_qr_scan"}, "type": "electric_scooter", "name": "88d3e8e1a838c86e6ce5b60126edb704", "is_reserved": 0, "lon": -77.0180375, "is_disabled": 0, "fusion_lat": 0.0, "lat": 38.92128183333333, "bike_id": "88d3e8e1a838c86e6ce5b60126edb704", "fusion_lon": 0.0}, {"rental_uris": {"ios": "https://dc.lft.to/lastmile_qr_scan", "android": "https://dc.lft.to/lastmile_qr_scan"}, "type": "electric_scooter", "name": "aee7b6465c2caf240ae51e39bf53e3a9", "is_reserved": 0, "lon": -76.98211066666667, "is_disabled": 0, "fusion_lat": 0.0, "lat": 38.88643716666667, "bike_id": "aee7b6465c2caf240ae51e39bf53e3a9", "fusion_lon": 0.0}, {"rental_uris": {"ios": "https://dc.lft.to/lastmile_qr_scan", "android": "https://dc.lft.to/lastmile_qr_scan"}, "type": "electric_scooter", "name": "83d97b4e4f92fd6b27e2ce8c24a3ac4f", "is_reserved": 0, "lon": -77.01585733333333, "is_disabled": 0, "fusion_lat": 0.0, "lat": 38.876527833333334, "bike_id": "83d97b4e4f92fd6b27e2ce8c24a3ac4f", "fusion_lon": 0.0}, {"rental_uris": {"ios": "https://dc.lft.to/lastmile_qr_scan", "android": "https://dc.lft.to/lastmile_qr_scan"}, "type": "electric_scooter", "name": "403db7dc50394c88baf81e03729417a7", "is_reserved": 0, "lon": -77.04341083333334, "is_disabled": 0, "fusion_lat": 0.0, "lat": 38.913833, "bike_id": "403db7dc50394c88baf81e03729417a7", "fusion_lon": 0.0}, {"rental_uris": {"ios": "https://dc.lft.to/lastmile_qr_scan", "android": "https://dc.lft.to/lastmile_qr_scan"}, "type": "electric_scooter", "name": "da5981aa337d81cc1d2e569baf9a3d06", "is_reserved": 0, "lon": -77.01901616666666, "is_disabled": 0, "fusion_lat": 0.0, "lat": 38.9037005, "bike_id": "da5981aa337d81cc1d2e569baf9a3d06", "fusion_lon": 0.0}, {"rental_uris": {"ios": "https://dc.lft.to/lastmile_qr_scan", "android": "https://dc.lft.to/lastmile_qr_scan"}, "type": "electric_scooter", "name": "e7243084468650f9e73c19b05a1da3e3", "is_reserved": 0, "lon": -77.040044, "is_disabled": 0, "fusion_lat": 0.0, "lat": 38.888665, "bike_id": "e7243084468650f9e73c19b05a1da3e3", "fusion_lon": 0.0}, {"rental_uris": {"ios": "https://dc.lft.to/lastmile_qr_scan", "android": "https://dc.lft.to/lastmile_qr_scan"}, "type": "electric_scooter", "name": "3530e4ad8891a93586335570beef0ed8", "is_reserved": 0, "lon": -77.025741, "is_disabled": 0, "fusion_lat": 0.0, "lat": 38.88484416666667, "bike_id": "3530e4ad8891a93586335570beef0ed8", "fusion_lon": 0.0}, {"rental_uris": {"ios": "https://dc.lft.to/lastmile_qr_scan", "android": "https://dc.lft.to/lastmile_qr_scan"}, "type": "electric_scooter", "name": "3eef516dcbccb11936f56b99e11a3da3", "is_reserved": 0, "lon": -77.04529783333334, "is_disabled": 0, "fusion_lat": 0.0, "lat": 38.9111035, "bike_id": "3eef516dcbccb11936f56b99e11a3da3", "fusion_lon": 0.0}, {"rental_uris": {"ios": "https://dc.lft.to/lastmile_qr_scan", "android": "https://dc.lft.to/lastmile_qr_scan"}, "type": "electric_scooter", "name": "8d38037c2c9220dcb0d3f3d16d89f637", "is_reserved": 0, "lon": -77.08339483333333, "is_disabled": 0, "fusion_lat": 0.0, "lat": 38.894208166666665, "bike_id": "8d38037c2c9220dcb0d3f3d16d89f637", "fusion_lon": 0.0}, {"rental_uris": {"ios": "https://dc.lft.to/lastmile_qr_scan", "android": "https://dc.lft.to/lastmile_qr_scan"}, "type": "electric_scooter", "name": "7448fddf9f1e65b261bc730a16d7831f", "is_reserved": 0, "lon": -77.03338016666666, "is_disabled": 0, "fusion_lat": 0.0, "lat": 38.902448, "bike_id": "7448fddf9f1e65b261bc730a16d7831f", "fusion_lon": 0.0}, {"rental_uris": {"ios": "https://dc.lft.to/lastmile_qr_scan", "android": "https://dc.lft.to/lastmile_qr_scan"}, "type": "electric_scooter", "name": "376333fb2d85978b06b5316847febaba", "is_reserved": 0, "lon": -77.01822, "is_disabled": 0, "fusion_lat": 0.0, "lat": 38.92220233333333, "bike_id": "376333fb2d85978b06b5316847febaba", "fusion_lon": 0.0}, {"rental_uris": {"ios": "https://dc.lft.to/lastmile_qr_scan", "android": "https://dc.lft.to/lastmile_qr_scan"}, "type": "electric_scooter", "name": "e4e55a4f4d2097610e5d42811ad402ec", "is_reserved": 0, "lon": -76.99768566666667, "is_disabled": 0, "fusion_lat": 0.0, "lat": 38.922999, "bike_id": "e4e55a4f4d2097610e5d42811ad402ec", "fusion_lon": 0.0}, {"rental_uris": {"ios": "https://dc.lft.to/lastmile_qr_scan", "android": "https://dc.lft.to/lastmile_qr_scan"}, "type": "electric_bike", "name": "de4eb1171770b9c9c8cbe0cbc9aff54b", "is_reserved": 0, "lon": -77.0641325, "is_disabled": 0, "fusion_lat": 0.0, "lat": 38.9063595, "bike_id": "de4eb1171770b9c9c8cbe0cbc9aff54b", "fusion_lon": 0.0}, {"rental_uris": {"ios": "https://dc.lft.to/lastmile_qr_scan", "android": "https://dc.lft.to/lastmile_qr_scan"}, "type": "electric_scooter", "name": "39ccec61ca24855db82170dfe0563aab", "is_reserved": 0, "lon": -77.01359766666667, "is_disabled": 0, "fusion_lat": 0.0, "lat": 38.91927716666667, "bike_id": "39ccec61ca24855db82170dfe0563aab", "fusion_lon": 0.0}, {"rental_uris": {"ios": "https://dc.lft.to/lastmile_qr_scan", "android": "https://dc.lft.to/lastmile_qr_scan"}, "type": "electric_bike", "name": "f7a77dfed4e6311098e5a84374e6fa6f", "is_reserved": 0, "lon": -77.04287233333334, "is_disabled": 0, "fusion_lat": 0.0, "lat": 38.90921516666667, "bike_id": "f7a77dfed4e6311098e5a84374e6fa6f", "fusion_lon": 0.0}, {"rental_uris": {"ios": "https://dc.lft.to/lastmile_qr_scan", "android": "https://dc.lft.to/lastmile_qr_scan"}, "type": "electric_scooter", "name": "5a2933e24174c454a3a3ce7911273466", "is_reserved": 0, "lon": -77.057437, "is_disabled": 0, "fusion_lat": 0.0, "lat": 38.930353333333336, "bike_id": "5a2933e24174c454a3a3ce7911273466", "fusion_lon": 0.0}, {"rental_uris": {"ios": "https://dc.lft.to/lastmile_qr_scan", "android": "https://dc.lft.to/lastmile_qr_scan"}, "type": "electric_scooter", "name": "e5882e9d8605d3fb1012bfeb959f8937", "is_reserved": 0, "lon": -77.00505933333334, "is_disabled": 0, "fusion_lat": 0.0, "lat": 38.87845733333333, "bike_id": "e5882e9d8605d3fb1012bfeb959f8937", "fusion_lon": 0.0}, {"rental_uris": {"ios": "https://dc.lft.to/lastmile_qr_scan", "android": "https://dc.lft.to/lastmile_qr_scan"}, "type": "electric_scooter", "name": "944a18ce2bf5f30121aaab4023e90599", "is_reserved": 0, "lon": -77.04011116666666, "is_disabled": 0, "fusion_lat": 0.0, "lat": 38.9224565, "bike_id": "944a18ce2bf5f30121aaab4023e90599", "fusion_lon": 0.0}, {"rental_uris": {"ios": "https://dc.lft.to/lastmile_qr_scan", "android": "https://dc.lft.to/lastmile_qr_scan"}, "type": "electric_scooter", "name": "9f8426ba029bc7bee3dc0f48e8a45b3b", "is_reserved": 0, "lon": -77.00957266666667, "is_disabled": 0, "fusion_lat": 0.0, "lat": 38.8746195, "bike_id": "9f8426ba029bc7bee3dc0f48e8a45b3b", "fusion_lon": 0.0}, {"rental_uris": {"ios": "https://dc.lft.to/lastmile_qr_scan", "android": "https://dc.lft.to/lastmile_qr_scan"}, "type": "electric_scooter", "name": "4c0f36fb8f283ae0d30de4dd85fc7d00", "is_reserved": 0, "lon": -77.07832, "is_disabled": 0, "fusion_lat": 0.0, "lat": 38.93151983333333, "bike_id": "4c0f36fb8f283ae0d30de4dd85fc7d00", "fusion_lon": 0.0}, {"rental_uris": {"ios": "https://dc.lft.to/lastmile_qr_scan", "android": "https://dc.lft.to/lastmile_qr_scan"}, "type": "electric_scooter", "name": "8a573dc5d07b67b662132956af2eb974", "is_reserved": 0, "lon": -77.02977733333333, "is_disabled": 0, "fusion_lat": 0.0, "lat": 38.923701333333334, "bike_id": "8a573dc5d07b67b662132956af2eb974", "fusion_lon": 0.0}, {"rental_uris": {"ios": "https://dc.lft.to/lastmile_qr_scan", "android": "https://dc.lft.to/lastmile_qr_scan"}, "type": "electric_bike", "name": "be4a61aa3e4aa2c5b54250279a88046c", "is_reserved": 0, "lon": -77.09618133333333, "is_disabled": 0, "fusion_lat": 0.0, "lat": 38.974457666666666, "bike_id": "be4a61aa3e4aa2c5b54250279a88046c", "fusion_lon": 0.0}, {"rental_uris": {"ios": "https://dc.lft.to/lastmile_qr_scan", "android": "https://dc.lft.to/lastmile_qr_scan"}, "type": "electric_bike", "name": "d938ab5daa56e1d3cb6a866464cd81c1", "is_reserved": 0, "lon": -76.9333105, "is_disabled": 0, "fusion_lat": 0.0, "lat": 38.95157, "bike_id": "d938ab5daa56e1d3cb6a866464cd81c1", "fusion_lon": 0.0}, {"rental_uris": {"ios": "https://dc.lft.to/lastmile_qr_scan", "android": "https://dc.lft.to/lastmile_qr_scan"}, "type": "electric_scooter", "name": "8cbe2d44d7f743f77d66b6805ddbe56d", "is_reserved": 0, "lon": -77.02707333333333, "is_disabled": 0, "fusion_lat": 0.0, "lat": 38.917642, "bike_id": "8cbe2d44d7f743f77d66b6805ddbe56d", "fusion_lon": 0.0}, {"rental_uris": {"ios": "https://dc.lft.to/lastmile_qr_scan", "android": "https://dc.lft.to/lastmile_qr_scan"}, "type": "electric_scooter", "name": "97493ad3631efffc18710c9e8552160f", "is_reserved": 0, "lon": -77.04362383333333, "is_disabled": 0, "fusion_lat": 0.0, "lat": 38.92241333333333, "bike_id": "97493ad3631efffc18710c9e8552160f", "fusion_lon": 0.0}, {"rental_uris": {"ios": "https://dc.lft.to/lastmile_qr_scan", "android": "https://dc.lft.to/lastmile_qr_scan"}, "type": "electric_bike", "name": "dbf1c0e3bfbc3b0d2d980013817bea98", "is_reserved": 0, "lon": -77.13232416666666, "is_disabled": 0, "fusion_lat": 0.0, "lat": 38.804495333333335, "bike_id": "dbf1c0e3bfbc3b0d2d980013817bea98", "fusion_lon": 0.0}, {"rental_uris": {"ios": "https://dc.lft.to/lastmile_qr_scan", "android": "https://dc.lft.to/lastmile_qr_scan"}, "type": "electric_scooter", "name": "2848c82c9bb521a4d7513fe07c884166", "is_reserved": 0, "lon": -77.031638, "is_disabled": 0, "fusion_lat": 0.0, "lat": 38.913179, "bike_id": "2848c82c9bb521a4d7513fe07c884166", "fusion_lon": 0.0}, {"rental_uris": {"ios": "https://dc.lft.to/lastmile_qr_scan", "android": "https://dc.lft.to/lastmile_qr_scan"}, "type": "electric_scooter", "name": "6b175a6f615a7076c8226fae91b53625", "is_reserved": 0, "lon": -77.0416945, "is_disabled": 0, "fusion_lat": 0.0, "lat": 38.91189983333334, "bike_id": "6b175a6f615a7076c8226fae91b53625", "fusion_lon": 0.0}, {"rental_uris": {"ios": "https://dc.lft.to/lastmile_qr_scan", "android": "https://dc.lft.to/lastmile_qr_scan"}, "type": "electric_scooter", "name": "5b6f3a797b23255aaf04db63a1ce0ce3", "is_reserved": 0, "lon": -77.038586, "is_disabled": 0, "fusion_lat": 0.0, "lat": 38.92657033333333, "bike_id": "5b6f3a797b23255aaf04db63a1ce0ce3", "fusion_lon": 0.0}, {"rental_uris": {"ios": "https://dc.lft.to/lastmile_qr_scan", "android": "https://dc.lft.to/lastmile_qr_scan"}, "type": "electric_scooter", "name": "1226de682cc01d1ea85ea8943d0daafa", "is_reserved": 0, "lon": -77.02695516666667, "is_disabled": 0, "fusion_lat": 0.0, "lat": 38.908398, "bike_id": "1226de682cc01d1ea85ea8943d0daafa", "fusion_lon": 0.0}, {"rental_uris": {"ios": "https://dc.lft.to/lastmile_qr_scan", "android": "https://dc.lft.to/lastmile_qr_scan"}, "type": "electric_scooter", "name": "a5d070ec58ca71dbe07a51469eb9830b", "is_reserved": 0, "lon": -77.0062085, "is_disabled": 0, "fusion_lat": 0.0, "lat": 38.87171216666667, "bike_id": "a5d070ec58ca71dbe07a51469eb9830b", "fusion_lon": 0.0}, {"rental_uris": {"ios": "https://dc.lft.to/lastmile_qr_scan", "android": "https://dc.lft.to/lastmile_qr_scan"}, "type": "electric_scooter", "name": "ad87339522af3f5eecc1da64976e3310", "is_reserved": 0, "lon": -77.06665983333333, "is_disabled": 0, "fusion_lat": 0.0, "lat": 38.90375266666667, "bike_id": "ad87339522af3f5eecc1da64976e3310", "fusion_lon": 0.0}, {"rental_uris": {"ios": "https://dc.lft.to/lastmile_qr_scan", "android": "https://dc.lft.to/lastmile_qr_scan"}, "type": "electric_scooter", "name": "ba6a43e1579c33bb60e5c038800fabdf", "is_reserved": 0, "lon": -77.01795233333333, "is_disabled": 0, "fusion_lat": 0.0, "lat": 38.885928666666665, "bike_id": "ba6a43e1579c33bb60e5c038800fabdf", "fusion_lon": 0.0}, {"rental_uris": {"ios": "https://dc.lft.to/lastmile_qr_scan", "android": "https://dc.lft.to/lastmile_qr_scan"}, "type": "electric_scooter", "name": "1edbc817bb97d6a2ac3237f889d55986", "is_reserved": 0, "lon": -77.026349, "is_disabled": 0, "fusion_lat": 0.0, "lat": 38.92475683333333, "bike_id": "1edbc817bb97d6a2ac3237f889d55986", "fusion_lon": 0.0}, {"rental_uris": {"ios": "https://dc.lft.to/lastmile_qr_scan", "android": "https://dc.lft.to/lastmile_qr_scan"}, "type": "electric_scooter", "name": "9d4d1bd0ca293e672fa88f268e065f83", "is_reserved": 0, "lon": -77.04745616666666, "is_disabled": 0, "fusion_lat": 0.0, "lat": 38.917754333333335, "bike_id": "9d4d1bd0ca293e672fa88f268e065f83", "fusion_lon": 0.0}, {"rental_uris": {"ios": "https://dc.lft.to/lastmile_qr_scan", "android": "https://dc.lft.to/lastmile_qr_scan"}, "type": "electric_bike", "name": "81a82457eaa42d1992933627a761c341", "is_reserved": 0, "lon": -76.9834925, "is_disabled": 0, "fusion_lat": 0.0, "lat": 38.8626705, "bike_id": "81a82457eaa42d1992933627a761c341", "fusion_lon": 0.0}, {"rental_uris": {"ios": "https://dc.lft.to/lastmile_qr_scan", "android": "https://dc.lft.to/lastmile_qr_scan"}, "type": "electric_scooter", "name": "89676334bf35d44b04350e3b5d0765f9", "is_reserved": 0, "lon": -77.00048066666666, "is_disabled": 0, "fusion_lat": 0.0, "lat": 38.8792545, "bike_id": "89676334bf35d44b04350e3b5d0765f9", "fusion_lon": 0.0}, {"rental_uris": {"ios": "https://dc.lft.to/lastmile_qr_scan", "android": "https://dc.lft.to/lastmile_qr_scan"}, "type": "electric_bike", "name": "0f675e2f910f6b134386a2ced939b188", "is_reserved": 0, "lon": -76.91800466666666, "is_disabled": 0, "fusion_lat": 0.0, "lat": 39.00005983333333, "bike_id": "0f675e2f910f6b134386a2ced939b188", "fusion_lon": 0.0}, {"rental_uris": {"ios": "https://dc.lft.to/lastmile_qr_scan", "android": "https://dc.lft.to/lastmile_qr_scan"}, "type": "electric_scooter", "name": "62240646d8c7f1aa470e3f799485b2a9", "is_reserved": 0, "lon": -77.03063183333333, "is_disabled": 0, "fusion_lat": 0.0, "lat": 38.92660266666667, "bike_id": "62240646d8c7f1aa470e3f799485b2a9", "fusion_lon": 0.0}, {"rental_uris": {"ios": "https://dc.lft.to/lastmile_qr_scan", "android": "https://dc.lft.to/lastmile_qr_scan"}, "type": "electric_scooter", "name": "59a7fc3d63c6f55d75e64903737af913", "is_reserved": 0, "lon": -77.04879583333333, "is_disabled": 0, "fusion_lat": 0.0, "lat": 38.905717833333334, "bike_id": "59a7fc3d63c6f55d75e64903737af913", "fusion_lon": 0.0}, {"rental_uris": {"ios": "https://dc.lft.to/lastmile_qr_scan", "android": "https://dc.lft.to/lastmile_qr_scan"}, "type": "electric_scooter", "name": "f1a7786af2de3df8ead77bed278d673f", "is_reserved": 0, "lon": -77.03760533333333, "is_disabled": 0, "fusion_lat": 0.0, "lat": 38.929091666666665, "bike_id": "f1a7786af2de3df8ead77bed278d673f", "fusion_lon": 0.0}, {"rental_uris": {"ios": "https://dc.lft.to/lastmile_qr_scan", "android": "https://dc.lft.to/lastmile_qr_scan"}, "type": "electric_scooter", "name": "4f4a5ac861ee42fd602f2d796c6713e8", "is_reserved": 0, "lon": -77.04227566666667, "is_disabled": 0, "fusion_lat": 0.0, "lat": 38.921455, "bike_id": "4f4a5ac861ee42fd602f2d796c6713e8", "fusion_lon": 0.0}, {"rental_uris": {"ios": "https://dc.lft.to/lastmile_qr_scan", "android": "https://dc.lft.to/lastmile_qr_scan"}, "type": "electric_scooter", "name": "bdd0a2bdc692f783ea8982df35d6b118", "is_reserved": 0, "lon": -77.0241535, "is_disabled": 0, "fusion_lat": 0.0, "lat": 38.9270875, "bike_id": "bdd0a2bdc692f783ea8982df35d6b118", "fusion_lon": 0.0}, {"rental_uris": {"ios": "https://dc.lft.to/lastmile_qr_scan", "android": "https://dc.lft.to/lastmile_qr_scan"}, "type": "electric_scooter", "name": "23f204ca8b0abc9c308c297135b7d8df", "is_reserved": 0, "lon": -77.02483083333334, "is_disabled": 0, "fusion_lat": 0.0, "lat": 38.904085, "bike_id": "23f204ca8b0abc9c308c297135b7d8df", "fusion_lon": 0.0}, {"rental_uris": {"ios": "https://dc.lft.to/lastmile_qr_scan", "android": "https://dc.lft.to/lastmile_qr_scan"}, "type": "electric_scooter", "name": "15a5cdb929eca07d3889878883b10cfa", "is_reserved": 0, "lon": -77.0222345, "is_disabled": 0, "fusion_lat": 0.0, "lat": 38.9207755, "bike_id": "15a5cdb929eca07d3889878883b10cfa", "fusion_lon": 0.0}, {"rental_uris": {"ios": "https://dc.lft.to/lastmile_qr_scan", "android": "https://dc.lft.to/lastmile_qr_scan"}, "type": "electric_scooter", "name": "31e49a4dad7fd9633e39aeffb6ab95f3", "is_reserved": 0, "lon": -77.0186495, "is_disabled": 0, "fusion_lat": 0.0, "lat": 38.89931966666666, "bike_id": "31e49a4dad7fd9633e39aeffb6ab95f3", "fusion_lon": 0.0}, {"rental_uris": {"ios": "https://dc.lft.to/lastmile_qr_scan", "android": "https://dc.lft.to/lastmile_qr_scan"}, "type": "electric_bike", "name": "e225d3366060d1c4695bb528baebf75b", "is_reserved": 0, "lon": -77.1070215, "is_disabled": 0, "fusion_lat": 0.0, "lat": 38.85577833333333, "bike_id": "e225d3366060d1c4695bb528baebf75b", "fusion_lon": 0.0}, {"rental_uris": {"ios": "https://dc.lft.to/lastmile_qr_scan", "android": "https://dc.lft.to/lastmile_qr_scan"}, "type": "electric_bike", "name": "b0e7d974211481c45f4a133949bf3a01", "is_reserved": 0, "lon": -76.99076816666667, "is_disabled": 0, "fusion_lat": 0.0, "lat": 38.83455083333333, "bike_id": "b0e7d974211481c45f4a133949bf3a01", "fusion_lon": 0.0}, {"rental_uris": {"ios": "https://dc.lft.to/lastmile_qr_scan", "android": "https://dc.lft.to/lastmile_qr_scan"}, "type": "electric_bike", "name": "c6fb37927faca5e67912003a7a30bf01", "is_reserved": 0, "lon": -76.99366666666667, "is_disabled": 0, "fusion_lat": 0.0, "lat": 38.9274055, "bike_id": "c6fb37927faca5e67912003a7a30bf01", "fusion_lon": 0.0}, {"rental_uris": {"ios": "https://dc.lft.to/lastmile_qr_scan", "android": "https://dc.lft.to/lastmile_qr_scan"}, "type": "electric_bike", "name": "cd10c43bea9893862a68ff830520a5ac", "is_reserved": 0, "lon": -77.02004633333334, "is_disabled": 0, "fusion_lat": 0.0, "lat": 39.02621033333333, "bike_id": "cd10c43bea9893862a68ff830520a5ac", "fusion_lon": 0.0}, {"rental_uris": {"ios": "https://dc.lft.to/lastmile_qr_scan", "android": "https://dc.lft.to/lastmile_qr_scan"}, "type": "electric_scooter", "name": "7231b77e9acd1929ced26367e92de056", "is_reserved": 0, "lon": -77.06323233333333, "is_disabled": 0, "fusion_lat": 0.0, "lat": 38.91340183333333, "bike_id": "7231b77e9acd1929ced26367e92de056", "fusion_lon": 0.0}, {"rental_uris": {"ios": "https://dc.lft.to/lastmile_qr_scan", "android": "https://dc.lft.to/lastmile_qr_scan"}, "type": "electric_scooter", "name": "d00a4283b98c1ca0667906c98de026e1", "is_reserved": 0, "lon": -77.087779, "is_disabled": 0, "fusion_lat": 0.0, "lat": 38.935617666666666, "bike_id": "d00a4283b98c1ca0667906c98de026e1", "fusion_lon": 0.0}, {"rental_uris": {"ios": "https://dc.lft.to/lastmile_qr_scan", "android": "https://dc.lft.to/lastmile_qr_scan"}, "type": "electric_scooter", "name": "2e342591afad5a3c06c24ef5889e1b75", "is_reserved": 0, "lon": -77.002261, "is_disabled": 0, "fusion_lat": 0.0, "lat": 38.90045516666667, "bike_id": "2e342591afad5a3c06c24ef5889e1b75", "fusion_lon": 0.0}, {"rental_uris": {"ios": "https://dc.lft.to/lastmile_qr_scan", "android": "https://dc.lft.to/lastmile_qr_scan"}, "type": "electric_scooter", "name": "d5c323a8c32518488bd84f213d6d5275", "is_reserved": 0, "lon": -77.03942616666667, "is_disabled": 0, "fusion_lat": 0.0, "lat": 38.89854116666667, "bike_id": "d5c323a8c32518488bd84f213d6d5275", "fusion_lon": 0.0}, {"rental_uris": {"ios": "https://dc.lft.to/lastmile_qr_scan", "android": "https://dc.lft.to/lastmile_qr_scan"}, "type": "electric_scooter", "name": "f659097ac057c9e8ae05bbf69d70410c", "is_reserved": 0, "lon": -77.04025816666666, "is_disabled": 0, "fusion_lat": 0.0, "lat": 38.92170516666667, "bike_id": "f659097ac057c9e8ae05bbf69d70410c", "fusion_lon": 0.0}, {"rental_uris": {"ios": "https://dc.lft.to/lastmile_qr_scan", "android": "https://dc.lft.to/lastmile_qr_scan"}, "type": "electric_scooter", "name": "7097cf0bf11093372222600a91644ff6", "is_reserved": 0, "lon": -77.0307325, "is_disabled": 0, "fusion_lat": 0.0, "lat": 38.9238665, "bike_id": "7097cf0bf11093372222600a91644ff6", "fusion_lon": 0.0}, {"rental_uris": {"ios": "https://dc.lft.to/lastmile_qr_scan", "android": "https://dc.lft.to/lastmile_qr_scan"}, "type": "electric_scooter", "name": "361ff53c6ec1e03514380a9c50d2cf23", "is_reserved": 0, "lon": -77.02187633333334, "is_disabled": 0, "fusion_lat": 0.0, "lat": 38.92921833333333, "bike_id": "361ff53c6ec1e03514380a9c50d2cf23", "fusion_lon": 0.0}, {"rental_uris": {"ios": "https://dc.lft.to/lastmile_qr_scan", "android": "https://dc.lft.to/lastmile_qr_scan"}, "type": "electric_scooter", "name": "1a2518373aecac05ed503e7ab357c95f", "is_reserved": 0, "lon": -77.00819616666666, "is_disabled": 0, "fusion_lat": 0.0, "lat": 38.9156305, "bike_id": "1a2518373aecac05ed503e7ab357c95f", "fusion_lon": 0.0}, {"rental_uris": {"ios": "https://dc.lft.to/lastmile_qr_scan", "android": "https://dc.lft.to/lastmile_qr_scan"}, "type": "electric_bike", "name": "4516212548d1ebf66037a4f29e724843", "is_reserved": 0, "lon": -77.04326133333333, "is_disabled": 0, "fusion_lat": 0.0, "lat": 38.9279165, "bike_id": "4516212548d1ebf66037a4f29e724843", "fusion_lon": 0.0}, {"rental_uris": {"ios": "https://dc.lft.to/lastmile_qr_scan", "android": "https://dc.lft.to/lastmile_qr_scan"}, "type": "electric_bike", "name": "60beeff297363ddd4ff21fc7777fc0b2", "is_reserved": 0, "lon": -77.11286066666666, "is_disabled": 0, "fusion_lat": 0.0, "lat": 38.831054, "bike_id": "60beeff297363ddd4ff21fc7777fc0b2", "fusion_lon": 0.0}, {"rental_uris": {"ios": "https://dc.lft.to/lastmile_qr_scan", "android": "https://dc.lft.to/lastmile_qr_scan"}, "type": "electric_scooter", "name": "1773fbfdc4ac6d1f52ad3068e22a206f", "is_reserved": 0, "lon": -77.02862966666666, "is_disabled": 0, "fusion_lat": 0.0, "lat": 38.912548, "bike_id": "1773fbfdc4ac6d1f52ad3068e22a206f", "fusion_lon": 0.0}, {"rental_uris": {"ios": "https://dc.lft.to/lastmile_qr_scan", "android": "https://dc.lft.to/lastmile_qr_scan"}, "type": "electric_scooter", "name": "fc67bb6e2b83fe77458637b3823f68c9", "is_reserved": 0, "lon": -77.03801, "is_disabled": 0, "fusion_lat": 0.0, "lat": 38.936159333333336, "bike_id": "fc67bb6e2b83fe77458637b3823f68c9", "fusion_lon": 0.0}, {"rental_uris": {"ios": "https://dc.lft.to/lastmile_qr_scan", "android": "https://dc.lft.to/lastmile_qr_scan"}, "type": "electric_scooter", "name": "64f54278899c3d010926bbaccfd74c1e", "is_reserved": 0, "lon": -77.017834, "is_disabled": 0, "fusion_lat": 0.0, "lat": 38.9038955, "bike_id": "64f54278899c3d010926bbaccfd74c1e", "fusion_lon": 0.0}, {"rental_uris": {"ios": "https://dc.lft.to/lastmile_qr_scan", "android": "https://dc.lft.to/lastmile_qr_scan"}, "type": "electric_scooter", "name": "2c0c9b288a70ecbc3102ab20c179c325", "is_reserved": 0, "lon": -77.0007645, "is_disabled": 0, "fusion_lat": 0.0, "lat": 38.87686583333333, "bike_id": "2c0c9b288a70ecbc3102ab20c179c325", "fusion_lon": 0.0}, {"rental_uris": {"ios": "https://dc.lft.to/lastmile_qr_scan", "android": "https://dc.lft.to/lastmile_qr_scan"}, "type": "electric_scooter", "name": "12b844b5842b561fea9d513c48e33626", "is_reserved": 0, "lon": -77.03948316666667, "is_disabled": 0, "fusion_lat": 0.0, "lat": 38.89862766666667, "bike_id": "12b844b5842b561fea9d513c48e33626", "fusion_lon": 0.0}, {"rental_uris": {"ios": "https://dc.lft.to/lastmile_qr_scan", "android": "https://dc.lft.to/lastmile_qr_scan"}, "type": "electric_scooter", "name": "6ef9ce4cf5bfae27c9c28c5276fd294f", "is_reserved": 0, "lon": -76.9489505, "is_disabled": 0, "fusion_lat": 0.0, "lat": 38.8952135, "bike_id": "6ef9ce4cf5bfae27c9c28c5276fd294f", "fusion_lon": 0.0}, {"rental_uris": {"ios": "https://dc.lft.to/lastmile_qr_scan", "android": "https://dc.lft.to/lastmile_qr_scan"}, "type": "electric_scooter", "name": "c7edfc42a3bbeff328cfc21bdc6f63ed", "is_reserved": 0, "lon": -77.03445666666667, "is_disabled": 0, "fusion_lat": 0.0, "lat": 38.90735466666667, "bike_id": "c7edfc42a3bbeff328cfc21bdc6f63ed", "fusion_lon": 0.0}, {"rental_uris": {"ios": "https://dc.lft.to/lastmile_qr_scan", "android": "https://dc.lft.to/lastmile_qr_scan"}, "type": "electric_scooter", "name": "0bd394b02ce050b2722313186a713c52", "is_reserved": 0, "lon": -77.05722583333333, "is_disabled": 0, "fusion_lat": 0.0, "lat": 38.93361933333333, "bike_id": "0bd394b02ce050b2722313186a713c52", "fusion_lon": 0.0}, {"rental_uris": {"ios": "https://dc.lft.to/lastmile_qr_scan", "android": "https://dc.lft.to/lastmile_qr_scan"}, "type": "electric_scooter", "name": "793c9e77c0fb0d0c668bc4c9725242ad", "is_reserved": 0, "lon": -77.034412, "is_disabled": 0, "fusion_lat": 0.0, "lat": 38.908407833333335, "bike_id": "793c9e77c0fb0d0c668bc4c9725242ad", "fusion_lon": 0.0}, {"rental_uris": {"ios": "https://dc.lft.to/lastmile_qr_scan", "android": "https://dc.lft.to/lastmile_qr_scan"}, "type": "electric_scooter", "name": "6df469e0ae7f844666c73617a3f62bc9", "is_reserved": 0, "lon": -77.03465666666666, "is_disabled": 0, "fusion_lat": 0.0, "lat": 38.90927666666666, "bike_id": "6df469e0ae7f844666c73617a3f62bc9", "fusion_lon": 0.0}, {"rental_uris": {"ios": "https://dc.lft.to/lastmile_qr_scan", "android": "https://dc.lft.to/lastmile_qr_scan"}, "type": "electric_scooter", "name": "7dffe0cb335bfcf04e011af91803b2b2", "is_reserved": 0, "lon": -76.99854583333334, "is_disabled": 0, "fusion_lat": 0.0, "lat": 38.900299, "bike_id": "7dffe0cb335bfcf04e011af91803b2b2", "fusion_lon": 0.0}, {"rental_uris": {"ios": "https://dc.lft.to/lastmile_qr_scan", "android": "https://dc.lft.to/lastmile_qr_scan"}, "type": "electric_scooter", "name": "954821878d0d989adf07985680c466e0", "is_reserved": 0, "lon": -77.074572, "is_disabled": 0, "fusion_lat": 0.0, "lat": 38.93782983333333, "bike_id": "954821878d0d989adf07985680c466e0", "fusion_lon": 0.0}, {"rental_uris": {"ios": "https://dc.lft.to/lastmile_qr_scan", "android": "https://dc.lft.to/lastmile_qr_scan"}, "type": "electric_bike", "name": "3adeeed65228e3c59aa9466c6c735dd0", "is_reserved": 0, "lon": -77.01095416666666, "is_disabled": 0, "fusion_lat": 0.0, "lat": 38.873069666666666, "bike_id": "3adeeed65228e3c59aa9466c6c735dd0", "fusion_lon": 0.0}, {"rental_uris": {"ios": "https://dc.lft.to/lastmile_qr_scan", "android": "https://dc.lft.to/lastmile_qr_scan"}, "type": "electric_scooter", "name": "430884b639544d05ca4bfdc6b92d40dd", "is_reserved": 0, "lon": -77.02606416666667, "is_disabled": 0, "fusion_lat": 0.0, "lat": 38.908185, "bike_id": "430884b639544d05ca4bfdc6b92d40dd", "fusion_lon": 0.0}, {"rental_uris": {"ios": "https://dc.lft.to/lastmile_qr_scan", "android": "https://dc.lft.to/lastmile_qr_scan"}, "type": "electric_scooter", "name": "beaa6a1e080f423d0942f689cfb76298", "is_reserved": 0, "lon": -77.0290795, "is_disabled": 0, "fusion_lat": 0.0, "lat": 38.95295133333333, "bike_id": "beaa6a1e080f423d0942f689cfb76298", "fusion_lon": 0.0}, {"rental_uris": {"ios": "https://dc.lft.to/lastmile_qr_scan", "android": "https://dc.lft.to/lastmile_qr_scan"}, "type": "electric_scooter", "name": "0fa4f4943037a723f94f0996b6e21a02", "is_reserved": 0, "lon": -76.99703466666666, "is_disabled": 0, "fusion_lat": 0.0, "lat": 38.8877, "bike_id": "0fa4f4943037a723f94f0996b6e21a02", "fusion_lon": 0.0}, {"rental_uris": {"ios": "https://dc.lft.to/lastmile_qr_scan", "android": "https://dc.lft.to/lastmile_qr_scan"}, "type": "electric_scooter", "name": "8d5f42f1fe38f5d966bdabba4f5803cf", "is_reserved": 0, "lon": -77.07479616666667, "is_disabled": 0, "fusion_lat": 0.0, "lat": 38.96217566666667, "bike_id": "8d5f42f1fe38f5d966bdabba4f5803cf", "fusion_lon": 0.0}, {"rental_uris": {"ios": "https://dc.lft.to/lastmile_qr_scan", "android": "https://dc.lft.to/lastmile_qr_scan"}, "type": "electric_scooter", "name": "8eb337371600544b4d9ef452c0ccc5fd", "is_reserved": 0, "lon": -77.0363685, "is_disabled": 0, "fusion_lat": 0.0, "lat": 38.903824, "bike_id": "8eb337371600544b4d9ef452c0ccc5fd", "fusion_lon": 0.0}, {"rental_uris": {"ios": "https://dc.lft.to/lastmile_qr_scan", "android": "https://dc.lft.to/lastmile_qr_scan"}, "type": "electric_scooter", "name": "070199de858e96614089b2224de7cd8c", "is_reserved": 0, "lon": -77.01997083333333, "is_disabled": 0, "fusion_lat": 0.0, "lat": 38.899606166666665, "bike_id": "070199de858e96614089b2224de7cd8c", "fusion_lon": 0.0}, {"rental_uris": {"ios": "https://dc.lft.to/lastmile_qr_scan", "android": "https://dc.lft.to/lastmile_qr_scan"}, "type": "electric_scooter", "name": "1b45e0a0de0a8d12c75b123f25e9d09d", "is_reserved": 0, "lon": -77.03639316666667, "is_disabled": 0, "fusion_lat": 0.0, "lat": 38.918547333333336, "bike_id": "1b45e0a0de0a8d12c75b123f25e9d09d", "fusion_lon": 0.0}, {"rental_uris": {"ios": "https://dc.lft.to/lastmile_qr_scan", "android": "https://dc.lft.to/lastmile_qr_scan"}, "type": "electric_scooter", "name": "996b2e85331bb85526d1bc461bd36275", "is_reserved": 0, "lon": -76.9849725, "is_disabled": 0, "fusion_lat": 0.0, "lat": 38.9036855, "bike_id": "996b2e85331bb85526d1bc461bd36275", "fusion_lon": 0.0}, {"rental_uris": {"ios": "https://dc.lft.to/lastmile_qr_scan", "android": "https://dc.lft.to/lastmile_qr_scan"}, "type": "electric_scooter", "name": "120a1c461a71dce120074c62e9043326", "is_reserved": 0, "lon": -77.01149366666667, "is_disabled": 0, "fusion_lat": 0.0, "lat": 38.906493166666664, "bike_id": "120a1c461a71dce120074c62e9043326", "fusion_lon": 0.0}, {"rental_uris": {"ios": "https://dc.lft.to/lastmile_qr_scan", "android": "https://dc.lft.to/lastmile_qr_scan"}, "type": "electric_scooter", "name": "5163b0f3ca4b1c60253e959c5906e42f", "is_reserved": 0, "lon": -77.03661983333333, "is_disabled": 0, "fusion_lat": 0.0, "lat": 38.9235415, "bike_id": "5163b0f3ca4b1c60253e959c5906e42f", "fusion_lon": 0.0}, {"rental_uris": {"ios": "https://dc.lft.to/lastmile_qr_scan", "android": "https://dc.lft.to/lastmile_qr_scan"}, "type": "electric_scooter", "name": "b9df8182242ea51d7740ba220dcba7f1", "is_reserved": 0, "lon": -77.032712, "is_disabled": 0, "fusion_lat": 0.0, "lat": 38.90457133333334, "bike_id": "b9df8182242ea51d7740ba220dcba7f1", "fusion_lon": 0.0}, {"rental_uris": {"ios": "https://dc.lft.to/lastmile_qr_scan", "android": "https://dc.lft.to/lastmile_qr_scan"}, "type": "electric_scooter", "name": "ca4051d7e8c360ca4829a7d67b9c16ed", "is_reserved": 0, "lon": -77.02351866666666, "is_disabled": 0, "fusion_lat": 0.0, "lat": 38.941984, "bike_id": "ca4051d7e8c360ca4829a7d67b9c16ed", "fusion_lon": 0.0}, {"rental_uris": {"ios": "https://dc.lft.to/lastmile_qr_scan", "android": "https://dc.lft.to/lastmile_qr_scan"}, "type": "electric_scooter", "name": "5b68bcf6e4b07142561663b93435607a", "is_reserved": 0, "lon": -77.0007795, "is_disabled": 0, "fusion_lat": 0.0, "lat": 38.87376316666667, "bike_id": "5b68bcf6e4b07142561663b93435607a", "fusion_lon": 0.0}, {"rental_uris": {"ios": "https://dc.lft.to/lastmile_qr_scan", "android": "https://dc.lft.to/lastmile_qr_scan"}, "type": "electric_scooter", "name": "ba38e3f7fb76636fc79993154daab293", "is_reserved": 0, "lon": -77.0058445, "is_disabled": 0, "fusion_lat": 0.0, "lat": 38.90681633333333, "bike_id": "ba38e3f7fb76636fc79993154daab293", "fusion_lon": 0.0}, {"rental_uris": {"ios": "https://dc.lft.to/lastmile_qr_scan", "android": "https://dc.lft.to/lastmile_qr_scan"}, "type": "electric_scooter", "name": "d973ac5370b2ddd042e8a358059c77ad", "is_reserved": 0, "lon": -77.01457983333333, "is_disabled": 0, "fusion_lat": 0.0, "lat": 38.91774933333333, "bike_id": "d973ac5370b2ddd042e8a358059c77ad", "fusion_lon": 0.0}, {"rental_uris": {"ios": "https://dc.lft.to/lastmile_qr_scan", "android": "https://dc.lft.to/lastmile_qr_scan"}, "type": "electric_scooter", "name": "75d281c0573cc7a6105cc489758f7d03", "is_reserved": 0, "lon": -77.00058466666667, "is_disabled": 0, "fusion_lat": 0.0, "lat": 38.900121666666664, "bike_id": "75d281c0573cc7a6105cc489758f7d03", "fusion_lon": 0.0}, {"rental_uris": {"ios": "https://dc.lft.to/lastmile_qr_scan", "android": "https://dc.lft.to/lastmile_qr_scan"}, "type": "electric_scooter", "name": "fa81d39cae4457fde17d64d8a1e95164", "is_reserved": 0, "lon": -76.92894833333334, "is_disabled": 0, "fusion_lat": 0.0, "lat": 38.87947833333333, "bike_id": "fa81d39cae4457fde17d64d8a1e95164", "fusion_lon": 0.0}, {"rental_uris": {"ios": "https://dc.lft.to/lastmile_qr_scan", "android": "https://dc.lft.to/lastmile_qr_scan"}, "type": "electric_scooter", "name": "605a0a6e0f1b2f2079dcfd322e34b3da", "is_reserved": 0, "lon": -76.93186916666667, "is_disabled": 0, "fusion_lat": 0.0, "lat": 38.89882383333333, "bike_id": "605a0a6e0f1b2f2079dcfd322e34b3da", "fusion_lon": 0.0}, {"rental_uris": {"ios": "https://dc.lft.to/lastmile_qr_scan", "android": "https://dc.lft.to/lastmile_qr_scan"}, "type": "electric_scooter", "name": "afb9d13ab95a3186cdf25a4589583889", "is_reserved": 0, "lon": -77.0552855, "is_disabled": 0, "fusion_lat": 0.0, "lat": 38.91004683333333, "bike_id": "afb9d13ab95a3186cdf25a4589583889", "fusion_lon": 0.0}, {"rental_uris": {"ios": "https://dc.lft.to/lastmile_qr_scan", "android": "https://dc.lft.to/lastmile_qr_scan"}, "type": "electric_scooter", "name": "8c239313a598ea2248f74d5eff83d765", "is_reserved": 0, "lon": -76.99017583333334, "is_disabled": 0, "fusion_lat": 0.0, "lat": 38.864298, "bike_id": "8c239313a598ea2248f74d5eff83d765", "fusion_lon": 0.0}, {"rental_uris": {"ios": "https://dc.lft.to/lastmile_qr_scan", "android": "https://dc.lft.to/lastmile_qr_scan"}, "type": "electric_scooter", "name": "fd72ea1121afb70854f236d757a4c2c9", "is_reserved": 0, "lon": -77.01500733333333, "is_disabled": 0, "fusion_lat": 0.0, "lat": 38.92671816666667, "bike_id": "fd72ea1121afb70854f236d757a4c2c9", "fusion_lon": 0.0}, {"rental_uris": {"ios": "https://dc.lft.to/lastmile_qr_scan", "android": "https://dc.lft.to/lastmile_qr_scan"}, "type": "electric_scooter", "name": "907ef98b811423a0dc39ddb3c53ded95", "is_reserved": 0, "lon": -77.038322, "is_disabled": 0, "fusion_lat": 0.0, "lat": 38.962688166666666, "bike_id": "907ef98b811423a0dc39ddb3c53ded95", "fusion_lon": 0.0}, {"rental_uris": {"ios": "https://dc.lft.to/lastmile_qr_scan", "android": "https://dc.lft.to/lastmile_qr_scan"}, "type": "electric_scooter", "name": "77e75d1cb51929637a6c01ba303830b8", "is_reserved": 0, "lon": -77.04597266666667, "is_disabled": 0, "fusion_lat": 0.0, "lat": 38.918609333333336, "bike_id": "77e75d1cb51929637a6c01ba303830b8", "fusion_lon": 0.0}, {"rental_uris": {"ios": "https://dc.lft.to/lastmile_qr_scan", "android": "https://dc.lft.to/lastmile_qr_scan"}, "type": "electric_scooter", "name": "e309b4cee35d7393cbeec946ac66cbeb", "is_reserved": 0, "lon": -76.99922216666667, "is_disabled": 0, "fusion_lat": 0.0, "lat": 38.900566166666664, "bike_id": "e309b4cee35d7393cbeec946ac66cbeb", "fusion_lon": 0.0}, {"rental_uris": {"ios": "https://dc.lft.to/lastmile_qr_scan", "android": "https://dc.lft.to/lastmile_qr_scan"}, "type": "electric_scooter", "name": "8170059bb027ed1b6fd4d0206367633d", "is_reserved": 0, "lon": -77.02162783333333, "is_disabled": 0, "fusion_lat": 0.0, "lat": 38.92499383333333, "bike_id": "8170059bb027ed1b6fd4d0206367633d", "fusion_lon": 0.0}, {"rental_uris": {"ios": "https://dc.lft.to/lastmile_qr_scan", "android": "https://dc.lft.to/lastmile_qr_scan"}, "type": "electric_scooter", "name": "e988c0c8544744d5e04fc507c593adb2", "is_reserved": 0, "lon": -77.0385515, "is_disabled": 0, "fusion_lat": 0.0, "lat": 38.9171245, "bike_id": "e988c0c8544744d5e04fc507c593adb2", "fusion_lon": 0.0}, {"rental_uris": {"ios": "https://dc.lft.to/lastmile_qr_scan", "android": "https://dc.lft.to/lastmile_qr_scan"}, "type": "electric_bike", "name": "9b5e88c36a2a703e8b56b30803c95338", "is_reserved": 0, "lon": -76.94154666666667, "is_disabled": 0, "fusion_lat": 0.0, "lat": 38.890235833333335, "bike_id": "9b5e88c36a2a703e8b56b30803c95338", "fusion_lon": 0.0}, {"rental_uris": {"ios": "https://dc.lft.to/lastmile_qr_scan", "android": "https://dc.lft.to/lastmile_qr_scan"}, "type": "electric_scooter", "name": "484644cd2e922a71c4edf2a301460d9f", "is_reserved": 0, "lon": -77.04366716666667, "is_disabled": 0, "fusion_lat": 0.0, "lat": 38.892259333333335, "bike_id": "484644cd2e922a71c4edf2a301460d9f", "fusion_lon": 0.0}, {"rental_uris": {"ios": "https://dc.lft.to/lastmile_qr_scan", "android": "https://dc.lft.to/lastmile_qr_scan"}, "type": "electric_scooter", "name": "d50884da0850de049b1ec97374e0f2b8", "is_reserved": 0, "lon": -77.05814983333333, "is_disabled": 0, "fusion_lat": 0.0, "lat": 38.93523283333333, "bike_id": "d50884da0850de049b1ec97374e0f2b8", "fusion_lon": 0.0}, {"rental_uris": {"ios": "https://dc.lft.to/lastmile_qr_scan", "android": "https://dc.lft.to/lastmile_qr_scan"}, "type": "electric_scooter", "name": "4178318f98e623cf4db51d4267bc46d5", "is_reserved": 0, "lon": -77.070254, "is_disabled": 0, "fusion_lat": 0.0, "lat": 38.89331, "bike_id": "4178318f98e623cf4db51d4267bc46d5", "fusion_lon": 0.0}, {"rental_uris": {"ios": "https://dc.lft.to/lastmile_qr_scan", "android": "https://dc.lft.to/lastmile_qr_scan"}, "type": "electric_scooter", "name": "4050fbe360feb175c666c7e1f7751806", "is_reserved": 0, "lon": -77.000418, "is_disabled": 0, "fusion_lat": 0.0, "lat": 38.874454, "bike_id": "4050fbe360feb175c666c7e1f7751806", "fusion_lon": 0.0}, {"rental_uris": {"ios": "https://dc.lft.to/lastmile_qr_scan", "android": "https://dc.lft.to/lastmile_qr_scan"}, "type": "electric_scooter", "name": "a0c5a80f60161baec281de3b4d6a9138", "is_reserved": 0, "lon": -77.04575816666667, "is_disabled": 0, "fusion_lat": 0.0, "lat": 38.909568, "bike_id": "a0c5a80f60161baec281de3b4d6a9138", "fusion_lon": 0.0}, {"rental_uris": {"ios": "https://dc.lft.to/lastmile_qr_scan", "android": "https://dc.lft.to/lastmile_qr_scan"}, "type": "electric_bike", "name": "30cd7b4c712d2c10b9014944ee6e25d6", "is_reserved": 0, "lon": -77.12940216666667, "is_disabled": 0, "fusion_lat": 0.0, "lat": 38.86585216666667, "bike_id": "30cd7b4c712d2c10b9014944ee6e25d6", "fusion_lon": 0.0}, {"rental_uris": {"ios": "https://dc.lft.to/lastmile_qr_scan", "android": "https://dc.lft.to/lastmile_qr_scan"}, "type": "electric_scooter", "name": "9b07e23b5f9aecaec69302e36a0ce18f", "is_reserved": 0, "lon": -77.00187666666666, "is_disabled": 0, "fusion_lat": 0.0, "lat": 38.9118685, "bike_id": "9b07e23b5f9aecaec69302e36a0ce18f", "fusion_lon": 0.0}, {"rental_uris": {"ios": "https://dc.lft.to/lastmile_qr_scan", "android": "https://dc.lft.to/lastmile_qr_scan"}, "type": "electric_scooter", "name": "de30523c47ea05d32e4db0f2ee753100", "is_reserved": 0, "lon": -77.0247795, "is_disabled": 0, "fusion_lat": 0.0, "lat": 38.918139833333335, "bike_id": "de30523c47ea05d32e4db0f2ee753100", "fusion_lon": 0.0}, {"rental_uris": {"ios": "https://dc.lft.to/lastmile_qr_scan", "android": "https://dc.lft.to/lastmile_qr_scan"}, "type": "electric_scooter", "name": "df0452b1a2c42df28bae5a0bfaf9e9b2", "is_reserved": 0, "lon": -77.07261033333333, "is_disabled": 0, "fusion_lat": 0.0, "lat": 38.9343995, "bike_id": "df0452b1a2c42df28bae5a0bfaf9e9b2", "fusion_lon": 0.0}, {"rental_uris": {"ios": "https://dc.lft.to/lastmile_qr_scan", "android": "https://dc.lft.to/lastmile_qr_scan"}, "type": "electric_scooter", "name": "84b57a44f922df39ffc10491526312fc", "is_reserved": 0, "lon": -77.023113, "is_disabled": 0, "fusion_lat": 0.0, "lat": 38.938108666666665, "bike_id": "84b57a44f922df39ffc10491526312fc", "fusion_lon": 0.0}, {"rental_uris": {"ios": "https://dc.lft.to/lastmile_qr_scan", "android": "https://dc.lft.to/lastmile_qr_scan"}, "type": "electric_scooter", "name": "8fb7392f96aab7b20901dd6f0f3ff700", "is_reserved": 0, "lon": -77.00470966666667, "is_disabled": 0, "fusion_lat": 0.0, "lat": 38.885146166666665, "bike_id": "8fb7392f96aab7b20901dd6f0f3ff700", "fusion_lon": 0.0}, {"rental_uris": {"ios": "https://dc.lft.to/lastmile_qr_scan", "android": "https://dc.lft.to/lastmile_qr_scan"}, "type": "electric_scooter", "name": "b82018a28d585109131f1f731110d523", "is_reserved": 0, "lon": -77.03850883333334, "is_disabled": 0, "fusion_lat": 0.0, "lat": 38.912852, "bike_id": "b82018a28d585109131f1f731110d523", "fusion_lon": 0.0}, {"rental_uris": {"ios": "https://dc.lft.to/lastmile_qr_scan", "android": "https://dc.lft.to/lastmile_qr_scan"}, "type": "electric_scooter", "name": "ab1263ca243221a869e0db402fe59bbb", "is_reserved": 0, "lon": -77.0329725, "is_disabled": 0, "fusion_lat": 0.0, "lat": 38.90458, "bike_id": "ab1263ca243221a869e0db402fe59bbb", "fusion_lon": 0.0}, {"rental_uris": {"ios": "https://dc.lft.to/lastmile_qr_scan", "android": "https://dc.lft.to/lastmile_qr_scan"}, "type": "electric_scooter", "name": "2b0aa0ffe18acbd7203990df284da50d", "is_reserved": 0, "lon": -77.031564, "is_disabled": 0, "fusion_lat": 0.0, "lat": 38.913204666666665, "bike_id": "2b0aa0ffe18acbd7203990df284da50d", "fusion_lon": 0.0}, {"rental_uris": {"ios": "https://dc.lft.to/lastmile_qr_scan", "android": "https://dc.lft.to/lastmile_qr_scan"}, "type": "electric_scooter", "name": "626ade0f2adca296639cc9746642e3e2", "is_reserved": 0, "lon": -76.995047, "is_disabled": 0, "fusion_lat": 0.0, "lat": 38.909824666666665, "bike_id": "626ade0f2adca296639cc9746642e3e2", "fusion_lon": 0.0}, {"rental_uris": {"ios": "https://dc.lft.to/lastmile_qr_scan", "android": "https://dc.lft.to/lastmile_qr_scan"}, "type": "electric_scooter", "name": "0c85ecb607c5fb77c64e1b00a24b5d17", "is_reserved": 0, "lon": -76.93392683333333, "is_disabled": 0, "fusion_lat": 0.0, "lat": 38.8990885, "bike_id": "0c85ecb607c5fb77c64e1b00a24b5d17", "fusion_lon": 0.0}, {"rental_uris": {"ios": "https://dc.lft.to/lastmile_qr_scan", "android": "https://dc.lft.to/lastmile_qr_scan"}, "type": "electric_scooter", "name": "3dca3bfed76d97105b08583f766b7bb8", "is_reserved": 0, "lon": -77.0391395, "is_disabled": 0, "fusion_lat": 0.0, "lat": 38.89839966666667, "bike_id": "3dca3bfed76d97105b08583f766b7bb8", "fusion_lon": 0.0}, {"rental_uris": {"ios": "https://dc.lft.to/lastmile_qr_scan", "android": "https://dc.lft.to/lastmile_qr_scan"}, "type": "electric_scooter", "name": "94c63e10b55bbbdfeb148a94e030655f", "is_reserved": 0, "lon": -77.023036, "is_disabled": 0, "fusion_lat": 0.0, "lat": 38.94932566666667, "bike_id": "94c63e10b55bbbdfeb148a94e030655f", "fusion_lon": 0.0}, {"rental_uris": {"ios": "https://dc.lft.to/lastmile_qr_scan", "android": "https://dc.lft.to/lastmile_qr_scan"}, "type": "electric_scooter", "name": "b6315375223b5cb13e30e2958d89c473", "is_reserved": 0, "lon": -76.94060466666667, "is_disabled": 0, "fusion_lat": 0.0, "lat": 38.885924833333334, "bike_id": "b6315375223b5cb13e30e2958d89c473", "fusion_lon": 0.0}, {"rental_uris": {"ios": "https://dc.lft.to/lastmile_qr_scan", "android": "https://dc.lft.to/lastmile_qr_scan"}, "type": "electric_scooter", "name": "1d0e18d169a784b0b5850caf2e9f0a70", "is_reserved": 0, "lon": -76.9292115, "is_disabled": 0, "fusion_lat": 0.0, "lat": 38.886551, "bike_id": "1d0e18d169a784b0b5850caf2e9f0a70", "fusion_lon": 0.0}, {"rental_uris": {"ios": "https://dc.lft.to/lastmile_qr_scan", "android": "https://dc.lft.to/lastmile_qr_scan"}, "type": "electric_scooter", "name": "ebb1f3a2f66b6cbac695bbee4a0bda7e", "is_reserved": 0, "lon": -77.05521533333334, "is_disabled": 0, "fusion_lat": 0.0, "lat": 38.90770533333333, "bike_id": "ebb1f3a2f66b6cbac695bbee4a0bda7e", "fusion_lon": 0.0}, {"rental_uris": {"ios": "https://dc.lft.to/lastmile_qr_scan", "android": "https://dc.lft.to/lastmile_qr_scan"}, "type": "electric_scooter", "name": "571fd0f826f95be16379c2ab0f2d028e", "is_reserved": 0, "lon": -77.01992516666667, "is_disabled": 0, "fusion_lat": 0.0, "lat": 38.9307635, "bike_id": "571fd0f826f95be16379c2ab0f2d028e", "fusion_lon": 0.0}, {"rental_uris": {"ios": "https://dc.lft.to/lastmile_qr_scan", "android": "https://dc.lft.to/lastmile_qr_scan"}, "type": "electric_scooter", "name": "f9b4c141c64dc6795a56f1077185946f", "is_reserved": 0, "lon": -77.04337383333333, "is_disabled": 0, "fusion_lat": 0.0, "lat": 38.92238783333333, "bike_id": "f9b4c141c64dc6795a56f1077185946f", "fusion_lon": 0.0}, {"rental_uris": {"ios": "https://dc.lft.to/lastmile_qr_scan", "android": "https://dc.lft.to/lastmile_qr_scan"}, "type": "electric_scooter", "name": "03df7a28e0c749121573590bc1f8b88e", "is_reserved": 0, "lon": -77.07088433333334, "is_disabled": 0, "fusion_lat": 0.0, "lat": 38.95322783333334, "bike_id": "03df7a28e0c749121573590bc1f8b88e", "fusion_lon": 0.0}, {"rental_uris": {"ios": "https://dc.lft.to/lastmile_qr_scan", "android": "https://dc.lft.to/lastmile_qr_scan"}, "type": "electric_scooter", "name": "bfada50026be2d80ddb2e24994f0583b", "is_reserved": 0, "lon": -77.04674833333333, "is_disabled": 0, "fusion_lat": 0.0, "lat": 38.89225016666666, "bike_id": "bfada50026be2d80ddb2e24994f0583b", "fusion_lon": 0.0}, {"rental_uris": {"ios": "https://dc.lft.to/lastmile_qr_scan", "android": "https://dc.lft.to/lastmile_qr_scan"}, "type": "electric_scooter", "name": "94bf6d632bc576fa1e6ace5ff71a24ea", "is_reserved": 0, "lon": -77.02443083333333, "is_disabled": 0, "fusion_lat": 0.0, "lat": 38.9563705, "bike_id": "94bf6d632bc576fa1e6ace5ff71a24ea", "fusion_lon": 0.0}, {"rental_uris": {"ios": "https://dc.lft.to/lastmile_qr_scan", "android": "https://dc.lft.to/lastmile_qr_scan"}, "type": "electric_scooter", "name": "760dc5c7e400560e29966dcf1393919d", "is_reserved": 0, "lon": -77.036518, "is_disabled": 0, "fusion_lat": 0.0, "lat": 38.95463383333333, "bike_id": "760dc5c7e400560e29966dcf1393919d", "fusion_lon": 0.0}, {"rental_uris": {"ios": "https://dc.lft.to/lastmile_qr_scan", "android": "https://dc.lft.to/lastmile_qr_scan"}, "type": "electric_scooter", "name": "1aa91883fde0cf7e4c6f59e160339b6f", "is_reserved": 0, "lon": -77.01970733333333, "is_disabled": 0, "fusion_lat": 0.0, "lat": 38.87595833333334, "bike_id": "1aa91883fde0cf7e4c6f59e160339b6f", "fusion_lon": 0.0}, {"rental_uris": {"ios": "https://dc.lft.to/lastmile_qr_scan", "android": "https://dc.lft.to/lastmile_qr_scan"}, "type": "electric_scooter", "name": "e52bdc9790b6e4895162e871d3c505bd", "is_reserved": 0, "lon": -76.97131166666667, "is_disabled": 0, "fusion_lat": 0.0, "lat": 38.87864, "bike_id": "e52bdc9790b6e4895162e871d3c505bd", "fusion_lon": 0.0}, {"rental_uris": {"ios": "https://dc.lft.to/lastmile_qr_scan", "android": "https://dc.lft.to/lastmile_qr_scan"}, "type": "electric_scooter", "name": "ae0b4241242acae3705acaf98477d309", "is_reserved": 0, "lon": -76.99560766666667, "is_disabled": 0, "fusion_lat": 0.0, "lat": 38.926838000000004, "bike_id": "ae0b4241242acae3705acaf98477d309", "fusion_lon": 0.0}, {"rental_uris": {"ios": "https://dc.lft.to/lastmile_qr_scan", "android": "https://dc.lft.to/lastmile_qr_scan"}, "type": "electric_scooter", "name": "cb18219c5a45b447b5a54c9b1691ae70", "is_reserved": 0, "lon": -77.07288733333333, "is_disabled": 0, "fusion_lat": 0.0, "lat": 38.9144585, "bike_id": "cb18219c5a45b447b5a54c9b1691ae70", "fusion_lon": 0.0}, {"rental_uris": {"ios": "https://dc.lft.to/lastmile_qr_scan", "android": "https://dc.lft.to/lastmile_qr_scan"}, "type": "electric_scooter", "name": "03ff834a7cda2769d941bef4531df2e4", "is_reserved": 0, "lon": -77.04185333333334, "is_disabled": 0, "fusion_lat": 0.0, "lat": 38.922044166666666, "bike_id": "03ff834a7cda2769d941bef4531df2e4", "fusion_lon": 0.0}, {"rental_uris": {"ios": "https://dc.lft.to/lastmile_qr_scan", "android": "https://dc.lft.to/lastmile_qr_scan"}, "type": "electric_scooter", "name": "808b11129d45a8b13d211e9964709e10", "is_reserved": 0, "lon": -76.98732733333334, "is_disabled": 0, "fusion_lat": 0.0, "lat": 38.84223216666667, "bike_id": "808b11129d45a8b13d211e9964709e10", "fusion_lon": 0.0}, {"rental_uris": {"ios": "https://dc.lft.to/lastmile_qr_scan", "android": "https://dc.lft.to/lastmile_qr_scan"}, "type": "electric_scooter", "name": "715d37ffbda79715381932e6b0f0be3c", "is_reserved": 0, "lon": -76.99641583333333, "is_disabled": 0, "fusion_lat": 0.0, "lat": 38.88766283333333, "bike_id": "715d37ffbda79715381932e6b0f0be3c", "fusion_lon": 0.0}, {"rental_uris": {"ios": "https://dc.lft.to/lastmile_qr_scan", "android": "https://dc.lft.to/lastmile_qr_scan"}, "type": "electric_scooter", "name": "5553439cb8d64ebe2e06546b48622c32", "is_reserved": 0, "lon": -77.021496, "is_disabled": 0, "fusion_lat": 0.0, "lat": 38.887414166666666, "bike_id": "5553439cb8d64ebe2e06546b48622c32", "fusion_lon": 0.0}, {"rental_uris": {"ios": "https://dc.lft.to/lastmile_qr_scan", "android": "https://dc.lft.to/lastmile_qr_scan"}, "type": "electric_scooter", "name": "10d19481adcff181c36eb284f067c371", "is_reserved": 0, "lon": -77.02635633333334, "is_disabled": 0, "fusion_lat": 0.0, "lat": 38.92675233333333, "bike_id": "10d19481adcff181c36eb284f067c371", "fusion_lon": 0.0}, {"rental_uris": {"ios": "https://dc.lft.to/lastmile_qr_scan", "android": "https://dc.lft.to/lastmile_qr_scan"}, "type": "electric_scooter", "name": "5095fbc5e0c62ff9b31570a0ec68a2d3", "is_reserved": 0, "lon": -76.952867, "is_disabled": 0, "fusion_lat": 0.0, "lat": 38.890296166666666, "bike_id": "5095fbc5e0c62ff9b31570a0ec68a2d3", "fusion_lon": 0.0}, {"rental_uris": {"ios": "https://dc.lft.to/lastmile_qr_scan", "android": "https://dc.lft.to/lastmile_qr_scan"}, "type": "electric_scooter", "name": "262322dfbc9c8d527dcf34fe16322eca", "is_reserved": 0, "lon": -77.00928983333333, "is_disabled": 0, "fusion_lat": 0.0, "lat": 38.896091166666665, "bike_id": "262322dfbc9c8d527dcf34fe16322eca", "fusion_lon": 0.0}, {"rental_uris": {"ios": "https://dc.lft.to/lastmile_qr_scan", "android": "https://dc.lft.to/lastmile_qr_scan"}, "type": "electric_scooter", "name": "fe1b1135b4acee9e18322b8e076a85a7", "is_reserved": 0, "lon": -76.97935883333334, "is_disabled": 0, "fusion_lat": 0.0, "lat": 38.906623, "bike_id": "fe1b1135b4acee9e18322b8e076a85a7", "fusion_lon": 0.0}, {"rental_uris": {"ios": "https://dc.lft.to/lastmile_qr_scan", "android": "https://dc.lft.to/lastmile_qr_scan"}, "type": "electric_bike", "name": "5c6c1ffeb40f23cea7fb88abdb26c0df", "is_reserved": 0, "lon": -76.98090616666667, "is_disabled": 0, "fusion_lat": 0.0, "lat": 38.95359583333333, "bike_id": "5c6c1ffeb40f23cea7fb88abdb26c0df", "fusion_lon": 0.0}, {"rental_uris": {"ios": "https://dc.lft.to/lastmile_qr_scan", "android": "https://dc.lft.to/lastmile_qr_scan"}, "type": "electric_bike", "name": "95d896c3a94d2065fe1dedfd1712ae83", "is_reserved": 0, "lon": -76.99547566666666, "is_disabled": 0, "fusion_lat": 0.0, "lat": 38.831588833333335, "bike_id": "95d896c3a94d2065fe1dedfd1712ae83", "fusion_lon": 0.0}, {"rental_uris": {"ios": "https://dc.lft.to/lastmile_qr_scan", "android": "https://dc.lft.to/lastmile_qr_scan"}, "type": "electric_scooter", "name": "e359993aaa7d13e06ed7467831ae1164", "is_reserved": 0, "lon": -77.00912416666667, "is_disabled": 0, "fusion_lat": 0.0, "lat": 38.898812166666666, "bike_id": "e359993aaa7d13e06ed7467831ae1164", "fusion_lon": 0.0}, {"rental_uris": {"ios": "https://dc.lft.to/lastmile_qr_scan", "android": "https://dc.lft.to/lastmile_qr_scan"}, "type": "electric_scooter", "name": "ecb53555c153759a1ac9bd7671f4aef6", "is_reserved": 0, "lon": -77.03506866666666, "is_disabled": 0, "fusion_lat": 0.0, "lat": 38.921505, "bike_id": "ecb53555c153759a1ac9bd7671f4aef6", "fusion_lon": 0.0}, {"rental_uris": {"ios": "https://dc.lft.to/lastmile_qr_scan", "android": "https://dc.lft.to/lastmile_qr_scan"}, "type": "electric_scooter", "name": "9da2555fb5c9439ffde7812fdcffa942", "is_reserved": 0, "lon": -77.05788516666667, "is_disabled": 0, "fusion_lat": 0.0, "lat": 38.90518183333333, "bike_id": "9da2555fb5c9439ffde7812fdcffa942", "fusion_lon": 0.0}, {"rental_uris": {"ios": "https://dc.lft.to/lastmile_qr_scan", "android": "https://dc.lft.to/lastmile_qr_scan"}, "type": "electric_scooter", "name": "ab6f655528f66cf2a7155df9d6023d9e", "is_reserved": 0, "lon": -77.0332215, "is_disabled": 0, "fusion_lat": 0.0, "lat": 38.919110333333336, "bike_id": "ab6f655528f66cf2a7155df9d6023d9e", "fusion_lon": 0.0}, {"rental_uris": {"ios": "https://dc.lft.to/lastmile_qr_scan", "android": "https://dc.lft.to/lastmile_qr_scan"}, "type": "electric_scooter", "name": "9706928573cc2cfca3fb7599e0f772e3", "is_reserved": 0, "lon": -77.04882383333333, "is_disabled": 0, "fusion_lat": 0.0, "lat": 38.900706, "bike_id": "9706928573cc2cfca3fb7599e0f772e3", "fusion_lon": 0.0}, {"rental_uris": {"ios": "https://dc.lft.to/lastmile_qr_scan", "android": "https://dc.lft.to/lastmile_qr_scan"}, "type": "electric_scooter", "name": "c90d7e35c93d42c3d72a20179ca51fdd", "is_reserved": 0, "lon": -77.00204783333334, "is_disabled": 0, "fusion_lat": 0.0, "lat": 38.900354666666665, "bike_id": "c90d7e35c93d42c3d72a20179ca51fdd", "fusion_lon": 0.0}, {"rental_uris": {"ios": "https://dc.lft.to/lastmile_qr_scan", "android": "https://dc.lft.to/lastmile_qr_scan"}, "type": "electric_scooter", "name": "d75d4566130b4a5f886e4309a454bb16", "is_reserved": 0, "lon": -77.02935683333334, "is_disabled": 0, "fusion_lat": 0.0, "lat": 38.89702416666667, "bike_id": "d75d4566130b4a5f886e4309a454bb16", "fusion_lon": 0.0}, {"rental_uris": {"ios": "https://dc.lft.to/lastmile_qr_scan", "android": "https://dc.lft.to/lastmile_qr_scan"}, "type": "electric_scooter", "name": "4ed141bc2e6751d42e029b2762782e8d", "is_reserved": 0, "lon": -77.03079166666667, "is_disabled": 0, "fusion_lat": 0.0, "lat": 38.92387733333333, "bike_id": "4ed141bc2e6751d42e029b2762782e8d", "fusion_lon": 0.0}, {"rental_uris": {"ios": "https://dc.lft.to/lastmile_qr_scan", "android": "https://dc.lft.to/lastmile_qr_scan"}, "type": "electric_scooter", "name": "2511a2fb2431be28212b18e6091ff588", "is_reserved": 0, "lon": -76.98271983333333, "is_disabled": 0, "fusion_lat": 0.0, "lat": 38.90347766666667, "bike_id": "2511a2fb2431be28212b18e6091ff588", "fusion_lon": 0.0}, {"rental_uris": {"ios": "https://dc.lft.to/lastmile_qr_scan", "android": "https://dc.lft.to/lastmile_qr_scan"}, "type": "electric_scooter", "name": "9db38539a7c9a879e794bde696420f09", "is_reserved": 0, "lon": -77.02282483333333, "is_disabled": 0, "fusion_lat": 0.0, "lat": 38.918321, "bike_id": "9db38539a7c9a879e794bde696420f09", "fusion_lon": 0.0}, {"rental_uris": {"ios": "https://dc.lft.to/lastmile_qr_scan", "android": "https://dc.lft.to/lastmile_qr_scan"}, "type": "electric_scooter", "name": "6ef9c176626f70f75d9850f474731bfe", "is_reserved": 0, "lon": -77.06109483333333, "is_disabled": 0, "fusion_lat": 0.0, "lat": 38.937124, "bike_id": "6ef9c176626f70f75d9850f474731bfe", "fusion_lon": 0.0}, {"rental_uris": {"ios": "https://dc.lft.to/lastmile_qr_scan", "android": "https://dc.lft.to/lastmile_qr_scan"}, "type": "electric_bike", "name": "bab11f7e11ddbba1be9480dc36d4ba62", "is_reserved": 0, "lon": -77.01674716666666, "is_disabled": 0, "fusion_lat": 0.0, "lat": 38.88135833333333, "bike_id": "bab11f7e11ddbba1be9480dc36d4ba62", "fusion_lon": 0.0}, {"rental_uris": {"ios": "https://dc.lft.to/lastmile_qr_scan", "android": "https://dc.lft.to/lastmile_qr_scan"}, "type": "electric_scooter", "name": "c4bf18e7fd51b5c23b8717917323ce73", "is_reserved": 0, "lon": -77.03054166666666, "is_disabled": 0, "fusion_lat": 0.0, "lat": 38.897512666666664, "bike_id": "c4bf18e7fd51b5c23b8717917323ce73", "fusion_lon": 0.0}, {"rental_uris": {"ios": "https://dc.lft.to/lastmile_qr_scan", "android": "https://dc.lft.to/lastmile_qr_scan"}, "type": "electric_scooter", "name": "91ec8887b4b41e8d882019712711d61c", "is_reserved": 0, "lon": -77.03841616666666, "is_disabled": 0, "fusion_lat": 0.0, "lat": 38.9098685, "bike_id": "91ec8887b4b41e8d882019712711d61c", "fusion_lon": 0.0}, {"rental_uris": {"ios": "https://dc.lft.to/lastmile_qr_scan", "android": "https://dc.lft.to/lastmile_qr_scan"}, "type": "electric_scooter", "name": "5bead022b122ebb05eeae398cfd7c7c8", "is_reserved": 0, "lon": -77.01153983333333, "is_disabled": 0, "fusion_lat": 0.0, "lat": 38.95699183333333, "bike_id": "5bead022b122ebb05eeae398cfd7c7c8", "fusion_lon": 0.0}, {"rental_uris": {"ios": "https://dc.lft.to/lastmile_qr_scan", "android": "https://dc.lft.to/lastmile_qr_scan"}, "type": "electric_scooter", "name": "6da67d39df490d61fcea35baea178f72", "is_reserved": 0, "lon": -77.04436966666667, "is_disabled": 0, "fusion_lat": 0.0, "lat": 38.91267716666667, "bike_id": "6da67d39df490d61fcea35baea178f72", "fusion_lon": 0.0}, {"rental_uris": {"ios": "https://dc.lft.to/lastmile_qr_scan", "android": "https://dc.lft.to/lastmile_qr_scan"}, "type": "electric_scooter", "name": "31190e6cf7ef678a4965867eaf3fe43a", "is_reserved": 0, "lon": -76.937429, "is_disabled": 0, "fusion_lat": 0.0, "lat": 38.89015283333333, "bike_id": "31190e6cf7ef678a4965867eaf3fe43a", "fusion_lon": 0.0}, {"rental_uris": {"ios": "https://dc.lft.to/lastmile_qr_scan", "android": "https://dc.lft.to/lastmile_qr_scan"}, "type": "electric_scooter", "name": "b1278142370e822c92f318730442ab56", "is_reserved": 0, "lon": -77.05332916666667, "is_disabled": 0, "fusion_lat": 0.0, "lat": 38.90233683333334, "bike_id": "b1278142370e822c92f318730442ab56", "fusion_lon": 0.0}, {"rental_uris": {"ios": "https://dc.lft.to/lastmile_qr_scan", "android": "https://dc.lft.to/lastmile_qr_scan"}, "type": "electric_scooter", "name": "fe993f760247e3d6a462376c15eb58d6", "is_reserved": 0, "lon": -77.038637, "is_disabled": 0, "fusion_lat": 0.0, "lat": 38.90882466666667, "bike_id": "fe993f760247e3d6a462376c15eb58d6", "fusion_lon": 0.0}, {"rental_uris": {"ios": "https://dc.lft.to/lastmile_qr_scan", "android": "https://dc.lft.to/lastmile_qr_scan"}, "type": "electric_scooter", "name": "f5c47203ae53e89deea4321b79ac452c", "is_reserved": 0, "lon": -77.022748, "is_disabled": 0, "fusion_lat": 0.0, "lat": 38.92426283333333, "bike_id": "f5c47203ae53e89deea4321b79ac452c", "fusion_lon": 0.0}, {"rental_uris": {"ios": "https://dc.lft.to/lastmile_qr_scan", "android": "https://dc.lft.to/lastmile_qr_scan"}, "type": "electric_scooter", "name": "ce2af7dffe1fbb57f4afbb5606564e69", "is_reserved": 0, "lon": -77.0291065, "is_disabled": 0, "fusion_lat": 0.0, "lat": 38.94043933333333, "bike_id": "ce2af7dffe1fbb57f4afbb5606564e69", "fusion_lon": 0.0}, {"rental_uris": {"ios": "https://dc.lft.to/lastmile_qr_scan", "android": "https://dc.lft.to/lastmile_qr_scan"}, "type": "electric_scooter", "name": "c4239e93ad62d3d13f851b166c0e7ed1", "is_reserved": 0, "lon": -77.04170866666666, "is_disabled": 0, "fusion_lat": 0.0, "lat": 38.90379933333333, "bike_id": "c4239e93ad62d3d13f851b166c0e7ed1", "fusion_lon": 0.0}, {"rental_uris": {"ios": "https://dc.lft.to/lastmile_qr_scan", "android": "https://dc.lft.to/lastmile_qr_scan"}, "type": "electric_scooter", "name": "8e99df7339a260788b740125ba73ef37", "is_reserved": 0, "lon": -77.03185716666667, "is_disabled": 0, "fusion_lat": 0.0, "lat": 38.915690166666664, "bike_id": "8e99df7339a260788b740125ba73ef37", "fusion_lon": 0.0}, {"rental_uris": {"ios": "https://dc.lft.to/lastmile_qr_scan", "android": "https://dc.lft.to/lastmile_qr_scan"}, "type": "electric_scooter", "name": "554ed355e23dd98d255defb96c683184", "is_reserved": 0, "lon": -76.958502, "is_disabled": 0, "fusion_lat": 0.0, "lat": 38.918791666666664, "bike_id": "554ed355e23dd98d255defb96c683184", "fusion_lon": 0.0}, {"rental_uris": {"ios": "https://dc.lft.to/lastmile_qr_scan", "android": "https://dc.lft.to/lastmile_qr_scan"}, "type": "electric_bike", "name": "92d64faae891a1addaec4ba480806369", "is_reserved": 0, "lon": -77.066966, "is_disabled": 0, "fusion_lat": 0.0, "lat": 38.831726333333336, "bike_id": "92d64faae891a1addaec4ba480806369", "fusion_lon": 0.0}, {"rental_uris": {"ios": "https://dc.lft.to/lastmile_qr_scan", "android": "https://dc.lft.to/lastmile_qr_scan"}, "type": "electric_scooter", "name": "d6f14eacf3cb3139404c87b05eaa483a", "is_reserved": 0, "lon": -77.0084135, "is_disabled": 0, "fusion_lat": 0.0, "lat": 38.8785035, "bike_id": "d6f14eacf3cb3139404c87b05eaa483a", "fusion_lon": 0.0}, {"rental_uris": {"ios": "https://dc.lft.to/lastmile_qr_scan", "android": "https://dc.lft.to/lastmile_qr_scan"}, "type": "electric_scooter", "name": "fe1428609c2919d27d5486b7bd5c3e23", "is_reserved": 0, "lon": -77.01756483333334, "is_disabled": 0, "fusion_lat": 0.0, "lat": 38.876886666666664, "bike_id": "fe1428609c2919d27d5486b7bd5c3e23", "fusion_lon": 0.0}, {"rental_uris": {"ios": "https://dc.lft.to/lastmile_qr_scan", "android": "https://dc.lft.to/lastmile_qr_scan"}, "type": "electric_scooter", "name": "d38d07373c029bdbd037b84ddfe5fde4", "is_reserved": 0, "lon": -77.02156033333333, "is_disabled": 0, "fusion_lat": 0.0, "lat": 38.894794833333336, "bike_id": "d38d07373c029bdbd037b84ddfe5fde4", "fusion_lon": 0.0}, {"rental_uris": {"ios": "https://dc.lft.to/lastmile_qr_scan", "android": "https://dc.lft.to/lastmile_qr_scan"}, "type": "electric_scooter", "name": "53f6badc10e91cb35cd00d1138e512aa", "is_reserved": 0, "lon": -77.02793966666667, "is_disabled": 0, "fusion_lat": 0.0, "lat": 38.956112, "bike_id": "53f6badc10e91cb35cd00d1138e512aa", "fusion_lon": 0.0}, {"rental_uris": {"ios": "https://dc.lft.to/lastmile_qr_scan", "android": "https://dc.lft.to/lastmile_qr_scan"}, "type": "electric_scooter", "name": "429c77e59e932e3289475afd3a80fa62", "is_reserved": 0, "lon": -77.03661, "is_disabled": 0, "fusion_lat": 0.0, "lat": 38.922930666666666, "bike_id": "429c77e59e932e3289475afd3a80fa62", "fusion_lon": 0.0}, {"rental_uris": {"ios": "https://dc.lft.to/lastmile_qr_scan", "android": "https://dc.lft.to/lastmile_qr_scan"}, "type": "electric_scooter", "name": "276b32f990125418bf489d83ea78eb53", "is_reserved": 0, "lon": -76.9703895, "is_disabled": 0, "fusion_lat": 0.0, "lat": 38.873265833333335, "bike_id": "276b32f990125418bf489d83ea78eb53", "fusion_lon": 0.0}, {"rental_uris": {"ios": "https://dc.lft.to/lastmile_qr_scan", "android": "https://dc.lft.to/lastmile_qr_scan"}, "type": "electric_scooter", "name": "0422bff4997f4c4fc6e796bebb4b6cd4", "is_reserved": 0, "lon": -77.03237583333333, "is_disabled": 0, "fusion_lat": 0.0, "lat": 38.9104635, "bike_id": "0422bff4997f4c4fc6e796bebb4b6cd4", "fusion_lon": 0.0}, {"rental_uris": {"ios": "https://dc.lft.to/lastmile_qr_scan", "android": "https://dc.lft.to/lastmile_qr_scan"}, "type": "electric_scooter", "name": "d392932cfc273fc36e1044175e052d45", "is_reserved": 0, "lon": -77.02058016666666, "is_disabled": 0, "fusion_lat": 0.0, "lat": 38.90853416666667, "bike_id": "d392932cfc273fc36e1044175e052d45", "fusion_lon": 0.0}, {"rental_uris": {"ios": "https://dc.lft.to/lastmile_qr_scan", "android": "https://dc.lft.to/lastmile_qr_scan"}, "type": "electric_scooter", "name": "d3427e62bd51c5504fe33b9b66bb7a22", "is_reserved": 0, "lon": -77.0087665, "is_disabled": 0, "fusion_lat": 0.0, "lat": 38.91550766666667, "bike_id": "d3427e62bd51c5504fe33b9b66bb7a22", "fusion_lon": 0.0}, {"rental_uris": {"ios": "https://dc.lft.to/lastmile_qr_scan", "android": "https://dc.lft.to/lastmile_qr_scan"}, "type": "electric_scooter", "name": "9fb7a5f5e3ad44e596ecf9f51150dba6", "is_reserved": 0, "lon": -77.018706, "is_disabled": 0, "fusion_lat": 0.0, "lat": 38.930536833333335, "bike_id": "9fb7a5f5e3ad44e596ecf9f51150dba6", "fusion_lon": 0.0}, {"rental_uris": {"ios": "https://dc.lft.to/lastmile_qr_scan", "android": "https://dc.lft.to/lastmile_qr_scan"}, "type": "electric_scooter", "name": "d472d157460a108597f2cf674e25d490", "is_reserved": 0, "lon": -77.04475866666667, "is_disabled": 0, "fusion_lat": 0.0, "lat": 38.9038545, "bike_id": "d472d157460a108597f2cf674e25d490", "fusion_lon": 0.0}, {"rental_uris": {"ios": "https://dc.lft.to/lastmile_qr_scan", "android": "https://dc.lft.to/lastmile_qr_scan"}, "type": "electric_scooter", "name": "b2f5d90964881034511976d30f5ee3f0", "is_reserved": 0, "lon": -77.0271505, "is_disabled": 0, "fusion_lat": 0.0, "lat": 38.91015766666666, "bike_id": "b2f5d90964881034511976d30f5ee3f0", "fusion_lon": 0.0}, {"rental_uris": {"ios": "https://dc.lft.to/lastmile_qr_scan", "android": "https://dc.lft.to/lastmile_qr_scan"}, "type": "electric_scooter", "name": "2126172910770bd202fb0c17f1f272c6", "is_reserved": 0, "lon": -77.03212933333333, "is_disabled": 0, "fusion_lat": 0.0, "lat": 38.916456833333335, "bike_id": "2126172910770bd202fb0c17f1f272c6", "fusion_lon": 0.0}, {"rental_uris": {"ios": "https://dc.lft.to/lastmile_qr_scan", "android": "https://dc.lft.to/lastmile_qr_scan"}, "type": "electric_scooter", "name": "18816cd1d2942ea1b0a04e8f47c120c7", "is_reserved": 0, "lon": -77.0818925, "is_disabled": 0, "fusion_lat": 0.0, "lat": 38.9332825, "bike_id": "18816cd1d2942ea1b0a04e8f47c120c7", "fusion_lon": 0.0}, {"rental_uris": {"ios": "https://dc.lft.to/lastmile_qr_scan", "android": "https://dc.lft.to/lastmile_qr_scan"}, "type": "electric_scooter", "name": "89f0847a27bae1f8b0f17821529b2a9e", "is_reserved": 0, "lon": -76.9853075, "is_disabled": 0, "fusion_lat": 0.0, "lat": 38.880838833333335, "bike_id": "89f0847a27bae1f8b0f17821529b2a9e", "fusion_lon": 0.0}, {"rental_uris": {"ios": "https://dc.lft.to/lastmile_qr_scan", "android": "https://dc.lft.to/lastmile_qr_scan"}, "type": "electric_scooter", "name": "e9353e28fa470e517a1d282c56004bd7", "is_reserved": 0, "lon": -76.98699966666666, "is_disabled": 0, "fusion_lat": 0.0, "lat": 38.85968033333333, "bike_id": "e9353e28fa470e517a1d282c56004bd7", "fusion_lon": 0.0}, {"rental_uris": {"ios": "https://dc.lft.to/lastmile_qr_scan", "android": "https://dc.lft.to/lastmile_qr_scan"}, "type": "electric_scooter", "name": "399aae1751fdab8bf01d2c22c60fd06c", "is_reserved": 0, "lon": -77.0011555, "is_disabled": 0, "fusion_lat": 0.0, "lat": 38.87796066666667, "bike_id": "399aae1751fdab8bf01d2c22c60fd06c", "fusion_lon": 0.0}, {"rental_uris": {"ios": "https://dc.lft.to/lastmile_qr_scan", "android": "https://dc.lft.to/lastmile_qr_scan"}, "type": "electric_scooter", "name": "1227b22803890fa39f3c166b9920480c", "is_reserved": 0, "lon": -76.99510166666667, "is_disabled": 0, "fusion_lat": 0.0, "lat": 38.88993333333333, "bike_id": "1227b22803890fa39f3c166b9920480c", "fusion_lon": 0.0}, {"rental_uris": {"ios": "https://dc.lft.to/lastmile_qr_scan", "android": "https://dc.lft.to/lastmile_qr_scan"}, "type": "electric_scooter", "name": "0a76b89188341c7c7684726a5400b9e6", "is_reserved": 0, "lon": -77.01424816666666, "is_disabled": 0, "fusion_lat": 0.0, "lat": 38.92028616666666, "bike_id": "0a76b89188341c7c7684726a5400b9e6", "fusion_lon": 0.0}, {"rental_uris": {"ios": "https://dc.lft.to/lastmile_qr_scan", "android": "https://dc.lft.to/lastmile_qr_scan"}, "type": "electric_scooter", "name": "bedae023e52dbd8b5cb263ec84db4b96", "is_reserved": 0, "lon": -77.01220583333334, "is_disabled": 0, "fusion_lat": 0.0, "lat": 38.901698, "bike_id": "bedae023e52dbd8b5cb263ec84db4b96", "fusion_lon": 0.0}, {"rental_uris": {"ios": "https://dc.lft.to/lastmile_qr_scan", "android": "https://dc.lft.to/lastmile_qr_scan"}, "type": "electric_scooter", "name": "6f2534850fd9b62bd33583e4e14a256d", "is_reserved": 0, "lon": -77.00065483333333, "is_disabled": 0, "fusion_lat": 0.0, "lat": 38.87373, "bike_id": "6f2534850fd9b62bd33583e4e14a256d", "fusion_lon": 0.0}, {"rental_uris": {"ios": "https://dc.lft.to/lastmile_qr_scan", "android": "https://dc.lft.to/lastmile_qr_scan"}, "type": "electric_scooter", "name": "d5a0dcc31a98954357402097f7fa85dd", "is_reserved": 0, "lon": -77.04360083333333, "is_disabled": 0, "fusion_lat": 0.0, "lat": 38.90827266666667, "bike_id": "d5a0dcc31a98954357402097f7fa85dd", "fusion_lon": 0.0}, {"rental_uris": {"ios": "https://dc.lft.to/lastmile_qr_scan", "android": "https://dc.lft.to/lastmile_qr_scan"}, "type": "electric_scooter", "name": "a9a93510b3d766fc26e8e1c177605a23", "is_reserved": 0, "lon": -77.01459483333333, "is_disabled": 0, "fusion_lat": 0.0, "lat": 38.879454, "bike_id": "a9a93510b3d766fc26e8e1c177605a23", "fusion_lon": 0.0}, {"rental_uris": {"ios": "https://dc.lft.to/lastmile_qr_scan", "android": "https://dc.lft.to/lastmile_qr_scan"}, "type": "electric_scooter", "name": "1e5b37686eafe7eb28fe64b403417fe2", "is_reserved": 0, "lon": -77.04229933333333, "is_disabled": 0, "fusion_lat": 0.0, "lat": 38.9216715, "bike_id": "1e5b37686eafe7eb28fe64b403417fe2", "fusion_lon": 0.0}, {"rental_uris": {"ios": "https://dc.lft.to/lastmile_qr_scan", "android": "https://dc.lft.to/lastmile_qr_scan"}, "type": "electric_scooter", "name": "4b3e46f448a8ba0c3e837ab7e17b6d8f", "is_reserved": 0, "lon": -76.97212333333333, "is_disabled": 0, "fusion_lat": 0.0, "lat": 38.91718016666667, "bike_id": "4b3e46f448a8ba0c3e837ab7e17b6d8f", "fusion_lon": 0.0}, {"rental_uris": {"ios": "https://dc.lft.to/lastmile_qr_scan", "android": "https://dc.lft.to/lastmile_qr_scan"}, "type": "electric_scooter", "name": "ce57a09d49680d6086517e06e00e79aa", "is_reserved": 0, "lon": -77.0199295, "is_disabled": 0, "fusion_lat": 0.0, "lat": 38.905122, "bike_id": "ce57a09d49680d6086517e06e00e79aa", "fusion_lon": 0.0}, {"rental_uris": {"ios": "https://dc.lft.to/lastmile_qr_scan", "android": "https://dc.lft.to/lastmile_qr_scan"}, "type": "electric_scooter", "name": "c50118622e162edd6e5d3d14060c5411", "is_reserved": 0, "lon": -77.02109216666666, "is_disabled": 0, "fusion_lat": 0.0, "lat": 38.90937366666667, "bike_id": "c50118622e162edd6e5d3d14060c5411", "fusion_lon": 0.0}, {"rental_uris": {"ios": "https://dc.lft.to/lastmile_qr_scan", "android": "https://dc.lft.to/lastmile_qr_scan"}, "type": "electric_scooter", "name": "f1060a642fdc09dac650b2922eeb1cb6", "is_reserved": 0, "lon": -77.02613833333334, "is_disabled": 0, "fusion_lat": 0.0, "lat": 38.90105166666667, "bike_id": "f1060a642fdc09dac650b2922eeb1cb6", "fusion_lon": 0.0}, {"rental_uris": {"ios": "https://dc.lft.to/lastmile_qr_scan", "android": "https://dc.lft.to/lastmile_qr_scan"}, "type": "electric_scooter", "name": "c0a716a09f418e5b09980438e23f2bb0", "is_reserved": 0, "lon": -77.0440965, "is_disabled": 0, "fusion_lat": 0.0, "lat": 38.895965, "bike_id": "c0a716a09f418e5b09980438e23f2bb0", "fusion_lon": 0.0}, {"rental_uris": {"ios": "https://dc.lft.to/lastmile_qr_scan", "android": "https://dc.lft.to/lastmile_qr_scan"}, "type": "electric_scooter", "name": "fa134872477098474c105af72f88efef", "is_reserved": 0, "lon": -77.05815566666666, "is_disabled": 0, "fusion_lat": 0.0, "lat": 38.93519216666667, "bike_id": "fa134872477098474c105af72f88efef", "fusion_lon": 0.0}, {"rental_uris": {"ios": "https://dc.lft.to/lastmile_qr_scan", "android": "https://dc.lft.to/lastmile_qr_scan"}, "type": "electric_bike", "name": "d5ae7a372b9b55df585fd940f7ac068b", "is_reserved": 0, "lon": -77.08569033333333, "is_disabled": 0, "fusion_lat": 0.0, "lat": 38.87425, "bike_id": "d5ae7a372b9b55df585fd940f7ac068b", "fusion_lon": 0.0}, {"rental_uris": {"ios": "https://dc.lft.to/lastmile_qr_scan", "android": "https://dc.lft.to/lastmile_qr_scan"}, "type": "electric_scooter", "name": "42ec63d96c56861be8e4cc96d31e0349", "is_reserved": 0, "lon": -77.02198566666667, "is_disabled": 0, "fusion_lat": 0.0, "lat": 38.95151516666667, "bike_id": "42ec63d96c56861be8e4cc96d31e0349", "fusion_lon": 0.0}, {"rental_uris": {"ios": "https://dc.lft.to/lastmile_qr_scan", "android": "https://dc.lft.to/lastmile_qr_scan"}, "type": "electric_scooter", "name": "5bd5548806c85ff3c94523166ccf05f2", "is_reserved": 0, "lon": -77.04388833333333, "is_disabled": 0, "fusion_lat": 0.0, "lat": 38.920423666666665, "bike_id": "5bd5548806c85ff3c94523166ccf05f2", "fusion_lon": 0.0}, {"rental_uris": {"ios": "https://dc.lft.to/lastmile_qr_scan", "android": "https://dc.lft.to/lastmile_qr_scan"}, "type": "electric_scooter", "name": "8bc668ba070c908eb022b991ff68f6df", "is_reserved": 0, "lon": -76.92920916666667, "is_disabled": 0, "fusion_lat": 0.0, "lat": 38.89275516666667, "bike_id": "8bc668ba070c908eb022b991ff68f6df", "fusion_lon": 0.0}, {"rental_uris": {"ios": "https://dc.lft.to/lastmile_qr_scan", "android": "https://dc.lft.to/lastmile_qr_scan"}, "type": "electric_scooter", "name": "60f6d4cd3ff9135ab08f93d800a97ac8", "is_reserved": 0, "lon": -77.03844433333333, "is_disabled": 0, "fusion_lat": 0.0, "lat": 38.916654666666666, "bike_id": "60f6d4cd3ff9135ab08f93d800a97ac8", "fusion_lon": 0.0}, {"rental_uris": {"ios": "https://dc.lft.to/lastmile_qr_scan", "android": "https://dc.lft.to/lastmile_qr_scan"}, "type": "electric_scooter", "name": "6508200b119b16af9753a81ad68aae25", "is_reserved": 0, "lon": -77.01829366666666, "is_disabled": 0, "fusion_lat": 0.0, "lat": 38.92254066666667, "bike_id": "6508200b119b16af9753a81ad68aae25", "fusion_lon": 0.0}, {"rental_uris": {"ios": "https://dc.lft.to/lastmile_qr_scan", "android": "https://dc.lft.to/lastmile_qr_scan"}, "type": "electric_bike", "name": "ab525eb139cbbc2eb2af3e70c1150548", "is_reserved": 0, "lon": -77.09452816666666, "is_disabled": 0, "fusion_lat": 0.0, "lat": 38.807556, "bike_id": "ab525eb139cbbc2eb2af3e70c1150548", "fusion_lon": 0.0}, {"rental_uris": {"ios": "https://dc.lft.to/lastmile_qr_scan", "android": "https://dc.lft.to/lastmile_qr_scan"}, "type": "electric_scooter", "name": "5c5065e3f6b73210cf718c2060318b72", "is_reserved": 0, "lon": -77.03165066666666, "is_disabled": 0, "fusion_lat": 0.0, "lat": 38.91329016666667, "bike_id": "5c5065e3f6b73210cf718c2060318b72", "fusion_lon": 0.0}, {"rental_uris": {"ios": "https://dc.lft.to/lastmile_qr_scan", "android": "https://dc.lft.to/lastmile_qr_scan"}, "type": "electric_scooter", "name": "d8d3905513f765c23baa2dd9abb64f40", "is_reserved": 0, "lon": -77.01763866666667, "is_disabled": 0, "fusion_lat": 0.0, "lat": 38.87689183333333, "bike_id": "d8d3905513f765c23baa2dd9abb64f40", "fusion_lon": 0.0}, {"rental_uris": {"ios": "https://dc.lft.to/lastmile_qr_scan", "android": "https://dc.lft.to/lastmile_qr_scan"}, "type": "electric_bike", "name": "9a7220f7396c0c731ba054deb8538a17", "is_reserved": 0, "lon": -76.962611, "is_disabled": 0, "fusion_lat": 0.0, "lat": 38.96790266666667, "bike_id": "9a7220f7396c0c731ba054deb8538a17", "fusion_lon": 0.0}, {"rental_uris": {"ios": "https://dc.lft.to/lastmile_qr_scan", "android": "https://dc.lft.to/lastmile_qr_scan"}, "type": "electric_scooter", "name": "45fcd7b36c5a3b3c9a2109e300472ef5", "is_reserved": 0, "lon": -76.9883335, "is_disabled": 0, "fusion_lat": 0.0, "lat": 38.842998333333334, "bike_id": "45fcd7b36c5a3b3c9a2109e300472ef5", "fusion_lon": 0.0}, {"rental_uris": {"ios": "https://dc.lft.to/lastmile_qr_scan", "android": "https://dc.lft.to/lastmile_qr_scan"}, "type": "electric_scooter", "name": "ac60fddf448dc13ba036b39cc6d4932e", "is_reserved": 0, "lon": -77.04476183333334, "is_disabled": 0, "fusion_lat": 0.0, "lat": 38.903705, "bike_id": "ac60fddf448dc13ba036b39cc6d4932e", "fusion_lon": 0.0}, {"rental_uris": {"ios": "https://dc.lft.to/lastmile_qr_scan", "android": "https://dc.lft.to/lastmile_qr_scan"}, "type": "electric_scooter", "name": "4e15828413a84b4dc66f27a5ee68ffb1", "is_reserved": 0, "lon": -76.99617633333334, "is_disabled": 0, "fusion_lat": 0.0, "lat": 38.88971333333333, "bike_id": "4e15828413a84b4dc66f27a5ee68ffb1", "fusion_lon": 0.0}, {"rental_uris": {"ios": "https://dc.lft.to/lastmile_qr_scan", "android": "https://dc.lft.to/lastmile_qr_scan"}, "type": "electric_bike", "name": "2dcadb03150aa14c5285a62d4877edee", "is_reserved": 0, "lon": -77.10211083333333, "is_disabled": 0, "fusion_lat": 0.0, "lat": 38.92002216666667, "bike_id": "2dcadb03150aa14c5285a62d4877edee", "fusion_lon": 0.0}, {"rental_uris": {"ios": "https://dc.lft.to/lastmile_qr_scan", "android": "https://dc.lft.to/lastmile_qr_scan"}, "type": "electric_bike", "name": "41a62adab6356464b3440df636721175", "is_reserved": 0, "lon": -76.9868855, "is_disabled": 0, "fusion_lat": 0.0, "lat": 38.944788, "bike_id": "41a62adab6356464b3440df636721175", "fusion_lon": 0.0}, {"rental_uris": {"ios": "https://dc.lft.to/lastmile_qr_scan", "android": "https://dc.lft.to/lastmile_qr_scan"}, "type": "electric_bike", "name": "9f4c2c109b0fbb9261d7c756ba36e3e4", "is_reserved": 0, "lon": -77.03624216666667, "is_disabled": 0, "fusion_lat": 0.0, "lat": 38.973011, "bike_id": "9f4c2c109b0fbb9261d7c756ba36e3e4", "fusion_lon": 0.0}, {"rental_uris": {"ios": "https://dc.lft.to/lastmile_qr_scan", "android": "https://dc.lft.to/lastmile_qr_scan"}, "type": "electric_scooter", "name": "11c8853f651edb74732998b843e234d6", "is_reserved": 0, "lon": -77.025931, "is_disabled": 0, "fusion_lat": 0.0, "lat": 38.95822483333333, "bike_id": "11c8853f651edb74732998b843e234d6", "fusion_lon": 0.0}, {"rental_uris": {"ios": "https://dc.lft.to/lastmile_qr_scan", "android": "https://dc.lft.to/lastmile_qr_scan"}, "type": "electric_scooter", "name": "7d022b08768ad1f37a2c53751f08f846", "is_reserved": 0, "lon": -77.019932, "is_disabled": 0, "fusion_lat": 0.0, "lat": 38.930536333333336, "bike_id": "7d022b08768ad1f37a2c53751f08f846", "fusion_lon": 0.0}, {"rental_uris": {"ios": "https://dc.lft.to/lastmile_qr_scan", "android": "https://dc.lft.to/lastmile_qr_scan"}, "type": "electric_scooter", "name": "e06b79ccd93f51ba4dc8affeab68bc83", "is_reserved": 0, "lon": -76.98645866666666, "is_disabled": 0, "fusion_lat": 0.0, "lat": 38.905426166666665, "bike_id": "e06b79ccd93f51ba4dc8affeab68bc83", "fusion_lon": 0.0}, {"rental_uris": {"ios": "https://dc.lft.to/lastmile_qr_scan", "android": "https://dc.lft.to/lastmile_qr_scan"}, "type": "electric_scooter", "name": "b56af30c21e9926f61c360f57a42fd88", "is_reserved": 0, "lon": -77.02286733333334, "is_disabled": 0, "fusion_lat": 0.0, "lat": 38.916820666666666, "bike_id": "b56af30c21e9926f61c360f57a42fd88", "fusion_lon": 0.0}, {"rental_uris": {"ios": "https://dc.lft.to/lastmile_qr_scan", "android": "https://dc.lft.to/lastmile_qr_scan"}, "type": "electric_bike", "name": "34d78673b6630f1d99bf8221e7b5a160", "is_reserved": 0, "lon": -77.10290266666667, "is_disabled": 0, "fusion_lat": 0.0, "lat": 38.8525395, "bike_id": "34d78673b6630f1d99bf8221e7b5a160", "fusion_lon": 0.0}, {"rental_uris": {"ios": "https://dc.lft.to/lastmile_qr_scan", "android": "https://dc.lft.to/lastmile_qr_scan"}, "type": "electric_scooter", "name": "0969740ef2db73f5647e7de593decb1a", "is_reserved": 0, "lon": -77.0163025, "is_disabled": 0, "fusion_lat": 0.0, "lat": 38.903633, "bike_id": "0969740ef2db73f5647e7de593decb1a", "fusion_lon": 0.0}, {"rental_uris": {"ios": "https://dc.lft.to/lastmile_qr_scan", "android": "https://dc.lft.to/lastmile_qr_scan"}, "type": "electric_scooter", "name": "5e49a0d4bd7585e936d53ecb445dd7b7", "is_reserved": 0, "lon": -77.041724, "is_disabled": 0, "fusion_lat": 0.0, "lat": 38.91856283333333, "bike_id": "5e49a0d4bd7585e936d53ecb445dd7b7", "fusion_lon": 0.0}, {"rental_uris": {"ios": "https://dc.lft.to/lastmile_qr_scan", "android": "https://dc.lft.to/lastmile_qr_scan"}, "type": "electric_scooter", "name": "fdf2cd9557f8cbe3221186cc6d54ca3c", "is_reserved": 0, "lon": -76.946398, "is_disabled": 0, "fusion_lat": 0.0, "lat": 38.898679333333334, "bike_id": "fdf2cd9557f8cbe3221186cc6d54ca3c", "fusion_lon": 0.0}, {"rental_uris": {"ios": "https://dc.lft.to/lastmile_qr_scan", "android": "https://dc.lft.to/lastmile_qr_scan"}, "type": "electric_scooter", "name": "be167c9acfd6eae4790720c1d7d1b2c9", "is_reserved": 0, "lon": -77.02656883333333, "is_disabled": 0, "fusion_lat": 0.0, "lat": 38.931037833333335, "bike_id": "be167c9acfd6eae4790720c1d7d1b2c9", "fusion_lon": 0.0}, {"rental_uris": {"ios": "https://dc.lft.to/lastmile_qr_scan", "android": "https://dc.lft.to/lastmile_qr_scan"}, "type": "electric_scooter", "name": "6a1a536bcb286f7df14fdd5cb7f5217c", "is_reserved": 0, "lon": -77.03202433333334, "is_disabled": 0, "fusion_lat": 0.0, "lat": 38.9218315, "bike_id": "6a1a536bcb286f7df14fdd5cb7f5217c", "fusion_lon": 0.0}, {"rental_uris": {"ios": "https://dc.lft.to/lastmile_qr_scan", "android": "https://dc.lft.to/lastmile_qr_scan"}, "type": "electric_scooter", "name": "4d7b2499ff79a486f6432d29feb8937f", "is_reserved": 0, "lon": -77.0200835, "is_disabled": 0, "fusion_lat": 0.0, "lat": 38.92806816666667, "bike_id": "4d7b2499ff79a486f6432d29feb8937f", "fusion_lon": 0.0}, {"rental_uris": {"ios": "https://dc.lft.to/lastmile_qr_scan", "android": "https://dc.lft.to/lastmile_qr_scan"}, "type": "electric_bike", "name": "da9dbf0f6a3ecc1da37cc1669174829a", "is_reserved": 0, "lon": -77.02453466666667, "is_disabled": 0, "fusion_lat": 0.0, "lat": 38.93302766666667, "bike_id": "da9dbf0f6a3ecc1da37cc1669174829a", "fusion_lon": 0.0}, {"rental_uris": {"ios": "https://dc.lft.to/lastmile_qr_scan", "android": "https://dc.lft.to/lastmile_qr_scan"}, "type": "electric_bike", "name": "3f28401ef36ca3f84dc30f50232805f7", "is_reserved": 0, "lon": -76.979251, "is_disabled": 0, "fusion_lat": 0.0, "lat": 38.92004983333333, "bike_id": "3f28401ef36ca3f84dc30f50232805f7", "fusion_lon": 0.0}, {"rental_uris": {"ios": "https://dc.lft.to/lastmile_qr_scan", "android": "https://dc.lft.to/lastmile_qr_scan"}, "type": "electric_scooter", "name": "da4ed73d99bbe6a88604657d2d09edcb", "is_reserved": 0, "lon": -77.01499066666666, "is_disabled": 0, "fusion_lat": 0.0, "lat": 38.9065535, "bike_id": "da4ed73d99bbe6a88604657d2d09edcb", "fusion_lon": 0.0}, {"rental_uris": {"ios": "https://dc.lft.to/lastmile_qr_scan", "android": "https://dc.lft.to/lastmile_qr_scan"}, "type": "electric_bike", "name": "1460e9cceeb9470c833f1bfa90e2fdb9", "is_reserved": 0, "lon": -77.2317605, "is_disabled": 0, "fusion_lat": 0.0, "lat": 38.92897383333333, "bike_id": "1460e9cceeb9470c833f1bfa90e2fdb9", "fusion_lon": 0.0}, {"rental_uris": {"ios": "https://dc.lft.to/lastmile_qr_scan", "android": "https://dc.lft.to/lastmile_qr_scan"}, "type": "electric_scooter", "name": "d43137d2cf61cdb80d32b77d267ceae4", "is_reserved": 0, "lon": -77.03427916666666, "is_disabled": 0, "fusion_lat": 0.0, "lat": 38.901417333333335, "bike_id": "d43137d2cf61cdb80d32b77d267ceae4", "fusion_lon": 0.0}, {"rental_uris": {"ios": "https://dc.lft.to/lastmile_qr_scan", "android": "https://dc.lft.to/lastmile_qr_scan"}, "type": "electric_scooter", "name": "f4d94f756bffb26e92b7932c3fb3c999", "is_reserved": 0, "lon": -77.005614, "is_disabled": 0, "fusion_lat": 0.0, "lat": 38.87654083333334, "bike_id": "f4d94f756bffb26e92b7932c3fb3c999", "fusion_lon": 0.0}, {"rental_uris": {"ios": "https://dc.lft.to/lastmile_qr_scan", "android": "https://dc.lft.to/lastmile_qr_scan"}, "type": "electric_scooter", "name": "c562160b1354798e435fe11b91726151", "is_reserved": 0, "lon": -77.02567533333334, "is_disabled": 0, "fusion_lat": 0.0, "lat": 38.94852233333334, "bike_id": "c562160b1354798e435fe11b91726151", "fusion_lon": 0.0}, {"rental_uris": {"ios": "https://dc.lft.to/lastmile_qr_scan", "android": "https://dc.lft.to/lastmile_qr_scan"}, "type": "electric_scooter", "name": "dfbce1da4bc9996ae38dd499a506c7d8", "is_reserved": 0, "lon": -76.92304566666667, "is_disabled": 0, "fusion_lat": 0.0, "lat": 38.893870166666666, "bike_id": "dfbce1da4bc9996ae38dd499a506c7d8", "fusion_lon": 0.0}, {"rental_uris": {"ios": "https://dc.lft.to/lastmile_qr_scan", "android": "https://dc.lft.to/lastmile_qr_scan"},