{"data": {"bikes": [{"is_reserved": 0, "fusion_lon": 0.0, "fusion_lat": 0.0, "name": "4dd0fb5f538427315853d18e7e96f0fd", "type": "electric_scooter", "is_disabled": 0, "lat": 38.91758033333333, "rental_uris": {"android": "https://dc.lft.to/lastmile_qr_scan", "ios": "https://dc.lft.to/lastmile_qr_scan"}, "bike_id": "4dd0fb5f538427315853d18e7e96f0fd", "lon": -77.01919383333333}, {"is_reserved": 0, "fusion_lon": 0.0, "fusion_lat": 0.0, "name": "386071c4e0552fa78deaeb65caabcf0c", "type": "electric_scooter", "is_disabled": 0, "lat": 38.929098, "rental_uris": {"android": "https://dc.lft.to/lastmile_qr_scan", "ios": "https://dc.lft.to/lastmile_qr_scan"}, "bike_id": "386071c4e0552fa78deaeb65caabcf0c", "lon": -77.03467816666667}, {"is_reserved": 0, "fusion_lon": 0.0, "fusion_lat": 0.0, "name": "d220553c4c3a471ba61e8d94e99b98cd", "type": "electric_scooter", "is_disabled": 0, "lat": 38.922798666666665, "rental_uris": {"android": "https://dc.lft.to/lastmile_qr_scan", "ios": "https://dc.lft.to/lastmile_qr_scan"}, "bike_id": "d220553c4c3a471ba61e8d94e99b98cd", "lon": -77.04239383333334}, {"is_reserved": 0, "fusion_lon": 0.0, "fusion_lat": 0.0, "name": "c97a5b441d067acde244e21d8fc680e3", "type": "electric_scooter", "is_disabled": 0, "lat": 38.90844333333333, "rental_uris": {"android": "https://dc.lft.to/lastmile_qr_scan", "ios": "https://dc.lft.to/lastmile_qr_scan"}, "bike_id": "c97a5b441d067acde244e21d8fc680e3", "lon": -77.04290616666667}, {"is_reserved": 0, "fusion_lon": 0.0, "fusion_lat": 0.0, "name": "5a34028e8c4c08daa559166341ead4c9", "type": "electric_scooter", "is_disabled": 0, "lat": 38.91103916666667, "rental_uris": {"android": "https://dc.lft.to/lastmile_qr_scan", "ios": "https://dc.lft.to/lastmile_qr_scan"}, "bike_id": "5a34028e8c4c08daa559166341ead4c9", "lon": -77.00216416666666}, {"is_reserved": 0, "fusion_lon": 0.0, "fusion_lat": 0.0, "name": "31a4a4021e7014e01a581d1aaf8de482", "type": "electric_scooter", "is_disabled": 0, "lat": 38.89221833333333, "rental_uris": {"android": "https://dc.lft.to/lastmile_qr_scan", "ios": "https://dc.lft.to/lastmile_qr_scan"}, "bike_id": "31a4a4021e7014e01a581d1aaf8de482", "lon": -77.04370766666666}, {"is_reserved": 0, "fusion_lon": 0.0, "fusion_lat": 0.0, "name": "d0bdfc2fcb2eca9137345bc6578b9eac", "type": "electric_scooter", "is_disabled": 0, "lat": 38.914022833333334, "rental_uris": {"android": "https://dc.lft.to/lastmile_qr_scan", "ios": "https://dc.lft.to/lastmile_qr_scan"}, "bike_id": "d0bdfc2fcb2eca9137345bc6578b9eac", "lon": -77.03183483333333}, {"is_reserved": 0, "fusion_lon": 0.0, "fusion_lat": 0.0, "name": "d37f6c796d795198ffddaba6a6e247f7", "type": "electric_bike", "is_disabled": 0, "lat": 38.93856316666667, "rental_uris": {"android": "https://dc.lft.to/lastmile_qr_scan", "ios": "https://dc.lft.to/lastmile_qr_scan"}, "bike_id": "d37f6c796d795198ffddaba6a6e247f7", "lon": -76.99313883333333}, {"is_reserved": 0, "fusion_lon": 0.0, "fusion_lat": 0.0, "name": "1afc83f347491f9248615f89d4ca69cb", "type": "electric_scooter", "is_disabled": 0, "lat": 38.922483166666666, "rental_uris": {"android": "https://dc.lft.to/lastmile_qr_scan", "ios": "https://dc.lft.to/lastmile_qr_scan"}, "bike_id": "1afc83f347491f9248615f89d4ca69cb", "lon": -77.03082433333333}, {"is_reserved": 0, "fusion_lon": 0.0, "fusion_lat": 0.0, "name": "2fcc3576b4896a1f5c5a41e4fd7a9927", "type": "electric_scooter", "is_disabled": 0, "lat": 38.8767885, "rental_uris": {"android": "https://dc.lft.to/lastmile_qr_scan", "ios": "https://dc.lft.to/lastmile_qr_scan"}, "bike_id": "2fcc3576b4896a1f5c5a41e4fd7a9927", "lon": -76.99823833333333}, {"is_reserved": 0, "fusion_lon": 0.0, "fusion_lat": 0.0, "name": "42a730fb1a75e980f4872b8e49f2fba8", "type": "electric_scooter", "is_disabled": 0, "lat": 38.90530616666667, "rental_uris": {"android": "https://dc.lft.to/lastmile_qr_scan", "ios": "https://dc.lft.to/lastmile_qr_scan"}, "bike_id": "42a730fb1a75e980f4872b8e49f2fba8", "lon": -77.03997333333334}, {"is_reserved": 0, "fusion_lon": 0.0, "fusion_lat": 0.0, "name": "0b9bea9acfbf8132b784543cb749bcd7", "type": "electric_bike", "is_disabled": 0, "lat": 39.04233333333333, "rental_uris": {"android": "https://dc.lft.to/lastmile_qr_scan", "ios": "https://dc.lft.to/lastmile_qr_scan"}, "bike_id": "0b9bea9acfbf8132b784543cb749bcd7", "lon": -76.997313}, {"is_reserved": 0, "fusion_lon": 0.0, "fusion_lat": 0.0, "name": "dd91f1e13b4ee559759c8493d0ce6da6", "type": "electric_scooter", "is_disabled": 0, "lat": 38.89597033333333, "rental_uris": {"android": "https://dc.lft.to/lastmile_qr_scan", "ios": "https://dc.lft.to/lastmile_qr_scan"}, "bike_id": "dd91f1e13b4ee559759c8493d0ce6da6", "lon": -77.00767266666666}, {"is_reserved": 0, "fusion_lon": 0.0, "fusion_lat": 0.0, "name": "97d2fd38cb5ed9a0de5eb1783586ea45", "type": "electric_scooter", "is_disabled": 0, "lat": 38.90955, "rental_uris": {"android": "https://dc.lft.to/lastmile_qr_scan", "ios": "https://dc.lft.to/lastmile_qr_scan"}, "bike_id": "97d2fd38cb5ed9a0de5eb1783586ea45", "lon": -77.00806783333333}, {"is_reserved": 0, "fusion_lon": 0.0, "fusion_lat": 0.0, "name": "37d9f72e6465308462780b35bb83df68", "type": "electric_bike", "is_disabled": 0, "lat": 38.902722833333335, "rental_uris": {"android": "https://dc.lft.to/lastmile_qr_scan", "ios": "https://dc.lft.to/lastmile_qr_scan"}, "bike_id": "37d9f72e6465308462780b35bb83df68", "lon": -76.92924883333333}, {"is_reserved": 0, "fusion_lon": 0.0, "fusion_lat": 0.0, "name": "ec92142b0253f6c8aee80fe5beb519f2", "type": "electric_scooter", "is_disabled": 0, "lat": 38.941823666666664, "rental_uris": {"android": "https://dc.lft.to/lastmile_qr_scan", "ios": "https://dc.lft.to/lastmile_qr_scan"}, "bike_id": "ec92142b0253f6c8aee80fe5beb519f2", "lon": -77.025316}, {"is_reserved": 0, "fusion_lon": 0.0, "fusion_lat": 0.0, "name": "246230b30dede5e1c7b21fe36ca2f422", "type": "electric_scooter", "is_disabled": 0, "lat": 38.89367383333333, "rental_uris": {"android": "https://dc.lft.to/lastmile_qr_scan", "ios": "https://dc.lft.to/lastmile_qr_scan"}, "bike_id": "246230b30dede5e1c7b21fe36ca2f422", "lon": -77.04786983333334}, {"is_reserved": 0, "fusion_lon": 0.0, "fusion_lat": 0.0, "name": "6994881bc4d3c39009d841b81b09fd77", "type": "electric_scooter", "is_disabled": 0, "lat": 38.892207, "rental_uris": {"android": "https://dc.lft.to/lastmile_qr_scan", "ios": "https://dc.lft.to/lastmile_qr_scan"}, "bike_id": "6994881bc4d3c39009d841b81b09fd77", "lon": -77.023477}, {"is_reserved": 0, "fusion_lon": 0.0, "fusion_lat": 0.0, "name": "53f55039710172a10c484ba2018ff528", "type": "electric_scooter", "is_disabled": 0, "lat": 38.92473483333333, "rental_uris": {"android": "https://dc.lft.to/lastmile_qr_scan", "ios": "https://dc.lft.to/lastmile_qr_scan"}, "bike_id": "53f55039710172a10c484ba2018ff528", "lon": -77.0227045}, {"is_reserved": 0, "fusion_lon": 0.0, "fusion_lat": 0.0, "name": "e3c1841727ca043ff439a9fbb73ac056", "type": "electric_scooter", "is_disabled": 0, "lat": 38.91124083333333, "rental_uris": {"android": "https://dc.lft.to/lastmile_qr_scan", "ios": "https://dc.lft.to/lastmile_qr_scan"}, "bike_id": "e3c1841727ca043ff439a9fbb73ac056", "lon": -77.0228085}, {"is_reserved": 0, "fusion_lon": 0.0, "fusion_lat": 0.0, "name": "015d5554bc7cd8a818c49c5049716e3f", "type": "electric_scooter", "is_disabled": 0, "lat": 38.922290833333335, "rental_uris": {"android": "https://dc.lft.to/lastmile_qr_scan", "ios": "https://dc.lft.to/lastmile_qr_scan"}, "bike_id": "015d5554bc7cd8a818c49c5049716e3f", "lon": -77.04487083333333}, {"is_reserved": 0, "fusion_lon": 0.0, "fusion_lat": 0.0, "name": "40800fe9cccff2b42e29211ab5df8616", "type": "electric_scooter", "is_disabled": 0, "lat": 38.89709933333334, "rental_uris": {"android": "https://dc.lft.to/lastmile_qr_scan", "ios": "https://dc.lft.to/lastmile_qr_scan"}, "bike_id": "40800fe9cccff2b42e29211ab5df8616", "lon": -77.02302483333334}, {"is_reserved": 0, "fusion_lon": 0.0, "fusion_lat": 0.0, "name": "2494ea1069b5b0338724aae818152315", "type": "electric_scooter", "is_disabled": 0, "lat": 38.914366, "rental_uris": {"android": "https://dc.lft.to/lastmile_qr_scan", "ios": "https://dc.lft.to/lastmile_qr_scan"}, "bike_id": "2494ea1069b5b0338724aae818152315", "lon": -77.01561533333333}, {"is_reserved": 0, "fusion_lon": 0.0, "fusion_lat": 0.0, "name": "c0e49952fb4238c3d42084316b10f034", "type": "electric_scooter", "is_disabled": 0, "lat": 38.92037066666666, "rental_uris": {"android": "https://dc.lft.to/lastmile_qr_scan", "ios": "https://dc.lft.to/lastmile_qr_scan"}, "bike_id": "c0e49952fb4238c3d42084316b10f034", "lon": -76.98485483333333}, {"is_reserved": 0, "fusion_lon": 0.0, "fusion_lat": 0.0, "name": "89625497d0fddbed10bb56b3da73a2d5", "type": "electric_scooter", "is_disabled": 0, "lat": 38.9036435, "rental_uris": {"android": "https://dc.lft.to/lastmile_qr_scan", "ios": "https://dc.lft.to/lastmile_qr_scan"}, "bike_id": "89625497d0fddbed10bb56b3da73a2d5", "lon": -77.04355083333333}, {"is_reserved": 0, "fusion_lon": 0.0, "fusion_lat": 0.0, "name": "dab32060cd5132b0a17e126a737d2ccb", "type": "electric_scooter", "is_disabled": 0, "lat": 38.9541805, "rental_uris": {"android": "https://dc.lft.to/lastmile_qr_scan", "ios": "https://dc.lft.to/lastmile_qr_scan"}, "bike_id": "dab32060cd5132b0a17e126a737d2ccb", "lon": -76.9879295}, {"is_reserved": 0, "fusion_lon": 0.0, "fusion_lat": 0.0, "name": "f4a43c10c0f470daf8bc15f7a2748574", "type": "electric_scooter", "is_disabled": 0, "lat": 38.9095165, "rental_uris": {"android": "https://dc.lft.to/lastmile_qr_scan", "ios": "https://dc.lft.to/lastmile_qr_scan"}, "bike_id": "f4a43c10c0f470daf8bc15f7a2748574", "lon": -77.0449505}, {"is_reserved": 0, "fusion_lon": 0.0, "fusion_lat": 0.0, "name": "ece7f03263f183f2fb209b094c4ad431", "type": "electric_scooter", "is_disabled": 0, "lat": 38.922747333333334, "rental_uris": {"android": "https://dc.lft.to/lastmile_qr_scan", "ios": "https://dc.lft.to/lastmile_qr_scan"}, "bike_id": "ece7f03263f183f2fb209b094c4ad431", "lon": -77.04019316666667}, {"is_reserved": 0, "fusion_lon": 0.0, "fusion_lat": 0.0, "name": "71d7470b89a2fe70e4ce2801ccfbd214", "type": "electric_scooter", "is_disabled": 0, "lat": 38.91952033333333, "rental_uris": {"android": "https://dc.lft.to/lastmile_qr_scan", "ios": "https://dc.lft.to/lastmile_qr_scan"}, "bike_id": "71d7470b89a2fe70e4ce2801ccfbd214", "lon": -77.013689}, {"is_reserved": 0, "fusion_lon": 0.0, "fusion_lat": 0.0, "name": "26f980593309e91330cf94af790aaba2", "type": "electric_scooter", "is_disabled": 0, "lat": 38.92436466666667, "rental_uris": {"android": "https://dc.lft.to/lastmile_qr_scan", "ios": "https://dc.lft.to/lastmile_qr_scan"}, "bike_id": "26f980593309e91330cf94af790aaba2", "lon": -77.03397983333333}, {"is_reserved": 0, "fusion_lon": 0.0, "fusion_lat": 0.0, "name": "406971601ced8aec24197a8ec456e730", "type": "electric_scooter", "is_disabled": 0, "lat": 38.91803816666667, "rental_uris": {"android": "https://dc.lft.to/lastmile_qr_scan", "ios": "https://dc.lft.to/lastmile_qr_scan"}, "bike_id": "406971601ced8aec24197a8ec456e730", "lon": -77.03245083333333}, {"is_reserved": 0, "fusion_lon": 0.0, "fusion_lat": 0.0, "name": "05029841d4eace26436f335a80cfa0cf", "type": "electric_scooter", "is_disabled": 0, "lat": 38.931582, "rental_uris": {"android": "https://dc.lft.to/lastmile_qr_scan", "ios": "https://dc.lft.to/lastmile_qr_scan"}, "bike_id": "05029841d4eace26436f335a80cfa0cf", "lon": -77.043543}, {"is_reserved": 0, "fusion_lon": 0.0, "fusion_lat": 0.0, "name": "084e1eb303bd30d7f3a6b43dbddaedd2", "type": "electric_scooter", "is_disabled": 0, "lat": 38.90232433333333, "rental_uris": {"android": "https://dc.lft.to/lastmile_qr_scan", "ios": "https://dc.lft.to/lastmile_qr_scan"}, "bike_id": "084e1eb303bd30d7f3a6b43dbddaedd2", "lon": -77.03957633333333}, {"is_reserved": 0, "fusion_lon": 0.0, "fusion_lat": 0.0, "name": "b62821fd9a757182a0051ad87e5e0f13", "type": "electric_scooter", "is_disabled": 0, "lat": 38.919105333333334, "rental_uris": {"android": "https://dc.lft.to/lastmile_qr_scan", "ios": "https://dc.lft.to/lastmile_qr_scan"}, "bike_id": "b62821fd9a757182a0051ad87e5e0f13", "lon": -77.0418445}, {"is_reserved": 0, "fusion_lon": 0.0, "fusion_lat": 0.0, "name": "9dec04212359f2de61c6493bd483a4d8", "type": "electric_scooter", "is_disabled": 0, "lat": 38.924420166666664, "rental_uris": {"android": "https://dc.lft.to/lastmile_qr_scan", "ios": "https://dc.lft.to/lastmile_qr_scan"}, "bike_id": "9dec04212359f2de61c6493bd483a4d8", "lon": -77.02151166666667}, {"is_reserved": 0, "fusion_lon": 0.0, "fusion_lat": 0.0, "name": "2002385d74faf362a6fc9cedfded3a66", "type": "electric_scooter", "is_disabled": 0, "lat": 38.87080983333333, "rental_uris": {"android": "https://dc.lft.to/lastmile_qr_scan", "ios": "https://dc.lft.to/lastmile_qr_scan"}, "bike_id": "2002385d74faf362a6fc9cedfded3a66", "lon": -76.98911916666667}, {"is_reserved": 0, "fusion_lon": 0.0, "fusion_lat": 0.0, "name": "3159e06934a9d553999e0d4933ae4167", "type": "electric_scooter", "is_disabled": 0, "lat": 38.91666166666667, "rental_uris": {"android": "https://dc.lft.to/lastmile_qr_scan", "ios": "https://dc.lft.to/lastmile_qr_scan"}, "bike_id": "3159e06934a9d553999e0d4933ae4167", "lon": -77.03201716666666}, {"is_reserved": 0, "fusion_lon": 0.0, "fusion_lat": 0.0, "name": "278d65400ee930b34eae7ad67f10656a", "type": "electric_scooter", "is_disabled": 0, "lat": 38.914765, "rental_uris": {"android": "https://dc.lft.to/lastmile_qr_scan", "ios": "https://dc.lft.to/lastmile_qr_scan"}, "bike_id": "278d65400ee930b34eae7ad67f10656a", "lon": -77.02578466666667}, {"is_reserved": 0, "fusion_lon": 0.0, "fusion_lat": 0.0, "name": "5e570abec9c391a3aa0e1e36d87ea5e1", "type": "electric_scooter", "is_disabled": 0, "lat": 38.89883566666666, "rental_uris": {"android": "https://dc.lft.to/lastmile_qr_scan", "ios": "https://dc.lft.to/lastmile_qr_scan"}, "bike_id": "5e570abec9c391a3aa0e1e36d87ea5e1", "lon": -77.01380416666667}, {"is_reserved": 0, "fusion_lon": 0.0, "fusion_lat": 0.0, "name": "0b2df1c97eb47b25eed011ca1cface6e", "type": "electric_scooter", "is_disabled": 0, "lat": 38.9358695, "rental_uris": {"android": "https://dc.lft.to/lastmile_qr_scan", "ios": "https://dc.lft.to/lastmile_qr_scan"}, "bike_id": "0b2df1c97eb47b25eed011ca1cface6e", "lon": -77.05854433333333}, {"is_reserved": 0, "fusion_lon": 0.0, "fusion_lat": 0.0, "name": "6659f7f3faa1ce3fa78ea37d1264614b", "type": "electric_scooter", "is_disabled": 0, "lat": 38.89225583333333, "rental_uris": {"android": "https://dc.lft.to/lastmile_qr_scan", "ios": "https://dc.lft.to/lastmile_qr_scan"}, "bike_id": "6659f7f3faa1ce3fa78ea37d1264614b", "lon": -77.0234155}, {"is_reserved": 0, "fusion_lon": 0.0, "fusion_lat": 0.0, "name": "edae05c9f34989b9f98f3a979cd1a824", "type": "electric_scooter", "is_disabled": 0, "lat": 38.904408, "rental_uris": {"android": "https://dc.lft.to/lastmile_qr_scan", "ios": "https://dc.lft.to/lastmile_qr_scan"}, "bike_id": "edae05c9f34989b9f98f3a979cd1a824", "lon": -76.98489266666667}, {"is_reserved": 0, "fusion_lon": 0.0, "fusion_lat": 0.0, "name": "040182bc5ae2cc67c3454a9b79b1d96a", "type": "electric_scooter", "is_disabled": 0, "lat": 38.923636, "rental_uris": {"android": "https://dc.lft.to/lastmile_qr_scan", "ios": "https://dc.lft.to/lastmile_qr_scan"}, "bike_id": "040182bc5ae2cc67c3454a9b79b1d96a", "lon": -77.03020616666667}, {"is_reserved": 0, "fusion_lon": 0.0, "fusion_lat": 0.0, "name": "b5396ac229c395b5f33837c82f5344cb", "type": "electric_scooter", "is_disabled": 0, "lat": 38.919541833333334, "rental_uris": {"android": "https://dc.lft.to/lastmile_qr_scan", "ios": "https://dc.lft.to/lastmile_qr_scan"}, "bike_id": "b5396ac229c395b5f33837c82f5344cb", "lon": -77.01369583333333}, {"is_reserved": 0, "fusion_lon": 0.0, "fusion_lat": 0.0, "name": "4a091fa3a316787943b3795db9807329", "type": "electric_bike", "is_disabled": 0, "lat": 38.899641333333335, "rental_uris": {"android": "https://dc.lft.to/lastmile_qr_scan", "ios": "https://dc.lft.to/lastmile_qr_scan"}, "bike_id": "4a091fa3a316787943b3795db9807329", "lon": -76.98667866666666}, {"is_reserved": 0, "fusion_lon": 0.0, "fusion_lat": 0.0, "name": "3bf730856b05f81bfee1666a7173412f", "type": "electric_scooter", "is_disabled": 0, "lat": 38.92876366666667, "rental_uris": {"android": "https://dc.lft.to/lastmile_qr_scan", "ios": "https://dc.lft.to/lastmile_qr_scan"}, "bike_id": "3bf730856b05f81bfee1666a7173412f", "lon": -77.01351633333333}, {"is_reserved": 0, "fusion_lon": 0.0, "fusion_lat": 0.0, "name": "6a2e216a963a18084fe61cb6a59323da", "type": "electric_bike", "is_disabled": 0, "lat": 38.968089666666664, "rental_uris": {"android": "https://dc.lft.to/lastmile_qr_scan", "ios": "https://dc.lft.to/lastmile_qr_scan"}, "bike_id": "6a2e216a963a18084fe61cb6a59323da", "lon": -77.07218533333334}, {"is_reserved": 0, "fusion_lon": 0.0, "fusion_lat": 0.0, "name": "8dafe9bc1a3b34ee26fb547df73497db", "type": "electric_scooter", "is_disabled": 0, "lat": 38.9132925, "rental_uris": {"android": "https://dc.lft.to/lastmile_qr_scan", "ios": "https://dc.lft.to/lastmile_qr_scan"}, "bike_id": "8dafe9bc1a3b34ee26fb547df73497db", "lon": -77.04534816666667}, {"is_reserved": 0, "fusion_lon": 0.0, "fusion_lat": 0.0, "name": "8f06a675f91196a574c2dc6901945e3d", "type": "electric_scooter", "is_disabled": 0, "lat": 38.90072583333333, "rental_uris": {"android": "https://dc.lft.to/lastmile_qr_scan", "ios": "https://dc.lft.to/lastmile_qr_scan"}, "bike_id": "8f06a675f91196a574c2dc6901945e3d", "lon": -77.03218783333334}, {"is_reserved": 0, "fusion_lon": 0.0, "fusion_lat": 0.0, "name": "7ca68756ddfcc640c09a83d35d271f36", "type": "electric_scooter", "is_disabled": 0, "lat": 38.93143883333333, "rental_uris": {"android": "https://dc.lft.to/lastmile_qr_scan", "ios": "https://dc.lft.to/lastmile_qr_scan"}, "bike_id": "7ca68756ddfcc640c09a83d35d271f36", "lon": -77.07859166666667}, {"is_reserved": 0, "fusion_lon": 0.0, "fusion_lat": 0.0, "name": "f0759fde9340ef32c090e4e556f02446", "type": "electric_scooter", "is_disabled": 0, "lat": 38.896139833333336, "rental_uris": {"android": "https://dc.lft.to/lastmile_qr_scan", "ios": "https://dc.lft.to/lastmile_qr_scan"}, "bike_id": "f0759fde9340ef32c090e4e556f02446", "lon": -77.02980283333333}, {"is_reserved": 0, "fusion_lon": 0.0, "fusion_lat": 0.0, "name": "f0545f48325de916366140c9b868b673", "type": "electric_scooter", "is_disabled": 0, "lat": 38.90635733333333, "rental_uris": {"android": "https://dc.lft.to/lastmile_qr_scan", "ios": "https://dc.lft.to/lastmile_qr_scan"}, "bike_id": "f0545f48325de916366140c9b868b673", "lon": -77.05139466666667}, {"is_reserved": 0, "fusion_lon": 0.0, "fusion_lat": 0.0, "name": "8fadbd120a3f157adcaa07a050e94778", "type": "electric_scooter", "is_disabled": 0, "lat": 38.922230166666665, "rental_uris": {"android": "https://dc.lft.to/lastmile_qr_scan", "ios": "https://dc.lft.to/lastmile_qr_scan"}, "bike_id": "8fadbd120a3f157adcaa07a050e94778", "lon": -77.04255216666667}, {"is_reserved": 0, "fusion_lon": 0.0, "fusion_lat": 0.0, "name": "fe7139cd6ab5fba8508b27734dbb0e3d", "type": "electric_scooter", "is_disabled": 0, "lat": 38.88161233333334, "rental_uris": {"android": "https://dc.lft.to/lastmile_qr_scan", "ios": "https://dc.lft.to/lastmile_qr_scan"}, "bike_id": "fe7139cd6ab5fba8508b27734dbb0e3d", "lon": -76.92971616666667}, {"is_reserved": 0, "fusion_lon": 0.0, "fusion_lat": 0.0, "name": "d34ae7b039a71866c1451f70ed3b9939", "type": "electric_scooter", "is_disabled": 0, "lat": 38.928490333333336, "rental_uris": {"android": "https://dc.lft.to/lastmile_qr_scan", "ios": "https://dc.lft.to/lastmile_qr_scan"}, "bike_id": "d34ae7b039a71866c1451f70ed3b9939", "lon": -77.036035}, {"is_reserved": 0, "fusion_lon": 0.0, "fusion_lat": 0.0, "name": "7ab96e3b5a385a85a77a20c2f2e24542", "type": "electric_scooter", "is_disabled": 0, "lat": 38.89691, "rental_uris": {"android": "https://dc.lft.to/lastmile_qr_scan", "ios": "https://dc.lft.to/lastmile_qr_scan"}, "bike_id": "7ab96e3b5a385a85a77a20c2f2e24542", "lon": -77.03181433333333}, {"is_reserved": 0, "fusion_lon": 0.0, "fusion_lat": 0.0, "name": "b5c44ca39b8de226ba45e001b1d951a9", "type": "electric_scooter", "is_disabled": 0, "lat": 38.915520666666666, "rental_uris": {"android": "https://dc.lft.to/lastmile_qr_scan", "ios": "https://dc.lft.to/lastmile_qr_scan"}, "bike_id": "b5c44ca39b8de226ba45e001b1d951a9", "lon": -77.0255275}, {"is_reserved": 0, "fusion_lon": 0.0, "fusion_lat": 0.0, "name": "8b5bca959b4d344ac97a022d09bf7484", "type": "electric_scooter", "is_disabled": 0, "lat": 38.8880065, "rental_uris": {"android": "https://dc.lft.to/lastmile_qr_scan", "ios": "https://dc.lft.to/lastmile_qr_scan"}, "bike_id": "8b5bca959b4d344ac97a022d09bf7484", "lon": -76.93353483333334}, {"is_reserved": 0, "fusion_lon": 0.0, "fusion_lat": 0.0, "name": "525e557414e4eafdb2da227aefe39f5b", "type": "electric_scooter", "is_disabled": 0, "lat": 38.916940833333335, "rental_uris": {"android": "https://dc.lft.to/lastmile_qr_scan", "ios": "https://dc.lft.to/lastmile_qr_scan"}, "bike_id": "525e557414e4eafdb2da227aefe39f5b", "lon": -77.0371775}, {"is_reserved": 0, "fusion_lon": 0.0, "fusion_lat": 0.0, "name": "bc7975f77e485999c1b3dca9163eca49", "type": "electric_scooter", "is_disabled": 0, "lat": 38.90509433333333, "rental_uris": {"android": "https://dc.lft.to/lastmile_qr_scan", "ios": "https://dc.lft.to/lastmile_qr_scan"}, "bike_id": "bc7975f77e485999c1b3dca9163eca49", "lon": -77.06379533333333}, {"is_reserved": 0, "fusion_lon": 0.0, "fusion_lat": 0.0, "name": "52f51f90c1180c0357839fcef26bebba", "type": "electric_scooter", "is_disabled": 0, "lat": 38.94714716666667, "rental_uris": {"android": "https://dc.lft.to/lastmile_qr_scan", "ios": "https://dc.lft.to/lastmile_qr_scan"}, "bike_id": "52f51f90c1180c0357839fcef26bebba", "lon": -77.03344766666666}, {"is_reserved": 0, "fusion_lon": 0.0, "fusion_lat": 0.0, "name": "ed88c50e98213a297591403b5e03444e", "type": "electric_scooter", "is_disabled": 0, "lat": 38.89584116666666, "rental_uris": {"android": "https://dc.lft.to/lastmile_qr_scan", "ios": "https://dc.lft.to/lastmile_qr_scan"}, "bike_id": "ed88c50e98213a297591403b5e03444e", "lon": -76.98178366666667}, {"is_reserved": 0, "fusion_lon": 0.0, "fusion_lat": 0.0, "name": "674e2d3d49a2a891ee547a06b96509cb", "type": "electric_scooter", "is_disabled": 0, "lat": 38.922911166666665, "rental_uris": {"android": "https://dc.lft.to/lastmile_qr_scan", "ios": "https://dc.lft.to/lastmile_qr_scan"}, "bike_id": "674e2d3d49a2a891ee547a06b96509cb", "lon": -77.04153633333334}, {"is_reserved": 0, "fusion_lon": 0.0, "fusion_lat": 0.0, "name": "754a3c32650ecc91b2e9f598e3f5c474", "type": "electric_scooter", "is_disabled": 0, "lat": 38.835750166666664, "rental_uris": {"android": "https://dc.lft.to/lastmile_qr_scan", "ios": "https://dc.lft.to/lastmile_qr_scan"}, "bike_id": "754a3c32650ecc91b2e9f598e3f5c474", "lon": -76.99489}, {"is_reserved": 0, "fusion_lon": 0.0, "fusion_lat": 0.0, "name": "83b0eb425f9d2a7fafb53dc445a31533", "type": "electric_scooter", "is_disabled": 0, "lat": 38.87459283333333, "rental_uris": {"android": "https://dc.lft.to/lastmile_qr_scan", "ios": "https://dc.lft.to/lastmile_qr_scan"}, "bike_id": "83b0eb425f9d2a7fafb53dc445a31533", "lon": -77.005522}, {"is_reserved": 0, "fusion_lon": 0.0, "fusion_lat": 0.0, "name": "e6abd051b7118ddc1bd78e4700cd4ade", "type": "electric_scooter", "is_disabled": 0, "lat": 38.906883666666666, "rental_uris": {"android": "https://dc.lft.to/lastmile_qr_scan", "ios": "https://dc.lft.to/lastmile_qr_scan"}, "bike_id": "e6abd051b7118ddc1bd78e4700cd4ade", "lon": -77.034765}, {"is_reserved": 0, "fusion_lon": 0.0, "fusion_lat": 0.0, "name": "e47354d6c8f51812f5e2fb20c98a9b72", "type": "electric_scooter", "is_disabled": 0, "lat": 38.899903, "rental_uris": {"android": "https://dc.lft.to/lastmile_qr_scan", "ios": "https://dc.lft.to/lastmile_qr_scan"}, "bike_id": "e47354d6c8f51812f5e2fb20c98a9b72", "lon": -77.0482885}, {"is_reserved": 0, "fusion_lon": 0.0, "fusion_lat": 0.0, "name": "c88179e0d198a9909fe366aff3c335e2", "type": "electric_scooter", "is_disabled": 0, "lat": 38.873104833333336, "rental_uris": {"android": "https://dc.lft.to/lastmile_qr_scan", "ios": "https://dc.lft.to/lastmile_qr_scan"}, "bike_id": "c88179e0d198a9909fe366aff3c335e2", "lon": -77.00574366666666}, {"is_reserved": 0, "fusion_lon": 0.0, "fusion_lat": 0.0, "name": "1aa8c72ea6be63faa763733e4d9ab462", "type": "electric_scooter", "is_disabled": 0, "lat": 38.902189166666666, "rental_uris": {"android": "https://dc.lft.to/lastmile_qr_scan", "ios": "https://dc.lft.to/lastmile_qr_scan"}, "bike_id": "1aa8c72ea6be63faa763733e4d9ab462", "lon": -77.02093066666667}, {"is_reserved": 0, "fusion_lon": 0.0, "fusion_lat": 0.0, "name": "89ef91511cc3ff0b1d07751f720f9016", "type": "electric_scooter", "is_disabled": 0, "lat": 38.88725866666667, "rental_uris": {"android": "https://dc.lft.to/lastmile_qr_scan", "ios": "https://dc.lft.to/lastmile_qr_scan"}, "bike_id": "89ef91511cc3ff0b1d07751f720f9016", "lon": -77.02835183333333}, {"is_reserved": 0, "fusion_lon": 0.0, "fusion_lat": 0.0, "name": "086ab6e83b259c0b8edd2b109c5b72d2", "type": "electric_scooter", "is_disabled": 0, "lat": 38.920907166666666, "rental_uris": {"android": "https://dc.lft.to/lastmile_qr_scan", "ios": "https://dc.lft.to/lastmile_qr_scan"}, "bike_id": "086ab6e83b259c0b8edd2b109c5b72d2", "lon": -77.00429533333333}, {"is_reserved": 0, "fusion_lon": 0.0, "fusion_lat": 0.0, "name": "5c7cfa9b121b781b5574e39dbeae9c33", "type": "electric_scooter", "is_disabled": 0, "lat": 38.91190133333333, "rental_uris": {"android": "https://dc.lft.to/lastmile_qr_scan", "ios": "https://dc.lft.to/lastmile_qr_scan"}, "bike_id": "5c7cfa9b121b781b5574e39dbeae9c33", "lon": -77.00975383333333}, {"is_reserved": 0, "fusion_lon": 0.0, "fusion_lat": 0.0, "name": "8e020c8813ae63cda7db825ba4cee02f", "type": "electric_scooter", "is_disabled": 0, "lat": 38.91981333333333, "rental_uris": {"android": "https://dc.lft.to/lastmile_qr_scan", "ios": "https://dc.lft.to/lastmile_qr_scan"}, "bike_id": "8e020c8813ae63cda7db825ba4cee02f", "lon": -77.02175066666666}, {"is_reserved": 0, "fusion_lon": 0.0, "fusion_lat": 0.0, "name": "520bd21fef58a3c9ed8f6a82997681dd", "type": "electric_scooter", "is_disabled": 0, "lat": 38.92269366666667, "rental_uris": {"android": "https://dc.lft.to/lastmile_qr_scan", "ios": "https://dc.lft.to/lastmile_qr_scan"}, "bike_id": "520bd21fef58a3c9ed8f6a82997681dd", "lon": -77.0322255}, {"is_reserved": 0, "fusion_lon": 0.0, "fusion_lat": 0.0, "name": "fdc18e6649442578faf4013adacbc33f", "type": "electric_scooter", "is_disabled": 0, "lat": 38.888126166666666, "rental_uris": {"android": "https://dc.lft.to/lastmile_qr_scan", "ios": "https://dc.lft.to/lastmile_qr_scan"}, "bike_id": "fdc18e6649442578faf4013adacbc33f", "lon": -76.93344116666667}, {"is_reserved": 0, "fusion_lon": 0.0, "fusion_lat": 0.0, "name": "0fa344778413cc4cc0f3b21b427da639", "type": "electric_scooter", "is_disabled": 0, "lat": 38.91666383333333, "rental_uris": {"android": "https://dc.lft.to/lastmile_qr_scan", "ios": "https://dc.lft.to/lastmile_qr_scan"}, "bike_id": "0fa344778413cc4cc0f3b21b427da639", "lon": -77.02956766666667}, {"is_reserved": 0, "fusion_lon": 0.0, "fusion_lat": 0.0, "name": "1ba989c49967234dcbf18fa52b5dc1be", "type": "electric_scooter", "is_disabled": 0, "lat": 38.927543, "rental_uris": {"android": "https://dc.lft.to/lastmile_qr_scan", "ios": "https://dc.lft.to/lastmile_qr_scan"}, "bike_id": "1ba989c49967234dcbf18fa52b5dc1be", "lon": -77.0241555}, {"is_reserved": 0, "fusion_lon": 0.0, "fusion_lat": 0.0, "name": "884c07212962ee3f62ce42fae579f8a4", "type": "electric_scooter", "is_disabled": 0, "lat": 38.872443833333335, "rental_uris": {"android": "https://dc.lft.to/lastmile_qr_scan", "ios": "https://dc.lft.to/lastmile_qr_scan"}, "bike_id": "884c07212962ee3f62ce42fae579f8a4", "lon": -76.97721866666667}, {"is_reserved": 0, "fusion_lon": 0.0, "fusion_lat": 0.0, "name": "37ee2bc1a3f056ddfa01c40aebd508ef", "type": "electric_scooter", "is_disabled": 0, "lat": 38.894993166666666, "rental_uris": {"android": "https://dc.lft.to/lastmile_qr_scan", "ios": "https://dc.lft.to/lastmile_qr_scan"}, "bike_id": "37ee2bc1a3f056ddfa01c40aebd508ef", "lon": -77.00947083333334}, {"is_reserved": 0, "fusion_lon": 0.0, "fusion_lat": 0.0, "name": "2f5ce02408d534ddda5557686339a1e8", "type": "electric_scooter", "is_disabled": 0, "lat": 38.925162666666665, "rental_uris": {"android": "https://dc.lft.to/lastmile_qr_scan", "ios": "https://dc.lft.to/lastmile_qr_scan"}, "bike_id": "2f5ce02408d534ddda5557686339a1e8", "lon": -77.050429}, {"is_reserved": 0, "fusion_lon": 0.0, "fusion_lat": 0.0, "name": "93a5a79ddbc5cb1cb49f288c2033a504", "type": "electric_scooter", "is_disabled": 0, "lat": 38.924782, "rental_uris": {"android": "https://dc.lft.to/lastmile_qr_scan", "ios": "https://dc.lft.to/lastmile_qr_scan"}, "bike_id": "93a5a79ddbc5cb1cb49f288c2033a504", "lon": -77.02202666666666}, {"is_reserved": 0, "fusion_lon": 0.0, "fusion_lat": 0.0, "name": "e6ff5b5ed765f6f36315f715b94b3896", "type": "electric_scooter", "is_disabled": 0, "lat": 38.88508933333333, "rental_uris": {"android": "https://dc.lft.to/lastmile_qr_scan", "ios": "https://dc.lft.to/lastmile_qr_scan"}, "bike_id": "e6ff5b5ed765f6f36315f715b94b3896", "lon": -76.99842283333334}, {"is_reserved": 0, "fusion_lon": 0.0, "fusion_lat": 0.0, "name": "98d41f1c5dd82c7b6bf4095dc214d1b3", "type": "electric_scooter", "is_disabled": 0, "lat": 38.89237683333333, "rental_uris": {"android": "https://dc.lft.to/lastmile_qr_scan", "ios": "https://dc.lft.to/lastmile_qr_scan"}, "bike_id": "98d41f1c5dd82c7b6bf4095dc214d1b3", "lon": -77.04159866666667}, {"is_reserved": 0, "fusion_lon": 0.0, "fusion_lat": 0.0, "name": "ff8fe39108b70ac2aaad4c0066e4a2c8", "type": "electric_scooter", "is_disabled": 0, "lat": 38.906500333333334, "rental_uris": {"android": "https://dc.lft.to/lastmile_qr_scan", "ios": "https://dc.lft.to/lastmile_qr_scan"}, "bike_id": "ff8fe39108b70ac2aaad4c0066e4a2c8", "lon": -77.04868516666667}, {"is_reserved": 0, "fusion_lon": 0.0, "fusion_lat": 0.0, "name": "c05d8a4ed5d43f84ff0746719d3d49d9", "type": "electric_scooter", "is_disabled": 0, "lat": 38.892353666666665, "rental_uris": {"android": "https://dc.lft.to/lastmile_qr_scan", "ios": "https://dc.lft.to/lastmile_qr_scan"}, "bike_id": "c05d8a4ed5d43f84ff0746719d3d49d9", "lon": -77.03209183333334}, {"is_reserved": 0, "fusion_lon": 0.0, "fusion_lat": 0.0, "name": "bbc1884b6ee18a9218669557c42d5d57", "type": "electric_scooter", "is_disabled": 0, "lat": 38.89493683333333, "rental_uris": {"android": "https://dc.lft.to/lastmile_qr_scan", "ios": "https://dc.lft.to/lastmile_qr_scan"}, "bike_id": "bbc1884b6ee18a9218669557c42d5d57", "lon": -77.02731116666666}, {"is_reserved": 0, "fusion_lon": 0.0, "fusion_lat": 0.0, "name": "a028a7353b248ce50607d930b6de3a91", "type": "electric_scooter", "is_disabled": 0, "lat": 38.920449166666664, "rental_uris": {"android": "https://dc.lft.to/lastmile_qr_scan", "ios": "https://dc.lft.to/lastmile_qr_scan"}, "bike_id": "a028a7353b248ce50607d930b6de3a91", "lon": -77.02192783333334}, {"is_reserved": 0, "fusion_lon": 0.0, "fusion_lat": 0.0, "name": "c8d4677a20533fc0c399e9712da0267b", "type": "electric_scooter", "is_disabled": 0, "lat": 38.9133695, "rental_uris": {"android": "https://dc.lft.to/lastmile_qr_scan", "ios": "https://dc.lft.to/lastmile_qr_scan"}, "bike_id": "c8d4677a20533fc0c399e9712da0267b", "lon": -77.045607}, {"is_reserved": 0, "fusion_lon": 0.0, "fusion_lat": 0.0, "name": "39c349f50e10200ff98db3ffe2ee09a4", "type": "electric_scooter", "is_disabled": 0, "lat": 38.922244, "rental_uris": {"android": "https://dc.lft.to/lastmile_qr_scan", "ios": "https://dc.lft.to/lastmile_qr_scan"}, "bike_id": "39c349f50e10200ff98db3ffe2ee09a4", "lon": -77.04247916666667}, {"is_reserved": 0, "fusion_lon": 0.0, "fusion_lat": 0.0, "name": "9e60dc74ef10f3eee5099e46e8406396", "type": "electric_scooter", "is_disabled": 0, "lat": 38.967785666666664, "rental_uris": {"android": "https://dc.lft.to/lastmile_qr_scan", "ios": "https://dc.lft.to/lastmile_qr_scan"}, "bike_id": "9e60dc74ef10f3eee5099e46e8406396", "lon": -77.01512666666666}, {"is_reserved": 0, "fusion_lon": 0.0, "fusion_lat": 0.0, "name": "eb01a3ff4960aba2e1ec75c490e14b8c", "type": "electric_scooter", "is_disabled": 0, "lat": 38.89503783333333, "rental_uris": {"android": "https://dc.lft.to/lastmile_qr_scan", "ios": "https://dc.lft.to/lastmile_qr_scan"}, "bike_id": "eb01a3ff4960aba2e1ec75c490e14b8c", "lon": -77.0465155}, {"is_reserved": 0, "fusion_lon": 0.0, "fusion_lat": 0.0, "name": "533e8b917bffe687e7dd2a251a1c72d9", "type": "electric_scooter", "is_disabled": 0, "lat": 38.91988533333333, "rental_uris": {"android": "https://dc.lft.to/lastmile_qr_scan", "ios": "https://dc.lft.to/lastmile_qr_scan"}, "bike_id": "533e8b917bffe687e7dd2a251a1c72d9", "lon": -77.02329183333333}, {"is_reserved": 0, "fusion_lon": 0.0, "fusion_lat": 0.0, "name": "3cbcc480a713a3b85dd7914634757bee", "type": "electric_scooter", "is_disabled": 0, "lat": 38.9023225, "rental_uris": {"android": "https://dc.lft.to/lastmile_qr_scan", "ios": "https://dc.lft.to/lastmile_qr_scan"}, "bike_id": "3cbcc480a713a3b85dd7914634757bee", "lon": -76.99267016666667}, {"is_reserved": 0, "fusion_lon": 0.0, "fusion_lat": 0.0, "name": "65f821043eabc585977ec988225f68ea", "type": "electric_scooter", "is_disabled": 0, "lat": 38.9021575, "rental_uris": {"android": "https://dc.lft.to/lastmile_qr_scan", "ios": "https://dc.lft.to/lastmile_qr_scan"}, "bike_id": "65f821043eabc585977ec988225f68ea", "lon": -77.022931}, {"is_reserved": 0, "fusion_lon": 0.0, "fusion_lat": 0.0, "name": "a33b4ec01950f2abf645cb269e40ae70", "type": "electric_bike", "is_disabled": 0, "lat": 38.925365166666666, "rental_uris": {"android": "https://dc.lft.to/lastmile_qr_scan", "ios": "https://dc.lft.to/lastmile_qr_scan"}, "bike_id": "a33b4ec01950f2abf645cb269e40ae70", "lon": -77.07893}, {"is_reserved": 0, "fusion_lon": 0.0, "fusion_lat": 0.0, "name": "d036a9f189dccb899605834f0730a30b", "type": "electric_bike", "is_disabled": 0, "lat": 38.921141, "rental_uris": {"android": "https://dc.lft.to/lastmile_qr_scan", "ios": "https://dc.lft.to/lastmile_qr_scan"}, "bike_id": "d036a9f189dccb899605834f0730a30b", "lon": -77.036462}, {"is_reserved": 0, "fusion_lon": 0.0, "fusion_lat": 0.0, "name": "5a85743d6d73a89505cfcffc551b8c2e", "type": "electric_bike", "is_disabled": 0, "lat": 38.9532815, "rental_uris": {"android": "https://dc.lft.to/lastmile_qr_scan", "ios": "https://dc.lft.to/lastmile_qr_scan"}, "bike_id": "5a85743d6d73a89505cfcffc551b8c2e", "lon": -76.95429066666667}, {"is_reserved": 0, "fusion_lon": 0.0, "fusion_lat": 0.0, "name": "6b009eef42b16b318f18cf579164f15c", "type": "electric_scooter", "is_disabled": 0, "lat": 38.837047166666665, "rental_uris": {"android": "https://dc.lft.to/lastmile_qr_scan", "ios": "https://dc.lft.to/lastmile_qr_scan"}, "bike_id": "6b009eef42b16b318f18cf579164f15c", "lon": -77.00568433333333}, {"is_reserved": 0, "fusion_lon": 0.0, "fusion_lat": 0.0, "name": "ae7c38505898a309d01e35999a0a91e8", "type": "electric_scooter", "is_disabled": 0, "lat": 38.909053, "rental_uris": {"android": "https://dc.lft.to/lastmile_qr_scan", "ios": "https://dc.lft.to/lastmile_qr_scan"}, "bike_id": "ae7c38505898a309d01e35999a0a91e8", "lon": -77.04138416666666}, {"is_reserved": 0, "fusion_lon": 0.0, "fusion_lat": 0.0, "name": "6181cf97c7105f185caf5253c3fde9ad", "type": "electric_scooter", "is_disabled": 0, "lat": 38.844324, "rental_uris": {"android": "https://dc.lft.to/lastmile_qr_scan", "ios": "https://dc.lft.to/lastmile_qr_scan"}, "bike_id": "6181cf97c7105f185caf5253c3fde9ad", "lon": -76.997724}, {"is_reserved": 0, "fusion_lon": 0.0, "fusion_lat": 0.0, "name": "c8554c556b14d5a15252920a10769676", "type": "electric_scooter", "is_disabled": 0, "lat": 38.89822866666667, "rental_uris": {"android": "https://dc.lft.to/lastmile_qr_scan", "ios": "https://dc.lft.to/lastmile_qr_scan"}, "bike_id": "c8554c556b14d5a15252920a10769676", "lon": -77.028516}, {"is_reserved": 0, "fusion_lon": 0.0, "fusion_lat": 0.0, "name": "8a6556aaecdfb7a3ed41183ebc6ce88d", "type": "electric_scooter", "is_disabled": 0, "lat": 38.897279833333336, "rental_uris": {"android": "https://dc.lft.to/lastmile_qr_scan", "ios": "https://dc.lft.to/lastmile_qr_scan"}, "bike_id": "8a6556aaecdfb7a3ed41183ebc6ce88d", "lon": -77.05522816666667}, {"is_reserved": 0, "fusion_lon": 0.0, "fusion_lat": 0.0, "name": "85f77fa20f970514cde6cfe2c20d47de", "type": "electric_scooter", "is_disabled": 0, "lat": 38.941198166666666, "rental_uris": {"android": "https://dc.lft.to/lastmile_qr_scan", "ios": "https://dc.lft.to/lastmile_qr_scan"}, "bike_id": "85f77fa20f970514cde6cfe2c20d47de", "lon": -77.01539116666666}, {"is_reserved": 0, "fusion_lon": 0.0, "fusion_lat": 0.0, "name": "b43b480429e1535ecd1d0c8839e7e36c", "type": "electric_scooter", "is_disabled": 0, "lat": 38.885656, "rental_uris": {"android": "https://dc.lft.to/lastmile_qr_scan", "ios": "https://dc.lft.to/lastmile_qr_scan"}, "bike_id": "b43b480429e1535ecd1d0c8839e7e36c", "lon": -77.0200865}, {"is_reserved": 0, "fusion_lon": 0.0, "fusion_lat": 0.0, "name": "9078f6c7b248d13762335522670298ed", "type": "electric_scooter", "is_disabled": 0, "lat": 38.936072833333334, "rental_uris": {"android": "https://dc.lft.to/lastmile_qr_scan", "ios": "https://dc.lft.to/lastmile_qr_scan"}, "bike_id": "9078f6c7b248d13762335522670298ed", "lon": -77.02918883333334}, {"is_reserved": 0, "fusion_lon": 0.0, "fusion_lat": 0.0, "name": "a499c6869976aec26c9e1f1dc2d4c22a", "type": "electric_scooter", "is_disabled": 0, "lat": 38.9006735, "rental_uris": {"android": "https://dc.lft.to/lastmile_qr_scan", "ios": "https://dc.lft.to/lastmile_qr_scan"}, "bike_id": "a499c6869976aec26c9e1f1dc2d4c22a", "lon": -77.04532433333334}, {"is_reserved": 0, "fusion_lon": 0.0, "fusion_lat": 0.0, "name": "9cc357ab08afd07d91b16fbb1167ece3", "type": "electric_scooter", "is_disabled": 0, "lat": 38.926106, "rental_uris": {"android": "https://dc.lft.to/lastmile_qr_scan", "ios": "https://dc.lft.to/lastmile_qr_scan"}, "bike_id": "9cc357ab08afd07d91b16fbb1167ece3", "lon": -77.02164666666667}, {"is_reserved": 0, "fusion_lon": 0.0, "fusion_lat": 0.0, "name": "09742dec1e8b041ed2ef58f6409bbb9d", "type": "electric_scooter", "is_disabled": 0, "lat": 38.902233833333334, "rental_uris": {"android": "https://dc.lft.to/lastmile_qr_scan", "ios": "https://dc.lft.to/lastmile_qr_scan"}, "bike_id": "09742dec1e8b041ed2ef58f6409bbb9d", "lon": -77.02967966666667}, {"is_reserved": 0, "fusion_lon": 0.0, "fusion_lat": 0.0, "name": "c0fc6c188f70e693e9f09e5216f11c7a", "type": "electric_scooter", "is_disabled": 0, "lat": 38.90444466666667, "rental_uris": {"android": "https://dc.lft.to/lastmile_qr_scan", "ios": "https://dc.lft.to/lastmile_qr_scan"}, "bike_id": "c0fc6c188f70e693e9f09e5216f11c7a", "lon": -77.0435295}, {"is_reserved": 0, "fusion_lon": 0.0, "fusion_lat": 0.0, "name": "7e5f9e2b328f47527f3463bf4f7db2db", "type": "electric_scooter", "is_disabled": 0, "lat": 38.916965166666664, "rental_uris": {"android": "https://dc.lft.to/lastmile_qr_scan", "ios": "https://dc.lft.to/lastmile_qr_scan"}, "bike_id": "7e5f9e2b328f47527f3463bf4f7db2db", "lon": -77.0331205}, {"is_reserved": 0, "fusion_lon": 0.0, "fusion_lat": 0.0, "name": "7e02c64dec41f806d6a7a671649a2348", "type": "electric_scooter", "is_disabled": 0, "lat": 38.917268166666666, "rental_uris": {"android": "https://dc.lft.to/lastmile_qr_scan", "ios": "https://dc.lft.to/lastmile_qr_scan"}, "bike_id": "7e02c64dec41f806d6a7a671649a2348", "lon": -77.03662133333333}, {"is_reserved": 0, "fusion_lon": 0.0, "fusion_lat": 0.0, "name": "f6c59e8914a985ae4daf363a90c69620", "type": "electric_scooter", "is_disabled": 0, "lat": 38.90639816666667, "rental_uris": {"android": "https://dc.lft.to/lastmile_qr_scan", "ios": "https://dc.lft.to/lastmile_qr_scan"}, "bike_id": "f6c59e8914a985ae4daf363a90c69620", "lon": -77.06904683333333}, {"is_reserved": 0, "fusion_lon": 0.0, "fusion_lat": 0.0, "name": "141046a1fe6ac925c1c4e28882ac9d83", "type": "electric_scooter", "is_disabled": 0, "lat": 38.93422733333333, "rental_uris": {"android": "https://dc.lft.to/lastmile_qr_scan", "ios": "https://dc.lft.to/lastmile_qr_scan"}, "bike_id": "141046a1fe6ac925c1c4e28882ac9d83", "lon": -77.04408366666667}, {"is_reserved": 0, "fusion_lon": 0.0, "fusion_lat": 0.0, "name": "ced0c2f494daef76c38eaccc9ca552ad", "type": "electric_scooter", "is_disabled": 0, "lat": 38.926452833333336, "rental_uris": {"android": "https://dc.lft.to/lastmile_qr_scan", "ios": "https://dc.lft.to/lastmile_qr_scan"}, "bike_id": "ced0c2f494daef76c38eaccc9ca552ad", "lon": -77.02693866666667}, {"is_reserved": 0, "fusion_lon": 0.0, "fusion_lat": 0.0, "name": "ea8f9c94b5c7644711c28b4c1c542541", "type": "electric_scooter", "is_disabled": 0, "lat": 38.92482233333333, "rental_uris": {"android": "https://dc.lft.to/lastmile_qr_scan", "ios": "https://dc.lft.to/lastmile_qr_scan"}, "bike_id": "ea8f9c94b5c7644711c28b4c1c542541", "lon": -77.02627916666667}, {"is_reserved": 0, "fusion_lon": 0.0, "fusion_lat": 0.0, "name": "bde59ae11cdd75f4a016eacab3e42cea", "type": "electric_scooter", "is_disabled": 0, "lat": 38.88961583333333, "rental_uris": {"android": "https://dc.lft.to/lastmile_qr_scan", "ios": "https://dc.lft.to/lastmile_qr_scan"}, "bike_id": "bde59ae11cdd75f4a016eacab3e42cea", "lon": -76.93704866666667}, {"is_reserved": 0, "fusion_lon": 0.0, "fusion_lat": 0.0, "name": "9e3d98b77c3d838db065514bfd4806a1", "type": "electric_scooter", "is_disabled": 0, "lat": 38.91726116666667, "rental_uris": {"android": "https://dc.lft.to/lastmile_qr_scan", "ios": "https://dc.lft.to/lastmile_qr_scan"}, "bike_id": "9e3d98b77c3d838db065514bfd4806a1", "lon": -77.0417445}, {"is_reserved": 0, "fusion_lon": 0.0, "fusion_lat": 0.0, "name": "9019dd1ebc78d899b4062f0c13be65b7", "type": "electric_scooter", "is_disabled": 0, "lat": 38.919862333333334, "rental_uris": {"android": "https://dc.lft.to/lastmile_qr_scan", "ios": "https://dc.lft.to/lastmile_qr_scan"}, "bike_id": "9019dd1ebc78d899b4062f0c13be65b7", "lon": -77.02204333333333}, {"is_reserved": 0, "fusion_lon": 0.0, "fusion_lat": 0.0, "name": "5e5828a58bc1f6885a786608d6f7ed34", "type": "electric_scooter", "is_disabled": 0, "lat": 38.894248166666664, "rental_uris": {"android": "https://dc.lft.to/lastmile_qr_scan", "ios": "https://dc.lft.to/lastmile_qr_scan"}, "bike_id": "5e5828a58bc1f6885a786608d6f7ed34", "lon": -76.94879716666667}, {"is_reserved": 0, "fusion_lon": 0.0, "fusion_lat": 0.0, "name": "5a036db90265581eb8d3ba05bbd2f2d3", "type": "electric_scooter", "is_disabled": 0, "lat": 38.915407333333334, "rental_uris": {"android": "https://dc.lft.to/lastmile_qr_scan", "ios": "https://dc.lft.to/lastmile_qr_scan"}, "bike_id": "5a036db90265581eb8d3ba05bbd2f2d3", "lon": -77.01266966666667}, {"is_reserved": 0, "fusion_lon": 0.0, "fusion_lat": 0.0, "name": "93cd995752d6cc3db297564757dcee4e", "type": "electric_scooter", "is_disabled": 0, "lat": 38.89220383333333, "rental_uris": {"android": "https://dc.lft.to/lastmile_qr_scan", "ios": "https://dc.lft.to/lastmile_qr_scan"}, "bike_id": "93cd995752d6cc3db297564757dcee4e", "lon": -77.042627}, {"is_reserved": 0, "fusion_lon": 0.0, "fusion_lat": 0.0, "name": "79116709ebca309fbcf453db92d46978", "type": "electric_scooter", "is_disabled": 0, "lat": 38.93540516666667, "rental_uris": {"android": "https://dc.lft.to/lastmile_qr_scan", "ios": "https://dc.lft.to/lastmile_qr_scan"}, "bike_id": "79116709ebca309fbcf453db92d46978", "lon": -77.0574955}, {"is_reserved": 0, "fusion_lon": 0.0, "fusion_lat": 0.0, "name": "e0aa47265d4b571224cad07159a07320", "type": "electric_scooter", "is_disabled": 0, "lat": 38.890997, "rental_uris": {"android": "https://dc.lft.to/lastmile_qr_scan", "ios": "https://dc.lft.to/lastmile_qr_scan"}, "bike_id": "e0aa47265d4b571224cad07159a07320", "lon": -77.002825}, {"is_reserved": 0, "fusion_lon": 0.0, "fusion_lat": 0.0, "name": "d92beaeb2fdd49f96c14b5af07b7403e", "type": "electric_scooter", "is_disabled": 0, "lat": 38.9178945, "rental_uris": {"android": "https://dc.lft.to/lastmile_qr_scan", "ios": "https://dc.lft.to/lastmile_qr_scan"}, "bike_id": "d92beaeb2fdd49f96c14b5af07b7403e", "lon": -77.02468466666667}, {"is_reserved": 0, "fusion_lon": 0.0, "fusion_lat": 0.0, "name": "3b82d30e5cc73dfd5633adfd96864f23", "type": "electric_scooter", "is_disabled": 0, "lat": 38.863771, "rental_uris": {"android": "https://dc.lft.to/lastmile_qr_scan", "ios": "https://dc.lft.to/lastmile_qr_scan"}, "bike_id": "3b82d30e5cc73dfd5633adfd96864f23", "lon": -76.99060483333334}, {"is_reserved": 0, "fusion_lon": 0.0, "fusion_lat": 0.0, "name": "aae52fc6702d63a716e1d5dd6bc2ed98", "type": "electric_scooter", "is_disabled": 0, "lat": 38.91301383333333, "rental_uris": {"android": "https://dc.lft.to/lastmile_qr_scan", "ios": "https://dc.lft.to/lastmile_qr_scan"}, "bike_id": "aae52fc6702d63a716e1d5dd6bc2ed98", "lon": -76.98473183333333}, {"is_reserved": 0, "fusion_lon": 0.0, "fusion_lat": 0.0, "name": "3019f141e4b917d082af37c8a20ad111", "type": "electric_scooter", "is_disabled": 0, "lat": 38.9180955, "rental_uris": {"android": "https://dc.lft.to/lastmile_qr_scan", "ios": "https://dc.lft.to/lastmile_qr_scan"}, "bike_id": "3019f141e4b917d082af37c8a20ad111", "lon": -77.034496}, {"is_reserved": 0, "fusion_lon": 0.0, "fusion_lat": 0.0, "name": "5972a4b08534702fde2d44c8487dab55", "type": "electric_scooter", "is_disabled": 0, "lat": 38.8857905, "rental_uris": {"android": "https://dc.lft.to/lastmile_qr_scan", "ios": "https://dc.lft.to/lastmile_qr_scan"}, "bike_id": "5972a4b08534702fde2d44c8487dab55", "lon": -76.99618366666667}, {"is_reserved": 0, "fusion_lon": 0.0, "fusion_lat": 0.0, "name": "cfb226ce7c562d6d032868646d995459", "type": "electric_scooter", "is_disabled": 0, "lat": 38.914157, "rental_uris": {"android": "https://dc.lft.to/lastmile_qr_scan", "ios": "https://dc.lft.to/lastmile_qr_scan"}, "bike_id": "cfb226ce7c562d6d032868646d995459", "lon": -77.0419495}, {"is_reserved": 0, "fusion_lon": 0.0, "fusion_lat": 0.0, "name": "44a8d148fd439069d5870faf2a782641", "type": "electric_scooter", "is_disabled": 0, "lat": 38.9219105, "rental_uris": {"android": "https://dc.lft.to/lastmile_qr_scan", "ios": "https://dc.lft.to/lastmile_qr_scan"}, "bike_id": "44a8d148fd439069d5870faf2a782641", "lon": -77.04229916666667}, {"is_reserved": 0, "fusion_lon": 0.0, "fusion_lat": 0.0, "name": "331bb126a06b7b308ec60d5259b58b15", "type": "electric_bike", "is_disabled": 0, "lat": 38.873026833333334, "rental_uris": {"android": "https://dc.lft.to/lastmile_qr_scan", "ios": "https://dc.lft.to/lastmile_qr_scan"}, "bike_id": "331bb126a06b7b308ec60d5259b58b15", "lon": -77.13929616666667}, {"is_reserved": 0, "fusion_lon": 0.0, "fusion_lat": 0.0, "name": "876f3bd9dba3825d2d9812a5e8868b3c", "type": "electric_scooter", "is_disabled": 0, "lat": 38.9051185, "rental_uris": {"android": "https://dc.lft.to/lastmile_qr_scan", "ios": "https://dc.lft.to/lastmile_qr_scan"}, "bike_id": "876f3bd9dba3825d2d9812a5e8868b3c", "lon": -77.05118616666667}, {"is_reserved": 0, "fusion_lon": 0.0, "fusion_lat": 0.0, "name": "02bb3c145ba4c9d82831c7077020ed9b", "type": "electric_bike", "is_disabled": 0, "lat": 38.8537375, "rental_uris": {"android": "https://dc.lft.to/lastmile_qr_scan", "ios": "https://dc.lft.to/lastmile_qr_scan"}, "bike_id": "02bb3c145ba4c9d82831c7077020ed9b", "lon": -77.12463566666666}, {"is_reserved": 0, "fusion_lon": 0.0, "fusion_lat": 0.0, "name": "86edf30d1d82e28e9ac3cc73ea53e326", "type": "electric_scooter", "is_disabled": 0, "lat": 38.904694166666665, "rental_uris": {"android": "https://dc.lft.to/lastmile_qr_scan", "ios": "https://dc.lft.to/lastmile_qr_scan"}, "bike_id": "86edf30d1d82e28e9ac3cc73ea53e326", "lon": -77.03557716666667}, {"is_reserved": 0, "fusion_lon": 0.0, "fusion_lat": 0.0, "name": "c72d586c4dbf2dad4fea5329fe4284cb", "type": "electric_scooter", "is_disabled": 0, "lat": 38.92710316666667, "rental_uris": {"android": "https://dc.lft.to/lastmile_qr_scan", "ios": "https://dc.lft.to/lastmile_qr_scan"}, "bike_id": "c72d586c4dbf2dad4fea5329fe4284cb", "lon": -77.020589}, {"is_reserved": 0, "fusion_lon": 0.0, "fusion_lat": 0.0, "name": "aaebd17e6537e75117933e8b8c52dcb4", "type": "electric_scooter", "is_disabled": 0, "lat": 38.91489283333333, "rental_uris": {"android": "https://dc.lft.to/lastmile_qr_scan", "ios": "https://dc.lft.to/lastmile_qr_scan"}, "bike_id": "aaebd17e6537e75117933e8b8c52dcb4", "lon": -77.04158533333333}, {"is_reserved": 0, "fusion_lon": 0.0, "fusion_lat": 0.0, "name": "971111b894d72bd0d6fc31917de7762c", "type": "electric_scooter", "is_disabled": 0, "lat": 38.909016, "rental_uris": {"android": "https://dc.lft.to/lastmile_qr_scan", "ios": "https://dc.lft.to/lastmile_qr_scan"}, "bike_id": "971111b894d72bd0d6fc31917de7762c", "lon": -77.03213933333333}, {"is_reserved": 0, "fusion_lon": 0.0, "fusion_lat": 0.0, "name": "1c461512b4fb43e5b28afd451d3c9d84", "type": "electric_scooter", "is_disabled": 0, "lat": 38.950299333333334, "rental_uris": {"android": "https://dc.lft.to/lastmile_qr_scan", "ios": "https://dc.lft.to/lastmile_qr_scan"}, "bike_id": "1c461512b4fb43e5b28afd451d3c9d84", "lon": -77.0669335}, {"is_reserved": 0, "fusion_lon": 0.0, "fusion_lat": 0.0, "name": "4f0f12788e43ad1d165ba339025b01da", "type": "electric_scooter", "is_disabled": 0, "lat": 38.927031166666666, "rental_uris": {"android": "https://dc.lft.to/lastmile_qr_scan", "ios": "https://dc.lft.to/lastmile_qr_scan"}, "bike_id": "4f0f12788e43ad1d165ba339025b01da", "lon": -77.02074766666667}, {"is_reserved": 0, "fusion_lon": 0.0, "fusion_lat": 0.0, "name": "625eb92e720119a011dbc88bdb3a6252", "type": "electric_scooter", "is_disabled": 0, "lat": 38.905522833333336, "rental_uris": {"android": "https://dc.lft.to/lastmile_qr_scan", "ios": "https://dc.lft.to/lastmile_qr_scan"}, "bike_id": "625eb92e720119a011dbc88bdb3a6252", "lon": -77.050091}, {"is_reserved": 0, "fusion_lon": 0.0, "fusion_lat": 0.0, "name": "5bb449c2cd0b399501570a5c9ad38e83", "type": "electric_scooter", "is_disabled": 0, "lat": 38.90087883333333, "rental_uris": {"android": "https://dc.lft.to/lastmile_qr_scan", "ios": "https://dc.lft.to/lastmile_qr_scan"}, "bike_id": "5bb449c2cd0b399501570a5c9ad38e83", "lon": -76.9387175}, {"is_reserved": 0, "fusion_lon": 0.0, "fusion_lat": 0.0, "name": "c51a337129360e53a8ab553a0f177089", "type": "electric_scooter", "is_disabled": 0, "lat": 38.91900833333333, "rental_uris": {"android": "https://dc.lft.to/lastmile_qr_scan", "ios": "https://dc.lft.to/lastmile_qr_scan"}, "bike_id": "c51a337129360e53a8ab553a0f177089", "lon": -76.98739866666666}, {"is_reserved": 0, "fusion_lon": 0.0, "fusion_lat": 0.0, "name": "17898d1b09e1183a67b7dc726bfcc060", "type": "electric_scooter", "is_disabled": 0, "lat": 38.9077135, "rental_uris": {"android": "https://dc.lft.to/lastmile_qr_scan", "ios": "https://dc.lft.to/lastmile_qr_scan"}, "bike_id": "17898d1b09e1183a67b7dc726bfcc060", "lon": -76.97829133333333}, {"is_reserved": 0, "fusion_lon": 0.0, "fusion_lat": 0.0, "name": "683cb804eb17a2a75ad151614a5c5321", "type": "electric_scooter", "is_disabled": 0, "lat": 38.92573, "rental_uris": {"android": "https://dc.lft.to/lastmile_qr_scan", "ios": "https://dc.lft.to/lastmile_qr_scan"}, "bike_id": "683cb804eb17a2a75ad151614a5c5321", "lon": -77.03793333333333}, {"is_reserved": 0, "fusion_lon": 0.0, "fusion_lat": 0.0, "name": "06edb8a97c3359d8e4b16b49844a31e0", "type": "electric_scooter", "is_disabled": 0, "lat": 38.917088666666665, "rental_uris": {"android": "https://dc.lft.to/lastmile_qr_scan", "ios": "https://dc.lft.to/lastmile_qr_scan"}, "bike_id": "06edb8a97c3359d8e4b16b49844a31e0", "lon": -77.023746}, {"is_reserved": 0, "fusion_lon": 0.0, "fusion_lat": 0.0, "name": "74e1af6f9fb7a705e2f2b625f7d1838e", "type": "electric_scooter", "is_disabled": 0, "lat": 38.8885295, "rental_uris": {"android": "https://dc.lft.to/lastmile_qr_scan", "ios": "https://dc.lft.to/lastmile_qr_scan"}, "bike_id": "74e1af6f9fb7a705e2f2b625f7d1838e", "lon": -77.03106816666667}, {"is_reserved": 0, "fusion_lon": 0.0, "fusion_lat": 0.0, "name": "3c24b08d9a707c97fbf2b6ce36878f41", "type": "electric_bike", "is_disabled": 0, "lat": 38.996264333333336, "rental_uris": {"android": "https://dc.lft.to/lastmile_qr_scan", "ios": "https://dc.lft.to/lastmile_qr_scan"}, "bike_id": "3c24b08d9a707c97fbf2b6ce36878f41", "lon": -77.04000816666667}, {"is_reserved": 0, "fusion_lon": 0.0, "fusion_lat": 0.0, "name": "fbfd337b51918877bbeb4d14b07c9c6a", "type": "electric_scooter", "is_disabled": 0, "lat": 38.897085833333335, "rental_uris": {"android": "https://dc.lft.to/lastmile_qr_scan", "ios": "https://dc.lft.to/lastmile_qr_scan"}, "bike_id": "fbfd337b51918877bbeb4d14b07c9c6a", "lon": -77.03078666666667}, {"is_reserved": 0, "fusion_lon": 0.0, "fusion_lat": 0.0, "name": "500c6baf7afcfec9c7e10dadb8fffdb8", "type": "electric_scooter", "is_disabled": 0, "lat": 38.891845, "rental_uris": {"android": "https://dc.lft.to/lastmile_qr_scan", "ios": "https://dc.lft.to/lastmile_qr_scan"}, "bike_id": "500c6baf7afcfec9c7e10dadb8fffdb8", "lon": -77.03641916666666}, {"is_reserved": 0, "fusion_lon": 0.0, "fusion_lat": 0.0, "name": "e4ac18dbe5d5fa004e2b65b91d242d56", "type": "electric_scooter", "is_disabled": 0, "lat": 38.90509333333333, "rental_uris": {"android": "https://dc.lft.to/lastmile_qr_scan", "ios": "https://dc.lft.to/lastmile_qr_scan"}, "bike_id": "e4ac18dbe5d5fa004e2b65b91d242d56", "lon": -77.04667033333334}, {"is_reserved": 0, "fusion_lon": 0.0, "fusion_lat": 0.0, "name": "7196e35a67dd83c17fbf4f949dcff517", "type": "electric_scooter", "is_disabled": 0, "lat": 38.9027, "rental_uris": {"android": "https://dc.lft.to/lastmile_qr_scan", "ios": "https://dc.lft.to/lastmile_qr_scan"}, "bike_id": "7196e35a67dd83c17fbf4f949dcff517", "lon": -77.05911766666667}, {"is_reserved": 0, "fusion_lon": 0.0, "fusion_lat": 0.0, "name": "4dbef663385116d981c359cb62cb844a", "type": "electric_scooter", "is_disabled": 0, "lat": 38.8868005, "rental_uris": {"android": "https://dc.lft.to/lastmile_qr_scan", "ios": "https://dc.lft.to/lastmile_qr_scan"}, "bike_id": "4dbef663385116d981c359cb62cb844a", "lon": -76.954681}, {"is_reserved": 0, "fusion_lon": 0.0, "fusion_lat": 0.0, "name": "c8a6390106cb72e930c25a81dbb25f0c", "type": "electric_scooter", "is_disabled": 0, "lat": 38.926567166666665, "rental_uris": {"android": "https://dc.lft.to/lastmile_qr_scan", "ios": "https://dc.lft.to/lastmile_qr_scan"}, "bike_id": "c8a6390106cb72e930c25a81dbb25f0c", "lon": -77.02277883333333}, {"is_reserved": 0, "fusion_lon": 0.0, "fusion_lat": 0.0, "name": "b1b03413e8cc19a8d9fd3e5fd02e0647", "type": "electric_scooter", "is_disabled": 0, "lat": 38.89234583333333, "rental_uris": {"android": "https://dc.lft.to/lastmile_qr_scan", "ios": "https://dc.lft.to/lastmile_qr_scan"}, "bike_id": "b1b03413e8cc19a8d9fd3e5fd02e0647", "lon": -77.03142}, {"is_reserved": 0, "fusion_lon": 0.0, "fusion_lat": 0.0, "name": "70ab71092fd6bcc2f8cbbde5f751fdb0", "type": "electric_scooter", "is_disabled": 0, "lat": 38.929818833333336, "rental_uris": {"android": "https://dc.lft.to/lastmile_qr_scan", "ios": "https://dc.lft.to/lastmile_qr_scan"}, "bike_id": "70ab71092fd6bcc2f8cbbde5f751fdb0", "lon": -77.03670633333333}, {"is_reserved": 0, "fusion_lon": 0.0, "fusion_lat": 0.0, "name": "09795fe4910ce8e58efdba82c4a4a8d1", "type": "electric_scooter", "is_disabled": 0, "lat": 38.865036333333336, "rental_uris": {"android": "https://dc.lft.to/lastmile_qr_scan", "ios": "https://dc.lft.to/lastmile_qr_scan"}, "bike_id": "09795fe4910ce8e58efdba82c4a4a8d1", "lon": -76.99001833333334}, {"is_reserved": 0, "fusion_lon": 0.0, "fusion_lat": 0.0, "name": "cab66531f3cba10c1c2abc9c67a67418", "type": "electric_scooter", "is_disabled": 0, "lat": 38.908846, "rental_uris": {"android": "https://dc.lft.to/lastmile_qr_scan", "ios": "https://dc.lft.to/lastmile_qr_scan"}, "bike_id": "cab66531f3cba10c1c2abc9c67a67418", "lon": -76.98541016666667}, {"is_reserved": 0, "fusion_lon": 0.0, "fusion_lat": 0.0, "name": "7e47058d41f93ef87c3f6c42fe27c55f", "type": "electric_scooter", "is_disabled": 0, "lat": 38.88743933333333, "rental_uris": {"android": "https://dc.lft.to/lastmile_qr_scan", "ios": "https://dc.lft.to/lastmile_qr_scan"}, "bike_id": "7e47058d41f93ef87c3f6c42fe27c55f", "lon": -77.02736466666667}, {"is_reserved": 0, "fusion_lon": 0.0, "fusion_lat": 0.0, "name": "0c4ec11137592d0fe2ad2951b77b9ec9", "type": "electric_scooter", "is_disabled": 0, "lat": 38.911205333333335, "rental_uris": {"android": "https://dc.lft.to/lastmile_qr_scan", "ios": "https://dc.lft.to/lastmile_qr_scan"}, "bike_id": "0c4ec11137592d0fe2ad2951b77b9ec9", "lon": -77.03825916666666}, {"is_reserved": 0, "fusion_lon": 0.0, "fusion_lat": 0.0, "name": "8ed27a554a82a52ba2f2ea48b510d601", "type": "electric_scooter", "is_disabled": 0, "lat": 38.905183666666666, "rental_uris": {"android": "https://dc.lft.to/lastmile_qr_scan", "ios": "https://dc.lft.to/lastmile_qr_scan"}, "bike_id": "8ed27a554a82a52ba2f2ea48b510d601", "lon": -77.05287916666667}, {"is_reserved": 0, "fusion_lon": 0.0, "fusion_lat": 0.0, "name": "cec03061e018ed0b0433102aab8914bd", "type": "electric_scooter", "is_disabled": 0, "lat": 38.91869333333333, "rental_uris": {"android": "https://dc.lft.to/lastmile_qr_scan", "ios": "https://dc.lft.to/lastmile_qr_scan"}, "bike_id": "cec03061e018ed0b0433102aab8914bd", "lon": -77.044439}, {"is_reserved": 0, "fusion_lon": 0.0, "fusion_lat": 0.0, "name": "1cb9bd01bc0135998de15d62efc2e36b", "type": "electric_scooter", "is_disabled": 0, "lat": 38.888314333333334, "rental_uris": {"android": "https://dc.lft.to/lastmile_qr_scan", "ios": "https://dc.lft.to/lastmile_qr_scan"}, "bike_id": "1cb9bd01bc0135998de15d62efc2e36b", "lon": -76.9936355}, {"is_reserved": 0, "fusion_lon": 0.0, "fusion_lat": 0.0, "name": "d0d092717c50b498c283f513c588d512", "type": "electric_scooter", "is_disabled": 0, "lat": 38.86694116666666, "rental_uris": {"android": "https://dc.lft.to/lastmile_qr_scan", "ios": "https://dc.lft.to/lastmile_qr_scan"}, "bike_id": "d0d092717c50b498c283f513c588d512", "lon": -76.98610116666667}, {"is_reserved": 0, "fusion_lon": 0.0, "fusion_lat": 0.0, "name": "c6be05ccf04cb1b7d0156046c9eb7bc9", "type": "electric_bike", "is_disabled": 0, "lat": 38.962166, "rental_uris": {"android": "https://dc.lft.to/lastmile_qr_scan", "ios": "https://dc.lft.to/lastmile_qr_scan"}, "bike_id": "c6be05ccf04cb1b7d0156046c9eb7bc9", "lon": -77.0263245}, {"is_reserved": 0, "fusion_lon": 0.0, "fusion_lat": 0.0, "name": "79daa7b855414662ad18a4216b2f0162", "type": "electric_scooter", "is_disabled": 0, "lat": 38.927347, "rental_uris": {"android": "https://dc.lft.to/lastmile_qr_scan", "ios": "https://dc.lft.to/lastmile_qr_scan"}, "bike_id": "79daa7b855414662ad18a4216b2f0162", "lon": -77.03239833333333}, {"is_reserved": 0, "fusion_lon": 0.0, "fusion_lat": 0.0, "name": "1a042c3bb760a5bda5187dfaedbee502", "type": "electric_scooter", "is_disabled": 0, "lat": 38.92739133333333, "rental_uris": {"android": "https://dc.lft.to/lastmile_qr_scan", "ios": "https://dc.lft.to/lastmile_qr_scan"}, "bike_id": "1a042c3bb760a5bda5187dfaedbee502", "lon": -77.02531233333333}, {"is_reserved": 0, "fusion_lon": 0.0, "fusion_lat": 0.0, "name": "eddd08e18ef7b4982a4fab96ff007927", "type": "electric_scooter", "is_disabled": 0, "lat": 38.90014, "rental_uris": {"android": "https://dc.lft.to/lastmile_qr_scan", "ios": "https://dc.lft.to/lastmile_qr_scan"}, "bike_id": "eddd08e18ef7b4982a4fab96ff007927", "lon": -76.9869145}, {"is_reserved": 0, "fusion_lon": 0.0, "fusion_lat": 0.0, "name": "f146e3b91468bcb02e5a6bf5e6acfc18", "type": "electric_scooter", "is_disabled": 0, "lat": 38.88752383333333, "rental_uris": {"android": "https://dc.lft.to/lastmile_qr_scan", "ios": "https://dc.lft.to/lastmile_qr_scan"}, "bike_id": "f146e3b91468bcb02e5a6bf5e6acfc18", "lon": -76.9867705}, {"is_reserved": 0, "fusion_lon": 0.0, "fusion_lat": 0.0, "name": "a38b0c9c0b64613357e7b4269274b0a0", "type": "electric_scooter", "is_disabled": 0, "lat": 38.9243925, "rental_uris": {"android": "https://dc.lft.to/lastmile_qr_scan", "ios": "https://dc.lft.to/lastmile_qr_scan"}, "bike_id": "a38b0c9c0b64613357e7b4269274b0a0", "lon": -76.99582716666667}, {"is_reserved": 0, "fusion_lon": 0.0, "fusion_lat": 0.0, "name": "8201003a9dd5ff659049f20a20ab26f8", "type": "electric_scooter", "is_disabled": 0, "lat": 38.8431625, "rental_uris": {"android": "https://dc.lft.to/lastmile_qr_scan", "ios": "https://dc.lft.to/lastmile_qr_scan"}, "bike_id": "8201003a9dd5ff659049f20a20ab26f8", "lon": -76.99932016666666}, {"is_reserved": 0, "fusion_lon": 0.0, "fusion_lat": 0.0, "name": "e3c0227d30ec9c1415df8c2b433cefc9", "type": "electric_scooter", "is_disabled": 0, "lat": 38.9026885, "rental_uris": {"android": "https://dc.lft.to/lastmile_qr_scan", "ios": "https://dc.lft.to/lastmile_qr_scan"}, "bike_id": "e3c0227d30ec9c1415df8c2b433cefc9", "lon": -77.01780683333334}, {"is_reserved": 0, "fusion_lon": 0.0, "fusion_lat": 0.0, "name": "e11bc222c072ee4aa911157f777355c7", "type": "electric_scooter", "is_disabled": 0, "lat": 38.8971255, "rental_uris": {"android": "https://dc.lft.to/lastmile_qr_scan", "ios": "https://dc.lft.to/lastmile_qr_scan"}, "bike_id": "e11bc222c072ee4aa911157f777355c7", "lon": -77.03332483333334}, {"is_reserved": 0, "fusion_lon": 0.0, "fusion_lat": 0.0, "name": "62e9bfaf12cce6c831adb47c4c2c434a", "type": "electric_scooter", "is_disabled": 0, "lat": 38.924724499999996, "rental_uris": {"android": "https://dc.lft.to/lastmile_qr_scan", "ios": "https://dc.lft.to/lastmile_qr_scan"}, "bike_id": "62e9bfaf12cce6c831adb47c4c2c434a", "lon": -77.02154333333333}, {"is_reserved": 0, "fusion_lon": 0.0, "fusion_lat": 0.0, "name": "0cbec6139aeff79ab8fe54f54048aef6", "type": "electric_scooter", "is_disabled": 0, "lat": 38.945122, "rental_uris": {"android": "https://dc.lft.to/lastmile_qr_scan", "ios": "https://dc.lft.to/lastmile_qr_scan"}, "bike_id": "0cbec6139aeff79ab8fe54f54048aef6", "lon": -77.0745275}, {"is_reserved": 0, "fusion_lon": 0.0, "fusion_lat": 0.0, "name": "5a002e9ad8f6bdd00b6506e5b66ae427", "type": "electric_scooter", "is_disabled": 0, "lat": 38.908426166666665, "rental_uris": {"android": "https://dc.lft.to/lastmile_qr_scan", "ios": "https://dc.lft.to/lastmile_qr_scan"}, "bike_id": "5a002e9ad8f6bdd00b6506e5b66ae427", "lon": -77.06338633333333}, {"is_reserved": 0, "fusion_lon": 0.0, "fusion_lat": 0.0, "name": "819adf82a3747fa022b07318c1c91f0c", "type": "electric_bike", "is_disabled": 0, "lat": 39.0563085, "rental_uris": {"android": "https://dc.lft.to/lastmile_qr_scan", "ios": "https://dc.lft.to/lastmile_qr_scan"}, "bike_id": "819adf82a3747fa022b07318c1c91f0c", "lon": -77.12525466666666}, {"is_reserved": 0, "fusion_lon": 0.0, "fusion_lat": 0.0, "name": "158b69346f02480b0aaa379684339e79", "type": "electric_scooter", "is_disabled": 0, "lat": 38.91575866666667, "rental_uris": {"android": "https://dc.lft.to/lastmile_qr_scan", "ios": "https://dc.lft.to/lastmile_qr_scan"}, "bike_id": "158b69346f02480b0aaa379684339e79", "lon": -77.02406833333333}, {"is_reserved": 0, "fusion_lon": 0.0, "fusion_lat": 0.0, "name": "c79b0b0ee1e175eb408207bb1da389bd", "type": "electric_scooter", "is_disabled": 0, "lat": 38.918889166666666, "rental_uris": {"android": "https://dc.lft.to/lastmile_qr_scan", "ios": "https://dc.lft.to/lastmile_qr_scan"}, "bike_id": "c79b0b0ee1e175eb408207bb1da389bd", "lon": -77.02971183333334}, {"is_reserved": 0, "fusion_lon": 0.0, "fusion_lat": 0.0, "name": "e042050ac9ad2c2e5a580556e81284ca", "type": "electric_scooter", "is_disabled": 0, "lat": 38.89506683333333, "rental_uris": {"android": "https://dc.lft.to/lastmile_qr_scan", "ios": "https://dc.lft.to/lastmile_qr_scan"}, "bike_id": "e042050ac9ad2c2e5a580556e81284ca", "lon": -76.934758}, {"is_reserved": 0, "fusion_lon": 0.0, "fusion_lat": 0.0, "name": "0036922663ae3abf721a512f025ae994", "type": "electric_scooter", "is_disabled": 0, "lat": 38.9085695, "rental_uris": {"android": "https://dc.lft.to/lastmile_qr_scan", "ios": "https://dc.lft.to/lastmile_qr_scan"}, "bike_id": "0036922663ae3abf721a512f025ae994", "lon": -77.04302666666666}, {"is_reserved": 0, "fusion_lon": 0.0, "fusion_lat": 0.0, "name": "e2f9352447bf15ea86da0d31b348ee01", "type": "electric_scooter", "is_disabled": 0, "lat": 38.930944333333336, "rental_uris": {"android": "https://dc.lft.to/lastmile_qr_scan", "ios": "https://dc.lft.to/lastmile_qr_scan"}, "bike_id": "e2f9352447bf15ea86da0d31b348ee01", "lon": -77.036389}, {"is_reserved": 0, "fusion_lon": 0.0, "fusion_lat": 0.0, "name": "dd8d2db19582673f3c3f29d434f6027c", "type": "electric_scooter", "is_disabled": 0, "lat": 38.900053166666666, "rental_uris": {"android": "https://dc.lft.to/lastmile_qr_scan", "ios": "https://dc.lft.to/lastmile_qr_scan"}, "bike_id": "dd8d2db19582673f3c3f29d434f6027c", "lon": -76.998403}, {"is_reserved": 0, "fusion_lon": 0.0, "fusion_lat": 0.0, "name": "38792571752e5dd7561c228f04dc586f", "type": "electric_scooter", "is_disabled": 0, "lat": 38.887347166666665, "rental_uris": {"android": "https://dc.lft.to/lastmile_qr_scan", "ios": "https://dc.lft.to/lastmile_qr_scan"}, "bike_id": "38792571752e5dd7561c228f04dc586f", "lon": -77.01745016666666}, {"is_reserved": 0, "fusion_lon": 0.0, "fusion_lat": 0.0, "name": "e3909fd9a3b0d6ed873bb054f1b4e408", "type": "electric_scooter", "is_disabled": 0, "lat": 38.902464, "rental_uris": {"android": "https://dc.lft.to/lastmile_qr_scan", "ios": "https://dc.lft.to/lastmile_qr_scan"}, "bike_id": "e3909fd9a3b0d6ed873bb054f1b4e408", "lon": -76.98965016666666}, {"is_reserved": 0, "fusion_lon": 0.0, "fusion_lat": 0.0, "name": "0bf0d3fc5b2ff602643387f04c6e0657", "type": "electric_bike", "is_disabled": 0, "lat": 38.842765166666666, "rental_uris": {"android": "https://dc.lft.to/lastmile_qr_scan", "ios": "https://dc.lft.to/lastmile_qr_scan"}, "bike_id": "0bf0d3fc5b2ff602643387f04c6e0657", "lon": -76.9883865}, {"is_reserved": 0, "fusion_lon": 0.0, "fusion_lat": 0.0, "name": "090190c2d4decd1759701ade7cee2733", "type": "electric_scooter", "is_disabled": 0, "lat": 38.86358216666667, "rental_uris": {"android": "https://dc.lft.to/lastmile_qr_scan", "ios": "https://dc.lft.to/lastmile_qr_scan"}, "bike_id": "090190c2d4decd1759701ade7cee2733", "lon": -76.99066383333333}, {"is_reserved": 0, "fusion_lon": 0.0, "fusion_lat": 0.0, "name": "eded9dd82dd7a2a7ae0be4eda3181e18", "type": "electric_scooter", "is_disabled": 0, "lat": 38.908691166666664, "rental_uris": {"android": "https://dc.lft.to/lastmile_qr_scan", "ios": "https://dc.lft.to/lastmile_qr_scan"}, "bike_id": "eded9dd82dd7a2a7ae0be4eda3181e18", "lon": -77.00193266666666}, {"is_reserved": 0, "fusion_lon": 0.0, "fusion_lat": 0.0, "name": "206ebc846d9371d565c11f2697d26436", "type": "electric_scooter", "is_disabled": 0, "lat": 38.901316333333334, "rental_uris": {"android": "https://dc.lft.to/lastmile_qr_scan", "ios": "https://dc.lft.to/lastmile_qr_scan"}, "bike_id": "206ebc846d9371d565c11f2697d26436", "lon": -77.04017166666667}, {"is_reserved": 0, "fusion_lon": 0.0, "fusion_lat": 0.0, "name": "6fad11994c589ae8f525b0e2882da5fa", "type": "electric_scooter", "is_disabled": 0, "lat": 38.915481166666666, "rental_uris": {"android": "https://dc.lft.to/lastmile_qr_scan", "ios": "https://dc.lft.to/lastmile_qr_scan"}, "bike_id": "6fad11994c589ae8f525b0e2882da5fa", "lon": -77.02369016666667}, {"is_reserved": 0, "fusion_lon": 0.0, "fusion_lat": 0.0, "name": "08227a159e163c5c27e55553256099fb", "type": "electric_scooter", "is_disabled": 0, "lat": 38.90982783333333, "rental_uris": {"android": "https://dc.lft.to/lastmile_qr_scan", "ios": "https://dc.lft.to/lastmile_qr_scan"}, "bike_id": "08227a159e163c5c27e55553256099fb", "lon": -77.03388283333334}, {"is_reserved": 0, "fusion_lon": 0.0, "fusion_lat": 0.0, "name": "689a3e5796c63824a75b56590dcbf7bf", "type": "electric_scooter", "is_disabled": 0, "lat": 38.92117416666667, "rental_uris": {"android": "https://dc.lft.to/lastmile_qr_scan", "ios": "https://dc.lft.to/lastmile_qr_scan"}, "bike_id": "689a3e5796c63824a75b56590dcbf7bf", "lon": -77.03186583333333}, {"is_reserved": 0, "fusion_lon": 0.0, "fusion_lat": 0.0, "name": "e9ddc295f7858fe3c5c9b59181cd9fe6", "type": "electric_scooter", "is_disabled": 0, "lat": 38.90143833333333, "rental_uris": {"android": "https://dc.lft.to/lastmile_qr_scan", "ios": "https://dc.lft.to/lastmile_qr_scan"}, "bike_id": "e9ddc295f7858fe3c5c9b59181cd9fe6", "lon": -77.039635}, {"is_reserved": 0, "fusion_lon": 0.0, "fusion_lat": 0.0, "name": "b1652ad906092d5a3e2cada741330c31", "type": "electric_bike", "is_disabled": 0, "lat": 38.954382833333334, "rental_uris": {"android": "https://dc.lft.to/lastmile_qr_scan", "ios": "https://dc.lft.to/lastmile_qr_scan"}, "bike_id": "b1652ad906092d5a3e2cada741330c31", "lon": -76.98911216666667}, {"is_reserved": 0, "fusion_lon": 0.0, "fusion_lat": 0.0, "name": "cc3f8a2309dcc757fb008ee62603d12b", "type": "electric_scooter", "is_disabled": 0, "lat": 38.9044645, "rental_uris": {"android": "https://dc.lft.to/lastmile_qr_scan", "ios": "https://dc.lft.to/lastmile_qr_scan"}, "bike_id": "cc3f8a2309dcc757fb008ee62603d12b", "lon": -77.04352766666666}, {"is_reserved": 0, "fusion_lon": 0.0, "fusion_lat": 0.0, "name": "076bd2ca5fa4039d3726e72eb5666bee", "type": "electric_scooter", "is_disabled": 0, "lat": 38.91677116666666, "rental_uris": {"android": "https://dc.lft.to/lastmile_qr_scan", "ios": "https://dc.lft.to/lastmile_qr_scan"}, "bike_id": "076bd2ca5fa4039d3726e72eb5666bee", "lon": -77.03686966666666}, {"is_reserved": 0, "fusion_lon": 0.0, "fusion_lat": 0.0, "name": "7962b3ba4cda48dbbeffdd73bd1b52a1", "type": "electric_bike", "is_disabled": 0, "lat": 38.864898, "rental_uris": {"android": "https://dc.lft.to/lastmile_qr_scan", "ios": "https://dc.lft.to/lastmile_qr_scan"}, "bike_id": "7962b3ba4cda48dbbeffdd73bd1b52a1", "lon": -76.97745683333333}, {"is_reserved": 0, "fusion_lon": 0.0, "fusion_lat": 0.0, "name": "a68c2cf79d324518f6d42c0e4b380506", "type": "electric_bike", "is_disabled": 0, "lat": 38.9316575, "rental_uris": {"android": "https://dc.lft.to/lastmile_qr_scan", "ios": "https://dc.lft.to/lastmile_qr_scan"}, "bike_id": "a68c2cf79d324518f6d42c0e4b380506", "lon": -76.88398833333333}, {"is_reserved": 0, "fusion_lon": 0.0, "fusion_lat": 0.0, "name": "5c328c82fe019aa6260f4784d6903062", "type": "electric_scooter", "is_disabled": 0, "lat": 38.92161216666667, "rental_uris": {"android": "https://dc.lft.to/lastmile_qr_scan", "ios": "https://dc.lft.to/lastmile_qr_scan"}, "bike_id": "5c328c82fe019aa6260f4784d6903062", "lon": -77.04221883333334}, {"is_reserved": 0, "fusion_lon": 0.0, "fusion_lat": 0.0, "name": "e7c7c95c76680687dc3693fd5abfc9b9", "type": "electric_bike", "is_disabled": 0, "lat": 38.92968, "rental_uris": {"android": "https://dc.lft.to/lastmile_qr_scan", "ios": "https://dc.lft.to/lastmile_qr_scan"}, "bike_id": "e7c7c95c76680687dc3693fd5abfc9b9", "lon": -77.18560166666667}, {"is_reserved": 0, "fusion_lon": 0.0, "fusion_lat": 0.0, "name": "1269cf0200c309daa3d0fc7b870eb4a6", "type": "electric_scooter", "is_disabled": 0, "lat": 38.912894333333334, "rental_uris": {"android": "https://dc.lft.to/lastmile_qr_scan", "ios": "https://dc.lft.to/lastmile_qr_scan"}, "bike_id": "1269cf0200c309daa3d0fc7b870eb4a6", "lon": -77.01975616666667}, {"is_reserved": 0, "fusion_lon": 0.0, "fusion_lat": 0.0, "name": "2f94f9533b90461ef31af7559f9e35ea", "type": "electric_scooter", "is_disabled": 0, "lat": 38.9179555, "rental_uris": {"android": "https://dc.lft.to/lastmile_qr_scan", "ios": "https://dc.lft.to/lastmile_qr_scan"}, "bike_id": "2f94f9533b90461ef31af7559f9e35ea", "lon": -77.034509}, {"is_reserved": 0, "fusion_lon": 0.0, "fusion_lat": 0.0, "name": "54e08b0df236b4cb95d6285b49e61d97", "type": "electric_scooter", "is_disabled": 0, "lat": 38.8860995, "rental_uris": {"android": "https://dc.lft.to/lastmile_qr_scan", "ios": "https://dc.lft.to/lastmile_qr_scan"}, "bike_id": "54e08b0df236b4cb95d6285b49e61d97", "lon": -76.995149}, {"is_reserved": 0, "fusion_lon": 0.0, "fusion_lat": 0.0, "name": "052dfae7eff6bd3871ad7cb4857b8c9b", "type": "electric_bike", "is_disabled": 0, "lat": 39.054999333333335, "rental_uris": {"android": "https://dc.lft.to/lastmile_qr_scan", "ios": "https://dc.lft.to/lastmile_qr_scan"}, "bike_id": "052dfae7eff6bd3871ad7cb4857b8c9b", "lon": -77.0464905}, {"is_reserved": 0, "fusion_lon": 0.0, "fusion_lat": 0.0, "name": "02fa8e7043385f3e8da840954fb7dd60", "type": "electric_scooter", "is_disabled": 0, "lat": 38.9191745, "rental_uris": {"android": "https://dc.lft.to/lastmile_qr_scan", "ios": "https://dc.lft.to/lastmile_qr_scan"}, "bike_id": "02fa8e7043385f3e8da840954fb7dd60", "lon": -77.04170516666667}, {"is_reserved": 0, "fusion_lon": 0.0, "fusion_lat": 0.0, "name": "a34bf1055c106d0e44bd06209f368add", "type": "electric_scooter", "is_disabled": 0, "lat": 38.905275333333336, "rental_uris": {"android": "https://dc.lft.to/lastmile_qr_scan", "ios": "https://dc.lft.to/lastmile_qr_scan"}, "bike_id": "a34bf1055c106d0e44bd06209f368add", "lon": -77.06437333333334}, {"is_reserved": 0, "fusion_lon": 0.0, "fusion_lat": 0.0, "name": "a4c44b0f305570e6d1621dd6898501fc", "type": "electric_scooter", "is_disabled": 0, "lat": 38.89946466666667, "rental_uris": {"android": "https://dc.lft.to/lastmile_qr_scan", "ios": "https://dc.lft.to/lastmile_qr_scan"}, "bike_id": "a4c44b0f305570e6d1621dd6898501fc", "lon": -77.02108916666667}, {"is_reserved": 0, "fusion_lon": 0.0, "fusion_lat": 0.0, "name": "2869706d48f97e81cd331ed1f397b4e2", "type": "electric_scooter", "is_disabled": 0, "lat": 38.905063166666665, "rental_uris": {"android": "https://dc.lft.to/lastmile_qr_scan", "ios": "https://dc.lft.to/lastmile_qr_scan"}, "bike_id": "2869706d48f97e81cd331ed1f397b4e2", "lon": -76.98486483333333}, {"is_reserved": 0, "fusion_lon": 0.0, "fusion_lat": 0.0, "name": "aa346ee4828f2f9f7fc14a415a92e93c", "type": "electric_scooter", "is_disabled": 0, "lat": 38.930195166666664, "rental_uris": {"android": "https://dc.lft.to/lastmile_qr_scan", "ios": "https://dc.lft.to/lastmile_qr_scan"}, "bike_id": "aa346ee4828f2f9f7fc14a415a92e93c", "lon": -77.0279415}, {"is_reserved": 0, "fusion_lon": 0.0, "fusion_lat": 0.0, "name": "640fd265ddb384254bc10c901dba0866", "type": "electric_scooter", "is_disabled": 0, "lat": 38.92364083333333, "rental_uris": {"android": "https://dc.lft.to/lastmile_qr_scan", "ios": "https://dc.lft.to/lastmile_qr_scan"}, "bike_id": "640fd265ddb384254bc10c901dba0866", "lon": -77.05049066666666}, {"is_reserved": 0, "fusion_lon": 0.0, "fusion_lat": 0.0, "name": "2f272f92a636f092450a84f7eec8370f", "type": "electric_bike", "is_disabled": 0, "lat": 38.8278355, "rental_uris": {"android": "https://dc.lft.to/lastmile_qr_scan", "ios": "https://dc.lft.to/lastmile_qr_scan"}, "bike_id": "2f272f92a636f092450a84f7eec8370f", "lon": -77.00919183333333}, {"is_reserved": 0, "fusion_lon": 0.0, "fusion_lat": 0.0, "name": "f2f2c2084bb996bdedc562c635f09164", "type": "electric_scooter", "is_disabled": 0, "lat": 38.879815, "rental_uris": {"android": "https://dc.lft.to/lastmile_qr_scan", "ios": "https://dc.lft.to/lastmile_qr_scan"}, "bike_id": "f2f2c2084bb996bdedc562c635f09164", "lon": -77.015305}, {"is_reserved": 0, "fusion_lon": 0.0, "fusion_lat": 0.0, "name": "1e367a7a833398e8f6120b11f0f9dad2", "type": "electric_scooter", "is_disabled": 0, "lat": 38.90366233333334, "rental_uris": {"android": "https://dc.lft.to/lastmile_qr_scan", "ios": "https://dc.lft.to/lastmile_qr_scan"}, "bike_id": "1e367a7a833398e8f6120b11f0f9dad2", "lon": -77.009837}, {"is_reserved": 0, "fusion_lon": 0.0, "fusion_lat": 0.0, "name": "e35597131a997ca5658a293e829c96c7", "type": "electric_scooter", "is_disabled": 0, "lat": 38.90506883333333, "rental_uris": {"android": "https://dc.lft.to/lastmile_qr_scan", "ios": "https://dc.lft.to/lastmile_qr_scan"}, "bike_id": "e35597131a997ca5658a293e829c96c7", "lon": -77.05807366666667}, {"is_reserved": 0, "fusion_lon": 0.0, "fusion_lat": 0.0, "name": "90dc566229a7d1af898e1b8b96bd15c5", "type": "electric_scooter", "is_disabled": 0, "lat": 38.926662666666665, "rental_uris": {"android": "https://dc.lft.to/lastmile_qr_scan", "ios": "https://dc.lft.to/lastmile_qr_scan"}, "bike_id": "90dc566229a7d1af898e1b8b96bd15c5", "lon": -77.02281433333333}, {"is_reserved": 0, "fusion_lon": 0.0, "fusion_lat": 0.0, "name": "4ad56882c094a42d14fa5fc4a23cac9f", "type": "electric_bike", "is_disabled": 0, "lat": 38.81204816666666, "rental_uris": {"android": "https://dc.lft.to/lastmile_qr_scan", "ios": "https://dc.lft.to/lastmile_qr_scan"}, "bike_id": "4ad56882c094a42d14fa5fc4a23cac9f", "lon": -77.10839166666666}, {"is_reserved": 0, "fusion_lon": 0.0, "fusion_lat": 0.0, "name": "dda31a69be176cf29bd81aa7e7cf00fe", "type": "electric_scooter", "is_disabled": 0, "lat": 38.91658416666667, "rental_uris": {"android": "https://dc.lft.to/lastmile_qr_scan", "ios": "https://dc.lft.to/lastmile_qr_scan"}, "bike_id": "dda31a69be176cf29bd81aa7e7cf00fe", "lon": -77.038554}, {"is_reserved": 0, "fusion_lon": 0.0, "fusion_lat": 0.0, "name": "b5efd946ffd20a6f0e8f56e31a831992", "type": "electric_scooter", "is_disabled": 0, "lat": 38.89307766666667, "rental_uris": {"android": "https://dc.lft.to/lastmile_qr_scan", "ios": "https://dc.lft.to/lastmile_qr_scan"}, "bike_id": "b5efd946ffd20a6f0e8f56e31a831992", "lon": -76.92921466666667}, {"is_reserved": 0, "fusion_lon": 0.0, "fusion_lat": 0.0, "name": "745a986f9fdeecbe52dff1089e8f108d", "type": "electric_scooter", "is_disabled": 0, "lat": 38.90020416666667, "rental_uris": {"android": "https://dc.lft.to/lastmile_qr_scan", "ios": "https://dc.lft.to/lastmile_qr_scan"}, "bike_id": "745a986f9fdeecbe52dff1089e8f108d", "lon": -76.999936}, {"is_reserved": 0, "fusion_lon": 0.0, "fusion_lat": 0.0, "name": "f224852204f824eb80d1dbe7ea932d35", "type": "electric_bike", "is_disabled": 0, "lat": 38.948919, "rental_uris": {"android": "https://dc.lft.to/lastmile_qr_scan", "ios": "https://dc.lft.to/lastmile_qr_scan"}, "bike_id": "f224852204f824eb80d1dbe7ea932d35", "lon": -77.03446333333333}, {"is_reserved": 0, "fusion_lon": 0.0, "fusion_lat": 0.0, "name": "ef1ee51f03015cadd48ada57f0d9155b", "type": "electric_scooter", "is_disabled": 0, "lat": 38.89767916666667, "rental_uris": {"android": "https://dc.lft.to/lastmile_qr_scan", "ios": "https://dc.lft.to/lastmile_qr_scan"}, "bike_id": "ef1ee51f03015cadd48ada57f0d9155b", "lon": -77.03369433333333}, {"is_reserved": 0, "fusion_lon": 0.0, "fusion_lat": 0.0, "name": "c0603094025a1c9dba811fe966bb7aa1", "type": "electric_bike", "is_disabled": 0, "lat": 38.971303166666665, "rental_uris": {"android": "https://dc.lft.to/lastmile_qr_scan", "ios": "https://dc.lft.to/lastmile_qr_scan"}, "bike_id": "c0603094025a1c9dba811fe966bb7aa1", "lon": -77.0316485}, {"is_reserved": 0, "fusion_lon": 0.0, "fusion_lat": 0.0, "name": "38294e988fd513d6ac7e55ff4f21756c", "type": "electric_scooter", "is_disabled": 0, "lat": 38.901107, "rental_uris": {"android": "https://dc.lft.to/lastmile_qr_scan", "ios": "https://dc.lft.to/lastmile_qr_scan"}, "bike_id": "38294e988fd513d6ac7e55ff4f21756c", "lon": -77.04019333333333}, {"is_reserved": 0, "fusion_lon": 0.0, "fusion_lat": 0.0, "name": "76dd9a7c1244d255b5992a3ef6865b89", "type": "electric_scooter", "is_disabled": 0, "lat": 38.92387266666667, "rental_uris": {"android": "https://dc.lft.to/lastmile_qr_scan", "ios": "https://dc.lft.to/lastmile_qr_scan"}, "bike_id": "76dd9a7c1244d255b5992a3ef6865b89", "lon": -77.03658333333334}, {"is_reserved": 0, "fusion_lon": 0.0, "fusion_lat": 0.0, "name": "41f71e6c2f825c7417f281336839e487", "type": "electric_scooter", "is_disabled": 0, "lat": 38.910990166666664, "rental_uris": {"android": "https://dc.lft.to/lastmile_qr_scan", "ios": "https://dc.lft.to/lastmile_qr_scan"}, "bike_id": "41f71e6c2f825c7417f281336839e487", "lon": -77.02803666666667}, {"is_reserved": 0, "fusion_lon": 0.0, "fusion_lat": 0.0, "name": "4c7751734305b9ed693809f8c8b73bd2", "type": "electric_scooter", "is_disabled": 0, "lat": 38.876854, "rental_uris": {"android": "https://dc.lft.to/lastmile_qr_scan", "ios": "https://dc.lft.to/lastmile_qr_scan"}, "bike_id": "4c7751734305b9ed693809f8c8b73bd2", "lon": -77.0041425}, {"is_reserved": 0, "fusion_lon": 0.0, "fusion_lat": 0.0, "name": "0886f251cba30c05ff69dfcf3b2775dd", "type": "electric_scooter", "is_disabled": 0, "lat": 38.90205183333333, "rental_uris": {"android": "https://dc.lft.to/lastmile_qr_scan", "ios": "https://dc.lft.to/lastmile_qr_scan"}, "bike_id": "0886f251cba30c05ff69dfcf3b2775dd", "lon": -77.04811383333333}, {"is_reserved": 0, "fusion_lon": 0.0, "fusion_lat": 0.0, "name": "9cc9f5de525d9ea112ce5ea7fc9c5b04", "type": "electric_bike", "is_disabled": 0, "lat": 38.916919666666665, "rental_uris": {"android": "https://dc.lft.to/lastmile_qr_scan", "ios": "https://dc.lft.to/lastmile_qr_scan"}, "bike_id": "9cc9f5de525d9ea112ce5ea7fc9c5b04", "lon": -77.03143283333333}, {"is_reserved": 0, "fusion_lon": 0.0, "fusion_lat": 0.0, "name": "89766a6c96e8cff18a5af6f00e29b6c5", "type": "electric_scooter", "is_disabled": 0, "lat": 38.885636833333336, "rental_uris": {"android": "https://dc.lft.to/lastmile_qr_scan", "ios": "https://dc.lft.to/lastmile_qr_scan"}, "bike_id": "89766a6c96e8cff18a5af6f00e29b6c5", "lon": -76.99790383333334}, {"is_reserved": 0, "fusion_lon": 0.0, "fusion_lat": 0.0, "name": "e2b2ba0a7b92efd46bc6095089709bef", "type": "electric_bike", "is_disabled": 0, "lat": 39.050514666666665, "rental_uris": {"android": "https://dc.lft.to/lastmile_qr_scan", "ios": "https://dc.lft.to/lastmile_qr_scan"}, "bike_id": "e2b2ba0a7b92efd46bc6095089709bef", "lon": -77.05151483333333}, {"is_reserved": 0, "fusion_lon": 0.0, "fusion_lat": 0.0, "name": "301accb3d3ddc38bb75fad63807da09b", "type": "electric_scooter", "is_disabled": 0, "lat": 38.91296883333333, "rental_uris": {"android": "https://dc.lft.to/lastmile_qr_scan", "ios": "https://dc.lft.to/lastmile_qr_scan"}, "bike_id": "301accb3d3ddc38bb75fad63807da09b", "lon": -77.04553166666666}, {"is_reserved": 0, "fusion_lon": 0.0, "fusion_lat": 0.0, "name": "66a3ca978d56c2abd62495e3d6df7f34", "type": "electric_scooter", "is_disabled": 0, "lat": 38.91759183333333, "rental_uris": {"android": "https://dc.lft.to/lastmile_qr_scan", "ios": "https://dc.lft.to/lastmile_qr_scan"}, "bike_id": "66a3ca978d56c2abd62495e3d6df7f34", "lon": -77.03199833333333}, {"is_reserved": 0, "fusion_lon": 0.0, "fusion_lat": 0.0, "name": "b6cf80aa8df65260115cabeb9e0a62e6", "type": "electric_scooter", "is_disabled": 0, "lat": 38.933745333333334, "rental_uris": {"android": "https://dc.lft.to/lastmile_qr_scan", "ios": "https://dc.lft.to/lastmile_qr_scan"}, "bike_id": "b6cf80aa8df65260115cabeb9e0a62e6", "lon": -77.05729083333334}, {"is_reserved": 0, "fusion_lon": 0.0, "fusion_lat": 0.0, "name": "43b0935af462033638d0569a43311838", "type": "electric_bike", "is_disabled": 0, "lat": 38.832354, "rental_uris": {"android": "https://dc.lft.to/lastmile_qr_scan", "ios": "https://dc.lft.to/lastmile_qr_scan"}, "bike_id": "43b0935af462033638d0569a43311838", "lon": -76.94620083333334}, {"is_reserved": 0, "fusion_lon": 0.0, "fusion_lat": 0.0, "name": "e22baf507f08bf77d38fbf21d656ebeb", "type": "electric_scooter", "is_disabled": 0, "lat": 38.901636333333336, "rental_uris": {"android": "https://dc.lft.to/lastmile_qr_scan", "ios": "https://dc.lft.to/lastmile_qr_scan"}, "bike_id": "e22baf507f08bf77d38fbf21d656ebeb", "lon": -77.02305533333333}, {"is_reserved": 0, "fusion_lon": 0.0, "fusion_lat": 0.0, "name": "665e5fb6549370a5edddc6091cb30088", "type": "electric_scooter", "is_disabled": 0, "lat": 38.90409483333333, "rental_uris": {"android": "https://dc.lft.to/lastmile_qr_scan", "ios": "https://dc.lft.to/lastmile_qr_scan"}, "bike_id": "665e5fb6549370a5edddc6091cb30088", "lon": -76.97332433333334}, {"is_reserved": 0, "fusion_lon": 0.0, "fusion_lat": 0.0, "name": "de3298a80c4d8e8e5966aa101346075d", "type": "electric_scooter", "is_disabled": 0, "lat": 38.898513333333334, "rental_uris": {"android": "https://dc.lft.to/lastmile_qr_scan", "ios": "https://dc.lft.to/lastmile_qr_scan"}, "bike_id": "de3298a80c4d8e8e5966aa101346075d", "lon": -76.98177166666666}, {"is_reserved": 0, "fusion_lon": 0.0, "fusion_lat": 0.0, "name": "6038e823e9e14c6e258bfed597fef0d7", "type": "electric_scooter", "is_disabled": 0, "lat": 38.883325666666664, "rental_uris": {"android": "https://dc.lft.to/lastmile_qr_scan", "ios": "https://dc.lft.to/lastmile_qr_scan"}, "bike_id": "6038e823e9e14c6e258bfed597fef0d7", "lon": -77.016756}, {"is_reserved": 0, "fusion_lon": 0.0, "fusion_lat": 0.0, "name": "081b33c04881bf3f6a6868f5b91f2846", "type": "electric_scooter", "is_disabled": 0, "lat": 38.943116333333336, "rental_uris": {"android": "https://dc.lft.to/lastmile_qr_scan", "ios": "https://dc.lft.to/lastmile_qr_scan"}, "bike_id": "081b33c04881bf3f6a6868f5b91f2846", "lon": -77.05930233333333}, {"is_reserved": 0, "fusion_lon": 0.0, "fusion_lat": 0.0, "name": "54fc0cce7a4c113d8ccdf29d77b349bc", "type": "electric_scooter", "is_disabled": 0, "lat": 38.91079166666667, "rental_uris": {"android": "https://dc.lft.to/lastmile_qr_scan", "ios": "https://dc.lft.to/lastmile_qr_scan"}, "bike_id": "54fc0cce7a4c113d8ccdf29d77b349bc", "lon": -77.06546716666666}, {"is_reserved": 0, "fusion_lon": 0.0, "fusion_lat": 0.0, "name": "ef1debeba674c3aec814415347b6b0d0", "type": "electric_scooter", "is_disabled": 0, "lat": 38.8818145, "rental_uris": {"android": "https://dc.lft.to/lastmile_qr_scan", "ios": "https://dc.lft.to/lastmile_qr_scan"}, "bike_id": "ef1debeba674c3aec814415347b6b0d0", "lon": -77.03574133333333}, {"is_reserved": 0, "fusion_lon": 0.0, "fusion_lat": 0.0, "name": "eea82193674271088a69a39aa6b4da5e", "type": "electric_bike", "is_disabled": 0, "lat": 38.85324266666667, "rental_uris": {"android": "https://dc.lft.to/lastmile_qr_scan", "ios": "https://dc.lft.to/lastmile_qr_scan"}, "bike_id": "eea82193674271088a69a39aa6b4da5e", "lon": -76.980195}, {"is_reserved": 0, "fusion_lon": 0.0, "fusion_lat": 0.0, "name": "7a47834dfd91d670223cfd940b1304e6", "type": "electric_scooter", "is_disabled": 0, "lat": 38.900019, "rental_uris": {"android": "https://dc.lft.to/lastmile_qr_scan", "ios": "https://dc.lft.to/lastmile_qr_scan"}, "bike_id": "7a47834dfd91d670223cfd940b1304e6", "lon": -77.0335135}, {"is_reserved": 0, "fusion_lon": 0.0, "fusion_lat": 0.0, "name": "938967729b1e65fa453eb0f421051a49", "type": "electric_scooter", "is_disabled": 0, "lat": 38.895347, "rental_uris": {"android": "https://dc.lft.to/lastmile_qr_scan", "ios": "https://dc.lft.to/lastmile_qr_scan"}, "bike_id": "938967729b1e65fa453eb0f421051a49", "lon": -77.032578}, {"is_reserved": 0, "fusion_lon": 0.0, "fusion_lat": 0.0, "name": "7b652e096c4571ba2e65da02cd69544b", "type": "electric_scooter", "is_disabled": 0, "lat": 38.921609333333336, "rental_uris": {"android": "https://dc.lft.to/lastmile_qr_scan", "ios": "https://dc.lft.to/lastmile_qr_scan"}, "bike_id": "7b652e096c4571ba2e65da02cd69544b", "lon": -77.04234933333333}, {"is_reserved": 0, "fusion_lon": 0.0, "fusion_lat": 0.0, "name": "1b4be52a22ab74ff0ea75ff09f0e32b3", "type": "electric_scooter", "is_disabled": 0, "lat": 38.90068566666667, "rental_uris": {"android": "https://dc.lft.to/lastmile_qr_scan", "ios": "https://dc.lft.to/lastmile_qr_scan"}, "bike_id": "1b4be52a22ab74ff0ea75ff09f0e32b3", "lon": -77.01343633333333}, {"is_reserved": 0, "fusion_lon": 0.0, "fusion_lat": 0.0, "name": "68d891997de17f30f9cf63774adcf5ad", "type": "electric_bike", "is_disabled": 0, "lat": 38.8075305, "rental_uris": {"android": "https://dc.lft.to/lastmile_qr_scan", "ios": "https://dc.lft.to/lastmile_qr_scan"}, "bike_id": "68d891997de17f30f9cf63774adcf5ad", "lon": -77.094487}, {"is_reserved": 0, "fusion_lon": 0.0, "fusion_lat": 0.0, "name": "ba3f57025a3eb6839716d26aa0495e00", "type": "electric_scooter", "is_disabled": 0, "lat": 38.886166333333335, "rental_uris": {"android": "https://dc.lft.to/lastmile_qr_scan", "ios": "https://dc.lft.to/lastmile_qr_scan"}, "bike_id": "ba3f57025a3eb6839716d26aa0495e00", "lon": -76.9558435}, {"is_reserved": 0, "fusion_lon": 0.0, "fusion_lat": 0.0, "name": "dd9720ed33599f12fedc51e70b2b273b", "type": "electric_scooter", "is_disabled": 0, "lat": 38.8669845, "rental_uris": {"android": "https://dc.lft.to/lastmile_qr_scan", "ios": "https://dc.lft.to/lastmile_qr_scan"}, "bike_id": "dd9720ed33599f12fedc51e70b2b273b", "lon": -76.9859525}, {"is_reserved": 0, "fusion_lon": 0.0, "fusion_lat": 0.0, "name": "450b9e5c027400c3795fa46cd6589c78", "type": "electric_scooter", "is_disabled": 0, "lat": 38.898251333333334, "rental_uris": {"android": "https://dc.lft.to/lastmile_qr_scan", "ios": "https://dc.lft.to/lastmile_qr_scan"}, "bike_id": "450b9e5c027400c3795fa46cd6589c78", "lon": -77.04646933333333}, {"is_reserved": 0, "fusion_lon": 0.0, "fusion_lat": 0.0, "name": "7ccdac5e06f8ce334f3547de279c919e", "type": "electric_scooter", "is_disabled": 0, "lat": 38.90549983333333, "rental_uris": {"android": "https://dc.lft.to/lastmile_qr_scan", "ios": "https://dc.lft.to/lastmile_qr_scan"}, "bike_id": "7ccdac5e06f8ce334f3547de279c919e", "lon": -77.03445833333333}, {"is_reserved": 0, "fusion_lon": 0.0, "fusion_lat": 0.0, "name": "b07b09480c1065610aaec93b0df17b47", "type": "electric_scooter", "is_disabled": 0, "lat": 38.887377666666666, "rental_uris": {"android": "https://dc.lft.to/lastmile_qr_scan", "ios": "https://dc.lft.to/lastmile_qr_scan"}, "bike_id": "b07b09480c1065610aaec93b0df17b47", "lon": -77.02826133333333}, {"is_reserved": 0, "fusion_lon": 0.0, "fusion_lat": 0.0, "name": "0779e856ea7c8000f927d9262bf8aa82", "type": "electric_bike", "is_disabled": 0, "lat": 38.9417075, "rental_uris": {"android": "https://dc.lft.to/lastmile_qr_scan", "ios": "https://dc.lft.to/lastmile_qr_scan"}, "bike_id": "0779e856ea7c8000f927d9262bf8aa82", "lon": -76.99257533333333}, {"is_reserved": 0, "fusion_lon": 0.0, "fusion_lat": 0.0, "name": "9c1e02fb7ea0f5c197b0e11ff9462e93", "type": "electric_scooter", "is_disabled": 0, "lat": 38.9000565, "rental_uris": {"android": "https://dc.lft.to/lastmile_qr_scan", "ios": "https://dc.lft.to/lastmile_qr_scan"}, "bike_id": "9c1e02fb7ea0f5c197b0e11ff9462e93", "lon": -77.0436035}, {"is_reserved": 0, "fusion_lon": 0.0, "fusion_lat": 0.0, "name": "348f5ac1c435c2ce832648f98a772aa9", "type": "electric_scooter", "is_disabled": 0, "lat": 38.92880366666667, "rental_uris": {"android": "https://dc.lft.to/lastmile_qr_scan", "ios": "https://dc.lft.to/lastmile_qr_scan"}, "bike_id": "348f5ac1c435c2ce832648f98a772aa9", "lon": -77.01440416666667}, {"is_reserved": 0, "fusion_lon": 0.0, "fusion_lat": 0.0, "name": "de4e9d3d7beffcd4784ffbced8b4426d", "type": "electric_scooter", "is_disabled": 0, "lat": 38.89227666666667, "rental_uris": {"android": "https://dc.lft.to/lastmile_qr_scan", "ios": "https://dc.lft.to/lastmile_qr_scan"}, "bike_id": "de4e9d3d7beffcd4784ffbced8b4426d", "lon": -77.03373066666667}, {"is_reserved": 0, "fusion_lon": 0.0, "fusion_lat": 0.0, "name": "44dcc3931e7a2eb2c08d22bf3b60ce2b", "type": "electric_scooter", "is_disabled": 0, "lat": 38.95747166666666, "rental_uris": {"android": "https://dc.lft.to/lastmile_qr_scan", "ios": "https://dc.lft.to/lastmile_qr_scan"}, "bike_id": "44dcc3931e7a2eb2c08d22bf3b60ce2b", "lon": -77.0206825}, {"is_reserved": 0, "fusion_lon": 0.0, "fusion_lat": 0.0, "name": "cbd74f8df8986b660ff9d714e5d44d5a", "type": "electric_scooter", "is_disabled": 0, "lat": 38.891928166666666, "rental_uris": {"android": "https://dc.lft.to/lastmile_qr_scan", "ios": "https://dc.lft.to/lastmile_qr_scan"}, "bike_id": "cbd74f8df8986b660ff9d714e5d44d5a", "lon": -76.98857116666667}, {"is_reserved": 0, "fusion_lon": 0.0, "fusion_lat": 0.0, "name": "e8458329c9f0292fbe3e3f5bbc48e95f", "type": "electric_scooter", "is_disabled": 0, "lat": 38.925717, "rental_uris": {"android": "https://dc.lft.to/lastmile_qr_scan", "ios": "https://dc.lft.to/lastmile_qr_scan"}, "bike_id": "e8458329c9f0292fbe3e3f5bbc48e95f", "lon": -77.039111}, {"is_reserved": 0, "fusion_lon": 0.0, "fusion_lat": 0.0, "name": "263f64c63e9485a104fe8152bc2f7ac9", "type": "electric_scooter", "is_disabled": 0, "lat": 38.866617166666664, "rental_uris": {"android": "https://dc.lft.to/lastmile_qr_scan", "ios": "https://dc.lft.to/lastmile_qr_scan"}, "bike_id": "263f64c63e9485a104fe8152bc2f7ac9", "lon": -76.9888195}, {"is_reserved": 0, "fusion_lon": 0.0, "fusion_lat": 0.0, "name": "0c67fca17d5317dcae2fa04cfbbff690", "type": "electric_scooter", "is_disabled": 0, "lat": 38.89716583333333, "rental_uris": {"android": "https://dc.lft.to/lastmile_qr_scan", "ios": "https://dc.lft.to/lastmile_qr_scan"}, "bike_id": "0c67fca17d5317dcae2fa04cfbbff690", "lon": -76.97343}, {"is_reserved": 0, "fusion_lon": 0.0, "fusion_lat": 0.0, "name": "2f981962c7b4d5a230aad5a9f8eef5d6", "type": "electric_scooter", "is_disabled": 0, "lat": 38.92206066666667, "rental_uris": {"android": "https://dc.lft.to/lastmile_qr_scan", "ios": "https://dc.lft.to/lastmile_qr_scan"}, "bike_id": "2f981962c7b4d5a230aad5a9f8eef5d6", "lon": -77.02026316666667}, {"is_reserved": 0, "fusion_lon": 0.0, "fusion_lat": 0.0, "name": "db3a95d1d587a387e83bbda16097e7bd", "type": "electric_bike", "is_disabled": 0, "lat": 38.922201, "rental_uris": {"android": "https://dc.lft.to/lastmile_qr_scan", "ios": "https://dc.lft.to/lastmile_qr_scan"}, "bike_id": "db3a95d1d587a387e83bbda16097e7bd", "lon": -76.98801916666666}, {"is_reserved": 0, "fusion_lon": 0.0, "fusion_lat": 0.0, "name": "529ac55ef2d8be0c378693619296658e", "type": "electric_scooter", "is_disabled": 0, "lat": 38.8827385, "rental_uris": {"android": "https://dc.lft.to/lastmile_qr_scan", "ios": "https://dc.lft.to/lastmile_qr_scan"}, "bike_id": "529ac55ef2d8be0c378693619296658e", "lon": -76.99014}, {"is_reserved": 0, "fusion_lon": 0.0, "fusion_lat": 0.0, "name": "3bbf037e06e330a896483101e5a7bd88", "type": "electric_scooter", "is_disabled": 0, "lat": 38.93056133333333, "rental_uris": {"android": "https://dc.lft.to/lastmile_qr_scan", "ios": "https://dc.lft.to/lastmile_qr_scan"}, "bike_id": "3bbf037e06e330a896483101e5a7bd88", "lon": -77.02333233333333}, {"is_reserved": 0, "fusion_lon": 0.0, "fusion_lat": 0.0, "name": "01e4f4f48af1818fe900ee4d600420ea", "type": "electric_bike", "is_disabled": 0, "lat": 38.983648333333335, "rental_uris": {"android": "https://dc.lft.to/lastmile_qr_scan", "ios": "https://dc.lft.to/lastmile_qr_scan"}, "bike_id": "01e4f4f48af1818fe900ee4d600420ea", "lon": -76.97216666666667}, {"is_reserved": 0, "fusion_lon": 0.0, "fusion_lat": 0.0, "name": "bdba8644de1539c73dfaab231fd24bbe", "type": "electric_bike", "is_disabled": 0, "lat": 38.935716166666666, "rental_uris": {"android": "https://dc.lft.to/lastmile_qr_scan", "ios": "https://dc.lft.to/lastmile_qr_scan"}, "bike_id": "bdba8644de1539c73dfaab231fd24bbe", "lon": -77.10849383333333}, {"is_reserved": 0, "fusion_lon": 0.0, "fusion_lat": 0.0, "name": "867ba85098309af60e084891933ed258", "type": "electric_scooter", "is_disabled": 0, "lat": 38.8923165, "rental_uris": {"android": "https://dc.lft.to/lastmile_qr_scan", "ios": "https://dc.lft.to/lastmile_qr_scan"}, "bike_id": "867ba85098309af60e084891933ed258", "lon": -77.031815}, {"is_reserved": 0, "fusion_lon": 0.0, "fusion_lat": 0.0, "name": "7b8c09768979849e97343d6f2e519099", "type": "electric_scooter", "is_disabled": 0, "lat": 38.89275933333333, "rental_uris": {"android": "https://dc.lft.to/lastmile_qr_scan", "ios": "https://dc.lft.to/lastmile_qr_scan"}, "bike_id": "7b8c09768979849e97343d6f2e519099", "lon": -77.04874816666667}, {"is_reserved": 0, "fusion_lon": 0.0, "fusion_lat": 0.0, "name": "9ae1c367585f3636d29df60931aaf850", "type": "electric_scooter", "is_disabled": 0, "lat": 38.8871435, "rental_uris": {"android": "https://dc.lft.to/lastmile_qr_scan", "ios": "https://dc.lft.to/lastmile_qr_scan"}, "bike_id": "9ae1c367585f3636d29df60931aaf850", "lon": -77.01775716666667}, {"is_reserved": 0, "fusion_lon": 0.0, "fusion_lat": 0.0, "name": "241e169dd4cd621684c8b26ef38e0edc", "type": "electric_scooter", "is_disabled": 0, "lat": 38.9024935, "rental_uris": {"android": "https://dc.lft.to/lastmile_qr_scan", "ios": "https://dc.lft.to/lastmile_qr_scan"}, "bike_id": "241e169dd4cd621684c8b26ef38e0edc", "lon": -77.00200466666666}, {"is_reserved": 0, "fusion_lon": 0.0, "fusion_lat": 0.0, "name": "e5241be36d7a2567d15d3474e7b84ada", "type": "electric_scooter", "is_disabled": 0, "lat": 38.9412235, "rental_uris": {"android": "https://dc.lft.to/lastmile_qr_scan", "ios": "https://dc.lft.to/lastmile_qr_scan"}, "bike_id": "e5241be36d7a2567d15d3474e7b84ada", "lon": -77.015382}, {"is_reserved": 0, "fusion_lon": 0.0, "fusion_lat": 0.0, "name": "76a723880c58ac8e3cc2c125062d380e", "type": "electric_bike", "is_disabled": 0, "lat": 38.892892333333336, "rental_uris": {"android": "https://dc.lft.to/lastmile_qr_scan", "ios": "https://dc.lft.to/lastmile_qr_scan"}, "bike_id": "76a723880c58ac8e3cc2c125062d380e", "lon": -76.97614833333333}, {"is_reserved": 0, "fusion_lon": 0.0, "fusion_lat": 0.0, "name": "03561972215e76b5e6f901fefc75ccaa", "type": "electric_scooter", "is_disabled": 0, "lat": 38.8848075, "rental_uris": {"android": "https://dc.lft.to/lastmile_qr_scan", "ios": "https://dc.lft.to/lastmile_qr_scan"}, "bike_id": "03561972215e76b5e6f901fefc75ccaa", "lon": -76.9261605}, {"is_reserved": 0, "fusion_lon": 0.0, "fusion_lat": 0.0, "name": "ee5e2bd8f16ec55f434dcd1559fd31ac", "type": "electric_scooter", "is_disabled": 0, "lat": 38.9023045, "rental_uris": {"android": "https://dc.lft.to/lastmile_qr_scan", "ios": "https://dc.lft.to/lastmile_qr_scan"}, "bike_id": "ee5e2bd8f16ec55f434dcd1559fd31ac", "lon": -77.02596166666666}, {"is_reserved": 0, "fusion_lon": 0.0, "fusion_lat": 0.0, "name": "6bc2de72dd70ba935a30d25278ea0bfc", "type": "electric_scooter", "is_disabled": 0, "lat": 38.900879833333335, "rental_uris": {"android": "https://dc.lft.to/lastmile_qr_scan", "ios": "https://dc.lft.to/lastmile_qr_scan"}, "bike_id": "6bc2de72dd70ba935a30d25278ea0bfc", "lon": -76.9302205}, {"is_reserved": 0, "fusion_lon": 0.0, "fusion_lat": 0.0, "name": "b3a8d964bcd32100132c04b52e162812", "type": "electric_scooter", "is_disabled": 0, "lat": 38.8553485, "rental_uris": {"android": "https://dc.lft.to/lastmile_qr_scan", "ios": "https://dc.lft.to/lastmile_qr_scan"}, "bike_id": "b3a8d964bcd32100132c04b52e162812", "lon": -76.98413066666667}, {"is_reserved": 0, "fusion_lon": 0.0, "fusion_lat": 0.0, "name": "0842e3187703ed081905b6cf24cbb81d", "type": "electric_scooter", "is_disabled": 0, "lat": 38.89975783333333, "rental_uris": {"android": "https://dc.lft.to/lastmile_qr_scan", "ios": "https://dc.lft.to/lastmile_qr_scan"}, "bike_id": "0842e3187703ed081905b6cf24cbb81d", "lon": -77.02401166666667}, {"is_reserved": 0, "fusion_lon": 0.0, "fusion_lat": 0.0, "name": "03e55b2041e798239864bdd0f52b66b0", "type": "electric_scooter", "is_disabled": 0, "lat": 38.9443245, "rental_uris": {"android": "https://dc.lft.to/lastmile_qr_scan", "ios": "https://dc.lft.to/lastmile_qr_scan"}, "bike_id": "03e55b2041e798239864bdd0f52b66b0", "lon": -77.025977}, {"is_reserved": 0, "fusion_lon": 0.0, "fusion_lat": 0.0, "name": "f2e1138d0755b88bdbca640bc8acf2f5", "type": "electric_scooter", "is_disabled": 0, "lat": 38.90826583333333, "rental_uris": {"android": "https://dc.lft.to/lastmile_qr_scan", "ios": "https://dc.lft.to/lastmile_qr_scan"}, "bike_id": "f2e1138d0755b88bdbca640bc8acf2f5", "lon": -77.07432433333334}, {"is_reserved": 0, "fusion_lon": 0.0, "fusion_lat": 0.0, "name": "79cc22ff422405db22229d5f5f1f14d5", "type": "electric_scooter", "is_disabled": 0, "lat": 38.95070066666667, "rental_uris": {"android": "https://dc.lft.to/lastmile_qr_scan", "ios": "https://dc.lft.to/lastmile_qr_scan"}, "bike_id": "79cc22ff422405db22229d5f5f1f14d5", "lon": -76.99563716666667}, {"is_reserved": 0, "fusion_lon": 0.0, "fusion_lat": 0.0, "name": "2946972b255d285d38e94b1f4b522c21", "type": "electric_scooter", "is_disabled": 0, "lat": 38.91563133333333, "rental_uris": {"android": "https://dc.lft.to/lastmile_qr_scan", "ios": "https://dc.lft.to/lastmile_qr_scan"}, "bike_id": "2946972b255d285d38e94b1f4b522c21", "lon": -77.03353066666666}, {"is_reserved": 0, "fusion_lon": 0.0, "fusion_lat": 0.0, "name": "1603b9e2709d759ee098890c2f0b830b", "type": "electric_scooter", "is_disabled": 0, "lat": 38.896079666666665, "rental_uris": {"android": "https://dc.lft.to/lastmile_qr_scan", "ios": "https://dc.lft.to/lastmile_qr_scan"}, "bike_id": "1603b9e2709d759ee098890c2f0b830b", "lon": -77.04980166666667},