{"data": {"bikes": [{"bike_id": "800160960c6ad0620c8af41ccc56ac03", "fusion_lon": 0.0, "lon": -77.01790333333334, "name": "800160960c6ad0620c8af41ccc56ac03", "is_disabled": 0, "rental_uris": {"android": "https://dc.lft.to/lastmile_qr_scan", "ios": "https://dc.lft.to/lastmile_qr_scan"}, "type": "electric_scooter", "lat": 38.911059333333334, "is_reserved": 0, "fusion_lat": 0.0}, {"bike_id": "5cd1d21e77b2c9c55782cfed94c5ca86", "fusion_lon": 0.0, "lon": -77.041518, "name": "5cd1d21e77b2c9c55782cfed94c5ca86", "is_disabled": 0, "rental_uris": {"android": "https://dc.lft.to/lastmile_qr_scan", "ios": "https://dc.lft.to/lastmile_qr_scan"}, "type": "electric_scooter", "lat": 38.915527166666664, "is_reserved": 0, "fusion_lat": 0.0}, {"bike_id": "221bc62ff109a60c92254c511b925341", "fusion_lon": 0.0, "lon": -76.98059016666667, "name": "221bc62ff109a60c92254c511b925341", "is_disabled": 0, "rental_uris": {"android": "https://dc.lft.to/lastmile_qr_scan", "ios": "https://dc.lft.to/lastmile_qr_scan"}, "type": "electric_scooter", "lat": 38.884917, "is_reserved": 0, "fusion_lat": 0.0}, {"bike_id": "6db3428030da22fafafb5e8ecd4f9076", "fusion_lon": 0.0, "lon": -77.0434185, "name": "6db3428030da22fafafb5e8ecd4f9076", "is_disabled": 0, "rental_uris": {"android": "https://dc.lft.to/lastmile_qr_scan", "ios": "https://dc.lft.to/lastmile_qr_scan"}, "type": "electric_scooter", "lat": 38.897225666666664, "is_reserved": 0, "fusion_lat": 0.0}, {"bike_id": "633777ce76a12268287623e7ec9282e7", "fusion_lon": 0.0, "lon": -77.0390835, "name": "633777ce76a12268287623e7ec9282e7", "is_disabled": 0, "rental_uris": {"android": "https://dc.lft.to/lastmile_qr_scan", "ios": "https://dc.lft.to/lastmile_qr_scan"}, "type": "electric_scooter", "lat": 38.91416683333333, "is_reserved": 0, "fusion_lat": 0.0}, {"bike_id": "3b3251e729a98afc70de071c6cc3d6a3", "fusion_lon": 0.0, "lon": -77.081869, "name": "3b3251e729a98afc70de071c6cc3d6a3", "is_disabled": 0, "rental_uris": {"android": "https://dc.lft.to/lastmile_qr_scan", "ios": "https://dc.lft.to/lastmile_qr_scan"}, "type": "electric_scooter", "lat": 38.93554983333333, "is_reserved": 0, "fusion_lat": 0.0}, {"bike_id": "d8d1a7d78f07b23603c7a99c7021edae", "fusion_lon": 0.0, "lon": -77.02191516666667, "name": "d8d1a7d78f07b23603c7a99c7021edae", "is_disabled": 0, "rental_uris": {"android": "https://dc.lft.to/lastmile_qr_scan", "ios": "https://dc.lft.to/lastmile_qr_scan"}, "type": "electric_scooter", "lat": 38.9105605, "is_reserved": 0, "fusion_lat": 0.0}, {"bike_id": "7ce4acaef5b50c8c5d9888105f17f37c", "fusion_lon": 0.0, "lon": -77.01533666666667, "name": "7ce4acaef5b50c8c5d9888105f17f37c", "is_disabled": 0, "rental_uris": {"android": "https://dc.lft.to/lastmile_qr_scan", "ios": "https://dc.lft.to/lastmile_qr_scan"}, "type": "electric_scooter", "lat": 38.88741016666667, "is_reserved": 0, "fusion_lat": 0.0}, {"bike_id": "3055376153b7fdbf6e5ce7197e001215", "fusion_lon": 0.0, "lon": -76.99392133333333, "name": "3055376153b7fdbf6e5ce7197e001215", "is_disabled": 0, "rental_uris": {"android": "https://dc.lft.to/lastmile_qr_scan", "ios": "https://dc.lft.to/lastmile_qr_scan"}, "type": "electric_scooter", "lat": 38.89727583333333, "is_reserved": 0, "fusion_lat": 0.0}, {"bike_id": "c23703eb5a22814086dc465100340730", "fusion_lon": 0.0, "lon": -77.01850233333333, "name": "c23703eb5a22814086dc465100340730", "is_disabled": 0, "rental_uris": {"android": "https://dc.lft.to/lastmile_qr_scan", "ios": "https://dc.lft.to/lastmile_qr_scan"}, "type": "electric_scooter", "lat": 38.903679333333336, "is_reserved": 0, "fusion_lat": 0.0}, {"bike_id": "6ae326dedb30e60537d48f842961d5e9", "fusion_lon": 0.0, "lon": -77.02957133333334, "name": "6ae326dedb30e60537d48f842961d5e9", "is_disabled": 0, "rental_uris": {"android": "https://dc.lft.to/lastmile_qr_scan", "ios": "https://dc.lft.to/lastmile_qr_scan"}, "type": "electric_scooter", "lat": 38.9268365, "is_reserved": 0, "fusion_lat": 0.0}, {"bike_id": "296e99a1790a22fd08842068a71269ca", "fusion_lon": 0.0, "lon": -77.002121, "name": "296e99a1790a22fd08842068a71269ca", "is_disabled": 0, "rental_uris": {"android": "https://dc.lft.to/lastmile_qr_scan", "ios": "https://dc.lft.to/lastmile_qr_scan"}, "type": "electric_scooter", "lat": 38.89719483333333, "is_reserved": 0, "fusion_lat": 0.0}, {"bike_id": "b12b4054f67a4093ab07b27a056dc2f1", "fusion_lon": 0.0, "lon": -77.04563383333333, "name": "b12b4054f67a4093ab07b27a056dc2f1", "is_disabled": 0, "rental_uris": {"android": "https://dc.lft.to/lastmile_qr_scan", "ios": "https://dc.lft.to/lastmile_qr_scan"}, "type": "electric_scooter", "lat": 38.91770666666667, "is_reserved": 0, "fusion_lat": 0.0}, {"bike_id": "3d2ed44fc7d66df6c4bd4a2fc61de394", "fusion_lon": 0.0, "lon": -77.01983633333333, "name": "3d2ed44fc7d66df6c4bd4a2fc61de394", "is_disabled": 0, "rental_uris": {"android": "https://dc.lft.to/lastmile_qr_scan", "ios": "https://dc.lft.to/lastmile_qr_scan"}, "type": "electric_scooter", "lat": 38.886180333333336, "is_reserved": 0, "fusion_lat": 0.0}, {"bike_id": "87ecd3d906c5c4570db3474d5f180be4", "fusion_lon": 0.0, "lon": -77.03657783333334, "name": "87ecd3d906c5c4570db3474d5f180be4", "is_disabled": 0, "rental_uris": {"android": "https://dc.lft.to/lastmile_qr_scan", "ios": "https://dc.lft.to/lastmile_qr_scan"}, "type": "electric_scooter", "lat": 38.923823166666665, "is_reserved": 0, "fusion_lat": 0.0}, {"bike_id": "8db319f8ddd084dbfa9643537016b6c2", "fusion_lon": 0.0, "lon": -76.99778566666667, "name": "8db319f8ddd084dbfa9643537016b6c2", "is_disabled": 0, "rental_uris": {"android": "https://dc.lft.to/lastmile_qr_scan", "ios": "https://dc.lft.to/lastmile_qr_scan"}, "type": "electric_scooter", "lat": 38.908993333333335, "is_reserved": 0, "fusion_lat": 0.0}, {"bike_id": "7b3660fd799cb97a1f2c62bf9d6be661", "fusion_lon": 0.0, "lon": -77.110219, "name": "7b3660fd799cb97a1f2c62bf9d6be661", "is_disabled": 0, "rental_uris": {"android": "https://dc.lft.to/lastmile_qr_scan", "ios": "https://dc.lft.to/lastmile_qr_scan"}, "type": "electric_bike", "lat": 38.84742833333333, "is_reserved": 0, "fusion_lat": 0.0}, {"bike_id": "9e7ee9881df8812dbd84b7666d8bf3b7", "fusion_lon": 0.0, "lon": -76.98456016666667, "name": "9e7ee9881df8812dbd84b7666d8bf3b7", "is_disabled": 0, "rental_uris": {"android": "https://dc.lft.to/lastmile_qr_scan", "ios": "https://dc.lft.to/lastmile_qr_scan"}, "type": "electric_scooter", "lat": 38.88016666666667, "is_reserved": 0, "fusion_lat": 0.0}, {"bike_id": "c0f52a56e3940e08f3a34270059ea5e2", "fusion_lon": 0.0, "lon": -77.0177655, "name": "c0f52a56e3940e08f3a34270059ea5e2", "is_disabled": 0, "rental_uris": {"android": "https://dc.lft.to/lastmile_qr_scan", "ios": "https://dc.lft.to/lastmile_qr_scan"}, "type": "electric_scooter", "lat": 38.88716733333333, "is_reserved": 0, "fusion_lat": 0.0}, {"bike_id": "28845636cc899a0920126ea7db3108e4", "fusion_lon": 0.0, "lon": -77.02718083333333, "name": "28845636cc899a0920126ea7db3108e4", "is_disabled": 0, "rental_uris": {"android": "https://dc.lft.to/lastmile_qr_scan", "ios": "https://dc.lft.to/lastmile_qr_scan"}, "type": "electric_scooter", "lat": 38.881304166666666, "is_reserved": 0, "fusion_lat": 0.0}, {"bike_id": "4129703aa7727cc4b7bf2d180b87d26a", "fusion_lon": 0.0, "lon": -77.05091983333334, "name": "4129703aa7727cc4b7bf2d180b87d26a", "is_disabled": 0, "rental_uris": {"android": "https://dc.lft.to/lastmile_qr_scan", "ios": "https://dc.lft.to/lastmile_qr_scan"}, "type": "electric_bike", "lat": 38.81331316666667, "is_reserved": 0, "fusion_lat": 0.0}, {"bike_id": "fb02e399bd56c89d3d40b5d935786e83", "fusion_lon": 0.0, "lon": -77.02341416666667, "name": "fb02e399bd56c89d3d40b5d935786e83", "is_disabled": 0, "rental_uris": {"android": "https://dc.lft.to/lastmile_qr_scan", "ios": "https://dc.lft.to/lastmile_qr_scan"}, "type": "electric_scooter", "lat": 38.90725283333333, "is_reserved": 0, "fusion_lat": 0.0}, {"bike_id": "ebc878a03a944625b28f43a5ece13367", "fusion_lon": 0.0, "lon": -77.115995, "name": "ebc878a03a944625b28f43a5ece13367", "is_disabled": 0, "rental_uris": {"android": "https://dc.lft.to/lastmile_qr_scan", "ios": "https://dc.lft.to/lastmile_qr_scan"}, "type": "electric_bike", "lat": 39.07490116666666, "is_reserved": 0, "fusion_lat": 0.0}, {"bike_id": "8388b01c3f9ec45811fb42d71bff990e", "fusion_lon": 0.0, "lon": -76.98635366666667, "name": "8388b01c3f9ec45811fb42d71bff990e", "is_disabled": 0, "rental_uris": {"android": "https://dc.lft.to/lastmile_qr_scan", "ios": "https://dc.lft.to/lastmile_qr_scan"}, "type": "electric_scooter", "lat": 38.88037716666667, "is_reserved": 0, "fusion_lat": 0.0}, {"bike_id": "7e1b162e64e17fa9fbede028886585c8", "fusion_lon": 0.0, "lon": -77.02167583333333, "name": "7e1b162e64e17fa9fbede028886585c8", "is_disabled": 0, "rental_uris": {"android": "https://dc.lft.to/lastmile_qr_scan", "ios": "https://dc.lft.to/lastmile_qr_scan"}, "type": "electric_scooter", "lat": 38.909622666666664, "is_reserved": 0, "fusion_lat": 0.0}, {"bike_id": "eebb78a6e68b1624588676f00daa1021", "fusion_lon": 0.0, "lon": -77.04394366666666, "name": "eebb78a6e68b1624588676f00daa1021", "is_disabled": 0, "rental_uris": {"android": "https://dc.lft.to/lastmile_qr_scan", "ios": "https://dc.lft.to/lastmile_qr_scan"}, "type": "electric_scooter", "lat": 38.920637, "is_reserved": 0, "fusion_lat": 0.0}, {"bike_id": "a09e6d62f479bfb941e6eb0a6011c534", "fusion_lon": 0.0, "lon": -77.03299933333334, "name": "a09e6d62f479bfb941e6eb0a6011c534", "is_disabled": 0, "rental_uris": {"android": "https://dc.lft.to/lastmile_qr_scan", "ios": "https://dc.lft.to/lastmile_qr_scan"}, "type": "electric_scooter", "lat": 38.8989265, "is_reserved": 0, "fusion_lat": 0.0}, {"bike_id": "f1f51261bb2f0cc5de92728c083300ef", "fusion_lon": 0.0, "lon": -76.99936733333334, "name": "f1f51261bb2f0cc5de92728c083300ef", "is_disabled": 0, "rental_uris": {"android": "https://dc.lft.to/lastmile_qr_scan", "ios": "https://dc.lft.to/lastmile_qr_scan"}, "type": "electric_scooter", "lat": 38.89202866666667, "is_reserved": 0, "fusion_lat": 0.0}, {"bike_id": "803e8b53613abfcd5f8f7a12dfcd900d", "fusion_lon": 0.0, "lon": -77.02695433333334, "name": "803e8b53613abfcd5f8f7a12dfcd900d", "is_disabled": 0, "rental_uris": {"android": "https://dc.lft.to/lastmile_qr_scan", "ios": "https://dc.lft.to/lastmile_qr_scan"}, "type": "electric_scooter", "lat": 38.906798, "is_reserved": 0, "fusion_lat": 0.0}, {"bike_id": "61e96797a14ad6706dfa7132004a548a", "fusion_lon": 0.0, "lon": -77.00129733333333, "name": "61e96797a14ad6706dfa7132004a548a", "is_disabled": 0, "rental_uris": {"android": "https://dc.lft.to/lastmile_qr_scan", "ios": "https://dc.lft.to/lastmile_qr_scan"}, "type": "electric_scooter", "lat": 38.9053405, "is_reserved": 0, "fusion_lat": 0.0}, {"bike_id": "72cb779108ec102aafe39b353642ac37", "fusion_lon": 0.0, "lon": -76.993293, "name": "72cb779108ec102aafe39b353642ac37", "is_disabled": 0, "rental_uris": {"android": "https://dc.lft.to/lastmile_qr_scan", "ios": "https://dc.lft.to/lastmile_qr_scan"}, "type": "electric_scooter", "lat": 38.92448683333333, "is_reserved": 0, "fusion_lat": 0.0}, {"bike_id": "022e62511db38905d25d82c47c9f2acb", "fusion_lon": 0.0, "lon": -77.02974233333333, "name": "022e62511db38905d25d82c47c9f2acb", "is_disabled": 0, "rental_uris": {"android": "https://dc.lft.to/lastmile_qr_scan", "ios": "https://dc.lft.to/lastmile_qr_scan"}, "type": "electric_scooter", "lat": 38.9347075, "is_reserved": 0, "fusion_lat": 0.0}, {"bike_id": "9da2cf56f074f1c9d00ddb3cb47bd48e", "fusion_lon": 0.0, "lon": -77.10695433333333, "name": "9da2cf56f074f1c9d00ddb3cb47bd48e", "is_disabled": 0, "rental_uris": {"android": "https://dc.lft.to/lastmile_qr_scan", "ios": "https://dc.lft.to/lastmile_qr_scan"}, "type": "electric_bike", "lat": 38.96491066666667, "is_reserved": 0, "fusion_lat": 0.0}, {"bike_id": "32b0b72879823235379e6afea2880346", "fusion_lon": 0.0, "lon": -77.031868, "name": "32b0b72879823235379e6afea2880346", "is_disabled": 0, "rental_uris": {"android": "https://dc.lft.to/lastmile_qr_scan", "ios": "https://dc.lft.to/lastmile_qr_scan"}, "type": "electric_scooter", "lat": 38.90423066666666, "is_reserved": 0, "fusion_lat": 0.0}, {"bike_id": "f4f6b8a14869e096a2c74533509f7e7e", "fusion_lon": 0.0, "lon": -77.0401575, "name": "f4f6b8a14869e096a2c74533509f7e7e", "is_disabled": 0, "rental_uris": {"android": "https://dc.lft.to/lastmile_qr_scan", "ios": "https://dc.lft.to/lastmile_qr_scan"}, "type": "electric_bike", "lat": 38.79328233333333, "is_reserved": 0, "fusion_lat": 0.0}, {"bike_id": "8348256a96d30daf550eaac16c803bdb", "fusion_lon": 0.0, "lon": -76.97240183333334, "name": "8348256a96d30daf550eaac16c803bdb", "is_disabled": 0, "rental_uris": {"android": "https://dc.lft.to/lastmile_qr_scan", "ios": "https://dc.lft.to/lastmile_qr_scan"}, "type": "electric_bike", "lat": 38.9490345, "is_reserved": 0, "fusion_lat": 0.0}, {"bike_id": "b8ab5ffcd32dc59b9da7dccc2ed7af31", "fusion_lon": 0.0, "lon": -77.0434725, "name": "b8ab5ffcd32dc59b9da7dccc2ed7af31", "is_disabled": 0, "rental_uris": {"android": "https://dc.lft.to/lastmile_qr_scan", "ios": "https://dc.lft.to/lastmile_qr_scan"}, "type": "electric_scooter", "lat": 38.90881233333333, "is_reserved": 0, "fusion_lat": 0.0}, {"bike_id": "84a066b6d01d70a3d2b6582553b26f1a", "fusion_lon": 0.0, "lon": -77.03858433333333, "name": "84a066b6d01d70a3d2b6582553b26f1a", "is_disabled": 0, "rental_uris": {"android": "https://dc.lft.to/lastmile_qr_scan", "ios": "https://dc.lft.to/lastmile_qr_scan"}, "type": "electric_scooter", "lat": 38.9154145, "is_reserved": 0, "fusion_lat": 0.0}, {"bike_id": "daa4eae0618c0d5d0f09e0c0b9ee71cd", "fusion_lon": 0.0, "lon": -77.02573966666667, "name": "daa4eae0618c0d5d0f09e0c0b9ee71cd", "is_disabled": 0, "rental_uris": {"android": "https://dc.lft.to/lastmile_qr_scan", "ios": "https://dc.lft.to/lastmile_qr_scan"}, "type": "electric_scooter", "lat": 38.903386166666664, "is_reserved": 0, "fusion_lat": 0.0}, {"bike_id": "0175ebf99045bd437b64e26b0bac73f8", "fusion_lon": 0.0, "lon": -77.03102616666666, "name": "0175ebf99045bd437b64e26b0bac73f8", "is_disabled": 0, "rental_uris": {"android": "https://dc.lft.to/lastmile_qr_scan", "ios": "https://dc.lft.to/lastmile_qr_scan"}, "type": "electric_scooter", "lat": 38.95074833333334, "is_reserved": 0, "fusion_lat": 0.0}, {"bike_id": "d229b2c6a51f5afaa47803635fe2f8c1", "fusion_lon": 0.0, "lon": -76.98606866666667, "name": "d229b2c6a51f5afaa47803635fe2f8c1", "is_disabled": 0, "rental_uris": {"android": "https://dc.lft.to/lastmile_qr_scan", "ios": "https://dc.lft.to/lastmile_qr_scan"}, "type": "electric_scooter", "lat": 38.87831716666667, "is_reserved": 0, "fusion_lat": 0.0}, {"bike_id": "e19c9c1e4a3d79d170657569a8634cdb", "fusion_lon": 0.0, "lon": -77.06826583333333, "name": "e19c9c1e4a3d79d170657569a8634cdb", "is_disabled": 0, "rental_uris": {"android": "https://dc.lft.to/lastmile_qr_scan", "ios": "https://dc.lft.to/lastmile_qr_scan"}, "type": "electric_scooter", "lat": 38.9172035, "is_reserved": 0, "fusion_lat": 0.0}, {"bike_id": "93c89ff8f9ac5866dfa8a0782e481b07", "fusion_lon": 0.0, "lon": -77.01756383333333, "name": "93c89ff8f9ac5866dfa8a0782e481b07", "is_disabled": 0, "rental_uris": {"android": "https://dc.lft.to/lastmile_qr_scan", "ios": "https://dc.lft.to/lastmile_qr_scan"}, "type": "electric_scooter", "lat": 38.90261116666667, "is_reserved": 0, "fusion_lat": 0.0}, {"bike_id": "73fc99728e881ba5f1379df001c59ea7", "fusion_lon": 0.0, "lon": -76.94934416666666, "name": "73fc99728e881ba5f1379df001c59ea7", "is_disabled": 0, "rental_uris": {"android": "https://dc.lft.to/lastmile_qr_scan", "ios": "https://dc.lft.to/lastmile_qr_scan"}, "type": "electric_scooter", "lat": 38.8934685, "is_reserved": 0, "fusion_lat": 0.0}, {"bike_id": "9dafbf45f57db4afc7d87556c390a7c6", "fusion_lon": 0.0, "lon": -77.023074, "name": "9dafbf45f57db4afc7d87556c390a7c6", "is_disabled": 0, "rental_uris": {"android": "https://dc.lft.to/lastmile_qr_scan", "ios": "https://dc.lft.to/lastmile_qr_scan"}, "type": "electric_scooter", "lat": 38.91837683333333, "is_reserved": 0, "fusion_lat": 0.0}, {"bike_id": "488e6053e6a4e398cdd3d59f6a0fa4f5", "fusion_lon": 0.0, "lon": -77.065058, "name": "488e6053e6a4e398cdd3d59f6a0fa4f5", "is_disabled": 0, "rental_uris": {"android": "https://dc.lft.to/lastmile_qr_scan", "ios": "https://dc.lft.to/lastmile_qr_scan"}, "type": "electric_bike", "lat": 38.968675166666664, "is_reserved": 0, "fusion_lat": 0.0}, {"bike_id": "9a5d8723cabb9f1a598049f162ceaeca", "fusion_lon": 0.0, "lon": -77.041608, "name": "9a5d8723cabb9f1a598049f162ceaeca", "is_disabled": 0, "rental_uris": {"android": "https://dc.lft.to/lastmile_qr_scan", "ios": "https://dc.lft.to/lastmile_qr_scan"}, "type": "electric_scooter", "lat": 38.916467833333336, "is_reserved": 0, "fusion_lat": 0.0}, {"bike_id": "fd2aa3f9e0bb8e03bde5a221765b3998", "fusion_lon": 0.0, "lon": -77.05921916666667, "name": "fd2aa3f9e0bb8e03bde5a221765b3998", "is_disabled": 0, "rental_uris": {"android": "https://dc.lft.to/lastmile_qr_scan", "ios": "https://dc.lft.to/lastmile_qr_scan"}, "type": "electric_scooter", "lat": 38.911361, "is_reserved": 0, "fusion_lat": 0.0}, {"bike_id": "a6a5fdafb5f30d90b157d5c4c917df0a", "fusion_lon": 0.0, "lon": -77.04492, "name": "a6a5fdafb5f30d90b157d5c4c917df0a", "is_disabled": 0, "rental_uris": {"android": "https://dc.lft.to/lastmile_qr_scan", "ios": "https://dc.lft.to/lastmile_qr_scan"}, "type": "electric_bike", "lat": 38.842867166666665, "is_reserved": 0, "fusion_lat": 0.0}, {"bike_id": "4b2db8b904e8e98eae14a4e02b2802c3", "fusion_lon": 0.0, "lon": -77.04687616666666, "name": "4b2db8b904e8e98eae14a4e02b2802c3", "is_disabled": 0, "rental_uris": {"android": "https://dc.lft.to/lastmile_qr_scan", "ios": "https://dc.lft.to/lastmile_qr_scan"}, "type": "electric_scooter", "lat": 38.892213166666664, "is_reserved": 0, "fusion_lat": 0.0}, {"bike_id": "ac95a0d5ec58977eff9b78778904988b", "fusion_lon": 0.0, "lon": -77.0217915, "name": "ac95a0d5ec58977eff9b78778904988b", "is_disabled": 0, "rental_uris": {"android": "https://dc.lft.to/lastmile_qr_scan", "ios": "https://dc.lft.to/lastmile_qr_scan"}, "type": "electric_scooter", "lat": 38.92492716666667, "is_reserved": 0, "fusion_lat": 0.0}, {"bike_id": "6f54a5da9d13d8b3707c893c8bfb705c", "fusion_lon": 0.0, "lon": -77.04257033333333, "name": "6f54a5da9d13d8b3707c893c8bfb705c", "is_disabled": 0, "rental_uris": {"android": "https://dc.lft.to/lastmile_qr_scan", "ios": "https://dc.lft.to/lastmile_qr_scan"}, "type": "electric_scooter", "lat": 38.908596, "is_reserved": 0, "fusion_lat": 0.0}, {"bike_id": "9d1fb5460ce2db3e9abac7e2b1771d6b", "fusion_lon": 0.0, "lon": -77.03951366666666, "name": "9d1fb5460ce2db3e9abac7e2b1771d6b", "is_disabled": 0, "rental_uris": {"android": "https://dc.lft.to/lastmile_qr_scan", "ios": "https://dc.lft.to/lastmile_qr_scan"}, "type": "electric_scooter", "lat": 38.9262175, "is_reserved": 0, "fusion_lat": 0.0}, {"bike_id": "5e01ba16f94ae2464fd63c4e8c5a5d62", "fusion_lon": 0.0, "lon": -77.00568516666667, "name": "5e01ba16f94ae2464fd63c4e8c5a5d62", "is_disabled": 0, "rental_uris": {"android": "https://dc.lft.to/lastmile_qr_scan", "ios": "https://dc.lft.to/lastmile_qr_scan"}, "type": "electric_scooter", "lat": 38.918152166666665, "is_reserved": 0, "fusion_lat": 0.0}, {"bike_id": "6352d380a363d008c0a4caaf900b58b1", "fusion_lon": 0.0, "lon": -77.03461166666666, "name": "6352d380a363d008c0a4caaf900b58b1", "is_disabled": 0, "rental_uris": {"android": "https://dc.lft.to/lastmile_qr_scan", "ios": "https://dc.lft.to/lastmile_qr_scan"}, "type": "electric_scooter", "lat": 38.90646866666667, "is_reserved": 0, "fusion_lat": 0.0}, {"bike_id": "62acfa89209450b24d1557d23223c8ea", "fusion_lon": 0.0, "lon": -77.03190766666667, "name": "62acfa89209450b24d1557d23223c8ea", "is_disabled": 0, "rental_uris": {"android": "https://dc.lft.to/lastmile_qr_scan", "ios": "https://dc.lft.to/lastmile_qr_scan"}, "type": "electric_scooter", "lat": 38.92104366666667, "is_reserved": 0, "fusion_lat": 0.0}, {"bike_id": "a3e4eb58127ee24d63ed0d7cb635cc9e", "fusion_lon": 0.0, "lon": -77.032974, "name": "a3e4eb58127ee24d63ed0d7cb635cc9e", "is_disabled": 0, "rental_uris": {"android": "https://dc.lft.to/lastmile_qr_scan", "ios": "https://dc.lft.to/lastmile_qr_scan"}, "type": "electric_scooter", "lat": 38.95643316666666, "is_reserved": 0, "fusion_lat": 0.0}, {"bike_id": "b3753838be87fd9fc410a90dcdae7da6", "fusion_lon": 0.0, "lon": -77.03661633333333, "name": "b3753838be87fd9fc410a90dcdae7da6", "is_disabled": 0, "rental_uris": {"android": "https://dc.lft.to/lastmile_qr_scan", "ios": "https://dc.lft.to/lastmile_qr_scan"}, "type": "electric_scooter", "lat": 38.913145166666666, "is_reserved": 0, "fusion_lat": 0.0}, {"bike_id": "d50216734ac23ed43c0e49d696bef414", "fusion_lon": 0.0, "lon": -77.03709483333333, "name": "d50216734ac23ed43c0e49d696bef414", "is_disabled": 0, "rental_uris": {"android": "https://dc.lft.to/lastmile_qr_scan", "ios": "https://dc.lft.to/lastmile_qr_scan"}, "type": "electric_scooter", "lat": 38.9096885, "is_reserved": 0, "fusion_lat": 0.0}, {"bike_id": "319e2d3bc4f956594175d6ac0e30ad76", "fusion_lon": 0.0, "lon": -77.053901, "name": "319e2d3bc4f956594175d6ac0e30ad76", "is_disabled": 0, "rental_uris": {"android": "https://dc.lft.to/lastmile_qr_scan", "ios": "https://dc.lft.to/lastmile_qr_scan"}, "type": "electric_scooter", "lat": 38.91063966666667, "is_reserved": 0, "fusion_lat": 0.0}, {"bike_id": "7ac775bb69683fa279cee8cc0ee2dac6", "fusion_lon": 0.0, "lon": -76.93159666666666, "name": "7ac775bb69683fa279cee8cc0ee2dac6", "is_disabled": 0, "rental_uris": {"android": "https://dc.lft.to/lastmile_qr_scan", "ios": "https://dc.lft.to/lastmile_qr_scan"}, "type": "electric_scooter", "lat": 38.898789, "is_reserved": 0, "fusion_lat": 0.0}, {"bike_id": "79c8ad1aaf28df3c4d1dd7fe3d15ff83", "fusion_lon": 0.0, "lon": -77.03325683333334, "name": "79c8ad1aaf28df3c4d1dd7fe3d15ff83", "is_disabled": 0, "rental_uris": {"android": "https://dc.lft.to/lastmile_qr_scan", "ios": "https://dc.lft.to/lastmile_qr_scan"}, "type": "electric_scooter", "lat": 38.921673166666665, "is_reserved": 0, "fusion_lat": 0.0}, {"bike_id": "5b262c60fc638d288b6a4d8566183500", "fusion_lon": 0.0, "lon": -77.04833383333333, "name": "5b262c60fc638d288b6a4d8566183500", "is_disabled": 0, "rental_uris": {"android": "https://dc.lft.to/lastmile_qr_scan", "ios": "https://dc.lft.to/lastmile_qr_scan"}, "type": "electric_scooter", "lat": 38.90720816666666, "is_reserved": 0, "fusion_lat": 0.0}, {"bike_id": "3a9dbcf90f0998cbe5b47aeec1a2935d", "fusion_lon": 0.0, "lon": -77.040134, "name": "3a9dbcf90f0998cbe5b47aeec1a2935d", "is_disabled": 0, "rental_uris": {"android": "https://dc.lft.to/lastmile_qr_scan", "ios": "https://dc.lft.to/lastmile_qr_scan"}, "type": "electric_scooter", "lat": 38.92176466666667, "is_reserved": 0, "fusion_lat": 0.0}, {"bike_id": "d8b718e6472c8008a395431adb192971", "fusion_lon": 0.0, "lon": -77.02926033333334, "name": "d8b718e6472c8008a395431adb192971", "is_disabled": 0, "rental_uris": {"android": "https://dc.lft.to/lastmile_qr_scan", "ios": "https://dc.lft.to/lastmile_qr_scan"}, "type": "electric_scooter", "lat": 38.933303, "is_reserved": 0, "fusion_lat": 0.0}, {"bike_id": "e124590db7bd6555433d7d8452c33765", "fusion_lon": 0.0, "lon": -77.04282366666666, "name": "e124590db7bd6555433d7d8452c33765", "is_disabled": 0, "rental_uris": {"android": "https://dc.lft.to/lastmile_qr_scan", "ios": "https://dc.lft.to/lastmile_qr_scan"}, "type": "electric_scooter", "lat": 38.91402816666667, "is_reserved": 0, "fusion_lat": 0.0}, {"bike_id": "09a12600bbb05915cacf25b42e0d4334", "fusion_lon": 0.0, "lon": -77.04175, "name": "09a12600bbb05915cacf25b42e0d4334", "is_disabled": 0, "rental_uris": {"android": "https://dc.lft.to/lastmile_qr_scan", "ios": "https://dc.lft.to/lastmile_qr_scan"}, "type": "electric_bike", "lat": 38.91980316666667, "is_reserved": 0, "fusion_lat": 0.0}, {"bike_id": "d30197a3135ee7f2f8e384ce6a0dc8cf", "fusion_lon": 0.0, "lon": -77.036574, "name": "d30197a3135ee7f2f8e384ce6a0dc8cf", "is_disabled": 0, "rental_uris": {"android": "https://dc.lft.to/lastmile_qr_scan", "ios": "https://dc.lft.to/lastmile_qr_scan"}, "type": "electric_scooter", "lat": 38.93487233333333, "is_reserved": 0, "fusion_lat": 0.0}, {"bike_id": "abb3cb8bad4acf367cc9e8546b9242b4", "fusion_lon": 0.0, "lon": -77.00097766666667, "name": "abb3cb8bad4acf367cc9e8546b9242b4", "is_disabled": 0, "rental_uris": {"android": "https://dc.lft.to/lastmile_qr_scan", "ios": "https://dc.lft.to/lastmile_qr_scan"}, "type": "electric_scooter", "lat": 38.87656783333333, "is_reserved": 0, "fusion_lat": 0.0}, {"bike_id": "cd3800494fff6c24fcabd8436d0d4006", "fusion_lon": 0.0, "lon": -76.98075233333333, "name": "cd3800494fff6c24fcabd8436d0d4006", "is_disabled": 0, "rental_uris": {"android": "https://dc.lft.to/lastmile_qr_scan", "ios": "https://dc.lft.to/lastmile_qr_scan"}, "type": "electric_scooter", "lat": 38.9016115, "is_reserved": 0, "fusion_lat": 0.0}, {"bike_id": "8f9aca478ede6a8f406dde532e2734d5", "fusion_lon": 0.0, "lon": -77.021263, "name": "8f9aca478ede6a8f406dde532e2734d5", "is_disabled": 0, "rental_uris": {"android": "https://dc.lft.to/lastmile_qr_scan", "ios": "https://dc.lft.to/lastmile_qr_scan"}, "type": "electric_scooter", "lat": 38.887388, "is_reserved": 0, "fusion_lat": 0.0}, {"bike_id": "b2787516fe64c57305e3903f3255645f", "fusion_lon": 0.0, "lon": -77.04481316666667, "name": "b2787516fe64c57305e3903f3255645f", "is_disabled": 0, "rental_uris": {"android": "https://dc.lft.to/lastmile_qr_scan", "ios": "https://dc.lft.to/lastmile_qr_scan"}, "type": "electric_scooter", "lat": 38.911625, "is_reserved": 0, "fusion_lat": 0.0}, {"bike_id": "9b7d0068315287cf21784bd9b9a1d783", "fusion_lon": 0.0, "lon": -76.99776716666666, "name": "9b7d0068315287cf21784bd9b9a1d783", "is_disabled": 0, "rental_uris": {"android": "https://dc.lft.to/lastmile_qr_scan", "ios": "https://dc.lft.to/lastmile_qr_scan"}, "type": "electric_scooter", "lat": 38.8442505, "is_reserved": 0, "fusion_lat": 0.0}, {"bike_id": "caed8cef3644dea22ff3c153b351b813", "fusion_lon": 0.0, "lon": -77.00282116666666, "name": "caed8cef3644dea22ff3c153b351b813", "is_disabled": 0, "rental_uris": {"android": "https://dc.lft.to/lastmile_qr_scan", "ios": "https://dc.lft.to/lastmile_qr_scan"}, "type": "electric_scooter", "lat": 38.9060525, "is_reserved": 0, "fusion_lat": 0.0}, {"bike_id": "41a778a1e9b649ac944459cdf553172b", "fusion_lon": 0.0, "lon": -77.045884, "name": "41a778a1e9b649ac944459cdf553172b", "is_disabled": 0, "rental_uris": {"android": "https://dc.lft.to/lastmile_qr_scan", "ios": "https://dc.lft.to/lastmile_qr_scan"}, "type": "electric_scooter", "lat": 38.91863716666667, "is_reserved": 0, "fusion_lat": 0.0}, {"bike_id": "5aeee34193a570cfbeb93b8066298acb", "fusion_lon": 0.0, "lon": -77.10599616666667, "name": "5aeee34193a570cfbeb93b8066298acb", "is_disabled": 0, "rental_uris": {"android": "https://dc.lft.to/lastmile_qr_scan", "ios": "https://dc.lft.to/lastmile_qr_scan"}, "type": "electric_bike", "lat": 38.9289705, "is_reserved": 0, "fusion_lat": 0.0}, {"bike_id": "10b07056fffeb63e2c7cbb5ea8c1c133", "fusion_lon": 0.0, "lon": -76.95758666666667, "name": "10b07056fffeb63e2c7cbb5ea8c1c133", "is_disabled": 0, "rental_uris": {"android": "https://dc.lft.to/lastmile_qr_scan", "ios": "https://dc.lft.to/lastmile_qr_scan"}, "type": "electric_scooter", "lat": 38.8842835, "is_reserved": 0, "fusion_lat": 0.0}, {"bike_id": "b3ab0fd091f9abf595b4b48131d2a1ca", "fusion_lon": 0.0, "lon": -76.949683, "name": "b3ab0fd091f9abf595b4b48131d2a1ca", "is_disabled": 0, "rental_uris": {"android": "https://dc.lft.to/lastmile_qr_scan", "ios": "https://dc.lft.to/lastmile_qr_scan"}, "type": "electric_scooter", "lat": 38.89358033333333, "is_reserved": 0, "fusion_lat": 0.0}, {"bike_id": "d96ab06b820d0f43f275cba0ddedef38", "fusion_lon": 0.0, "lon": -77.01579083333333, "name": "d96ab06b820d0f43f275cba0ddedef38", "is_disabled": 0, "rental_uris": {"android": "https://dc.lft.to/lastmile_qr_scan", "ios": "https://dc.lft.to/lastmile_qr_scan"}, "type": "electric_scooter", "lat": 38.916803, "is_reserved": 0, "fusion_lat": 0.0}, {"bike_id": "15bafbbc71ef3b99e0eb5384faf1d763", "fusion_lon": 0.0, "lon": -77.0346825, "name": "15bafbbc71ef3b99e0eb5384faf1d763", "is_disabled": 0, "rental_uris": {"android": "https://dc.lft.to/lastmile_qr_scan", "ios": "https://dc.lft.to/lastmile_qr_scan"}, "type": "electric_scooter", "lat": 38.905573, "is_reserved": 0, "fusion_lat": 0.0}, {"bike_id": "757141852119125863fe43ac37304cd7", "fusion_lon": 0.0, "lon": -77.04860766666667, "name": "757141852119125863fe43ac37304cd7", "is_disabled": 0, "rental_uris": {"android": "https://dc.lft.to/lastmile_qr_scan", "ios": "https://dc.lft.to/lastmile_qr_scan"}, "type": "electric_scooter", "lat": 38.9152715, "is_reserved": 0, "fusion_lat": 0.0}, {"bike_id": "5f90cf5d5a8e9b88941171ef7454cc91", "fusion_lon": 0.0, "lon": -77.01198716666667, "name": "5f90cf5d5a8e9b88941171ef7454cc91", "is_disabled": 0, "rental_uris": {"android": "https://dc.lft.to/lastmile_qr_scan", "ios": "https://dc.lft.to/lastmile_qr_scan"}, "type": "electric_scooter", "lat": 38.9000895, "is_reserved": 0, "fusion_lat": 0.0}, {"bike_id": "9a8f3b9003368d5b01ee30a878c5bf1e", "fusion_lon": 0.0, "lon": -77.0269235, "name": "9a8f3b9003368d5b01ee30a878c5bf1e", "is_disabled": 0, "rental_uris": {"android": "https://dc.lft.to/lastmile_qr_scan", "ios": "https://dc.lft.to/lastmile_qr_scan"}, "type": "electric_scooter", "lat": 38.88126716666667, "is_reserved": 0, "fusion_lat": 0.0}, {"bike_id": "2ed0f020ac30d6c841bc1d8cbc59df2c", "fusion_lon": 0.0, "lon": -76.9273945, "name": "2ed0f020ac30d6c841bc1d8cbc59df2c", "is_disabled": 0, "rental_uris": {"android": "https://dc.lft.to/lastmile_qr_scan", "ios": "https://dc.lft.to/lastmile_qr_scan"}, "type": "electric_scooter", "lat": 38.88962883333333, "is_reserved": 0, "fusion_lat": 0.0}, {"bike_id": "e42a40b266ecd28794d2a26fcfed9767", "fusion_lon": 0.0, "lon": -77.02166816666667, "name": "e42a40b266ecd28794d2a26fcfed9767", "is_disabled": 0, "rental_uris": {"android": "https://dc.lft.to/lastmile_qr_scan", "ios": "https://dc.lft.to/lastmile_qr_scan"}, "type": "electric_scooter", "lat": 38.9459905, "is_reserved": 0, "fusion_lat": 0.0}, {"bike_id": "3f16bc52e9e696486a0b4307afaa0432", "fusion_lon": 0.0, "lon": -77.03102266666667, "name": "3f16bc52e9e696486a0b4307afaa0432", "is_disabled": 0, "rental_uris": {"android": "https://dc.lft.to/lastmile_qr_scan", "ios": "https://dc.lft.to/lastmile_qr_scan"}, "type": "electric_scooter", "lat": 38.92371083333333, "is_reserved": 0, "fusion_lat": 0.0}, {"bike_id": "dd3c0ea511a9ed44421e84bd941b1e2e", "fusion_lon": 0.0, "lon": -76.93158533333333, "name": "dd3c0ea511a9ed44421e84bd941b1e2e", "is_disabled": 0, "rental_uris": {"android": "https://dc.lft.to/lastmile_qr_scan", "ios": "https://dc.lft.to/lastmile_qr_scan"}, "type": "electric_scooter", "lat": 38.898761, "is_reserved": 0, "fusion_lat": 0.0}, {"bike_id": "ef8c87ee545bf83ef544e943b73a5771", "fusion_lon": 0.0, "lon": -77.00117433333334, "name": "ef8c87ee545bf83ef544e943b73a5771", "is_disabled": 0, "rental_uris": {"android": "https://dc.lft.to/lastmile_qr_scan", "ios": "https://dc.lft.to/lastmile_qr_scan"}, "type": "electric_scooter", "lat": 38.91702083333333, "is_reserved": 0, "fusion_lat": 0.0}, {"bike_id": "0949728640a9fbe033e14e5ef7339464", "fusion_lon": 0.0, "lon": -77.03349516666667, "name": "0949728640a9fbe033e14e5ef7339464", "is_disabled": 0, "rental_uris": {"android": "https://dc.lft.to/lastmile_qr_scan", "ios": "https://dc.lft.to/lastmile_qr_scan"}, "type": "electric_scooter", "lat": 38.94182683333333, "is_reserved": 0, "fusion_lat": 0.0}, {"bike_id": "97697d8e648b3df65a6e3e38b488f629", "fusion_lon": 0.0, "lon": -77.021432, "name": "97697d8e648b3df65a6e3e38b488f629", "is_disabled": 0, "rental_uris": {"android": "https://dc.lft.to/lastmile_qr_scan", "ios": "https://dc.lft.to/lastmile_qr_scan"}, "type": "electric_scooter", "lat": 38.88451633333333, "is_reserved": 0, "fusion_lat": 0.0}, {"bike_id": "f6260e37df3fc3114a9b7ec97cbf5861", "fusion_lon": 0.0, "lon": -77.02316833333333, "name": "f6260e37df3fc3114a9b7ec97cbf5861", "is_disabled": 0, "rental_uris": {"android": "https://dc.lft.to/lastmile_qr_scan", "ios": "https://dc.lft.to/lastmile_qr_scan"}, "type": "electric_scooter", "lat": 38.9072435, "is_reserved": 0, "fusion_lat": 0.0}, {"bike_id": "10c2d4b6d73a87821fd3aa528b1c718e", "fusion_lon": 0.0, "lon": -77.0347975, "name": "10c2d4b6d73a87821fd3aa528b1c718e", "is_disabled": 0, "rental_uris": {"android": "https://dc.lft.to/lastmile_qr_scan", "ios": "https://dc.lft.to/lastmile_qr_scan"}, "type": "electric_scooter", "lat": 38.92342216666667, "is_reserved": 0, "fusion_lat": 0.0}, {"bike_id": "a3e1c4f0c8408cb339bb14e033622292", "fusion_lon": 0.0, "lon": -76.98797983333333, "name": "a3e1c4f0c8408cb339bb14e033622292", "is_disabled": 0, "rental_uris": {"android": "https://dc.lft.to/lastmile_qr_scan", "ios": "https://dc.lft.to/lastmile_qr_scan"}, "type": "electric_bike", "lat": 38.92209, "is_reserved": 0, "fusion_lat": 0.0}, {"bike_id": "59aab48197c449a130b73564e5f551c7", "fusion_lon": 0.0, "lon": -76.98522416666667, "name": "59aab48197c449a130b73564e5f551c7", "is_disabled": 0, "rental_uris": {"android": "https://dc.lft.to/lastmile_qr_scan", "ios": "https://dc.lft.to/lastmile_qr_scan"}, "type": "electric_scooter", "lat": 38.8666615, "is_reserved": 0, "fusion_lat": 0.0}, {"bike_id": "65d55d93ad1be0bb261a34b2634cbb3f", "fusion_lon": 0.0, "lon": -77.02576716666667, "name": "65d55d93ad1be0bb261a34b2634cbb3f", "is_disabled": 0, "rental_uris": {"android": "https://dc.lft.to/lastmile_qr_scan", "ios": "https://dc.lft.to/lastmile_qr_scan"}, "type": "electric_scooter", "lat": 38.8922955, "is_reserved": 0, "fusion_lat": 0.0}, {"bike_id": "f8a5b025dd4ff7e9932f968acff7f7f0", "fusion_lon": 0.0, "lon": -77.036621, "name": "f8a5b025dd4ff7e9932f968acff7f7f0", "is_disabled": 0, "rental_uris": {"android": "https://dc.lft.to/lastmile_qr_scan", "ios": "https://dc.lft.to/lastmile_qr_scan"}, "type": "electric_scooter", "lat": 38.92100633333333, "is_reserved": 0, "fusion_lat": 0.0}, {"bike_id": "c4db0c00f8fb203fe09551798cd2b38b", "fusion_lon": 0.0, "lon": -77.03224083333333, "name": "c4db0c00f8fb203fe09551798cd2b38b", "is_disabled": 0, "rental_uris": {"android": "https://dc.lft.to/lastmile_qr_scan", "ios": "https://dc.lft.to/lastmile_qr_scan"}, "type": "electric_scooter", "lat": 38.9184595, "is_reserved": 0, "fusion_lat": 0.0}, {"bike_id": "dae86486cb65d2772890a4d65ee50d67", "fusion_lon": 0.0, "lon": -77.017305, "name": "dae86486cb65d2772890a4d65ee50d67", "is_disabled": 0, "rental_uris": {"android": "https://dc.lft.to/lastmile_qr_scan", "ios": "https://dc.lft.to/lastmile_qr_scan"}, "type": "electric_bike", "lat": 38.9160485, "is_reserved": 0, "fusion_lat": 0.0}, {"bike_id": "b2578ef49b0fc5451c62b11046faf4c9", "fusion_lon": 0.0, "lon": -76.992748, "name": "b2578ef49b0fc5451c62b11046faf4c9", "is_disabled": 0, "rental_uris": {"android": "https://dc.lft.to/lastmile_qr_scan", "ios": "https://dc.lft.to/lastmile_qr_scan"}, "type": "electric_scooter", "lat": 38.886375, "is_reserved": 0, "fusion_lat": 0.0}, {"bike_id": "846b2d53f9250196b6b975f2ade0130d", "fusion_lon": 0.0, "lon": -76.94875433333333, "name": "846b2d53f9250196b6b975f2ade0130d", "is_disabled": 0, "rental_uris": {"android": "https://dc.lft.to/lastmile_qr_scan", "ios": "https://dc.lft.to/lastmile_qr_scan"}, "type": "electric_scooter", "lat": 38.8949925, "is_reserved": 0, "fusion_lat": 0.0}, {"bike_id": "6e3424ead6eb1e2c9b52feb63878900e", "fusion_lon": 0.0, "lon": -77.02943466666666, "name": "6e3424ead6eb1e2c9b52feb63878900e", "is_disabled": 0, "rental_uris": {"android": "https://dc.lft.to/lastmile_qr_scan", "ios": "https://dc.lft.to/lastmile_qr_scan"}, "type": "electric_scooter", "lat": 38.8992395, "is_reserved": 0, "fusion_lat": 0.0}, {"bike_id": "6675987ffe4abef30f4c8ea460a7f142", "fusion_lon": 0.0, "lon": -76.98887566666667, "name": "6675987ffe4abef30f4c8ea460a7f142", "is_disabled": 0, "rental_uris": {"android": "https://dc.lft.to/lastmile_qr_scan", "ios": "https://dc.lft.to/lastmile_qr_scan"}, "type": "electric_scooter", "lat": 38.86648233333333, "is_reserved": 0, "fusion_lat": 0.0}, {"bike_id": "cff4855f35d7930a0a02e8126a56eee4", "fusion_lon": 0.0, "lon": -77.02596883333334, "name": "cff4855f35d7930a0a02e8126a56eee4", "is_disabled": 0, "rental_uris": {"android": "https://dc.lft.to/lastmile_qr_scan", "ios": "https://dc.lft.to/lastmile_qr_scan"}, "type": "electric_scooter", "lat": 38.90240083333333, "is_reserved": 0, "fusion_lat": 0.0}, {"bike_id": "e3bfdd33fd7f7a32a9993d427cd4262c", "fusion_lon": 0.0, "lon": -77.00566633333334, "name": "e3bfdd33fd7f7a32a9993d427cd4262c", "is_disabled": 0, "rental_uris": {"android": "https://dc.lft.to/lastmile_qr_scan", "ios": "https://dc.lft.to/lastmile_qr_scan"}, "type": "electric_scooter", "lat": 38.880351833333336, "is_reserved": 0, "fusion_lat": 0.0}, {"bike_id": "768ddb0e740a84e8581e6ec838b1e7b3", "fusion_lon": 0.0, "lon": -77.043182, "name": "768ddb0e740a84e8581e6ec838b1e7b3", "is_disabled": 0, "rental_uris": {"android": "https://dc.lft.to/lastmile_qr_scan", "ios": "https://dc.lft.to/lastmile_qr_scan"}, "type": "electric_scooter", "lat": 38.92659116666667, "is_reserved": 0, "fusion_lat": 0.0}, {"bike_id": "43ac71297f99bb6d4b6e011333a3a28a", "fusion_lon": 0.0, "lon": -76.98729, "name": "43ac71297f99bb6d4b6e011333a3a28a", "is_disabled": 0, "rental_uris": {"android": "https://dc.lft.to/lastmile_qr_scan", "ios": "https://dc.lft.to/lastmile_qr_scan"}, "type": "electric_scooter", "lat": 38.906929166666664, "is_reserved": 0, "fusion_lat": 0.0}, {"bike_id": "ec2ef128fde602e8c3281f384c20711e", "fusion_lon": 0.0, "lon": -77.02718466666667, "name": "ec2ef128fde602e8c3281f384c20711e", "is_disabled": 0, "rental_uris": {"android": "https://dc.lft.to/lastmile_qr_scan", "ios": "https://dc.lft.to/lastmile_qr_scan"}, "type": "electric_scooter", "lat": 38.90956166666667, "is_reserved": 0, "fusion_lat": 0.0}, {"bike_id": "10cbd5aab165db35f2b6159e7abaea52", "fusion_lon": 0.0, "lon": -77.02773333333333, "name": "10cbd5aab165db35f2b6159e7abaea52", "is_disabled": 0, "rental_uris": {"android": "https://dc.lft.to/lastmile_qr_scan", "ios": "https://dc.lft.to/lastmile_qr_scan"}, "type": "electric_scooter", "lat": 38.939621333333335, "is_reserved": 0, "fusion_lat": 0.0}, {"bike_id": "f4c56956fe11168d2ce715f7e7bda30f", "fusion_lon": 0.0, "lon": -77.018356, "name": "f4c56956fe11168d2ce715f7e7bda30f", "is_disabled": 0, "rental_uris": {"android": "https://dc.lft.to/lastmile_qr_scan", "ios": "https://dc.lft.to/lastmile_qr_scan"}, "type": "electric_scooter", "lat": 38.90017433333333, "is_reserved": 0, "fusion_lat": 0.0}, {"bike_id": "3946e3eb5c543675f3bb44798698f5ad", "fusion_lon": 0.0, "lon": -77.00521416666666, "name": "3946e3eb5c543675f3bb44798698f5ad", "is_disabled": 0, "rental_uris": {"android": "https://dc.lft.to/lastmile_qr_scan", "ios": "https://dc.lft.to/lastmile_qr_scan"}, "type": "electric_scooter", "lat": 38.8802375, "is_reserved": 0, "fusion_lat": 0.0}, {"bike_id": "e59e6ba705c0c50ac9e9ba5c5080cc69", "fusion_lon": 0.0, "lon": -76.99815383333333, "name": "e59e6ba705c0c50ac9e9ba5c5080cc69", "is_disabled": 0, "rental_uris": {"android": "https://dc.lft.to/lastmile_qr_scan", "ios": "https://dc.lft.to/lastmile_qr_scan"}, "type": "electric_bike", "lat": 38.91019816666667, "is_reserved": 0, "fusion_lat": 0.0}, {"bike_id": "08739a60c0dff7f152cdd1bf3b8dce80", "fusion_lon": 0.0, "lon": -77.025587, "name": "08739a60c0dff7f152cdd1bf3b8dce80", "is_disabled": 0, "rental_uris": {"android": "https://dc.lft.to/lastmile_qr_scan", "ios": "https://dc.lft.to/lastmile_qr_scan"}, "type": "electric_scooter", "lat": 38.915509166666666, "is_reserved": 0, "fusion_lat": 0.0}, {"bike_id": "c91dcd8677e1e2add5562bb2436fb125", "fusion_lon": 0.0, "lon": -77.0257985, "name": "c91dcd8677e1e2add5562bb2436fb125", "is_disabled": 0, "rental_uris": {"android": "https://dc.lft.to/lastmile_qr_scan", "ios": "https://dc.lft.to/lastmile_qr_scan"}, "type": "electric_scooter", "lat": 38.916003333333336, "is_reserved": 0, "fusion_lat": 0.0}, {"bike_id": "aa23bf076393bb32c51ea0df1526e5d2", "fusion_lon": 0.0, "lon": -77.03183433333334, "name": "aa23bf076393bb32c51ea0df1526e5d2", "is_disabled": 0, "rental_uris": {"android": "https://dc.lft.to/lastmile_qr_scan", "ios": "https://dc.lft.to/lastmile_qr_scan"}, "type": "electric_scooter", "lat": 38.9035895, "is_reserved": 0, "fusion_lat": 0.0}, {"bike_id": "0ce538cd100dbe8f5cb290f747053d49", "fusion_lon": 0.0, "lon": -77.01176833333334, "name": "0ce538cd100dbe8f5cb290f747053d49", "is_disabled": 0, "rental_uris": {"android": "https://dc.lft.to/lastmile_qr_scan", "ios": "https://dc.lft.to/lastmile_qr_scan"}, "type": "electric_scooter", "lat": 38.909526166666666, "is_reserved": 0, "fusion_lat": 0.0}, {"bike_id": "60117b6da5526361b59ab4db7f569b1c", "fusion_lon": 0.0, "lon": -77.01146483333333, "name": "60117b6da5526361b59ab4db7f569b1c", "is_disabled": 0, "rental_uris": {"android": "https://dc.lft.to/lastmile_qr_scan", "ios": "https://dc.lft.to/lastmile_qr_scan"}, "type": "electric_scooter", "lat": 38.91180166666667, "is_reserved": 0, "fusion_lat": 0.0}, {"bike_id": "e33b82b6c5d8c54a822c29f05a0f8c4e", "fusion_lon": 0.0, "lon": -77.052755, "name": "e33b82b6c5d8c54a822c29f05a0f8c4e", "is_disabled": 0, "rental_uris": {"android": "https://dc.lft.to/lastmile_qr_scan", "ios": "https://dc.lft.to/lastmile_qr_scan"}, "type": "electric_scooter", "lat": 38.92544083333333, "is_reserved": 0, "fusion_lat": 0.0}, {"bike_id": "52da5fa10c4f2ccbc0b1c1aa0482bf88", "fusion_lon": 0.0, "lon": -77.00118883333333, "name": "52da5fa10c4f2ccbc0b1c1aa0482bf88", "is_disabled": 0, "rental_uris": {"android": "https://dc.lft.to/lastmile_qr_scan", "ios": "https://dc.lft.to/lastmile_qr_scan"}, "type": "electric_scooter", "lat": 38.90556216666667, "is_reserved": 0, "fusion_lat": 0.0}, {"bike_id": "3df77bef10cba58d8c658b008f4e7357", "fusion_lon": 0.0, "lon": -76.9996835, "name": "3df77bef10cba58d8c658b008f4e7357", "is_disabled": 0, "rental_uris": {"android": "https://dc.lft.to/lastmile_qr_scan", "ios": "https://dc.lft.to/lastmile_qr_scan"}, "type": "electric_scooter", "lat": 38.924430666666666, "is_reserved": 0, "fusion_lat": 0.0}, {"bike_id": "a7bebe84adb821af16a42ac1b9d327a6", "fusion_lon": 0.0, "lon": -76.9953255, "name": "a7bebe84adb821af16a42ac1b9d327a6", "is_disabled": 0, "rental_uris": {"android": "https://dc.lft.to/lastmile_qr_scan", "ios": "https://dc.lft.to/lastmile_qr_scan"}, "type": "electric_bike", "lat": 38.9002715, "is_reserved": 0, "fusion_lat": 0.0}, {"bike_id": "69b38a76cd69730006dba37d865db52f", "fusion_lon": 0.0, "lon": -77.04878733333334, "name": "69b38a76cd69730006dba37d865db52f", "is_disabled": 0, "rental_uris": {"android": "https://dc.lft.to/lastmile_qr_scan", "ios": "https://dc.lft.to/lastmile_qr_scan"}, "type": "electric_scooter", "lat": 38.898902166666666, "is_reserved": 0, "fusion_lat": 0.0}, {"bike_id": "fc716933b18daf39387568cb54f7c219", "fusion_lon": 0.0, "lon": -77.04868266666666, "name": "fc716933b18daf39387568cb54f7c219", "is_disabled": 0, "rental_uris": {"android": "https://dc.lft.to/lastmile_qr_scan", "ios": "https://dc.lft.to/lastmile_qr_scan"}, "type": "electric_scooter", "lat": 38.90579533333333, "is_reserved": 0, "fusion_lat": 0.0}, {"bike_id": "773ab4023f44e4239603222d6d281a84", "fusion_lon": 0.0, "lon": -77.02205183333334, "name": "773ab4023f44e4239603222d6d281a84", "is_disabled": 0, "rental_uris": {"android": "https://dc.lft.to/lastmile_qr_scan", "ios": "https://dc.lft.to/lastmile_qr_scan"}, "type": "electric_scooter", "lat": 38.878827333333334, "is_reserved": 0, "fusion_lat": 0.0}, {"bike_id": "866ad805370bb107a74aa59e0ef0c8b6", "fusion_lon": 0.0, "lon": -77.0255885, "name": "866ad805370bb107a74aa59e0ef0c8b6", "is_disabled": 0, "rental_uris": {"android": "https://dc.lft.to/lastmile_qr_scan", "ios": "https://dc.lft.to/lastmile_qr_scan"}, "type": "electric_scooter", "lat": 38.914829, "is_reserved": 0, "fusion_lat": 0.0}, {"bike_id": "5f3cd36321c7c8d498f6bc5dacc2bbb0", "fusion_lon": 0.0, "lon": -77.03287416666667, "name": "5f3cd36321c7c8d498f6bc5dacc2bbb0", "is_disabled": 0, "rental_uris": {"android": "https://dc.lft.to/lastmile_qr_scan", "ios": "https://dc.lft.to/lastmile_qr_scan"}, "type": "electric_scooter", "lat": 38.920647833333334, "is_reserved": 0, "fusion_lat": 0.0}, {"bike_id": "810c2a04e2faa893f418fd911de54127", "fusion_lon": 0.0, "lon": -77.04623483333333, "name": "810c2a04e2faa893f418fd911de54127", "is_disabled": 0, "rental_uris": {"android": "https://dc.lft.to/lastmile_qr_scan", "ios": "https://dc.lft.to/lastmile_qr_scan"}, "type": "electric_scooter", "lat": 38.9193105, "is_reserved": 0, "fusion_lat": 0.0}, {"bike_id": "1abda0d3b730ccd864c5863c4fb3f40b", "fusion_lon": 0.0, "lon": -77.0436825, "name": "1abda0d3b730ccd864c5863c4fb3f40b", "is_disabled": 0, "rental_uris": {"android": "https://dc.lft.to/lastmile_qr_scan", "ios": "https://dc.lft.to/lastmile_qr_scan"}, "type": "electric_scooter", "lat": 38.921434166666664, "is_reserved": 0, "fusion_lat": 0.0}, {"bike_id": "f4f861706928ebd412169b3ce9002812", "fusion_lon": 0.0, "lon": -77.016118, "name": "f4f861706928ebd412169b3ce9002812", "is_disabled": 0, "rental_uris": {"android": "https://dc.lft.to/lastmile_qr_scan", "ios": "https://dc.lft.to/lastmile_qr_scan"}, "type": "electric_scooter", "lat": 38.89967583333333, "is_reserved": 0, "fusion_lat": 0.0}, {"bike_id": "75df28a2570ff765550aec8756787dad", "fusion_lon": 0.0, "lon": -76.98605, "name": "75df28a2570ff765550aec8756787dad", "is_disabled": 0, "rental_uris": {"android": "https://dc.lft.to/lastmile_qr_scan", "ios": "https://dc.lft.to/lastmile_qr_scan"}, "type": "electric_scooter", "lat": 38.8783565, "is_reserved": 0, "fusion_lat": 0.0}, {"bike_id": "e570ebbce7831c83017450da150048e9", "fusion_lon": 0.0, "lon": -77.02010083333333, "name": "e570ebbce7831c83017450da150048e9", "is_disabled": 0, "rental_uris": {"android": "https://dc.lft.to/lastmile_qr_scan", "ios": "https://dc.lft.to/lastmile_qr_scan"}, "type": "electric_scooter", "lat": 38.9017055, "is_reserved": 0, "fusion_lat": 0.0}, {"bike_id": "de4498541401e6fe914825e0b28a0b94", "fusion_lon": 0.0, "lon": -76.99366333333333, "name": "de4498541401e6fe914825e0b28a0b94", "is_disabled": 0, "rental_uris": {"android": "https://dc.lft.to/lastmile_qr_scan", "ios": "https://dc.lft.to/lastmile_qr_scan"}, "type": "electric_scooter", "lat": 38.928352333333336, "is_reserved": 0, "fusion_lat": 0.0}, {"bike_id": "863b6d25dfbc5e70abc15fb029799be9", "fusion_lon": 0.0, "lon": -77.04131916666667, "name": "863b6d25dfbc5e70abc15fb029799be9", "is_disabled": 0, "rental_uris": {"android": "https://dc.lft.to/lastmile_qr_scan", "ios": "https://dc.lft.to/lastmile_qr_scan"}, "type": "electric_scooter", "lat": 38.933660333333336, "is_reserved": 0, "fusion_lat": 0.0}, {"bike_id": "a469959df0ca3850497d6a76066b1a8b", "fusion_lon": 0.0, "lon": -77.03533533333334, "name": "a469959df0ca3850497d6a76066b1a8b", "is_disabled": 0, "rental_uris": {"android": "https://dc.lft.to/lastmile_qr_scan", "ios": "https://dc.lft.to/lastmile_qr_scan"}, "type": "electric_scooter", "lat": 38.92468233333334, "is_reserved": 0, "fusion_lat": 0.0}, {"bike_id": "a50fa8f6130c6c182418181fc73dd966", "fusion_lon": 0.0, "lon": -77.05859683333334, "name": "a50fa8f6130c6c182418181fc73dd966", "is_disabled": 0, "rental_uris": {"android": "https://dc.lft.to/lastmile_qr_scan", "ios": "https://dc.lft.to/lastmile_qr_scan"}, "type": "electric_scooter", "lat": 38.93605566666667, "is_reserved": 0, "fusion_lat": 0.0}, {"bike_id": "c80374c1602f5a10281b5a260b21cb0d", "fusion_lon": 0.0, "lon": -77.038804, "name": "c80374c1602f5a10281b5a260b21cb0d", "is_disabled": 0, "rental_uris": {"android": "https://dc.lft.to/lastmile_qr_scan", "ios": "https://dc.lft.to/lastmile_qr_scan"}, "type": "electric_scooter", "lat": 38.9311985, "is_reserved": 0, "fusion_lat": 0.0}, {"bike_id": "4e2334a0376a1c1b320774994eba2074", "fusion_lon": 0.0, "lon": -77.031649, "name": "4e2334a0376a1c1b320774994eba2074", "is_disabled": 0, "rental_uris": {"android": "https://dc.lft.to/lastmile_qr_scan", "ios": "https://dc.lft.to/lastmile_qr_scan"}, "type": "electric_scooter", "lat": 38.89219816666667, "is_reserved": 0, "fusion_lat": 0.0}, {"bike_id": "14fc01c5c808601fa95f46a3c26592e6", "fusion_lon": 0.0, "lon": -77.034609, "name": "14fc01c5c808601fa95f46a3c26592e6", "is_disabled": 0, "rental_uris": {"android": "https://dc.lft.to/lastmile_qr_scan", "ios": "https://dc.lft.to/lastmile_qr_scan"}, "type": "electric_scooter", "lat": 38.9354505, "is_reserved": 0, "fusion_lat": 0.0}, {"bike_id": "78f2f65a617fe7276654f712836a4e24", "fusion_lon": 0.0, "lon": -77.0281565, "name": "78f2f65a617fe7276654f712836a4e24", "is_disabled": 0, "rental_uris": {"android": "https://dc.lft.to/lastmile_qr_scan", "ios": "https://dc.lft.to/lastmile_qr_scan"}, "type": "electric_scooter", "lat": 38.89524983333333, "is_reserved": 0, "fusion_lat": 0.0}, {"bike_id": "dfd03d588008d50833a66ad683c9c850", "fusion_lon": 0.0, "lon": -77.06516533333334, "name": "dfd03d588008d50833a66ad683c9c850", "is_disabled": 0, "rental_uris": {"android": "https://dc.lft.to/lastmile_qr_scan", "ios": "https://dc.lft.to/lastmile_qr_scan"}, "type": "electric_scooter", "lat": 38.90587716666667, "is_reserved": 0, "fusion_lat": 0.0}, {"bike_id": "883459aef49de7659e8adc30b8f57262", "fusion_lon": 0.0, "lon": -76.9849845, "name": "883459aef49de7659e8adc30b8f57262", "is_disabled": 0, "rental_uris": {"android": "https://dc.lft.to/lastmile_qr_scan", "ios": "https://dc.lft.to/lastmile_qr_scan"}, "type": "electric_scooter", "lat": 38.8935065, "is_reserved": 0, "fusion_lat": 0.0}, {"bike_id": "8fd27b32d44048d60347838f575091e2", "fusion_lon": 0.0, "lon": -76.97708083333333, "name": "8fd27b32d44048d60347838f575091e2", "is_disabled": 0, "rental_uris": {"android": "https://dc.lft.to/lastmile_qr_scan", "ios": "https://dc.lft.to/lastmile_qr_scan"}, "type": "electric_scooter", "lat": 38.90253883333333, "is_reserved": 0, "fusion_lat": 0.0}, {"bike_id": "c170b3ab083c3dd3f7795caf4fd5db80", "fusion_lon": 0.0, "lon": -77.03902833333333, "name": "c170b3ab083c3dd3f7795caf4fd5db80", "is_disabled": 0, "rental_uris": {"android": "https://dc.lft.to/lastmile_qr_scan", "ios": "https://dc.lft.to/lastmile_qr_scan"}, "type": "electric_scooter", "lat": 38.918654333333336, "is_reserved": 0, "fusion_lat": 0.0}, {"bike_id": "11425b72f0751763e7d7f7b7dd647e9b", "fusion_lon": 0.0, "lon": -77.01031333333333, "name": "11425b72f0751763e7d7f7b7dd647e9b", "is_disabled": 0, "rental_uris": {"android": "https://dc.lft.to/lastmile_qr_scan", "ios": "https://dc.lft.to/lastmile_qr_scan"}, "type": "electric_bike", "lat": 38.958794, "is_reserved": 0, "fusion_lat": 0.0}, {"bike_id": "f4c24d52c136685b33215cfbf23803a0", "fusion_lon": 0.0, "lon": -77.03051366666666, "name": "f4c24d52c136685b33215cfbf23803a0", "is_disabled": 0, "rental_uris": {"android": "https://dc.lft.to/lastmile_qr_scan", "ios": "https://dc.lft.to/lastmile_qr_scan"}, "type": "electric_scooter", "lat": 38.9346515, "is_reserved": 0, "fusion_lat": 0.0}, {"bike_id": "7dc59e7e782c13d79a6df91fba70f920", "fusion_lon": 0.0, "lon": -77.04658366666666, "name": "7dc59e7e782c13d79a6df91fba70f920", "is_disabled": 0, "rental_uris": {"android": "https://dc.lft.to/lastmile_qr_scan", "ios": "https://dc.lft.to/lastmile_qr_scan"}, "type": "electric_scooter", "lat": 38.900588, "is_reserved": 0, "fusion_lat": 0.0}, {"bike_id": "8038f460eeba55dfb0c7efdd55612c3f", "fusion_lon": 0.0, "lon": -77.03660233333333, "name": "8038f460eeba55dfb0c7efdd55612c3f", "is_disabled": 0, "rental_uris": {"android": "https://dc.lft.to/lastmile_qr_scan", "ios": "https://dc.lft.to/lastmile_qr_scan"}, "type": "electric_scooter", "lat": 38.922874166666666, "is_reserved": 0, "fusion_lat": 0.0}, {"bike_id": "4dc90c24efa5bf51f3f7f66b2dd49a80", "fusion_lon": 0.0, "lon": -77.00552083333334, "name": "4dc90c24efa5bf51f3f7f66b2dd49a80", "is_disabled": 0, "rental_uris": {"android": "https://dc.lft.to/lastmile_qr_scan", "ios": "https://dc.lft.to/lastmile_qr_scan"}, "type": "electric_bike", "lat": 38.905527666666664, "is_reserved": 0, "fusion_lat": 0.0}, {"bike_id": "400576661f6b78a33e58ccfd32334a54", "fusion_lon": 0.0, "lon": -77.021034, "name": "400576661f6b78a33e58ccfd32334a54", "is_disabled": 0, "rental_uris": {"android": "https://dc.lft.to/lastmile_qr_scan", "ios": "https://dc.lft.to/lastmile_qr_scan"}, "type": "electric_scooter", "lat": 38.88501316666667, "is_reserved": 0, "fusion_lat": 0.0}, {"bike_id": "c915a258e7d80c6cbe7ad201f4df9aec", "fusion_lon": 0.0, "lon": -77.01813383333334, "name": "c915a258e7d80c6cbe7ad201f4df9aec", "is_disabled": 0, "rental_uris": {"android": "https://dc.lft.to/lastmile_qr_scan", "ios": "https://dc.lft.to/lastmile_qr_scan"}, "type": "electric_scooter", "lat": 38.922356, "is_reserved": 0, "fusion_lat": 0.0}, {"bike_id": "87e9b44465a24c7580f2281bcbdf8b95", "fusion_lon": 0.0, "lon": -77.0165435, "name": "87e9b44465a24c7580f2281bcbdf8b95", "is_disabled": 0, "rental_uris": {"android": "https://dc.lft.to/lastmile_qr_scan", "ios": "https://dc.lft.to/lastmile_qr_scan"}, "type": "electric_scooter", "lat": 38.88115716666667, "is_reserved": 0, "fusion_lat": 0.0}, {"bike_id": "b25f4eeba116639496d164f51ed9a8c7", "fusion_lon": 0.0, "lon": -77.0383545, "name": "b25f4eeba116639496d164f51ed9a8c7", "is_disabled": 0, "rental_uris": {"android": "https://dc.lft.to/lastmile_qr_scan", "ios": "https://dc.lft.to/lastmile_qr_scan"}, "type": "electric_scooter", "lat": 38.90958766666667, "is_reserved": 0, "fusion_lat": 0.0}, {"bike_id": "a426bb1a521f6aaba1f49830c27674f1", "fusion_lon": 0.0, "lon": -77.03120333333334, "name": "a426bb1a521f6aaba1f49830c27674f1", "is_disabled": 0, "rental_uris": {"android": "https://dc.lft.to/lastmile_qr_scan", "ios": "https://dc.lft.to/lastmile_qr_scan"}, "type": "electric_bike", "lat": 38.959208333333336, "is_reserved": 0, "fusion_lat": 0.0}, {"bike_id": "50686dfbe8da70925f813382480933b0", "fusion_lon": 0.0, "lon": -77.0281075, "name": "50686dfbe8da70925f813382480933b0", "is_disabled": 0, "rental_uris": {"android": "https://dc.lft.to/lastmile_qr_scan", "ios": "https://dc.lft.to/lastmile_qr_scan"}, "type": "electric_scooter", "lat": 38.9142945, "is_reserved": 0, "fusion_lat": 0.0}, {"bike_id": "d1dd496e0747f0a706e81aa04b36c777", "fusion_lon": 0.0, "lon": -77.0178045, "name": "d1dd496e0747f0a706e81aa04b36c777", "is_disabled": 0, "rental_uris": {"android": "https://dc.lft.to/lastmile_qr_scan", "ios": "https://dc.lft.to/lastmile_qr_scan"}, "type": "electric_scooter", "lat": 38.90388816666667, "is_reserved": 0, "fusion_lat": 0.0}, {"bike_id": "da4eae8f72d558beacd7c34bb10ec778", "fusion_lon": 0.0, "lon": -76.99814716666667, "name": "da4eae8f72d558beacd7c34bb10ec778", "is_disabled": 0, "rental_uris": {"android": "https://dc.lft.to/lastmile_qr_scan", "ios": "https://dc.lft.to/lastmile_qr_scan"}, "type": "electric_scooter", "lat": 38.84433666666666, "is_reserved": 0, "fusion_lat": 0.0}, {"bike_id": "2380ee78ada3a950019f3e3c4bd15b4f", "fusion_lon": 0.0, "lon": -77.02409516666667, "name": "2380ee78ada3a950019f3e3c4bd15b4f", "is_disabled": 0, "rental_uris": {"android": "https://dc.lft.to/lastmile_qr_scan", "ios": "https://dc.lft.to/lastmile_qr_scan"}, "type": "electric_bike", "lat": 38.93464383333333, "is_reserved": 0, "fusion_lat": 0.0}, {"bike_id": "b19f4e32cd788692e8f8d140a541ea81", "fusion_lon": 0.0, "lon": -77.05228266666667, "name": "b19f4e32cd788692e8f8d140a541ea81", "is_disabled": 0, "rental_uris": {"android": "https://dc.lft.to/lastmile_qr_scan", "ios": "https://dc.lft.to/lastmile_qr_scan"}, "type": "electric_scooter", "lat": 38.92699, "is_reserved": 0, "fusion_lat": 0.0}, {"bike_id": "48e0104209b4421597e2ddf4cce349aa", "fusion_lon": 0.0, "lon": -77.0259815, "name": "48e0104209b4421597e2ddf4cce349aa", "is_disabled": 0, "rental_uris": {"android": "https://dc.lft.to/lastmile_qr_scan", "ios": "https://dc.lft.to/lastmile_qr_scan"}, "type": "electric_scooter", "lat": 38.91689216666666, "is_reserved": 0, "fusion_lat": 0.0}, {"bike_id": "2ceaca30379a1e78637e578355ef23f7", "fusion_lon": 0.0, "lon": -77.03462333333333, "name": "2ceaca30379a1e78637e578355ef23f7", "is_disabled": 0, "rental_uris": {"android": "https://dc.lft.to/lastmile_qr_scan", "ios": "https://dc.lft.to/lastmile_qr_scan"}, "type": "electric_scooter", "lat": 38.908036, "is_reserved": 0, "fusion_lat": 0.0}, {"bike_id": "79ee83c95d173b4b6cc794a8860fed4d", "fusion_lon": 0.0, "lon": -77.00971066666666, "name": "79ee83c95d173b4b6cc794a8860fed4d", "is_disabled": 0, "rental_uris": {"android": "https://dc.lft.to/lastmile_qr_scan", "ios": "https://dc.lft.to/lastmile_qr_scan"}, "type": "electric_scooter", "lat": 38.907832666666664, "is_reserved": 0, "fusion_lat": 0.0}, {"bike_id": "6b8023345c14b4e2cb17a74120bf784e", "fusion_lon": 0.0, "lon": -76.98652933333334, "name": "6b8023345c14b4e2cb17a74120bf784e", "is_disabled": 0, "rental_uris": {"android": "https://dc.lft.to/lastmile_qr_scan", "ios": "https://dc.lft.to/lastmile_qr_scan"}, "type": "electric_scooter", "lat": 38.85804816666667, "is_reserved": 0, "fusion_lat": 0.0}, {"bike_id": "b63b5c1d4dadad5bcbc6eae49e46a7a2", "fusion_lon": 0.0, "lon": -76.98925, "name": "b63b5c1d4dadad5bcbc6eae49e46a7a2", "is_disabled": 0, "rental_uris": {"android": "https://dc.lft.to/lastmile_qr_scan", "ios": "https://dc.lft.to/lastmile_qr_scan"}, "type": "electric_scooter", "lat": 38.85810816666667, "is_reserved": 0, "fusion_lat": 0.0}, {"bike_id": "3e6b860281f2e04ffbcce8d06953fe54", "fusion_lon": 0.0, "lon": -77.02694333333334, "name": "3e6b860281f2e04ffbcce8d06953fe54", "is_disabled": 0, "rental_uris": {"android": "https://dc.lft.to/lastmile_qr_scan", "ios": "https://dc.lft.to/lastmile_qr_scan"}, "type": "electric_scooter", "lat": 38.91126383333334, "is_reserved": 0, "fusion_lat": 0.0}, {"bike_id": "583d98a9b08f833aea60e0cdb802af51", "fusion_lon": 0.0, "lon": -77.03495616666666, "name": "583d98a9b08f833aea60e0cdb802af51", "is_disabled": 0, "rental_uris": {"android": "https://dc.lft.to/lastmile_qr_scan", "ios": "https://dc.lft.to/lastmile_qr_scan"}, "type": "electric_scooter", "lat": 38.9169235, "is_reserved": 0, "fusion_lat": 0.0}, {"bike_id": "3326aa69c0d335cd68564ad603f4566d", "fusion_lon": 0.0, "lon": -77.057149, "name": "3326aa69c0d335cd68564ad603f4566d", "is_disabled": 0, "rental_uris": {"android": "https://dc.lft.to/lastmile_qr_scan", "ios": "https://dc.lft.to/lastmile_qr_scan"}, "type": "electric_scooter", "lat": 38.93362533333333, "is_reserved": 0, "fusion_lat": 0.0}, {"bike_id": "96b901af66397f50a8bd51b82844c0d0", "fusion_lon": 0.0, "lon": -77.02556833333334, "name": "96b901af66397f50a8bd51b82844c0d0", "is_disabled": 0, "rental_uris": {"android": "https://dc.lft.to/lastmile_qr_scan", "ios": "https://dc.lft.to/lastmile_qr_scan"}, "type": "electric_scooter", "lat": 38.88061166666667, "is_reserved": 0, "fusion_lat": 0.0}, {"bike_id": "19d4b57886d3a39298f69b8360292674", "fusion_lon": 0.0, "lon": -77.01759533333333, "name": "19d4b57886d3a39298f69b8360292674", "is_disabled": 0, "rental_uris": {"android": "https://dc.lft.to/lastmile_qr_scan", "ios": "https://dc.lft.to/lastmile_qr_scan"}, "type": "electric_scooter", "lat": 38.87495916666666, "is_reserved": 0, "fusion_lat": 0.0}, {"bike_id": "ab39aef94ac2bfce3938d19a6b1ae351", "fusion_lon": 0.0, "lon": -77.04397583333333, "name": "ab39aef94ac2bfce3938d19a6b1ae351", "is_disabled": 0, "rental_uris": {"android": "https://dc.lft.to/lastmile_qr_scan", "ios": "https://dc.lft.to/lastmile_qr_scan"}, "type": "electric_scooter", "lat": 38.912654, "is_reserved": 0, "fusion_lat": 0.0}, {"bike_id": "ccec8558ca2bab37773b0b260772419b", "fusion_lon": 0.0, "lon": -77.02379, "name": "ccec8558ca2bab37773b0b260772419b", "is_disabled": 0, "rental_uris": {"android": "https://dc.lft.to/lastmile_qr_scan", "ios": "https://dc.lft.to/lastmile_qr_scan"}, "type": "electric_scooter", "lat": 38.90188883333333, "is_reserved": 0, "fusion_lat": 0.0}, {"bike_id": "5a19d4560c8d0be7a5302ab3cc95b6ec", "fusion_lon": 0.0, "lon": -77.01996, "name": "5a19d4560c8d0be7a5302ab3cc95b6ec", "is_disabled": 0, "rental_uris": {"android": "https://dc.lft.to/lastmile_qr_scan", "ios": "https://dc.lft.to/lastmile_qr_scan"}, "type": "electric_scooter", "lat": 38.913613833333336, "is_reserved": 0, "fusion_lat": 0.0}, {"bike_id": "f3d66178341e9a4650fa00e874d765d3", "fusion_lon": 0.0, "lon": -76.93349716666667, "name": "f3d66178341e9a4650fa00e874d765d3", "is_disabled": 0, "rental_uris": {"android": "https://dc.lft.to/lastmile_qr_scan", "ios": "https://dc.lft.to/lastmile_qr_scan"}, "type": "electric_scooter", "lat": 38.89917333333333, "is_reserved": 0, "fusion_lat": 0.0}, {"bike_id": "f14fe8ccaaf61bf2afe349ca9a501ca4", "fusion_lon": 0.0, "lon": -77.017374, "name": "f14fe8ccaaf61bf2afe349ca9a501ca4", "is_disabled": 0, "rental_uris": {"android": "https://dc.lft.to/lastmile_qr_scan", "ios": "https://dc.lft.to/lastmile_qr_scan"}, "type": "electric_scooter", "lat": 38.8727215, "is_reserved": 0, "fusion_lat": 0.0}, {"bike_id": "3c565fd75bdf8f8dd43e95a3919eca6d", "fusion_lon": 0.0, "lon": -77.049234, "name": "3c565fd75bdf8f8dd43e95a3919eca6d", "is_disabled": 0, "rental_uris": {"android": "https://dc.lft.to/lastmile_qr_scan", "ios": "https://dc.lft.to/lastmile_qr_scan"}, "type": "electric_bike", "lat": 38.813457, "is_reserved": 0, "fusion_lat": 0.0}, {"bike_id": "abde08fa044c637861bbb166fe76377a", "fusion_lon": 0.0, "lon": -77.0457365, "name": "abde08fa044c637861bbb166fe76377a", "is_disabled": 0, "rental_uris": {"android": "https://dc.lft.to/lastmile_qr_scan", "ios": "https://dc.lft.to/lastmile_qr_scan"}, "type": "electric_bike", "lat": 38.92416383333333, "is_reserved": 0, "fusion_lat": 0.0}, {"bike_id": "f724346527877925a39d27e3a55c025c", "fusion_lon": 0.0, "lon": -76.97157066666666, "name": "f724346527877925a39d27e3a55c025c", "is_disabled": 0, "rental_uris": {"android": "https://dc.lft.to/lastmile_qr_scan", "ios": "https://dc.lft.to/lastmile_qr_scan"}, "type": "electric_bike", "lat": 38.91644466666666, "is_reserved": 0, "fusion_lat": 0.0}, {"bike_id": "ec5aa1b5318236981e11713e67c8bbe9", "fusion_lon": 0.0, "lon": -77.04699783333334, "name": "ec5aa1b5318236981e11713e67c8bbe9", "is_disabled": 0, "rental_uris": {"android": "https://dc.lft.to/lastmile_qr_scan", "ios": "https://dc.lft.to/lastmile_qr_scan"}, "type": "electric_scooter", "lat": 38.90973983333333, "is_reserved": 0, "fusion_lat": 0.0}, {"bike_id": "a5f9ffdd78617d2abd85868cccecabab", "fusion_lon": 0.0, "lon": -77.032303, "name": "a5f9ffdd78617d2abd85868cccecabab", "is_disabled": 0, "rental_uris": {"android": "https://dc.lft.to/lastmile_qr_scan", "ios": "https://dc.lft.to/lastmile_qr_scan"}, "type": "electric_scooter", "lat": 38.961622, "is_reserved": 0, "fusion_lat": 0.0}, {"bike_id": "0ecc724827b5a7ab494d7099847a7a2b", "fusion_lon": 0.0, "lon": -77.01885366666667, "name": "0ecc724827b5a7ab494d7099847a7a2b", "is_disabled": 0, "rental_uris": {"android": "https://dc.lft.to/lastmile_qr_scan", "ios": "https://dc.lft.to/lastmile_qr_scan"}, "type": "electric_scooter", "lat": 38.904361, "is_reserved": 0, "fusion_lat": 0.0}, {"bike_id": "549ba1e1d13b40936559352e7a6c689b", "fusion_lon": 0.0, "lon": -77.2332135, "name": "549ba1e1d13b40936559352e7a6c689b", "is_disabled": 0, "rental_uris": {"android": "https://dc.lft.to/lastmile_qr_scan", "ios": "https://dc.lft.to/lastmile_qr_scan"}, "type": "electric_bike", "lat": 38.87285766666667, "is_reserved": 0, "fusion_lat": 0.0}, {"bike_id": "f3d4bd7e6eea4faf603fd541504b267d", "fusion_lon": 0.0, "lon": -77.02689183333334, "name": "f3d4bd7e6eea4faf603fd541504b267d", "is_disabled": 0, "rental_uris": {"android": "https://dc.lft.to/lastmile_qr_scan", "ios": "https://dc.lft.to/lastmile_qr_scan"}, "type": "electric_scooter", "lat": 38.91266266666667, "is_reserved": 0, "fusion_lat": 0.0}, {"bike_id": "afc94461ce9f7e1b8dc57f6b485ab93e", "fusion_lon": 0.0, "lon": -77.029469, "name": "afc94461ce9f7e1b8dc57f6b485ab93e", "is_disabled": 0, "rental_uris": {"android": "https://dc.lft.to/lastmile_qr_scan", "ios": "https://dc.lft.to/lastmile_qr_scan"}, "type": "electric_scooter", "lat": 38.90727233333333, "is_reserved": 0, "fusion_lat": 0.0}, {"bike_id": "80ca4bd3c9fd131a5d367dbbe4aa213f", "fusion_lon": 0.0, "lon": -77.07594166666667, "name": "80ca4bd3c9fd131a5d367dbbe4aa213f", "is_disabled": 0, "rental_uris": {"android": "https://dc.lft.to/lastmile_qr_scan", "ios": "https://dc.lft.to/lastmile_qr_scan"}, "type": "electric_scooter", "lat": 38.91215733333333, "is_reserved": 0, "fusion_lat": 0.0}, {"bike_id": "579fe41e91e72180ddd8d2ce0c929d02", "fusion_lon": 0.0, "lon": -77.00351916666666, "name": "579fe41e91e72180ddd8d2ce0c929d02", "is_disabled": 0, "rental_uris": {"android": "https://dc.lft.to/lastmile_qr_scan", "ios": "https://dc.lft.to/lastmile_qr_scan"}, "type": "electric_scooter", "lat": 38.901415166666666, "is_reserved": 0, "fusion_lat": 0.0}, {"bike_id": "58a73c3b13b97ebb003b3b95601dd075", "fusion_lon": 0.0, "lon": -77.01759283333334, "name": "58a73c3b13b97ebb003b3b95601dd075", "is_disabled": 0, "rental_uris": {"android": "https://dc.lft.to/lastmile_qr_scan", "ios": "https://dc.lft.to/lastmile_qr_scan"}, "type": "electric_bike", "lat": 38.87873533333333, "is_reserved": 0, "fusion_lat": 0.0}, {"bike_id": "6d6b71f1fea7f4ec5f5bdf53c2217a03", "fusion_lon": 0.0, "lon": -77.24445166666666, "name": "6d6b71f1fea7f4ec5f5bdf53c2217a03", "is_disabled": 0, "rental_uris": {"android": "https://dc.lft.to/lastmile_qr_scan", "ios": "https://dc.lft.to/lastmile_qr_scan"}, "type": "electric_bike", "lat": 38.881948333333334, "is_reserved": 0, "fusion_lat": 0.0}, {"bike_id": "def9dc23e90c6a22f831bb013d6060eb", "fusion_lon": 0.0, "lon": -76.93752016666667, "name": "def9dc23e90c6a22f831bb013d6060eb", "is_disabled": 0, "rental_uris": {"android": "https://dc.lft.to/lastmile_qr_scan", "ios": "https://dc.lft.to/lastmile_qr_scan"}, "type": "electric_scooter", "lat": 38.89050733333333, "is_reserved": 0, "fusion_lat": 0.0}, {"bike_id": "270d66b75da7c2a81ec77092982baba2", "fusion_lon": 0.0, "lon": -77.0216795, "name": "270d66b75da7c2a81ec77092982baba2", "is_disabled": 0, "rental_uris": {"android": "https://dc.lft.to/lastmile_qr_scan", "ios": "https://dc.lft.to/lastmile_qr_scan"}, "type": "electric_scooter", "lat": 38.883332333333335, "is_reserved": 0, "fusion_lat": 0.0}, {"bike_id": "11640fdd73b46ebc5f9797bc64603738", "fusion_lon": 0.0, "lon": -77.04326333333333, "name": "11640fdd73b46ebc5f9797bc64603738", "is_disabled": 0, "rental_uris": {"android": "https://dc.lft.to/lastmile_qr_scan", "ios": "https://dc.lft.to/lastmile_qr_scan"}, "type": "electric_scooter", "lat": 38.8922375, "is_reserved": 0, "fusion_lat": 0.0}, {"bike_id": "99c39c75635c534318293f413d2bc031", "fusion_lon": 0.0, "lon": -77.04328983333333, "name": "99c39c75635c534318293f413d2bc031", "is_disabled": 0, "rental_uris": {"android": "https://dc.lft.to/lastmile_qr_scan", "ios": "https://dc.lft.to/lastmile_qr_scan"}, "type": "electric_scooter", "lat": 38.8922575, "is_reserved": 0, "fusion_lat": 0.0}, {"bike_id": "5ae96846dab6d3fae586352040cebe00", "fusion_lon": 0.0, "lon": -77.02965333333333, "name": "5ae96846dab6d3fae586352040cebe00", "is_disabled": 0, "rental_uris": {"android": "https://dc.lft.to/lastmile_qr_scan", "ios": "https://dc.lft.to/lastmile_qr_scan"}, "type": "electric_scooter", "lat": 38.923337833333335, "is_reserved": 0, "fusion_lat": 0.0}, {"bike_id": "4c92cb7c0fc428c8f936725452ccc808", "fusion_lon": 0.0, "lon": -76.9903035, "name": "4c92cb7c0fc428c8f936725452ccc808", "is_disabled": 0, "rental_uris": {"android": "https://dc.lft.to/lastmile_qr_scan", "ios": "https://dc.lft.to/lastmile_qr_scan"}, "type": "electric_scooter", "lat": 38.9018895, "is_reserved": 0, "fusion_lat": 0.0}, {"bike_id": "fac55d767f9eacff81be082038992eba", "fusion_lon": 0.0, "lon": -77.02197883333334, "name": "fac55d767f9eacff81be082038992eba", "is_disabled": 0, "rental_uris": {"android": "https://dc.lft.to/lastmile_qr_scan", "ios": "https://dc.lft.to/lastmile_qr_scan"}, "type": "electric_scooter", "lat": 38.910993, "is_reserved": 0, "fusion_lat": 0.0}, {"bike_id": "5b7fe1d52944f876220c74966a6711ef", "fusion_lon": 0.0, "lon": -77.03981866666666, "name": "5b7fe1d52944f876220c74966a6711ef", "is_disabled": 0, "rental_uris": {"android": "https://dc.lft.to/lastmile_qr_scan", "ios": "https://dc.lft.to/lastmile_qr_scan"}, "type": "electric_scooter", "lat": 38.92585666666667, "is_reserved": 0, "fusion_lat": 0.0}, {"bike_id": "077c221cb7ad090ffed85f4f26829025", "fusion_lon": 0.0, "lon": -77.00579866666666, "name": "077c221cb7ad090ffed85f4f26829025", "is_disabled": 0, "rental_uris": {"android": "https://dc.lft.to/lastmile_qr_scan", "ios": "https://dc.lft.to/lastmile_qr_scan"}, "type": "electric_scooter", "lat": 38.905589166666665, "is_reserved": 0, "fusion_lat": 0.0}, {"bike_id": "a08b6b6a029bfb231028e60e7a4a6a2f", "fusion_lon": 0.0, "lon": -77.02949033333333, "name": "a08b6b6a029bfb231028e60e7a4a6a2f", "is_disabled": 0, "rental_uris": {"android": "https://dc.lft.to/lastmile_qr_scan", "ios": "https://dc.lft.to/lastmile_qr_scan"}, "type": "electric_scooter", "lat": 38.90499583333333, "is_reserved": 0, "fusion_lat": 0.0}, {"bike_id": "47e50d2d6fd3b4fdcdce10c3b0527978", "fusion_lon": 0.0, "lon": -77.02457983333333, "name": "47e50d2d6fd3b4fdcdce10c3b0527978", "is_disabled": 0, "rental_uris": {"android": "https://dc.lft.to/lastmile_qr_scan", "ios": "https://dc.lft.to/lastmile_qr_scan"}, "type": "electric_scooter", "lat": 38.920435833333336, "is_reserved": 0, "fusion_lat": 0.0}, {"bike_id": "04a0987a9a04611214bb0b792131c4b6", "fusion_lon": 0.0, "lon": -77.025337, "name": "04a0987a9a04611214bb0b792131c4b6", "is_disabled": 0, "rental_uris": {"android": "https://dc.lft.to/lastmile_qr_scan", "ios": "https://dc.lft.to/lastmile_qr_scan"}, "type": "electric_scooter", "lat": 38.909586166666664, "is_reserved": 0, "fusion_lat": 0.0}, {"bike_id": "f7b674ff4bb11e2c40880f9c97c5c101", "fusion_lon": 0.0, "lon": -76.99908116666667, "name": "f7b674ff4bb11e2c40880f9c97c5c101", "is_disabled": 0, "rental_uris": {"android": "https://dc.lft.to/lastmile_qr_scan", "ios": "https://dc.lft.to/lastmile_qr_scan"}, "type": "electric_bike", "lat": 38.89209183333333, "is_reserved": 0, "fusion_lat": 0.0}, {"bike_id": "73daa7029c0aed218977e4401288c216", "fusion_lon": 0.0, "lon": -77.025299, "name": "73daa7029c0aed218977e4401288c216", "is_disabled": 0, "rental_uris": {"android": "https://dc.lft.to/lastmile_qr_scan", "ios": "https://dc.lft.to/lastmile_qr_scan"}, "type": "electric_scooter", "lat": 38.89827966666667, "is_reserved": 0, "fusion_lat": 0.0}, {"bike_id": "6d02c5cd3f49071ab9fae141413788ee", "fusion_lon": 0.0, "lon": -77.01535516666667, "name": "6d02c5cd3f49071ab9fae141413788ee", "is_disabled": 0, "rental_uris": {"android": "https://dc.lft.to/lastmile_qr_scan", "ios": "https://dc.lft.to/lastmile_qr_scan"}, "type": "electric_scooter", "lat": 38.884114333333336, "is_reserved": 0, "fusion_lat": 0.0}, {"bike_id": "94d87ed25f8a642585b30c4c5c294e0e", "fusion_lon": 0.0, "lon": -77.04601866666667, "name": "94d87ed25f8a642585b30c4c5c294e0e", "is_disabled": 0, "rental_uris": {"android": "https://dc.lft.to/lastmile_qr_scan", "ios": "https://dc.lft.to/lastmile_qr_scan"}, "type": "electric_scooter", "lat": 38.917273333333334, "is_reserved": 0, "fusion_lat": 0.0}, {"bike_id": "192f26fbfe4baf484ca906e3aa1abda9", "fusion_lon": 0.0, "lon": -77.00798583333334, "name": "192f26fbfe4baf484ca906e3aa1abda9", "is_disabled": 0, "rental_uris": {"android": "https://dc.lft.to/lastmile_qr_scan", "ios": "https://dc.lft.to/lastmile_qr_scan"}, "type": "electric_bike", "lat": 38.949155, "is_reserved": 0, "fusion_lat": 0.0}, {"bike_id": "6cb62f77856bf716935a0bb810cd8abc", "fusion_lon": 0.0, "lon": -77.03649483333334, "name": "6cb62f77856bf716935a0bb810cd8abc", "is_disabled": 0, "rental_uris": {"android": "https://dc.lft.to/lastmile_qr_scan", "ios": "https://dc.lft.to/lastmile_qr_scan"}, "type": "electric_scooter", "lat": 38.92342983333333, "is_reserved": 0, "fusion_lat": 0.0}, {"bike_id": "b8c484f85a2394c6db5ecbf9514cf862", "fusion_lon": 0.0, "lon": -77.02018516666666, "name": "b8c484f85a2394c6db5ecbf9514cf862", "is_disabled": 0, "rental_uris": {"android": "https://dc.lft.to/lastmile_qr_scan", "ios": "https://dc.lft.to/lastmile_qr_scan"}, "type": "electric_scooter", "lat": 38.901707, "is_reserved": 0, "fusion_lat": 0.0}, {"bike_id": "01af06c186e9ee45ca6f989009cd2b1d", "fusion_lon": 0.0, "lon": -77.02493033333333, "name": "01af06c186e9ee45ca6f989009cd2b1d", "is_disabled": 0, "rental_uris": {"android": "https://dc.lft.to/lastmile_qr_scan", "ios": "https://dc.lft.to/lastmile_qr_scan"}, "type": "electric_scooter", "lat": 38.9418705, "is_reserved": 0, "fusion_lat": 0.0}, {"bike_id": "90e3a1ec5272fd9c41eeefdee8832714", "fusion_lon": 0.0, "lon": -77.03410533333333, "name": "90e3a1ec5272fd9c41eeefdee8832714", "is_disabled": 0, "rental_uris": {"android": "https://dc.lft.to/lastmile_qr_scan", "ios": "https://dc.lft.to/lastmile_qr_scan"}, "type": "electric_scooter", "lat": 38.911081333333335, "is_reserved": 0, "fusion_lat": 0.0}, {"bike_id": "f51f89bba4cf5e2e99d8f49af7e8346b", "fusion_lon": 0.0, "lon": -76.9882205, "name": "f51f89bba4cf5e2e99d8f49af7e8346b", "is_disabled": 0, "rental_uris": {"android": "https://dc.lft.to/lastmile_qr_scan", "ios": "https://dc.lft.to/lastmile_qr_scan"}, "type": "electric_scooter", "lat": 38.90029366666667, "is_reserved": 0, "fusion_lat": 0.0}, {"bike_id": "8c130456ac456d21f9ffcdcbb001ca57", "fusion_lon": 0.0, "lon": -77.0347095, "name": "8c130456ac456d21f9ffcdcbb001ca57", "is_disabled": 0, "rental_uris": {"android": "https://dc.lft.to/lastmile_qr_scan", "ios": "https://dc.lft.to/lastmile_qr_scan"}, "type": "electric_scooter", "lat": 38.91709083333333, "is_reserved": 0, "fusion_lat": 0.0}, {"bike_id": "89a3c99e9f9e18144e8075b66bd72777", "fusion_lon": 0.0, "lon": -77.026799, "name": "89a3c99e9f9e18144e8075b66bd72777", "is_disabled": 0, "rental_uris": {"android": "https://dc.lft.to/lastmile_qr_scan", "ios": "https://dc.lft.to/lastmile_qr_scan"}, "type": "electric_scooter", "lat": 38.92383383333333, "is_reserved": 0, "fusion_lat": 0.0}, {"bike_id": "9175b9cf64ace95f57373d51426b9f73", "fusion_lon": 0.0, "lon": -77.0311045, "name": "9175b9cf64ace95f57373d51426b9f73", "is_disabled": 0, "rental_uris": {"android": "https://dc.lft.to/lastmile_qr_scan", "ios": "https://dc.lft.to/lastmile_qr_scan"}, "type": "electric_scooter", "lat": 38.894696, "is_reserved": 0, "fusion_lat": 0.0}, {"bike_id": "bcac0f9af494b9fe6b14603befa8690c", "fusion_lon": 0.0, "lon": -77.05504366666666, "name": "bcac0f9af494b9fe6b14603befa8690c", "is_disabled": 0, "rental_uris": {"android": "https://dc.lft.to/lastmile_qr_scan", "ios": "https://dc.lft.to/lastmile_qr_scan"}, "type": "electric_scooter", "lat": 38.936571666666666, "is_reserved": 0, "fusion_lat": 0.0}, {"bike_id": "b398953d815c1ed1f55f5edf7dc09b7e", "fusion_lon": 0.0, "lon": -77.11759466666666, "name": "b398953d815c1ed1f55f5edf7dc09b7e", "is_disabled": 0, "rental_uris": {"android": "https://dc.lft.to/lastmile_qr_scan", "ios": "https://dc.lft.to/lastmile_qr_scan"}, "type": "electric_bike", "lat": 39.04912483333333, "is_reserved": 0, "fusion_lat": 0.0}, {"bike_id": "fed0a8b82cb8f21dc26e278c5ca8fa8e", "fusion_lon": 0.0, "lon": -77.0280465, "name": "fed0a8b82cb8f21dc26e278c5ca8fa8e", "is_disabled": 0, "rental_uris": {"android": "https://dc.lft.to/lastmile_qr_scan", "ios": "https://dc.lft.to/lastmile_qr_scan"}, "type": "electric_bike", "lat": 38.91751083333333, "is_reserved": 0, "fusion_lat": 0.0}, {"bike_id": "7b08399b12437c1e4314ab8f3599bf93", "fusion_lon": 0.0, "lon": -77.13145483333334, "name": "7b08399b12437c1e4314ab8f3599bf93", "is_disabled": 0, "rental_uris": {"android": "https://dc.lft.to/lastmile_qr_scan", "ios": "https://dc.lft.to/lastmile_qr_scan"}, "type": "electric_bike", "lat": 38.86166883333333, "is_reserved": 0, "fusion_lat": 0.0}, {"bike_id": "e4721f9277417f8fa8c0983e81b63b4d", "fusion_lon": 0.0, "lon": -76.97182716666667, "name": "e4721f9277417f8fa8c0983e81b63b4d", "is_disabled": 0, "rental_uris": {"android": "https://dc.lft.to/lastmile_qr_scan", "ios": "https://dc.lft.to/lastmile_qr_scan"}, "type": "electric_bike", "lat": 38.9178605, "is_reserved": 0, "fusion_lat": 0.0}, {"bike_id": "27343bc9e4d574b35acf4b76d3635778", "fusion_lon": 0.0, "lon": -77.02367983333333, "name": "27343bc9e4d574b35acf4b76d3635778", "is_disabled": 0, "rental_uris": {"android": "https://dc.lft.to/lastmile_qr_scan", "ios": "https://dc.lft.to/lastmile_qr_scan"}, "type": "electric_scooter", "lat": 38.88477666666667, "is_reserved": 0, "fusion_lat": 0.0}, {"bike_id": "b4395c0b14839d4e7fa032bc0d06db25", "fusion_lon": 0.0, "lon": -77.02172566666667, "name": "b4395c0b14839d4e7fa032bc0d06db25", "is_disabled": 0, "rental_uris": {"android": "https://dc.lft.to/lastmile_qr_scan", "ios": "https://dc.lft.to/lastmile_qr_scan"}, "type": "electric_scooter", "lat": 38.942909, "is_reserved": 0, "fusion_lat": 0.0}, {"bike_id": "53eae00ad6826bcfb7a3f288f4b70c4a", "fusion_lon": 0.0, "lon": -77.01135533333333, "name": "53eae00ad6826bcfb7a3f288f4b70c4a", "is_disabled": 0, "rental_uris": {"android": "https://dc.lft.to/lastmile_qr_scan", "ios": "https://dc.lft.to/lastmile_qr_scan"}, "type": "electric_scooter", "lat": 38.885253666666664, "is_reserved": 0, "fusion_lat": 0.0}, {"bike_id": "301c744d72de2381c14bce80297839ba", "fusion_lon": 0.0, "lon": -77.06614133333333, "name": "301c744d72de2381c14bce80297839ba", "is_disabled": 0, "rental_uris": {"android": "https://dc.lft.to/lastmile_qr_scan", "ios": "https://dc.lft.to/lastmile_qr_scan"}, "type": "electric_scooter", "lat": 38.903640833333334, "is_reserved": 0, "fusion_lat": 0.0}, {"bike_id": "13a958476638a52b6b10eee70a77f4e3", "fusion_lon": 0.0, "lon": -76.9937165, "name": "13a958476638a52b6b10eee70a77f4e3", "is_disabled": 0, "rental_uris": {"android": "https://dc.lft.to/lastmile_qr_scan", "ios": "https://dc.lft.to/lastmile_qr_scan"}, "type": "electric_scooter", "lat": 38.923941666666664, "is_reserved": 0, "fusion_lat": 0.0}, {"bike_id": "bf71280578d9571f2db13fb514929439", "fusion_lon": 0.0, "lon": -77.04313066666667, "name": "bf71280578d9571f2db13fb514929439", "is_disabled": 0, "rental_uris": {"android": "https://dc.lft.to/lastmile_qr_scan", "ios": "https://dc.lft.to/lastmile_qr_scan"}, "type": "electric_scooter", "lat": 38.881044333333335, "is_reserved": 0, "fusion_lat": 0.0}, {"bike_id": "e3108fc3ac3f9b71beca6d5e27da19dc", "fusion_lon": 0.0, "lon": -77.021152, "name": "e3108fc3ac3f9b71beca6d5e27da19dc", "is_disabled": 0, "rental_uris": {"android": "https://dc.lft.to/lastmile_qr_scan", "ios": "https://dc.lft.to/lastmile_qr_scan"}, "type": "electric_scooter", "lat": 38.917369666666666, "is_reserved": 0, "fusion_lat": 0.0}, {"bike_id": "d0790555b7dd3f621c0ca1e726c4be2f", "fusion_lon": 0.0, "lon": -76.99334766666666, "name": "d0790555b7dd3f621c0ca1e726c4be2f", "is_disabled": 0, "rental_uris": {"android": "https://dc.lft.to/lastmile_qr_scan", "ios": "https://dc.lft.to/lastmile_qr_scan"}, "type": "electric_scooter", "lat": 38.8714125, "is_reserved": 0, "fusion_lat": 0.0}, {"bike_id": "0803fe5f3123d074aa708f4505543d83", "fusion_lon": 0.0, "lon": -77.05356516666667, "name": "0803fe5f3123d074aa708f4505543d83", "is_disabled": 0, "rental_uris": {"android": "https://dc.lft.to/lastmile_qr_scan", "ios": "https://dc.lft.to/lastmile_qr_scan"}, "type": "electric_scooter", "lat": 38.926558166666666, "is_reserved": 0, "fusion_lat": 0.0}, {"bike_id": "c6275065a515505e6b0ed5baef2574a6", "fusion_lon": 0.0, "lon": -76.94797216666667, "name": "c6275065a515505e6b0ed5baef2574a6", "is_disabled": 0, "rental_uris": {"android": "https://dc.lft.to/lastmile_qr_scan", "ios": "https://dc.lft.to/lastmile_qr_scan"}, "type": "electric_bike", "lat": 38.893967333333336, "is_reserved": 0, "fusion_lat": 0.0}, {"bike_id": "0da9e1dd5d77b87eb4167a6b5d67a254", "fusion_lon": 0.0, "lon": -76.98867833333334, "name": "0da9e1dd5d77b87eb4167a6b5d67a254", "is_disabled": 0, "rental_uris": {"android": "https://dc.lft.to/lastmile_qr_scan", "ios": "https://dc.lft.to/lastmile_qr_scan"}, "type": "electric_bike", "lat": 38.954820166666664, "is_reserved": 0, "fusion_lat": 0.0}, {"bike_id": "94acc6bfb8a62193c331aa0fab0b7ea7", "fusion_lon": 0.0, "lon": -76.9373535, "name": "94acc6bfb8a62193c331aa0fab0b7ea7", "is_disabled": 0, "rental_uris": {"android": "https://dc.lft.to/lastmile_qr_scan", "ios": "https://dc.lft.to/lastmile_qr_scan"}, "type": "electric_scooter", "lat": 38.89011333333333, "is_reserved": 0, "fusion_lat": 0.0}, {"bike_id": "a1db0f8df75463c79b41b9e1b26fbd6f", "fusion_lon": 0.0, "lon": -77.06903983333333, "name": "a1db0f8df75463c79b41b9e1b26fbd6f", "is_disabled": 0, "rental_uris": {"android": "https://dc.lft.to/lastmile_qr_scan", "ios": "https://dc.lft.to/lastmile_qr_scan"}, "type": "electric_scooter", "lat": 38.91014033333333, "is_reserved": 0, "fusion_lat": 0.0}, {"bike_id": "29844e38660f8f0bc8d9cb59c8b1371d", "fusion_lon": 0.0, "lon": -77.04392733333333, "name": "29844e38660f8f0bc8d9cb59c8b1371d", "is_disabled": 0, "rental_uris": {"android": "https://dc.lft.to/lastmile_qr_scan", "ios": "https://dc.lft.to/lastmile_qr_scan"}, "type": "electric_scooter", "lat": 38.91066566666667, "is_reserved": 0, "fusion_lat": 0.0}, {"bike_id": "14731a1e6f020e972ad6b057ac5ed052", "fusion_lon": 0.0, "lon": -77.01766, "name": "14731a1e6f020e972ad6b057ac5ed052", "is_disabled": 0, "rental_uris": {"android": "https://dc.lft.to/lastmile_qr_scan", "ios": "https://dc.lft.to/lastmile_qr_scan"}, "type": "electric_scooter", "lat": 38.90252066666667, "is_reserved": 0, "fusion_lat": 0.0}, {"bike_id": "d82a2ffe9d494b3035aedae71a36ce92", "fusion_lon": 0.0, "lon": -77.00741416666666, "name": "d82a2ffe9d494b3035aedae71a36ce92", "is_disabled": 0, "rental_uris": {"android": "https://dc.lft.to/lastmile_qr_scan", "ios": "https://dc.lft.to/lastmile_qr_scan"}, "type": "electric_scooter", "lat": 38.9036385, "is_reserved": 0, "fusion_lat": 0.0}, {"bike_id": "c2ae52d643af69099ff09d6cff74eea0", "fusion_lon": 0.0, "lon": -77.02742783333333, "name": "c2ae52d643af69099ff09d6cff74eea0", "is_disabled": 0, "rental_uris": {"android": "https://dc.lft.to/lastmile_qr_scan", "ios": "https://dc.lft.to/lastmile_qr_scan"}, "type": "electric_scooter", "lat": 38.967041, "is_reserved": 0, "fusion_lat": 0.0}, {"bike_id": "1c9da7754c9482cfaea0361b8628a236", "fusion_lon": 0.0, "lon": -76.97837733333333, "name": "1c9da7754c9482cfaea0361b8628a236", "is_disabled": 0, "rental_uris": {"android": "https://dc.lft.to/lastmile_qr_scan", "ios": "https://dc.lft.to/lastmile_qr_scan"}, "type": "electric_bike", "lat": 38.87069433333333, "is_reserved": 0, "fusion_lat": 0.0}, {"bike_id": "a9f4cd6d13b65f05b00b06cba37a5e4b", "fusion_lon": 0.0, "lon": -77.01908633333333, "name": "a9f4cd6d13b65f05b00b06cba37a5e4b", "is_disabled": 0, "rental_uris": {"android": "https://dc.lft.to/lastmile_qr_scan", "ios": "https://dc.lft.to/lastmile_qr_scan"}, "type": "electric_scooter", "lat": 38.91512933333333, "is_reserved": 0, "fusion_lat": 0.0}, {"bike_id": "12bc8b99630bcb1426d7938cd2fd83a0", "fusion_lon": 0.0, "lon": -77.038579, "name": "12bc8b99630bcb1426d7938cd2fd83a0", "is_disabled": 0, "rental_uris": {"android": "https://dc.lft.to/lastmile_qr_scan", "ios": "https://dc.lft.to/lastmile_qr_scan"}, "type": "electric_scooter", "lat": 38.867473833333335, "is_reserved": 0, "fusion_lat": 0.0}, {"bike_id": "a28423cd2a95cb5bb77849c7a45daf23", "fusion_lon": 0.0, "lon": -77.0296215, "name": "a28423cd2a95cb5bb77849c7a45daf23", "is_disabled": 0, "rental_uris": {"android": "https://dc.lft.to/lastmile_qr_scan", "ios": "https://dc.lft.to/lastmile_qr_scan"}, "type": "electric_scooter", "lat": 38.932263166666665, "is_reserved": 0, "fusion_lat": 0.0}, {"bike_id": "6ca78d789225254fd0f25a895ec89831", "fusion_lon": 0.0, "lon": -76.98387683333333, "name": "6ca78d789225254fd0f25a895ec89831", "is_disabled": 0, "rental_uris": {"android": "https://dc.lft.to/lastmile_qr_scan", "ios": "https://dc.lft.to/lastmile_qr_scan"}, "type": "electric_scooter", "lat": 38.86115, "is_reserved": 0, "fusion_lat": 0.0}, {"bike_id": "2af129d068f239da8d92b5f7120b8db3", "fusion_lon": 0.0, "lon": -77.00208416666666, "name": "2af129d068f239da8d92b5f7120b8db3", "is_disabled": 0, "rental_uris": {"android": "https://dc.lft.to/lastmile_qr_scan", "ios": "https://dc.lft.to/lastmile_qr_scan"}, "type": "electric_scooter", "lat": 38.900728, "is_reserved": 0, "fusion_lat": 0.0}, {"bike_id": "248c0d3bc22db3ec5c583279ff286d91", "fusion_lon": 0.0, "lon": -76.993272, "name": "248c0d3bc22db3ec5c583279ff286d91", "is_disabled": 0, "rental_uris": {"android": "https://dc.lft.to/lastmile_qr_scan", "ios": "https://dc.lft.to/lastmile_qr_scan"}, "type": "electric_bike", "lat": 38.893684666666665, "is_reserved": 0, "fusion_lat": 0.0}, {"bike_id": "5948f55b377e836b5d1e9c8a30fb9740", "fusion_lon": 0.0, "lon": -77.012201, "name": "5948f55b377e836b5d1e9c8a30fb9740", "is_disabled": 0, "rental_uris": {"android": "https://dc.lft.to/lastmile_qr_scan", "ios": "https://dc.lft.to/lastmile_qr_scan"}, "type": "electric_scooter", "lat": 38.9143695, "is_reserved": 0, "fusion_lat": 0.0}, {"bike_id": "61008fbb6afbc2492f46c5ce80668d84", "fusion_lon": 0.0, "lon": -77.01798916666667, "name": "61008fbb6afbc2492f46c5ce80668d84", "is_disabled": 0, "rental_uris": {"android": "https://dc.lft.to/lastmile_qr_scan", "ios": "https://dc.lft.to/lastmile_qr_scan"}, "type": "electric_scooter", "lat": 38.876750666666666, "is_reserved": 0, "fusion_lat": 0.0}, {"bike_id": "ea31c85a43dd20b61bffc5d36e63ccd6", "fusion_lon": 0.0, "lon": -77.03186866666667, "name": "ea31c85a43dd20b61bffc5d36e63ccd6", "is_disabled": 0, "rental_uris": {"android": "https://dc.lft.to/lastmile_qr_scan", "ios": "https://dc.lft.to/lastmile_qr_scan"}, "type": "electric_scooter", "lat": 38.90992383333333, "is_reserved": 0, "fusion_lat": 0.0}, {"bike_id": "9c10930aa02c4c16cfcef53bf173c042", "fusion_lon": 0.0, "lon": -77.02197333333334, "name": "9c10930aa02c4c16cfcef53bf173c042", "is_disabled": 0, "rental_uris": {"android": "https://dc.lft.to/lastmile_qr_scan", "ios": "https://dc.lft.to/lastmile_qr_scan"}, "type": "electric_scooter", "lat": 38.910963833333334, "is_reserved": 0, "fusion_lat": 0.0}, {"bike_id": "03ae7ad60375a04bd0438390f8191022", "fusion_lon": 0.0, "lon": -77.031793, "name": "03ae7ad60375a04bd0438390f8191022", "is_disabled": 0, "rental_uris": {"android": "https://dc.lft.to/lastmile_qr_scan", "ios": "https://dc.lft.to/lastmile_qr_scan"}, "type": "electric_scooter", "lat": 38.92377583333333, "is_reserved": 0, "fusion_lat": 0.0}, {"bike_id": "0cd596024291cd22ed4e3673e570e634", "fusion_lon": 0.0, "lon": -77.03258983333333, "name": "0cd596024291cd22ed4e3673e570e634", "is_disabled": 0, "rental_uris": {"android": "https://dc.lft.to/lastmile_qr_scan", "ios": "https://dc.lft.to/lastmile_qr_scan"}, "type": "electric_scooter", "lat": 38.9427305, "is_reserved": 0, "fusion_lat": 0.0}, {"bike_id": "7116f1246c2790733f76f4da3f2e156c", "fusion_lon": 0.0, "lon": -77.03292616666667, "name": "7116f1246c2790733f76f4da3f2e156c", "is_disabled": 0, "rental_uris": {"android": "https://dc.lft.to/lastmile_qr_scan", "ios": "https://dc.lft.to/lastmile_qr_scan"}, "type": "electric_scooter", "lat": 38.93438833333333, "is_reserved": 0, "fusion_lat": 0.0}, {"bike_id": "52fbb880a9e8240b6a837f0814119e81", "fusion_lon": 0.0, "lon": -77.01200416666667, "name": "52fbb880a9e8240b6a837f0814119e81", "is_disabled": 0, "rental_uris": {"android": "https://dc.lft.to/lastmile_qr_scan", "ios": "https://dc.lft.to/lastmile_qr_scan"}, "type": "electric_scooter", "lat": 38.90014466666667, "is_reserved": 0, "fusion_lat": 0.0}, {"bike_id": "95345f090aafe22672f5e47cba0eb005", "fusion_lon": 0.0, "lon": -77.0161355, "name": "95345f090aafe22672f5e47cba0eb005", "is_disabled": 0, "rental_uris": {"android": "https://dc.lft.to/lastmile_qr_scan", "ios": "https://dc.lft.to/lastmile_qr_scan"}, "type": "electric_scooter", "lat": 38.89502683333333, "is_reserved": 0, "fusion_lat": 0.0}, {"bike_id": "d52cf457e29aac9a8f7be6bb9d08da3b", "fusion_lon": 0.0, "lon": -76.9994535, "name": "d52cf457e29aac9a8f7be6bb9d08da3b", "is_disabled": 0, "rental_uris": {"android": "https://dc.lft.to/lastmile_qr_scan", "ios": "https://dc.lft.to/lastmile_qr_scan"}, "type": "electric_scooter", "lat": 38.84293816666667, "is_reserved": 0, "fusion_lat": 0.0}, {"bike_id": "89d9e86dd6eaa907d97a9004631a4a19", "fusion_lon": 0.0, "lon": -77.00572783333334, "name": "89d9e86dd6eaa907d97a9004631a4a19", "is_disabled": 0, "rental_uris": {"android": "https://dc.lft.to/lastmile_qr_scan", "ios": "https://dc.lft.to/lastmile_qr_scan"}, "type": "electric_scooter", "lat": 38.884993333333334, "is_reserved": 0, "fusion_lat": 0.0}, {"bike_id": "27e5a42702a67d6b1ce155358497caae", "fusion_lon": 0.0, "lon": -77.01807383333333, "name": "27e5a42702a67d6b1ce155358497caae", "is_disabled": 0, "rental_uris": {"android": "https://dc.lft.to/lastmile_qr_scan", "ios": "https://dc.lft.to/lastmile_qr_scan"}, "type": "electric_scooter", "lat": 38.92128, "is_reserved": 0, "fusion_lat": 0.0}, {"bike_id": "efba80151dd5446a8d8620a32325bff6", "fusion_lon": 0.0, "lon": -77.0272745, "name": "efba80151dd5446a8d8620a32325bff6", "is_disabled": 0, "rental_uris": {"android": "https://dc.lft.to/lastmile_qr_scan", "ios": "https://dc.lft.to/lastmile_qr_scan"}, "type": "electric_scooter", "lat": 38.94953983333333, "is_reserved": 0, "fusion_lat": 0.0}, {"bike_id": "d33ffa493d653935015af9b5b63a1f62", "fusion_lon": 0.0, "lon": -77.06406466666667, "name": "d33ffa493d653935015af9b5b63a1f62", "is_disabled": 0, "rental_uris": {"android": "https://dc.lft.to/lastmile_qr_scan", "ios": "https://dc.lft.to/lastmile_qr_scan"}, "type": "electric_scooter", "lat": 38.913659, "is_reserved": 0, "fusion_lat": 0.0}, {"bike_id": "b52712589e34e21ad80f9cf413e2601b", "fusion_lon": 0.0, "lon": -76.99391816666666, "name": "b52712589e34e21ad80f9cf413e2601b", "is_disabled": 0, "rental_uris": {"android": "https://dc.lft.to/lastmile_qr_scan", "ios": "https://dc.lft.to/lastmile_qr_scan"}, "type": "electric_scooter", "lat": 38.89726816666666, "is_reserved": 0, "fusion_lat": 0.0}, {"bike_id": "ba70889136d499dea3ea2dedb22d92c5", "fusion_lon": 0.0, "lon": -77.01294216666666, "name": "ba70889136d499dea3ea2dedb22d92c5", "is_disabled": 0, "rental_uris": {"android": "https://dc.lft.to/lastmile_qr_scan", "ios": "https://dc.lft.to/lastmile_qr_scan"}, "type": "electric_scooter", "lat": 38.90080483333333, "is_reserved": 0, "fusion_lat": 0.0}, {"bike_id": "b42f550bd933f52a122247258d6caa62", "fusion_lon": 0.0, "lon": -77.02664133333333, "name": "b42f550bd933f52a122247258d6caa62", "is_disabled": 0, "rental_uris": {"android": "https://dc.lft.to/lastmile_qr_scan", "ios": "https://dc.lft.to/lastmile_qr_scan"}, "type": "electric_scooter", "lat": 38.93100166666667, "is_reserved": 0, "fusion_lat": 0.0}, {"bike_id": "15e65f544771b1633f65c38030a31c13", "fusion_lon": 0.0, "lon": -77.029598, "name": "15e65f544771b1633f65c38030a31c13", "is_disabled": 0, "rental_uris": {"android": "https://dc.lft.to/lastmile_qr_scan", "ios": "https://dc.lft.to/lastmile_qr_scan"}, "type": "electric_scooter", "lat": 38.923227833333335, "is_reserved": 0, "fusion_lat": 0.0}, {"bike_id": "10bd559a8bc45a74ba59cdc7c129cefa", "fusion_lon": 0.0, "lon": -77.03072583333334, "name": "10bd559a8bc45a74ba59cdc7c129cefa", "is_disabled": 0, "rental_uris": {"android": "https://dc.lft.to/lastmile_qr_scan", "ios": "https://dc.lft.to/lastmile_qr_scan"}, "type": "electric_scooter", "lat": 38.917489333333336, "is_reserved": 0, "fusion_lat": 0.0}, {"bike_id": "527caaf4cbce6080f53145bbccb6d952", "fusion_lon": 0.0, "lon": -76.98614833333333, "name": "527caaf4cbce6080f53145bbccb6d952", "is_disabled": 0, "rental_uris": {"android": "https://dc.lft.to/lastmile_qr_scan", "ios": "https://dc.lft.to/lastmile_qr_scan"}, "type": "electric_scooter", "lat": 38.938268666666666, "is_reserved": 0, "fusion_lat": 0.0}, {"bike_id": "a3bb67e05331aecf2ae66c677ca598ab", "fusion_lon": 0.0, "lon": -77.029679, "name": "a3bb67e05331aecf2ae66c677ca598ab", "is_disabled": 0, "rental_uris": {"android": "https://dc.lft.to/lastmile_qr_scan", "ios": "https://dc.lft.to/lastmile_qr_scan"}, "type": "electric_scooter", "lat": 38.92405516666667, "is_reserved": 0, "fusion_lat": 0.0}, {"bike_id": "0d0516801690ef863f597b2b0da7ad86", "fusion_lon": 0.0, "lon": -77.041645, "name": "0d0516801690ef863f597b2b0da7ad86", "is_disabled": 0, "rental_uris": {"android": "https://dc.lft.to/lastmile_qr_scan", "ios": "https://dc.lft.to/lastmile_qr_scan"}, "type": "electric_scooter", "lat": 38.916500166666665, "is_reserved": 0, "fusion_lat": 0.0}, {"bike_id": "faf8ef7ccd20a5f2f0dcef1d0af3619d", "fusion_lon": 0.0, "lon": -77.03217066666667, "name": "faf8ef7ccd20a5f2f0dcef1d0af3619d", "is_disabled": 0, "rental_uris": {"android": "https://dc.lft.to/lastmile_qr_scan", "ios": "https://dc.lft.to/lastmile_qr_scan"}, "type": "electric_scooter", "lat": 38.907295833333336, "is_reserved": 0, "fusion_lat": 0.0}, {"bike_id": "1249330fea6a354020b6778cb9ce7ad2", "fusion_lon": 0.0, "lon": -77.0385315, "name": "1249330fea6a354020b6778cb9ce7ad2", "is_disabled": 0, "rental_uris": {"android": "https://dc.lft.to/lastmile_qr_scan", "ios": "https://dc.lft.to/lastmile_qr_scan"}, "type": "electric_scooter", "lat": 38.9109035, "is_reserved": 0, "fusion_lat": 0.0}, {"bike_id": "4b25b2c03178c779b2263d95b0d110ee", "fusion_lon": 0.0, "lon": -77.0175445, "name": "4b25b2c03178c779b2263d95b0d110ee", "is_disabled": 0, "rental_uris": {"android": "https://dc.lft.to/lastmile_qr_scan", "ios": "https://dc.lft.to/lastmile_qr_scan"}, "type": "electric_scooter", "lat": 38.902545333333336, "is_reserved": 0, "fusion_lat": 0.0}, {"bike_id": "14deb72bc8069591d63bbd79e7ce86d3", "fusion_lon": 0.0, "lon": -77.024651, "name": "14deb72bc8069591d63bbd79e7ce86d3", "is_disabled": 0, "rental_uris": {"android": "https://dc.lft.to/lastmile_qr_scan", "ios": "https://dc.lft.to/lastmile_qr_scan"}, "type": "electric_scooter", "lat": 38.90328316666667, "is_reserved": 0, "fusion_lat": 0.0}, {"bike_id": "c47a60bf8ee48fed5527b2984a100cc4", "fusion_lon": 0.0, "lon": -76.997248, "name": "c47a60bf8ee48fed5527b2984a100cc4", "is_disabled": 0, "rental_uris": {"android": "https://dc.lft.to/lastmile_qr_scan", "ios": "https://dc.lft.to/lastmile_qr_scan"}, "type": "electric_bike", "lat": 38.9109925, "is_reserved": 0, "fusion_lat": 0.0}, {"bike_id": "10e8cfa8fbe3610f7aa3903fe8f09370", "fusion_lon": 0.0, "lon": -77.02330566666667, "name": "10e8cfa8fbe3610f7aa3903fe8f09370", "is_disabled": 0, "rental_uris": {"android": "https://dc.lft.to/lastmile_qr_scan", "ios": "https://dc.lft.to/lastmile_qr_scan"}, "type": "electric_scooter", "lat": 38.91667283333334, "is_reserved": 0, "fusion_lat": 0.0}, {"bike_id": "31878edfaf8ea6b332c1e7e582cc087c", "fusion_lon": 0.0, "lon": -77.0366955, "name": "31878edfaf8ea6b332c1e7e582cc087c", "is_disabled": 0, "rental_uris": {"android": "https://dc.lft.to/lastmile_qr_scan", "ios": "https://dc.lft.to/lastmile_qr_scan"}, "type": "electric_scooter", "lat": 38.9186965, "is_reserved": 0, "fusion_lat": 0.0}, {"bike_id": "63e9fc5d7015788fb77bee02e0e97a2b", "fusion_lon": 0.0, "lon": -77.03092733333334, "name": "63e9fc5d7015788fb77bee02e0e97a2b", "is_disabled": 0, "rental_uris": {"android": "https://dc.lft.to/lastmile_qr_scan", "ios": "https://dc.lft.to/lastmile_qr_scan"}, "type": "electric_scooter", "lat": 38.93755133333333, "is_reserved": 0, "fusion_lat": 0.0}, {"bike_id": "447fe6b236ab81254e9bd124bfdd7ac6", "fusion_lon": 0.0, "lon": -77.02782416666666, "name": "447fe6b236ab81254e9bd124bfdd7ac6", "is_disabled": 0, "rental_uris": {"android": "https://dc.lft.to/lastmile_qr_scan", "ios": "https://dc.lft.to/lastmile_qr_scan"}, "type": "electric_scooter", "lat": 38.892154166666664, "is_reserved": 0, "fusion_lat": 0.0}, {"bike_id": "825b30f21f2ff63259bacb50f80b2df2", "fusion_lon": 0.0, "lon": -77.046183, "name": "825b30f21f2ff63259bacb50f80b2df2", "is_disabled": 0, "rental_uris": {"android": "https://dc.lft.to/lastmile_qr_scan", "ios": "https://dc.lft.to/lastmile_qr_scan"}, "type": "electric_scooter", "lat": 38.91926516666667, "is_reserved": 0, "fusion_lat": 0.0}, {"bike_id": "092ea62d78617f74c4aaf9ef79b88bfa", "fusion_lon": 0.0, "lon": -76.9837765, "name": "092ea62d78617f74c4aaf9ef79b88bfa", "is_disabled": 0, "rental_uris": {"android": "https://dc.lft.to/lastmile_qr_scan", "ios": "https://dc.lft.to/lastmile_qr_scan"}, "type": "electric_scooter", "lat": 38.8858665, "is_reserved": 0, "fusion_lat": 0.0}, {"bike_id": "9e6eae43cbf3034294d78dfd609304ad", "fusion_lon": 0.0, "lon": -77.02682883333334, "name": "9e6eae43cbf3034294d78dfd609304ad", "is_disabled": 0, "rental_uris": {"android": "https://dc.lft.to/lastmile_qr_scan", "ios": "https://dc.lft.to/lastmile_qr_scan"}, "type": "electric_scooter", "lat": 38.896097166666664, "is_reserved": 0, "fusion_lat": 0.0}, {"bike_id": "0ca20e14d9ca3b96df8333da246d97b5", "fusion_lon": 0.0, "lon": -77.0063705, "name": "0ca20e14d9ca3b96df8333da246d97b5", "is_disabled": 0, "rental_uris": {"android": "https://dc.lft.to/lastmile_qr_scan", "ios": "https://dc.lft.to/lastmile_qr_scan"}, "type": "electric_bike", "lat": 38.948359833333335, "is_reserved": 0, "fusion_lat": 0.0}, {"bike_id": "a4501cd13a72b5cbb521e42f369f6b56", "fusion_lon": 0.0, "lon": -76.9364695, "name": "a4501cd13a72b5cbb521e42f369f6b56", "is_disabled": 0, "rental_uris": {"android": "https://dc.lft.to/lastmile_qr_scan", "ios": "https://dc.lft.to/lastmile_qr_scan"}, "type": "electric_bike", "lat": 38.8715035, "is_reserved": 0, "fusion_lat": 0.0}, {"bike_id": "46890273469d68f3024f8d8d629a22b8", "fusion_lon": 0.0, "lon": -77.02794766666666, "name": "46890273469d68f3024f8d8d629a22b8", "is_disabled": 0, "rental_uris": {"android": "https://dc.lft.to/lastmile_qr_scan", "ios": "https://dc.lft.to/lastmile_qr_scan"}, "type": "electric_scooter", "lat": 38.92972433333333, "is_reserved": 0, "fusion_lat": 0.0}, {"bike_id": "530f88e7767368e199721af0fdf2164d", "fusion_lon": 0.0, "lon": -76.96870516666667, "name": "530f88e7767368e199721af0fdf2164d", "is_disabled": 0, "rental_uris": {"android": "https://dc.lft.to/lastmile_qr_scan", "ios": "https://dc.lft.to/lastmile_qr_scan"}, "type": "electric_scooter", "lat": 38.870939166666666, "is_reserved": 0, "fusion_lat": 0.0}, {"bike_id": "db50ab0ac68646ee556010b6db5e8034", "fusion_lon": 0.0, "lon": -77.00199566666667, "name": "db50ab0ac68646ee556010b6db5e8034", "is_disabled": 0, "rental_uris": {"android": "https://dc.lft.to/lastmile_qr_scan", "ios": "https://dc.lft.to/lastmile_qr_scan"}, "type": "electric_scooter", "lat": 38.902425666666666, "is_reserved": 0, "fusion_lat": 0.0}, {"bike_id": "66aa39115393b84ab60f31e04a6bffaa", "fusion_lon": 0.0, "lon": -77.04828716666667, "name": "66aa39115393b84ab60f31e04a6bffaa", "is_disabled": 0, "rental_uris": {"android": "https://dc.lft.to/lastmile_qr_scan", "ios": "https://dc.lft.to/lastmile_qr_scan"}, "type": "electric_scooter", "lat": 38.888879333333335, "is_reserved": 0, "fusion_lat": 0.0}, {"bike_id": "cfe957bcc163cfe25fa5fb76856c620c", "fusion_lon": 0.0, "lon": -77.02720466666666, "name": "cfe957bcc163cfe25fa5fb76856c620c", "is_disabled": 0, "rental_uris": {"android": "https://dc.lft.to/lastmile_qr_scan", "ios": "https://dc.lft.to/lastmile_qr_scan"}, "type": "electric_scooter", "lat": 38.9067065, "is_reserved": 0, "fusion_lat": 0.0}, {"bike_id": "52889abe62503d1c2049ed69c1f34b93", "fusion_lon": 0.0, "lon": -76.933532, "name": "52889abe62503d1c2049ed69c1f34b93", "is_disabled": 0, "rental_uris": {"android": "https://dc.lft.to/lastmile_qr_scan", "ios": "https://dc.lft.to/lastmile_qr_scan"}, "type": "electric_scooter", "lat": 38.89904533333333, "is_reserved": 0, "fusion_lat": 0.0}, {"bike_id": "d2a2cab34edaad5929154650ffe955a4", "fusion_lon": 0.0, "lon": -76.966022, "name": "d2a2cab34edaad5929154650ffe955a4", "is_disabled": 0, "rental_uris": {"android": "https://dc.lft.to/lastmile_qr_scan", "ios": "https://dc.lft.to/lastmile_qr_scan"}, "type": "electric_scooter", "lat": 38.873892166666664, "is_reserved": 0, "fusion_lat": 0.0},