{"data": {"bikes": [{"type": "electric_scooter", "fusion_lon": 0.0, "bike_id": "5bd5f6b5b80c62255fe7b69dfae6f05a", "is_disabled": 0, "lat": 38.9337265, "rental_uris": {"ios": "https://dc.lft.to/lastmile_qr_scan", "android": "https://dc.lft.to/lastmile_qr_scan"}, "is_reserved": 0, "lon": -77.02651266666666, "fusion_lat": 0.0, "name": "5bd5f6b5b80c62255fe7b69dfae6f05a"}, {"type": "electric_scooter", "fusion_lon": 0.0, "bike_id": "6eda7116eaafdadc82975717d11bf7a5", "is_disabled": 0, "lat": 38.93364483333333, "rental_uris": {"ios": "https://dc.lft.to/lastmile_qr_scan", "android": "https://dc.lft.to/lastmile_qr_scan"}, "is_reserved": 0, "lon": -77.03658783333333, "fusion_lat": 0.0, "name": "6eda7116eaafdadc82975717d11bf7a5"}, {"type": "electric_scooter", "fusion_lon": 0.0, "bike_id": "56122505d442d1a32c1102763bea3efb", "is_disabled": 0, "lat": 38.91707983333333, "rental_uris": {"ios": "https://dc.lft.to/lastmile_qr_scan", "android": "https://dc.lft.to/lastmile_qr_scan"}, "is_reserved": 0, "lon": -77.03478333333334, "fusion_lat": 0.0, "name": "56122505d442d1a32c1102763bea3efb"}, {"type": "electric_scooter", "fusion_lon": 0.0, "bike_id": "ce4e6e34c5c0d74fdea1213cfc1f44ed", "is_disabled": 0, "lat": 38.9154295, "rental_uris": {"ios": "https://dc.lft.to/lastmile_qr_scan", "android": "https://dc.lft.to/lastmile_qr_scan"}, "is_reserved": 0, "lon": -77.03865166666667, "fusion_lat": 0.0, "name": "ce4e6e34c5c0d74fdea1213cfc1f44ed"}, {"type": "electric_scooter", "fusion_lon": 0.0, "bike_id": "d3c8b94b42990ebe6e6e35d64c7eac6c", "is_disabled": 0, "lat": 38.925128666666666, "rental_uris": {"ios": "https://dc.lft.to/lastmile_qr_scan", "android": "https://dc.lft.to/lastmile_qr_scan"}, "is_reserved": 0, "lon": -77.02258783333333, "fusion_lat": 0.0, "name": "d3c8b94b42990ebe6e6e35d64c7eac6c"}, {"type": "electric_scooter", "fusion_lon": 0.0, "bike_id": "a06bd3a884a5f264c3cbcfb49ffc4a8a", "is_disabled": 0, "lat": 38.897141500000004, "rental_uris": {"ios": "https://dc.lft.to/lastmile_qr_scan", "android": "https://dc.lft.to/lastmile_qr_scan"}, "is_reserved": 0, "lon": -77.02466983333333, "fusion_lat": 0.0, "name": "a06bd3a884a5f264c3cbcfb49ffc4a8a"}, {"type": "electric_scooter", "fusion_lon": 0.0, "bike_id": "0331dd73074608d550018786b3f3710c", "is_disabled": 0, "lat": 38.915635, "rental_uris": {"ios": "https://dc.lft.to/lastmile_qr_scan", "android": "https://dc.lft.to/lastmile_qr_scan"}, "is_reserved": 0, "lon": -77.03321166666667, "fusion_lat": 0.0, "name": "0331dd73074608d550018786b3f3710c"}, {"type": "electric_scooter", "fusion_lon": 0.0, "bike_id": "b0f985a911d96738cd17c228e401ac33", "is_disabled": 0, "lat": 38.89223766666667, "rental_uris": {"ios": "https://dc.lft.to/lastmile_qr_scan", "android": "https://dc.lft.to/lastmile_qr_scan"}, "is_reserved": 0, "lon": -77.0486785, "fusion_lat": 0.0, "name": "b0f985a911d96738cd17c228e401ac33"}, {"type": "electric_scooter", "fusion_lon": 0.0, "bike_id": "92cc75834ff271d45fdef055851eaac9", "is_disabled": 0, "lat": 38.91819366666667, "rental_uris": {"ios": "https://dc.lft.to/lastmile_qr_scan", "android": "https://dc.lft.to/lastmile_qr_scan"}, "is_reserved": 0, "lon": -77.03447016666667, "fusion_lat": 0.0, "name": "92cc75834ff271d45fdef055851eaac9"}, {"type": "electric_scooter", "fusion_lon": 0.0, "bike_id": "addf5b1ea3c8311a9291bcee03d848b9", "is_disabled": 0, "lat": 38.870849666666665, "rental_uris": {"ios": "https://dc.lft.to/lastmile_qr_scan", "android": "https://dc.lft.to/lastmile_qr_scan"}, "is_reserved": 0, "lon": -76.96567866666666, "fusion_lat": 0.0, "name": "addf5b1ea3c8311a9291bcee03d848b9"}, {"type": "electric_scooter", "fusion_lon": 0.0, "bike_id": "08e71faddbce4552658e181b6940101f", "is_disabled": 0, "lat": 38.89266383333333, "rental_uris": {"ios": "https://dc.lft.to/lastmile_qr_scan", "android": "https://dc.lft.to/lastmile_qr_scan"}, "is_reserved": 0, "lon": -77.042032, "fusion_lat": 0.0, "name": "08e71faddbce4552658e181b6940101f"}, {"type": "electric_scooter", "fusion_lon": 0.0, "bike_id": "2c439a664061fe6c1d27cf27ee98f7c7", "is_disabled": 0, "lat": 38.914126333333336, "rental_uris": {"ios": "https://dc.lft.to/lastmile_qr_scan", "android": "https://dc.lft.to/lastmile_qr_scan"}, "is_reserved": 0, "lon": -77.04502433333333, "fusion_lat": 0.0, "name": "2c439a664061fe6c1d27cf27ee98f7c7"}, {"type": "electric_scooter", "fusion_lon": 0.0, "bike_id": "798dfb65d447fa24ae76c49d8e06d231", "is_disabled": 0, "lat": 38.87552133333333, "rental_uris": {"ios": "https://dc.lft.to/lastmile_qr_scan", "android": "https://dc.lft.to/lastmile_qr_scan"}, "is_reserved": 0, "lon": -76.96492, "fusion_lat": 0.0, "name": "798dfb65d447fa24ae76c49d8e06d231"}, {"type": "electric_scooter", "fusion_lon": 0.0, "bike_id": "1e0a3c94c3fb36751856d43b1e240599", "is_disabled": 0, "lat": 38.91420883333333, "rental_uris": {"ios": "https://dc.lft.to/lastmile_qr_scan", "android": "https://dc.lft.to/lastmile_qr_scan"}, "is_reserved": 0, "lon": -77.03816533333334, "fusion_lat": 0.0, "name": "1e0a3c94c3fb36751856d43b1e240599"}, {"type": "electric_scooter", "fusion_lon": 0.0, "bike_id": "ad5eecfb893aa366f0d03ef5f299cc31", "is_disabled": 0, "lat": 38.91441066666667, "rental_uris": {"ios": "https://dc.lft.to/lastmile_qr_scan", "android": "https://dc.lft.to/lastmile_qr_scan"}, "is_reserved": 0, "lon": -77.0418455, "fusion_lat": 0.0, "name": "ad5eecfb893aa366f0d03ef5f299cc31"}, {"type": "electric_bike", "fusion_lon": 0.0, "bike_id": "c0cd92879eb0e23d73a6c1e5c28e36ba", "is_disabled": 0, "lat": 38.945115, "rental_uris": {"ios": "https://dc.lft.to/lastmile_qr_scan", "android": "https://dc.lft.to/lastmile_qr_scan"}, "is_reserved": 0, "lon": -77.00672, "fusion_lat": 0.0, "name": "c0cd92879eb0e23d73a6c1e5c28e36ba"}, {"type": "electric_scooter", "fusion_lon": 0.0, "bike_id": "dfa27799c1b8c309ed9583e6e2602749", "is_disabled": 0, "lat": 38.895212, "rental_uris": {"ios": "https://dc.lft.to/lastmile_qr_scan", "android": "https://dc.lft.to/lastmile_qr_scan"}, "is_reserved": 0, "lon": -77.02183933333333, "fusion_lat": 0.0, "name": "dfa27799c1b8c309ed9583e6e2602749"}, {"type": "electric_scooter", "fusion_lon": 0.0, "bike_id": "4a3c3c11489f7134b909e646c259cdbe", "is_disabled": 0, "lat": 38.91951983333333, "rental_uris": {"ios": "https://dc.lft.to/lastmile_qr_scan", "android": "https://dc.lft.to/lastmile_qr_scan"}, "is_reserved": 0, "lon": -77.01672916666666, "fusion_lat": 0.0, "name": "4a3c3c11489f7134b909e646c259cdbe"}, {"type": "electric_scooter", "fusion_lon": 0.0, "bike_id": "4f28a3a432556aef71ca4135188000c4", "is_disabled": 0, "lat": 38.92708983333333, "rental_uris": {"ios": "https://dc.lft.to/lastmile_qr_scan", "android": "https://dc.lft.to/lastmile_qr_scan"}, "is_reserved": 0, "lon": -77.0234045, "fusion_lat": 0.0, "name": "4f28a3a432556aef71ca4135188000c4"}, {"type": "electric_scooter", "fusion_lon": 0.0, "bike_id": "cf38d184827aebc4bf8cfacbb42bc3d5", "is_disabled": 0, "lat": 38.9271885, "rental_uris": {"ios": "https://dc.lft.to/lastmile_qr_scan", "android": "https://dc.lft.to/lastmile_qr_scan"}, "is_reserved": 0, "lon": -77.02064983333334, "fusion_lat": 0.0, "name": "cf38d184827aebc4bf8cfacbb42bc3d5"}, {"type": "electric_scooter", "fusion_lon": 0.0, "bike_id": "6b4decc48f8ffc4f6ccb4f1c5b2281fe", "is_disabled": 0, "lat": 38.91769, "rental_uris": {"ios": "https://dc.lft.to/lastmile_qr_scan", "android": "https://dc.lft.to/lastmile_qr_scan"}, "is_reserved": 0, "lon": -77.023362, "fusion_lat": 0.0, "name": "6b4decc48f8ffc4f6ccb4f1c5b2281fe"}, {"type": "electric_scooter", "fusion_lon": 0.0, "bike_id": "0eebfcd65fa657504017d419943b0f2b", "is_disabled": 0, "lat": 38.923666833333336, "rental_uris": {"ios": "https://dc.lft.to/lastmile_qr_scan", "android": "https://dc.lft.to/lastmile_qr_scan"}, "is_reserved": 0, "lon": -77.04107666666667, "fusion_lat": 0.0, "name": "0eebfcd65fa657504017d419943b0f2b"}, {"type": "electric_scooter", "fusion_lon": 0.0, "bike_id": "aa7473c14b8177105c87fd734662eb0b", "is_disabled": 0, "lat": 38.910471333333334, "rental_uris": {"ios": "https://dc.lft.to/lastmile_qr_scan", "android": "https://dc.lft.to/lastmile_qr_scan"}, "is_reserved": 0, "lon": -77.01516, "fusion_lat": 0.0, "name": "aa7473c14b8177105c87fd734662eb0b"}, {"type": "electric_scooter", "fusion_lon": 0.0, "bike_id": "178ccde968e3afe5a4d6d4554d2f2d73", "is_disabled": 0, "lat": 38.907191, "rental_uris": {"ios": "https://dc.lft.to/lastmile_qr_scan", "android": "https://dc.lft.to/lastmile_qr_scan"}, "is_reserved": 0, "lon": -77.04151733333333, "fusion_lat": 0.0, "name": "178ccde968e3afe5a4d6d4554d2f2d73"}, {"type": "electric_scooter", "fusion_lon": 0.0, "bike_id": "2644bc32e0c280b28af8eae696ab7318", "is_disabled": 0, "lat": 38.9353885, "rental_uris": {"ios": "https://dc.lft.to/lastmile_qr_scan", "android": "https://dc.lft.to/lastmile_qr_scan"}, "is_reserved": 0, "lon": -77.023552, "fusion_lat": 0.0, "name": "2644bc32e0c280b28af8eae696ab7318"}, {"type": "electric_scooter", "fusion_lon": 0.0, "bike_id": "7bc81429baab4a914c1259f0a0f1068d", "is_disabled": 0, "lat": 38.924714333333334, "rental_uris": {"ios": "https://dc.lft.to/lastmile_qr_scan", "android": "https://dc.lft.to/lastmile_qr_scan"}, "is_reserved": 0, "lon": -77.02221066666667, "fusion_lat": 0.0, "name": "7bc81429baab4a914c1259f0a0f1068d"}, {"type": "electric_scooter", "fusion_lon": 0.0, "bike_id": "b7e43f181af94e4fef700d5ffc4c7b42", "is_disabled": 0, "lat": 38.92338083333333, "rental_uris": {"ios": "https://dc.lft.to/lastmile_qr_scan", "android": "https://dc.lft.to/lastmile_qr_scan"}, "is_reserved": 0, "lon": -77.03663016666667, "fusion_lat": 0.0, "name": "b7e43f181af94e4fef700d5ffc4c7b42"}, {"type": "electric_scooter", "fusion_lon": 0.0, "bike_id": "a53e5ea4105228cc54d8db6e8b1b86ab", "is_disabled": 0, "lat": 38.9010235, "rental_uris": {"ios": "https://dc.lft.to/lastmile_qr_scan", "android": "https://dc.lft.to/lastmile_qr_scan"}, "is_reserved": 0, "lon": -77.05792783333334, "fusion_lat": 0.0, "name": "a53e5ea4105228cc54d8db6e8b1b86ab"}, {"type": "electric_scooter", "fusion_lon": 0.0, "bike_id": "cc15a648e02b34db0f23c2c2225fae1e", "is_disabled": 0, "lat": 38.9239275, "rental_uris": {"ios": "https://dc.lft.to/lastmile_qr_scan", "android": "https://dc.lft.to/lastmile_qr_scan"}, "is_reserved": 0, "lon": -77.042221, "fusion_lat": 0.0, "name": "cc15a648e02b34db0f23c2c2225fae1e"}, {"type": "electric_scooter", "fusion_lon": 0.0, "bike_id": "50ff1d03f34f3b75492b3eaed148a329", "is_disabled": 0, "lat": 38.90720316666667, "rental_uris": {"ios": "https://dc.lft.to/lastmile_qr_scan", "android": "https://dc.lft.to/lastmile_qr_scan"}, "is_reserved": 0, "lon": -77.03209233333334, "fusion_lat": 0.0, "name": "50ff1d03f34f3b75492b3eaed148a329"}, {"type": "electric_scooter", "fusion_lon": 0.0, "bike_id": "4ef653b42213f3a539fcd23b09fa4680", "is_disabled": 0, "lat": 38.91179833333333, "rental_uris": {"ios": "https://dc.lft.to/lastmile_qr_scan", "android": "https://dc.lft.to/lastmile_qr_scan"}, "is_reserved": 0, "lon": -77.039367, "fusion_lat": 0.0, "name": "4ef653b42213f3a539fcd23b09fa4680"}, {"type": "electric_scooter", "fusion_lon": 0.0, "bike_id": "d085e38cb3f0ddf4423a0706d78f6d0e", "is_disabled": 0, "lat": 38.9233555, "rental_uris": {"ios": "https://dc.lft.to/lastmile_qr_scan", "android": "https://dc.lft.to/lastmile_qr_scan"}, "is_reserved": 0, "lon": -77.02712583333333, "fusion_lat": 0.0, "name": "d085e38cb3f0ddf4423a0706d78f6d0e"}, {"type": "electric_scooter", "fusion_lon": 0.0, "bike_id": "c00b44af9194231e1afe89cb1d86143b", "is_disabled": 0, "lat": 38.907273833333335, "rental_uris": {"ios": "https://dc.lft.to/lastmile_qr_scan", "android": "https://dc.lft.to/lastmile_qr_scan"}, "is_reserved": 0, "lon": -77.05327616666666, "fusion_lat": 0.0, "name": "c00b44af9194231e1afe89cb1d86143b"}, {"type": "electric_scooter", "fusion_lon": 0.0, "bike_id": "f0635ca4473a12deb5fb87c1da9fcc20", "is_disabled": 0, "lat": 38.95432233333333, "rental_uris": {"ios": "https://dc.lft.to/lastmile_qr_scan", "android": "https://dc.lft.to/lastmile_qr_scan"}, "is_reserved": 0, "lon": -77.01849983333334, "fusion_lat": 0.0, "name": "f0635ca4473a12deb5fb87c1da9fcc20"}, {"type": "electric_scooter", "fusion_lon": 0.0, "bike_id": "d82a7ba7fd9fe1aab8fa8eddf517abed", "is_disabled": 0, "lat": 38.902686333333335, "rental_uris": {"ios": "https://dc.lft.to/lastmile_qr_scan", "android": "https://dc.lft.to/lastmile_qr_scan"}, "is_reserved": 0, "lon": -77.01752483333334, "fusion_lat": 0.0, "name": "d82a7ba7fd9fe1aab8fa8eddf517abed"}, {"type": "electric_scooter", "fusion_lon": 0.0, "bike_id": "023eee4e227cd5f60d4e13af1bdae0f4", "is_disabled": 0, "lat": 38.914402, "rental_uris": {"ios": "https://dc.lft.to/lastmile_qr_scan", "android": "https://dc.lft.to/lastmile_qr_scan"}, "is_reserved": 0, "lon": -77.04176966666667, "fusion_lat": 0.0, "name": "023eee4e227cd5f60d4e13af1bdae0f4"}, {"type": "electric_scooter", "fusion_lon": 0.0, "bike_id": "edea74ca2e5f4d6af70e4c4b2e19ac8e", "is_disabled": 0, "lat": 38.915570333333335, "rental_uris": {"ios": "https://dc.lft.to/lastmile_qr_scan", "android": "https://dc.lft.to/lastmile_qr_scan"}, "is_reserved": 0, "lon": -77.01186316666667, "fusion_lat": 0.0, "name": "edea74ca2e5f4d6af70e4c4b2e19ac8e"}, {"type": "electric_scooter", "fusion_lon": 0.0, "bike_id": "90ca06fb707b1b9fcd75a41eeaab9bf6", "is_disabled": 0, "lat": 38.875743666666665, "rental_uris": {"ios": "https://dc.lft.to/lastmile_qr_scan", "android": "https://dc.lft.to/lastmile_qr_scan"}, "is_reserved": 0, "lon": -77.00620033333334, "fusion_lat": 0.0, "name": "90ca06fb707b1b9fcd75a41eeaab9bf6"}, {"type": "electric_scooter", "fusion_lon": 0.0, "bike_id": "740c06cbea890d0eff4d2448ddc5c96d", "is_disabled": 0, "lat": 38.930586166666664, "rental_uris": {"ios": "https://dc.lft.to/lastmile_qr_scan", "android": "https://dc.lft.to/lastmile_qr_scan"}, "is_reserved": 0, "lon": -77.0584375, "fusion_lat": 0.0, "name": "740c06cbea890d0eff4d2448ddc5c96d"}, {"type": "electric_scooter", "fusion_lon": 0.0, "bike_id": "4ed7660ef88acc61ea21472f21fab16f", "is_disabled": 0, "lat": 38.935261833333335, "rental_uris": {"ios": "https://dc.lft.to/lastmile_qr_scan", "android": "https://dc.lft.to/lastmile_qr_scan"}, "is_reserved": 0, "lon": -77.03265733333333, "fusion_lat": 0.0, "name": "4ed7660ef88acc61ea21472f21fab16f"}, {"type": "electric_scooter", "fusion_lon": 0.0, "bike_id": "a57d935aef07e02033e44a88445d2b60", "is_disabled": 0, "lat": 38.90800433333333, "rental_uris": {"ios": "https://dc.lft.to/lastmile_qr_scan", "android": "https://dc.lft.to/lastmile_qr_scan"}, "is_reserved": 0, "lon": -77.03188033333333, "fusion_lat": 0.0, "name": "a57d935aef07e02033e44a88445d2b60"}, {"type": "electric_scooter", "fusion_lon": 0.0, "bike_id": "02c17b092d709704894fee52b6738f5e", "is_disabled": 0, "lat": 38.916908166666666, "rental_uris": {"ios": "https://dc.lft.to/lastmile_qr_scan", "android": "https://dc.lft.to/lastmile_qr_scan"}, "is_reserved": 0, "lon": -77.02892666666666, "fusion_lat": 0.0, "name": "02c17b092d709704894fee52b6738f5e"}, {"type": "electric_scooter", "fusion_lon": 0.0, "bike_id": "0558a649f999758f9fd335da36731e46", "is_disabled": 0, "lat": 38.919452166666666, "rental_uris": {"ios": "https://dc.lft.to/lastmile_qr_scan", "android": "https://dc.lft.to/lastmile_qr_scan"}, "is_reserved": 0, "lon": -77.03194766666667, "fusion_lat": 0.0, "name": "0558a649f999758f9fd335da36731e46"}, {"type": "electric_scooter", "fusion_lon": 0.0, "bike_id": "5c960eb135e40747cdb033cecbf2b3c6", "is_disabled": 0, "lat": 38.929827833333334, "rental_uris": {"ios": "https://dc.lft.to/lastmile_qr_scan", "android": "https://dc.lft.to/lastmile_qr_scan"}, "is_reserved": 0, "lon": -77.03658383333334, "fusion_lat": 0.0, "name": "5c960eb135e40747cdb033cecbf2b3c6"}, {"type": "electric_bike", "fusion_lon": 0.0, "bike_id": "7a872be37748f28659d173a302b3ad19", "is_disabled": 0, "lat": 38.970620333333336, "rental_uris": {"ios": "https://dc.lft.to/lastmile_qr_scan", "android": "https://dc.lft.to/lastmile_qr_scan"}, "is_reserved": 0, "lon": -76.93615083333333, "fusion_lat": 0.0, "name": "7a872be37748f28659d173a302b3ad19"}, {"type": "electric_scooter", "fusion_lon": 0.0, "bike_id": "5d1a9db6f673fc0ca1db1ee228486a1b", "is_disabled": 0, "lat": 38.917070333333335, "rental_uris": {"ios": "https://dc.lft.to/lastmile_qr_scan", "android": "https://dc.lft.to/lastmile_qr_scan"}, "is_reserved": 0, "lon": -77.03865283333333, "fusion_lat": 0.0, "name": "5d1a9db6f673fc0ca1db1ee228486a1b"}, {"type": "electric_scooter", "fusion_lon": 0.0, "bike_id": "ddaa59912274aa353913442c16a96a90", "is_disabled": 0, "lat": 38.89601966666667, "rental_uris": {"ios": "https://dc.lft.to/lastmile_qr_scan", "android": "https://dc.lft.to/lastmile_qr_scan"}, "is_reserved": 0, "lon": -77.05442116666667, "fusion_lat": 0.0, "name": "ddaa59912274aa353913442c16a96a90"}, {"type": "electric_scooter", "fusion_lon": 0.0, "bike_id": "ef20dd0d41a3739c435d65379cd9cdd5", "is_disabled": 0, "lat": 38.89487733333333, "rental_uris": {"ios": "https://dc.lft.to/lastmile_qr_scan", "android": "https://dc.lft.to/lastmile_qr_scan"}, "is_reserved": 0, "lon": -77.02176466666667, "fusion_lat": 0.0, "name": "ef20dd0d41a3739c435d65379cd9cdd5"}, {"type": "electric_scooter", "fusion_lon": 0.0, "bike_id": "73dad5909e26f8ad27333fd8e7f87afd", "is_disabled": 0, "lat": 38.91797616666667, "rental_uris": {"ios": "https://dc.lft.to/lastmile_qr_scan", "android": "https://dc.lft.to/lastmile_qr_scan"}, "is_reserved": 0, "lon": -77.03128433333333, "fusion_lat": 0.0, "name": "73dad5909e26f8ad27333fd8e7f87afd"}, {"type": "electric_scooter", "fusion_lon": 0.0, "bike_id": "4dc04331937554ac1879ca15761f012d", "is_disabled": 0, "lat": 38.91188666666667, "rental_uris": {"ios": "https://dc.lft.to/lastmile_qr_scan", "android": "https://dc.lft.to/lastmile_qr_scan"}, "is_reserved": 0, "lon": -77.04293616666666, "fusion_lat": 0.0, "name": "4dc04331937554ac1879ca15761f012d"}, {"type": "electric_scooter", "fusion_lon": 0.0, "bike_id": "604152aa2f70d2db12f5d903d7a9b523", "is_disabled": 0, "lat": 38.904285333333334, "rental_uris": {"ios": "https://dc.lft.to/lastmile_qr_scan", "android": "https://dc.lft.to/lastmile_qr_scan"}, "is_reserved": 0, "lon": -77.0183955, "fusion_lat": 0.0, "name": "604152aa2f70d2db12f5d903d7a9b523"}, {"type": "electric_scooter", "fusion_lon": 0.0, "bike_id": "51f02c20b324aa220d45a55ed3ddd91e", "is_disabled": 0, "lat": 38.87868783333333, "rental_uris": {"ios": "https://dc.lft.to/lastmile_qr_scan", "android": "https://dc.lft.to/lastmile_qr_scan"}, "is_reserved": 0, "lon": -76.962592, "fusion_lat": 0.0, "name": "51f02c20b324aa220d45a55ed3ddd91e"}, {"type": "electric_scooter", "fusion_lon": 0.0, "bike_id": "b1772d8307a468493f92bb47b1fff020", "is_disabled": 0, "lat": 38.8922355, "rental_uris": {"ios": "https://dc.lft.to/lastmile_qr_scan", "android": "https://dc.lft.to/lastmile_qr_scan"}, "is_reserved": 0, "lon": -77.032214, "fusion_lat": 0.0, "name": "b1772d8307a468493f92bb47b1fff020"}, {"type": "electric_scooter", "fusion_lon": 0.0, "bike_id": "429be9552ea0fc42a04884f412653583", "is_disabled": 0, "lat": 38.905944166666664, "rental_uris": {"ios": "https://dc.lft.to/lastmile_qr_scan", "android": "https://dc.lft.to/lastmile_qr_scan"}, "is_reserved": 0, "lon": -77.04357616666667, "fusion_lat": 0.0, "name": "429be9552ea0fc42a04884f412653583"}, {"type": "electric_scooter", "fusion_lon": 0.0, "bike_id": "c710a29541e9ef84d13579f38b81e1a2", "is_disabled": 0, "lat": 38.9166235, "rental_uris": {"ios": "https://dc.lft.to/lastmile_qr_scan", "android": "https://dc.lft.to/lastmile_qr_scan"}, "is_reserved": 0, "lon": -77.02279716666666, "fusion_lat": 0.0, "name": "c710a29541e9ef84d13579f38b81e1a2"}, {"type": "electric_scooter", "fusion_lon": 0.0, "bike_id": "aa22a0e7b4f475430ca26a37d347759a", "is_disabled": 0, "lat": 38.89254533333333, "rental_uris": {"ios": "https://dc.lft.to/lastmile_qr_scan", "android": "https://dc.lft.to/lastmile_qr_scan"}, "is_reserved": 0, "lon": -77.045071, "fusion_lat": 0.0, "name": "aa22a0e7b4f475430ca26a37d347759a"}, {"type": "electric_bike", "fusion_lon": 0.0, "bike_id": "7f2552ddb5395a59ea6d3079376aafd1", "is_disabled": 0, "lat": 38.9149375, "rental_uris": {"ios": "https://dc.lft.to/lastmile_qr_scan", "android": "https://dc.lft.to/lastmile_qr_scan"}, "is_reserved": 0, "lon": -76.985702, "fusion_lat": 0.0, "name": "7f2552ddb5395a59ea6d3079376aafd1"}, {"type": "electric_scooter", "fusion_lon": 0.0, "bike_id": "e281ffa2d48943db6d437307be462016", "is_disabled": 0, "lat": 38.937048833333336, "rental_uris": {"ios": "https://dc.lft.to/lastmile_qr_scan", "android": "https://dc.lft.to/lastmile_qr_scan"}, "is_reserved": 0, "lon": -77.05602333333333, "fusion_lat": 0.0, "name": "e281ffa2d48943db6d437307be462016"}, {"type": "electric_bike", "fusion_lon": 0.0, "bike_id": "dd725e1f5f237819aae2076c024612ef", "is_disabled": 0, "lat": 38.881287666666665, "rental_uris": {"ios": "https://dc.lft.to/lastmile_qr_scan", "android": "https://dc.lft.to/lastmile_qr_scan"}, "is_reserved": 0, "lon": -76.997992, "fusion_lat": 0.0, "name": "dd725e1f5f237819aae2076c024612ef"}, {"type": "electric_scooter", "fusion_lon": 0.0, "bike_id": "17b23aac50e0399854ee3a67424e093a", "is_disabled": 0, "lat": 38.90850583333334, "rental_uris": {"ios": "https://dc.lft.to/lastmile_qr_scan", "android": "https://dc.lft.to/lastmile_qr_scan"}, "is_reserved": 0, "lon": -77.012576, "fusion_lat": 0.0, "name": "17b23aac50e0399854ee3a67424e093a"}, {"type": "electric_scooter", "fusion_lon": 0.0, "bike_id": "331fce0d11fb35c641e46cffee42ef3d", "is_disabled": 0, "lat": 38.88765766666667, "rental_uris": {"ios": "https://dc.lft.to/lastmile_qr_scan", "android": "https://dc.lft.to/lastmile_qr_scan"}, "is_reserved": 0, "lon": -77.03321166666667, "fusion_lat": 0.0, "name": "331fce0d11fb35c641e46cffee42ef3d"}, {"type": "electric_scooter", "fusion_lon": 0.0, "bike_id": "c4a283e5826e31b652a291a3c4099814", "is_disabled": 0, "lat": 38.9055775, "rental_uris": {"ios": "https://dc.lft.to/lastmile_qr_scan", "android": "https://dc.lft.to/lastmile_qr_scan"}, "is_reserved": 0, "lon": -77.02208716666667, "fusion_lat": 0.0, "name": "c4a283e5826e31b652a291a3c4099814"}, {"type": "electric_scooter", "fusion_lon": 0.0, "bike_id": "bfe2e7f8007719b4db01b3f3991e3c44", "is_disabled": 0, "lat": 38.900188166666666, "rental_uris": {"ios": "https://dc.lft.to/lastmile_qr_scan", "android": "https://dc.lft.to/lastmile_qr_scan"}, "is_reserved": 0, "lon": -76.9987115, "fusion_lat": 0.0, "name": "bfe2e7f8007719b4db01b3f3991e3c44"}, {"type": "electric_scooter", "fusion_lon": 0.0, "bike_id": "1c4cb4a4dad838d7160a7b3c38ea567b", "is_disabled": 0, "lat": 38.90995783333334, "rental_uris": {"ios": "https://dc.lft.to/lastmile_qr_scan", "android": "https://dc.lft.to/lastmile_qr_scan"}, "is_reserved": 0, "lon": -77.0401125, "fusion_lat": 0.0, "name": "1c4cb4a4dad838d7160a7b3c38ea567b"}, {"type": "electric_bike", "fusion_lon": 0.0, "bike_id": "66b10dc1de42455135782445e777fd9e", "is_disabled": 0, "lat": 38.95643183333333, "rental_uris": {"ios": "https://dc.lft.to/lastmile_qr_scan", "android": "https://dc.lft.to/lastmile_qr_scan"}, "is_reserved": 0, "lon": -76.99746133333333, "fusion_lat": 0.0, "name": "66b10dc1de42455135782445e777fd9e"}, {"type": "electric_scooter", "fusion_lon": 0.0, "bike_id": "e3e78eaba72215c7ebdc054a096b603c", "is_disabled": 0, "lat": 38.931521000000004, "rental_uris": {"ios": "https://dc.lft.to/lastmile_qr_scan", "android": "https://dc.lft.to/lastmile_qr_scan"}, "is_reserved": 0, "lon": -77.05605033333333, "fusion_lat": 0.0, "name": "e3e78eaba72215c7ebdc054a096b603c"}, {"type": "electric_scooter", "fusion_lon": 0.0, "bike_id": "012b86edcf2a52f78f69c0c81a44f0e4", "is_disabled": 0, "lat": 38.925735333333336, "rental_uris": {"ios": "https://dc.lft.to/lastmile_qr_scan", "android": "https://dc.lft.to/lastmile_qr_scan"}, "is_reserved": 0, "lon": -76.99500316666666, "fusion_lat": 0.0, "name": "012b86edcf2a52f78f69c0c81a44f0e4"}, {"type": "electric_scooter", "fusion_lon": 0.0, "bike_id": "04894705547e34a416f3c81e1e946fc0", "is_disabled": 0, "lat": 38.957639666666665, "rental_uris": {"ios": "https://dc.lft.to/lastmile_qr_scan", "android": "https://dc.lft.to/lastmile_qr_scan"}, "is_reserved": 0, "lon": -77.0148985, "fusion_lat": 0.0, "name": "04894705547e34a416f3c81e1e946fc0"}, {"type": "electric_scooter", "fusion_lon": 0.0, "bike_id": "7e52ced556f2f2bdc73a4f658cea6c51", "is_disabled": 0, "lat": 38.9211565, "rental_uris": {"ios": "https://dc.lft.to/lastmile_qr_scan", "android": "https://dc.lft.to/lastmile_qr_scan"}, "is_reserved": 0, "lon": -77.04388133333333, "fusion_lat": 0.0, "name": "7e52ced556f2f2bdc73a4f658cea6c51"}, {"type": "electric_scooter", "fusion_lon": 0.0, "bike_id": "128d41ace5f50421e2121e8461426a90", "is_disabled": 0, "lat": 38.86216016666667, "rental_uris": {"ios": "https://dc.lft.to/lastmile_qr_scan", "android": "https://dc.lft.to/lastmile_qr_scan"}, "is_reserved": 0, "lon": -76.99481733333333, "fusion_lat": 0.0, "name": "128d41ace5f50421e2121e8461426a90"}, {"type": "electric_scooter", "fusion_lon": 0.0, "bike_id": "fb81b53717d46d8b9a77e3d19e2040ec", "is_disabled": 0, "lat": 38.87654933333334, "rental_uris": {"ios": "https://dc.lft.to/lastmile_qr_scan", "android": "https://dc.lft.to/lastmile_qr_scan"}, "is_reserved": 0, "lon": -77.00465483333333, "fusion_lat": 0.0, "name": "fb81b53717d46d8b9a77e3d19e2040ec"}, {"type": "electric_scooter", "fusion_lon": 0.0, "bike_id": "9c4e4ff6406aa7c011e9f2ed0172ef2a", "is_disabled": 0, "lat": 38.928638666666664, "rental_uris": {"ios": "https://dc.lft.to/lastmile_qr_scan", "android": "https://dc.lft.to/lastmile_qr_scan"}, "is_reserved": 0, "lon": -77.03744766666667, "fusion_lat": 0.0, "name": "9c4e4ff6406aa7c011e9f2ed0172ef2a"}, {"type": "electric_scooter", "fusion_lon": 0.0, "bike_id": "0573df40eeef2ab0e83013c160f3ddf8", "is_disabled": 0, "lat": 38.8896135, "rental_uris": {"ios": "https://dc.lft.to/lastmile_qr_scan", "android": "https://dc.lft.to/lastmile_qr_scan"}, "is_reserved": 0, "lon": -76.9808815, "fusion_lat": 0.0, "name": "0573df40eeef2ab0e83013c160f3ddf8"}, {"type": "electric_scooter", "fusion_lon": 0.0, "bike_id": "f06d711a1a1418257e6e895de4094ef1", "is_disabled": 0, "lat": 38.919153, "rental_uris": {"ios": "https://dc.lft.to/lastmile_qr_scan", "android": "https://dc.lft.to/lastmile_qr_scan"}, "is_reserved": 0, "lon": -77.0190415, "fusion_lat": 0.0, "name": "f06d711a1a1418257e6e895de4094ef1"}, {"type": "electric_scooter", "fusion_lon": 0.0, "bike_id": "8305da1f47972012f44b863911da74c9", "is_disabled": 0, "lat": 38.93199033333333, "rental_uris": {"ios": "https://dc.lft.to/lastmile_qr_scan", "android": "https://dc.lft.to/lastmile_qr_scan"}, "is_reserved": 0, "lon": -77.02964066666667, "fusion_lat": 0.0, "name": "8305da1f47972012f44b863911da74c9"}, {"type": "electric_scooter", "fusion_lon": 0.0, "bike_id": "e0afe7909bc2a3669a01bde01b92afd3", "is_disabled": 0, "lat": 38.917532333333334, "rental_uris": {"ios": "https://dc.lft.to/lastmile_qr_scan", "android": "https://dc.lft.to/lastmile_qr_scan"}, "is_reserved": 0, "lon": -77.02306616666667, "fusion_lat": 0.0, "name": "e0afe7909bc2a3669a01bde01b92afd3"}, {"type": "electric_scooter", "fusion_lon": 0.0, "bike_id": "3cdbc2d36b380851b1dbcda6f32727f7", "is_disabled": 0, "lat": 38.8934415, "rental_uris": {"ios": "https://dc.lft.to/lastmile_qr_scan", "android": "https://dc.lft.to/lastmile_qr_scan"}, "is_reserved": 0, "lon": -76.99384666666667, "fusion_lat": 0.0, "name": "3cdbc2d36b380851b1dbcda6f32727f7"}, {"type": "electric_scooter", "fusion_lon": 0.0, "bike_id": "b39f55e7e360a09e5756140bbffddb4e", "is_disabled": 0, "lat": 38.902365833333334, "rental_uris": {"ios": "https://dc.lft.to/lastmile_qr_scan", "android": "https://dc.lft.to/lastmile_qr_scan"}, "is_reserved": 0, "lon": -77.00212333333333, "fusion_lat": 0.0, "name": "b39f55e7e360a09e5756140bbffddb4e"}, {"type": "electric_scooter", "fusion_lon": 0.0, "bike_id": "eb34e631d7eec9722385a63c3769c42f", "is_disabled": 0, "lat": 38.92467116666667, "rental_uris": {"ios": "https://dc.lft.to/lastmile_qr_scan", "android": "https://dc.lft.to/lastmile_qr_scan"}, "is_reserved": 0, "lon": -77.02713816666666, "fusion_lat": 0.0, "name": "eb34e631d7eec9722385a63c3769c42f"}, {"type": "electric_scooter", "fusion_lon": 0.0, "bike_id": "228a1d5e2fc1937d4eeed0c3b17b57d1", "is_disabled": 0, "lat": 38.92675783333333, "rental_uris": {"ios": "https://dc.lft.to/lastmile_qr_scan", "android": "https://dc.lft.to/lastmile_qr_scan"}, "is_reserved": 0, "lon": -77.02122833333334, "fusion_lat": 0.0, "name": "228a1d5e2fc1937d4eeed0c3b17b57d1"}, {"type": "electric_scooter", "fusion_lon": 0.0, "bike_id": "0a74c88076e16bc9bee36516574b26a6", "is_disabled": 0, "lat": 38.9042535, "rental_uris": {"ios": "https://dc.lft.to/lastmile_qr_scan", "android": "https://dc.lft.to/lastmile_qr_scan"}, "is_reserved": 0, "lon": -77.0485715, "fusion_lat": 0.0, "name": "0a74c88076e16bc9bee36516574b26a6"}, {"type": "electric_scooter", "fusion_lon": 0.0, "bike_id": "ed1b2b78dab9414910a67af5016975ce", "is_disabled": 0, "lat": 38.935378, "rental_uris": {"ios": "https://dc.lft.to/lastmile_qr_scan", "android": "https://dc.lft.to/lastmile_qr_scan"}, "is_reserved": 0, "lon": -77.02862133333333, "fusion_lat": 0.0, "name": "ed1b2b78dab9414910a67af5016975ce"}, {"type": "electric_scooter", "fusion_lon": 0.0, "bike_id": "0a9e0a3533badba3cc44ab59d379d684", "is_disabled": 0, "lat": 38.92574283333333, "rental_uris": {"ios": "https://dc.lft.to/lastmile_qr_scan", "android": "https://dc.lft.to/lastmile_qr_scan"}, "is_reserved": 0, "lon": -77.0260615, "fusion_lat": 0.0, "name": "0a9e0a3533badba3cc44ab59d379d684"}, {"type": "electric_scooter", "fusion_lon": 0.0, "bike_id": "8e94ef50db0db5544f8a85dddb6a443f", "is_disabled": 0, "lat": 38.907892333333336, "rental_uris": {"ios": "https://dc.lft.to/lastmile_qr_scan", "android": "https://dc.lft.to/lastmile_qr_scan"}, "is_reserved": 0, "lon": -77.072594, "fusion_lat": 0.0, "name": "8e94ef50db0db5544f8a85dddb6a443f"}, {"type": "electric_scooter", "fusion_lon": 0.0, "bike_id": "06c8359c087b417d48652ffadace3a17", "is_disabled": 0, "lat": 38.943472166666666, "rental_uris": {"ios": "https://dc.lft.to/lastmile_qr_scan", "android": "https://dc.lft.to/lastmile_qr_scan"}, "is_reserved": 0, "lon": -77.06131933333333, "fusion_lat": 0.0, "name": "06c8359c087b417d48652ffadace3a17"}, {"type": "electric_scooter", "fusion_lon": 0.0, "bike_id": "82379c256d0e07331ff614054e6e5fda", "is_disabled": 0, "lat": 38.92109216666667, "rental_uris": {"ios": "https://dc.lft.to/lastmile_qr_scan", "android": "https://dc.lft.to/lastmile_qr_scan"}, "is_reserved": 0, "lon": -77.0250945, "fusion_lat": 0.0, "name": "82379c256d0e07331ff614054e6e5fda"}, {"type": "electric_scooter", "fusion_lon": 0.0, "bike_id": "e3d609fbacc1749c000f506915873646", "is_disabled": 0, "lat": 38.912387333333335, "rental_uris": {"ios": "https://dc.lft.to/lastmile_qr_scan", "android": "https://dc.lft.to/lastmile_qr_scan"}, "is_reserved": 0, "lon": -77.062844, "fusion_lat": 0.0, "name": "e3d609fbacc1749c000f506915873646"}, {"type": "electric_scooter", "fusion_lon": 0.0, "bike_id": "11324a3890e53aa71040ffe1e03c6149", "is_disabled": 0, "lat": 38.90236983333333, "rental_uris": {"ios": "https://dc.lft.to/lastmile_qr_scan", "android": "https://dc.lft.to/lastmile_qr_scan"}, "is_reserved": 0, "lon": -77.0021365, "fusion_lat": 0.0, "name": "11324a3890e53aa71040ffe1e03c6149"}, {"type": "electric_scooter", "fusion_lon": 0.0, "bike_id": "acde05e5c40df4550d2e2cd7a9a589c3", "is_disabled": 0, "lat": 38.913159, "rental_uris": {"ios": "https://dc.lft.to/lastmile_qr_scan", "android": "https://dc.lft.to/lastmile_qr_scan"}, "is_reserved": 0, "lon": -77.04716933333333, "fusion_lat": 0.0, "name": "acde05e5c40df4550d2e2cd7a9a589c3"}, {"type": "electric_scooter", "fusion_lon": 0.0, "bike_id": "85baa7041c0c4a40bfae84394a1988e0", "is_disabled": 0, "lat": 38.9183365, "rental_uris": {"ios": "https://dc.lft.to/lastmile_qr_scan", "android": "https://dc.lft.to/lastmile_qr_scan"}, "is_reserved": 0, "lon": -77.0317855, "fusion_lat": 0.0, "name": "85baa7041c0c4a40bfae84394a1988e0"}, {"type": "electric_scooter", "fusion_lon": 0.0, "bike_id": "c2d2cc8f953453371f44db19fe0271c7", "is_disabled": 0, "lat": 38.90468466666667, "rental_uris": {"ios": "https://dc.lft.to/lastmile_qr_scan", "android": "https://dc.lft.to/lastmile_qr_scan"}, "is_reserved": 0, "lon": -76.9950505, "fusion_lat": 0.0, "name": "c2d2cc8f953453371f44db19fe0271c7"}, {"type": "electric_scooter", "fusion_lon": 0.0, "bike_id": "45c9ed37da233a0cb758d2fbecc8e2d2", "is_disabled": 0, "lat": 38.9003735, "rental_uris": {"ios": "https://dc.lft.to/lastmile_qr_scan", "android": "https://dc.lft.to/lastmile_qr_scan"}, "is_reserved": 0, "lon": -76.99152366666667, "fusion_lat": 0.0, "name": "45c9ed37da233a0cb758d2fbecc8e2d2"}, {"type": "electric_scooter", "fusion_lon": 0.0, "bike_id": "2008a969060d6f429a87cf5e4138b0ca", "is_disabled": 0, "lat": 38.919283666666665, "rental_uris": {"ios": "https://dc.lft.to/lastmile_qr_scan", "android": "https://dc.lft.to/lastmile_qr_scan"}, "is_reserved": 0, "lon": -77.07938766666666, "fusion_lat": 0.0, "name": "2008a969060d6f429a87cf5e4138b0ca"}, {"type": "electric_scooter", "fusion_lon": 0.0, "bike_id": "59eaebc22699de44e431fe02be45c1bc", "is_disabled": 0, "lat": 38.884895, "rental_uris": {"ios": "https://dc.lft.to/lastmile_qr_scan", "android": "https://dc.lft.to/lastmile_qr_scan"}, "is_reserved": 0, "lon": -77.03474133333333, "fusion_lat": 0.0, "name": "59eaebc22699de44e431fe02be45c1bc"}, {"type": "electric_scooter", "fusion_lon": 0.0, "bike_id": "1033a7b3a93c9d1c5fec0aabb044a0c9", "is_disabled": 0, "lat": 38.922393666666665, "rental_uris": {"ios": "https://dc.lft.to/lastmile_qr_scan", "android": "https://dc.lft.to/lastmile_qr_scan"}, "is_reserved": 0, "lon": -77.01826133333333, "fusion_lat": 0.0, "name": "1033a7b3a93c9d1c5fec0aabb044a0c9"}, {"type": "electric_scooter", "fusion_lon": 0.0, "bike_id": "3e6c2ae6ed8f9b3d7e744d2ab7e6e156", "is_disabled": 0, "lat": 38.91887633333333, "rental_uris": {"ios": "https://dc.lft.to/lastmile_qr_scan", "android": "https://dc.lft.to/lastmile_qr_scan"}, "is_reserved": 0, "lon": -77.0382995, "fusion_lat": 0.0, "name": "3e6c2ae6ed8f9b3d7e744d2ab7e6e156"}, {"type": "electric_scooter", "fusion_lon": 0.0, "bike_id": "9e59b21cc20bea790f0f6b45eba266e6", "is_disabled": 0, "lat": 38.922987166666665, "rental_uris": {"ios": "https://dc.lft.to/lastmile_qr_scan", "android": "https://dc.lft.to/lastmile_qr_scan"}, "is_reserved": 0, "lon": -77.02324816666666, "fusion_lat": 0.0, "name": "9e59b21cc20bea790f0f6b45eba266e6"}, {"type": "electric_scooter", "fusion_lon": 0.0, "bike_id": "5c950275ccf933228d56b4b7855132f4", "is_disabled": 0, "lat": 38.9332095, "rental_uris": {"ios": "https://dc.lft.to/lastmile_qr_scan", "android": "https://dc.lft.to/lastmile_qr_scan"}, "is_reserved": 0, "lon": -77.02931083333333, "fusion_lat": 0.0, "name": "5c950275ccf933228d56b4b7855132f4"}, {"type": "electric_scooter", "fusion_lon": 0.0, "bike_id": "8649d059adad511dae76847b55773e71", "is_disabled": 0, "lat": 38.914239, "rental_uris": {"ios": "https://dc.lft.to/lastmile_qr_scan", "android": "https://dc.lft.to/lastmile_qr_scan"}, "is_reserved": 0, "lon": -77.04587183333334, "fusion_lat": 0.0, "name": "8649d059adad511dae76847b55773e71"}, {"type": "electric_scooter", "fusion_lon": 0.0, "bike_id": "980ccc73ea6aec28ebcc7c833cffb43c", "is_disabled": 0, "lat": 38.8768235, "rental_uris": {"ios": "https://dc.lft.to/lastmile_qr_scan", "android": "https://dc.lft.to/lastmile_qr_scan"}, "is_reserved": 0, "lon": -77.00343516666666, "fusion_lat": 0.0, "name": "980ccc73ea6aec28ebcc7c833cffb43c"}, {"type": "electric_scooter", "fusion_lon": 0.0, "bike_id": "bcff8fdbd5b4f741d2dd03ca5b46f152", "is_disabled": 0, "lat": 38.86217366666666, "rental_uris": {"ios": "https://dc.lft.to/lastmile_qr_scan", "android": "https://dc.lft.to/lastmile_qr_scan"}, "is_reserved": 0, "lon": -76.99481483333334, "fusion_lat": 0.0, "name": "bcff8fdbd5b4f741d2dd03ca5b46f152"}, {"type": "electric_scooter", "fusion_lon": 0.0, "bike_id": "e103840157542f4f2e5def9541f190b1", "is_disabled": 0, "lat": 38.915728333333334, "rental_uris": {"ios": "https://dc.lft.to/lastmile_qr_scan", "android": "https://dc.lft.to/lastmile_qr_scan"}, "is_reserved": 0, "lon": -77.041768, "fusion_lat": 0.0, "name": "e103840157542f4f2e5def9541f190b1"}, {"type": "electric_scooter", "fusion_lon": 0.0, "bike_id": "54c09b23733a2eb0241149a2665f91c0", "is_disabled": 0, "lat": 38.94175833333333, "rental_uris": {"ios": "https://dc.lft.to/lastmile_qr_scan", "android": "https://dc.lft.to/lastmile_qr_scan"}, "is_reserved": 0, "lon": -76.994398, "fusion_lat": 0.0, "name": "54c09b23733a2eb0241149a2665f91c0"}, {"type": "electric_scooter", "fusion_lon": 0.0, "bike_id": "0f8c3403512ddd52775994d12d4c7a84", "is_disabled": 0, "lat": 38.910297166666666, "rental_uris": {"ios": "https://dc.lft.to/lastmile_qr_scan", "android": "https://dc.lft.to/lastmile_qr_scan"}, "is_reserved": 0, "lon": -77.04329183333333, "fusion_lat": 0.0, "name": "0f8c3403512ddd52775994d12d4c7a84"}, {"type": "electric_scooter", "fusion_lon": 0.0, "bike_id": "bea05e9b00985ab876dad794c2706f46", "is_disabled": 0, "lat": 38.89482533333333, "rental_uris": {"ios": "https://dc.lft.to/lastmile_qr_scan", "android": "https://dc.lft.to/lastmile_qr_scan"}, "is_reserved": 0, "lon": -77.02323066666666, "fusion_lat": 0.0, "name": "bea05e9b00985ab876dad794c2706f46"}, {"type": "electric_scooter", "fusion_lon": 0.0, "bike_id": "7b5d007ec82db668bcd8e7e182ac0459", "is_disabled": 0, "lat": 38.92479633333333, "rental_uris": {"ios": "https://dc.lft.to/lastmile_qr_scan", "android": "https://dc.lft.to/lastmile_qr_scan"}, "is_reserved": 0, "lon": -77.03179716666666, "fusion_lat": 0.0, "name": "7b5d007ec82db668bcd8e7e182ac0459"}, {"type": "electric_scooter", "fusion_lon": 0.0, "bike_id": "a26e5d48c8d703d2a22508b5cb27622c", "is_disabled": 0, "lat": 38.8729595, "rental_uris": {"ios": "https://dc.lft.to/lastmile_qr_scan", "android": "https://dc.lft.to/lastmile_qr_scan"}, "is_reserved": 0, "lon": -77.00981783333333, "fusion_lat": 0.0, "name": "a26e5d48c8d703d2a22508b5cb27622c"}, {"type": "electric_bike", "fusion_lon": 0.0, "bike_id": "5225c70b5e87f314a2c05e7d4f035057", "is_disabled": 0, "lat": 38.85620516666667, "rental_uris": {"ios": "https://dc.lft.to/lastmile_qr_scan", "android": "https://dc.lft.to/lastmile_qr_scan"}, "is_reserved": 0, "lon": -76.96152666666667, "fusion_lat": 0.0, "name": "5225c70b5e87f314a2c05e7d4f035057"}, {"type": "electric_scooter", "fusion_lon": 0.0, "bike_id": "0134bddc9b230cbaccae611353fbc28b", "is_disabled": 0, "lat": 38.917111166666665, "rental_uris": {"ios": "https://dc.lft.to/lastmile_qr_scan", "android": "https://dc.lft.to/lastmile_qr_scan"}, "is_reserved": 0, "lon": -77.03560416666667, "fusion_lat": 0.0, "name": "0134bddc9b230cbaccae611353fbc28b"}, {"type": "electric_scooter", "fusion_lon": 0.0, "bike_id": "2de7573a6d9aead40951061ae68f8562", "is_disabled": 0, "lat": 38.87882716666667, "rental_uris": {"ios": "https://dc.lft.to/lastmile_qr_scan", "android": "https://dc.lft.to/lastmile_qr_scan"}, "is_reserved": 0, "lon": -77.00633133333334, "fusion_lat": 0.0, "name": "2de7573a6d9aead40951061ae68f8562"}, {"type": "electric_scooter", "fusion_lon": 0.0, "bike_id": "0ceb84e95722087f87204b26f0930d3b", "is_disabled": 0, "lat": 38.920706833333334, "rental_uris": {"ios": "https://dc.lft.to/lastmile_qr_scan", "android": "https://dc.lft.to/lastmile_qr_scan"}, "is_reserved": 0, "lon": -77.02530866666666, "fusion_lat": 0.0, "name": "0ceb84e95722087f87204b26f0930d3b"}, {"type": "electric_scooter", "fusion_lon": 0.0, "bike_id": "fec3289b92614931ac9f4795d998dc88", "is_disabled": 0, "lat": 38.926437666666665, "rental_uris": {"ios": "https://dc.lft.to/lastmile_qr_scan", "android": "https://dc.lft.to/lastmile_qr_scan"}, "is_reserved": 0, "lon": -77.03471833333333, "fusion_lat": 0.0, "name": "fec3289b92614931ac9f4795d998dc88"}, {"type": "electric_scooter", "fusion_lon": 0.0, "bike_id": "f6c0da6d3711154da1d759a85d7f9a86", "is_disabled": 0, "lat": 38.920859666666665, "rental_uris": {"ios": "https://dc.lft.to/lastmile_qr_scan", "android": "https://dc.lft.to/lastmile_qr_scan"}, "is_reserved": 0, "lon": -77.04697883333333, "fusion_lat": 0.0, "name": "f6c0da6d3711154da1d759a85d7f9a86"}, {"type": "electric_scooter", "fusion_lon": 0.0, "bike_id": "8243974aaa7e5abcc9c496509939fd4d", "is_disabled": 0, "lat": 38.901268, "rental_uris": {"ios": "https://dc.lft.to/lastmile_qr_scan", "android": "https://dc.lft.to/lastmile_qr_scan"}, "is_reserved": 0, "lon": -77.04033033333333, "fusion_lat": 0.0, "name": "8243974aaa7e5abcc9c496509939fd4d"}, {"type": "electric_scooter", "fusion_lon": 0.0, "bike_id": "8e955daa0afa634d4dbb217c331c35e9", "is_disabled": 0, "lat": 38.9126425, "rental_uris": {"ios": "https://dc.lft.to/lastmile_qr_scan", "android": "https://dc.lft.to/lastmile_qr_scan"}, "is_reserved": 0, "lon": -77.00668533333334, "fusion_lat": 0.0, "name": "8e955daa0afa634d4dbb217c331c35e9"}, {"type": "electric_scooter", "fusion_lon": 0.0, "bike_id": "cc2524e625d2de6ac3afcbd5835b9dbb", "is_disabled": 0, "lat": 38.878291, "rental_uris": {"ios": "https://dc.lft.to/lastmile_qr_scan", "android": "https://dc.lft.to/lastmile_qr_scan"}, "is_reserved": 0, "lon": -77.000363, "fusion_lat": 0.0, "name": "cc2524e625d2de6ac3afcbd5835b9dbb"}, {"type": "electric_scooter", "fusion_lon": 0.0, "bike_id": "87cc32dbd87db8958a307b6a3195889a", "is_disabled": 0, "lat": 38.90125666666667, "rental_uris": {"ios": "https://dc.lft.to/lastmile_qr_scan", "android": "https://dc.lft.to/lastmile_qr_scan"}, "is_reserved": 0, "lon": -77.04995083333333, "fusion_lat": 0.0, "name": "87cc32dbd87db8958a307b6a3195889a"}, {"type": "electric_scooter", "fusion_lon": 0.0, "bike_id": "3d9618ca5d3ee0275a798ab0e4f9d787", "is_disabled": 0, "lat": 38.8997075, "rental_uris": {"ios": "https://dc.lft.to/lastmile_qr_scan", "android": "https://dc.lft.to/lastmile_qr_scan"}, "is_reserved": 0, "lon": -77.04188166666667, "fusion_lat": 0.0, "name": "3d9618ca5d3ee0275a798ab0e4f9d787"}, {"type": "electric_scooter", "fusion_lon": 0.0, "bike_id": "feb9be46d4bb9e35e0c06bf019f4543b", "is_disabled": 0, "lat": 38.9200355, "rental_uris": {"ios": "https://dc.lft.to/lastmile_qr_scan", "android": "https://dc.lft.to/lastmile_qr_scan"}, "is_reserved": 0, "lon": -77.03220983333334, "fusion_lat": 0.0, "name": "feb9be46d4bb9e35e0c06bf019f4543b"}, {"type": "electric_scooter", "fusion_lon": 0.0, "bike_id": "84a97443f056a471f1796efed59ce145", "is_disabled": 0, "lat": 38.89733283333333, "rental_uris": {"ios": "https://dc.lft.to/lastmile_qr_scan", "android": "https://dc.lft.to/lastmile_qr_scan"}, "is_reserved": 0, "lon": -77.05516616666667, "fusion_lat": 0.0, "name": "84a97443f056a471f1796efed59ce145"}, {"type": "electric_scooter", "fusion_lon": 0.0, "bike_id": "7d8fc3af9df4d25fd8f3023d7179ddf6", "is_disabled": 0, "lat": 38.90523233333333, "rental_uris": {"ios": "https://dc.lft.to/lastmile_qr_scan", "android": "https://dc.lft.to/lastmile_qr_scan"}, "is_reserved": 0, "lon": -77.05936916666667, "fusion_lat": 0.0, "name": "7d8fc3af9df4d25fd8f3023d7179ddf6"}, {"type": "electric_scooter", "fusion_lon": 0.0, "bike_id": "075d628c47fed4e2baf1549e544f0ae9", "is_disabled": 0, "lat": 38.918116833333336, "rental_uris": {"ios": "https://dc.lft.to/lastmile_qr_scan", "android": "https://dc.lft.to/lastmile_qr_scan"}, "is_reserved": 0, "lon": -77.0288695, "fusion_lat": 0.0, "name": "075d628c47fed4e2baf1549e544f0ae9"}, {"type": "electric_bike", "fusion_lon": 0.0, "bike_id": "f33ed0dd6c55f571c80a36037259e912", "is_disabled": 0, "lat": 38.875794166666665, "rental_uris": {"ios": "https://dc.lft.to/lastmile_qr_scan", "android": "https://dc.lft.to/lastmile_qr_scan"}, "is_reserved": 0, "lon": -77.2341225, "fusion_lat": 0.0, "name": "f33ed0dd6c55f571c80a36037259e912"}, {"type": "electric_scooter", "fusion_lon": 0.0, "bike_id": "2cf9b97effc579750743f43a729dbe40", "is_disabled": 0, "lat": 38.90134333333334, "rental_uris": {"ios": "https://dc.lft.to/lastmile_qr_scan", "android": "https://dc.lft.to/lastmile_qr_scan"}, "is_reserved": 0, "lon": -77.04041083333334, "fusion_lat": 0.0, "name": "2cf9b97effc579750743f43a729dbe40"}, {"type": "electric_scooter", "fusion_lon": 0.0, "bike_id": "4b2308a496889a45b396412df0a88a38", "is_disabled": 0, "lat": 38.91037716666666, "rental_uris": {"ios": "https://dc.lft.to/lastmile_qr_scan", "android": "https://dc.lft.to/lastmile_qr_scan"}, "is_reserved": 0, "lon": -77.01994866666666, "fusion_lat": 0.0, "name": "4b2308a496889a45b396412df0a88a38"}, {"type": "electric_bike", "fusion_lon": 0.0, "bike_id": "5031b2802f857ef03f756532320ad3a0", "is_disabled": 0, "lat": 38.813386, "rental_uris": {"ios": "https://dc.lft.to/lastmile_qr_scan", "android": "https://dc.lft.to/lastmile_qr_scan"}, "is_reserved": 0, "lon": -77.0511795, "fusion_lat": 0.0, "name": "5031b2802f857ef03f756532320ad3a0"}, {"type": "electric_scooter", "fusion_lon": 0.0, "bike_id": "071b34c59ff5d88989890b076f804975", "is_disabled": 0, "lat": 38.914751833333334, "rental_uris": {"ios": "https://dc.lft.to/lastmile_qr_scan", "android": "https://dc.lft.to/lastmile_qr_scan"}, "is_reserved": 0, "lon": -77.03866783333334, "fusion_lat": 0.0, "name": "071b34c59ff5d88989890b076f804975"}, {"type": "electric_scooter", "fusion_lon": 0.0, "bike_id": "4c349325d691df571851e21669a881b1", "is_disabled": 0, "lat": 38.9075225, "rental_uris": {"ios": "https://dc.lft.to/lastmile_qr_scan", "android": "https://dc.lft.to/lastmile_qr_scan"}, "is_reserved": 0, "lon": -77.02303183333333, "fusion_lat": 0.0, "name": "4c349325d691df571851e21669a881b1"}, {"type": "electric_scooter", "fusion_lon": 0.0, "bike_id": "9f7ad1192af055ca2caa0d8ed7293415", "is_disabled": 0, "lat": 38.909940666666664, "rental_uris": {"ios": "https://dc.lft.to/lastmile_qr_scan", "android": "https://dc.lft.to/lastmile_qr_scan"}, "is_reserved": 0, "lon": -76.99451416666666, "fusion_lat": 0.0, "name": "9f7ad1192af055ca2caa0d8ed7293415"}, {"type": "electric_scooter", "fusion_lon": 0.0, "bike_id": "b12b3b72c82522657414003f208e2ca2", "is_disabled": 0, "lat": 38.90237616666667, "rental_uris": {"ios": "https://dc.lft.to/lastmile_qr_scan", "android": "https://dc.lft.to/lastmile_qr_scan"}, "is_reserved": 0, "lon": -77.00214133333333, "fusion_lat": 0.0, "name": "b12b3b72c82522657414003f208e2ca2"}, {"type": "electric_scooter", "fusion_lon": 0.0, "bike_id": "b5b8e53e620cbf2ab7ed928d45dd35e3", "is_disabled": 0, "lat": 38.876582666666664, "rental_uris": {"ios": "https://dc.lft.to/lastmile_qr_scan", "android": "https://dc.lft.to/lastmile_qr_scan"}, "is_reserved": 0, "lon": -77.00066533333333, "fusion_lat": 0.0, "name": "b5b8e53e620cbf2ab7ed928d45dd35e3"}, {"type": "electric_scooter", "fusion_lon": 0.0, "bike_id": "6ff454d65073c321ec69d126a6984d1d", "is_disabled": 0, "lat": 38.91177416666667, "rental_uris": {"ios": "https://dc.lft.to/lastmile_qr_scan", "android": "https://dc.lft.to/lastmile_qr_scan"}, "is_reserved": 0, "lon": -77.010773, "fusion_lat": 0.0, "name": "6ff454d65073c321ec69d126a6984d1d"}, {"type": "electric_scooter", "fusion_lon": 0.0, "bike_id": "8c73176b43330cab081e0eb6dfe66c05", "is_disabled": 0, "lat": 38.94202933333333, "rental_uris": {"ios": "https://dc.lft.to/lastmile_qr_scan", "android": "https://dc.lft.to/lastmile_qr_scan"}, "is_reserved": 0, "lon": -77.02435266666667, "fusion_lat": 0.0, "name": "8c73176b43330cab081e0eb6dfe66c05"}, {"type": "electric_scooter", "fusion_lon": 0.0, "bike_id": "88679c40d3e2ab3ba54b81c971d87d87", "is_disabled": 0, "lat": 38.96033666666666, "rental_uris": {"ios": "https://dc.lft.to/lastmile_qr_scan", "android": "https://dc.lft.to/lastmile_qr_scan"}, "is_reserved": 0, "lon": -77.01985516666667, "fusion_lat": 0.0, "name": "88679c40d3e2ab3ba54b81c971d87d87"}, {"type": "electric_scooter", "fusion_lon": 0.0, "bike_id": "6108170834d77ca0eebee7eccb28428a", "is_disabled": 0, "lat": 38.9189385, "rental_uris": {"ios": "https://dc.lft.to/lastmile_qr_scan", "android": "https://dc.lft.to/lastmile_qr_scan"}, "is_reserved": 0, "lon": -77.0243195, "fusion_lat": 0.0, "name": "6108170834d77ca0eebee7eccb28428a"}, {"type": "electric_scooter", "fusion_lon": 0.0, "bike_id": "ca169068147d015dc596da815718540b", "is_disabled": 0, "lat": 38.904331, "rental_uris": {"ios": "https://dc.lft.to/lastmile_qr_scan", "android": "https://dc.lft.to/lastmile_qr_scan"}, "is_reserved": 0, "lon": -77.03279883333333, "fusion_lat": 0.0, "name": "ca169068147d015dc596da815718540b"}, {"type": "electric_scooter", "fusion_lon": 0.0, "bike_id": "26cb08c5d84ee38df86b03c81ea861c0", "is_disabled": 0, "lat": 38.90445316666667, "rental_uris": {"ios": "https://dc.lft.to/lastmile_qr_scan", "android": "https://dc.lft.to/lastmile_qr_scan"}, "is_reserved": 0, "lon": -77.04279233333334, "fusion_lat": 0.0, "name": "26cb08c5d84ee38df86b03c81ea861c0"}, {"type": "electric_scooter", "fusion_lon": 0.0, "bike_id": "1e9270e9dda68177a7ea2de2a884a609", "is_disabled": 0, "lat": 38.91891366666667, "rental_uris": {"ios": "https://dc.lft.to/lastmile_qr_scan", "android": "https://dc.lft.to/lastmile_qr_scan"}, "is_reserved": 0, "lon": -77.0382705, "fusion_lat": 0.0, "name": "1e9270e9dda68177a7ea2de2a884a609"}, {"type": "electric_bike", "fusion_lon": 0.0, "bike_id": "5a71e0b87a711b8607b3303df7d57285", "is_disabled": 0, "lat": 38.871304333333335, "rental_uris": {"ios": "https://dc.lft.to/lastmile_qr_scan", "android": "https://dc.lft.to/lastmile_qr_scan"}, "is_reserved": 0, "lon": -76.93736083333333, "fusion_lat": 0.0, "name": "5a71e0b87a711b8607b3303df7d57285"}, {"type": "electric_scooter", "fusion_lon": 0.0, "bike_id": "4839be5a25cd875bac42ddaacd9c5ca1", "is_disabled": 0, "lat": 38.890614666666664, "rental_uris": {"ios": "https://dc.lft.to/lastmile_qr_scan", "android": "https://dc.lft.to/lastmile_qr_scan"}, "is_reserved": 0, "lon": -76.93764766666666, "fusion_lat": 0.0, "name": "4839be5a25cd875bac42ddaacd9c5ca1"}, {"type": "electric_scooter", "fusion_lon": 0.0, "bike_id": "f07ff58ac03ad2c0b6a3546f11279448", "is_disabled": 0, "lat": 38.892256, "rental_uris": {"ios": "https://dc.lft.to/lastmile_qr_scan", "android": "https://dc.lft.to/lastmile_qr_scan"}, "is_reserved": 0, "lon": -77.04333333333334, "fusion_lat": 0.0, "name": "f07ff58ac03ad2c0b6a3546f11279448"}, {"type": "electric_scooter", "fusion_lon": 0.0, "bike_id": "cabd8100098d9d32aec0e9f5b763738e", "is_disabled": 0, "lat": 38.900118, "rental_uris": {"ios": "https://dc.lft.to/lastmile_qr_scan", "android": "https://dc.lft.to/lastmile_qr_scan"}, "is_reserved": 0, "lon": -77.00674516666666, "fusion_lat": 0.0, "name": "cabd8100098d9d32aec0e9f5b763738e"}, {"type": "electric_scooter", "fusion_lon": 0.0, "bike_id": "a302e8d801115a22cf25ae205969b691", "is_disabled": 0, "lat": 38.92089683333333, "rental_uris": {"ios": "https://dc.lft.to/lastmile_qr_scan", "android": "https://dc.lft.to/lastmile_qr_scan"}, "is_reserved": 0, "lon": -77.02496616666667, "fusion_lat": 0.0, "name": "a302e8d801115a22cf25ae205969b691"}, {"type": "electric_scooter", "fusion_lon": 0.0, "bike_id": "7ed4abbc8e05da6d5a21a9e15cf51f5a", "is_disabled": 0, "lat": 38.9721285, "rental_uris": {"ios": "https://dc.lft.to/lastmile_qr_scan", "android": "https://dc.lft.to/lastmile_qr_scan"}, "is_reserved": 0, "lon": -77.03333033333334, "fusion_lat": 0.0, "name": "7ed4abbc8e05da6d5a21a9e15cf51f5a"}, {"type": "electric_scooter", "fusion_lon": 0.0, "bike_id": "f72d53b0d785bb7becf39b583dc0e080", "is_disabled": 0, "lat": 38.89603283333334, "rental_uris": {"ios": "https://dc.lft.to/lastmile_qr_scan", "android": "https://dc.lft.to/lastmile_qr_scan"}, "is_reserved": 0, "lon": -77.0092975, "fusion_lat": 0.0, "name": "f72d53b0d785bb7becf39b583dc0e080"}, {"type": "electric_scooter", "fusion_lon": 0.0, "bike_id": "de756e1c51e00525830044122f010e29", "is_disabled": 0, "lat": 38.899840166666664, "rental_uris": {"ios": "https://dc.lft.to/lastmile_qr_scan", "android": "https://dc.lft.to/lastmile_qr_scan"}, "is_reserved": 0, "lon": -76.99485633333333, "fusion_lat": 0.0, "name": "de756e1c51e00525830044122f010e29"}, {"type": "electric_scooter", "fusion_lon": 0.0, "bike_id": "f8b3568f15be6c89cdc04ca4d3175aea", "is_disabled": 0, "lat": 38.89966183333333, "rental_uris": {"ios": "https://dc.lft.to/lastmile_qr_scan", "android": "https://dc.lft.to/lastmile_qr_scan"}, "is_reserved": 0, "lon": -77.05097283333333, "fusion_lat": 0.0, "name": "f8b3568f15be6c89cdc04ca4d3175aea"}, {"type": "electric_scooter", "fusion_lon": 0.0, "bike_id": "4322f4700e00ee2f2e8b21244e0e1604", "is_disabled": 0, "lat": 38.92613983333333, "rental_uris": {"ios": "https://dc.lft.to/lastmile_qr_scan", "android": "https://dc.lft.to/lastmile_qr_scan"}, "is_reserved": 0, "lon": -77.04192566666667, "fusion_lat": 0.0, "name": "4322f4700e00ee2f2e8b21244e0e1604"}, {"type": "electric_scooter", "fusion_lon": 0.0, "bike_id": "9735004893e2ce74cd85956fad05dc72", "is_disabled": 0, "lat": 38.8383895, "rental_uris": {"ios": "https://dc.lft.to/lastmile_qr_scan", "android": "https://dc.lft.to/lastmile_qr_scan"}, "is_reserved": 0, "lon": -76.998373, "fusion_lat": 0.0, "name": "9735004893e2ce74cd85956fad05dc72"}, {"type": "electric_scooter", "fusion_lon": 0.0, "bike_id": "f3308bb3ae7a40cfb265b7bf1cd2f291", "is_disabled": 0, "lat": 38.90591116666667, "rental_uris": {"ios": "https://dc.lft.to/lastmile_qr_scan", "android": "https://dc.lft.to/lastmile_qr_scan"}, "is_reserved": 0, "lon": -77.0160495, "fusion_lat": 0.0, "name": "f3308bb3ae7a40cfb265b7bf1cd2f291"}, {"type": "electric_scooter", "fusion_lon": 0.0, "bike_id": "356ca0492bed9af19ad4627d37ef784a", "is_disabled": 0, "lat": 38.916350333333334, "rental_uris": {"ios": "https://dc.lft.to/lastmile_qr_scan", "android": "https://dc.lft.to/lastmile_qr_scan"}, "is_reserved": 0, "lon": -77.03199916666667, "fusion_lat": 0.0, "name": "356ca0492bed9af19ad4627d37ef784a"}, {"type": "electric_scooter", "fusion_lon": 0.0, "bike_id": "603b84770a9bb61d1bf80ea6493a32cb", "is_disabled": 0, "lat": 38.912669, "rental_uris": {"ios": "https://dc.lft.to/lastmile_qr_scan", "android": "https://dc.lft.to/lastmile_qr_scan"}, "is_reserved": 0, "lon": -77.0386505, "fusion_lat": 0.0, "name": "603b84770a9bb61d1bf80ea6493a32cb"}, {"type": "electric_scooter", "fusion_lon": 0.0, "bike_id": "5a8bcbab4701c6f28fb029b016c314e4", "is_disabled": 0, "lat": 38.893950833333335, "rental_uris": {"ios": "https://dc.lft.to/lastmile_qr_scan", "android": "https://dc.lft.to/lastmile_qr_scan"}, "is_reserved": 0, "lon": -77.021973, "fusion_lat": 0.0, "name": "5a8bcbab4701c6f28fb029b016c314e4"}, {"type": "electric_scooter", "fusion_lon": 0.0, "bike_id": "298a09b087b3800b22686a9786480206", "is_disabled": 0, "lat": 38.90413183333333, "rental_uris": {"ios": "https://dc.lft.to/lastmile_qr_scan", "android": "https://dc.lft.to/lastmile_qr_scan"}, "is_reserved": 0, "lon": -76.973326, "fusion_lat": 0.0, "name": "298a09b087b3800b22686a9786480206"}, {"type": "electric_scooter", "fusion_lon": 0.0, "bike_id": "bb59e16c6e24e42352c13c7cddc5e8cb", "is_disabled": 0, "lat": 38.911060666666664, "rental_uris": {"ios": "https://dc.lft.to/lastmile_qr_scan", "android": "https://dc.lft.to/lastmile_qr_scan"}, "is_reserved": 0, "lon": -77.04542983333333, "fusion_lat": 0.0, "name": "bb59e16c6e24e42352c13c7cddc5e8cb"}, {"type": "electric_scooter", "fusion_lon": 0.0, "bike_id": "db55f7b89072f5cdb7ffce6a7e00167d", "is_disabled": 0, "lat": 38.902034666666665, "rental_uris": {"ios": "https://dc.lft.to/lastmile_qr_scan", "android": "https://dc.lft.to/lastmile_qr_scan"}, "is_reserved": 0, "lon": -77.021809, "fusion_lat": 0.0, "name": "db55f7b89072f5cdb7ffce6a7e00167d"}, {"type": "electric_scooter", "fusion_lon": 0.0, "bike_id": "a59b947cbedd807bfbfd2ada1ce79f47", "is_disabled": 0, "lat": 38.9133655, "rental_uris": {"ios": "https://dc.lft.to/lastmile_qr_scan", "android": "https://dc.lft.to/lastmile_qr_scan"}, "is_reserved": 0, "lon": -77.025426, "fusion_lat": 0.0, "name": "a59b947cbedd807bfbfd2ada1ce79f47"}, {"type": "electric_scooter", "fusion_lon": 0.0, "bike_id": "b052c70da3a3edcb2b51531848c26593", "is_disabled": 0, "lat": 38.898532833333334, "rental_uris": {"ios": "https://dc.lft.to/lastmile_qr_scan", "android": "https://dc.lft.to/lastmile_qr_scan"}, "is_reserved": 0, "lon": -76.9903435, "fusion_lat": 0.0, "name": "b052c70da3a3edcb2b51531848c26593"}, {"type": "electric_scooter", "fusion_lon": 0.0, "bike_id": "f0b854496692c7ef44ce12ee2f003aba", "is_disabled": 0, "lat": 38.934265333333336, "rental_uris": {"ios": "https://dc.lft.to/lastmile_qr_scan", "android": "https://dc.lft.to/lastmile_qr_scan"}, "is_reserved": 0, "lon": -77.04427316666667, "fusion_lat": 0.0, "name": "f0b854496692c7ef44ce12ee2f003aba"}, {"type": "electric_scooter", "fusion_lon": 0.0, "bike_id": "294f82428b4995bbaeff182bfbb779d7", "is_disabled": 0, "lat": 38.927495, "rental_uris": {"ios": "https://dc.lft.to/lastmile_qr_scan", "android": "https://dc.lft.to/lastmile_qr_scan"}, "is_reserved": 0, "lon": -77.02534316666667, "fusion_lat": 0.0, "name": "294f82428b4995bbaeff182bfbb779d7"}, {"type": "electric_scooter", "fusion_lon": 0.0, "bike_id": "d6d1677680544214440fb64daedb6813", "is_disabled": 0, "lat": 38.9345265, "rental_uris": {"ios": "https://dc.lft.to/lastmile_qr_scan", "android": "https://dc.lft.to/lastmile_qr_scan"}, "is_reserved": 0, "lon": -77.032462, "fusion_lat": 0.0, "name": "d6d1677680544214440fb64daedb6813"}, {"type": "electric_scooter", "fusion_lon": 0.0, "bike_id": "79734fb39b17a25cb5bafac50e2784ca", "is_disabled": 0, "lat": 38.921709166666666, "rental_uris": {"ios": "https://dc.lft.to/lastmile_qr_scan", "android": "https://dc.lft.to/lastmile_qr_scan"}, "is_reserved": 0, "lon": -77.022064, "fusion_lat": 0.0, "name": "79734fb39b17a25cb5bafac50e2784ca"}, {"type": "electric_scooter", "fusion_lon": 0.0, "bike_id": "09c523af3b1284e865f3bd31de7be01b", "is_disabled": 0, "lat": 38.908240666666664, "rental_uris": {"ios": "https://dc.lft.to/lastmile_qr_scan", "android": "https://dc.lft.to/lastmile_qr_scan"}, "is_reserved": 0, "lon": -77.03917266666667, "fusion_lat": 0.0, "name": "09c523af3b1284e865f3bd31de7be01b"}, {"type": "electric_bike", "fusion_lon": 0.0, "bike_id": "d485adbc18c993e23f79973ece9af128", "is_disabled": 0, "lat": 38.85783933333333, "rental_uris": {"ios": "https://dc.lft.to/lastmile_qr_scan", "android": "https://dc.lft.to/lastmile_qr_scan"}, "is_reserved": 0, "lon": -76.97323933333334, "fusion_lat": 0.0, "name": "d485adbc18c993e23f79973ece9af128"}, {"type": "electric_scooter", "fusion_lon": 0.0, "bike_id": "3c5c5ddf867d95c88da18f1ed98b856f", "is_disabled": 0, "lat": 38.931402166666665, "rental_uris": {"ios": "https://dc.lft.to/lastmile_qr_scan", "android": "https://dc.lft.to/lastmile_qr_scan"}, "is_reserved": 0, "lon": -77.02342383333334, "fusion_lat": 0.0, "name": "3c5c5ddf867d95c88da18f1ed98b856f"}, {"type": "electric_scooter", "fusion_lon": 0.0, "bike_id": "9bcfc32276a17198d55f72ef9fa9b48c", "is_disabled": 0, "lat": 38.914464333333335, "rental_uris": {"ios": "https://dc.lft.to/lastmile_qr_scan", "android": "https://dc.lft.to/lastmile_qr_scan"}, "is_reserved": 0, "lon": -77.04156733333333, "fusion_lat": 0.0, "name": "9bcfc32276a17198d55f72ef9fa9b48c"}, {"type": "electric_scooter", "fusion_lon": 0.0, "bike_id": "6560a1b29d555862b096cd331aaef45b", "is_disabled": 0, "lat": 38.91833533333333, "rental_uris": {"ios": "https://dc.lft.to/lastmile_qr_scan", "android": "https://dc.lft.to/lastmile_qr_scan"}, "is_reserved": 0, "lon": -77.04524866666667, "fusion_lat": 0.0, "name": "6560a1b29d555862b096cd331aaef45b"}, {"type": "electric_scooter", "fusion_lon": 0.0, "bike_id": "7c99acdd15e02f68f431bd9e8de4d912", "is_disabled": 0, "lat": 38.98427483333333, "rental_uris": {"ios": "https://dc.lft.to/lastmile_qr_scan", "android": "https://dc.lft.to/lastmile_qr_scan"}, "is_reserved": 0, "lon": -77.02668266666667, "fusion_lat": 0.0, "name": "7c99acdd15e02f68f431bd9e8de4d912"}, {"type": "electric_scooter", "fusion_lon": 0.0, "bike_id": "089c97a589f3286800f85da95d3647a0", "is_disabled": 0, "lat": 38.893445, "rental_uris": {"ios": "https://dc.lft.to/lastmile_qr_scan", "android": "https://dc.lft.to/lastmile_qr_scan"}, "is_reserved": 0, "lon": -76.99160066666667, "fusion_lat": 0.0, "name": "089c97a589f3286800f85da95d3647a0"}, {"type": "electric_scooter", "fusion_lon": 0.0, "bike_id": "2f620cf82e032c87df451d247b852635", "is_disabled": 0, "lat": 38.927562, "rental_uris": {"ios": "https://dc.lft.to/lastmile_qr_scan", "android": "https://dc.lft.to/lastmile_qr_scan"}, "is_reserved": 0, "lon": -77.03269966666667, "fusion_lat": 0.0, "name": "2f620cf82e032c87df451d247b852635"}, {"type": "electric_scooter", "fusion_lon": 0.0, "bike_id": "67cb6e305c2573471ea485e4b6ac9fc9", "is_disabled": 0, "lat": 38.90284666666667, "rental_uris": {"ios": "https://dc.lft.to/lastmile_qr_scan", "android": "https://dc.lft.to/lastmile_qr_scan"}, "is_reserved": 0, "lon": -77.034709, "fusion_lat": 0.0, "name": "67cb6e305c2573471ea485e4b6ac9fc9"}, {"type": "electric_scooter", "fusion_lon": 0.0, "bike_id": "bfb28d876d43bf5be1981a95f1a8c2ae", "is_disabled": 0, "lat": 38.9374575, "rental_uris": {"ios": "https://dc.lft.to/lastmile_qr_scan", "android": "https://dc.lft.to/lastmile_qr_scan"}, "is_reserved": 0, "lon": -77.06873583333333, "fusion_lat": 0.0, "name": "bfb28d876d43bf5be1981a95f1a8c2ae"}, {"type": "electric_scooter", "fusion_lon": 0.0, "bike_id": "4f96840038b7fb390b2e7bf41e95ec21", "is_disabled": 0, "lat": 38.909728333333334, "rental_uris": {"ios": "https://dc.lft.to/lastmile_qr_scan", "android": "https://dc.lft.to/lastmile_qr_scan"}, "is_reserved": 0, "lon": -77.01708966666666, "fusion_lat": 0.0, "name": "4f96840038b7fb390b2e7bf41e95ec21"}, {"type": "electric_scooter", "fusion_lon": 0.0, "bike_id": "ea2aa523642d13dbeb7cdf428ff2e02f", "is_disabled": 0, "lat": 38.91604433333333, "rental_uris": {"ios": "https://dc.lft.to/lastmile_qr_scan", "android": "https://dc.lft.to/lastmile_qr_scan"}, "is_reserved": 0, "lon": -77.043509, "fusion_lat": 0.0, "name": "ea2aa523642d13dbeb7cdf428ff2e02f"}, {"type": "electric_scooter", "fusion_lon": 0.0, "bike_id": "87f42ed28e0412a98fd5ba0a79fb9eb6", "is_disabled": 0, "lat": 38.860137333333334, "rental_uris": {"ios": "https://dc.lft.to/lastmile_qr_scan", "android": "https://dc.lft.to/lastmile_qr_scan"}, "is_reserved": 0, "lon": -76.96707416666666, "fusion_lat": 0.0, "name": "87f42ed28e0412a98fd5ba0a79fb9eb6"}, {"type": "electric_scooter", "fusion_lon": 0.0, "bike_id": "ef5610b6d66fd140c81cb84f9e55e76a", "is_disabled": 0, "lat": 38.8922605, "rental_uris": {"ios": "https://dc.lft.to/lastmile_qr_scan", "android": "https://dc.lft.to/lastmile_qr_scan"}, "is_reserved": 0, "lon": -77.04868366666666, "fusion_lat": 0.0, "name": "ef5610b6d66fd140c81cb84f9e55e76a"}, {"type": "electric_scooter", "fusion_lon": 0.0, "bike_id": "e50e86a4e2c6df9d48545ecab70ee8e6", "is_disabled": 0, "lat": 38.91570566666667, "rental_uris": {"ios": "https://dc.lft.to/lastmile_qr_scan", "android": "https://dc.lft.to/lastmile_qr_scan"}, "is_reserved": 0, "lon": -77.03734933333334, "fusion_lat": 0.0, "name": "e50e86a4e2c6df9d48545ecab70ee8e6"}, {"type": "electric_scooter", "fusion_lon": 0.0, "bike_id": "07d6c2de1c8320bf4cd3c77cfba54eac", "is_disabled": 0, "lat": 38.8952495, "rental_uris": {"ios": "https://dc.lft.to/lastmile_qr_scan", "android": "https://dc.lft.to/lastmile_qr_scan"}, "is_reserved": 0, "lon": -77.03940816666666, "fusion_lat": 0.0, "name": "07d6c2de1c8320bf4cd3c77cfba54eac"}, {"type": "electric_scooter", "fusion_lon": 0.0, "bike_id": "297e04fae6e8b5350136570e16ccf7ee", "is_disabled": 0, "lat": 38.941971, "rental_uris": {"ios": "https://dc.lft.to/lastmile_qr_scan", "android": "https://dc.lft.to/lastmile_qr_scan"}, "is_reserved": 0, "lon": -77.03326416666667, "fusion_lat": 0.0, "name": "297e04fae6e8b5350136570e16ccf7ee"}, {"type": "electric_scooter", "fusion_lon": 0.0, "bike_id": "74a7b5dd620e0e291d54a9bc2838d6cd", "is_disabled": 0, "lat": 38.900197166666665, "rental_uris": {"ios": "https://dc.lft.to/lastmile_qr_scan", "android": "https://dc.lft.to/lastmile_qr_scan"}, "is_reserved": 0, "lon": -77.037173, "fusion_lat": 0.0, "name": "74a7b5dd620e0e291d54a9bc2838d6cd"}, {"type": "electric_scooter", "fusion_lon": 0.0, "bike_id": "eee99a5a19ec237583c0c9218e07cabe", "is_disabled": 0, "lat": 38.9006125, "rental_uris": {"ios": "https://dc.lft.to/lastmile_qr_scan", "android": "https://dc.lft.to/lastmile_qr_scan"}, "is_reserved": 0, "lon": -76.99821916666667, "fusion_lat": 0.0, "name": "eee99a5a19ec237583c0c9218e07cabe"}, {"type": "electric_scooter", "fusion_lon": 0.0, "bike_id": "017475a15b0d6f180e9cb0c14d2fec05", "is_disabled": 0, "lat": 38.922822833333335, "rental_uris": {"ios": "https://dc.lft.to/lastmile_qr_scan", "android": "https://dc.lft.to/lastmile_qr_scan"}, "is_reserved": 0, "lon": -77.02709, "fusion_lat": 0.0, "name": "017475a15b0d6f180e9cb0c14d2fec05"}, {"type": "electric_scooter", "fusion_lon": 0.0, "bike_id": "619f1d0587cd407c8e8255b055a3da5a", "is_disabled": 0, "lat": 38.92713166666667, "rental_uris": {"ios": "https://dc.lft.to/lastmile_qr_scan", "android": "https://dc.lft.to/lastmile_qr_scan"}, "is_reserved": 0, "lon": -77.0233955, "fusion_lat": 0.0, "name": "619f1d0587cd407c8e8255b055a3da5a"}, {"type": "electric_scooter", "fusion_lon": 0.0, "bike_id": "5f3730331e66032565f81944bb1235ea", "is_disabled": 0, "lat": 38.91961283333333, "rental_uris": {"ios": "https://dc.lft.to/lastmile_qr_scan", "android": "https://dc.lft.to/lastmile_qr_scan"}, "is_reserved": 0, "lon": -77.02713816666666, "fusion_lat": 0.0, "name": "5f3730331e66032565f81944bb1235ea"}, {"type": "electric_scooter", "fusion_lon": 0.0, "bike_id": "208da73b124385ae9997e40bb9299cdf", "is_disabled": 0, "lat": 38.917659666666665, "rental_uris": {"ios": "https://dc.lft.to/lastmile_qr_scan", "android": "https://dc.lft.to/lastmile_qr_scan"}, "is_reserved": 0, "lon": -77.02341, "fusion_lat": 0.0, "name": "208da73b124385ae9997e40bb9299cdf"}, {"type": "electric_scooter", "fusion_lon": 0.0, "bike_id": "6ccc3f10f52359d63c4a3acc5aedefc5", "is_disabled": 0, "lat": 38.929551833333335, "rental_uris": {"ios": "https://dc.lft.to/lastmile_qr_scan", "android": "https://dc.lft.to/lastmile_qr_scan"}, "is_reserved": 0, "lon": -77.05507616666667, "fusion_lat": 0.0, "name": "6ccc3f10f52359d63c4a3acc5aedefc5"}, {"type": "electric_scooter", "fusion_lon": 0.0, "bike_id": "d57e56f718a64ec0db8e9660cdc1ca7b", "is_disabled": 0, "lat": 38.91109383333333, "rental_uris": {"ios": "https://dc.lft.to/lastmile_qr_scan", "android": "https://dc.lft.to/lastmile_qr_scan"}, "is_reserved": 0, "lon": -77.038261, "fusion_lat": 0.0, "name": "d57e56f718a64ec0db8e9660cdc1ca7b"}, {"type": "electric_scooter", "fusion_lon": 0.0, "bike_id": "7e2840d9e45c6374da948c333dcc17eb", "is_disabled": 0, "lat": 38.90781583333333, "rental_uris": {"ios": "https://dc.lft.to/lastmile_qr_scan", "android": "https://dc.lft.to/lastmile_qr_scan"}, "is_reserved": 0, "lon": -77.07255716666667, "fusion_lat": 0.0, "name": "7e2840d9e45c6374da948c333dcc17eb"}, {"type": "electric_scooter", "fusion_lon": 0.0, "bike_id": "bd753dad3c181bdafeb02a45dcc06244", "is_disabled": 0, "lat": 38.89506316666667, "rental_uris": {"ios": "https://dc.lft.to/lastmile_qr_scan", "android": "https://dc.lft.to/lastmile_qr_scan"}, "is_reserved": 0, "lon": -77.00334433333333, "fusion_lat": 0.0, "name": "bd753dad3c181bdafeb02a45dcc06244"}, {"type": "electric_scooter", "fusion_lon": 0.0, "bike_id": "82be2fd461e13b2479a56f49a86bdfff", "is_disabled": 0, "lat": 38.957954, "rental_uris": {"ios": "https://dc.lft.to/lastmile_qr_scan", "android": "https://dc.lft.to/lastmile_qr_scan"}, "is_reserved": 0, "lon": -77.02467416666667, "fusion_lat": 0.0, "name": "82be2fd461e13b2479a56f49a86bdfff"}, {"type": "electric_scooter", "fusion_lon": 0.0, "bike_id": "a3a5909fe09ef346745a9831a869c6d5", "is_disabled": 0, "lat": 38.93865516666666, "rental_uris": {"ios": "https://dc.lft.to/lastmile_qr_scan", "android": "https://dc.lft.to/lastmile_qr_scan"}, "is_reserved": 0, "lon": -77.03383116666667, "fusion_lat": 0.0, "name": "a3a5909fe09ef346745a9831a869c6d5"}, {"type": "electric_scooter", "fusion_lon": 0.0, "bike_id": "4b26ad7739441be730bf3a2ae35b4354", "is_disabled": 0, "lat": 38.91036366666667, "rental_uris": {"ios": "https://dc.lft.to/lastmile_qr_scan", "android": "https://dc.lft.to/lastmile_qr_scan"}, "is_reserved": 0, "lon": -77.0484025, "fusion_lat": 0.0, "name": "4b26ad7739441be730bf3a2ae35b4354"}, {"type": "electric_scooter", "fusion_lon": 0.0, "bike_id": "c59c7cdd00820de8af8833ac000deb8f", "is_disabled": 0, "lat": 38.90527616666667, "rental_uris": {"ios": "https://dc.lft.to/lastmile_qr_scan", "android": "https://dc.lft.to/lastmile_qr_scan"}, "is_reserved": 0, "lon": -77.029615, "fusion_lat": 0.0, "name": "c59c7cdd00820de8af8833ac000deb8f"}, {"type": "electric_scooter", "fusion_lon": 0.0, "bike_id": "8e05ecf89486c3218a3e4891ae1f77be", "is_disabled": 0, "lat": 38.907095166666664, "rental_uris": {"ios": "https://dc.lft.to/lastmile_qr_scan", "android": "https://dc.lft.to/lastmile_qr_scan"}, "is_reserved": 0, "lon": -77.00103666666666, "fusion_lat": 0.0, "name": "8e05ecf89486c3218a3e4891ae1f77be"}, {"type": "electric_scooter", "fusion_lon": 0.0, "bike_id": "b6d11f5ff97d07661d025fbe8964afa0", "is_disabled": 0, "lat": 38.9243775, "rental_uris": {"ios": "https://dc.lft.to/lastmile_qr_scan", "android": "https://dc.lft.to/lastmile_qr_scan"}, "is_reserved": 0, "lon": -77.020356, "fusion_lat": 0.0, "name": "b6d11f5ff97d07661d025fbe8964afa0"}, {"type": "electric_scooter", "fusion_lon": 0.0, "bike_id": "70e6602183be7baf0b3a4084ffc692e2", "is_disabled": 0, "lat": 38.931393166666666, "rental_uris": {"ios": "https://dc.lft.to/lastmile_qr_scan", "android": "https://dc.lft.to/lastmile_qr_scan"}, "is_reserved": 0, "lon": -77.03287333333333, "fusion_lat": 0.0, "name": "70e6602183be7baf0b3a4084ffc692e2"}, {"type": "electric_scooter", "fusion_lon": 0.0, "bike_id": "4536032f74bddb3f45123dcf93217693", "is_disabled": 0, "lat": 38.892225333333336, "rental_uris": {"ios": "https://dc.lft.to/lastmile_qr_scan", "android": "https://dc.lft.to/lastmile_qr_scan"}, "is_reserved": 0, "lon": -77.04689, "fusion_lat": 0.0, "name": "4536032f74bddb3f45123dcf93217693"}, {"type": "electric_scooter", "fusion_lon": 0.0, "bike_id": "6766771055f9cec5490c84e6337f8623", "is_disabled": 0, "lat": 38.928845833333334, "rental_uris": {"ios": "https://dc.lft.to/lastmile_qr_scan", "android": "https://dc.lft.to/lastmile_qr_scan"}, "is_reserved": 0, "lon": -77.0327355, "fusion_lat": 0.0, "name": "6766771055f9cec5490c84e6337f8623"}, {"type": "electric_scooter", "fusion_lon": 0.0, "bike_id": "8d4fad20808423c9f37b711d744eaced", "is_disabled": 0, "lat": 38.960780166666666, "rental_uris": {"ios": "https://dc.lft.to/lastmile_qr_scan", "android": "https://dc.lft.to/lastmile_qr_scan"}, "is_reserved": 0, "lon": -77.0287875, "fusion_lat": 0.0, "name": "8d4fad20808423c9f37b711d744eaced"}, {"type": "electric_scooter", "fusion_lon": 0.0, "bike_id": "e23383813e1b0e07c3ab3d7310ad0a33", "is_disabled": 0, "lat": 38.915646, "rental_uris": {"ios": "https://dc.lft.to/lastmile_qr_scan", "android": "https://dc.lft.to/lastmile_qr_scan"}, "is_reserved": 0, "lon": -77.02006766666666, "fusion_lat": 0.0, "name": "e23383813e1b0e07c3ab3d7310ad0a33"}, {"type": "electric_scooter", "fusion_lon": 0.0, "bike_id": "28cc91340c9ca20b7c4b9e25127c2ca7", "is_disabled": 0, "lat": 38.91808233333333, "rental_uris": {"ios": "https://dc.lft.to/lastmile_qr_scan", "android": "https://dc.lft.to/lastmile_qr_scan"}, "is_reserved": 0, "lon": -77.027134, "fusion_lat": 0.0, "name": "28cc91340c9ca20b7c4b9e25127c2ca7"}, {"type": "electric_scooter", "fusion_lon": 0.0, "bike_id": "c5aa7215b18bf9afe4436caab19f5d2d", "is_disabled": 0, "lat": 38.920576, "rental_uris": {"ios": "https://dc.lft.to/lastmile_qr_scan", "android": "https://dc.lft.to/lastmile_qr_scan"}, "is_reserved": 0, "lon": -77.032637, "fusion_lat": 0.0, "name": "c5aa7215b18bf9afe4436caab19f5d2d"}, {"type": "electric_scooter", "fusion_lon": 0.0, "bike_id": "f02187078ec67808e40afccb74244592", "is_disabled": 0, "lat": 38.892262333333335, "rental_uris": {"ios": "https://dc.lft.to/lastmile_qr_scan", "android": "https://dc.lft.to/lastmile_qr_scan"}, "is_reserved": 0, "lon": -77.04334416666667, "fusion_lat": 0.0, "name": "f02187078ec67808e40afccb74244592"}, {"type": "electric_scooter", "fusion_lon": 0.0, "bike_id": "7bb6f77807e5e7c29e4b8ffbfe45b72a", "is_disabled": 0, "lat": 38.92349683333333, "rental_uris": {"ios": "https://dc.lft.to/lastmile_qr_scan", "android": "https://dc.lft.to/lastmile_qr_scan"}, "is_reserved": 0, "lon": -77.03641316666666, "fusion_lat": 0.0, "name": "7bb6f77807e5e7c29e4b8ffbfe45b72a"}, {"type": "electric_bike", "fusion_lon": 0.0, "bike_id": "4924499db5ba1675d0487f8098a2d8cb", "is_disabled": 0, "lat": 38.8961905, "rental_uris": {"ios": "https://dc.lft.to/lastmile_qr_scan", "android": "https://dc.lft.to/lastmile_qr_scan"}, "is_reserved": 0, "lon": -76.90743466666666, "fusion_lat": 0.0, "name": "4924499db5ba1675d0487f8098a2d8cb"}, {"type": "electric_scooter", "fusion_lon": 0.0, "bike_id": "b7dd838ee94bda22467e1895516d8e73", "is_disabled": 0, "lat": 38.92147933333333, "rental_uris": {"ios": "https://dc.lft.to/lastmile_qr_scan", "android": "https://dc.lft.to/lastmile_qr_scan"}, "is_reserved": 0, "lon": -77.0350985, "fusion_lat": 0.0, "name": "b7dd838ee94bda22467e1895516d8e73"}, {"type": "electric_scooter", "fusion_lon": 0.0, "bike_id": "5e660b7f452be28b8ac05988e8858df6", "is_disabled": 0, "lat": 38.937169, "rental_uris": {"ios": "https://dc.lft.to/lastmile_qr_scan", "android": "https://dc.lft.to/lastmile_qr_scan"}, "is_reserved": 0, "lon": -77.0191265, "fusion_lat": 0.0, "name": "5e660b7f452be28b8ac05988e8858df6"}, {"type": "electric_scooter", "fusion_lon": 0.0, "bike_id": "e62d3ec03306f8aa5648f2b0cbaaa42a", "is_disabled": 0, "lat": 38.9208755, "rental_uris": {"ios": "https://dc.lft.to/lastmile_qr_scan", "android": "https://dc.lft.to/lastmile_qr_scan"}, "is_reserved": 0, "lon": -77.04231366666667, "fusion_lat": 0.0, "name": "e62d3ec03306f8aa5648f2b0cbaaa42a"}, {"type": "electric_scooter", "fusion_lon": 0.0, "bike_id": "bc559b4224067fd96965e0fd7e5d85f1", "is_disabled": 0, "lat": 38.900117333333334, "rental_uris": {"ios": "https://dc.lft.to/lastmile_qr_scan", "android": "https://dc.lft.to/lastmile_qr_scan"}, "is_reserved": 0, "lon": -77.00578583333333, "fusion_lat": 0.0, "name": "bc559b4224067fd96965e0fd7e5d85f1"}, {"type": "electric_scooter", "fusion_lon": 0.0, "bike_id": "61092c9b3b71a1722c3072851010da4c", "is_disabled": 0, "lat": 38.94095133333333, "rental_uris": {"ios": "https://dc.lft.to/lastmile_qr_scan", "android": "https://dc.lft.to/lastmile_qr_scan"}, "is_reserved": 0, "lon": -77.026434, "fusion_lat": 0.0, "name": "61092c9b3b71a1722c3072851010da4c"}, {"type": "electric_scooter", "fusion_lon": 0.0, "bike_id": "609aa05b2dfae3f44749246142fafe37", "is_disabled": 0, "lat": 38.8922445, "rental_uris": {"ios": "https://dc.lft.to/lastmile_qr_scan", "android": "https://dc.lft.to/lastmile_qr_scan"}, "is_reserved": 0, "lon": -77.0237205, "fusion_lat": 0.0, "name": "609aa05b2dfae3f44749246142fafe37"}, {"type": "electric_scooter", "fusion_lon": 0.0, "bike_id": "1ac9b6233980bf0eab964d780a37fe9d", "is_disabled": 0, "lat": 38.91553183333333, "rental_uris": {"ios": "https://dc.lft.to/lastmile_qr_scan", "android": "https://dc.lft.to/lastmile_qr_scan"}, "is_reserved": 0, "lon": -77.03856283333333, "fusion_lat": 0.0, "name": "1ac9b6233980bf0eab964d780a37fe9d"}, {"type": "electric_scooter", "fusion_lon": 0.0, "bike_id": "2537c396f012d5b9f47af2fb3889aecb", "is_disabled": 0, "lat": 38.903907, "rental_uris": {"ios": "https://dc.lft.to/lastmile_qr_scan", "android": "https://dc.lft.to/lastmile_qr_scan"}, "is_reserved": 0, "lon": -77.06805233333333, "fusion_lat": 0.0, "name": "2537c396f012d5b9f47af2fb3889aecb"}, {"type": "electric_scooter", "fusion_lon": 0.0, "bike_id": "d6cb306f44686656ec496dc62d573bd8", "is_disabled": 0, "lat": 38.90824166666667, "rental_uris": {"ios": "https://dc.lft.to/lastmile_qr_scan", "android": "https://dc.lft.to/lastmile_qr_scan"}, "is_reserved": 0, "lon": -77.04337866666667, "fusion_lat": 0.0, "name": "d6cb306f44686656ec496dc62d573bd8"}, {"type": "electric_scooter", "fusion_lon": 0.0, "bike_id": "80c938e4b6440681aefd06fee90cc67d", "is_disabled": 0, "lat": 38.93532066666667, "rental_uris": {"ios": "https://dc.lft.to/lastmile_qr_scan", "android": "https://dc.lft.to/lastmile_qr_scan"}, "is_reserved": 0, "lon": -77.03496066666666, "fusion_lat": 0.0, "name": "80c938e4b6440681aefd06fee90cc67d"}, {"type": "electric_scooter", "fusion_lon": 0.0, "bike_id": "3b7a3e828886fa7253c5bb25f009c71d", "is_disabled": 0, "lat": 38.935344666666666, "rental_uris": {"ios": "https://dc.lft.to/lastmile_qr_scan", "android": "https://dc.lft.to/lastmile_qr_scan"}, "is_reserved": 0, "lon": -77.02361283333333, "fusion_lat": 0.0, "name": "3b7a3e828886fa7253c5bb25f009c71d"}, {"type": "electric_scooter", "fusion_lon": 0.0, "bike_id": "0b0b728de115e23c48f99d9e798382e5", "is_disabled": 0, "lat": 38.91876383333334, "rental_uris": {"ios": "https://dc.lft.to/lastmile_qr_scan", "android": "https://dc.lft.to/lastmile_qr_scan"}, "is_reserved": 0, "lon": -77.0437715, "fusion_lat": 0.0, "name": "0b0b728de115e23c48f99d9e798382e5"}, {"type": "electric_scooter", "fusion_lon": 0.0, "bike_id": "c7fb0f4d5927cf6ab53e68bffad88da4", "is_disabled": 0, "lat": 38.90010183333333, "rental_uris": {"ios": "https://dc.lft.to/lastmile_qr_scan", "android": "https://dc.lft.to/lastmile_qr_scan"}, "is_reserved": 0, "lon": -76.98897216666667, "fusion_lat": 0.0, "name": "c7fb0f4d5927cf6ab53e68bffad88da4"}, {"type": "electric_scooter", "fusion_lon": 0.0, "bike_id": "5e09e0984708a77d6407de3371990f3f", "is_disabled": 0, "lat": 38.885003166666664, "rental_uris": {"ios": "https://dc.lft.to/lastmile_qr_scan", "android": "https://dc.lft.to/lastmile_qr_scan"}, "is_reserved": 0, "lon": -76.95290566666667, "fusion_lat": 0.0, "name": "5e09e0984708a77d6407de3371990f3f"}, {"type": "electric_scooter", "fusion_lon": 0.0, "bike_id": "9f3d7d3a93002d530a26eec8401ed82b", "is_disabled": 0, "lat": 38.920858833333334, "rental_uris": {"ios": "https://dc.lft.to/lastmile_qr_scan", "android": "https://dc.lft.to/lastmile_qr_scan"}, "is_reserved": 0, "lon": -77.02302966666667, "fusion_lat": 0.0, "name": "9f3d7d3a93002d530a26eec8401ed82b"}, {"type": "electric_scooter", "fusion_lon": 0.0, "bike_id": "02355ce84baf31e248a30b3d97a3134e", "is_disabled": 0, "lat": 38.9097985, "rental_uris": {"ios": "https://dc.lft.to/lastmile_qr_scan", "android": "https://dc.lft.to/lastmile_qr_scan"}, "is_reserved": 0, "lon": -76.9949895, "fusion_lat": 0.0, "name": "02355ce84baf31e248a30b3d97a3134e"}, {"type": "electric_scooter", "fusion_lon": 0.0, "bike_id": "650b394c0fb7fc3ce9533efba1334ebf", "is_disabled": 0, "lat": 38.87177283333333, "rental_uris": {"ios": "https://dc.lft.to/lastmile_qr_scan", "android": "https://dc.lft.to/lastmile_qr_scan"}, "is_reserved": 0, "lon": -77.006323, "fusion_lat": 0.0, "name": "650b394c0fb7fc3ce9533efba1334ebf"}, {"type": "electric_bike", "fusion_lon": 0.0, "bike_id": "447dfc831494fb64f07f52983a9457a5", "is_disabled": 0, "lat": 38.8863485, "rental_uris": {"ios": "https://dc.lft.to/lastmile_qr_scan", "android": "https://dc.lft.to/lastmile_qr_scan"}, "is_reserved": 0, "lon": -76.92354483333334, "fusion_lat": 0.0, "name": "447dfc831494fb64f07f52983a9457a5"}, {"type": "electric_scooter", "fusion_lon": 0.0, "bike_id": "83225a8d90dcdc2bbff2ba35d7c86156", "is_disabled": 0, "lat": 38.904715833333334, "rental_uris": {"ios": "https://dc.lft.to/lastmile_qr_scan", "android": "https://dc.lft.to/lastmile_qr_scan"}, "is_reserved": 0, "lon": -77.03225166666667, "fusion_lat": 0.0, "name": "83225a8d90dcdc2bbff2ba35d7c86156"}, {"type": "electric_scooter", "fusion_lon": 0.0, "bike_id": "7197e2f5888d6c1300a2dd6d4d1778a3", "is_disabled": 0, "lat": 38.927595333333336, "rental_uris": {"ios": "https://dc.lft.to/lastmile_qr_scan", "android": "https://dc.lft.to/lastmile_qr_scan"}, "is_reserved": 0, "lon": -77.03273916666667, "fusion_lat": 0.0, "name": "7197e2f5888d6c1300a2dd6d4d1778a3"}, {"type": "electric_bike", "fusion_lon": 0.0, "bike_id": "9fbedbdfd679eb73c15baf1fd85b0797", "is_disabled": 0, "lat": 38.95061916666667, "rental_uris": {"ios": "https://dc.lft.to/lastmile_qr_scan", "android": "https://dc.lft.to/lastmile_qr_scan"}, "is_reserved": 0, "lon": -77.06656383333333, "fusion_lat": 0.0, "name": "9fbedbdfd679eb73c15baf1fd85b0797"}, {"type": "electric_scooter", "fusion_lon": 0.0, "bike_id": "1341513554acf0d1b0987084431f84f5", "is_disabled": 0, "lat": 38.8778075, "rental_uris": {"ios": "https://dc.lft.to/lastmile_qr_scan", "android": "https://dc.lft.to/lastmile_qr_scan"}, "is_reserved": 0, "lon": -76.99411016666667, "fusion_lat": 0.0, "name": "1341513554acf0d1b0987084431f84f5"}, {"type": "electric_scooter", "fusion_lon": 0.0, "bike_id": "f7a9884fc0491a56efddd5f9c9f45ea5", "is_disabled": 0, "lat": 38.91113083333333, "rental_uris": {"ios": "https://dc.lft.to/lastmile_qr_scan", "android": "https://dc.lft.to/lastmile_qr_scan"}, "is_reserved": 0, "lon": -77.04473316666666, "fusion_lat": 0.0, "name": "f7a9884fc0491a56efddd5f9c9f45ea5"}, {"type": "electric_scooter", "fusion_lon": 0.0, "bike_id": "3976138caf89dc57777c48813842f2d9", "is_disabled": 0, "lat": 38.908557, "rental_uris": {"ios": "https://dc.lft.to/lastmile_qr_scan", "android": "https://dc.lft.to/lastmile_qr_scan"}, "is_reserved": 0, "lon": -76.99697, "fusion_lat": 0.0, "name": "3976138caf89dc57777c48813842f2d9"}, {"type": "electric_scooter", "fusion_lon": 0.0, "bike_id": "0b208b6c0d8bc27c8f522a964f328db0", "is_disabled": 0, "lat": 38.900483333333334, "rental_uris": {"ios": "https://dc.lft.to/lastmile_qr_scan", "android": "https://dc.lft.to/lastmile_qr_scan"}, "is_reserved": 0, "lon": -77.02402083333334, "fusion_lat": 0.0, "name": "0b208b6c0d8bc27c8f522a964f328db0"}, {"type": "electric_scooter", "fusion_lon": 0.0, "bike_id": "dce8166182c023c76dfd9a6a65b3209a", "is_disabled": 0, "lat": 38.917039333333335, "rental_uris": {"ios": "https://dc.lft.to/lastmile_qr_scan", "android": "https://dc.lft.to/lastmile_qr_scan"}, "is_reserved": 0, "lon": -77.03472366666666, "fusion_lat": 0.0, "name": "dce8166182c023c76dfd9a6a65b3209a"}, {"type": "electric_bike", "fusion_lon": 0.0, "bike_id": "6dc3df7fa13c7e06f83622848e2ac571", "is_disabled": 0, "lat": 38.856139166666665, "rental_uris": {"ios": "https://dc.lft.to/lastmile_qr_scan", "android": "https://dc.lft.to/lastmile_qr_scan"}, "is_reserved": 0, "lon": -77.111813, "fusion_lat": 0.0, "name": "6dc3df7fa13c7e06f83622848e2ac571"}, {"type": "electric_scooter", "fusion_lon": 0.0, "bike_id": "00f700621c9cb20e07e8c50a3bbdd9f7", "is_disabled": 0, "lat": 38.905229166666665, "rental_uris": {"ios": "https://dc.lft.to/lastmile_qr_scan", "android": "https://dc.lft.to/lastmile_qr_scan"}, "is_reserved": 0, "lon": -77.02971266666667, "fusion_lat": 0.0, "name": "00f700621c9cb20e07e8c50a3bbdd9f7"}, {"type": "electric_bike", "fusion_lon": 0.0, "bike_id": "f1654ae9e28b46126ce714a4816ed55e", "is_disabled": 0, "lat": 38.86230783333333, "rental_uris": {"ios": "https://dc.lft.to/lastmile_qr_scan", "android": "https://dc.lft.to/lastmile_qr_scan"}, "is_reserved": 0, "lon": -76.99588166666666, "fusion_lat": 0.0, "name": "f1654ae9e28b46126ce714a4816ed55e"}, {"type": "electric_scooter", "fusion_lon": 0.0, "bike_id": "b84074fbeffc40cc3d4f83f604062418", "is_disabled": 0, "lat": 38.9176435, "rental_uris": {"ios": "https://dc.lft.to/lastmile_qr_scan", "android": "https://dc.lft.to/lastmile_qr_scan"}, "is_reserved": 0, "lon": -77.02336833333334, "fusion_lat": 0.0, "name": "b84074fbeffc40cc3d4f83f604062418"}, {"type": "electric_scooter", "fusion_lon": 0.0, "bike_id": "c85f7476edcc72f2a3886210a2a618ea", "is_disabled": 0, "lat": 38.922606333333334, "rental_uris": {"ios": "https://dc.lft.to/lastmile_qr_scan", "android": "https://dc.lft.to/lastmile_qr_scan"}, "is_reserved": 0, "lon": -77.07350016666666, "fusion_lat": 0.0, "name": "c85f7476edcc72f2a3886210a2a618ea"}, {"type": "electric_scooter", "fusion_lon": 0.0, "bike_id": "5010387c979b9372b76f0cd6011b5de5", "is_disabled": 0, "lat": 38.919855, "rental_uris": {"ios": "https://dc.lft.to/lastmile_qr_scan", "android": "https://dc.lft.to/lastmile_qr_scan"}, "is_reserved": 0, "lon": -77.02364283333333, "fusion_lat": 0.0, "name": "5010387c979b9372b76f0cd6011b5de5"}, {"type": "electric_scooter", "fusion_lon": 0.0, "bike_id": "96275c254d13726ba456487b699c5487", "is_disabled": 0, "lat": 38.87670816666667, "rental_uris": {"ios": "https://dc.lft.to/lastmile_qr_scan", "android": "https://dc.lft.to/lastmile_qr_scan"}, "is_reserved": 0, "lon": -77.00936583333333, "fusion_lat": 0.0, "name": "96275c254d13726ba456487b699c5487"}, {"type": "electric_scooter", "fusion_lon": 0.0, "bike_id": "4d5883e2a873cd1e558f1de94ab302da", "is_disabled": 0, "lat": 38.9171495, "rental_uris": {"ios": "https://dc.lft.to/lastmile_qr_scan", "android": "https://dc.lft.to/lastmile_qr_scan"}, "is_reserved": 0, "lon": -77.0238335, "fusion_lat": 0.0, "name": "4d5883e2a873cd1e558f1de94ab302da"}, {"type": "electric_bike", "fusion_lon": 0.0, "bike_id": "86b13adf46260f86e4135b7dededb5d3", "is_disabled": 0, "lat": 38.92214383333334, "rental_uris": {"ios": "https://dc.lft.to/lastmile_qr_scan", "android": "https://dc.lft.to/lastmile_qr_scan"}, "is_reserved": 0, "lon": -77.08184766666666, "fusion_lat": 0.0, "name": "86b13adf46260f86e4135b7dededb5d3"}, {"type": "electric_scooter", "fusion_lon": 0.0, "bike_id": "c07f59b9d0793d1c5d385027403c04b7", "is_disabled": 0, "lat": 38.892365166666664, "rental_uris": {"ios": "https://dc.lft.to/lastmile_qr_scan", "android": "https://dc.lft.to/lastmile_qr_scan"}, "is_reserved": 0, "lon": -77.032098, "fusion_lat": 0.0, "name": "c07f59b9d0793d1c5d385027403c04b7"}, {"type": "electric_scooter", "fusion_lon": 0.0, "bike_id": "980189db4b3e8956f3ac22122bbf11df", "is_disabled": 0, "lat": 38.90561366666667, "rental_uris": {"ios": "https://dc.lft.to/lastmile_qr_scan", "android": "https://dc.lft.to/lastmile_qr_scan"}, "is_reserved": 0, "lon": -77.03473283333334, "fusion_lat": 0.0, "name": "980189db4b3e8956f3ac22122bbf11df"}, {"type": "electric_scooter", "fusion_lon": 0.0, "bike_id": "2223ae251302ba24ebcf6fcead66d1fc", "is_disabled": 0, "lat": 38.8922915, "rental_uris": {"ios": "https://dc.lft.to/lastmile_qr_scan", "android": "https://dc.lft.to/lastmile_qr_scan"}, "is_reserved": 0, "lon": -77.04656933333334, "fusion_lat": 0.0, "name": "2223ae251302ba24ebcf6fcead66d1fc"}, {"type": "electric_scooter", "fusion_lon": 0.0, "bike_id": "7955fb17de2f5f21da423d3366b62a34", "is_disabled": 0, "lat": 38.93329033333333, "rental_uris": {"ios": "https://dc.lft.to/lastmile_qr_scan", "android": "https://dc.lft.to/lastmile_qr_scan"}, "is_reserved": 0, "lon": -77.03813583333333, "fusion_lat": 0.0, "name": "7955fb17de2f5f21da423d3366b62a34"}, {"type": "electric_scooter", "fusion_lon": 0.0, "bike_id": "ccdedc1470e447b4ebc2f5c16dd01001", "is_disabled": 0, "lat": 38.86368683333333, "rental_uris": {"ios": "https://dc.lft.to/lastmile_qr_scan", "android": "https://dc.lft.to/lastmile_qr_scan"}, "is_reserved": 0, "lon": -76.99047533333334, "fusion_lat": 0.0, "name": "ccdedc1470e447b4ebc2f5c16dd01001"}, {"type": "electric_bike", "fusion_lon": 0.0, "bike_id": "a7295c78d1804cd891f5306bada870a2", "is_disabled": 0, "lat": 38.892011333333336, "rental_uris": {"ios": "https://dc.lft.to/lastmile_qr_scan", "android": "https://dc.lft.to/lastmile_qr_scan"}, "is_reserved": 0, "lon": -76.993948, "fusion_lat": 0.0, "name": "a7295c78d1804cd891f5306bada870a2"}, {"type": "electric_scooter", "fusion_lon": 0.0, "bike_id": "870292a7cf6459a60d9abfdce1652e4b", "is_disabled": 0, "lat": 38.9204865, "rental_uris": {"ios": "https://dc.lft.to/lastmile_qr_scan", "android": "https://dc.lft.to/lastmile_qr_scan"}, "is_reserved": 0, "lon": -77.03431783333333, "fusion_lat": 0.0, "name": "870292a7cf6459a60d9abfdce1652e4b"}, {"type": "electric_bike", "fusion_lon": 0.0, "bike_id": "115acafcbf6445a8a7ff4c500b8d272e", "is_disabled": 0, "lat": 38.964688, "rental_uris": {"ios": "https://dc.lft.to/lastmile_qr_scan", "android": "https://dc.lft.to/lastmile_qr_scan"}, "is_reserved": 0, "lon": -77.035674, "fusion_lat": 0.0, "name": "115acafcbf6445a8a7ff4c500b8d272e"}, {"type": "electric_scooter", "fusion_lon": 0.0, "bike_id": "86e03f6c379e79c574dc39bdfdcc7ad2", "is_disabled": 0, "lat": 38.949031166666664, "rental_uris": {"ios": "https://dc.lft.to/lastmile_qr_scan", "android": "https://dc.lft.to/lastmile_qr_scan"}, "is_reserved": 0, "lon": -77.0238885, "fusion_lat": 0.0, "name": "86e03f6c379e79c574dc39bdfdcc7ad2"}, {"type": "electric_scooter", "fusion_lon": 0.0, "bike_id": "120b3e0e2cd21e5a7b220e3fb2724274", "is_disabled": 0, "lat": 38.90494533333333, "rental_uris": {"ios": "https://dc.lft.to/lastmile_qr_scan", "android": "https://dc.lft.to/lastmile_qr_scan"}, "is_reserved": 0, "lon": -77.02591016666666, "fusion_lat": 0.0, "name": "120b3e0e2cd21e5a7b220e3fb2724274"}, {"type": "electric_scooter", "fusion_lon": 0.0, "bike_id": "f5fd74942cf822a08c75db21148da4f3", "is_disabled": 0, "lat": 38.92354383333333, "rental_uris": {"ios": "https://dc.lft.to/lastmile_qr_scan", "android": "https://dc.lft.to/lastmile_qr_scan"}, "is_reserved": 0, "lon": -77.03641366666666, "fusion_lat": 0.0, "name": "f5fd74942cf822a08c75db21148da4f3"}, {"type": "electric_scooter", "fusion_lon": 0.0, "bike_id": "f005af69a5ab66faad0cf490a78ef469", "is_disabled": 0, "lat": 38.928014166666664, "rental_uris": {"ios": "https://dc.lft.to/lastmile_qr_scan", "android": "https://dc.lft.to/lastmile_qr_scan"}, "is_reserved": 0, "lon": -77.05409766666666, "fusion_lat": 0.0, "name": "f005af69a5ab66faad0cf490a78ef469"}, {"type": "electric_scooter", "fusion_lon": 0.0, "bike_id": "ea900361c240ebc738e9b7e20879f236", "is_disabled": 0, "lat": 38.9233295, "rental_uris": {"ios": "https://dc.lft.to/lastmile_qr_scan", "android": "https://dc.lft.to/lastmile_qr_scan"}, "is_reserved": 0, "lon": -77.0361925, "fusion_lat": 0.0, "name": "ea900361c240ebc738e9b7e20879f236"}, {"type": "electric_scooter", "fusion_lon": 0.0, "bike_id": "62b5e2674890314f488fc2fea02eabbd", "is_disabled": 0, "lat": 38.90274933333333, "rental_uris": {"ios": "https://dc.lft.to/lastmile_qr_scan", "android": "https://dc.lft.to/lastmile_qr_scan"}, "is_reserved": 0, "lon": -77.00325983333333, "fusion_lat": 0.0, "name": "62b5e2674890314f488fc2fea02eabbd"}, {"type": "electric_scooter", "fusion_lon": 0.0, "bike_id": "1864b8b3144fbf26ea6d8beca4114fb6", "is_disabled": 0, "lat": 38.875759333333335, "rental_uris": {"ios": "https://dc.lft.to/lastmile_qr_scan", "android": "https://dc.lft.to/lastmile_qr_scan"}, "is_reserved": 0, "lon": -77.00607783333334, "fusion_lat": 0.0, "name": "1864b8b3144fbf26ea6d8beca4114fb6"}, {"type": "electric_scooter", "fusion_lon": 0.0, "bike_id": "e9e1e5e7d810a8fdb18363366b6f36fc", "is_disabled": 0, "lat": 38.919878, "rental_uris": {"ios": "https://dc.lft.to/lastmile_qr_scan", "android": "https://dc.lft.to/lastmile_qr_scan"}, "is_reserved": 0, "lon": -77.0396615, "fusion_lat": 0.0, "name": "e9e1e5e7d810a8fdb18363366b6f36fc"}, {"type": "electric_scooter", "fusion_lon": 0.0, "bike_id": "d19cfa7f5e0e3d82c16b5616410e379e", "is_disabled": 0, "lat": 38.90809566666667, "rental_uris": {"ios": "https://dc.lft.to/lastmile_qr_scan", "android": "https://dc.lft.to/lastmile_qr_scan"}, "is_reserved": 0, "lon": -77.03464566666666, "fusion_lat": 0.0, "name": "d19cfa7f5e0e3d82c16b5616410e379e"}, {"type": "electric_scooter", "fusion_lon": 0.0, "bike_id": "f17d8fbdf4da44c931846474ce0883fd", "is_disabled": 0, "lat": 38.93392566666667, "rental_uris": {"ios": "https://dc.lft.to/lastmile_qr_scan", "android": "https://dc.lft.to/lastmile_qr_scan"}, "is_reserved": 0, "lon": -77.04557083333333, "fusion_lat": 0.0, "name": "f17d8fbdf4da44c931846474ce0883fd"}, {"type": "electric_scooter", "fusion_lon": 0.0, "bike_id": "c6fbcfbab8a3ae0a2448c4d4a825cdcb", "is_disabled": 0, "lat": 38.927658666666666, "rental_uris": {"ios": "https://dc.lft.to/lastmile_qr_scan", "android": "https://dc.lft.to/lastmile_qr_scan"}, "is_reserved": 0, "lon": -77.0323975, "fusion_lat": 0.0, "name": "c6fbcfbab8a3ae0a2448c4d4a825cdcb"}, {"type": "electric_scooter", "fusion_lon": 0.0, "bike_id": "0950624c1977a838c58ca1a81bb41ac3", "is_disabled": 0, "lat": 38.94449, "rental_uris": {"ios": "https://dc.lft.to/lastmile_qr_scan", "android": "https://dc.lft.to/lastmile_qr_scan"}, "is_reserved": 0, "lon": -77.02803583333333, "fusion_lat": 0.0, "name": "0950624c1977a838c58ca1a81bb41ac3"}, {"type": "electric_scooter", "fusion_lon": 0.0, "bike_id": "3b8b805bd68f0cdadc83ac994865aa34", "is_disabled": 0, "lat": 38.911091166666665, "rental_uris": {"ios": "https://dc.lft.to/lastmile_qr_scan", "android": "https://dc.lft.to/lastmile_qr_scan"}, "is_reserved": 0, "lon": -77.0383315, "fusion_lat": 0.0, "name": "3b8b805bd68f0cdadc83ac994865aa34"}, {"type": "electric_scooter", "fusion_lon": 0.0, "bike_id": "072d3f162a98d1ea4eb3e403bb203a1b", "is_disabled": 0, "lat": 38.8636265, "rental_uris": {"ios": "https://dc.lft.to/lastmile_qr_scan", "android": "https://dc.lft.to/lastmile_qr_scan"}, "is_reserved": 0, "lon": -76.99045183333334, "fusion_lat": 0.0, "name": "072d3f162a98d1ea4eb3e403bb203a1b"}, {"type": "electric_scooter", "fusion_lon": 0.0, "bike_id": "c1a1db01b591c3328ef1bbbb507577b2", "is_disabled": 0, "lat": 38.8920025, "rental_uris": {"ios": "https://dc.lft.to/lastmile_qr_scan", "android": "https://dc.lft.to/lastmile_qr_scan"}, "is_reserved": 0, "lon": -77.02380983333333, "fusion_lat": 0.0, "name": "c1a1db01b591c3328ef1bbbb507577b2"}, {"type": "electric_scooter", "fusion_lon": 0.0, "bike_id": "485e73b84fcbd7e1c2bff03be3208ee9", "is_disabled": 0, "lat": 38.924179333333335, "rental_uris": {"ios": "https://dc.lft.to/lastmile_qr_scan", "android": "https://dc.lft.to/lastmile_qr_scan"}, "is_reserved": 0, "lon": -77.019823, "fusion_lat": 0.0, "name": "485e73b84fcbd7e1c2bff03be3208ee9"}, {"type": "electric_scooter", "fusion_lon": 0.0, "bike_id": "d18d823fa969c5d9ab4e0760524c5c6c", "is_disabled": 0, "lat": 38.9195145, "rental_uris": {"ios": "https://dc.lft.to/lastmile_qr_scan", "android": "https://dc.lft.to/lastmile_qr_scan"}, "is_reserved": 0, "lon": -77.01786966666667, "fusion_lat": 0.0, "name": "d18d823fa969c5d9ab4e0760524c5c6c"}, {"type": "electric_scooter", "fusion_lon": 0.0, "bike_id": "49ea63be2c2abbdd1ff9184c0eda03bb", "is_disabled": 0, "lat": 38.89887183333333, "rental_uris": {"ios": "https://dc.lft.to/lastmile_qr_scan", "android": "https://dc.lft.to/lastmile_qr_scan"}, "is_reserved": 0, "lon": -76.931757, "fusion_lat": 0.0, "name": "49ea63be2c2abbdd1ff9184c0eda03bb"}, {"type": "electric_scooter", "fusion_lon": 0.0, "bike_id": "679aee734ea7e5dc7be0a48d6c296173", "is_disabled": 0, "lat": 38.904396166666665, "rental_uris": {"ios": "https://dc.lft.to/lastmile_qr_scan", "android": "https://dc.lft.to/lastmile_qr_scan"}, "is_reserved": 0, "lon": -77.0345455, "fusion_lat": 0.0, "name": "679aee734ea7e5dc7be0a48d6c296173"}, {"type": "electric_scooter", "fusion_lon": 0.0, "bike_id": "f9236e29cf54867cb517859a05faa5b5", "is_disabled": 0, "lat": 38.8834065, "rental_uris": {"ios": "https://dc.lft.to/lastmile_qr_scan", "android": "https://dc.lft.to/lastmile_qr_scan"}, "is_reserved": 0, "lon": -76.935026, "fusion_lat": 0.0, "name": "f9236e29cf54867cb517859a05faa5b5"}, {"type": "electric_scooter", "fusion_lon": 0.0, "bike_id": "3a1e0821b0204272e413b0fe0de05ef9", "is_disabled": 0, "lat": 38.901221166666666, "rental_uris": {"ios": "https://dc.lft.to/lastmile_qr_scan", "android": "https://dc.lft.to/lastmile_qr_scan"}, "is_reserved": 0, "lon": -77.0441055, "fusion_lat": 0.0, "name": "3a1e0821b0204272e413b0fe0de05ef9"}, {"type": "electric_scooter", "fusion_lon": 0.0, "bike_id": "3c3c9a78adde3d41b048402e44f2b1a8", "is_disabled": 0, "lat": 38.9189185, "rental_uris": {"ios": "https://dc.lft.to/lastmile_qr_scan", "android": "https://dc.lft.to/lastmile_qr_scan"}, "is_reserved": 0, "lon": -77.03819683333333, "fusion_lat": 0.0, "name": "3c3c9a78adde3d41b048402e44f2b1a8"}, {"type": "electric_scooter", "fusion_lon": 0.0, "bike_id": "52c2d248fb6f22a0ded019543de50e07", "is_disabled": 0, "lat": 38.88411466666667, "rental_uris": {"ios": "https://dc.lft.to/lastmile_qr_scan", "android": "https://dc.lft.to/lastmile_qr_scan"}, "is_reserved": 0, "lon": -77.00447883333334, "fusion_lat": 0.0, "name": "52c2d248fb6f22a0ded019543de50e07"}, {"type": "electric_scooter", "fusion_lon": 0.0, "bike_id": "4cf98f8f14abb817763a0813bffe1208", "is_disabled": 0, "lat": 38.9208345, "rental_uris": {"ios": "https://dc.lft.to/lastmile_qr_scan", "android": "https://dc.lft.to/lastmile_qr_scan"}, "is_reserved": 0, "lon": -77.02504133333333, "fusion_lat": 0.0, "name": "4cf98f8f14abb817763a0813bffe1208"}, {"type": "electric_scooter", "fusion_lon": 0.0, "bike_id": "d7ec3a1de927e450e0fdf39441890c51", "is_disabled": 0, "lat": 38.89229233333333, "rental_uris": {"ios": "https://dc.lft.to/lastmile_qr_scan", "android": "https://dc.lft.to/lastmile_qr_scan"}, "is_reserved": 0, "lon": -77.05004383333333, "fusion_lat": 0.0, "name": "d7ec3a1de927e450e0fdf39441890c51"}, {"type": "electric_scooter", "fusion_lon": 0.0, "bike_id": "b69db31e562ed81c3bfdcc0323100881", "is_disabled": 0, "lat": 38.92282066666667, "rental_uris": {"ios": "https://dc.lft.to/lastmile_qr_scan", "android": "https://dc.lft.to/lastmile_qr_scan"}, "is_reserved": 0, "lon": -77.03655683333334, "fusion_lat": 0.0, "name": "b69db31e562ed81c3bfdcc0323100881"}, {"type": "electric_scooter", "fusion_lon": 0.0, "bike_id": "21dd53645bf0afd19f51fee30392d178", "is_disabled": 0, "lat": 38.920433333333335, "rental_uris": {"ios": "https://dc.lft.to/lastmile_qr_scan", "android": "https://dc.lft.to/lastmile_qr_scan"}, "is_reserved": 0, "lon": -77.01668383333333, "fusion_lat": 0.0, "name": "21dd53645bf0afd19f51fee30392d178"}, {"type": "electric_scooter", "fusion_lon": 0.0, "bike_id": "bcfc5ebc54a60222589f20bfcb1d3f6f", "is_disabled": 0, "lat": 38.9056015, "rental_uris": {"ios": "https://dc.lft.to/lastmile_qr_scan", "android": "https://dc.lft.to/lastmile_qr_scan"}, "is_reserved": 0, "lon": -77.022074, "fusion_lat": 0.0, "name": "bcfc5ebc54a60222589f20bfcb1d3f6f"}, {"type": "electric_scooter", "fusion_lon": 0.0, "bike_id": "4ab7f5d08e0e5eb339c1e853cc0e5d52", "is_disabled": 0, "lat": 38.92754333333333, "rental_uris": {"ios": "https://dc.lft.to/lastmile_qr_scan", "android": "https://dc.lft.to/lastmile_qr_scan"}, "is_reserved": 0, "lon": -77.02536616666667, "fusion_lat": 0.0, "name": "4ab7f5d08e0e5eb339c1e853cc0e5d52"}, {"type": "electric_scooter", "fusion_lon": 0.0, "bike_id": "969fdf24669a612cbca38618d1b5ff47", "is_disabled": 0, "lat": 38.90410166666667, "rental_uris": {"ios": "https://dc.lft.to/lastmile_qr_scan", "android": "https://dc.lft.to/lastmile_qr_scan"}, "is_reserved": 0, "lon": -76.97332666666667, "fusion_lat": 0.0, "name": "969fdf24669a612cbca38618d1b5ff47"}, {"type": "electric_scooter", "fusion_lon": 0.0, "bike_id": "f2c4aadf3e5fe93e44331225aeb3fbe4", "is_disabled": 0, "lat": 38.9175395, "rental_uris": {"ios": "https://dc.lft.to/lastmile_qr_scan", "android": "https://dc.lft.to/lastmile_qr_scan"}, "is_reserved": 0, "lon": -77.04054966666666, "fusion_lat": 0.0, "name": "f2c4aadf3e5fe93e44331225aeb3fbe4"}, {"type": "electric_scooter", "fusion_lon": 0.0, "bike_id": "15d6e1fa000243be57db005bdc0e4831", "is_disabled": 0, "lat": 38.89636266666667, "rental_uris": {"ios": "https://dc.lft.to/lastmile_qr_scan", "android": "https://dc.lft.to/lastmile_qr_scan"}, "is_reserved": 0, "lon": -77.050258, "fusion_lat": 0.0, "name": "15d6e1fa000243be57db005bdc0e4831"}, {"type": "electric_scooter", "fusion_lon": 0.0, "bike_id": "c85291624687841b092ba6bc96e9a3d0", "is_disabled": 0, "lat": 38.83795033333333, "rental_uris": {"ios": "https://dc.lft.to/lastmile_qr_scan", "android": "https://dc.lft.to/lastmile_qr_scan"}, "is_reserved": 0, "lon": -77.00458516666667, "fusion_lat": 0.0, "name": "c85291624687841b092ba6bc96e9a3d0"}, {"type": "electric_scooter", "fusion_lon": 0.0, "bike_id": "a1b353850af2bef49b12cee36cc1b716", "is_disabled": 0, "lat": 38.887724, "rental_uris": {"ios": "https://dc.lft.to/lastmile_qr_scan", "android": "https://dc.lft.to/lastmile_qr_scan"}, "is_reserved": 0, "lon": -77.03324466666666, "fusion_lat": 0.0, "name": "a1b353850af2bef49b12cee36cc1b716"},