{"data": {"bikes": [{"name": "bf0ce7322fcfd0e4be9d23bd5dc5eef5", "type": "electric_scooter", "lat": 38.898872, "is_reserved": 0, "lon": -76.93174933333333, "fusion_lon": 0.0, "is_disabled": 0, "fusion_lat": 0.0, "bike_id": "bf0ce7322fcfd0e4be9d23bd5dc5eef5", "rental_uris": {"ios": "https://dc.lft.to/lastmile_qr_scan", "android": "https://dc.lft.to/lastmile_qr_scan"}}, {"name": "e607da8d6bd75cda29bb69730de23df8", "type": "electric_scooter", "lat": 38.942155666666665, "is_reserved": 0, "lon": -77.03588866666666, "fusion_lon": 0.0, "is_disabled": 0, "fusion_lat": 0.0, "bike_id": "e607da8d6bd75cda29bb69730de23df8", "rental_uris": {"ios": "https://dc.lft.to/lastmile_qr_scan", "android": "https://dc.lft.to/lastmile_qr_scan"}}, {"name": "b7065749359660b371bc123d995e3b15", "type": "electric_scooter", "lat": 38.9023105, "is_reserved": 0, "lon": -77.0175015, "fusion_lon": 0.0, "is_disabled": 0, "fusion_lat": 0.0, "bike_id": "b7065749359660b371bc123d995e3b15", "rental_uris": {"ios": "https://dc.lft.to/lastmile_qr_scan", "android": "https://dc.lft.to/lastmile_qr_scan"}}, {"name": "520e67c807b44fe06932341c82e88149", "type": "electric_scooter", "lat": 38.92385783333334, "is_reserved": 0, "lon": -77.0305725, "fusion_lon": 0.0, "is_disabled": 0, "fusion_lat": 0.0, "bike_id": "520e67c807b44fe06932341c82e88149", "rental_uris": {"ios": "https://dc.lft.to/lastmile_qr_scan", "android": "https://dc.lft.to/lastmile_qr_scan"}}, {"name": "43ec179c803e4ba7a63f5db7b0a8a333", "type": "electric_scooter", "lat": 38.92121233333334, "is_reserved": 0, "lon": -77.03660833333333, "fusion_lon": 0.0, "is_disabled": 0, "fusion_lat": 0.0, "bike_id": "43ec179c803e4ba7a63f5db7b0a8a333", "rental_uris": {"ios": "https://dc.lft.to/lastmile_qr_scan", "android": "https://dc.lft.to/lastmile_qr_scan"}}, {"name": "3c04568b753f8bed70ec66a783753884", "type": "electric_scooter", "lat": 38.915581, "is_reserved": 0, "lon": -77.04152983333333, "fusion_lon": 0.0, "is_disabled": 0, "fusion_lat": 0.0, "bike_id": "3c04568b753f8bed70ec66a783753884", "rental_uris": {"ios": "https://dc.lft.to/lastmile_qr_scan", "android": "https://dc.lft.to/lastmile_qr_scan"}}, {"name": "638987c0a52240137c0f94859e29366f", "type": "electric_scooter", "lat": 38.90694883333333, "is_reserved": 0, "lon": -77.04341416666666, "fusion_lon": 0.0, "is_disabled": 0, "fusion_lat": 0.0, "bike_id": "638987c0a52240137c0f94859e29366f", "rental_uris": {"ios": "https://dc.lft.to/lastmile_qr_scan", "android": "https://dc.lft.to/lastmile_qr_scan"}}, {"name": "19f442b8ec34f731cc0e67090388405a", "type": "electric_scooter", "lat": 38.863541166666664, "is_reserved": 0, "lon": -76.99067383333333, "fusion_lon": 0.0, "is_disabled": 0, "fusion_lat": 0.0, "bike_id": "19f442b8ec34f731cc0e67090388405a", "rental_uris": {"ios": "https://dc.lft.to/lastmile_qr_scan", "android": "https://dc.lft.to/lastmile_qr_scan"}}, {"name": "d2e7a129ceb44a4b9dc257e9727135a0", "type": "electric_scooter", "lat": 38.88610083333333, "is_reserved": 0, "lon": -76.99608783333333, "fusion_lon": 0.0, "is_disabled": 0, "fusion_lat": 0.0, "bike_id": "d2e7a129ceb44a4b9dc257e9727135a0", "rental_uris": {"ios": "https://dc.lft.to/lastmile_qr_scan", "android": "https://dc.lft.to/lastmile_qr_scan"}}, {"name": "d0a5cf81a486434be4bc0a9fd59c39be", "type": "electric_scooter", "lat": 38.913492833333336, "is_reserved": 0, "lon": -77.0483615, "fusion_lon": 0.0, "is_disabled": 0, "fusion_lat": 0.0, "bike_id": "d0a5cf81a486434be4bc0a9fd59c39be", "rental_uris": {"ios": "https://dc.lft.to/lastmile_qr_scan", "android": "https://dc.lft.to/lastmile_qr_scan"}}, {"name": "afabd1e2d027bf530c809b6a36790e1b", "type": "electric_scooter", "lat": 38.892266666666664, "is_reserved": 0, "lon": -77.03211483333334, "fusion_lon": 0.0, "is_disabled": 0, "fusion_lat": 0.0, "bike_id": "afabd1e2d027bf530c809b6a36790e1b", "rental_uris": {"ios": "https://dc.lft.to/lastmile_qr_scan", "android": "https://dc.lft.to/lastmile_qr_scan"}}, {"name": "a32d9f5fa9ab2c27c57b1642774a3538", "type": "electric_bike", "lat": 38.904044, "is_reserved": 0, "lon": -77.040383, "fusion_lon": 0.0, "is_disabled": 0, "fusion_lat": 0.0, "bike_id": "a32d9f5fa9ab2c27c57b1642774a3538", "rental_uris": {"ios": "https://dc.lft.to/lastmile_qr_scan", "android": "https://dc.lft.to/lastmile_qr_scan"}}, {"name": "f4c402187f3b86718e9784cfe6ea399d", "type": "electric_scooter", "lat": 38.905658833333334, "is_reserved": 0, "lon": -77.0437865, "fusion_lon": 0.0, "is_disabled": 0, "fusion_lat": 0.0, "bike_id": "f4c402187f3b86718e9784cfe6ea399d", "rental_uris": {"ios": "https://dc.lft.to/lastmile_qr_scan", "android": "https://dc.lft.to/lastmile_qr_scan"}}, {"name": "4ab52f63a1e6313bbb6c03a1db567808", "type": "electric_scooter", "lat": 38.90093433333333, "is_reserved": 0, "lon": -77.02315416666667, "fusion_lon": 0.0, "is_disabled": 0, "fusion_lat": 0.0, "bike_id": "4ab52f63a1e6313bbb6c03a1db567808", "rental_uris": {"ios": "https://dc.lft.to/lastmile_qr_scan", "android": "https://dc.lft.to/lastmile_qr_scan"}}, {"name": "83588f767d8c8905e79a42d4f1e77da1", "type": "electric_scooter", "lat": 38.87849416666667, "is_reserved": 0, "lon": -76.988372, "fusion_lon": 0.0, "is_disabled": 0, "fusion_lat": 0.0, "bike_id": "83588f767d8c8905e79a42d4f1e77da1", "rental_uris": {"ios": "https://dc.lft.to/lastmile_qr_scan", "android": "https://dc.lft.to/lastmile_qr_scan"}}, {"name": "c7d05dc2b234bc799faec0e5f33ca2a9", "type": "electric_scooter", "lat": 38.89717183333333, "is_reserved": 0, "lon": -77.027146, "fusion_lon": 0.0, "is_disabled": 0, "fusion_lat": 0.0, "bike_id": "c7d05dc2b234bc799faec0e5f33ca2a9", "rental_uris": {"ios": "https://dc.lft.to/lastmile_qr_scan", "android": "https://dc.lft.to/lastmile_qr_scan"}}, {"name": "85fdfd7d2771ba7c8ebc4c203bd83430", "type": "electric_scooter", "lat": 38.90373116666667, "is_reserved": 0, "lon": -77.00757083333333, "fusion_lon": 0.0, "is_disabled": 0, "fusion_lat": 0.0, "bike_id": "85fdfd7d2771ba7c8ebc4c203bd83430", "rental_uris": {"ios": "https://dc.lft.to/lastmile_qr_scan", "android": "https://dc.lft.to/lastmile_qr_scan"}}, {"name": "e76b3d2dbc480f4d0cc5a88e6d25d9e7", "type": "electric_scooter", "lat": 38.9284645, "is_reserved": 0, "lon": -77.054241, "fusion_lon": 0.0, "is_disabled": 0, "fusion_lat": 0.0, "bike_id": "e76b3d2dbc480f4d0cc5a88e6d25d9e7", "rental_uris": {"ios": "https://dc.lft.to/lastmile_qr_scan", "android": "https://dc.lft.to/lastmile_qr_scan"}}, {"name": "8ca5173a5b63f702d616070cd47ff3ce", "type": "electric_bike", "lat": 38.877841333333336, "is_reserved": 0, "lon": -77.00826783333333, "fusion_lon": 0.0, "is_disabled": 0, "fusion_lat": 0.0, "bike_id": "8ca5173a5b63f702d616070cd47ff3ce", "rental_uris": {"ios": "https://dc.lft.to/lastmile_qr_scan", "android": "https://dc.lft.to/lastmile_qr_scan"}}, {"name": "31255a7589444850d8744a736d824292", "type": "electric_scooter", "lat": 38.891328, "is_reserved": 0, "lon": -77.003481, "fusion_lon": 0.0, "is_disabled": 0, "fusion_lat": 0.0, "bike_id": "31255a7589444850d8744a736d824292", "rental_uris": {"ios": "https://dc.lft.to/lastmile_qr_scan", "android": "https://dc.lft.to/lastmile_qr_scan"}}, {"name": "7b22fcb779c647276cbc756ca322317f", "type": "electric_scooter", "lat": 38.891991166666664, "is_reserved": 0, "lon": -77.0155225, "fusion_lon": 0.0, "is_disabled": 0, "fusion_lat": 0.0, "bike_id": "7b22fcb779c647276cbc756ca322317f", "rental_uris": {"ios": "https://dc.lft.to/lastmile_qr_scan", "android": "https://dc.lft.to/lastmile_qr_scan"}}, {"name": "003b1e525a546948da7b9f01ae19c3fb", "type": "electric_scooter", "lat": 38.90246633333334, "is_reserved": 0, "lon": -77.01813616666666, "fusion_lon": 0.0, "is_disabled": 0, "fusion_lat": 0.0, "bike_id": "003b1e525a546948da7b9f01ae19c3fb", "rental_uris": {"ios": "https://dc.lft.to/lastmile_qr_scan", "android": "https://dc.lft.to/lastmile_qr_scan"}}, {"name": "93f5ac15c68727f13e1575339c9b6564", "type": "electric_scooter", "lat": 38.905221, "is_reserved": 0, "lon": -77.05118383333334, "fusion_lon": 0.0, "is_disabled": 0, "fusion_lat": 0.0, "bike_id": "93f5ac15c68727f13e1575339c9b6564", "rental_uris": {"ios": "https://dc.lft.to/lastmile_qr_scan", "android": "https://dc.lft.to/lastmile_qr_scan"}}, {"name": "0eae74de3574e38e3510c7566e958cad", "type": "electric_scooter", "lat": 38.908355, "is_reserved": 0, "lon": -76.99700866666667, "fusion_lon": 0.0, "is_disabled": 0, "fusion_lat": 0.0, "bike_id": "0eae74de3574e38e3510c7566e958cad", "rental_uris": {"ios": "https://dc.lft.to/lastmile_qr_scan", "android": "https://dc.lft.to/lastmile_qr_scan"}}, {"name": "5d368ae3b4f1c8347acece95e4971e15", "type": "electric_scooter", "lat": 38.9038315, "is_reserved": 0, "lon": -77.04178233333333, "fusion_lon": 0.0, "is_disabled": 0, "fusion_lat": 0.0, "bike_id": "5d368ae3b4f1c8347acece95e4971e15", "rental_uris": {"ios": "https://dc.lft.to/lastmile_qr_scan", "android": "https://dc.lft.to/lastmile_qr_scan"}}, {"name": "27ff604363407357a73c1e694a4689af", "type": "electric_scooter", "lat": 38.90282716666667, "is_reserved": 0, "lon": -77.03337816666667, "fusion_lon": 0.0, "is_disabled": 0, "fusion_lat": 0.0, "bike_id": "27ff604363407357a73c1e694a4689af", "rental_uris": {"ios": "https://dc.lft.to/lastmile_qr_scan", "android": "https://dc.lft.to/lastmile_qr_scan"}}, {"name": "525d2079fb74df079716c1dffd5a30ac", "type": "electric_scooter", "lat": 38.880016166666664, "is_reserved": 0, "lon": -76.985411, "fusion_lon": 0.0, "is_disabled": 0, "fusion_lat": 0.0, "bike_id": "525d2079fb74df079716c1dffd5a30ac", "rental_uris": {"ios": "https://dc.lft.to/lastmile_qr_scan", "android": "https://dc.lft.to/lastmile_qr_scan"}}, {"name": "92be95a964b1521a5ad04bc0ed4a67db", "type": "electric_bike", "lat": 39.0305265, "is_reserved": 0, "lon": -77.094813, "fusion_lon": 0.0, "is_disabled": 0, "fusion_lat": 0.0, "bike_id": "92be95a964b1521a5ad04bc0ed4a67db", "rental_uris": {"ios": "https://dc.lft.to/lastmile_qr_scan", "android": "https://dc.lft.to/lastmile_qr_scan"}}, {"name": "d7998f3f1d6411c6d1e99ebd701c582e", "type": "electric_scooter", "lat": 38.87974216666667, "is_reserved": 0, "lon": -76.98546583333334, "fusion_lon": 0.0, "is_disabled": 0, "fusion_lat": 0.0, "bike_id": "d7998f3f1d6411c6d1e99ebd701c582e", "rental_uris": {"ios": "https://dc.lft.to/lastmile_qr_scan", "android": "https://dc.lft.to/lastmile_qr_scan"}}, {"name": "ef331aa5fec2aede314bddd9a398fe46", "type": "electric_scooter", "lat": 38.866597666666664, "is_reserved": 0, "lon": -76.98887016666667, "fusion_lon": 0.0, "is_disabled": 0, "fusion_lat": 0.0, "bike_id": "ef331aa5fec2aede314bddd9a398fe46", "rental_uris": {"ios": "https://dc.lft.to/lastmile_qr_scan", "android": "https://dc.lft.to/lastmile_qr_scan"}}, {"name": "bdc6fba6811af585b96aa2d7c767a9d5", "type": "electric_scooter", "lat": 38.892280166666666, "is_reserved": 0, "lon": -77.04338616666666, "fusion_lon": 0.0, "is_disabled": 0, "fusion_lat": 0.0, "bike_id": "bdc6fba6811af585b96aa2d7c767a9d5", "rental_uris": {"ios": "https://dc.lft.to/lastmile_qr_scan", "android": "https://dc.lft.to/lastmile_qr_scan"}}, {"name": "dc8f03308c3cde4266dfbc591fad5b9c", "type": "electric_scooter", "lat": 38.920308166666665, "is_reserved": 0, "lon": -77.0387215, "fusion_lon": 0.0, "is_disabled": 0, "fusion_lat": 0.0, "bike_id": "dc8f03308c3cde4266dfbc591fad5b9c", "rental_uris": {"ios": "https://dc.lft.to/lastmile_qr_scan", "android": "https://dc.lft.to/lastmile_qr_scan"}}, {"name": "eabe778aac380458f802c04c78d8e26d", "type": "electric_scooter", "lat": 38.906151, "is_reserved": 0, "lon": -77.07487716666667, "fusion_lon": 0.0, "is_disabled": 0, "fusion_lat": 0.0, "bike_id": "eabe778aac380458f802c04c78d8e26d", "rental_uris": {"ios": "https://dc.lft.to/lastmile_qr_scan", "android": "https://dc.lft.to/lastmile_qr_scan"}}, {"name": "df92fb055bad9a484a85ab08dff998ee", "type": "electric_scooter", "lat": 38.925158, "is_reserved": 0, "lon": -77.00176216666667, "fusion_lon": 0.0, "is_disabled": 0, "fusion_lat": 0.0, "bike_id": "df92fb055bad9a484a85ab08dff998ee", "rental_uris": {"ios": "https://dc.lft.to/lastmile_qr_scan", "android": "https://dc.lft.to/lastmile_qr_scan"}}, {"name": "a95549f40bf9e94f025b1914fbe4a22a", "type": "electric_scooter", "lat": 38.896208333333334, "is_reserved": 0, "lon": -77.0092465, "fusion_lon": 0.0, "is_disabled": 0, "fusion_lat": 0.0, "bike_id": "a95549f40bf9e94f025b1914fbe4a22a", "rental_uris": {"ios": "https://dc.lft.to/lastmile_qr_scan", "android": "https://dc.lft.to/lastmile_qr_scan"}}, {"name": "61468d25c4d9637e9f7f44a5ddfc5ebd", "type": "electric_scooter", "lat": 38.8837375, "is_reserved": 0, "lon": -76.92372883333333, "fusion_lon": 0.0, "is_disabled": 0, "fusion_lat": 0.0, "bike_id": "61468d25c4d9637e9f7f44a5ddfc5ebd", "rental_uris": {"ios": "https://dc.lft.to/lastmile_qr_scan", "android": "https://dc.lft.to/lastmile_qr_scan"}}, {"name": "6a0fa581e8317e99b63fd6f98725d7dd", "type": "electric_scooter", "lat": 38.90138533333333, "is_reserved": 0, "lon": -77.042418, "fusion_lon": 0.0, "is_disabled": 0, "fusion_lat": 0.0, "bike_id": "6a0fa581e8317e99b63fd6f98725d7dd", "rental_uris": {"ios": "https://dc.lft.to/lastmile_qr_scan", "android": "https://dc.lft.to/lastmile_qr_scan"}}, {"name": "8657280483250b749c6b0461178592dd", "type": "electric_scooter", "lat": 38.927452833333334, "is_reserved": 0, "lon": -77.01627366666666, "fusion_lon": 0.0, "is_disabled": 0, "fusion_lat": 0.0, "bike_id": "8657280483250b749c6b0461178592dd", "rental_uris": {"ios": "https://dc.lft.to/lastmile_qr_scan", "android": "https://dc.lft.to/lastmile_qr_scan"}}, {"name": "5834b4fca1d8e03166ea39924df15c52", "type": "electric_scooter", "lat": 38.92365433333333, "is_reserved": 0, "lon": -77.05841283333334, "fusion_lon": 0.0, "is_disabled": 0, "fusion_lat": 0.0, "bike_id": "5834b4fca1d8e03166ea39924df15c52", "rental_uris": {"ios": "https://dc.lft.to/lastmile_qr_scan", "android": "https://dc.lft.to/lastmile_qr_scan"}}, {"name": "02c832dbd3a3dec055b96b2972ebc946", "type": "electric_scooter", "lat": 38.9252465, "is_reserved": 0, "lon": -77.0332625, "fusion_lon": 0.0, "is_disabled": 0, "fusion_lat": 0.0, "bike_id": "02c832dbd3a3dec055b96b2972ebc946", "rental_uris": {"ios": "https://dc.lft.to/lastmile_qr_scan", "android": "https://dc.lft.to/lastmile_qr_scan"}}, {"name": "253a5c5bc0adab744a2e45e8ca485832", "type": "electric_scooter", "lat": 38.91551616666667, "is_reserved": 0, "lon": -77.03930716666666, "fusion_lon": 0.0, "is_disabled": 0, "fusion_lat": 0.0, "bike_id": "253a5c5bc0adab744a2e45e8ca485832", "rental_uris": {"ios": "https://dc.lft.to/lastmile_qr_scan", "android": "https://dc.lft.to/lastmile_qr_scan"}}, {"name": "c6d6f888e9ecdbd3d2260d353a20d005", "type": "electric_scooter", "lat": 38.919577833333335, "is_reserved": 0, "lon": -77.03197966666667, "fusion_lon": 0.0, "is_disabled": 0, "fusion_lat": 0.0, "bike_id": "c6d6f888e9ecdbd3d2260d353a20d005", "rental_uris": {"ios": "https://dc.lft.to/lastmile_qr_scan", "android": "https://dc.lft.to/lastmile_qr_scan"}}, {"name": "2bae8f322957a96ee1ff0334e79b42fb", "type": "electric_scooter", "lat": 38.93202466666666, "is_reserved": 0, "lon": -77.0385065, "fusion_lon": 0.0, "is_disabled": 0, "fusion_lat": 0.0, "bike_id": "2bae8f322957a96ee1ff0334e79b42fb", "rental_uris": {"ios": "https://dc.lft.to/lastmile_qr_scan", "android": "https://dc.lft.to/lastmile_qr_scan"}}, {"name": "63b2cefb1b40a0f07450fdf4930b516a", "type": "electric_scooter", "lat": 38.9000385, "is_reserved": 0, "lon": -76.99501716666667, "fusion_lon": 0.0, "is_disabled": 0, "fusion_lat": 0.0, "bike_id": "63b2cefb1b40a0f07450fdf4930b516a", "rental_uris": {"ios": "https://dc.lft.to/lastmile_qr_scan", "android": "https://dc.lft.to/lastmile_qr_scan"}}, {"name": "f12ec11fb701181f736495cc28041110", "type": "electric_scooter", "lat": 38.864186833333335, "is_reserved": 0, "lon": -76.98045233333333, "fusion_lon": 0.0, "is_disabled": 0, "fusion_lat": 0.0, "bike_id": "f12ec11fb701181f736495cc28041110", "rental_uris": {"ios": "https://dc.lft.to/lastmile_qr_scan", "android": "https://dc.lft.to/lastmile_qr_scan"}}, {"name": "83626bd48538211d4d909cc6aab44466", "type": "electric_scooter", "lat": 38.92447166666667, "is_reserved": 0, "lon": -77.033769, "fusion_lon": 0.0, "is_disabled": 0, "fusion_lat": 0.0, "bike_id": "83626bd48538211d4d909cc6aab44466", "rental_uris": {"ios": "https://dc.lft.to/lastmile_qr_scan", "android": "https://dc.lft.to/lastmile_qr_scan"}}, {"name": "08c632f60f8392943259855777bddc17", "type": "electric_scooter", "lat": 38.90315116666667, "is_reserved": 0, "lon": -77.03460033333333, "fusion_lon": 0.0, "is_disabled": 0, "fusion_lat": 0.0, "bike_id": "08c632f60f8392943259855777bddc17", "rental_uris": {"ios": "https://dc.lft.to/lastmile_qr_scan", "android": "https://dc.lft.to/lastmile_qr_scan"}}, {"name": "1a6b0a68779c359c05baa259faded7b9", "type": "electric_scooter", "lat": 38.895322166666666, "is_reserved": 0, "lon": -77.0334875, "fusion_lon": 0.0, "is_disabled": 0, "fusion_lat": 0.0, "bike_id": "1a6b0a68779c359c05baa259faded7b9", "rental_uris": {"ios": "https://dc.lft.to/lastmile_qr_scan", "android": "https://dc.lft.to/lastmile_qr_scan"}}, {"name": "2543b1dfe23b0816a9ebdf28f323b2ff", "type": "electric_scooter", "lat": 38.972385833333334, "is_reserved": 0, "lon": -77.02715633333334, "fusion_lon": 0.0, "is_disabled": 0, "fusion_lat": 0.0, "bike_id": "2543b1dfe23b0816a9ebdf28f323b2ff", "rental_uris": {"ios": "https://dc.lft.to/lastmile_qr_scan", "android": "https://dc.lft.to/lastmile_qr_scan"}}, {"name": "c24bcbe95630635ce5b9c5321cec4ffc", "type": "electric_scooter", "lat": 38.91273016666667, "is_reserved": 0, "lon": -77.04087266666667, "fusion_lon": 0.0, "is_disabled": 0, "fusion_lat": 0.0, "bike_id": "c24bcbe95630635ce5b9c5321cec4ffc", "rental_uris": {"ios": "https://dc.lft.to/lastmile_qr_scan", "android": "https://dc.lft.to/lastmile_qr_scan"}}, {"name": "b02ed6ddeacfe1de8c5809a691fe413b", "type": "electric_scooter", "lat": 38.90140433333333, "is_reserved": 0, "lon": -77.0332425, "fusion_lon": 0.0, "is_disabled": 0, "fusion_lat": 0.0, "bike_id": "b02ed6ddeacfe1de8c5809a691fe413b", "rental_uris": {"ios": "https://dc.lft.to/lastmile_qr_scan", "android": "https://dc.lft.to/lastmile_qr_scan"}}, {"name": "7fc824db2761697311abc88d7376bf6f", "type": "electric_scooter", "lat": 38.85531733333333, "is_reserved": 0, "lon": -76.9691575, "fusion_lon": 0.0, "is_disabled": 0, "fusion_lat": 0.0, "bike_id": "7fc824db2761697311abc88d7376bf6f", "rental_uris": {"ios": "https://dc.lft.to/lastmile_qr_scan", "android": "https://dc.lft.to/lastmile_qr_scan"}}, {"name": "27af7f75bb4ba622b156f6733a778e3b", "type": "electric_scooter", "lat": 38.9245065, "is_reserved": 0, "lon": -77.0203365, "fusion_lon": 0.0, "is_disabled": 0, "fusion_lat": 0.0, "bike_id": "27af7f75bb4ba622b156f6733a778e3b", "rental_uris": {"ios": "https://dc.lft.to/lastmile_qr_scan", "android": "https://dc.lft.to/lastmile_qr_scan"}}, {"name": "837a2d074517a090f95eea6ff87a4f59", "type": "electric_scooter", "lat": 38.9139965, "is_reserved": 0, "lon": -77.04566016666666, "fusion_lon": 0.0, "is_disabled": 0, "fusion_lat": 0.0, "bike_id": "837a2d074517a090f95eea6ff87a4f59", "rental_uris": {"ios": "https://dc.lft.to/lastmile_qr_scan", "android": "https://dc.lft.to/lastmile_qr_scan"}}, {"name": "d27fb0a778125492f43d14ed35446bc4", "type": "electric_scooter", "lat": 38.8940175, "is_reserved": 0, "lon": -76.94801783333334, "fusion_lon": 0.0, "is_disabled": 0, "fusion_lat": 0.0, "bike_id": "d27fb0a778125492f43d14ed35446bc4", "rental_uris": {"ios": "https://dc.lft.to/lastmile_qr_scan", "android": "https://dc.lft.to/lastmile_qr_scan"}}, {"name": "5e04c669e7f80c5949287c15a37b85fb", "type": "electric_scooter", "lat": 38.941003, "is_reserved": 0, "lon": -77.03282266666666, "fusion_lon": 0.0, "is_disabled": 0, "fusion_lat": 0.0, "bike_id": "5e04c669e7f80c5949287c15a37b85fb", "rental_uris": {"ios": "https://dc.lft.to/lastmile_qr_scan", "android": "https://dc.lft.to/lastmile_qr_scan"}}, {"name": "eaf5a214a9148418f93e54f03b826b85", "type": "electric_scooter", "lat": 38.902372666666665, "is_reserved": 0, "lon": -77.01646066666666, "fusion_lon": 0.0, "is_disabled": 0, "fusion_lat": 0.0, "bike_id": "eaf5a214a9148418f93e54f03b826b85", "rental_uris": {"ios": "https://dc.lft.to/lastmile_qr_scan", "android": "https://dc.lft.to/lastmile_qr_scan"}}, {"name": "b96fd4af8f6ae98df6b9335fa3172fa3", "type": "electric_scooter", "lat": 38.91334, "is_reserved": 0, "lon": -77.04872816666666, "fusion_lon": 0.0, "is_disabled": 0, "fusion_lat": 0.0, "bike_id": "b96fd4af8f6ae98df6b9335fa3172fa3", "rental_uris": {"ios": "https://dc.lft.to/lastmile_qr_scan", "android": "https://dc.lft.to/lastmile_qr_scan"}}, {"name": "3b89a323c1b0a6edd98a122e5ac6d764", "type": "electric_scooter", "lat": 38.90607283333333, "is_reserved": 0, "lon": -77.00256516666667, "fusion_lon": 0.0, "is_disabled": 0, "fusion_lat": 0.0, "bike_id": "3b89a323c1b0a6edd98a122e5ac6d764", "rental_uris": {"ios": "https://dc.lft.to/lastmile_qr_scan", "android": "https://dc.lft.to/lastmile_qr_scan"}}, {"name": "0b3bc7e8e3655079748d71500f0f6017", "type": "electric_scooter", "lat": 38.926295333333336, "is_reserved": 0, "lon": -77.0378715, "fusion_lon": 0.0, "is_disabled": 0, "fusion_lat": 0.0, "bike_id": "0b3bc7e8e3655079748d71500f0f6017", "rental_uris": {"ios": "https://dc.lft.to/lastmile_qr_scan", "android": "https://dc.lft.to/lastmile_qr_scan"}}, {"name": "9e23392f25ac37429d56886a2707d8a6", "type": "electric_scooter", "lat": 38.92586383333333, "is_reserved": 0, "lon": -77.00477483333333, "fusion_lon": 0.0, "is_disabled": 0, "fusion_lat": 0.0, "bike_id": "9e23392f25ac37429d56886a2707d8a6", "rental_uris": {"ios": "https://dc.lft.to/lastmile_qr_scan", "android": "https://dc.lft.to/lastmile_qr_scan"}}, {"name": "b3e9c2a7ab18fc21ca17cd9f462e021b", "type": "electric_scooter", "lat": 38.89902083333333, "is_reserved": 0, "lon": -77.0328555, "fusion_lon": 0.0, "is_disabled": 0, "fusion_lat": 0.0, "bike_id": "b3e9c2a7ab18fc21ca17cd9f462e021b", "rental_uris": {"ios": "https://dc.lft.to/lastmile_qr_scan", "android": "https://dc.lft.to/lastmile_qr_scan"}}, {"name": "2b4adfbebdbbc39a8e323730b8af9ed0", "type": "electric_scooter", "lat": 38.902612166666664, "is_reserved": 0, "lon": -77.04611, "fusion_lon": 0.0, "is_disabled": 0, "fusion_lat": 0.0, "bike_id": "2b4adfbebdbbc39a8e323730b8af9ed0", "rental_uris": {"ios": "https://dc.lft.to/lastmile_qr_scan", "android": "https://dc.lft.to/lastmile_qr_scan"}}, {"name": "33b5b10c5eee9e01eba08c2e1b0c15f4", "type": "electric_scooter", "lat": 38.90460316666667, "is_reserved": 0, "lon": -77.04892916666667, "fusion_lon": 0.0, "is_disabled": 0, "fusion_lat": 0.0, "bike_id": "33b5b10c5eee9e01eba08c2e1b0c15f4", "rental_uris": {"ios": "https://dc.lft.to/lastmile_qr_scan", "android": "https://dc.lft.to/lastmile_qr_scan"}}, {"name": "f40e720afb3fbbbb5e27699c934004c0", "type": "electric_scooter", "lat": 38.931434, "is_reserved": 0, "lon": -77.038475, "fusion_lon": 0.0, "is_disabled": 0, "fusion_lat": 0.0, "bike_id": "f40e720afb3fbbbb5e27699c934004c0", "rental_uris": {"ios": "https://dc.lft.to/lastmile_qr_scan", "android": "https://dc.lft.to/lastmile_qr_scan"}}, {"name": "2b3d4b68c19d430514d6816655d37abc", "type": "electric_scooter", "lat": 38.8764405, "is_reserved": 0, "lon": -77.00433566666666, "fusion_lon": 0.0, "is_disabled": 0, "fusion_lat": 0.0, "bike_id": "2b3d4b68c19d430514d6816655d37abc", "rental_uris": {"ios": "https://dc.lft.to/lastmile_qr_scan", "android": "https://dc.lft.to/lastmile_qr_scan"}}, {"name": "b38aa38df17a8b3fc3b4c5f46ae6d693", "type": "electric_scooter", "lat": 38.8903465, "is_reserved": 0, "lon": -76.93627816666667, "fusion_lon": 0.0, "is_disabled": 0, "fusion_lat": 0.0, "bike_id": "b38aa38df17a8b3fc3b4c5f46ae6d693", "rental_uris": {"ios": "https://dc.lft.to/lastmile_qr_scan", "android": "https://dc.lft.to/lastmile_qr_scan"}}, {"name": "f2d162acdac3cfea2a616180787b77ba", "type": "electric_scooter", "lat": 38.93583733333333, "is_reserved": 0, "lon": -77.02745616666667, "fusion_lon": 0.0, "is_disabled": 0, "fusion_lat": 0.0, "bike_id": "f2d162acdac3cfea2a616180787b77ba", "rental_uris": {"ios": "https://dc.lft.to/lastmile_qr_scan", "android": "https://dc.lft.to/lastmile_qr_scan"}}, {"name": "c92a5a1125dfdde3182e24cc20d62270", "type": "electric_scooter", "lat": 38.885105833333334, "is_reserved": 0, "lon": -77.01542133333334, "fusion_lon": 0.0, "is_disabled": 0, "fusion_lat": 0.0, "bike_id": "c92a5a1125dfdde3182e24cc20d62270", "rental_uris": {"ios": "https://dc.lft.to/lastmile_qr_scan", "android": "https://dc.lft.to/lastmile_qr_scan"}}, {"name": "2e984b2fa3b6d8b8615eacc59498fca6", "type": "electric_scooter", "lat": 38.918829333333335, "is_reserved": 0, "lon": -77.01625916666667, "fusion_lon": 0.0, "is_disabled": 0, "fusion_lat": 0.0, "bike_id": "2e984b2fa3b6d8b8615eacc59498fca6", "rental_uris": {"ios": "https://dc.lft.to/lastmile_qr_scan", "android": "https://dc.lft.to/lastmile_qr_scan"}}, {"name": "6757ffea4ee08cc378589f3a89854458", "type": "electric_scooter", "lat": 38.9052595, "is_reserved": 0, "lon": -77.05999633333333, "fusion_lon": 0.0, "is_disabled": 0, "fusion_lat": 0.0, "bike_id": "6757ffea4ee08cc378589f3a89854458", "rental_uris": {"ios": "https://dc.lft.to/lastmile_qr_scan", "android": "https://dc.lft.to/lastmile_qr_scan"}}, {"name": "185522c874f2973c5ed9dfd773e3c374", "type": "electric_scooter", "lat": 38.919926333333336, "is_reserved": 0, "lon": -77.03466533333334, "fusion_lon": 0.0, "is_disabled": 0, "fusion_lat": 0.0, "bike_id": "185522c874f2973c5ed9dfd773e3c374", "rental_uris": {"ios": "https://dc.lft.to/lastmile_qr_scan", "android": "https://dc.lft.to/lastmile_qr_scan"}}, {"name": "dc9942483ba27270c00faa615eb1d76f", "type": "electric_scooter", "lat": 38.9015125, "is_reserved": 0, "lon": -77.02899883333333, "fusion_lon": 0.0, "is_disabled": 0, "fusion_lat": 0.0, "bike_id": "dc9942483ba27270c00faa615eb1d76f", "rental_uris": {"ios": "https://dc.lft.to/lastmile_qr_scan", "android": "https://dc.lft.to/lastmile_qr_scan"}}, {"name": "92cc4f00b148fb3cbe75dd59412f77f7", "type": "electric_scooter", "lat": 38.93769666666667, "is_reserved": 0, "lon": -77.022696, "fusion_lon": 0.0, "is_disabled": 0, "fusion_lat": 0.0, "bike_id": "92cc4f00b148fb3cbe75dd59412f77f7", "rental_uris": {"ios": "https://dc.lft.to/lastmile_qr_scan", "android": "https://dc.lft.to/lastmile_qr_scan"}}, {"name": "fed04183a9735f9112b6cea774abedb6", "type": "electric_scooter", "lat": 38.898259333333336, "is_reserved": 0, "lon": -76.94652383333333, "fusion_lon": 0.0, "is_disabled": 0, "fusion_lat": 0.0, "bike_id": "fed04183a9735f9112b6cea774abedb6", "rental_uris": {"ios": "https://dc.lft.to/lastmile_qr_scan", "android": "https://dc.lft.to/lastmile_qr_scan"}}, {"name": "fc945fe88261ca8efe7e926607960feb", "type": "electric_scooter", "lat": 38.899588, "is_reserved": 0, "lon": -76.9856475, "fusion_lon": 0.0, "is_disabled": 0, "fusion_lat": 0.0, "bike_id": "fc945fe88261ca8efe7e926607960feb", "rental_uris": {"ios": "https://dc.lft.to/lastmile_qr_scan", "android": "https://dc.lft.to/lastmile_qr_scan"}}, {"name": "899f16ec4d4a10322a3c63e3c97c0aff", "type": "electric_scooter", "lat": 38.9005775, "is_reserved": 0, "lon": -77.05142916666667, "fusion_lon": 0.0, "is_disabled": 0, "fusion_lat": 0.0, "bike_id": "899f16ec4d4a10322a3c63e3c97c0aff", "rental_uris": {"ios": "https://dc.lft.to/lastmile_qr_scan", "android": "https://dc.lft.to/lastmile_qr_scan"}}, {"name": "4b2da20f450ecf0dc37379ec82f6bbdc", "type": "electric_bike", "lat": 38.83985883333333, "is_reserved": 0, "lon": -77.0057255, "fusion_lon": 0.0, "is_disabled": 0, "fusion_lat": 0.0, "bike_id": "4b2da20f450ecf0dc37379ec82f6bbdc", "rental_uris": {"ios": "https://dc.lft.to/lastmile_qr_scan", "android": "https://dc.lft.to/lastmile_qr_scan"}}, {"name": "70b2b32984b72ba184aaed18eb8b828d", "type": "electric_scooter", "lat": 38.86658166666667, "is_reserved": 0, "lon": -76.99015916666667, "fusion_lon": 0.0, "is_disabled": 0, "fusion_lat": 0.0, "bike_id": "70b2b32984b72ba184aaed18eb8b828d", "rental_uris": {"ios": "https://dc.lft.to/lastmile_qr_scan", "android": "https://dc.lft.to/lastmile_qr_scan"}}, {"name": "dcff2c9e5dc3dbd00d8af2fdf2735b23", "type": "electric_scooter", "lat": 38.9004215, "is_reserved": 0, "lon": -77.05053616666666, "fusion_lon": 0.0, "is_disabled": 0, "fusion_lat": 0.0, "bike_id": "dcff2c9e5dc3dbd00d8af2fdf2735b23", "rental_uris": {"ios": "https://dc.lft.to/lastmile_qr_scan", "android": "https://dc.lft.to/lastmile_qr_scan"}}, {"name": "8e963f74af84f43e0db6740a4f9ca3f8", "type": "electric_bike", "lat": 38.8708585, "is_reserved": 0, "lon": -77.0121065, "fusion_lon": 0.0, "is_disabled": 0, "fusion_lat": 0.0, "bike_id": "8e963f74af84f43e0db6740a4f9ca3f8", "rental_uris": {"ios": "https://dc.lft.to/lastmile_qr_scan", "android": "https://dc.lft.to/lastmile_qr_scan"}}, {"name": "8717ad37573ed30d6535b044b9111c51", "type": "electric_scooter", "lat": 38.9048625, "is_reserved": 0, "lon": -76.984332, "fusion_lon": 0.0, "is_disabled": 0, "fusion_lat": 0.0, "bike_id": "8717ad37573ed30d6535b044b9111c51", "rental_uris": {"ios": "https://dc.lft.to/lastmile_qr_scan", "android": "https://dc.lft.to/lastmile_qr_scan"}}, {"name": "195bc6ceb816e29e5e81e0fe10001941", "type": "electric_scooter", "lat": 38.87475666666667, "is_reserved": 0, "lon": -77.01871283333334, "fusion_lon": 0.0, "is_disabled": 0, "fusion_lat": 0.0, "bike_id": "195bc6ceb816e29e5e81e0fe10001941", "rental_uris": {"ios": "https://dc.lft.to/lastmile_qr_scan", "android": "https://dc.lft.to/lastmile_qr_scan"}}, {"name": "f44892fd5cd1a4bd9f0fe23e4d80432d", "type": "electric_scooter", "lat": 38.896051, "is_reserved": 0, "lon": -77.04508316666667, "fusion_lon": 0.0, "is_disabled": 0, "fusion_lat": 0.0, "bike_id": "f44892fd5cd1a4bd9f0fe23e4d80432d", "rental_uris": {"ios": "https://dc.lft.to/lastmile_qr_scan", "android": "https://dc.lft.to/lastmile_qr_scan"}}, {"name": "18805e4c5de8da6ec2fc848eb9aedc6d", "type": "electric_scooter", "lat": 38.891060833333334, "is_reserved": 0, "lon": -76.98709083333334, "fusion_lon": 0.0, "is_disabled": 0, "fusion_lat": 0.0, "bike_id": "18805e4c5de8da6ec2fc848eb9aedc6d", "rental_uris": {"ios": "https://dc.lft.to/lastmile_qr_scan", "android": "https://dc.lft.to/lastmile_qr_scan"}}, {"name": "7d91ba4a836da1c2f3d33b3e6eb86a99", "type": "electric_scooter", "lat": 38.90572133333333, "is_reserved": 0, "lon": -77.00417183333333, "fusion_lon": 0.0, "is_disabled": 0, "fusion_lat": 0.0, "bike_id": "7d91ba4a836da1c2f3d33b3e6eb86a99", "rental_uris": {"ios": "https://dc.lft.to/lastmile_qr_scan", "android": "https://dc.lft.to/lastmile_qr_scan"}}, {"name": "4f4bf657d0e340c8e2ddf264e39ada29", "type": "electric_scooter", "lat": 38.902790833333334, "is_reserved": 0, "lon": -77.03649816666666, "fusion_lon": 0.0, "is_disabled": 0, "fusion_lat": 0.0, "bike_id": "4f4bf657d0e340c8e2ddf264e39ada29", "rental_uris": {"ios": "https://dc.lft.to/lastmile_qr_scan", "android": "https://dc.lft.to/lastmile_qr_scan"}}, {"name": "8bbc6d6f6435f3e982c86b83cdf3b460", "type": "electric_scooter", "lat": 38.91564483333333, "is_reserved": 0, "lon": -77.04641016666666, "fusion_lon": 0.0, "is_disabled": 0, "fusion_lat": 0.0, "bike_id": "8bbc6d6f6435f3e982c86b83cdf3b460", "rental_uris": {"ios": "https://dc.lft.to/lastmile_qr_scan", "android": "https://dc.lft.to/lastmile_qr_scan"}}, {"name": "a54f36e43fff3f5fb25a4fd08ce43d03", "type": "electric_bike", "lat": 38.862828666666665, "is_reserved": 0, "lon": -77.06361433333333, "fusion_lon": 0.0, "is_disabled": 0, "fusion_lat": 0.0, "bike_id": "a54f36e43fff3f5fb25a4fd08ce43d03", "rental_uris": {"ios": "https://dc.lft.to/lastmile_qr_scan", "android": "https://dc.lft.to/lastmile_qr_scan"}}, {"name": "8e1c87ebf082ab22a0f0b953d1998392", "type": "electric_bike", "lat": 38.8675725, "is_reserved": 0, "lon": -76.94536883333333, "fusion_lon": 0.0, "is_disabled": 0, "fusion_lat": 0.0, "bike_id": "8e1c87ebf082ab22a0f0b953d1998392", "rental_uris": {"ios": "https://dc.lft.to/lastmile_qr_scan", "android": "https://dc.lft.to/lastmile_qr_scan"}}, {"name": "16339f08b6d89d2204a7b172c28e0b02", "type": "electric_scooter", "lat": 38.9215265, "is_reserved": 0, "lon": -77.035307, "fusion_lon": 0.0, "is_disabled": 0, "fusion_lat": 0.0, "bike_id": "16339f08b6d89d2204a7b172c28e0b02", "rental_uris": {"ios": "https://dc.lft.to/lastmile_qr_scan", "android": "https://dc.lft.to/lastmile_qr_scan"}}, {"name": "c98c4dfb477b0346c2488e1d7c2f6977", "type": "electric_scooter", "lat": 38.90272783333333, "is_reserved": 0, "lon": -77.01760566666667, "fusion_lon": 0.0, "is_disabled": 0, "fusion_lat": 0.0, "bike_id": "c98c4dfb477b0346c2488e1d7c2f6977", "rental_uris": {"ios": "https://dc.lft.to/lastmile_qr_scan", "android": "https://dc.lft.to/lastmile_qr_scan"}}, {"name": "564178667fc850421ff838c6f15bbef0", "type": "electric_scooter", "lat": 38.898485, "is_reserved": 0, "lon": -76.9447665, "fusion_lon": 0.0, "is_disabled": 0, "fusion_lat": 0.0, "bike_id": "564178667fc850421ff838c6f15bbef0", "rental_uris": {"ios": "https://dc.lft.to/lastmile_qr_scan", "android": "https://dc.lft.to/lastmile_qr_scan"}}, {"name": "14c52da5e24fb829f423975426cc2284", "type": "electric_scooter", "lat": 38.897628833333336, "is_reserved": 0, "lon": -77.010518, "fusion_lon": 0.0, "is_disabled": 0, "fusion_lat": 0.0, "bike_id": "14c52da5e24fb829f423975426cc2284", "rental_uris": {"ios": "https://dc.lft.to/lastmile_qr_scan", "android": "https://dc.lft.to/lastmile_qr_scan"}}, {"name": "04c4670ae98d346bbe3a2eab4c14442a", "type": "electric_bike", "lat": 39.09464666666667, "is_reserved": 0, "lon": -77.14991233333333, "fusion_lon": 0.0, "is_disabled": 0, "fusion_lat": 0.0, "bike_id": "04c4670ae98d346bbe3a2eab4c14442a", "rental_uris": {"ios": "https://dc.lft.to/lastmile_qr_scan", "android": "https://dc.lft.to/lastmile_qr_scan"}}, {"name": "5cc249908490ab4d72375d253e1f2162", "type": "electric_scooter", "lat": 38.89501383333333, "is_reserved": 0, "lon": -77.002184, "fusion_lon": 0.0, "is_disabled": 0, "fusion_lat": 0.0, "bike_id": "5cc249908490ab4d72375d253e1f2162", "rental_uris": {"ios": "https://dc.lft.to/lastmile_qr_scan", "android": "https://dc.lft.to/lastmile_qr_scan"}}, {"name": "af392a44b3d9092450255cbfc3180548", "type": "electric_scooter", "lat": 38.9273705, "is_reserved": 0, "lon": -77.00561816666666, "fusion_lon": 0.0, "is_disabled": 0, "fusion_lat": 0.0, "bike_id": "af392a44b3d9092450255cbfc3180548", "rental_uris": {"ios": "https://dc.lft.to/lastmile_qr_scan", "android": "https://dc.lft.to/lastmile_qr_scan"}}, {"name": "815ffceb17b7960ef99112de78bbf5ea", "type": "electric_bike", "lat": 38.840704833333334, "is_reserved": 0, "lon": -77.06402433333334, "fusion_lon": 0.0, "is_disabled": 0, "fusion_lat": 0.0, "bike_id": "815ffceb17b7960ef99112de78bbf5ea", "rental_uris": {"ios": "https://dc.lft.to/lastmile_qr_scan", "android": "https://dc.lft.to/lastmile_qr_scan"}}, {"name": "0360af7bf988c2314dc646a3ac81de07", "type": "electric_bike", "lat": 38.82795383333333, "is_reserved": 0, "lon": -77.00907683333334, "fusion_lon": 0.0, "is_disabled": 0, "fusion_lat": 0.0, "bike_id": "0360af7bf988c2314dc646a3ac81de07", "rental_uris": {"ios": "https://dc.lft.to/lastmile_qr_scan", "android": "https://dc.lft.to/lastmile_qr_scan"}}, {"name": "4a50ba35d01a451b59cd90e0f7979a6b", "type": "electric_scooter", "lat": 38.905785333333334, "is_reserved": 0, "lon": -77.03974533333333, "fusion_lon": 0.0, "is_disabled": 0, "fusion_lat": 0.0, "bike_id": "4a50ba35d01a451b59cd90e0f7979a6b", "rental_uris": {"ios": "https://dc.lft.to/lastmile_qr_scan", "android": "https://dc.lft.to/lastmile_qr_scan"}}, {"name": "85fe7b2b73d606e38344d8f6edc839c8", "type": "electric_bike", "lat": 38.905118, "is_reserved": 0, "lon": -77.0602055, "fusion_lon": 0.0, "is_disabled": 0, "fusion_lat": 0.0, "bike_id": "85fe7b2b73d606e38344d8f6edc839c8", "rental_uris": {"ios": "https://dc.lft.to/lastmile_qr_scan", "android": "https://dc.lft.to/lastmile_qr_scan"}}, {"name": "babd4b451f3842ae6b948707a9148bea", "type": "electric_scooter", "lat": 38.959244, "is_reserved": 0, "lon": -77.033246, "fusion_lon": 0.0, "is_disabled": 0, "fusion_lat": 0.0, "bike_id": "babd4b451f3842ae6b948707a9148bea", "rental_uris": {"ios": "https://dc.lft.to/lastmile_qr_scan", "android": "https://dc.lft.to/lastmile_qr_scan"}}, {"name": "1491325c9f79f417675c5b8006f85b57", "type": "electric_scooter", "lat": 38.9010915, "is_reserved": 0, "lon": -77.05140116666666, "fusion_lon": 0.0, "is_disabled": 0, "fusion_lat": 0.0, "bike_id": "1491325c9f79f417675c5b8006f85b57", "rental_uris": {"ios": "https://dc.lft.to/lastmile_qr_scan", "android": "https://dc.lft.to/lastmile_qr_scan"}}, {"name": "36fc64c13f203ba085dd1b23aec2908f", "type": "electric_scooter", "lat": 38.91696983333333, "is_reserved": 0, "lon": -77.034834, "fusion_lon": 0.0, "is_disabled": 0, "fusion_lat": 0.0, "bike_id": "36fc64c13f203ba085dd1b23aec2908f", "rental_uris": {"ios": "https://dc.lft.to/lastmile_qr_scan", "android": "https://dc.lft.to/lastmile_qr_scan"}}, {"name": "7048af8b9f2c6eb8f97fc3a0bf559c2c", "type": "electric_scooter", "lat": 38.90344433333333, "is_reserved": 0, "lon": -77.0386085, "fusion_lon": 0.0, "is_disabled": 0, "fusion_lat": 0.0, "bike_id": "7048af8b9f2c6eb8f97fc3a0bf559c2c", "rental_uris": {"ios": "https://dc.lft.to/lastmile_qr_scan", "android": "https://dc.lft.to/lastmile_qr_scan"}}, {"name": "48da4ff47323b8117742b48c06bcb298", "type": "electric_scooter", "lat": 38.917198166666665, "is_reserved": 0, "lon": -77.03862466666666, "fusion_lon": 0.0, "is_disabled": 0, "fusion_lat": 0.0, "bike_id": "48da4ff47323b8117742b48c06bcb298", "rental_uris": {"ios": "https://dc.lft.to/lastmile_qr_scan", "android": "https://dc.lft.to/lastmile_qr_scan"}}, {"name": "33b53540ae66e4562aee947d99ee33b9", "type": "electric_scooter", "lat": 38.9056535, "is_reserved": 0, "lon": -77.039826, "fusion_lon": 0.0, "is_disabled": 0, "fusion_lat": 0.0, "bike_id": "33b53540ae66e4562aee947d99ee33b9", "rental_uris": {"ios": "https://dc.lft.to/lastmile_qr_scan", "android": "https://dc.lft.to/lastmile_qr_scan"}}, {"name": "2f2c6a421cf58e26f51f33619e7194e6", "type": "electric_scooter", "lat": 38.9056495, "is_reserved": 0, "lon": -77.04024566666666, "fusion_lon": 0.0, "is_disabled": 0, "fusion_lat": 0.0, "bike_id": "2f2c6a421cf58e26f51f33619e7194e6", "rental_uris": {"ios": "https://dc.lft.to/lastmile_qr_scan", "android": "https://dc.lft.to/lastmile_qr_scan"}}, {"name": "e2fc68110ba3c4f610426a14fb4d567d", "type": "electric_scooter", "lat": 38.901192, "is_reserved": 0, "lon": -77.0499835, "fusion_lon": 0.0, "is_disabled": 0, "fusion_lat": 0.0, "bike_id": "e2fc68110ba3c4f610426a14fb4d567d", "rental_uris": {"ios": "https://dc.lft.to/lastmile_qr_scan", "android": "https://dc.lft.to/lastmile_qr_scan"}}, {"name": "5364d136fbd59aa203d5a61a9bea5c68", "type": "electric_scooter", "lat": 38.90018666666667, "is_reserved": 0, "lon": -76.990733, "fusion_lon": 0.0, "is_disabled": 0, "fusion_lat": 0.0, "bike_id": "5364d136fbd59aa203d5a61a9bea5c68", "rental_uris": {"ios": "https://dc.lft.to/lastmile_qr_scan", "android": "https://dc.lft.to/lastmile_qr_scan"}}, {"name": "e9be71342ffd066b11280cd80d31bea2", "type": "electric_scooter", "lat": 38.89765116666667, "is_reserved": 0, "lon": -77.02995833333334, "fusion_lon": 0.0, "is_disabled": 0, "fusion_lat": 0.0, "bike_id": "e9be71342ffd066b11280cd80d31bea2", "rental_uris": {"ios": "https://dc.lft.to/lastmile_qr_scan", "android": "https://dc.lft.to/lastmile_qr_scan"}}, {"name": "3e0a977b5ab83e61f401a4b3c6082939", "type": "electric_bike", "lat": 38.9029755, "is_reserved": 0, "lon": -76.944447, "fusion_lon": 0.0, "is_disabled": 0, "fusion_lat": 0.0, "bike_id": "3e0a977b5ab83e61f401a4b3c6082939", "rental_uris": {"ios": "https://dc.lft.to/lastmile_qr_scan", "android": "https://dc.lft.to/lastmile_qr_scan"}}, {"name": "a359ec29e703d2662d591335de511199", "type": "electric_bike", "lat": 38.83804666666666, "is_reserved": 0, "lon": -76.99835033333333, "fusion_lon": 0.0, "is_disabled": 0, "fusion_lat": 0.0, "bike_id": "a359ec29e703d2662d591335de511199", "rental_uris": {"ios": "https://dc.lft.to/lastmile_qr_scan", "android": "https://dc.lft.to/lastmile_qr_scan"}}, {"name": "7ed4d4d4851086922ee9e54c8fcf3ce0", "type": "electric_bike", "lat": 38.83863083333333, "is_reserved": 0, "lon": -77.08872016666666, "fusion_lon": 0.0, "is_disabled": 0, "fusion_lat": 0.0, "bike_id": "7ed4d4d4851086922ee9e54c8fcf3ce0", "rental_uris": {"ios": "https://dc.lft.to/lastmile_qr_scan", "android": "https://dc.lft.to/lastmile_qr_scan"}}, {"name": "265d9176ccc9e4b26898f7d7f701799e", "type": "electric_scooter", "lat": 38.9044865, "is_reserved": 0, "lon": -77.02974683333333, "fusion_lon": 0.0, "is_disabled": 0, "fusion_lat": 0.0, "bike_id": "265d9176ccc9e4b26898f7d7f701799e", "rental_uris": {"ios": "https://dc.lft.to/lastmile_qr_scan", "android": "https://dc.lft.to/lastmile_qr_scan"}}, {"name": "eb278fbdc4651d5f4bc95bfc777bd4c4", "type": "electric_scooter", "lat": 38.90026966666667, "is_reserved": 0, "lon": -76.99449366666667, "fusion_lon": 0.0, "is_disabled": 0, "fusion_lat": 0.0, "bike_id": "eb278fbdc4651d5f4bc95bfc777bd4c4", "rental_uris": {"ios": "https://dc.lft.to/lastmile_qr_scan", "android": "https://dc.lft.to/lastmile_qr_scan"}}, {"name": "facd7135962edb339c556f00ed946100", "type": "electric_bike", "lat": 38.900904, "is_reserved": 0, "lon": -76.98002333333334, "fusion_lon": 0.0, "is_disabled": 0, "fusion_lat": 0.0, "bike_id": "facd7135962edb339c556f00ed946100", "rental_uris": {"ios": "https://dc.lft.to/lastmile_qr_scan", "android": "https://dc.lft.to/lastmile_qr_scan"}}, {"name": "dc5d939e4f84e517692137702fb62b9f", "type": "electric_scooter", "lat": 38.90328083333333, "is_reserved": 0, "lon": -77.03862483333333, "fusion_lon": 0.0, "is_disabled": 0, "fusion_lat": 0.0, "bike_id": "dc5d939e4f84e517692137702fb62b9f", "rental_uris": {"ios": "https://dc.lft.to/lastmile_qr_scan", "android": "https://dc.lft.to/lastmile_qr_scan"}}, {"name": "1196304d5fb01da5843c66ad32ec2cfa", "type": "electric_scooter", "lat": 38.89042283333333, "is_reserved": 0, "lon": -76.93751966666666, "fusion_lon": 0.0, "is_disabled": 0, "fusion_lat": 0.0, "bike_id": "1196304d5fb01da5843c66ad32ec2cfa", "rental_uris": {"ios": "https://dc.lft.to/lastmile_qr_scan", "android": "https://dc.lft.to/lastmile_qr_scan"}}, {"name": "daa2a3026375b269af79a2f20a1d32c0", "type": "electric_scooter", "lat": 38.9099935, "is_reserved": 0, "lon": -77.02182683333334, "fusion_lon": 0.0, "is_disabled": 0, "fusion_lat": 0.0, "bike_id": "daa2a3026375b269af79a2f20a1d32c0", "rental_uris": {"ios": "https://dc.lft.to/lastmile_qr_scan", "android": "https://dc.lft.to/lastmile_qr_scan"}}, {"name": "ea5c6f3a04f83a97c24e80f004768a64", "type": "electric_bike", "lat": 38.9732905, "is_reserved": 0, "lon": -77.02151883333333, "fusion_lon": 0.0, "is_disabled": 0, "fusion_lat": 0.0, "bike_id": "ea5c6f3a04f83a97c24e80f004768a64", "rental_uris": {"ios": "https://dc.lft.to/lastmile_qr_scan", "android": "https://dc.lft.to/lastmile_qr_scan"}}, {"name": "501d00959821c635bfdd7793291b39de", "type": "electric_scooter", "lat": 38.932283, "is_reserved": 0, "lon": -77.03544533333333, "fusion_lon": 0.0, "is_disabled": 0, "fusion_lat": 0.0, "bike_id": "501d00959821c635bfdd7793291b39de", "rental_uris": {"ios": "https://dc.lft.to/lastmile_qr_scan", "android": "https://dc.lft.to/lastmile_qr_scan"}}, {"name": "5ba678112d138e47127aba52ed4cf84f", "type": "electric_scooter", "lat": 38.906049333333335, "is_reserved": 0, "lon": -77.04040433333333, "fusion_lon": 0.0, "is_disabled": 0, "fusion_lat": 0.0, "bike_id": "5ba678112d138e47127aba52ed4cf84f", "rental_uris": {"ios": "https://dc.lft.to/lastmile_qr_scan", "android": "https://dc.lft.to/lastmile_qr_scan"}}, {"name": "71db75d0da18457f0aa6c4f43b7c2fc8", "type": "electric_scooter", "lat": 38.939039, "is_reserved": 0, "lon": -77.077231, "fusion_lon": 0.0, "is_disabled": 0, "fusion_lat": 0.0, "bike_id": "71db75d0da18457f0aa6c4f43b7c2fc8", "rental_uris": {"ios": "https://dc.lft.to/lastmile_qr_scan", "android": "https://dc.lft.to/lastmile_qr_scan"}}, {"name": "989a1d8884e7b9875cedfd599388fa28", "type": "electric_scooter", "lat": 38.933803166666664, "is_reserved": 0, "lon": -77.034634, "fusion_lon": 0.0, "is_disabled": 0, "fusion_lat": 0.0, "bike_id": "989a1d8884e7b9875cedfd599388fa28", "rental_uris": {"ios": "https://dc.lft.to/lastmile_qr_scan", "android": "https://dc.lft.to/lastmile_qr_scan"}}, {"name": "09609790505772e5adf03a2ec20746fa", "type": "electric_scooter", "lat": 38.8849905, "is_reserved": 0, "lon": -77.00894883333333, "fusion_lon": 0.0, "is_disabled": 0, "fusion_lat": 0.0, "bike_id": "09609790505772e5adf03a2ec20746fa", "rental_uris": {"ios": "https://dc.lft.to/lastmile_qr_scan", "android": "https://dc.lft.to/lastmile_qr_scan"}}, {"name": "fbcf28f063e01f589a16517071b23fd3", "type": "electric_bike", "lat": 38.948354333333334, "is_reserved": 0, "lon": -77.03901916666666, "fusion_lon": 0.0, "is_disabled": 0, "fusion_lat": 0.0, "bike_id": "fbcf28f063e01f589a16517071b23fd3", "rental_uris": {"ios": "https://dc.lft.to/lastmile_qr_scan", "android": "https://dc.lft.to/lastmile_qr_scan"}}, {"name": "03ce10a45899031cdea2c64b08aac64e", "type": "electric_scooter", "lat": 38.894783833333335, "is_reserved": 0, "lon": -77.03059283333333, "fusion_lon": 0.0, "is_disabled": 0, "fusion_lat": 0.0, "bike_id": "03ce10a45899031cdea2c64b08aac64e", "rental_uris": {"ios": "https://dc.lft.to/lastmile_qr_scan", "android": "https://dc.lft.to/lastmile_qr_scan"}}, {"name": "c36288996711eb8c7671e3c98aa683c8", "type": "electric_scooter", "lat": 38.90736066666667, "is_reserved": 0, "lon": -77.03462716666667, "fusion_lon": 0.0, "is_disabled": 0, "fusion_lat": 0.0, "bike_id": "c36288996711eb8c7671e3c98aa683c8", "rental_uris": {"ios": "https://dc.lft.to/lastmile_qr_scan", "android": "https://dc.lft.to/lastmile_qr_scan"}}, {"name": "46b36ded4eb4dd66eb13f1a8542cf2ed", "type": "electric_scooter", "lat": 38.91219233333333, "is_reserved": 0, "lon": -77.07599933333333, "fusion_lon": 0.0, "is_disabled": 0, "fusion_lat": 0.0, "bike_id": "46b36ded4eb4dd66eb13f1a8542cf2ed", "rental_uris": {"ios": "https://dc.lft.to/lastmile_qr_scan", "android": "https://dc.lft.to/lastmile_qr_scan"}}, {"name": "415a6edcc9aa40e1316501a7357570be", "type": "electric_scooter", "lat": 38.92868516666667, "is_reserved": 0, "lon": -77.03288283333333, "fusion_lon": 0.0, "is_disabled": 0, "fusion_lat": 0.0, "bike_id": "415a6edcc9aa40e1316501a7357570be", "rental_uris": {"ios": "https://dc.lft.to/lastmile_qr_scan", "android": "https://dc.lft.to/lastmile_qr_scan"}}, {"name": "bd9f46bfbe6d52e971771e5cfd08dd9a", "type": "electric_scooter", "lat": 38.896336166666664, "is_reserved": 0, "lon": -77.027326, "fusion_lon": 0.0, "is_disabled": 0, "fusion_lat": 0.0, "bike_id": "bd9f46bfbe6d52e971771e5cfd08dd9a", "rental_uris": {"ios": "https://dc.lft.to/lastmile_qr_scan", "android": "https://dc.lft.to/lastmile_qr_scan"}}, {"name": "fce873eb9670775bba96c6ca1e316f4c", "type": "electric_scooter", "lat": 38.91727616666667, "is_reserved": 0, "lon": -77.03662, "fusion_lon": 0.0, "is_disabled": 0, "fusion_lat": 0.0, "bike_id": "fce873eb9670775bba96c6ca1e316f4c", "rental_uris": {"ios": "https://dc.lft.to/lastmile_qr_scan", "android": "https://dc.lft.to/lastmile_qr_scan"}}, {"name": "9bc03c8bb11f1365fcdb64a6b55bb1f9", "type": "electric_bike", "lat": 38.86161883333333, "is_reserved": 0, "lon": -77.13093783333333, "fusion_lon": 0.0, "is_disabled": 0, "fusion_lat": 0.0, "bike_id": "9bc03c8bb11f1365fcdb64a6b55bb1f9", "rental_uris": {"ios": "https://dc.lft.to/lastmile_qr_scan", "android": "https://dc.lft.to/lastmile_qr_scan"}}, {"name": "f7db602531ec6841f486032302b60f30", "type": "electric_scooter", "lat": 38.90648733333333, "is_reserved": 0, "lon": -77.00587433333334, "fusion_lon": 0.0, "is_disabled": 0, "fusion_lat": 0.0, "bike_id": "f7db602531ec6841f486032302b60f30", "rental_uris": {"ios": "https://dc.lft.to/lastmile_qr_scan", "android": "https://dc.lft.to/lastmile_qr_scan"}}, {"name": "4c71ce1a1173c542c221a2d4a71bd86c", "type": "electric_scooter", "lat": 38.90576433333333, "is_reserved": 0, "lon": -77.015119, "fusion_lon": 0.0, "is_disabled": 0, "fusion_lat": 0.0, "bike_id": "4c71ce1a1173c542c221a2d4a71bd86c", "rental_uris": {"ios": "https://dc.lft.to/lastmile_qr_scan", "android": "https://dc.lft.to/lastmile_qr_scan"}}, {"name": "664ce00af15d9fb20586298a2cc264ae", "type": "electric_scooter", "lat": 38.90239966666667, "is_reserved": 0, "lon": -76.97410283333333, "fusion_lon": 0.0, "is_disabled": 0, "fusion_lat": 0.0, "bike_id": "664ce00af15d9fb20586298a2cc264ae", "rental_uris": {"ios": "https://dc.lft.to/lastmile_qr_scan", "android": "https://dc.lft.to/lastmile_qr_scan"}}, {"name": "83c036a8cf90aedf72af207ae012f65a", "type": "electric_scooter", "lat": 38.9003475, "is_reserved": 0, "lon": -77.0436415, "fusion_lon": 0.0, "is_disabled": 0, "fusion_lat": 0.0, "bike_id": "83c036a8cf90aedf72af207ae012f65a", "rental_uris": {"ios": "https://dc.lft.to/lastmile_qr_scan", "android": "https://dc.lft.to/lastmile_qr_scan"}}, {"name": "cc301d48c238e0ac485dba52f4de658e", "type": "electric_scooter", "lat": 38.9349165, "is_reserved": 0, "lon": -77.03283066666667, "fusion_lon": 0.0, "is_disabled": 0, "fusion_lat": 0.0, "bike_id": "cc301d48c238e0ac485dba52f4de658e", "rental_uris": {"ios": "https://dc.lft.to/lastmile_qr_scan", "android": "https://dc.lft.to/lastmile_qr_scan"}}, {"name": "ac107ce3e80ef033485a620d02b4e61d", "type": "electric_bike", "lat": 38.898207, "is_reserved": 0, "lon": -77.0060215, "fusion_lon": 0.0, "is_disabled": 0, "fusion_lat": 0.0, "bike_id": "ac107ce3e80ef033485a620d02b4e61d", "rental_uris": {"ios": "https://dc.lft.to/lastmile_qr_scan", "android": "https://dc.lft.to/lastmile_qr_scan"}}, {"name": "74cc35a2b990b4fe04861a936fcb3a6e", "type": "electric_scooter", "lat": 38.905199333333336, "is_reserved": 0, "lon": -77.04856366666667, "fusion_lon": 0.0, "is_disabled": 0, "fusion_lat": 0.0, "bike_id": "74cc35a2b990b4fe04861a936fcb3a6e", "rental_uris": {"ios": "https://dc.lft.to/lastmile_qr_scan", "android": "https://dc.lft.to/lastmile_qr_scan"}}, {"name": "77fb07475fb5f9e9955c5770af9ef756", "type": "electric_scooter", "lat": 38.90598983333334, "is_reserved": 0, "lon": -77.070042, "fusion_lon": 0.0, "is_disabled": 0, "fusion_lat": 0.0, "bike_id": "77fb07475fb5f9e9955c5770af9ef756", "rental_uris": {"ios": "https://dc.lft.to/lastmile_qr_scan", "android": "https://dc.lft.to/lastmile_qr_scan"}}, {"name": "baa98b1fcff7bebe9d6d828d7a4b342f", "type": "electric_scooter", "lat": 38.9295005, "is_reserved": 0, "lon": -77.02314216666667, "fusion_lon": 0.0, "is_disabled": 0, "fusion_lat": 0.0, "bike_id": "baa98b1fcff7bebe9d6d828d7a4b342f", "rental_uris": {"ios": "https://dc.lft.to/lastmile_qr_scan", "android": "https://dc.lft.to/lastmile_qr_scan"}}, {"name": "273a477c46f915f989e34cb1a05fd128", "type": "electric_scooter", "lat": 38.891858, "is_reserved": 0, "lon": -77.01531683333333, "fusion_lon": 0.0, "is_disabled": 0, "fusion_lat": 0.0, "bike_id": "273a477c46f915f989e34cb1a05fd128", "rental_uris": {"ios": "https://dc.lft.to/lastmile_qr_scan", "android": "https://dc.lft.to/lastmile_qr_scan"}}, {"name": "30df85ed4f8670e1300ea65570b5731f", "type": "electric_scooter", "lat": 38.915569166666664, "is_reserved": 0, "lon": -77.0079215, "fusion_lon": 0.0, "is_disabled": 0, "fusion_lat": 0.0, "bike_id": "30df85ed4f8670e1300ea65570b5731f", "rental_uris": {"ios": "https://dc.lft.to/lastmile_qr_scan", "android": "https://dc.lft.to/lastmile_qr_scan"}}, {"name": "4c3c624df738579221aa9a4a4442d54e", "type": "electric_scooter", "lat": 38.920977, "is_reserved": 0, "lon": -77.02594733333333, "fusion_lon": 0.0, "is_disabled": 0, "fusion_lat": 0.0, "bike_id": "4c3c624df738579221aa9a4a4442d54e", "rental_uris": {"ios": "https://dc.lft.to/lastmile_qr_scan", "android": "https://dc.lft.to/lastmile_qr_scan"}}, {"name": "4bfb9aced3613eefcb5f1da870e682e4", "type": "electric_scooter", "lat": 38.92598916666667, "is_reserved": 0, "lon": -77.004832, "fusion_lon": 0.0, "is_disabled": 0, "fusion_lat": 0.0, "bike_id": "4bfb9aced3613eefcb5f1da870e682e4", "rental_uris": {"ios": "https://dc.lft.to/lastmile_qr_scan", "android": "https://dc.lft.to/lastmile_qr_scan"}}, {"name": "a6d53ac23d507fd19bf6b85a2ec38a04", "type": "electric_scooter", "lat": 38.928806333333334, "is_reserved": 0, "lon": -77.04123516666667, "fusion_lon": 0.0, "is_disabled": 0, "fusion_lat": 0.0, "bike_id": "a6d53ac23d507fd19bf6b85a2ec38a04", "rental_uris": {"ios": "https://dc.lft.to/lastmile_qr_scan", "android": "https://dc.lft.to/lastmile_qr_scan"}}, {"name": "ec9cebd7cf5f9595c8a9d2ff6bdc36c6", "type": "electric_scooter", "lat": 38.884376833333334, "is_reserved": 0, "lon": -76.95753366666666, "fusion_lon": 0.0, "is_disabled": 0, "fusion_lat": 0.0, "bike_id": "ec9cebd7cf5f9595c8a9d2ff6bdc36c6", "rental_uris": {"ios": "https://dc.lft.to/lastmile_qr_scan", "android": "https://dc.lft.to/lastmile_qr_scan"}}, {"name": "d8d52a7a3fd83167580ff6336f38093e", "type": "electric_scooter", "lat": 38.916743333333336, "is_reserved": 0, "lon": -77.02715033333334, "fusion_lon": 0.0, "is_disabled": 0, "fusion_lat": 0.0, "bike_id": "d8d52a7a3fd83167580ff6336f38093e", "rental_uris": {"ios": "https://dc.lft.to/lastmile_qr_scan", "android": "https://dc.lft.to/lastmile_qr_scan"}}, {"name": "ba5ff8de7c9f323e7c14690d4c0a179a", "type": "electric_bike", "lat": 38.954819, "is_reserved": 0, "lon": -77.082431, "fusion_lon": 0.0, "is_disabled": 0, "fusion_lat": 0.0, "bike_id": "ba5ff8de7c9f323e7c14690d4c0a179a", "rental_uris": {"ios": "https://dc.lft.to/lastmile_qr_scan", "android": "https://dc.lft.to/lastmile_qr_scan"}}, {"name": "d93bd20c807ee6a2108684a82ca651c9", "type": "electric_scooter", "lat": 38.920650333333334, "is_reserved": 0, "lon": -77.042529, "fusion_lon": 0.0, "is_disabled": 0, "fusion_lat": 0.0, "bike_id": "d93bd20c807ee6a2108684a82ca651c9", "rental_uris": {"ios": "https://dc.lft.to/lastmile_qr_scan", "android": "https://dc.lft.to/lastmile_qr_scan"}}, {"name": "3096f2da9b7b07c5c9778022f27c03f1", "type": "electric_scooter", "lat": 38.86354583333333, "is_reserved": 0, "lon": -76.9906525, "fusion_lon": 0.0, "is_disabled": 0, "fusion_lat": 0.0, "bike_id": "3096f2da9b7b07c5c9778022f27c03f1", "rental_uris": {"ios": "https://dc.lft.to/lastmile_qr_scan", "android": "https://dc.lft.to/lastmile_qr_scan"}}, {"name": "527dcc848b0ae025ccf09578ece32784", "type": "electric_scooter", "lat": 38.92421366666667, "is_reserved": 0, "lon": -77.01946466666666, "fusion_lon": 0.0, "is_disabled": 0, "fusion_lat": 0.0, "bike_id": "527dcc848b0ae025ccf09578ece32784", "rental_uris": {"ios": "https://dc.lft.to/lastmile_qr_scan", "android": "https://dc.lft.to/lastmile_qr_scan"}}, {"name": "c0c07e03b7dead43c769d30e2e4a2886", "type": "electric_scooter", "lat": 38.89834033333333, "is_reserved": 0, "lon": -76.94636033333333, "fusion_lon": 0.0, "is_disabled": 0, "fusion_lat": 0.0, "bike_id": "c0c07e03b7dead43c769d30e2e4a2886", "rental_uris": {"ios": "https://dc.lft.to/lastmile_qr_scan", "android": "https://dc.lft.to/lastmile_qr_scan"}}, {"name": "c6c4908d3a0a29b8013d8b21c91e71e3", "type": "electric_scooter", "lat": 38.9096105, "is_reserved": 0, "lon": -77.03865033333334, "fusion_lon": 0.0, "is_disabled": 0, "fusion_lat": 0.0, "bike_id": "c6c4908d3a0a29b8013d8b21c91e71e3", "rental_uris": {"ios": "https://dc.lft.to/lastmile_qr_scan", "android": "https://dc.lft.to/lastmile_qr_scan"}}, {"name": "6e2f6da767e78e377e27330c3d7ba864", "type": "electric_scooter", "lat": 38.894929166666664, "is_reserved": 0, "lon": -77.01080683333333, "fusion_lon": 0.0, "is_disabled": 0, "fusion_lat": 0.0, "bike_id": "6e2f6da767e78e377e27330c3d7ba864", "rental_uris": {"ios": "https://dc.lft.to/lastmile_qr_scan", "android": "https://dc.lft.to/lastmile_qr_scan"}}, {"name": "3e0f1a390d015ca4ef2f7b37a07fba34", "type": "electric_scooter", "lat": 38.9002735, "is_reserved": 0, "lon": -77.0326065, "fusion_lon": 0.0, "is_disabled": 0, "fusion_lat": 0.0, "bike_id": "3e0f1a390d015ca4ef2f7b37a07fba34", "rental_uris": {"ios": "https://dc.lft.to/lastmile_qr_scan", "android": "https://dc.lft.to/lastmile_qr_scan"}}, {"name": "e9206ebacbe6930af77a868e6f8a35a3", "type": "electric_scooter", "lat": 38.904611, "is_reserved": 0, "lon": -77.0489605, "fusion_lon": 0.0, "is_disabled": 0, "fusion_lat": 0.0, "bike_id": "e9206ebacbe6930af77a868e6f8a35a3", "rental_uris": {"ios": "https://dc.lft.to/lastmile_qr_scan", "android": "https://dc.lft.to/lastmile_qr_scan"}}, {"name": "3292008fc9a00ab3f2b5ca737773de00", "type": "electric_scooter", "lat": 38.922570666666665, "is_reserved": 0, "lon": -77.0352485, "fusion_lon": 0.0, "is_disabled": 0, "fusion_lat": 0.0, "bike_id": "3292008fc9a00ab3f2b5ca737773de00", "rental_uris": {"ios": "https://dc.lft.to/lastmile_qr_scan", "android": "https://dc.lft.to/lastmile_qr_scan"}}, {"name": "f5248d457218fac00660da7ad66f0f91", "type": "electric_scooter", "lat": 38.919164, "is_reserved": 0, "lon": -77.0134685, "fusion_lon": 0.0, "is_disabled": 0, "fusion_lat": 0.0, "bike_id": "f5248d457218fac00660da7ad66f0f91", "rental_uris": {"ios": "https://dc.lft.to/lastmile_qr_scan", "android": "https://dc.lft.to/lastmile_qr_scan"}}, {"name": "39e4ce0389f13ae89ddaebb79047718a", "type": "electric_scooter", "lat": 38.90561833333334, "is_reserved": 0, "lon": -77.00608933333334, "fusion_lon": 0.0, "is_disabled": 0, "fusion_lat": 0.0, "bike_id": "39e4ce0389f13ae89ddaebb79047718a", "rental_uris": {"ios": "https://dc.lft.to/lastmile_qr_scan", "android": "https://dc.lft.to/lastmile_qr_scan"}}, {"name": "4c7b448348cbbd5595c80c0d6fcafc3e", "type": "electric_scooter", "lat": 38.902993, "is_reserved": 0, "lon": -76.99857, "fusion_lon": 0.0, "is_disabled": 0, "fusion_lat": 0.0, "bike_id": "4c7b448348cbbd5595c80c0d6fcafc3e", "rental_uris": {"ios": "https://dc.lft.to/lastmile_qr_scan", "android": "https://dc.lft.to/lastmile_qr_scan"}}, {"name": "19bf4142cda7121f5d1e4dc09a6590e3", "type": "electric_scooter", "lat": 38.9331005, "is_reserved": 0, "lon": -77.0307935, "fusion_lon": 0.0, "is_disabled": 0, "fusion_lat": 0.0, "bike_id": "19bf4142cda7121f5d1e4dc09a6590e3", "rental_uris": {"ios": "https://dc.lft.to/lastmile_qr_scan", "android": "https://dc.lft.to/lastmile_qr_scan"}}, {"name": "7ecd3cb1f5fb361824bd2f54bd40e710", "type": "electric_scooter", "lat": 38.904508, "is_reserved": 0, "lon": -76.996239, "fusion_lon": 0.0, "is_disabled": 0, "fusion_lat": 0.0, "bike_id": "7ecd3cb1f5fb361824bd2f54bd40e710", "rental_uris": {"ios": "https://dc.lft.to/lastmile_qr_scan", "android": "https://dc.lft.to/lastmile_qr_scan"}}, {"name": "1dbfbe2867dc0d9c4814e87e5443d22e", "type": "electric_scooter", "lat": 38.856210833333336, "is_reserved": 0, "lon": -76.98018333333333, "fusion_lon": 0.0, "is_disabled": 0, "fusion_lat": 0.0, "bike_id": "1dbfbe2867dc0d9c4814e87e5443d22e", "rental_uris": {"ios": "https://dc.lft.to/lastmile_qr_scan", "android": "https://dc.lft.to/lastmile_qr_scan"}}, {"name": "42dd2217497fe08ac586653ecdffac2b", "type": "electric_scooter", "lat": 38.87634516666667, "is_reserved": 0, "lon": -76.96525016666666, "fusion_lon": 0.0, "is_disabled": 0, "fusion_lat": 0.0, "bike_id": "42dd2217497fe08ac586653ecdffac2b", "rental_uris": {"ios": "https://dc.lft.to/lastmile_qr_scan", "android": "https://dc.lft.to/lastmile_qr_scan"}}, {"name": "7c64cdf65f209b70901a8fd4655141a6", "type": "electric_scooter", "lat": 38.89586416666667, "is_reserved": 0, "lon": -76.93721633333334, "fusion_lon": 0.0, "is_disabled": 0, "fusion_lat": 0.0, "bike_id": "7c64cdf65f209b70901a8fd4655141a6", "rental_uris": {"ios": "https://dc.lft.to/lastmile_qr_scan", "android": "https://dc.lft.to/lastmile_qr_scan"}}, {"name": "d570238b472c9838412f479dfd0838bb", "type": "electric_scooter", "lat": 38.842953666666666, "is_reserved": 0, "lon": -76.99948266666667, "fusion_lon": 0.0, "is_disabled": 0, "fusion_lat": 0.0, "bike_id": "d570238b472c9838412f479dfd0838bb", "rental_uris": {"ios": "https://dc.lft.to/lastmile_qr_scan", "android": "https://dc.lft.to/lastmile_qr_scan"}}, {"name": "149164bbbcd0d6307c09ba92f0435f74", "type": "electric_scooter", "lat": 38.8947675, "is_reserved": 0, "lon": -77.02135716666666, "fusion_lon": 0.0, "is_disabled": 0, "fusion_lat": 0.0, "bike_id": "149164bbbcd0d6307c09ba92f0435f74", "rental_uris": {"ios": "https://dc.lft.to/lastmile_qr_scan", "android": "https://dc.lft.to/lastmile_qr_scan"}}, {"name": "c7f855d5576cd55f655bdfff9f950c8f", "type": "electric_bike", "lat": 38.87426683333333, "is_reserved": 0, "lon": -77.08569816666666, "fusion_lon": 0.0, "is_disabled": 0, "fusion_lat": 0.0, "bike_id": "c7f855d5576cd55f655bdfff9f950c8f", "rental_uris": {"ios": "https://dc.lft.to/lastmile_qr_scan", "android": "https://dc.lft.to/lastmile_qr_scan"}}, {"name": "1c784df95a21296a6757b4217b29ee9c", "type": "electric_scooter", "lat": 38.878415, "is_reserved": 0, "lon": -76.99041166666666, "fusion_lon": 0.0, "is_disabled": 0, "fusion_lat": 0.0, "bike_id": "1c784df95a21296a6757b4217b29ee9c", "rental_uris": {"ios": "https://dc.lft.to/lastmile_qr_scan", "android": "https://dc.lft.to/lastmile_qr_scan"}}, {"name": "158ece1d0cea97853723c70b7d31ff8f", "type": "electric_scooter", "lat": 38.87892083333333, "is_reserved": 0, "lon": -76.99162166666666, "fusion_lon": 0.0, "is_disabled": 0, "fusion_lat": 0.0, "bike_id": "158ece1d0cea97853723c70b7d31ff8f", "rental_uris": {"ios": "https://dc.lft.to/lastmile_qr_scan", "android": "https://dc.lft.to/lastmile_qr_scan"}}, {"name": "8c4c7c6ce341936adf0c72c6aa645741", "type": "electric_scooter", "lat": 38.903212, "is_reserved": 0, "lon": -77.03465016666667, "fusion_lon": 0.0, "is_disabled": 0, "fusion_lat": 0.0, "bike_id": "8c4c7c6ce341936adf0c72c6aa645741", "rental_uris": {"ios": "https://dc.lft.to/lastmile_qr_scan", "android": "https://dc.lft.to/lastmile_qr_scan"}}, {"name": "af1c518a2c82cf21731fb6c641bf98f4", "type": "electric_scooter", "lat": 38.88221933333333, "is_reserved": 0, "lon": -76.941879, "fusion_lon": 0.0, "is_disabled": 0, "fusion_lat": 0.0, "bike_id": "af1c518a2c82cf21731fb6c641bf98f4", "rental_uris": {"ios": "https://dc.lft.to/lastmile_qr_scan", "android": "https://dc.lft.to/lastmile_qr_scan"}}, {"name": "27749b02a9c9c288fe34a1e891192fe8", "type": "electric_scooter", "lat": 38.9312625, "is_reserved": 0, "lon": -77.03822633333333, "fusion_lon": 0.0, "is_disabled": 0, "fusion_lat": 0.0, "bike_id": "27749b02a9c9c288fe34a1e891192fe8", "rental_uris": {"ios": "https://dc.lft.to/lastmile_qr_scan", "android": "https://dc.lft.to/lastmile_qr_scan"}}, {"name": "5c2766885ad123e3d0ac135664f024b4", "type": "electric_scooter", "lat": 38.90336033333333, "is_reserved": 0, "lon": -76.98975366666667, "fusion_lon": 0.0, "is_disabled": 0, "fusion_lat": 0.0, "bike_id": "5c2766885ad123e3d0ac135664f024b4", "rental_uris": {"ios": "https://dc.lft.to/lastmile_qr_scan", "android": "https://dc.lft.to/lastmile_qr_scan"}}, {"name": "a6efff2373a34e50cb0111036a7c92b7", "type": "electric_scooter", "lat": 38.886117666666664, "is_reserved": 0, "lon": -76.99511883333334, "fusion_lon": 0.0, "is_disabled": 0, "fusion_lat": 0.0, "bike_id": "a6efff2373a34e50cb0111036a7c92b7", "rental_uris": {"ios": "https://dc.lft.to/lastmile_qr_scan", "android": "https://dc.lft.to/lastmile_qr_scan"}}, {"name": "cefac9ac526b88b85f842eba5156d4c4", "type": "electric_scooter", "lat": 38.91965583333333, "is_reserved": 0, "lon": -77.03221, "fusion_lon": 0.0, "is_disabled": 0, "fusion_lat": 0.0, "bike_id": "cefac9ac526b88b85f842eba5156d4c4", "rental_uris": {"ios": "https://dc.lft.to/lastmile_qr_scan", "android": "https://dc.lft.to/lastmile_qr_scan"}}, {"name": "8d1e1d0c1c9af3d00ee6036fcd0ed2fb", "type": "electric_scooter", "lat": 38.89826516666667, "is_reserved": 0, "lon": -77.03311833333333, "fusion_lon": 0.0, "is_disabled": 0, "fusion_lat": 0.0, "bike_id": "8d1e1d0c1c9af3d00ee6036fcd0ed2fb", "rental_uris": {"ios": "https://dc.lft.to/lastmile_qr_scan", "android": "https://dc.lft.to/lastmile_qr_scan"}}, {"name": "665f1bd3c9a839188cff3967bea02cee", "type": "electric_scooter", "lat": 38.894826333333334, "is_reserved": 0, "lon": -77.02154633333333, "fusion_lon": 0.0, "is_disabled": 0, "fusion_lat": 0.0, "bike_id": "665f1bd3c9a839188cff3967bea02cee", "rental_uris": {"ios": "https://dc.lft.to/lastmile_qr_scan", "android": "https://dc.lft.to/lastmile_qr_scan"}}, {"name": "db69f2b5063a6692c3fbad11b638cb8b", "type": "electric_scooter", "lat": 38.907076333333336, "is_reserved": 0, "lon": -77.01017, "fusion_lon": 0.0, "is_disabled": 0, "fusion_lat": 0.0, "bike_id": "db69f2b5063a6692c3fbad11b638cb8b", "rental_uris": {"ios": "https://dc.lft.to/lastmile_qr_scan", "android": "https://dc.lft.to/lastmile_qr_scan"}}, {"name": "df70c95359be70d11392b758dc12c7ca", "type": "electric_scooter", "lat": 38.90285266666667, "is_reserved": 0, "lon": -77.038543, "fusion_lon": 0.0, "is_disabled": 0, "fusion_lat": 0.0, "bike_id": "df70c95359be70d11392b758dc12c7ca", "rental_uris": {"ios": "https://dc.lft.to/lastmile_qr_scan", "android": "https://dc.lft.to/lastmile_qr_scan"}}, {"name": "e68b1f889e752cca12ee2171485d5b79", "type": "electric_scooter", "lat": 38.898389333333334, "is_reserved": 0, "lon": -77.033177, "fusion_lon": 0.0, "is_disabled": 0, "fusion_lat": 0.0, "bike_id": "e68b1f889e752cca12ee2171485d5b79", "rental_uris": {"ios": "https://dc.lft.to/lastmile_qr_scan", "android": "https://dc.lft.to/lastmile_qr_scan"}}, {"name": "6cb85bb5a3af94fd2a1b0549fa208f2e", "type": "electric_scooter", "lat": 38.918919333333335, "is_reserved": 0, "lon": -77.019691, "fusion_lon": 0.0, "is_disabled": 0, "fusion_lat": 0.0, "bike_id": "6cb85bb5a3af94fd2a1b0549fa208f2e", "rental_uris": {"ios": "https://dc.lft.to/lastmile_qr_scan", "android": "https://dc.lft.to/lastmile_qr_scan"}}, {"name": "1902afe30d37641b825c47f4c15d995c", "type": "electric_scooter", "lat": 38.94958416666667, "is_reserved": 0, "lon": -77.02722866666667, "fusion_lon": 0.0, "is_disabled": 0, "fusion_lat": 0.0, "bike_id": "1902afe30d37641b825c47f4c15d995c", "rental_uris": {"ios": "https://dc.lft.to/lastmile_qr_scan", "android": "https://dc.lft.to/lastmile_qr_scan"}}, {"name": "ca0bf23a8800067717b764072dc2f6c1", "type": "electric_scooter", "lat": 38.900234166666664, "is_reserved": 0, "lon": -77.01132433333333, "fusion_lon": 0.0, "is_disabled": 0, "fusion_lat": 0.0, "bike_id": "ca0bf23a8800067717b764072dc2f6c1", "rental_uris": {"ios": "https://dc.lft.to/lastmile_qr_scan", "android": "https://dc.lft.to/lastmile_qr_scan"}}, {"name": "ccb41682c56ac8676de2833138457c8a", "type": "electric_scooter", "lat": 38.877798166666665, "is_reserved": 0, "lon": -77.00364816666666, "fusion_lon": 0.0, "is_disabled": 0, "fusion_lat": 0.0, "bike_id": "ccb41682c56ac8676de2833138457c8a", "rental_uris": {"ios": "https://dc.lft.to/lastmile_qr_scan", "android": "https://dc.lft.to/lastmile_qr_scan"}}, {"name": "76a3e4cbb9d32a14c42d978781bb7525", "type": "electric_scooter", "lat": 38.876448, "is_reserved": 0, "lon": -76.9959, "fusion_lon": 0.0, "is_disabled": 0, "fusion_lat": 0.0, "bike_id": "76a3e4cbb9d32a14c42d978781bb7525", "rental_uris": {"ios": "https://dc.lft.to/lastmile_qr_scan", "android": "https://dc.lft.to/lastmile_qr_scan"}}, {"name": "c6e26af72e9274af3bd9a6221953cc14", "type": "electric_scooter", "lat": 38.884278333333334, "is_reserved": 0, "lon": -76.99703, "fusion_lon": 0.0, "is_disabled": 0, "fusion_lat": 0.0, "bike_id": "c6e26af72e9274af3bd9a6221953cc14", "rental_uris": {"ios": "https://dc.lft.to/lastmile_qr_scan", "android": "https://dc.lft.to/lastmile_qr_scan"}}, {"name": "c5a02d00f94230b0f52f2b694b72ff0a", "type": "electric_scooter", "lat": 38.88716483333333, "is_reserved": 0, "lon": -77.01777116666666, "fusion_lon": 0.0, "is_disabled": 0, "fusion_lat": 0.0, "bike_id": "c5a02d00f94230b0f52f2b694b72ff0a", "rental_uris": {"ios": "https://dc.lft.to/lastmile_qr_scan", "android": "https://dc.lft.to/lastmile_qr_scan"}}, {"name": "a9fc2f204d9b1cee08a5ee1f576bb0bc", "type": "electric_scooter", "lat": 38.9068935, "is_reserved": 0, "lon": -77.0091605, "fusion_lon": 0.0, "is_disabled": 0, "fusion_lat": 0.0, "bike_id": "a9fc2f204d9b1cee08a5ee1f576bb0bc", "rental_uris": {"ios": "https://dc.lft.to/lastmile_qr_scan", "android": "https://dc.lft.to/lastmile_qr_scan"}}, {"name": "3dab1cc3473c674b75c4d282e7ac66d1", "type": "electric_scooter", "lat": 38.927435833333334, "is_reserved": 0, "lon": -77.05373066666667, "fusion_lon": 0.0, "is_disabled": 0, "fusion_lat": 0.0, "bike_id": "3dab1cc3473c674b75c4d282e7ac66d1", "rental_uris": {"ios": "https://dc.lft.to/lastmile_qr_scan", "android": "https://dc.lft.to/lastmile_qr_scan"}}, {"name": "a6ed4a3328417bcac7d29df62a48d621", "type": "electric_scooter", "lat": 38.935163, "is_reserved": 0, "lon": -77.0329265, "fusion_lon": 0.0, "is_disabled": 0, "fusion_lat": 0.0, "bike_id": "a6ed4a3328417bcac7d29df62a48d621", "rental_uris": {"ios": "https://dc.lft.to/lastmile_qr_scan", "android": "https://dc.lft.to/lastmile_qr_scan"}}, {"name": "cdced51de2bd335ceab0bbae587e1e75", "type": "electric_scooter", "lat": 38.883776833333336, "is_reserved": 0, "lon": -77.0195175, "fusion_lon": 0.0, "is_disabled": 0, "fusion_lat": 0.0, "bike_id": "cdced51de2bd335ceab0bbae587e1e75", "rental_uris": {"ios": "https://dc.lft.to/lastmile_qr_scan", "android": "https://dc.lft.to/lastmile_qr_scan"}}, {"name": "cf86895ebb541a1a266d79db20fd1e69", "type": "electric_scooter", "lat": 38.924216333333334, "is_reserved": 0, "lon": -77.0194945, "fusion_lon": 0.0, "is_disabled": 0, "fusion_lat": 0.0, "bike_id": "cf86895ebb541a1a266d79db20fd1e69", "rental_uris": {"ios": "https://dc.lft.to/lastmile_qr_scan", "android": "https://dc.lft.to/lastmile_qr_scan"}}, {"name": "0fdbd1b0594f8aad9cfd42bd280f62a8", "type": "electric_scooter", "lat": 38.90280833333333, "is_reserved": 0, "lon": -77.03856883333333, "fusion_lon": 0.0, "is_disabled": 0, "fusion_lat": 0.0, "bike_id": "0fdbd1b0594f8aad9cfd42bd280f62a8", "rental_uris": {"ios": "https://dc.lft.to/lastmile_qr_scan", "android": "https://dc.lft.to/lastmile_qr_scan"}}, {"name": "bc3789fd6becc3deb53a7ed1a06b29d0", "type": "electric_scooter", "lat": 38.9128325, "is_reserved": 0, "lon": -77.02971433333333, "fusion_lon": 0.0, "is_disabled": 0, "fusion_lat": 0.0, "bike_id": "bc3789fd6becc3deb53a7ed1a06b29d0", "rental_uris": {"ios": "https://dc.lft.to/lastmile_qr_scan", "android": "https://dc.lft.to/lastmile_qr_scan"}}, {"name": "d2b1e796de05e9b9d77fa1e61108c3b5", "type": "electric_scooter", "lat": 38.90273083333334, "is_reserved": 0, "lon": -77.03439966666667, "fusion_lon": 0.0, "is_disabled": 0, "fusion_lat": 0.0, "bike_id": "d2b1e796de05e9b9d77fa1e61108c3b5", "rental_uris": {"ios": "https://dc.lft.to/lastmile_qr_scan", "android": "https://dc.lft.to/lastmile_qr_scan"}}, {"name": "81ecd9c046cb4399b5981745c192f709", "type": "electric_scooter", "lat": 38.97519483333333, "is_reserved": 0, "lon": -77.01736266666667, "fusion_lon": 0.0, "is_disabled": 0, "fusion_lat": 0.0, "bike_id": "81ecd9c046cb4399b5981745c192f709", "rental_uris": {"ios": "https://dc.lft.to/lastmile_qr_scan", "android": "https://dc.lft.to/lastmile_qr_scan"}}, {"name": "c1f33125474b1aa2642784bb7e67a540", "type": "electric_scooter", "lat": 38.90531, "is_reserved": 0, "lon": -77.063824, "fusion_lon": 0.0, "is_disabled": 0, "fusion_lat": 0.0, "bike_id": "c1f33125474b1aa2642784bb7e67a540", "rental_uris": {"ios": "https://dc.lft.to/lastmile_qr_scan", "android": "https://dc.lft.to/lastmile_qr_scan"}}, {"name": "3fdbb2d1d0425dc1d56707849d081be6", "type": "electric_scooter", "lat": 38.904734166666664, "is_reserved": 0, "lon": -77.04163533333333, "fusion_lon": 0.0, "is_disabled": 0, "fusion_lat": 0.0, "bike_id": "3fdbb2d1d0425dc1d56707849d081be6", "rental_uris": {"ios": "https://dc.lft.to/lastmile_qr_scan", "android": "https://dc.lft.to/lastmile_qr_scan"}}, {"name": "14bf444d783fc911b4dc7726be97b7db", "type": "electric_bike", "lat": 38.8524765, "is_reserved": 0, "lon": -77.11426, "fusion_lon": 0.0, "is_disabled": 0, "fusion_lat": 0.0, "bike_id": "14bf444d783fc911b4dc7726be97b7db", "rental_uris": {"ios": "https://dc.lft.to/lastmile_qr_scan", "android": "https://dc.lft.to/lastmile_qr_scan"}}, {"name": "2e45b953fda1868cd5289a2738908813", "type": "electric_scooter", "lat": 38.8995355, "is_reserved": 0, "lon": -77.02994616666666, "fusion_lon": 0.0, "is_disabled": 0, "fusion_lat": 0.0, "bike_id": "2e45b953fda1868cd5289a2738908813", "rental_uris": {"ios": "https://dc.lft.to/lastmile_qr_scan", "android": "https://dc.lft.to/lastmile_qr_scan"}}, {"name": "c40fa46704462407e378c130831c6683", "type": "electric_scooter", "lat": 38.84295133333333, "is_reserved": 0, "lon": -76.9994685, "fusion_lon": 0.0, "is_disabled": 0, "fusion_lat": 0.0, "bike_id": "c40fa46704462407e378c130831c6683", "rental_uris": {"ios": "https://dc.lft.to/lastmile_qr_scan", "android": "https://dc.lft.to/lastmile_qr_scan"}}, {"name": "df75981787d7da4d7804baccc5125b6a", "type": "electric_scooter", "lat": 38.90112383333334, "is_reserved": 0, "lon": -77.04988766666666, "fusion_lon": 0.0, "is_disabled": 0, "fusion_lat": 0.0, "bike_id": "df75981787d7da4d7804baccc5125b6a", "rental_uris": {"ios": "https://dc.lft.to/lastmile_qr_scan", "android": "https://dc.lft.to/lastmile_qr_scan"}}, {"name": "c9e16f52b6e89092153307a00e69bdaf", "type": "electric_scooter", "lat": 38.89482183333333, "is_reserved": 0, "lon": -77.05006716666666, "fusion_lon": 0.0, "is_disabled": 0, "fusion_lat": 0.0, "bike_id": "c9e16f52b6e89092153307a00e69bdaf", "rental_uris": {"ios": "https://dc.lft.to/lastmile_qr_scan", "android": "https://dc.lft.to/lastmile_qr_scan"}}, {"name": "a04c432629414ac79ebd0d7f2b09058b", "type": "electric_bike", "lat": 38.903400166666664, "is_reserved": 0, "lon": -77.04490366666667, "fusion_lon": 0.0, "is_disabled": 0, "fusion_lat": 0.0, "bike_id": "a04c432629414ac79ebd0d7f2b09058b", "rental_uris": {"ios": "https://dc.lft.to/lastmile_qr_scan", "android": "https://dc.lft.to/lastmile_qr_scan"}}, {"name": "10747d79e4e18b2d462f9c0490c7c021", "type": "electric_scooter", "lat": 38.903281666666665, "is_reserved": 0, "lon": -77.02511833333334, "fusion_lon": 0.0, "is_disabled": 0, "fusion_lat": 0.0, "bike_id": "10747d79e4e18b2d462f9c0490c7c021", "rental_uris": {"ios": "https://dc.lft.to/lastmile_qr_scan", "android": "https://dc.lft.to/lastmile_qr_scan"}}, {"name": "f612c94a201f93e499246ed14be8d7be", "type": "electric_scooter", "lat": 38.932493, "is_reserved": 0, "lon": -77.03276166666667, "fusion_lon": 0.0, "is_disabled": 0, "fusion_lat": 0.0, "bike_id": "f612c94a201f93e499246ed14be8d7be", "rental_uris": {"ios": "https://dc.lft.to/lastmile_qr_scan", "android": "https://dc.lft.to/lastmile_qr_scan"}}, {"name": "4fc7d95a906a03907a9ac20409f8c521", "type": "electric_scooter", "lat": 38.93977733333333, "is_reserved": 0, "lon": -77.03592733333333, "fusion_lon": 0.0, "is_disabled": 0, "fusion_lat": 0.0, "bike_id": "4fc7d95a906a03907a9ac20409f8c521", "rental_uris": {"ios": "https://dc.lft.to/lastmile_qr_scan", "android": "https://dc.lft.to/lastmile_qr_scan"}}, {"name": "d2685bf3c15ca644dd4b39446baaeb5a", "type": "electric_scooter", "lat": 38.91054066666667, "is_reserved": 0, "lon": -77.03197583333333, "fusion_lon": 0.0, "is_disabled": 0, "fusion_lat": 0.0, "bike_id": "d2685bf3c15ca644dd4b39446baaeb5a", "rental_uris": {"ios": "https://dc.lft.to/lastmile_qr_scan", "android": "https://dc.lft.to/lastmile_qr_scan"}}, {"name": "cb622bf5899c60d726bed53ecdf7fb22", "type": "electric_scooter", "lat": 38.862046666666664, "is_reserved": 0, "lon": -76.99466133333334, "fusion_lon": 0.0, "is_disabled": 0, "fusion_lat": 0.0, "bike_id": "cb622bf5899c60d726bed53ecdf7fb22", "rental_uris": {"ios": "https://dc.lft.to/lastmile_qr_scan", "android": "https://dc.lft.to/lastmile_qr_scan"}}, {"name": "576b8686300e3ed80fa10045952df040", "type": "electric_scooter", "lat": 38.89987466666667, "is_reserved": 0, "lon": -77.01179616666667, "fusion_lon": 0.0, "is_disabled": 0, "fusion_lat": 0.0, "bike_id": "576b8686300e3ed80fa10045952df040", "rental_uris": {"ios": "https://dc.lft.to/lastmile_qr_scan", "android": "https://dc.lft.to/lastmile_qr_scan"}}, {"name": "fb8b696e836978e238c18b8d75a6f23e", "type": "electric_scooter", "lat": 38.87735683333333, "is_reserved": 0, "lon": -76.97283616666667, "fusion_lon": 0.0, "is_disabled": 0, "fusion_lat": 0.0, "bike_id": "fb8b696e836978e238c18b8d75a6f23e", "rental_uris": {"ios": "https://dc.lft.to/lastmile_qr_scan", "android": "https://dc.lft.to/lastmile_qr_scan"}}, {"name": "ddee8ee38789304ccb4fc5b14546b040", "type": "electric_scooter", "lat": 38.94839183333333, "is_reserved": 0, "lon": -77.025517, "fusion_lon": 0.0, "is_disabled": 0, "fusion_lat": 0.0, "bike_id": "ddee8ee38789304ccb4fc5b14546b040", "rental_uris": {"ios": "https://dc.lft.to/lastmile_qr_scan", "android": "https://dc.lft.to/lastmile_qr_scan"}}, {"name": "d2e5d78bdaa4501abd1e5c729348ef5b", "type": "electric_scooter", "lat": 38.9349845, "is_reserved": 0, "lon": -77.027219, "fusion_lon": 0.0, "is_disabled": 0, "fusion_lat": 0.0, "bike_id": "d2e5d78bdaa4501abd1e5c729348ef5b", "rental_uris": {"ios": "https://dc.lft.to/lastmile_qr_scan", "android": "https://dc.lft.to/lastmile_qr_scan"}}, {"name": "c78792fa30a2f71c4110fba8d5d9ab33", "type": "electric_scooter", "lat": 38.86657233333333, "is_reserved": 0, "lon": -76.98882866666666, "fusion_lon": 0.0, "is_disabled": 0, "fusion_lat": 0.0, "bike_id": "c78792fa30a2f71c4110fba8d5d9ab33", "rental_uris": {"ios": "https://dc.lft.to/lastmile_qr_scan", "android": "https://dc.lft.to/lastmile_qr_scan"}}, {"name": "ce65af6092e6a18722f9902ea3827173", "type": "electric_scooter", "lat": 38.88722283333333, "is_reserved": 0, "lon": -77.02580566666667, "fusion_lon": 0.0, "is_disabled": 0, "fusion_lat": 0.0, "bike_id": "ce65af6092e6a18722f9902ea3827173", "rental_uris": {"ios": "https://dc.lft.to/lastmile_qr_scan", "android": "https://dc.lft.to/lastmile_qr_scan"}}, {"name": "578d0e40f810ff5a2af1ecf71aeb5891", "type": "electric_bike", "lat": 38.95268383333333, "is_reserved": 0, "lon": -77.069917, "fusion_lon": 0.0, "is_disabled": 0, "fusion_lat": 0.0, "bike_id": "578d0e40f810ff5a2af1ecf71aeb5891", "rental_uris": {"ios": "https://dc.lft.to/lastmile_qr_scan", "android": "https://dc.lft.to/lastmile_qr_scan"}}, {"name": "29d99ace73d453f283dfc560d1961b3c", "type": "electric_scooter", "lat": 38.9011555, "is_reserved": 0, "lon": -77.03185933333333, "fusion_lon": 0.0, "is_disabled": 0, "fusion_lat": 0.0, "bike_id": "29d99ace73d453f283dfc560d1961b3c", "rental_uris": {"ios": "https://dc.lft.to/lastmile_qr_scan", "android": "https://dc.lft.to/lastmile_qr_scan"}}, {"name": "89e92ac794bdcb7da4135f76a9799c56", "type": "electric_scooter", "lat": 38.902465166666666, "is_reserved": 0, "lon": -77.03342383333333, "fusion_lon": 0.0, "is_disabled": 0, "fusion_lat": 0.0, "bike_id": "89e92ac794bdcb7da4135f76a9799c56", "rental_uris": {"ios": "https://dc.lft.to/lastmile_qr_scan", "android": "https://dc.lft.to/lastmile_qr_scan"}}, {"name": "1095082b485d362f8c534c0204606a2e", "type": "electric_scooter", "lat": 38.89383683333333, "is_reserved": 0, "lon": -77.02999383333334, "fusion_lon": 0.0, "is_disabled": 0, "fusion_lat": 0.0, "bike_id": "1095082b485d362f8c534c0204606a2e", "rental_uris": {"ios": "https://dc.lft.to/lastmile_qr_scan", "android": "https://dc.lft.to/lastmile_qr_scan"}}, {"name": "0d238384d0dc8cc0a5e0f03f973a5dc4", "type": "electric_scooter", "lat": 38.92514966666667, "is_reserved": 0, "lon": -77.0193405, "fusion_lon": 0.0, "is_disabled": 0, "fusion_lat": 0.0, "bike_id": "0d238384d0dc8cc0a5e0f03f973a5dc4", "rental_uris": {"ios": "https://dc.lft.to/lastmile_qr_scan", "android": "https://dc.lft.to/lastmile_qr_scan"}}, {"name": "e3a65af28979c70bc7d7306799fc2df5", "type": "electric_scooter", "lat": 38.86523666666667, "is_reserved": 0, "lon": -76.99025383333333, "fusion_lon": 0.0, "is_disabled": 0, "fusion_lat": 0.0, "bike_id": "e3a65af28979c70bc7d7306799fc2df5", "rental_uris": {"ios": "https://dc.lft.to/lastmile_qr_scan", "android": "https://dc.lft.to/lastmile_qr_scan"}}, {"name": "ad43613ff7ee301eebc59651366984f7", "type": "electric_scooter", "lat": 38.92747166666667, "is_reserved": 0, "lon": -77.03260683333333, "fusion_lon": 0.0, "is_disabled": 0, "fusion_lat": 0.0, "bike_id": "ad43613ff7ee301eebc59651366984f7", "rental_uris": {"ios": "https://dc.lft.to/lastmile_qr_scan", "android": "https://dc.lft.to/lastmile_qr_scan"}}, {"name": "d4f89b2b3fa8b14115e24dbe205a8252", "type": "electric_scooter", "lat": 38.901506166666664, "is_reserved": 0, "lon": -77.02853316666666, "fusion_lon": 0.0, "is_disabled": 0, "fusion_lat": 0.0, "bike_id": "d4f89b2b3fa8b14115e24dbe205a8252", "rental_uris": {"ios": "https://dc.lft.to/lastmile_qr_scan", "android": "https://dc.lft.to/lastmile_qr_scan"}}, {"name": "89f8395ac942c431322f77bca171ef6c", "type": "electric_scooter", "lat": 38.911118333333334, "is_reserved": 0, "lon": -77.037402, "fusion_lon": 0.0, "is_disabled": 0, "fusion_lat": 0.0, "bike_id": "89f8395ac942c431322f77bca171ef6c", "rental_uris": {"ios": "https://dc.lft.to/lastmile_qr_scan", "android": "https://dc.lft.to/lastmile_qr_scan"}}, {"name": "22221d34436f27ec7853609ce1575a83", "type": "electric_scooter", "lat": 38.922485333333334, "is_reserved": 0, "lon": -77.0433365, "fusion_lon": 0.0, "is_disabled": 0, "fusion_lat": 0.0, "bike_id": "22221d34436f27ec7853609ce1575a83", "rental_uris": {"ios": "https://dc.lft.to/lastmile_qr_scan", "android": "https://dc.lft.to/lastmile_qr_scan"}}, {"name": "910b749e0a86a9f5b4f30aefa73a917b", "type": "electric_scooter", "lat": 38.86372633333333, "is_reserved": 0, "lon": -76.99058033333333, "fusion_lon": 0.0, "is_disabled": 0, "fusion_lat": 0.0, "bike_id": "910b749e0a86a9f5b4f30aefa73a917b", "rental_uris": {"ios": "https://dc.lft.to/lastmile_qr_scan", "android": "https://dc.lft.to/lastmile_qr_scan"}}, {"name": "bb228b24d8db2f7697b298086eaa296f", "type": "electric_bike", "lat": 38.862868166666665, "is_reserved": 0, "lon": -77.063699, "fusion_lon": 0.0, "is_disabled": 0, "fusion_lat": 0.0, "bike_id": "bb228b24d8db2f7697b298086eaa296f", "rental_uris": {"ios": "https://dc.lft.to/lastmile_qr_scan", "android": "https://dc.lft.to/lastmile_qr_scan"}}, {"name": "5b5c07a16954a4c316697e2c13c3eddc", "type": "electric_scooter", "lat": 38.8983305, "is_reserved": 0, "lon": -76.94637483333334, "fusion_lon": 0.0, "is_disabled": 0, "fusion_lat": 0.0, "bike_id": "5b5c07a16954a4c316697e2c13c3eddc", "rental_uris": {"ios": "https://dc.lft.to/lastmile_qr_scan", "android": "https://dc.lft.to/lastmile_qr_scan"}}, {"name": "f0f00e1a811bf695fc81106e55221993", "type": "electric_scooter", "lat": 38.909494333333335, "is_reserved": 0, "lon": -77.04663116666667, "fusion_lon": 0.0, "is_disabled": 0, "fusion_lat": 0.0, "bike_id": "f0f00e1a811bf695fc81106e55221993", "rental_uris": {"ios": "https://dc.lft.to/lastmile_qr_scan", "android": "https://dc.lft.to/lastmile_qr_scan"}}, {"name": "d86653ac8be816446eb7779599931de1", "type": "electric_scooter", "lat": 38.920009666666665, "is_reserved": 0, "lon": -76.95814333333334, "fusion_lon": 0.0, "is_disabled": 0, "fusion_lat": 0.0, "bike_id": "d86653ac8be816446eb7779599931de1", "rental_uris": {"ios": "https://dc.lft.to/lastmile_qr_scan", "android": "https://dc.lft.to/lastmile_qr_scan"}}, {"name": "a25117149c3688f2004748d7bf586bc1", "type": "electric_scooter", "lat": 38.89014133333333, "is_reserved": 0, "lon": -76.9373345, "fusion_lon": 0.0, "is_disabled": 0, "fusion_lat": 0.0, "bike_id": "a25117149c3688f2004748d7bf586bc1", "rental_uris": {"ios": "https://dc.lft.to/lastmile_qr_scan", "android": "https://dc.lft.to/lastmile_qr_scan"}}, {"name": "00ef1578da02e88ad408f8226ddb528d", "type": "electric_scooter", "lat": 38.96234616666667, "is_reserved": 0, "lon": -77.02974033333334, "fusion_lon": 0.0, "is_disabled": 0, "fusion_lat": 0.0, "bike_id": "00ef1578da02e88ad408f8226ddb528d", "rental_uris": {"ios": "https://dc.lft.to/lastmile_qr_scan", "android": "https://dc.lft.to/lastmile_qr_scan"}}, {"name": "af6392a2125be27db7a163b3203fc34c", "type": "electric_scooter", "lat": 38.90404316666667, "is_reserved": 0, "lon": -77.04464866666666, "fusion_lon": 0.0, "is_disabled": 0, "fusion_lat": 0.0, "bike_id": "af6392a2125be27db7a163b3203fc34c", "rental_uris": {"ios": "https://dc.lft.to/lastmile_qr_scan", "android": "https://dc.lft.to/lastmile_qr_scan"}}, {"name": "5075a0674b063a73210d580035ec7729", "type": "electric_scooter", "lat": 38.90287333333333, "is_reserved": 0, "lon": -77.03388166666667, "fusion_lon": 0.0, "is_disabled": 0, "fusion_lat": 0.0, "bike_id": "5075a0674b063a73210d580035ec7729", "rental_uris": {"ios": "https://dc.lft.to/lastmile_qr_scan", "android": "https://dc.lft.to/lastmile_qr_scan"}}, {"name": "e5df072e9fe9b84b10ac9a706405270d", "type": "electric_scooter", "lat": 38.92375, "is_reserved": 0, "lon": -77.02121683333333, "fusion_lon": 0.0, "is_disabled": 0, "fusion_lat": 0.0, "bike_id": "e5df072e9fe9b84b10ac9a706405270d", "rental_uris": {"ios": "https://dc.lft.to/lastmile_qr_scan", "android": "https://dc.lft.to/lastmile_qr_scan"}}, {"name": "343b3f72f437f535a1f55eb515460689", "type": "electric_scooter", "lat": 38.912567, "is_reserved": 0, "lon": -77.009297, "fusion_lon": 0.0, "is_disabled": 0, "fusion_lat": 0.0, "bike_id": "343b3f72f437f535a1f55eb515460689", "rental_uris": {"ios": "https://dc.lft.to/lastmile_qr_scan", "android": "https://dc.lft.to/lastmile_qr_scan"}}, {"name": "eeccd59113635f653cc41e141dce2996", "type": "electric_scooter", "lat": 38.949742666666666, "is_reserved": 0, "lon": -77.07893583333333, "fusion_lon": 0.0, "is_disabled": 0, "fusion_lat": 0.0, "bike_id": "eeccd59113635f653cc41e141dce2996", "rental_uris": {"ios": "https://dc.lft.to/lastmile_qr_scan", "android": "https://dc.lft.to/lastmile_qr_scan"}}, {"name": "772360014651f539174ce4b11ff49cdb", "type": "electric_scooter", "lat": 38.87767483333333, "is_reserved": 0, "lon": -77.00806566666667, "fusion_lon": 0.0, "is_disabled": 0, "fusion_lat": 0.0, "bike_id": "772360014651f539174ce4b11ff49cdb", "rental_uris": {"ios": "https://dc.lft.to/lastmile_qr_scan", "android": "https://dc.lft.to/lastmile_qr_scan"}}, {"name": "a3222e00857078a19381bfd219a7a601", "type": "electric_scooter", "lat": 38.883147, "is_reserved": 0, "lon": -77.01744883333333, "fusion_lon": 0.0, "is_disabled": 0, "fusion_lat": 0.0, "bike_id": "a3222e00857078a19381bfd219a7a601", "rental_uris": {"ios": "https://dc.lft.to/lastmile_qr_scan", "android": "https://dc.lft.to/lastmile_qr_scan"}}, {"name": "6ac54f3c27d71531155701a9cc54707e", "type": "electric_scooter", "lat": 38.916310333333335, "is_reserved": 0, "lon": -77.013389, "fusion_lon": 0.0, "is_disabled": 0, "fusion_lat": 0.0, "bike_id": "6ac54f3c27d71531155701a9cc54707e", "rental_uris": {"ios": "https://dc.lft.to/lastmile_qr_scan", "android": "https://dc.lft.to/lastmile_qr_scan"}}, {"name": "b523c995d78c78c131b4b3131a464931", "type": "electric_scooter", "lat": 38.90383216666667, "is_reserved": 0, "lon": -77.04512083333333, "fusion_lon": 0.0, "is_disabled": 0, "fusion_lat": 0.0, "bike_id": "b523c995d78c78c131b4b3131a464931", "rental_uris": {"ios": "https://dc.lft.to/lastmile_qr_scan", "android": "https://dc.lft.to/lastmile_qr_scan"}}, {"name": "a1ae4b1b11174ed8ccc3942cb8d50349", "type": "electric_scooter", "lat": 38.896087666666666, "is_reserved": 0, "lon": -77.04238966666666, "fusion_lon": 0.0, "is_disabled": 0, "fusion_lat": 0.0, "bike_id": "a1ae4b1b11174ed8ccc3942cb8d50349", "rental_uris": {"ios": "https://dc.lft.to/lastmile_qr_scan", "android": "https://dc.lft.to/lastmile_qr_scan"}}, {"name": "1ba0d2c7d987b1c6a7bf9f630fff3116", "type": "electric_scooter", "lat": 38.914301, "is_reserved": 0, "lon": -77.044933, "fusion_lon": 0.0, "is_disabled": 0, "fusion_lat": 0.0, "bike_id": "1ba0d2c7d987b1c6a7bf9f630fff3116", "rental_uris": {"ios": "https://dc.lft.to/lastmile_qr_scan", "android": "https://dc.lft.to/lastmile_qr_scan"}}, {"name": "74e677c42fa108590480515da306f383", "type": "electric_scooter", "lat": 38.943293833333335, "is_reserved": 0, "lon": -77.061416, "fusion_lon": 0.0, "is_disabled": 0, "fusion_lat": 0.0, "bike_id": "74e677c42fa108590480515da306f383", "rental_uris": {"ios": "https://dc.lft.to/lastmile_qr_scan", "android": "https://dc.lft.to/lastmile_qr_scan"}}, {"name": "e4b848c70e7b5b5d84b955542103ba2a", "type": "electric_scooter", "lat": 38.912417166666664, "is_reserved": 0, "lon": -77.03219616666667, "fusion_lon": 0.0, "is_disabled": 0, "fusion_lat": 0.0, "bike_id": "e4b848c70e7b5b5d84b955542103ba2a", "rental_uris": {"ios": "https://dc.lft.to/lastmile_qr_scan", "android": "https://dc.lft.to/lastmile_qr_scan"}}, {"name": "121c1c9f07c7cf0e1fd891d5e1c3b6e7", "type": "electric_scooter", "lat": 38.90614033333333, "is_reserved": 0, "lon": -77.07491116666667, "fusion_lon": 0.0, "is_disabled": 0, "fusion_lat": 0.0, "bike_id": "121c1c9f07c7cf0e1fd891d5e1c3b6e7", "rental_uris": {"ios": "https://dc.lft.to/lastmile_qr_scan", "android": "https://dc.lft.to/lastmile_qr_scan"}}, {"name": "e63948c5896ff9e8ec30daf442edc948", "type": "electric_scooter", "lat": 38.909806333333336, "is_reserved": 0, "lon": -77.042928, "fusion_lon": 0.0, "is_disabled": 0, "fusion_lat": 0.0, "bike_id": "e63948c5896ff9e8ec30daf442edc948", "rental_uris": {"ios": "https://dc.lft.to/lastmile_qr_scan", "android": "https://dc.lft.to/lastmile_qr_scan"}}, {"name": "772fec3eb434224a6ee44dfd7a90674c", "type": "electric_bike", "lat": 39.0388195, "is_reserved": 0, "lon": -76.990418, "fusion_lon": 0.0, "is_disabled": 0, "fusion_lat": 0.0, "bike_id": "772fec3eb434224a6ee44dfd7a90674c", "rental_uris": {"ios": "https://dc.lft.to/lastmile_qr_scan", "android": "https://dc.lft.to/lastmile_qr_scan"}}, {"name": "df6d6912a21d64d24bfcab56b448cc91", "type": "electric_scooter", "lat": 38.90549683333333, "is_reserved": 0, "lon": -77.04479566666667, "fusion_lon": 0.0, "is_disabled": 0, "fusion_lat": 0.0, "bike_id": "df6d6912a21d64d24bfcab56b448cc91", "rental_uris": {"ios": "https://dc.lft.to/lastmile_qr_scan", "android": "https://dc.lft.to/lastmile_qr_scan"}}, {"name": "ef8892895274698b6dc2489cb84b1801", "type": "electric_scooter", "lat": 38.902415166666664, "is_reserved": 0, "lon": -77.01972166666667, "fusion_lon": 0.0, "is_disabled": 0, "fusion_lat": 0.0, "bike_id": "ef8892895274698b6dc2489cb84b1801", "rental_uris": {"ios": "https://dc.lft.to/lastmile_qr_scan", "android": "https://dc.lft.to/lastmile_qr_scan"}}, {"name": "a8bbbe1b48cf14de964d334770ddd6fb", "type": "electric_scooter", "lat": 38.9170635, "is_reserved": 0, "lon": -77.00115816666667, "fusion_lon": 0.0, "is_disabled": 0, "fusion_lat": 0.0, "bike_id": "a8bbbe1b48cf14de964d334770ddd6fb", "rental_uris": {"ios": "https://dc.lft.to/lastmile_qr_scan", "android": "https://dc.lft.to/lastmile_qr_scan"}}, {"name": "3a4c5b8d3f9d01447a1effaddff842b1", "type": "electric_bike", "lat": 38.956425, "is_reserved": 0, "lon": -76.99741183333333, "fusion_lon": 0.0, "is_disabled": 0, "fusion_lat": 0.0, "bike_id": "3a4c5b8d3f9d01447a1effaddff842b1", "rental_uris": {"ios": "https://dc.lft.to/lastmile_qr_scan", "android": "https://dc.lft.to/lastmile_qr_scan"}}, {"name": "9208ef9be3515a744183f413cfe2146c", "type": "electric_bike", "lat": 38.9518815, "is_reserved": 0, "lon": -76.93544416666667, "fusion_lon": 0.0, "is_disabled": 0, "fusion_lat": 0.0, "bike_id": "9208ef9be3515a744183f413cfe2146c", "rental_uris": {"ios": "https://dc.lft.to/lastmile_qr_scan", "android": "https://dc.lft.to/lastmile_qr_scan"}}, {"name": "63945dcea295ef221b2fe12a5e303a23", "type": "electric_bike", "lat": 38.89824333333333, "is_reserved": 0, "lon": -76.99062966666666, "fusion_lon": 0.0, "is_disabled": 0, "fusion_lat": 0.0, "bike_id": "63945dcea295ef221b2fe12a5e303a23", "rental_uris": {"ios": "https://dc.lft.to/lastmile_qr_scan", "android": "https://dc.lft.to/lastmile_qr_scan"}}, {"name": "7dd5ac2e74c5028cb246779e52914cb5", "type": "electric_scooter", "lat": 38.88332316666666, "is_reserved": 0, "lon": -77.01775633333334, "fusion_lon": 0.0, "is_disabled": 0, "fusion_lat": 0.0, "bike_id": "7dd5ac2e74c5028cb246779e52914cb5", "rental_uris": {"ios": "https://dc.lft.to/lastmile_qr_scan", "android": "https://dc.lft.to/lastmile_qr_scan"}}, {"name": "0102d05175886b25f09517b12c5de803", "type": "electric_scooter", "lat": 38.9271555, "is_reserved": 0, "lon": -77.03848916666666, "fusion_lon": 0.0, "is_disabled": 0, "fusion_lat": 0.0, "bike_id": "0102d05175886b25f09517b12c5de803", "rental_uris": {"ios": "https://dc.lft.to/lastmile_qr_scan", "android": "https://dc.lft.to/lastmile_qr_scan"}}, {"name": "b62878a0c0d87b5eb853cf489ff9a4da", "type": "electric_scooter", "lat": 38.91713133333333, "is_reserved": 0, "lon": -77.028789, "fusion_lon": 0.0, "is_disabled": 0, "fusion_lat": 0.0, "bike_id": "b62878a0c0d87b5eb853cf489ff9a4da", "rental_uris": {"ios": "https://dc.lft.to/lastmile_qr_scan", "android": "https://dc.lft.to/lastmile_qr_scan"}}, {"name": "5f6bc139e5d1a5cd0b2e8dc36d1df48c", "type": "electric_scooter", "lat": 38.897223333333336, "is_reserved": 0, "lon": -77.022034, "fusion_lon": 0.0, "is_disabled": 0, "fusion_lat": 0.0, "bike_id": "5f6bc139e5d1a5cd0b2e8dc36d1df48c", "rental_uris": {"ios": "https://dc.lft.to/lastmile_qr_scan", "android": "https://dc.lft.to/lastmile_qr_scan"}}, {"name": "60bb96a68476f002423f07bd359607ac", "type": "electric_scooter", "lat": 38.95108183333333, "is_reserved": 0, "lon": -77.015772, "fusion_lon": 0.0, "is_disabled": 0, "fusion_lat": 0.0, "bike_id": "60bb96a68476f002423f07bd359607ac", "rental_uris": {"ios": "https://dc.lft.to/lastmile_qr_scan", "android": "https://dc.lft.to/lastmile_qr_scan"}}, {"name": "b698518d6e046f1735ff23ad561e2628", "type": "electric_scooter", "lat": 38.90347116666667, "is_reserved": 0, "lon": -77.04016783333333, "fusion_lon": 0.0, "is_disabled": 0, "fusion_lat": 0.0, "bike_id": "b698518d6e046f1735ff23ad561e2628", "rental_uris": {"ios": "https://dc.lft.to/lastmile_qr_scan", "android": "https://dc.lft.to/lastmile_qr_scan"}}, {"name": "809389a66c87ddde5eba0ad31dd94b48", "type": "electric_scooter", "lat": 38.940158, "is_reserved": 0, "lon": -77.071709, "fusion_lon": 0.0, "is_disabled": 0, "fusion_lat": 0.0, "bike_id": "809389a66c87ddde5eba0ad31dd94b48", "rental_uris": {"ios": "https://dc.lft.to/lastmile_qr_scan", "android": "https://dc.lft.to/lastmile_qr_scan"}}, {"name": "c8e35ba2c0cbc9ffc54c53efc30b99d8", "type": "electric_scooter", "lat": 38.89479033333333, "is_reserved": 0, "lon": -76.985982, "fusion_lon": 0.0, "is_disabled": 0, "fusion_lat": 0.0, "bike_id": "c8e35ba2c0cbc9ffc54c53efc30b99d8", "rental_uris": {"ios": "https://dc.lft.to/lastmile_qr_scan", "android": "https://dc.lft.to/lastmile_qr_scan"}}, {"name": "02c4b5181a276e697e292ce0298a8fd5", "type": "electric_scooter", "lat": 38.915700666666666, "is_reserved": 0, "lon": -77.03768883333333, "fusion_lon": 0.0, "is_disabled": 0, "fusion_lat": 0.0, "bike_id": "02c4b5181a276e697e292ce0298a8fd5", "rental_uris": {"ios": "https://dc.lft.to/lastmile_qr_scan", "android": "https://dc.lft.to/lastmile_qr_scan"}}, {"name": "19074c01552c15981b415fb453e541d9", "type": "electric_scooter", "lat": 38.91700516666667, "is_reserved": 0, "lon": -77.00808783333333, "fusion_lon": 0.0, "is_disabled": 0, "fusion_lat": 0.0, "bike_id": "19074c01552c15981b415fb453e541d9", "rental_uris": {"ios": "https://dc.lft.to/lastmile_qr_scan", "android": "https://dc.lft.to/lastmile_qr_scan"}}, {"name": "6e2d05576f7593ffe123f053d8e98e72", "type": "electric_scooter", "lat": 38.90514733333333, "is_reserved": 0, "lon": -77.03468966666667, "fusion_lon": 0.0, "is_disabled": 0, "fusion_lat": 0.0, "bike_id": "6e2d05576f7593ffe123f053d8e98e72", "rental_uris": {"ios": "https://dc.lft.to/lastmile_qr_scan", "android": "https://dc.lft.to/lastmile_qr_scan"}}, {"name": "c18277c156fd5de8eb740fb19b541a52", "type": "electric_scooter", "lat": 38.907227166666665, "is_reserved": 0, "lon": -76.986031, "fusion_lon": 0.0, "is_disabled": 0, "fusion_lat": 0.0, "bike_id": "c18277c156fd5de8eb740fb19b541a52", "rental_uris": {"ios": "https://dc.lft.to/lastmile_qr_scan", "android": "https://dc.lft.to/lastmile_qr_scan"}}, {"name": "e3cdf4b162d06cbbf6940024ce649073", "type": "electric_scooter", "lat": 38.944892333333335, "is_reserved": 0, "lon": -77.06375833333334, "fusion_lon": 0.0, "is_disabled": 0, "fusion_lat": 0.0, "bike_id": "e3cdf4b162d06cbbf6940024ce649073", "rental_uris": {"ios": "https://dc.lft.to/lastmile_qr_scan", "android": "https://dc.lft.to/lastmile_qr_scan"}}, {"name": "f9959d413c20f5f4fd347385a713e6f2", "type": "electric_scooter", "lat": 38.906526, "is_reserved": 0, "lon": -77.03668416666666, "fusion_lon": 0.0, "is_disabled": 0, "fusion_lat": 0.0, "bike_id": "f9959d413c20f5f4fd347385a713e6f2", "rental_uris": {"ios": "https://dc.lft.to/lastmile_qr_scan", "android": "https://dc.lft.to/lastmile_qr_scan"}}, {"name": "f7a7f5027a54cb8194e2597dac68fb4d", "type": "electric_bike", "lat": 38.850682166666665, "is_reserved": 0, "lon": -76.97337316666666, "fusion_lon": 0.0, "is_disabled": 0, "fusion_lat": 0.0, "bike_id": "f7a7f5027a54cb8194e2597dac68fb4d", "rental_uris": {"ios": "https://dc.lft.to/lastmile_qr_scan", "android": "https://dc.lft.to/lastmile_qr_scan"}}, {"name": "8e917e3d0e71aeada25f827c18682294", "type": "electric_scooter", "lat": 38.903746166666664, "is_reserved": 0, "lon": -77.04482366666667, "fusion_lon": 0.0, "is_disabled": 0, "fusion_lat": 0.0, "bike_id": "8e917e3d0e71aeada25f827c18682294", "rental_uris": {"ios": "https://dc.lft.to/lastmile_qr_scan", "android": "https://dc.lft.to/lastmile_qr_scan"}}, {"name": "e854661c33b5914b38010f1ae05fbd44", "type": "electric_scooter", "lat": 38.9173735, "is_reserved": 0, "lon": -77.02117016666666, "fusion_lon": 0.0, "is_disabled": 0, "fusion_lat": 0.0, "bike_id": "e854661c33b5914b38010f1ae05fbd44", "rental_uris": {"ios": "https://dc.lft.to/lastmile_qr_scan", "android": "https://dc.lft.to/lastmile_qr_scan"}}, {"name": "ff5e089753ad698e423c92e5691ab67f", "type": "electric_scooter", "lat": 38.905768, "is_reserved": 0, "lon": -77.02987016666667, "fusion_lon": 0.0, "is_disabled": 0, "fusion_lat": 0.0, "bike_id": "ff5e089753ad698e423c92e5691ab67f", "rental_uris": {"ios": "https://dc.lft.to/lastmile_qr_scan", "android": "https://dc.lft.to/lastmile_qr_scan"}}, {"name": "c75186ad7690c1bb9daf9ef8d5751c4b", "type": "electric_scooter", "lat": 38.87460183333334, "is_reserved": 0, "lon": -77.00541466666667, "fusion_lon": 0.0, "is_disabled": 0, "fusion_lat": 0.0, "bike_id": "c75186ad7690c1bb9daf9ef8d5751c4b", "rental_uris": {"ios": "https://dc.lft.to/lastmile_qr_scan", "android": "https://dc.lft.to/lastmile_qr_scan"}}, {"name": "44897699e0778c9461ec1358c112b929", "type": "electric_scooter", "lat": 38.92147516666667, "is_reserved": 0, "lon": -77.03457633333333, "fusion_lon": 0.0, "is_disabled": 0, "fusion_lat": 0.0, "bike_id": "44897699e0778c9461ec1358c112b929", "rental_uris": {"ios": "https://dc.lft.to/lastmile_qr_scan", "android": "https://dc.lft.to/lastmile_qr_scan"}}, {"name": "987f993f36c7e670d6683406f85931f3", "type": "electric_scooter", "lat": 38.91565166666667, "is_reserved": 0, "lon": -77.03836566666666, "fusion_lon": 0.0, "is_disabled": 0, "fusion_lat": 0.0, "bike_id": "987f993f36c7e670d6683406f85931f3", "rental_uris": {"ios": "https://dc.lft.to/lastmile_qr_scan", "android": "https://dc.lft.to/lastmile_qr_scan"}}, {"name": "61dc5ca8ec6ad0c0e8a3525078bc95ea", "type": "electric_bike", "lat": 38.959116, "is_reserved": 0, "lon": -77.001524, "fusion_lon": 0.0, "is_disabled": 0, "fusion_lat": 0.0, "bike_id": "61dc5ca8ec6ad0c0e8a3525078bc95ea", "rental_uris": {"ios": "https://dc.lft.to/lastmile_qr_scan", "android": "https://dc.lft.to/lastmile_qr_scan"}}, {"name": "d51fddb252e6f7e2c7419cfd7c521b5d", "type": "electric_scooter", "lat": 38.88505683333333, "is_reserved": 0, "lon": -77.00566333333333, "fusion_lon": 0.0, "is_disabled": 0, "fusion_lat": 0.0, "bike_id": "d51fddb252e6f7e2c7419cfd7c521b5d", "rental_uris": {"ios": "https://dc.lft.to/lastmile_qr_scan", "android": "https://dc.lft.to/lastmile_qr_scan"}}, {"name": "3eed2c19a7e01ff04260de71f7a1c35d", "type": "electric_scooter", "lat": 38.921543166666666, "is_reserved": 0, "lon": -77.035272, "fusion_lon": 0.0, "is_disabled": 0, "fusion_lat": 0.0, "bike_id": "3eed2c19a7e01ff04260de71f7a1c35d", "rental_uris": {"ios": "https://dc.lft.to/lastmile_qr_scan", "android": "https://dc.lft.to/lastmile_qr_scan"}},