{"data": {"bikes": [{"type": "electric_scooter", "rental_uris": {"android": "https://dc.lft.to/lastmile_qr_scan", "ios": "https://dc.lft.to/lastmile_qr_scan"}, "fusion_lat": 0.0, "name": "706e66c74901b472e96ccc030307a25c", "lon": -77.0231765, "is_disabled": 0, "is_reserved": 0, "fusion_lon": 0.0, "bike_id": "706e66c74901b472e96ccc030307a25c", "lat": 38.90898516666667}, {"type": "electric_scooter", "rental_uris": {"android": "https://dc.lft.to/lastmile_qr_scan", "ios": "https://dc.lft.to/lastmile_qr_scan"}, "fusion_lat": 0.0, "name": "fce50cc76959d981e540af12676950ae", "lon": -77.045974, "is_disabled": 0, "is_reserved": 0, "fusion_lon": 0.0, "bike_id": "fce50cc76959d981e540af12676950ae", "lat": 38.89611633333333}, {"type": "electric_bike", "rental_uris": {"android": "https://dc.lft.to/lastmile_qr_scan", "ios": "https://dc.lft.to/lastmile_qr_scan"}, "fusion_lat": 0.0, "name": "a1c6e51456bae52db18daf5ea451ab8e", "lon": -76.9450645, "is_disabled": 0, "is_reserved": 0, "fusion_lon": 0.0, "bike_id": "a1c6e51456bae52db18daf5ea451ab8e", "lat": 38.86485283333333}, {"type": "electric_scooter", "rental_uris": {"android": "https://dc.lft.to/lastmile_qr_scan", "ios": "https://dc.lft.to/lastmile_qr_scan"}, "fusion_lat": 0.0, "name": "2573eb54f3502a8fadee70cbb2ee50dc", "lon": -76.93767533333333, "is_disabled": 0, "is_reserved": 0, "fusion_lon": 0.0, "bike_id": "2573eb54f3502a8fadee70cbb2ee50dc", "lat": 38.87859133333333}, {"type": "electric_scooter", "rental_uris": {"android": "https://dc.lft.to/lastmile_qr_scan", "ios": "https://dc.lft.to/lastmile_qr_scan"}, "fusion_lat": 0.0, "name": "278acc31179c7f662435272977d976c0", "lon": -76.99014466666667, "is_disabled": 0, "is_reserved": 0, "fusion_lon": 0.0, "bike_id": "278acc31179c7f662435272977d976c0", "lat": 38.946054333333336}, {"type": "electric_scooter", "rental_uris": {"android": "https://dc.lft.to/lastmile_qr_scan", "ios": "https://dc.lft.to/lastmile_qr_scan"}, "fusion_lat": 0.0, "name": "61bce063b69e5344365d14d0905308f1", "lon": -76.99862033333333, "is_disabled": 0, "is_reserved": 0, "fusion_lon": 0.0, "bike_id": "61bce063b69e5344365d14d0905308f1", "lat": 38.8941355}, {"type": "electric_scooter", "rental_uris": {"android": "https://dc.lft.to/lastmile_qr_scan", "ios": "https://dc.lft.to/lastmile_qr_scan"}, "fusion_lat": 0.0, "name": "35f827001df66106763ae4a5e63c9cbc", "lon": -77.00122766666667, "is_disabled": 0, "is_reserved": 0, "fusion_lon": 0.0, "bike_id": "35f827001df66106763ae4a5e63c9cbc", "lat": 38.905065666666665}, {"type": "electric_bike", "rental_uris": {"android": "https://dc.lft.to/lastmile_qr_scan", "ios": "https://dc.lft.to/lastmile_qr_scan"}, "fusion_lat": 0.0, "name": "611ecbbe3796a47915284674e800e998", "lon": -77.04982266666667, "is_disabled": 0, "is_reserved": 0, "fusion_lon": 0.0, "bike_id": "611ecbbe3796a47915284674e800e998", "lat": 39.062949833333334}, {"type": "electric_scooter", "rental_uris": {"android": "https://dc.lft.to/lastmile_qr_scan", "ios": "https://dc.lft.to/lastmile_qr_scan"}, "fusion_lat": 0.0, "name": "1687a1868ab0a18edce307af476db4c0", "lon": -77.02807233333333, "is_disabled": 0, "is_reserved": 0, "fusion_lon": 0.0, "bike_id": "1687a1868ab0a18edce307af476db4c0", "lat": 38.91959383333333}, {"type": "electric_scooter", "rental_uris": {"android": "https://dc.lft.to/lastmile_qr_scan", "ios": "https://dc.lft.to/lastmile_qr_scan"}, "fusion_lat": 0.0, "name": "5e76961777081b61bd2afa589922fa1a", "lon": -76.93774883333333, "is_disabled": 0, "is_reserved": 0, "fusion_lon": 0.0, "bike_id": "5e76961777081b61bd2afa589922fa1a", "lat": 38.8996645}, {"type": "electric_scooter", "rental_uris": {"android": "https://dc.lft.to/lastmile_qr_scan", "ios": "https://dc.lft.to/lastmile_qr_scan"}, "fusion_lat": 0.0, "name": "b761e818ccf639fba3c3102139a6b170", "lon": -77.04518216666666, "is_disabled": 0, "is_reserved": 0, "fusion_lon": 0.0, "bike_id": "b761e818ccf639fba3c3102139a6b170", "lat": 38.9035435}, {"type": "electric_scooter", "rental_uris": {"android": "https://dc.lft.to/lastmile_qr_scan", "ios": "https://dc.lft.to/lastmile_qr_scan"}, "fusion_lat": 0.0, "name": "a1bbf472e677c4cb99a498a4206f0584", "lon": -77.03051683333334, "is_disabled": 0, "is_reserved": 0, "fusion_lon": 0.0, "bike_id": "a1bbf472e677c4cb99a498a4206f0584", "lat": 38.8980305}, {"type": "electric_scooter", "rental_uris": {"android": "https://dc.lft.to/lastmile_qr_scan", "ios": "https://dc.lft.to/lastmile_qr_scan"}, "fusion_lat": 0.0, "name": "fadc8380e9772c38297377993bdca09e", "lon": -77.0318965, "is_disabled": 0, "is_reserved": 0, "fusion_lon": 0.0, "bike_id": "fadc8380e9772c38297377993bdca09e", "lat": 38.908530666666664}, {"type": "electric_scooter", "rental_uris": {"android": "https://dc.lft.to/lastmile_qr_scan", "ios": "https://dc.lft.to/lastmile_qr_scan"}, "fusion_lat": 0.0, "name": "24aee6e648e8af421906c54e72a6dff6", "lon": -76.99634933333333, "is_disabled": 0, "is_reserved": 0, "fusion_lon": 0.0, "bike_id": "24aee6e648e8af421906c54e72a6dff6", "lat": 38.90024283333333}, {"type": "electric_scooter", "rental_uris": {"android": "https://dc.lft.to/lastmile_qr_scan", "ios": "https://dc.lft.to/lastmile_qr_scan"}, "fusion_lat": 0.0, "name": "6cbbeba5ff03fe000aa9078b42d82286", "lon": -77.0419615, "is_disabled": 0, "is_reserved": 0, "fusion_lon": 0.0, "bike_id": "6cbbeba5ff03fe000aa9078b42d82286", "lat": 38.919744666666666}, {"type": "electric_scooter", "rental_uris": {"android": "https://dc.lft.to/lastmile_qr_scan", "ios": "https://dc.lft.to/lastmile_qr_scan"}, "fusion_lat": 0.0, "name": "d358c78a088bab2768705681eb2323a2", "lon": -77.02552466666667, "is_disabled": 0, "is_reserved": 0, "fusion_lon": 0.0, "bike_id": "d358c78a088bab2768705681eb2323a2", "lat": 38.94137833333333}, {"type": "electric_scooter", "rental_uris": {"android": "https://dc.lft.to/lastmile_qr_scan", "ios": "https://dc.lft.to/lastmile_qr_scan"}, "fusion_lat": 0.0, "name": "7b6a7e5e8a90e22008698988b0ace466", "lon": -77.0108025, "is_disabled": 0, "is_reserved": 0, "fusion_lon": 0.0, "bike_id": "7b6a7e5e8a90e22008698988b0ace466", "lat": 38.91757066666667}, {"type": "electric_bike", "rental_uris": {"android": "https://dc.lft.to/lastmile_qr_scan", "ios": "https://dc.lft.to/lastmile_qr_scan"}, "fusion_lat": 0.0, "name": "498ad76d818f680dc50711aa2d507057", "lon": -77.06336016666667, "is_disabled": 0, "is_reserved": 0, "fusion_lon": 0.0, "bike_id": "498ad76d818f680dc50711aa2d507057", "lat": 38.92095883333333}, {"type": "electric_scooter", "rental_uris": {"android": "https://dc.lft.to/lastmile_qr_scan", "ios": "https://dc.lft.to/lastmile_qr_scan"}, "fusion_lat": 0.0, "name": "89100d25f61e552fc2006e13fdd6fef4", "lon": -76.997454, "is_disabled": 0, "is_reserved": 0, "fusion_lon": 0.0, "bike_id": "89100d25f61e552fc2006e13fdd6fef4", "lat": 38.900055}, {"type": "electric_scooter", "rental_uris": {"android": "https://dc.lft.to/lastmile_qr_scan", "ios": "https://dc.lft.to/lastmile_qr_scan"}, "fusion_lat": 0.0, "name": "395c05942f09a8049671783ac4227b4e", "lon": -77.01865933333333, "is_disabled": 0, "is_reserved": 0, "fusion_lon": 0.0, "bike_id": "395c05942f09a8049671783ac4227b4e", "lat": 38.97373666666667}, {"type": "electric_scooter", "rental_uris": {"android": "https://dc.lft.to/lastmile_qr_scan", "ios": "https://dc.lft.to/lastmile_qr_scan"}, "fusion_lat": 0.0, "name": "efde394847d39e10872f8945847678cd", "lon": -76.99935433333333, "is_disabled": 0, "is_reserved": 0, "fusion_lon": 0.0, "bike_id": "efde394847d39e10872f8945847678cd", "lat": 38.842991}, {"type": "electric_scooter", "rental_uris": {"android": "https://dc.lft.to/lastmile_qr_scan", "ios": "https://dc.lft.to/lastmile_qr_scan"}, "fusion_lat": 0.0, "name": "17e718f9070a970b8adbc3f2e34b69e5", "lon": -77.00344233333334, "is_disabled": 0, "is_reserved": 0, "fusion_lon": 0.0, "bike_id": "17e718f9070a970b8adbc3f2e34b69e5", "lat": 38.895257666666666}, {"type": "electric_scooter", "rental_uris": {"android": "https://dc.lft.to/lastmile_qr_scan", "ios": "https://dc.lft.to/lastmile_qr_scan"}, "fusion_lat": 0.0, "name": "bf96bef1c44fc91a3092ecaeb6bc9b71", "lon": -76.9487465, "is_disabled": 0, "is_reserved": 0, "fusion_lon": 0.0, "bike_id": "bf96bef1c44fc91a3092ecaeb6bc9b71", "lat": 38.895463166666666}, {"type": "electric_scooter", "rental_uris": {"android": "https://dc.lft.to/lastmile_qr_scan", "ios": "https://dc.lft.to/lastmile_qr_scan"}, "fusion_lat": 0.0, "name": "8ac1abfb499151531597bd40345803a2", "lon": -77.04748583333334, "is_disabled": 0, "is_reserved": 0, "fusion_lon": 0.0, "bike_id": "8ac1abfb499151531597bd40345803a2", "lat": 38.90549016666667}, {"type": "electric_bike", "rental_uris": {"android": "https://dc.lft.to/lastmile_qr_scan", "ios": "https://dc.lft.to/lastmile_qr_scan"}, "fusion_lat": 0.0, "name": "e285c0fd79c7d1c54a5570897f3fbfec", "lon": -76.99375, "is_disabled": 0, "is_reserved": 0, "fusion_lon": 0.0, "bike_id": "e285c0fd79c7d1c54a5570897f3fbfec", "lat": 38.971917}, {"type": "electric_scooter", "rental_uris": {"android": "https://dc.lft.to/lastmile_qr_scan", "ios": "https://dc.lft.to/lastmile_qr_scan"}, "fusion_lat": 0.0, "name": "32283c27c8eea73518d1327bb2b7a598", "lon": -77.03162383333333, "is_disabled": 0, "is_reserved": 0, "fusion_lon": 0.0, "bike_id": "32283c27c8eea73518d1327bb2b7a598", "lat": 38.93600933333333}, {"type": "electric_scooter", "rental_uris": {"android": "https://dc.lft.to/lastmile_qr_scan", "ios": "https://dc.lft.to/lastmile_qr_scan"}, "fusion_lat": 0.0, "name": "14ba07a487568ff057cd8ad27453dc14", "lon": -77.0351965, "is_disabled": 0, "is_reserved": 0, "fusion_lon": 0.0, "bike_id": "14ba07a487568ff057cd8ad27453dc14", "lat": 38.9066005}, {"type": "electric_scooter", "rental_uris": {"android": "https://dc.lft.to/lastmile_qr_scan", "ios": "https://dc.lft.to/lastmile_qr_scan"}, "fusion_lat": 0.0, "name": "9537ad60a508f4a9b21ab9ad60ff5c2e", "lon": -77.04470633333334, "is_disabled": 0, "is_reserved": 0, "fusion_lon": 0.0, "bike_id": "9537ad60a508f4a9b21ab9ad60ff5c2e", "lat": 38.9102325}, {"type": "electric_scooter", "rental_uris": {"android": "https://dc.lft.to/lastmile_qr_scan", "ios": "https://dc.lft.to/lastmile_qr_scan"}, "fusion_lat": 0.0, "name": "c1f9132143df7fcbc0d05a6ca120ec1f", "lon": -76.976133, "is_disabled": 0, "is_reserved": 0, "fusion_lon": 0.0, "bike_id": "c1f9132143df7fcbc0d05a6ca120ec1f", "lat": 38.91297733333333}, {"type": "electric_scooter", "rental_uris": {"android": "https://dc.lft.to/lastmile_qr_scan", "ios": "https://dc.lft.to/lastmile_qr_scan"}, "fusion_lat": 0.0, "name": "e4f700763fe4478041dcffc1f73c10a9", "lon": -76.99634466666667, "is_disabled": 0, "is_reserved": 0, "fusion_lon": 0.0, "bike_id": "e4f700763fe4478041dcffc1f73c10a9", "lat": 38.900266333333335}, {"type": "electric_scooter", "rental_uris": {"android": "https://dc.lft.to/lastmile_qr_scan", "ios": "https://dc.lft.to/lastmile_qr_scan"}, "fusion_lat": 0.0, "name": "6525c14542fd36879fc61c016a3ca4ba", "lon": -77.03469, "is_disabled": 0, "is_reserved": 0, "fusion_lon": 0.0, "bike_id": "6525c14542fd36879fc61c016a3ca4ba", "lat": 38.90253766666667}, {"type": "electric_scooter", "rental_uris": {"android": "https://dc.lft.to/lastmile_qr_scan", "ios": "https://dc.lft.to/lastmile_qr_scan"}, "fusion_lat": 0.0, "name": "a6d4e3050e0624f628694e50b7d64eb4", "lon": -77.0326025, "is_disabled": 0, "is_reserved": 0, "fusion_lon": 0.0, "bike_id": "a6d4e3050e0624f628694e50b7d64eb4", "lat": 38.939698}, {"type": "electric_scooter", "rental_uris": {"android": "https://dc.lft.to/lastmile_qr_scan", "ios": "https://dc.lft.to/lastmile_qr_scan"}, "fusion_lat": 0.0, "name": "4ed18a3c72e789c5a9b1e592ddd74cf1", "lon": -77.03844566666666, "is_disabled": 0, "is_reserved": 0, "fusion_lon": 0.0, "bike_id": "4ed18a3c72e789c5a9b1e592ddd74cf1", "lat": 38.909897}, {"type": "electric_scooter", "rental_uris": {"android": "https://dc.lft.to/lastmile_qr_scan", "ios": "https://dc.lft.to/lastmile_qr_scan"}, "fusion_lat": 0.0, "name": "95ea29b3eefa782ec51bb19b7d9f48e6", "lon": -76.99420583333334, "is_disabled": 0, "is_reserved": 0, "fusion_lon": 0.0, "bike_id": "95ea29b3eefa782ec51bb19b7d9f48e6", "lat": 38.92105383333333}, {"type": "electric_bike", "rental_uris": {"android": "https://dc.lft.to/lastmile_qr_scan", "ios": "https://dc.lft.to/lastmile_qr_scan"}, "fusion_lat": 0.0, "name": "0d0290f8be8df70bea8ac359e80ce7e9", "lon": -76.98841033333333, "is_disabled": 0, "is_reserved": 0, "fusion_lon": 0.0, "bike_id": "0d0290f8be8df70bea8ac359e80ce7e9", "lat": 38.8427985}, {"type": "electric_scooter", "rental_uris": {"android": "https://dc.lft.to/lastmile_qr_scan", "ios": "https://dc.lft.to/lastmile_qr_scan"}, "fusion_lat": 0.0, "name": "c6973717bb87a3979824f7fca4dc2644", "lon": -77.0394685, "is_disabled": 0, "is_reserved": 0, "fusion_lon": 0.0, "bike_id": "c6973717bb87a3979824f7fca4dc2644", "lat": 38.905527}, {"type": "electric_scooter", "rental_uris": {"android": "https://dc.lft.to/lastmile_qr_scan", "ios": "https://dc.lft.to/lastmile_qr_scan"}, "fusion_lat": 0.0, "name": "538e8f2e3013d1367eb128f3b99a8559", "lon": -77.02727133333333, "is_disabled": 0, "is_reserved": 0, "fusion_lon": 0.0, "bike_id": "538e8f2e3013d1367eb128f3b99a8559", "lat": 38.9325135}, {"type": "electric_scooter", "rental_uris": {"android": "https://dc.lft.to/lastmile_qr_scan", "ios": "https://dc.lft.to/lastmile_qr_scan"}, "fusion_lat": 0.0, "name": "52b3bbce4b9326c906fbd8ac4187eda6", "lon": -77.04187766666666, "is_disabled": 0, "is_reserved": 0, "fusion_lon": 0.0, "bike_id": "52b3bbce4b9326c906fbd8ac4187eda6", "lat": 38.90660616666667}, {"type": "electric_scooter", "rental_uris": {"android": "https://dc.lft.to/lastmile_qr_scan", "ios": "https://dc.lft.to/lastmile_qr_scan"}, "fusion_lat": 0.0, "name": "debd676f70c878d8125fb662837bffb2", "lon": -77.00344, "is_disabled": 0, "is_reserved": 0, "fusion_lon": 0.0, "bike_id": "debd676f70c878d8125fb662837bffb2", "lat": 38.90360883333334}, {"type": "electric_scooter", "rental_uris": {"android": "https://dc.lft.to/lastmile_qr_scan", "ios": "https://dc.lft.to/lastmile_qr_scan"}, "fusion_lat": 0.0, "name": "243068955dd513cb9eacff3e2a2783c5", "lon": -77.021911, "is_disabled": 0, "is_reserved": 0, "fusion_lon": 0.0, "bike_id": "243068955dd513cb9eacff3e2a2783c5", "lat": 38.89483666666667}, {"type": "electric_scooter", "rental_uris": {"android": "https://dc.lft.to/lastmile_qr_scan", "ios": "https://dc.lft.to/lastmile_qr_scan"}, "fusion_lat": 0.0, "name": "9dcde472160599f2587d30e077c8bd40", "lon": -77.00198733333333, "is_disabled": 0, "is_reserved": 0, "fusion_lon": 0.0, "bike_id": "9dcde472160599f2587d30e077c8bd40", "lat": 38.90246366666667}, {"type": "electric_scooter", "rental_uris": {"android": "https://dc.lft.to/lastmile_qr_scan", "ios": "https://dc.lft.to/lastmile_qr_scan"}, "fusion_lat": 0.0, "name": "bd5f0fed56e9ff53ab6538eea080817f", "lon": -77.02008166666667, "is_disabled": 0, "is_reserved": 0, "fusion_lon": 0.0, "bike_id": "bd5f0fed56e9ff53ab6538eea080817f", "lat": 38.901752}, {"type": "electric_scooter", "rental_uris": {"android": "https://dc.lft.to/lastmile_qr_scan", "ios": "https://dc.lft.to/lastmile_qr_scan"}, "fusion_lat": 0.0, "name": "f2eca646791c7783bcce16e8c12961b2", "lon": -77.03163516666666, "is_disabled": 0, "is_reserved": 0, "fusion_lon": 0.0, "bike_id": "f2eca646791c7783bcce16e8c12961b2", "lat": 38.929305}, {"type": "electric_scooter", "rental_uris": {"android": "https://dc.lft.to/lastmile_qr_scan", "ios": "https://dc.lft.to/lastmile_qr_scan"}, "fusion_lat": 0.0, "name": "0b23d54aaa04220d755f04460db31eaf", "lon": -77.01474016666667, "is_disabled": 0, "is_reserved": 0, "fusion_lon": 0.0, "bike_id": "0b23d54aaa04220d755f04460db31eaf", "lat": 38.87635233333334}, {"type": "electric_bike", "rental_uris": {"android": "https://dc.lft.to/lastmile_qr_scan", "ios": "https://dc.lft.to/lastmile_qr_scan"}, "fusion_lat": 0.0, "name": "72aef8e2241e957bed6868bc9fb3bd04", "lon": -77.06422033333334, "is_disabled": 0, "is_reserved": 0, "fusion_lon": 0.0, "bike_id": "72aef8e2241e957bed6868bc9fb3bd04", "lat": 38.908744166666665}, {"type": "electric_bike", "rental_uris": {"android": "https://dc.lft.to/lastmile_qr_scan", "ios": "https://dc.lft.to/lastmile_qr_scan"}, "fusion_lat": 0.0, "name": "5cfd884a04575259ca24ce7799eec170", "lon": -77.055793, "is_disabled": 0, "is_reserved": 0, "fusion_lon": 0.0, "bike_id": "5cfd884a04575259ca24ce7799eec170", "lat": 38.9105685}, {"type": "electric_bike", "rental_uris": {"android": "https://dc.lft.to/lastmile_qr_scan", "ios": "https://dc.lft.to/lastmile_qr_scan"}, "fusion_lat": 0.0, "name": "11f6ed8eddc3a08185a28c1b7fad4a2e", "lon": -77.03701266666667, "is_disabled": 0, "is_reserved": 0, "fusion_lon": 0.0, "bike_id": "11f6ed8eddc3a08185a28c1b7fad4a2e", "lat": 38.9355185}, {"type": "electric_scooter", "rental_uris": {"android": "https://dc.lft.to/lastmile_qr_scan", "ios": "https://dc.lft.to/lastmile_qr_scan"}, "fusion_lat": 0.0, "name": "4cd323ffb50f6aa2d6c075defd9e2f0d", "lon": -77.04336033333334, "is_disabled": 0, "is_reserved": 0, "fusion_lon": 0.0, "bike_id": "4cd323ffb50f6aa2d6c075defd9e2f0d", "lat": 38.922013166666666}, {"type": "electric_scooter", "rental_uris": {"android": "https://dc.lft.to/lastmile_qr_scan", "ios": "https://dc.lft.to/lastmile_qr_scan"}, "fusion_lat": 0.0, "name": "84df713608786b7b9633dca6e0c72fb7", "lon": -76.98838033333334, "is_disabled": 0, "is_reserved": 0, "fusion_lon": 0.0, "bike_id": "84df713608786b7b9633dca6e0c72fb7", "lat": 38.89669816666667}, {"type": "electric_scooter", "rental_uris": {"android": "https://dc.lft.to/lastmile_qr_scan", "ios": "https://dc.lft.to/lastmile_qr_scan"}, "fusion_lat": 0.0, "name": "e035a6d0fbe84779a4d32841306bbe8e", "lon": -77.03805033333333, "is_disabled": 0, "is_reserved": 0, "fusion_lon": 0.0, "bike_id": "e035a6d0fbe84779a4d32841306bbe8e", "lat": 38.9306905}, {"type": "electric_scooter", "rental_uris": {"android": "https://dc.lft.to/lastmile_qr_scan", "ios": "https://dc.lft.to/lastmile_qr_scan"}, "fusion_lat": 0.0, "name": "0ae79ea16c300790511aaf554bc746b6", "lon": -76.942016, "is_disabled": 0, "is_reserved": 0, "fusion_lon": 0.0, "bike_id": "0ae79ea16c300790511aaf554bc746b6", "lat": 38.89375033333334}, {"type": "electric_scooter", "rental_uris": {"android": "https://dc.lft.to/lastmile_qr_scan", "ios": "https://dc.lft.to/lastmile_qr_scan"}, "fusion_lat": 0.0, "name": "cb62db3a786c9917f35d186686f4d84a", "lon": -76.94685883333334, "is_disabled": 0, "is_reserved": 0, "fusion_lon": 0.0, "bike_id": "cb62db3a786c9917f35d186686f4d84a", "lat": 38.886301}, {"type": "electric_scooter", "rental_uris": {"android": "https://dc.lft.to/lastmile_qr_scan", "ios": "https://dc.lft.to/lastmile_qr_scan"}, "fusion_lat": 0.0, "name": "c580e371fb80bdd9e177562e56351732", "lon": -76.99761216666667, "is_disabled": 0, "is_reserved": 0, "fusion_lon": 0.0, "bike_id": "c580e371fb80bdd9e177562e56351732", "lat": 38.887685833333336}, {"type": "electric_scooter", "rental_uris": {"android": "https://dc.lft.to/lastmile_qr_scan", "ios": "https://dc.lft.to/lastmile_qr_scan"}, "fusion_lat": 0.0, "name": "3452b7146c590a55d930db7538bc5e08", "lon": -77.0319245, "is_disabled": 0, "is_reserved": 0, "fusion_lon": 0.0, "bike_id": "3452b7146c590a55d930db7538bc5e08", "lat": 38.91525083333333}, {"type": "electric_scooter", "rental_uris": {"android": "https://dc.lft.to/lastmile_qr_scan", "ios": "https://dc.lft.to/lastmile_qr_scan"}, "fusion_lat": 0.0, "name": "95e133bd23e22971fd7668adf3d714cd", "lon": -77.02391666666666, "is_disabled": 0, "is_reserved": 0, "fusion_lon": 0.0, "bike_id": "95e133bd23e22971fd7668adf3d714cd", "lat": 38.89612966666667}, {"type": "electric_scooter", "rental_uris": {"android": "https://dc.lft.to/lastmile_qr_scan", "ios": "https://dc.lft.to/lastmile_qr_scan"}, "fusion_lat": 0.0, "name": "f6c2b51522b769b7ba6c1d28b1e8d531", "lon": -77.0450575, "is_disabled": 0, "is_reserved": 0, "fusion_lon": 0.0, "bike_id": "f6c2b51522b769b7ba6c1d28b1e8d531", "lat": 38.904978666666665}, {"type": "electric_scooter", "rental_uris": {"android": "https://dc.lft.to/lastmile_qr_scan", "ios": "https://dc.lft.to/lastmile_qr_scan"}, "fusion_lat": 0.0, "name": "7d7ef7f3e8c8b2c447b7ffc914f66c08", "lon": -77.01907866666667, "is_disabled": 0, "is_reserved": 0, "fusion_lon": 0.0, "bike_id": "7d7ef7f3e8c8b2c447b7ffc914f66c08", "lat": 38.923306833333335}, {"type": "electric_scooter", "rental_uris": {"android": "https://dc.lft.to/lastmile_qr_scan", "ios": "https://dc.lft.to/lastmile_qr_scan"}, "fusion_lat": 0.0, "name": "b76132acb7b89f775700b18850d0bbc4", "lon": -77.00342283333333, "is_disabled": 0, "is_reserved": 0, "fusion_lon": 0.0, "bike_id": "b76132acb7b89f775700b18850d0bbc4", "lat": 38.90361383333333}, {"type": "electric_scooter", "rental_uris": {"android": "https://dc.lft.to/lastmile_qr_scan", "ios": "https://dc.lft.to/lastmile_qr_scan"}, "fusion_lat": 0.0, "name": "3ec666e5efc2d1c44f985004193ab825", "lon": -77.03183916666667, "is_disabled": 0, "is_reserved": 0, "fusion_lon": 0.0, "bike_id": "3ec666e5efc2d1c44f985004193ab825", "lat": 38.914272833333335}, {"type": "electric_scooter", "rental_uris": {"android": "https://dc.lft.to/lastmile_qr_scan", "ios": "https://dc.lft.to/lastmile_qr_scan"}, "fusion_lat": 0.0, "name": "e6c9adf042226d9e7981c9f1d37c42ed", "lon": -77.01535216666667, "is_disabled": 0, "is_reserved": 0, "fusion_lon": 0.0, "bike_id": "e6c9adf042226d9e7981c9f1d37c42ed", "lat": 38.887428166666666}, {"type": "electric_scooter", "rental_uris": {"android": "https://dc.lft.to/lastmile_qr_scan", "ios": "https://dc.lft.to/lastmile_qr_scan"}, "fusion_lat": 0.0, "name": "b7044dd5bc902ea759e6862e2b91e017", "lon": -77.01179966666666, "is_disabled": 0, "is_reserved": 0, "fusion_lon": 0.0, "bike_id": "b7044dd5bc902ea759e6862e2b91e017", "lat": 38.91925283333333}, {"type": "electric_scooter", "rental_uris": {"android": "https://dc.lft.to/lastmile_qr_scan", "ios": "https://dc.lft.to/lastmile_qr_scan"}, "fusion_lat": 0.0, "name": "4275e4585c1227302a186c363969a78e", "lon": -77.0307695, "is_disabled": 0, "is_reserved": 0, "fusion_lon": 0.0, "bike_id": "4275e4585c1227302a186c363969a78e", "lat": 38.92249133333333}, {"type": "electric_scooter", "rental_uris": {"android": "https://dc.lft.to/lastmile_qr_scan", "ios": "https://dc.lft.to/lastmile_qr_scan"}, "fusion_lat": 0.0, "name": "8dfbcc34096900560c778fc2730cbc80", "lon": -76.98368516666666, "is_disabled": 0, "is_reserved": 0, "fusion_lon": 0.0, "bike_id": "8dfbcc34096900560c778fc2730cbc80", "lat": 38.91537916666667}, {"type": "electric_scooter", "rental_uris": {"android": "https://dc.lft.to/lastmile_qr_scan", "ios": "https://dc.lft.to/lastmile_qr_scan"}, "fusion_lat": 0.0, "name": "55306135e04712c1193be9e787b8712a", "lon": -76.98112583333334, "is_disabled": 0, "is_reserved": 0, "fusion_lon": 0.0, "bike_id": "55306135e04712c1193be9e787b8712a", "lat": 38.90411833333334}, {"type": "electric_scooter", "rental_uris": {"android": "https://dc.lft.to/lastmile_qr_scan", "ios": "https://dc.lft.to/lastmile_qr_scan"}, "fusion_lat": 0.0, "name": "2ec4407292db5f4c37b6dd6e4ea03f94", "lon": -77.05026533333333, "is_disabled": 0, "is_reserved": 0, "fusion_lon": 0.0, "bike_id": "2ec4407292db5f4c37b6dd6e4ea03f94", "lat": 38.89836866666667}, {"type": "electric_scooter", "rental_uris": {"android": "https://dc.lft.to/lastmile_qr_scan", "ios": "https://dc.lft.to/lastmile_qr_scan"}, "fusion_lat": 0.0, "name": "b23677a6d59ab5f5604ebdd3ca0ce839", "lon": -77.02346, "is_disabled": 0, "is_reserved": 0, "fusion_lon": 0.0, "bike_id": "b23677a6d59ab5f5604ebdd3ca0ce839", "lat": 38.92250633333333}, {"type": "electric_scooter", "rental_uris": {"android": "https://dc.lft.to/lastmile_qr_scan", "ios": "https://dc.lft.to/lastmile_qr_scan"}, "fusion_lat": 0.0, "name": "406998800b0bdeb4b831ffbbef8e5022", "lon": -77.02229566666666, "is_disabled": 0, "is_reserved": 0, "fusion_lon": 0.0, "bike_id": "406998800b0bdeb4b831ffbbef8e5022", "lat": 38.89225616666667}, {"type": "electric_scooter", "rental_uris": {"android": "https://dc.lft.to/lastmile_qr_scan", "ios": "https://dc.lft.to/lastmile_qr_scan"}, "fusion_lat": 0.0, "name": "f343dd7fd98a3d327168809377581a6e", "lon": -76.9980905, "is_disabled": 0, "is_reserved": 0, "fusion_lon": 0.0, "bike_id": "f343dd7fd98a3d327168809377581a6e", "lat": 38.90858733333334}, {"type": "electric_scooter", "rental_uris": {"android": "https://dc.lft.to/lastmile_qr_scan", "ios": "https://dc.lft.to/lastmile_qr_scan"}, "fusion_lat": 0.0, "name": "96b381c83ec504597ab679f25b8d2af5", "lon": -77.02797, "is_disabled": 0, "is_reserved": 0, "fusion_lon": 0.0, "bike_id": "96b381c83ec504597ab679f25b8d2af5", "lat": 38.954001}, {"type": "electric_scooter", "rental_uris": {"android": "https://dc.lft.to/lastmile_qr_scan", "ios": "https://dc.lft.to/lastmile_qr_scan"}, "fusion_lat": 0.0, "name": "4b4f773607ca9b7a338fc750a6efbb15", "lon": -77.053595, "is_disabled": 0, "is_reserved": 0, "fusion_lon": 0.0, "bike_id": "4b4f773607ca9b7a338fc750a6efbb15", "lat": 38.923519}, {"type": "electric_scooter", "rental_uris": {"android": "https://dc.lft.to/lastmile_qr_scan", "ios": "https://dc.lft.to/lastmile_qr_scan"}, "fusion_lat": 0.0, "name": "2c79708ff26f2665b70bf35f43930d0a", "lon": -77.02418483333334, "is_disabled": 0, "is_reserved": 0, "fusion_lon": 0.0, "bike_id": "2c79708ff26f2665b70bf35f43930d0a", "lat": 38.92151233333333}, {"type": "electric_scooter", "rental_uris": {"android": "https://dc.lft.to/lastmile_qr_scan", "ios": "https://dc.lft.to/lastmile_qr_scan"}, "fusion_lat": 0.0, "name": "9fdd65d225a038e79ee20518afb72628", "lon": -77.02321583333334, "is_disabled": 0, "is_reserved": 0, "fusion_lon": 0.0, "bike_id": "9fdd65d225a038e79ee20518afb72628", "lat": 38.91767883333333}, {"type": "electric_scooter", "rental_uris": {"android": "https://dc.lft.to/lastmile_qr_scan", "ios": "https://dc.lft.to/lastmile_qr_scan"}, "fusion_lat": 0.0, "name": "105c62012e6f9346c920d0668e7747fe", "lon": -77.0000985, "is_disabled": 0, "is_reserved": 0, "fusion_lon": 0.0, "bike_id": "105c62012e6f9346c920d0668e7747fe", "lat": 38.907763833333334}, {"type": "electric_scooter", "rental_uris": {"android": "https://dc.lft.to/lastmile_qr_scan", "ios": "https://dc.lft.to/lastmile_qr_scan"}, "fusion_lat": 0.0, "name": "9748d170a0acc67534396b40008cb968", "lon": -77.03163666666667, "is_disabled": 0, "is_reserved": 0, "fusion_lon": 0.0, "bike_id": "9748d170a0acc67534396b40008cb968", "lat": 38.90613166666667}, {"type": "electric_scooter", "rental_uris": {"android": "https://dc.lft.to/lastmile_qr_scan", "ios": "https://dc.lft.to/lastmile_qr_scan"}, "fusion_lat": 0.0, "name": "5735db8bb85a314b4271ba2d0d41690c", "lon": -77.02670233333333, "is_disabled": 0, "is_reserved": 0, "fusion_lon": 0.0, "bike_id": "5735db8bb85a314b4271ba2d0d41690c", "lat": 38.90728216666667}, {"type": "electric_scooter", "rental_uris": {"android": "https://dc.lft.to/lastmile_qr_scan", "ios": "https://dc.lft.to/lastmile_qr_scan"}, "fusion_lat": 0.0, "name": "6373a44162537aa3bf8382ee8d6725a4", "lon": -77.03204833333334, "is_disabled": 0, "is_reserved": 0, "fusion_lon": 0.0, "bike_id": "6373a44162537aa3bf8382ee8d6725a4", "lat": 38.91708883333333}, {"type": "electric_scooter", "rental_uris": {"android": "https://dc.lft.to/lastmile_qr_scan", "ios": "https://dc.lft.to/lastmile_qr_scan"}, "fusion_lat": 0.0, "name": "aef7a11edf6e7d11ac78066630c154fc", "lon": -77.0225645, "is_disabled": 0, "is_reserved": 0, "fusion_lon": 0.0, "bike_id": "aef7a11edf6e7d11ac78066630c154fc", "lat": 38.925268}, {"type": "electric_scooter", "rental_uris": {"android": "https://dc.lft.to/lastmile_qr_scan", "ios": "https://dc.lft.to/lastmile_qr_scan"}, "fusion_lat": 0.0, "name": "998de12a6a5f7ac8c05f4d1b6c95a9c5", "lon": -76.986991, "is_disabled": 0, "is_reserved": 0, "fusion_lon": 0.0, "bike_id": "998de12a6a5f7ac8c05f4d1b6c95a9c5", "lat": 38.862557}, {"type": "electric_scooter", "rental_uris": {"android": "https://dc.lft.to/lastmile_qr_scan", "ios": "https://dc.lft.to/lastmile_qr_scan"}, "fusion_lat": 0.0, "name": "e81482d6c3db1a5a1f6f8976860653ed", "lon": -77.02353083333334, "is_disabled": 0, "is_reserved": 0, "fusion_lon": 0.0, "bike_id": "e81482d6c3db1a5a1f6f8976860653ed", "lat": 38.9353465}, {"type": "electric_scooter", "rental_uris": {"android": "https://dc.lft.to/lastmile_qr_scan", "ios": "https://dc.lft.to/lastmile_qr_scan"}, "fusion_lat": 0.0, "name": "4995e3cc9fe2f617255384c422c7307a", "lon": -77.00219216666666, "is_disabled": 0, "is_reserved": 0, "fusion_lon": 0.0, "bike_id": "4995e3cc9fe2f617255384c422c7307a", "lat": 38.911829166666664}, {"type": "electric_scooter", "rental_uris": {"android": "https://dc.lft.to/lastmile_qr_scan", "ios": "https://dc.lft.to/lastmile_qr_scan"}, "fusion_lat": 0.0, "name": "9a345f720610625817602c0f47d42267", "lon": -77.02764833333333, "is_disabled": 0, "is_reserved": 0, "fusion_lon": 0.0, "bike_id": "9a345f720610625817602c0f47d42267", "lat": 38.95426966666667}, {"type": "electric_scooter", "rental_uris": {"android": "https://dc.lft.to/lastmile_qr_scan", "ios": "https://dc.lft.to/lastmile_qr_scan"}, "fusion_lat": 0.0, "name": "b95e188f6342d8cf2d9858fdd84596f7", "lon": -77.035543, "is_disabled": 0, "is_reserved": 0, "fusion_lon": 0.0, "bike_id": "b95e188f6342d8cf2d9858fdd84596f7", "lat": 38.906721}, {"type": "electric_scooter", "rental_uris": {"android": "https://dc.lft.to/lastmile_qr_scan", "ios": "https://dc.lft.to/lastmile_qr_scan"}, "fusion_lat": 0.0, "name": "243ab85aaa35fc39857ea436c9669909", "lon": -77.05047383333333, "is_disabled": 0, "is_reserved": 0, "fusion_lon": 0.0, "bike_id": "243ab85aaa35fc39857ea436c9669909", "lat": 38.923769166666666}, {"type": "electric_bike", "rental_uris": {"android": "https://dc.lft.to/lastmile_qr_scan", "ios": "https://dc.lft.to/lastmile_qr_scan"}, "fusion_lat": 0.0, "name": "6b98d1aaf7161a0fb616e033ecd94652", "lon": -77.1324065, "is_disabled": 0, "is_reserved": 0, "fusion_lon": 0.0, "bike_id": "6b98d1aaf7161a0fb616e033ecd94652", "lat": 38.805546666666665}, {"type": "electric_scooter", "rental_uris": {"android": "https://dc.lft.to/lastmile_qr_scan", "ios": "https://dc.lft.to/lastmile_qr_scan"}, "fusion_lat": 0.0, "name": "fe86e6de5e0764cf20bb4b9cac440dbc", "lon": -77.0432895, "is_disabled": 0, "is_reserved": 0, "fusion_lon": 0.0, "bike_id": "fe86e6de5e0764cf20bb4b9cac440dbc", "lat": 38.8922075}, {"type": "electric_scooter", "rental_uris": {"android": "https://dc.lft.to/lastmile_qr_scan", "ios": "https://dc.lft.to/lastmile_qr_scan"}, "fusion_lat": 0.0, "name": "973113ff1e92e8e26efcf6f94a6a703b", "lon": -77.00208233333333, "is_disabled": 0, "is_reserved": 0, "fusion_lon": 0.0, "bike_id": "973113ff1e92e8e26efcf6f94a6a703b", "lat": 38.90789}, {"type": "electric_scooter", "rental_uris": {"android": "https://dc.lft.to/lastmile_qr_scan", "ios": "https://dc.lft.to/lastmile_qr_scan"}, "fusion_lat": 0.0, "name": "06b23c80677865ac194734cc97f600d8", "lon": -77.03269233333333, "is_disabled": 0, "is_reserved": 0, "fusion_lon": 0.0, "bike_id": "06b23c80677865ac194734cc97f600d8", "lat": 38.9027885}, {"type": "electric_scooter", "rental_uris": {"android": "https://dc.lft.to/lastmile_qr_scan", "ios": "https://dc.lft.to/lastmile_qr_scan"}, "fusion_lat": 0.0, "name": "4df0efc4d477faba736b53909047406c", "lon": -77.03883633333334, "is_disabled": 0, "is_reserved": 0, "fusion_lon": 0.0, "bike_id": "4df0efc4d477faba736b53909047406c", "lat": 38.90629116666667}, {"type": "electric_scooter", "rental_uris": {"android": "https://dc.lft.to/lastmile_qr_scan", "ios": "https://dc.lft.to/lastmile_qr_scan"}, "fusion_lat": 0.0, "name": "3b217746a29fe0658be2f306ab1554c5", "lon": -77.04654766666667, "is_disabled": 0, "is_reserved": 0, "fusion_lon": 0.0, "bike_id": "3b217746a29fe0658be2f306ab1554c5", "lat": 38.90968516666667}, {"type": "electric_scooter", "rental_uris": {"android": "https://dc.lft.to/lastmile_qr_scan", "ios": "https://dc.lft.to/lastmile_qr_scan"}, "fusion_lat": 0.0, "name": "5609b4dd7c7e89a9ffc2b821cf850d5d", "lon": -77.0075295, "is_disabled": 0, "is_reserved": 0, "fusion_lon": 0.0, "bike_id": "5609b4dd7c7e89a9ffc2b821cf850d5d", "lat": 38.897327}, {"type": "electric_scooter", "rental_uris": {"android": "https://dc.lft.to/lastmile_qr_scan", "ios": "https://dc.lft.to/lastmile_qr_scan"}, "fusion_lat": 0.0, "name": "a7adc68227d07a52a7eaef50e3edbb08", "lon": -77.05886416666667, "is_disabled": 0, "is_reserved": 0, "fusion_lon": 0.0, "bike_id": "a7adc68227d07a52a7eaef50e3edbb08", "lat": 38.936384}, {"type": "electric_scooter", "rental_uris": {"android": "https://dc.lft.to/lastmile_qr_scan", "ios": "https://dc.lft.to/lastmile_qr_scan"}, "fusion_lat": 0.0, "name": "2b8009e40fb3530c4d37c86db290f61b", "lon": -76.99363966666667, "is_disabled": 0, "is_reserved": 0, "fusion_lon": 0.0, "bike_id": "2b8009e40fb3530c4d37c86db290f61b", "lat": 38.92838666666667}, {"type": "electric_scooter", "rental_uris": {"android": "https://dc.lft.to/lastmile_qr_scan", "ios": "https://dc.lft.to/lastmile_qr_scan"}, "fusion_lat": 0.0, "name": "d75304700eddb653878bd760e7014e59", "lon": -77.00211733333333, "is_disabled": 0, "is_reserved": 0, "fusion_lon": 0.0, "bike_id": "d75304700eddb653878bd760e7014e59", "lat": 38.89541583333333}, {"type": "electric_scooter", "rental_uris": {"android": "https://dc.lft.to/lastmile_qr_scan", "ios": "https://dc.lft.to/lastmile_qr_scan"}, "fusion_lat": 0.0, "name": "86f2ea1e396ba2314040a44b132c2235", "lon": -76.98696616666666, "is_disabled": 0, "is_reserved": 0, "fusion_lon": 0.0, "bike_id": "86f2ea1e396ba2314040a44b132c2235", "lat": 38.86250883333334}, {"type": "electric_scooter", "rental_uris": {"android": "https://dc.lft.to/lastmile_qr_scan", "ios": "https://dc.lft.to/lastmile_qr_scan"}, "fusion_lat": 0.0, "name": "e07a54bc332315b49393ba7e09ddb665", "lon": -77.0254315, "is_disabled": 0, "is_reserved": 0, "fusion_lon": 0.0, "bike_id": "e07a54bc332315b49393ba7e09ddb665", "lat": 38.91480116666666}, {"type": "electric_scooter", "rental_uris": {"android": "https://dc.lft.to/lastmile_qr_scan", "ios": "https://dc.lft.to/lastmile_qr_scan"}, "fusion_lat": 0.0, "name": "4db2c869ee2a1719370ae0cbd8fbc6ad", "lon": -77.0220215, "is_disabled": 0, "is_reserved": 0, "fusion_lon": 0.0, "bike_id": "4db2c869ee2a1719370ae0cbd8fbc6ad", "lat": 38.91295566666667}, {"type": "electric_scooter", "rental_uris": {"android": "https://dc.lft.to/lastmile_qr_scan", "ios": "https://dc.lft.to/lastmile_qr_scan"}, "fusion_lat": 0.0, "name": "843e495d85f9401fab0ab18ccb2065ec", "lon": -77.0285235, "is_disabled": 0, "is_reserved": 0, "fusion_lon": 0.0, "bike_id": "843e495d85f9401fab0ab18ccb2065ec", "lat": 38.887428666666665}, {"type": "electric_scooter", "rental_uris": {"android": "https://dc.lft.to/lastmile_qr_scan", "ios": "https://dc.lft.to/lastmile_qr_scan"}, "fusion_lat": 0.0, "name": "a382193def613e1d4ebae4a83c9d71af", "lon": -77.03776416666666, "is_disabled": 0, "is_reserved": 0, "fusion_lon": 0.0, "bike_id": "a382193def613e1d4ebae4a83c9d71af", "lat": 38.916893333333334}, {"type": "electric_scooter", "rental_uris": {"android": "https://dc.lft.to/lastmile_qr_scan", "ios": "https://dc.lft.to/lastmile_qr_scan"}, "fusion_lat": 0.0, "name": "deba024d414f9693269df78d6c9d1b31", "lon": -77.00296683333333, "is_disabled": 0, "is_reserved": 0, "fusion_lon": 0.0, "bike_id": "deba024d414f9693269df78d6c9d1b31", "lat": 38.89489783333333}, {"type": "electric_scooter", "rental_uris": {"android": "https://dc.lft.to/lastmile_qr_scan", "ios": "https://dc.lft.to/lastmile_qr_scan"}, "fusion_lat": 0.0, "name": "1beada1f99e5e898ee93aca345b3cb68", "lon": -76.9888585, "is_disabled": 0, "is_reserved": 0, "fusion_lon": 0.0, "bike_id": "1beada1f99e5e898ee93aca345b3cb68", "lat": 38.866640333333336}, {"type": "electric_scooter", "rental_uris": {"android": "https://dc.lft.to/lastmile_qr_scan", "ios": "https://dc.lft.to/lastmile_qr_scan"}, "fusion_lat": 0.0, "name": "55bb93eaa0e71381d4de777188fc809e", "lon": -77.05414233333333, "is_disabled": 0, "is_reserved": 0, "fusion_lon": 0.0, "bike_id": "55bb93eaa0e71381d4de777188fc809e", "lat": 38.901503166666664}, {"type": "electric_scooter", "rental_uris": {"android": "https://dc.lft.to/lastmile_qr_scan", "ios": "https://dc.lft.to/lastmile_qr_scan"}, "fusion_lat": 0.0, "name": "e711a4f6905473c9c5e77ef9282ecbf1", "lon": -77.0243155, "is_disabled": 0, "is_reserved": 0, "fusion_lon": 0.0, "bike_id": "e711a4f6905473c9c5e77ef9282ecbf1", "lat": 38.93710033333333}, {"type": "electric_scooter", "rental_uris": {"android": "https://dc.lft.to/lastmile_qr_scan", "ios": "https://dc.lft.to/lastmile_qr_scan"}, "fusion_lat": 0.0, "name": "e99a018fc9a1d8b488abd1f2393280a1", "lon": -77.03447366666667, "is_disabled": 0, "is_reserved": 0, "fusion_lon": 0.0, "bike_id": "e99a018fc9a1d8b488abd1f2393280a1", "lat": 38.902627333333335}, {"type": "electric_bike", "rental_uris": {"android": "https://dc.lft.to/lastmile_qr_scan", "ios": "https://dc.lft.to/lastmile_qr_scan"}, "fusion_lat": 0.0, "name": "8b0260736ee9f7dc8d2849420d1d8d52", "lon": -77.0003815, "is_disabled": 0, "is_reserved": 0, "fusion_lon": 0.0, "bike_id": "8b0260736ee9f7dc8d2849420d1d8d52", "lat": 38.967842}, {"type": "electric_scooter", "rental_uris": {"android": "https://dc.lft.to/lastmile_qr_scan", "ios": "https://dc.lft.to/lastmile_qr_scan"}, "fusion_lat": 0.0, "name": "e075543cac027195f0233e6f967df0bd", "lon": -77.013545, "is_disabled": 0, "is_reserved": 0, "fusion_lon": 0.0, "bike_id": "e075543cac027195f0233e6f967df0bd", "lat": 38.892431333333334}, {"type": "electric_scooter", "rental_uris": {"android": "https://dc.lft.to/lastmile_qr_scan", "ios": "https://dc.lft.to/lastmile_qr_scan"}, "fusion_lat": 0.0, "name": "d7b1b8cce56aa41766d36d507012aa56", "lon": -77.02915533333334, "is_disabled": 0, "is_reserved": 0, "fusion_lon": 0.0, "bike_id": "d7b1b8cce56aa41766d36d507012aa56", "lat": 38.89590583333333}, {"type": "electric_scooter", "rental_uris": {"android": "https://dc.lft.to/lastmile_qr_scan", "ios": "https://dc.lft.to/lastmile_qr_scan"}, "fusion_lat": 0.0, "name": "bcf210cff017a083e7307153e06e2a11", "lon": -77.019899, "is_disabled": 0, "is_reserved": 0, "fusion_lon": 0.0, "bike_id": "bcf210cff017a083e7307153e06e2a11", "lat": 38.8758465}, {"type": "electric_scooter", "rental_uris": {"android": "https://dc.lft.to/lastmile_qr_scan", "ios": "https://dc.lft.to/lastmile_qr_scan"}, "fusion_lat": 0.0, "name": "66975edde5777d414f49d64643a5beda", "lon": -76.987474, "is_disabled": 0, "is_reserved": 0, "fusion_lon": 0.0, "bike_id": "66975edde5777d414f49d64643a5beda", "lat": 38.88612583333333}, {"type": "electric_scooter", "rental_uris": {"android": "https://dc.lft.to/lastmile_qr_scan", "ios": "https://dc.lft.to/lastmile_qr_scan"}, "fusion_lat": 0.0, "name": "106c7cdecf79c9f18c8ee1ade44e5729", "lon": -77.04163933333334, "is_disabled": 0, "is_reserved": 0, "fusion_lon": 0.0, "bike_id": "106c7cdecf79c9f18c8ee1ade44e5729", "lat": 38.919875}, {"type": "electric_scooter", "rental_uris": {"android": "https://dc.lft.to/lastmile_qr_scan", "ios": "https://dc.lft.to/lastmile_qr_scan"}, "fusion_lat": 0.0, "name": "865650368f2b8288e793bb1742c2ba5e", "lon": -77.03826516666666, "is_disabled": 0, "is_reserved": 0, "fusion_lon": 0.0, "bike_id": "865650368f2b8288e793bb1742c2ba5e", "lat": 38.9217135}, {"type": "electric_scooter", "rental_uris": {"android": "https://dc.lft.to/lastmile_qr_scan", "ios": "https://dc.lft.to/lastmile_qr_scan"}, "fusion_lat": 0.0, "name": "20e960bca3de1a8922dbc4b782589649", "lon": -77.03905216666666, "is_disabled": 0, "is_reserved": 0, "fusion_lon": 0.0, "bike_id": "20e960bca3de1a8922dbc4b782589649", "lat": 38.922313833333334}, {"type": "electric_scooter", "rental_uris": {"android": "https://dc.lft.to/lastmile_qr_scan", "ios": "https://dc.lft.to/lastmile_qr_scan"}, "fusion_lat": 0.0, "name": "3b5b6dbc603f31b60c38e0ddab8db0c9", "lon": -77.044428, "is_disabled": 0, "is_reserved": 0, "fusion_lon": 0.0, "bike_id": "3b5b6dbc603f31b60c38e0ddab8db0c9", "lat": 38.90561}, {"type": "electric_bike", "rental_uris": {"android": "https://dc.lft.to/lastmile_qr_scan", "ios": "https://dc.lft.to/lastmile_qr_scan"}, "fusion_lat": 0.0, "name": "f9a53765cc04dfd1422f2b0e68cffdaa", "lon": -77.008898, "is_disabled": 0, "is_reserved": 0, "fusion_lon": 0.0, "bike_id": "f9a53765cc04dfd1422f2b0e68cffdaa", "lat": 38.90575716666667}, {"type": "electric_scooter", "rental_uris": {"android": "https://dc.lft.to/lastmile_qr_scan", "ios": "https://dc.lft.to/lastmile_qr_scan"}, "fusion_lat": 0.0, "name": "0425a94b1b318c2537185a69f254cc0a", "lon": -77.03207816666666, "is_disabled": 0, "is_reserved": 0, "fusion_lon": 0.0, "bike_id": "0425a94b1b318c2537185a69f254cc0a", "lat": 38.909468833333335}, {"type": "electric_scooter", "rental_uris": {"android": "https://dc.lft.to/lastmile_qr_scan", "ios": "https://dc.lft.to/lastmile_qr_scan"}, "fusion_lat": 0.0, "name": "90205ccf6490e3beacfde1331272a39f", "lon": -76.9837655, "is_disabled": 0, "is_reserved": 0, "fusion_lon": 0.0, "bike_id": "90205ccf6490e3beacfde1331272a39f", "lat": 38.914952666666665}, {"type": "electric_scooter", "rental_uris": {"android": "https://dc.lft.to/lastmile_qr_scan", "ios": "https://dc.lft.to/lastmile_qr_scan"}, "fusion_lat": 0.0, "name": "08c27f5eaca2a0c0a7711c1478ea9b73", "lon": -77.043204, "is_disabled": 0, "is_reserved": 0, "fusion_lon": 0.0, "bike_id": "08c27f5eaca2a0c0a7711c1478ea9b73", "lat": 38.90856616666667}, {"type": "electric_scooter", "rental_uris": {"android": "https://dc.lft.to/lastmile_qr_scan", "ios": "https://dc.lft.to/lastmile_qr_scan"}, "fusion_lat": 0.0, "name": "48fe638af81dfa6918828894781c24f7", "lon": -77.026912, "is_disabled": 0, "is_reserved": 0, "fusion_lon": 0.0, "bike_id": "48fe638af81dfa6918828894781c24f7", "lat": 38.909358166666664}, {"type": "electric_scooter", "rental_uris": {"android": "https://dc.lft.to/lastmile_qr_scan", "ios": "https://dc.lft.to/lastmile_qr_scan"}, "fusion_lat": 0.0, "name": "c9509a3fd038b5c512912ea4e9e1b110", "lon": -77.03373583333334, "is_disabled": 0, "is_reserved": 0, "fusion_lon": 0.0, "bike_id": "c9509a3fd038b5c512912ea4e9e1b110", "lat": 38.932274666666665}, {"type": "electric_scooter", "rental_uris": {"android": "https://dc.lft.to/lastmile_qr_scan", "ios": "https://dc.lft.to/lastmile_qr_scan"}, "fusion_lat": 0.0, "name": "2136c504f86ec097492a0d84420170c8", "lon": -77.03184583333334, "is_disabled": 0, "is_reserved": 0, "fusion_lon": 0.0, "bike_id": "2136c504f86ec097492a0d84420170c8", "lat": 38.91572983333333}, {"type": "electric_scooter", "rental_uris": {"android": "https://dc.lft.to/lastmile_qr_scan", "ios": "https://dc.lft.to/lastmile_qr_scan"}, "fusion_lat": 0.0, "name": "8256000ea49fd7cfb578a2e8f0853236", "lon": -77.0325165, "is_disabled": 0, "is_reserved": 0, "fusion_lon": 0.0, "bike_id": "8256000ea49fd7cfb578a2e8f0853236", "lat": 38.929182833333336}, {"type": "electric_scooter", "rental_uris": {"android": "https://dc.lft.to/lastmile_qr_scan", "ios": "https://dc.lft.to/lastmile_qr_scan"}, "fusion_lat": 0.0, "name": "b9a83c6ed1346e07242be1e381fb1684", "lon": -76.9837455, "is_disabled": 0, "is_reserved": 0, "fusion_lon": 0.0, "bike_id": "b9a83c6ed1346e07242be1e381fb1684", "lat": 38.8943625}, {"type": "electric_scooter", "rental_uris": {"android": "https://dc.lft.to/lastmile_qr_scan", "ios": "https://dc.lft.to/lastmile_qr_scan"}, "fusion_lat": 0.0, "name": "a524b87df92cb59f74cb3a2ada54d2cd", "lon": -76.93371966666666, "is_disabled": 0, "is_reserved": 0, "fusion_lon": 0.0, "bike_id": "a524b87df92cb59f74cb3a2ada54d2cd", "lat": 38.89914}, {"type": "electric_scooter", "rental_uris": {"android": "https://dc.lft.to/lastmile_qr_scan", "ios": "https://dc.lft.to/lastmile_qr_scan"}, "fusion_lat": 0.0, "name": "484a7ac685ec742f5f99f13c6dec13a4", "lon": -77.03762316666666, "is_disabled": 0, "is_reserved": 0, "fusion_lon": 0.0, "bike_id": "484a7ac685ec742f5f99f13c6dec13a4", "lat": 38.915573}, {"type": "electric_scooter", "rental_uris": {"android": "https://dc.lft.to/lastmile_qr_scan", "ios": "https://dc.lft.to/lastmile_qr_scan"}, "fusion_lat": 0.0, "name": "4c3f1625b640f1bf528efce03ef60317", "lon": -76.985372, "is_disabled": 0, "is_reserved": 0, "fusion_lon": 0.0, "bike_id": "4c3f1625b640f1bf528efce03ef60317", "lat": 38.9102645}, {"type": "electric_scooter", "rental_uris": {"android": "https://dc.lft.to/lastmile_qr_scan", "ios": "https://dc.lft.to/lastmile_qr_scan"}, "fusion_lat": 0.0, "name": "572a1e78bc8569cc596df4c8cc63da97", "lon": -76.964673, "is_disabled": 0, "is_reserved": 0, "fusion_lon": 0.0, "bike_id": "572a1e78bc8569cc596df4c8cc63da97", "lat": 38.93445716666667}, {"type": "electric_scooter", "rental_uris": {"android": "https://dc.lft.to/lastmile_qr_scan", "ios": "https://dc.lft.to/lastmile_qr_scan"}, "fusion_lat": 0.0, "name": "87f968d163c3b645b83c46b504c3ea01", "lon": -77.04472583333333, "is_disabled": 0, "is_reserved": 0, "fusion_lon": 0.0, "bike_id": "87f968d163c3b645b83c46b504c3ea01", "lat": 38.9095595}, {"type": "electric_scooter", "rental_uris": {"android": "https://dc.lft.to/lastmile_qr_scan", "ios": "https://dc.lft.to/lastmile_qr_scan"}, "fusion_lat": 0.0, "name": "be20587e3e96790175f688515dc8c437", "lon": -77.02682883333334, "is_disabled": 0, "is_reserved": 0, "fusion_lon": 0.0, "bike_id": "be20587e3e96790175f688515dc8c437", "lat": 38.98488416666667}, {"type": "electric_scooter", "rental_uris": {"android": "https://dc.lft.to/lastmile_qr_scan", "ios": "https://dc.lft.to/lastmile_qr_scan"}, "fusion_lat": 0.0, "name": "1e2b8b8bd655ef8e749e3b9f295a344a", "lon": -77.03620216666667, "is_disabled": 0, "is_reserved": 0, "fusion_lon": 0.0, "bike_id": "1e2b8b8bd655ef8e749e3b9f295a344a", "lat": 38.917245333333334}, {"type": "electric_scooter", "rental_uris": {"android": "https://dc.lft.to/lastmile_qr_scan", "ios": "https://dc.lft.to/lastmile_qr_scan"}, "fusion_lat": 0.0, "name": "865fc1ddeb6eef22cb79e56c6cf02604", "lon": -77.002251, "is_disabled": 0, "is_reserved": 0, "fusion_lon": 0.0, "bike_id": "865fc1ddeb6eef22cb79e56c6cf02604", "lat": 38.891974166666664}, {"type": "electric_scooter", "rental_uris": {"android": "https://dc.lft.to/lastmile_qr_scan", "ios": "https://dc.lft.to/lastmile_qr_scan"}, "fusion_lat": 0.0, "name": "01fd2df36fedd96c5e8a067c3bd249dd", "lon": -77.014794, "is_disabled": 0, "is_reserved": 0, "fusion_lon": 0.0, "bike_id": "01fd2df36fedd96c5e8a067c3bd249dd", "lat": 38.926713}, {"type": "electric_scooter", "rental_uris": {"android": "https://dc.lft.to/lastmile_qr_scan", "ios": "https://dc.lft.to/lastmile_qr_scan"}, "fusion_lat": 0.0, "name": "de35f34cb3f3763ab76fca15142c3794", "lon": -77.02365416666666, "is_disabled": 0, "is_reserved": 0, "fusion_lon": 0.0, "bike_id": "de35f34cb3f3763ab76fca15142c3794", "lat": 38.8793725}, {"type": "electric_scooter", "rental_uris": {"android": "https://dc.lft.to/lastmile_qr_scan", "ios": "https://dc.lft.to/lastmile_qr_scan"}, "fusion_lat": 0.0, "name": "56b53c1d9f72770261c3c7fb6cf70fb9", "lon": -77.031656, "is_disabled": 0, "is_reserved": 0, "fusion_lon": 0.0, "bike_id": "56b53c1d9f72770261c3c7fb6cf70fb9", "lat": 38.884092333333335}, {"type": "electric_scooter", "rental_uris": {"android": "https://dc.lft.to/lastmile_qr_scan", "ios": "https://dc.lft.to/lastmile_qr_scan"}, "fusion_lat": 0.0, "name": "4199ac1d6fa31e538474e843bdcbb255", "lon": -77.02691316666667, "is_disabled": 0, "is_reserved": 0, "fusion_lon": 0.0, "bike_id": "4199ac1d6fa31e538474e843bdcbb255", "lat": 38.94889}, {"type": "electric_scooter", "rental_uris": {"android": "https://dc.lft.to/lastmile_qr_scan", "ios": "https://dc.lft.to/lastmile_qr_scan"}, "fusion_lat": 0.0, "name": "77b1f8132f1ed61e3c5ce8a212f197b3", "lon": -77.02509733333333, "is_disabled": 0, "is_reserved": 0, "fusion_lon": 0.0, "bike_id": "77b1f8132f1ed61e3c5ce8a212f197b3", "lat": 38.91979416666667}, {"type": "electric_scooter", "rental_uris": {"android": "https://dc.lft.to/lastmile_qr_scan", "ios": "https://dc.lft.to/lastmile_qr_scan"}, "fusion_lat": 0.0, "name": "d4c42df3b1d3696fc6f17433fa9e6945", "lon": -76.9861955, "is_disabled": 0, "is_reserved": 0, "fusion_lon": 0.0, "bike_id": "d4c42df3b1d3696fc6f17433fa9e6945", "lat": 38.90586866666666}, {"type": "electric_scooter", "rental_uris": {"android": "https://dc.lft.to/lastmile_qr_scan", "ios": "https://dc.lft.to/lastmile_qr_scan"}, "fusion_lat": 0.0, "name": "ecd40c8df9fc6cc1163e29163ee97824", "lon": -77.00143166666666, "is_disabled": 0, "is_reserved": 0, "fusion_lon": 0.0, "bike_id": "ecd40c8df9fc6cc1163e29163ee97824", "lat": 38.84281433333334}, {"type": "electric_scooter", "rental_uris": {"android": "https://dc.lft.to/lastmile_qr_scan", "ios": "https://dc.lft.to/lastmile_qr_scan"}, "fusion_lat": 0.0, "name": "0f5581acae7eed41a1e2f08f84e0835b", "lon": -77.01544766666666, "is_disabled": 0, "is_reserved": 0, "fusion_lon": 0.0, "bike_id": "0f5581acae7eed41a1e2f08f84e0835b", "lat": 38.883166}, {"type": "electric_scooter", "rental_uris": {"android": "https://dc.lft.to/lastmile_qr_scan", "ios": "https://dc.lft.to/lastmile_qr_scan"}, "fusion_lat": 0.0, "name": "6660738fbc3855972a81765897a27344", "lon": -77.03187, "is_disabled": 0, "is_reserved": 0, "fusion_lon": 0.0, "bike_id": "6660738fbc3855972a81765897a27344", "lat": 38.923691}, {"type": "electric_scooter", "rental_uris": {"android": "https://dc.lft.to/lastmile_qr_scan", "ios": "https://dc.lft.to/lastmile_qr_scan"}, "fusion_lat": 0.0, "name": "890e1539cb565c8a8d80aa5eb9289f17", "lon": -76.95018633333333, "is_disabled": 0, "is_reserved": 0, "fusion_lon": 0.0, "bike_id": "890e1539cb565c8a8d80aa5eb9289f17", "lat": 38.8938725}, {"type": "electric_scooter", "rental_uris": {"android": "https://dc.lft.to/lastmile_qr_scan", "ios": "https://dc.lft.to/lastmile_qr_scan"}, "fusion_lat": 0.0, "name": "f8271b14934d4fb06a12ae8866aeff95", "lon": -77.04494983333333, "is_disabled": 0, "is_reserved": 0, "fusion_lon": 0.0, "bike_id": "f8271b14934d4fb06a12ae8866aeff95", "lat": 38.907304333333336}, {"type": "electric_bike", "rental_uris": {"android": "https://dc.lft.to/lastmile_qr_scan", "ios": "https://dc.lft.to/lastmile_qr_scan"}, "fusion_lat": 0.0, "name": "fd4b35fc6884f3e547db3d5e3ff3e5ae", "lon": -76.98858416666667, "is_disabled": 0, "is_reserved": 0, "fusion_lon": 0.0, "bike_id": "fd4b35fc6884f3e547db3d5e3ff3e5ae", "lat": 38.954862}, {"type": "electric_scooter", "rental_uris": {"android": "https://dc.lft.to/lastmile_qr_scan", "ios": "https://dc.lft.to/lastmile_qr_scan"}, "fusion_lat": 0.0, "name": "ee2cc409694bb215e53b86d9de98edae", "lon": -76.99608816666667, "is_disabled": 0, "is_reserved": 0, "fusion_lon": 0.0, "bike_id": "ee2cc409694bb215e53b86d9de98edae", "lat": 38.9096345}, {"type": "electric_scooter", "rental_uris": {"android": "https://dc.lft.to/lastmile_qr_scan", "ios": "https://dc.lft.to/lastmile_qr_scan"}, "fusion_lat": 0.0, "name": "5690abe593dc9d9e821dd9a1563a1730", "lon": -77.02495666666667, "is_disabled": 0, "is_reserved": 0, "fusion_lon": 0.0, "bike_id": "5690abe593dc9d9e821dd9a1563a1730", "lat": 38.91805933333333}, {"type": "electric_scooter", "rental_uris": {"android": "https://dc.lft.to/lastmile_qr_scan", "ios": "https://dc.lft.to/lastmile_qr_scan"}, "fusion_lat": 0.0, "name": "08c016da509c87fb70a627efebd50234", "lon": -77.04253233333333, "is_disabled": 0, "is_reserved": 0, "fusion_lon": 0.0, "bike_id": "08c016da509c87fb70a627efebd50234", "lat": 38.91064383333333}, {"type": "electric_scooter", "rental_uris": {"android": "https://dc.lft.to/lastmile_qr_scan", "ios": "https://dc.lft.to/lastmile_qr_scan"}, "fusion_lat": 0.0, "name": "a08a944ba71af55a7971c04aaa03957c", "lon": -77.0333755, "is_disabled": 0, "is_reserved": 0, "fusion_lon": 0.0, "bike_id": "a08a944ba71af55a7971c04aaa03957c", "lat": 38.93643866666667}, {"type": "electric_bike", "rental_uris": {"android": "https://dc.lft.to/lastmile_qr_scan", "ios": "https://dc.lft.to/lastmile_qr_scan"}, "fusion_lat": 0.0, "name": "ae75907bf9889fab58d981673d9cd7cb", "lon": -76.96061416666667, "is_disabled": 0, "is_reserved": 0, "fusion_lon": 0.0, "bike_id": "ae75907bf9889fab58d981673d9cd7cb", "lat": 38.88403616666667}, {"type": "electric_scooter", "rental_uris": {"android": "https://dc.lft.to/lastmile_qr_scan", "ios": "https://dc.lft.to/lastmile_qr_scan"}, "fusion_lat": 0.0, "name": "a4e19205140bbb921aa080cd95ea4b33", "lon": -76.99476916666667, "is_disabled": 0, "is_reserved": 0, "fusion_lon": 0.0, "bike_id": "a4e19205140bbb921aa080cd95ea4b33", "lat": 38.8621625}, {"type": "electric_scooter", "rental_uris": {"android": "https://dc.lft.to/lastmile_qr_scan", "ios": "https://dc.lft.to/lastmile_qr_scan"}, "fusion_lat": 0.0, "name": "ac3ac2a5e48ed22d0c6d5d45f32cab9a", "lon": -77.04401816666666, "is_disabled": 0, "is_reserved": 0, "fusion_lon": 0.0, "bike_id": "ac3ac2a5e48ed22d0c6d5d45f32cab9a", "lat": 38.909160166666666}, {"type": "electric_scooter", "rental_uris": {"android": "https://dc.lft.to/lastmile_qr_scan", "ios": "https://dc.lft.to/lastmile_qr_scan"}, "fusion_lat": 0.0, "name": "cfb8a0329133a06a7aba8a1859a41cb2", "lon": -76.9872675, "is_disabled": 0, "is_reserved": 0, "fusion_lon": 0.0, "bike_id": "cfb8a0329133a06a7aba8a1859a41cb2", "lat": 38.86712933333333}, {"type": "electric_scooter", "rental_uris": {"android": "https://dc.lft.to/lastmile_qr_scan", "ios": "https://dc.lft.to/lastmile_qr_scan"}, "fusion_lat": 0.0, "name": "c21b81c67342fd10e79ff3354b11ab37", "lon": -77.03985516666667, "is_disabled": 0, "is_reserved": 0, "fusion_lon": 0.0, "bike_id": "c21b81c67342fd10e79ff3354b11ab37", "lat": 38.90254016666667}, {"type": "electric_scooter", "rental_uris": {"android": "https://dc.lft.to/lastmile_qr_scan", "ios": "https://dc.lft.to/lastmile_qr_scan"}, "fusion_lat": 0.0, "name": "b3950e9a719d5623ce8254a3b9961a47", "lon": -77.00341483333334, "is_disabled": 0, "is_reserved": 0, "fusion_lon": 0.0, "bike_id": "b3950e9a719d5623ce8254a3b9961a47", "lat": 38.90858983333333}, {"type": "electric_scooter", "rental_uris": {"android": "https://dc.lft.to/lastmile_qr_scan", "ios": "https://dc.lft.to/lastmile_qr_scan"}, "fusion_lat": 0.0, "name": "ca239ce82cb9781644c745722ed50af3", "lon": -76.9489085, "is_disabled": 0, "is_reserved": 0, "fusion_lon": 0.0, "bike_id": "ca239ce82cb9781644c745722ed50af3", "lat": 38.89511266666667}, {"type": "electric_scooter", "rental_uris": {"android": "https://dc.lft.to/lastmile_qr_scan", "ios": "https://dc.lft.to/lastmile_qr_scan"}, "fusion_lat": 0.0, "name": "dbffbdef9f6cbb4afdc9798fee5fdd11", "lon": -76.99333133333333, "is_disabled": 0, "is_reserved": 0, "fusion_lon": 0.0, "bike_id": "dbffbdef9f6cbb4afdc9798fee5fdd11", "lat": 38.871446166666665}, {"type": "electric_scooter", "rental_uris": {"android": "https://dc.lft.to/lastmile_qr_scan", "ios": "https://dc.lft.to/lastmile_qr_scan"}, "fusion_lat": 0.0, "name": "c37a00f8af70b6ae068ce49f9357f262", "lon": -77.0324025, "is_disabled": 0, "is_reserved": 0, "fusion_lon": 0.0, "bike_id": "c37a00f8af70b6ae068ce49f9357f262", "lat": 38.92579116666667}, {"type": "electric_bike", "rental_uris": {"android": "https://dc.lft.to/lastmile_qr_scan", "ios": "https://dc.lft.to/lastmile_qr_scan"}, "fusion_lat": 0.0, "name": "fa964801052d9435d3516034c7fc833c", "lon": -77.01050983333333, "is_disabled": 0, "is_reserved": 0, "fusion_lon": 0.0, "bike_id": "fa964801052d9435d3516034c7fc833c", "lat": 38.877643666666664}, {"type": "electric_scooter", "rental_uris": {"android": "https://dc.lft.to/lastmile_qr_scan", "ios": "https://dc.lft.to/lastmile_qr_scan"}, "fusion_lat": 0.0, "name": "2bc0dc5120ca5af062984b742899ed78", "lon": -77.026725, "is_disabled": 0, "is_reserved": 0, "fusion_lon": 0.0, "bike_id": "2bc0dc5120ca5af062984b742899ed78", "lat": 38.9843215}, {"type": "electric_scooter", "rental_uris": {"android": "https://dc.lft.to/lastmile_qr_scan", "ios": "https://dc.lft.to/lastmile_qr_scan"}, "fusion_lat": 0.0, "name": "c8cd78300d289bb1f005c6c53256023c", "lon": -77.02403783333334, "is_disabled": 0, "is_reserved": 0, "fusion_lon": 0.0, "bike_id": "c8cd78300d289bb1f005c6c53256023c", "lat": 38.90576383333333}, {"type": "electric_scooter", "rental_uris": {"android": "https://dc.lft.to/lastmile_qr_scan", "ios": "https://dc.lft.to/lastmile_qr_scan"}, "fusion_lat": 0.0, "name": "4a8d4e18c74d034f6f36f42c0d7ccae1", "lon": -77.00887633333333, "is_disabled": 0, "is_reserved": 0, "fusion_lon": 0.0, "bike_id": "4a8d4e18c74d034f6f36f42c0d7ccae1", "lat": 38.917136166666666}, {"type": "electric_scooter", "rental_uris": {"android": "https://dc.lft.to/lastmile_qr_scan", "ios": "https://dc.lft.to/lastmile_qr_scan"}, "fusion_lat": 0.0, "name": "006e54abe465436fec26f982617b3545", "lon": -77.03783233333333, "is_disabled": 0, "is_reserved": 0, "fusion_lon": 0.0, "bike_id": "006e54abe465436fec26f982617b3545", "lat": 38.92562866666667}, {"type": "electric_scooter", "rental_uris": {"android": "https://dc.lft.to/lastmile_qr_scan", "ios": "https://dc.lft.to/lastmile_qr_scan"}, "fusion_lat": 0.0, "name": "f603bd0615cc5708e1f4ec992e162274", "lon": -77.0336595, "is_disabled": 0, "is_reserved": 0, "fusion_lon": 0.0, "bike_id": "f603bd0615cc5708e1f4ec992e162274", "lat": 38.91708533333333}, {"type": "electric_scooter", "rental_uris": {"android": "https://dc.lft.to/lastmile_qr_scan", "ios": "https://dc.lft.to/lastmile_qr_scan"}, "fusion_lat": 0.0, "name": "c1870aaf175e57b0e87173d1ea42bca1", "lon": -77.06495166666667, "is_disabled": 0, "is_reserved": 0, "fusion_lon": 0.0, "bike_id": "c1870aaf175e57b0e87173d1ea42bca1", "lat": 38.929091666666665}, {"type": "electric_scooter", "rental_uris": {"android": "https://dc.lft.to/lastmile_qr_scan", "ios": "https://dc.lft.to/lastmile_qr_scan"}, "fusion_lat": 0.0, "name": "bb097069fc2e1ce19438ee4e83b3aa6a", "lon": -76.99124416666666, "is_disabled": 0, "is_reserved": 0, "fusion_lon": 0.0, "bike_id": "bb097069fc2e1ce19438ee4e83b3aa6a", "lat": 38.86204083333333}, {"type": "electric_scooter", "rental_uris": {"android": "https://dc.lft.to/lastmile_qr_scan", "ios": "https://dc.lft.to/lastmile_qr_scan"}, "fusion_lat": 0.0, "name": "6a7f58a010e0408f41fb9f951067d191", "lon": -76.9946725, "is_disabled": 0, "is_reserved": 0, "fusion_lon": 0.0, "bike_id": "6a7f58a010e0408f41fb9f951067d191", "lat": 38.862237666666665}, {"type": "electric_scooter", "rental_uris": {"android": "https://dc.lft.to/lastmile_qr_scan", "ios": "https://dc.lft.to/lastmile_qr_scan"}, "fusion_lat": 0.0, "name": "81f2a05a28e7d7fd9c1ab4284acc7663", "lon": -77.0385325, "is_disabled": 0, "is_reserved": 0, "fusion_lon": 0.0, "bike_id": "81f2a05a28e7d7fd9c1ab4284acc7663", "lat": 38.916168166666665}, {"type": "electric_scooter", "rental_uris": {"android": "https://dc.lft.to/lastmile_qr_scan", "ios": "https://dc.lft.to/lastmile_qr_scan"}, "fusion_lat": 0.0, "name": "8d96a12563ea9faca58171b51903630a", "lon": -77.02698033333333, "is_disabled": 0, "is_reserved": 0, "fusion_lon": 0.0, "bike_id": "8d96a12563ea9faca58171b51903630a", "lat": 38.91276633333333}, {"type": "electric_scooter", "rental_uris": {"android": "https://dc.lft.to/lastmile_qr_scan", "ios": "https://dc.lft.to/lastmile_qr_scan"}, "fusion_lat": 0.0, "name": "d5db55642759dbc2e9c5bb2f175e4fb3", "lon": -77.00077533333334, "is_disabled": 0, "is_reserved": 0, "fusion_lon": 0.0, "bike_id": "d5db55642759dbc2e9c5bb2f175e4fb3", "lat": 38.889771333333336}, {"type": "electric_scooter", "rental_uris": {"android": "https://dc.lft.to/lastmile_qr_scan", "ios": "https://dc.lft.to/lastmile_qr_scan"}, "fusion_lat": 0.0, "name": "99f51b74e41bbd4a4be88220a835ae91", "lon": -77.02416166666667, "is_disabled": 0, "is_reserved": 0, "fusion_lon": 0.0, "bike_id": "99f51b74e41bbd4a4be88220a835ae91", "lat": 38.909741833333335}, {"type": "electric_scooter", "rental_uris": {"android": "https://dc.lft.to/lastmile_qr_scan", "ios": "https://dc.lft.to/lastmile_qr_scan"}, "fusion_lat": 0.0, "name": "803c9dcf90affac2ec34414718a16cf6", "lon": -77.012114, "is_disabled": 0, "is_reserved": 0, "fusion_lon": 0.0, "bike_id": "803c9dcf90affac2ec34414718a16cf6", "lat": 38.9183475}, {"type": "electric_scooter", "rental_uris": {"android": "https://dc.lft.to/lastmile_qr_scan", "ios": "https://dc.lft.to/lastmile_qr_scan"}, "fusion_lat": 0.0, "name": "23f94a953abbfd88e561c2bd25de2f75", "lon": -77.04031666666667, "is_disabled": 0, "is_reserved": 0, "fusion_lon": 0.0, "bike_id": "23f94a953abbfd88e561c2bd25de2f75", "lat": 38.899863333333336}, {"type": "electric_scooter", "rental_uris": {"android": "https://dc.lft.to/lastmile_qr_scan", "ios": "https://dc.lft.to/lastmile_qr_scan"}, "fusion_lat": 0.0, "name": "263b9a61604086ae7e3fbbea504cc462", "lon": -77.0215545, "is_disabled": 0, "is_reserved": 0, "fusion_lon": 0.0, "bike_id": "263b9a61604086ae7e3fbbea504cc462", "lat": 38.89637033333333}, {"type": "electric_scooter", "rental_uris": {"android": "https://dc.lft.to/lastmile_qr_scan", "ios": "https://dc.lft.to/lastmile_qr_scan"}, "fusion_lat": 0.0, "name": "d8c86329dd2966a9875df685f148612f", "lon": -77.0590955, "is_disabled": 0, "is_reserved": 0, "fusion_lon": 0.0, "bike_id": "d8c86329dd2966a9875df685f148612f", "lat": 38.90147016666667}, {"type": "electric_scooter", "rental_uris": {"android": "https://dc.lft.to/lastmile_qr_scan", "ios": "https://dc.lft.to/lastmile_qr_scan"}, "fusion_lat": 0.0, "name": "dc881ff2f0d44cd4bea61f9d0900bfe1", "lon": -77.02286766666667, "is_disabled": 0, "is_reserved": 0, "fusion_lon": 0.0, "bike_id": "dc881ff2f0d44cd4bea61f9d0900bfe1", "lat": 38.8786865}, {"type": "electric_scooter", "rental_uris": {"android": "https://dc.lft.to/lastmile_qr_scan", "ios": "https://dc.lft.to/lastmile_qr_scan"}, "fusion_lat": 0.0, "name": "b01d857705ecbd7922622b7113f3571e", "lon": -77.04055883333334, "is_disabled": 0, "is_reserved": 0, "fusion_lon": 0.0, "bike_id": "b01d857705ecbd7922622b7113f3571e", "lat": 38.91870866666667}, {"type": "electric_scooter", "rental_uris": {"android": "https://dc.lft.to/lastmile_qr_scan", "ios": "https://dc.lft.to/lastmile_qr_scan"}, "fusion_lat": 0.0, "name": "1a0bc28937cca7201b25d851415b1f1e", "lon": -77.04125966666666, "is_disabled": 0, "is_reserved": 0, "fusion_lon": 0.0, "bike_id": "1a0bc28937cca7201b25d851415b1f1e", "lat": 38.91708533333333}, {"type": "electric_scooter", "rental_uris": {"android": "https://dc.lft.to/lastmile_qr_scan", "ios": "https://dc.lft.to/lastmile_qr_scan"}, "fusion_lat": 0.0, "name": "d8b503a46b14d079baad1b8940edbda7", "lon": -77.02550216666667, "is_disabled": 0, "is_reserved": 0, "fusion_lon": 0.0, "bike_id": "d8b503a46b14d079baad1b8940edbda7", "lat": 38.94138183333333}, {"type": "electric_scooter", "rental_uris": {"android": "https://dc.lft.to/lastmile_qr_scan", "ios": "https://dc.lft.to/lastmile_qr_scan"}, "fusion_lat": 0.0, "name": "bda6be2a493b813b9b36cd79e6dedd7d", "lon": -77.04227033333333, "is_disabled": 0, "is_reserved": 0, "fusion_lon": 0.0, "bike_id": "bda6be2a493b813b9b36cd79e6dedd7d", "lat": 38.900962166666666}, {"type": "electric_scooter", "rental_uris": {"android": "https://dc.lft.to/lastmile_qr_scan", "ios": "https://dc.lft.to/lastmile_qr_scan"}, "fusion_lat": 0.0, "name": "98ad406ef5599324a6c6dbcdc991136e", "lon": -77.02500416666666, "is_disabled": 0, "is_reserved": 0, "fusion_lon": 0.0, "bike_id": "98ad406ef5599324a6c6dbcdc991136e", "lat": 38.942044}, {"type": "electric_scooter", "rental_uris": {"android": "https://dc.lft.to/lastmile_qr_scan", "ios": "https://dc.lft.to/lastmile_qr_scan"}, "fusion_lat": 0.0, "name": "ff17cf558edba6c1e1bc12a3baabba07", "lon": -77.05384183333334, "is_disabled": 0, "is_reserved": 0, "fusion_lon": 0.0, "bike_id": "ff17cf558edba6c1e1bc12a3baabba07", "lat": 38.898872}, {"type": "electric_scooter", "rental_uris": {"android": "https://dc.lft.to/lastmile_qr_scan", "ios": "https://dc.lft.to/lastmile_qr_scan"}, "fusion_lat": 0.0, "name": "eac62288620b32e8a2f576682ac757f0", "lon": -76.981557, "is_disabled": 0, "is_reserved": 0, "fusion_lon": 0.0, "bike_id": "eac62288620b32e8a2f576682ac757f0", "lat": 38.90322}, {"type": "electric_scooter", "rental_uris": {"android": "https://dc.lft.to/lastmile_qr_scan", "ios": "https://dc.lft.to/lastmile_qr_scan"}, "fusion_lat": 0.0, "name": "8ce8f0f08319c60e5628d56c339cd36f", "lon": -77.01904583333334, "is_disabled": 0, "is_reserved": 0, "fusion_lon": 0.0, "bike_id": "8ce8f0f08319c60e5628d56c339cd36f", "lat": 38.92368533333333}, {"type": "electric_scooter", "rental_uris": {"android": "https://dc.lft.to/lastmile_qr_scan", "ios": "https://dc.lft.to/lastmile_qr_scan"}, "fusion_lat": 0.0, "name": "f7a21e36d0700504bef326478964f922", "lon": -77.03088633333333, "is_disabled": 0, "is_reserved": 0, "fusion_lon": 0.0, "bike_id": "f7a21e36d0700504bef326478964f922", "lat": 38.927225}, {"type": "electric_bike", "rental_uris": {"android": "https://dc.lft.to/lastmile_qr_scan", "ios": "https://dc.lft.to/lastmile_qr_scan"}, "fusion_lat": 0.0, "name": "b0fc5773ea56ac368ce6d59fcb8446e2", "lon": -76.97673783333333, "is_disabled": 0, "is_reserved": 0, "fusion_lon": 0.0, "bike_id": "b0fc5773ea56ac368ce6d59fcb8446e2", "lat": 38.952435}, {"type": "electric_scooter", "rental_uris": {"android": "https://dc.lft.to/lastmile_qr_scan", "ios": "https://dc.lft.to/lastmile_qr_scan"}, "fusion_lat": 0.0, "name": "f877624579b8a5cd70eb2b3d943620ba", "lon": -77.03594433333333, "is_disabled": 0, "is_reserved": 0, "fusion_lon": 0.0, "bike_id": "f877624579b8a5cd70eb2b3d943620ba", "lat": 38.939403666666664}, {"type": "electric_bike", "rental_uris": {"android": "https://dc.lft.to/lastmile_qr_scan", "ios": "https://dc.lft.to/lastmile_qr_scan"}, "fusion_lat": 0.0, "name": "7db8bbae75c97a0b3b063b991b8eb1b6", "lon": -77.02842333333334, "is_disabled": 0, "is_reserved": 0, "fusion_lon": 0.0, "bike_id": "7db8bbae75c97a0b3b063b991b8eb1b6", "lat": 38.921429833333335}, {"type": "electric_scooter", "rental_uris": {"android": "https://dc.lft.to/lastmile_qr_scan", "ios": "https://dc.lft.to/lastmile_qr_scan"}, "fusion_lat": 0.0, "name": "8465b68dbb03b0798c4abae16704453b", "lon": -77.02547816666667, "is_disabled": 0, "is_reserved": 0, "fusion_lon": 0.0, "bike_id": "8465b68dbb03b0798c4abae16704453b", "lat": 38.917123}, {"type": "electric_scooter", "rental_uris": {"android": "https://dc.lft.to/lastmile_qr_scan", "ios": "https://dc.lft.to/lastmile_qr_scan"}, "fusion_lat": 0.0, "name": "fc2087ce259d20c8660e1d2e102d44c5", "lon": -77.07927833333333, "is_disabled": 0, "is_reserved": 0, "fusion_lon": 0.0, "bike_id": "fc2087ce259d20c8660e1d2e102d44c5", "lat": 38.931125333333334}, {"type": "electric_scooter", "rental_uris": {"android": "https://dc.lft.to/lastmile_qr_scan", "ios": "https://dc.lft.to/lastmile_qr_scan"}, "fusion_lat": 0.0, "name": "d5f2f7f7f310c4994a148dd36edc13f2", "lon": -77.0206005, "is_disabled": 0, "is_reserved": 0, "fusion_lon": 0.0, "bike_id": "d5f2f7f7f310c4994a148dd36edc13f2", "lat": 38.923573833333336}, {"type": "electric_scooter", "rental_uris": {"android": "https://dc.lft.to/lastmile_qr_scan", "ios": "https://dc.lft.to/lastmile_qr_scan"}, "fusion_lat": 0.0, "name": "908cb418ccbfbc25db46ccc50b54ad2c", "lon": -77.03258916666667, "is_disabled": 0, "is_reserved": 0, "fusion_lon": 0.0, "bike_id": "908cb418ccbfbc25db46ccc50b54ad2c", "lat": 38.9324985}, {"type": "electric_scooter", "rental_uris": {"android": "https://dc.lft.to/lastmile_qr_scan", "ios": "https://dc.lft.to/lastmile_qr_scan"}, "fusion_lat": 0.0, "name": "f8ac4f1f25a64d394546893e691314d8", "lon": -76.99519266666667, "is_disabled": 0, "is_reserved": 0, "fusion_lon": 0.0, "bike_id": "f8ac4f1f25a64d394546893e691314d8", "lat": 38.897428833333336}, {"type": "electric_scooter", "rental_uris": {"android": "https://dc.lft.to/lastmile_qr_scan", "ios": "https://dc.lft.to/lastmile_qr_scan"}, "fusion_lat": 0.0, "name": "d1fc7046c543d35af95045b7c0a0b821", "lon": -76.98800033333333, "is_disabled": 0, "is_reserved": 0, "fusion_lon": 0.0, "bike_id": "d1fc7046c543d35af95045b7c0a0b821", "lat": 38.86725033333333}, {"type": "electric_scooter", "rental_uris": {"android": "https://dc.lft.to/lastmile_qr_scan", "ios": "https://dc.lft.to/lastmile_qr_scan"}, "fusion_lat": 0.0, "name": "c149f3c24237ccd683474e8079f3f7fe", "lon": -77.02485216666666, "is_disabled": 0, "is_reserved": 0, "fusion_lon": 0.0, "bike_id": "c149f3c24237ccd683474e8079f3f7fe", "lat": 38.9275095}, {"type": "electric_scooter", "rental_uris": {"android": "https://dc.lft.to/lastmile_qr_scan", "ios": "https://dc.lft.to/lastmile_qr_scan"}, "fusion_lat": 0.0, "name": "1637f5f25f558433daf0fabf77663439", "lon": -76.98307833333334, "is_disabled": 0, "is_reserved": 0, "fusion_lon": 0.0, "bike_id": "1637f5f25f558433daf0fabf77663439", "lat": 38.90520933333333}, {"type": "electric_scooter", "rental_uris": {"android": "https://dc.lft.to/lastmile_qr_scan", "ios": "https://dc.lft.to/lastmile_qr_scan"}, "fusion_lat": 0.0, "name": "b842862a79fcec1ea50114feb9b8d202", "lon": -77.02492016666666, "is_disabled": 0, "is_reserved": 0, "fusion_lon": 0.0, "bike_id": "b842862a79fcec1ea50114feb9b8d202", "lat": 38.93901116666667}, {"type": "electric_scooter", "rental_uris": {"android": "https://dc.lft.to/lastmile_qr_scan", "ios": "https://dc.lft.to/lastmile_qr_scan"}, "fusion_lat": 0.0, "name": "17fc490c3e40307308ef8b1a0eafcc0d", "lon": -77.02530116666667, "is_disabled": 0, "is_reserved": 0, "fusion_lon": 0.0, "bike_id": "17fc490c3e40307308ef8b1a0eafcc0d", "lat": 38.929792}, {"type": "electric_scooter", "rental_uris": {"android": "https://dc.lft.to/lastmile_qr_scan", "ios": "https://dc.lft.to/lastmile_qr_scan"}, "fusion_lat": 0.0, "name": "6269da50b97e72fdcad3164612fb55bf", "lon": -77.03199333333333, "is_disabled": 0, "is_reserved": 0, "fusion_lon": 0.0, "bike_id": "6269da50b97e72fdcad3164612fb55bf", "lat": 38.914254166666666}, {"type": "electric_bike", "rental_uris": {"android": "https://dc.lft.to/lastmile_qr_scan", "ios": "https://dc.lft.to/lastmile_qr_scan"}, "fusion_lat": 0.0, "name": "a6795147e989dd5433dab858fd4a68cd", "lon": -76.9979105, "is_disabled": 0, "is_reserved": 0, "fusion_lon": 0.0, "bike_id": "a6795147e989dd5433dab858fd4a68cd", "lat": 38.905606166666665}, {"type": "electric_scooter", "rental_uris": {"android": "https://dc.lft.to/lastmile_qr_scan", "ios": "https://dc.lft.to/lastmile_qr_scan"}, "fusion_lat": 0.0, "name": "6815fce176973e183583d68201b1acd2", "lon": -77.0319375, "is_disabled": 0, "is_reserved": 0, "fusion_lon": 0.0, "bike_id": "6815fce176973e183583d68201b1acd2", "lat": 38.89804733333333}, {"type": "electric_bike", "rental_uris": {"android": "https://dc.lft.to/lastmile_qr_scan", "ios": "https://dc.lft.to/lastmile_qr_scan"}, "fusion_lat": 0.0, "name": "2e5f59377dee9f6cf5ad9683ad5b7294", "lon": -77.10597216666666, "is_disabled": 0, "is_reserved": 0, "fusion_lon": 0.0, "bike_id": "2e5f59377dee9f6cf5ad9683ad5b7294", "lat": 38.90384366666667}, {"type": "electric_scooter", "rental_uris": {"android": "https://dc.lft.to/lastmile_qr_scan", "ios": "https://dc.lft.to/lastmile_qr_scan"}, "fusion_lat": 0.0, "name": "de4165fa6df4af183edb6dffc2220d91", "lon": -77.031858, "is_disabled": 0, "is_reserved": 0, "fusion_lon": 0.0, "bike_id": "de4165fa6df4af183edb6dffc2220d91", "lat": 38.89937366666667}, {"type": "electric_scooter", "rental_uris": {"android": "https://dc.lft.to/lastmile_qr_scan", "ios": "https://dc.lft.to/lastmile_qr_scan"}, "fusion_lat": 0.0, "name": "3996fc6083621a4f8898e33dbadd7f25", "lon": -77.02974983333333, "is_disabled": 0, "is_reserved": 0, "fusion_lon": 0.0, "bike_id": "3996fc6083621a4f8898e33dbadd7f25", "lat": 38.916748}, {"type": "electric_scooter", "rental_uris": {"android": "https://dc.lft.to/lastmile_qr_scan", "ios": "https://dc.lft.to/lastmile_qr_scan"}, "fusion_lat": 0.0, "name": "dca0d9111c64e5d6921507535d060d81", "lon": -77.00389, "is_disabled": 0, "is_reserved": 0, "fusion_lon": 0.0, "bike_id": "dca0d9111c64e5d6921507535d060d81", "lat": 38.923661333333335}, {"type": "electric_scooter", "rental_uris": {"android": "https://dc.lft.to/lastmile_qr_scan", "ios": "https://dc.lft.to/lastmile_qr_scan"}, "fusion_lat": 0.0, "name": "51bf6d30900780b6ccdd302b646c5f2d", "lon": -77.05034566666667, "is_disabled": 0, "is_reserved": 0, "fusion_lon": 0.0, "bike_id": "51bf6d30900780b6ccdd302b646c5f2d", "lat": 38.923820166666665}, {"type": "electric_scooter", "rental_uris": {"android": "https://dc.lft.to/lastmile_qr_scan", "ios": "https://dc.lft.to/lastmile_qr_scan"}, "fusion_lat": 0.0, "name": "1f6e67db86a05ead628fc18121f8d78e", "lon": -76.973307, "is_disabled": 0, "is_reserved": 0, "fusion_lon": 0.0, "bike_id": "1f6e67db86a05ead628fc18121f8d78e", "lat": 38.90407833333333}, {"type": "electric_scooter", "rental_uris": {"android": "https://dc.lft.to/lastmile_qr_scan", "ios": "https://dc.lft.to/lastmile_qr_scan"}, "fusion_lat": 0.0, "name": "e33fdbc8e52c8d9a428fd608e239cc9e", "lon": -77.02420216666667, "is_disabled": 0, "is_reserved": 0, "fusion_lon": 0.0, "bike_id": "e33fdbc8e52c8d9a428fd608e239cc9e", "lat": 38.90386983333333}, {"type": "electric_scooter", "rental_uris": {"android": "https://dc.lft.to/lastmile_qr_scan", "ios": "https://dc.lft.to/lastmile_qr_scan"}, "fusion_lat": 0.0, "name": "0075eb7eb75d9acf6ef1b51262c8eec1", "lon": -77.0239615, "is_disabled": 0, "is_reserved": 0, "fusion_lon": 0.0, "bike_id": "0075eb7eb75d9acf6ef1b51262c8eec1", "lat": 38.91995766666667}, {"type": "electric_scooter", "rental_uris": {"android": "https://dc.lft.to/lastmile_qr_scan", "ios": "https://dc.lft.to/lastmile_qr_scan"}, "fusion_lat": 0.0, "name": "3292b036ddb56a48bb81ac454a891377", "lon": -77.03772816666667, "is_disabled": 0, "is_reserved": 0, "fusion_lon": 0.0, "bike_id": "3292b036ddb56a48bb81ac454a891377", "lat": 38.9169415}, {"type": "electric_scooter", "rental_uris": {"android": "https://dc.lft.to/lastmile_qr_scan", "ios": "https://dc.lft.to/lastmile_qr_scan"}, "fusion_lat": 0.0, "name": "0f2873996b461617a609cfae02ce9123", "lon": -77.04774933333333, "is_disabled": 0, "is_reserved": 0, "fusion_lon": 0.0, "bike_id": "0f2873996b461617a609cfae02ce9123", "lat": 38.91226916666667}, {"type": "electric_scooter", "rental_uris": {"android": "https://dc.lft.to/lastmile_qr_scan", "ios": "https://dc.lft.to/lastmile_qr_scan"}, "fusion_lat": 0.0, "name": "262dcf04c94a36e4fe553760f5197b85", "lon": -77.030384, "is_disabled": 0, "is_reserved": 0, "fusion_lon": 0.0, "bike_id": "262dcf04c94a36e4fe553760f5197b85", "lat": 38.909764}, {"type": "electric_bike", "rental_uris": {"android": "https://dc.lft.to/lastmile_qr_scan", "ios": "https://dc.lft.to/lastmile_qr_scan"}, "fusion_lat": 0.0, "name": "f4c663dcd8635475928942caf798a4db", "lon": -77.09066033333333, "is_disabled": 0, "is_reserved": 0, "fusion_lon": 0.0, "bike_id": "f4c663dcd8635475928942caf798a4db", "lat": 38.86261}, {"type": "electric_scooter", "rental_uris": {"android": "https://dc.lft.to/lastmile_qr_scan", "ios": "https://dc.lft.to/lastmile_qr_scan"}, "fusion_lat": 0.0, "name": "316ab1e768d4d256c8de4e1db088dc93", "lon": -77.024281, "is_disabled": 0, "is_reserved": 0, "fusion_lon": 0.0, "bike_id": "316ab1e768d4d256c8de4e1db088dc93", "lat": 38.93714266666667}, {"type": "electric_scooter", "rental_uris": {"android": "https://dc.lft.to/lastmile_qr_scan", "ios": "https://dc.lft.to/lastmile_qr_scan"}, "fusion_lat": 0.0, "name": "c1d392337df476fc3fb894d76d8c718e", "lon": -77.03466866666666, "is_disabled": 0, "is_reserved": 0, "fusion_lon": 0.0, "bike_id": "c1d392337df476fc3fb894d76d8c718e", "lat": 38.918685833333335}, {"type": "electric_scooter", "rental_uris": {"android": "https://dc.lft.to/lastmile_qr_scan", "ios": "https://dc.lft.to/lastmile_qr_scan"}, "fusion_lat": 0.0, "name": "71972c7cb15cf1ed5dac2440d272feab", "lon": -76.9438, "is_disabled": 0, "is_reserved": 0, "fusion_lon": 0.0, "bike_id": "71972c7cb15cf1ed5dac2440d272feab", "lat": 38.893231}, {"type": "electric_scooter", "rental_uris": {"android": "https://dc.lft.to/lastmile_qr_scan", "ios": "https://dc.lft.to/lastmile_qr_scan"}, "fusion_lat": 0.0, "name": "beae510126d57b7e51d50d3bf517ed25", "lon": -77.04006016666666, "is_disabled": 0, "is_reserved": 0, "fusion_lon": 0.0, "bike_id": "beae510126d57b7e51d50d3bf517ed25", "lat": 38.915657333333336}, {"type": "electric_scooter", "rental_uris": {"android": "https://dc.lft.to/lastmile_qr_scan", "ios": "https://dc.lft.to/lastmile_qr_scan"}, "fusion_lat": 0.0, "name": "2766413fd58b76b889ae3d1c0724b2bb", "lon": -76.98624833333334, "is_disabled": 0, "is_reserved": 0, "fusion_lon": 0.0, "bike_id": "2766413fd58b76b889ae3d1c0724b2bb", "lat": 38.90113683333333}, {"type": "electric_bike", "rental_uris": {"android": "https://dc.lft.to/lastmile_qr_scan", "ios": "https://dc.lft.to/lastmile_qr_scan"}, "fusion_lat": 0.0, "name": "9d07c3138c9c203bd4f73fa8ed49f1f7", "lon": -76.97829133333333, "is_disabled": 0, "is_reserved": 0, "fusion_lon": 0.0, "bike_id": "9d07c3138c9c203bd4f73fa8ed49f1f7", "lat": 38.843644833333336}, {"type": "electric_scooter", "rental_uris": {"android": "https://dc.lft.to/lastmile_qr_scan", "ios": "https://dc.lft.to/lastmile_qr_scan"}, "fusion_lat": 0.0, "name": "0713733888528f92c796900fca1dd15d", "lon": -76.99774866666667, "is_disabled": 0, "is_reserved": 0, "fusion_lon": 0.0, "bike_id": "0713733888528f92c796900fca1dd15d", "lat": 38.84429866666667}, {"type": "electric_scooter", "rental_uris": {"android": "https://dc.lft.to/lastmile_qr_scan", "ios": "https://dc.lft.to/lastmile_qr_scan"}, "fusion_lat": 0.0, "name": "fda166c7d071a184e5c9ee2669c5e735", "lon": -77.03237666666666, "is_disabled": 0, "is_reserved": 0, "fusion_lon": 0.0, "bike_id": "fda166c7d071a184e5c9ee2669c5e735", "lat": 38.915564}, {"type": "electric_scooter", "rental_uris": {"android": "https://dc.lft.to/lastmile_qr_scan", "ios": "https://dc.lft.to/lastmile_qr_scan"}, "fusion_lat": 0.0, "name": "eec9fbf189b7bbc42a2f5e6afc58789b", "lon": -77.03206683333333, "is_disabled": 0, "is_reserved": 0, "fusion_lon": 0.0, "bike_id": "eec9fbf189b7bbc42a2f5e6afc58789b", "lat": 38.9167915}, {"type": "electric_scooter", "rental_uris": {"android": "https://dc.lft.to/lastmile_qr_scan", "ios": "https://dc.lft.to/lastmile_qr_scan"}, "fusion_lat": 0.0, "name": "6b3a32c41daa928572efc78f47345bb6", "lon": -77.02817933333333, "is_disabled": 0, "is_reserved": 0, "fusion_lon": 0.0, "bike_id": "6b3a32c41daa928572efc78f47345bb6", "lat": 38.91685983333333}, {"type": "electric_scooter", "rental_uris": {"android": "https://dc.lft.to/lastmile_qr_scan", "ios": "https://dc.lft.to/lastmile_qr_scan"}, "fusion_lat": 0.0, "name": "d310880dccff5e501f83be51a3be7b02", "lon": -77.0220555, "is_disabled": 0, "is_reserved": 0, "fusion_lon": 0.0, "bike_id": "d310880dccff5e501f83be51a3be7b02", "lat": 38.9101365}, {"type": "electric_scooter", "rental_uris": {"android": "https://dc.lft.to/lastmile_qr_scan", "ios": "https://dc.lft.to/lastmile_qr_scan"}, "fusion_lat": 0.0, "name": "a46285cdc184eaec749af7870dc41129", "lon": -77.03264833333333, "is_disabled": 0, "is_reserved": 0, "fusion_lon": 0.0, "bike_id": "a46285cdc184eaec749af7870dc41129", "lat": 38.90455333333333}, {"type": "electric_scooter", "rental_uris": {"android": "https://dc.lft.to/lastmile_qr_scan", "ios": "https://dc.lft.to/lastmile_qr_scan"}, "fusion_lat": 0.0, "name": "46c1d069e10fc82bc8a87138a4cece08", "lon": -77.0320665, "is_disabled": 0, "is_reserved": 0, "fusion_lon": 0.0, "bike_id": "46c1d069e10fc82bc8a87138a4cece08", "lat": 38.91599766666667}, {"type": "electric_scooter", "rental_uris": {"android": "https://dc.lft.to/lastmile_qr_scan", "ios": "https://dc.lft.to/lastmile_qr_scan"}, "fusion_lat": 0.0, "name": "a7e158123247a511f04472960f498a6a", "lon": -77.0324625, "is_disabled": 0, "is_reserved": 0, "fusion_lon": 0.0, "bike_id": "a7e158123247a511f04472960f498a6a", "lat": 38.909622}, {"type": "electric_bike", "rental_uris": {"android": "https://dc.lft.to/lastmile_qr_scan", "ios": "https://dc.lft.to/lastmile_qr_scan"}, "fusion_lat": 0.0, "name": "c1c180f2b31b768b62a049cafd33a1b2", "lon": -76.96137733333333, "is_disabled": 0, "is_reserved": 0, "fusion_lon": 0.0, "bike_id": "c1c180f2b31b768b62a049cafd33a1b2", "lat": 38.9551655}, {"type": "electric_bike", "rental_uris": {"android": "https://dc.lft.to/lastmile_qr_scan", "ios": "https://dc.lft.to/lastmile_qr_scan"}, "fusion_lat": 0.0, "name": "0a935baa93cc5b9ad46639449e40f3da", "lon": -76.994103, "is_disabled": 0, "is_reserved": 0, "fusion_lon": 0.0, "bike_id": "0a935baa93cc5b9ad46639449e40f3da", "lat": 38.83137966666666}, {"type": "electric_scooter", "rental_uris": {"android": "https://dc.lft.to/lastmile_qr_scan", "ios": "https://dc.lft.to/lastmile_qr_scan"}, "fusion_lat": 0.0, "name": "4679f57ed46b8333d06ec89004749066", "lon": -77.02496283333333, "is_disabled": 0, "is_reserved": 0, "fusion_lon": 0.0, "bike_id": "4679f57ed46b8333d06ec89004749066", "lat": 38.918035833333334}, {"type": "electric_bike", "rental_uris": {"android": "https://dc.lft.to/lastmile_qr_scan", "ios": "https://dc.lft.to/lastmile_qr_scan"}, "fusion_lat": 0.0, "name": "27db03cefb1aa87227d4f82f961cc7ae", "lon": -77.007392, "is_disabled": 0, "is_reserved": 0, "fusion_lon": 0.0, "bike_id": "27db03cefb1aa87227d4f82f961cc7ae", "lat": 38.89791266666667}, {"type": "electric_scooter", "rental_uris": {"android": "https://dc.lft.to/lastmile_qr_scan", "ios": "https://dc.lft.to/lastmile_qr_scan"}, "fusion_lat": 0.0, "name": "db1e62d2692a1329cafbcf20854cb390", "lon": -77.03215216666666, "is_disabled": 0, "is_reserved": 0, "fusion_lon": 0.0, "bike_id": "db1e62d2692a1329cafbcf20854cb390", "lat": 38.92045916666667}, {"type": "electric_scooter", "rental_uris": {"android": "https://dc.lft.to/lastmile_qr_scan", "ios": "https://dc.lft.to/lastmile_qr_scan"}, "fusion_lat": 0.0, "name": "820e5d5310c17a9832b593b3f384cb7e", "lon": -77.01776016666666, "is_disabled": 0, "is_reserved": 0, "fusion_lon": 0.0, "bike_id": "820e5d5310c17a9832b593b3f384cb7e", "lat": 38.91994233333333}, {"type": "electric_scooter", "rental_uris": {"android": "https://dc.lft.to/lastmile_qr_scan", "ios": "https://dc.lft.to/lastmile_qr_scan"}, "fusion_lat": 0.0, "name": "1813e34929ff038df4a7037baab61d05", "lon": -77.000697, "is_disabled": 0, "is_reserved": 0, "fusion_lon": 0.0, "bike_id": "1813e34929ff038df4a7037baab61d05", "lat": 38.90143066666667}, {"type": "electric_scooter", "rental_uris": {"android": "https://dc.lft.to/lastmile_qr_scan", "ios": "https://dc.lft.to/lastmile_qr_scan"}, "fusion_lat": 0.0, "name": "05569081163784064e05977e48d51ec8", "lon": -77.04256883333333, "is_disabled": 0, "is_reserved": 0, "fusion_lon": 0.0, "bike_id": "05569081163784064e05977e48d51ec8", "lat": 38.910599500000004}, {"type": "electric_scooter", "rental_uris": {"android": "https://dc.lft.to/lastmile_qr_scan", "ios": "https://dc.lft.to/lastmile_qr_scan"}, "fusion_lat": 0.0, "name": "2cd8ee4e4ac339cf99be6307657a4cc4", "lon": -76.98596, "is_disabled": 0, "is_reserved": 0, "fusion_lon": 0.0, "bike_id": "2cd8ee4e4ac339cf99be6307657a4cc4", "lat": 38.90815216666667}, {"type": "electric_scooter", "rental_uris": {"android": "https://dc.lft.to/lastmile_qr_scan", "ios": "https://dc.lft.to/lastmile_qr_scan"}, "fusion_lat": 0.0, "name": "55affed939b4eb4c34e2d3b0307ccd31", "lon": -76.98823433333334, "is_disabled": 0, "is_reserved": 0, "fusion_lon": 0.0, "bike_id": "55affed939b4eb4c34e2d3b0307ccd31", "lat": 38.919050166666665}, {"type": "electric_scooter", "rental_uris": {"android": "https://dc.lft.to/lastmile_qr_scan", "ios": "https://dc.lft.to/lastmile_qr_scan"}, "fusion_lat": 0.0, "name": "4fd4c82a825b9c3f5bf907edb6548da6", "lon": -77.031892, "is_disabled": 0, "is_reserved": 0, "fusion_lon": 0.0, "bike_id": "4fd4c82a825b9c3f5bf907edb6548da6", "lat": 38.91128033333333}, {"type": "electric_scooter", "rental_uris": {"android": "https://dc.lft.to/lastmile_qr_scan", "ios": "https://dc.lft.to/lastmile_qr_scan"}, "fusion_lat": 0.0, "name": "bc021b318ddb2ae4a27aa7737880c476", "lon": -77.041247, "is_disabled": 0, "is_reserved": 0, "fusion_lon": 0.0, "bike_id": "bc021b318ddb2ae4a27aa7737880c476", "lat": 38.92377883333333}, {"type": "electric_scooter", "rental_uris": {"android": "https://dc.lft.to/lastmile_qr_scan", "ios": "https://dc.lft.to/lastmile_qr_scan"}, "fusion_lat": 0.0, "name": "36bad39c72257be12bc98955e52338bf", "lon": -77.00790216666667, "is_disabled": 0, "is_reserved": 0, "fusion_lon": 0.0, "bike_id": "36bad39c72257be12bc98955e52338bf", "lat": 38.89669}, {"type": "electric_scooter", "rental_uris": {"android": "https://dc.lft.to/lastmile_qr_scan", "ios": "https://dc.lft.to/lastmile_qr_scan"}, "fusion_lat": 0.0, "name": "77d57d6369f96724f2ed06ae01d5ce70", "lon": -77.05760266666667, "is_disabled": 0, "is_reserved": 0, "fusion_lon": 0.0, "bike_id": "77d57d6369f96724f2ed06ae01d5ce70", "lat": 38.924632}, {"type": "electric_scooter", "rental_uris": {"android": "https://dc.lft.to/lastmile_qr_scan", "ios": "https://dc.lft.to/lastmile_qr_scan"}, "fusion_lat": 0.0, "name": "4bb7399cadc55ae54c1923ee2a6b552c", "lon": -77.003816, "is_disabled": 0, "is_reserved": 0, "fusion_lon": 0.0, "bike_id": "4bb7399cadc55ae54c1923ee2a6b552c", "lat": 38.90860716666667}, {"type": "electric_scooter", "rental_uris": {"android": "https://dc.lft.to/lastmile_qr_scan", "ios": "https://dc.lft.to/lastmile_qr_scan"}, "fusion_lat": 0.0, "name": "4fe046291707bff5b3226ff1e5db76d9", "lon": -77.02539516666667, "is_disabled": 0, "is_reserved": 0, "fusion_lon": 0.0, "bike_id": "4fe046291707bff5b3226ff1e5db76d9", "lat": 38.927414}, {"type": "electric_scooter", "rental_uris": {"android": "https://dc.lft.to/lastmile_qr_scan", "ios": "https://dc.lft.to/lastmile_qr_scan"}, "fusion_lat": 0.0, "name": "653e02d5120dff71a199b523f2ecef19", "lon": -76.93371266666666, "is_disabled": 0, "is_reserved": 0, "fusion_lon": 0.0, "bike_id": "653e02d5120dff71a199b523f2ecef19", "lat": 38.899147166666665}, {"type": "electric_bike", "rental_uris": {"android": "https://dc.lft.to/lastmile_qr_scan", "ios": "https://dc.lft.to/lastmile_qr_scan"}, "fusion_lat": 0.0, "name": "cac42435e86942d0e2f99ef37ad9fc6a", "lon": -77.10093433333333, "is_disabled": 0, "is_reserved": 0, "fusion_lon": 0.0, "bike_id": "cac42435e86942d0e2f99ef37ad9fc6a", "lat": 38.95955566666667}, {"type": "electric_scooter", "rental_uris": {"android": "https://dc.lft.to/lastmile_qr_scan", "ios": "https://dc.lft.to/lastmile_qr_scan"}, "fusion_lat": 0.0, "name": "88a407d70c63e784f939eb4cc49ffe8e", "lon": -77.02223133333334, "is_disabled": 0, "is_reserved": 0, "fusion_lon": 0.0, "bike_id": "88a407d70c63e784f939eb4cc49ffe8e", "lat": 38.91562733333333}, {"type": "electric_scooter", "rental_uris": {"android": "https://dc.lft.to/lastmile_qr_scan", "ios": "https://dc.lft.to/lastmile_qr_scan"}, "fusion_lat": 0.0, "name": "f65c04657a3f94ceb5ffe371391abb37", "lon": -76.98361916666667, "is_disabled": 0, "is_reserved": 0, "fusion_lon": 0.0, "bike_id": "f65c04657a3f94ceb5ffe371391abb37", "lat": 38.91552766666667}, {"type": "electric_scooter", "rental_uris": {"android": "https://dc.lft.to/lastmile_qr_scan", "ios": "https://dc.lft.to/lastmile_qr_scan"}, "fusion_lat": 0.0, "name": "9055cb43ec52bbbe749cc93957378d34", "lon": -77.02511366666667, "is_disabled": 0, "is_reserved": 0, "fusion_lon": 0.0, "bike_id": "9055cb43ec52bbbe749cc93957378d34", "lat": 38.90973283333334}, {"type": "electric_scooter", "rental_uris": {"android": "https://dc.lft.to/lastmile_qr_scan", "ios": "https://dc.lft.to/lastmile_qr_scan"}, "fusion_lat": 0.0, "name": "70bca60beba6542c9f7c321d41cbbfac", "lon": -76.94932766666666, "is_disabled": 0, "is_reserved": 0, "fusion_lon": 0.0, "bike_id": "70bca60beba6542c9f7c321d41cbbfac", "lat": 38.89348116666667}, {"type": "electric_scooter", "rental_uris": {"android": "https://dc.lft.to/lastmile_qr_scan", "ios": "https://dc.lft.to/lastmile_qr_scan"}, "fusion_lat": 0.0, "name": "2388a1714250151744e544f1ec647988", "lon": -77.00552283333333, "is_disabled": 0, "is_reserved": 0, "fusion_lon": 0.0, "bike_id": "2388a1714250151744e544f1ec647988", "lat": 38.900420833333335}, {"type": "electric_scooter", "rental_uris": {"android": "https://dc.lft.to/lastmile_qr_scan", "ios": "https://dc.lft.to/lastmile_qr_scan"}, "fusion_lat": 0.0, "name": "ccf5faefd00721f407626c94caaa8763", "lon": -77.03845833333334, "is_disabled": 0, "is_reserved": 0, "fusion_lon": 0.0, "bike_id": "ccf5faefd00721f407626c94caaa8763", "lat": 38.904543}, {"type": "electric_scooter", "rental_uris": {"android": "https://dc.lft.to/lastmile_qr_scan", "ios": "https://dc.lft.to/lastmile_qr_scan"}, "fusion_lat": 0.0, "name": "96356eb83785a78738c17eae4e9e2b04", "lon": -77.0450425, "is_disabled": 0, "is_reserved": 0, "fusion_lon": 0.0, "bike_id": "96356eb83785a78738c17eae4e9e2b04", "lat": 38.91114133333333}, {"type": "electric_scooter", "rental_uris": {"android": "https://dc.lft.to/lastmile_qr_scan", "ios": "https://dc.lft.to/lastmile_qr_scan"}, "fusion_lat": 0.0, "name": "b93617710c44d0c5f8074ba315971cd6", "lon": -77.03810316666667, "is_disabled": 0, "is_reserved": 0, "fusion_lon": 0.0, "bike_id": "b93617710c44d0c5f8074ba315971cd6", "lat": 38.9206865}, {"type": "electric_scooter", "rental_uris": {"android": "https://dc.lft.to/lastmile_qr_scan", "ios": "https://dc.lft.to/lastmile_qr_scan"}, "fusion_lat": 0.0, "name": "8f116794de8a7a4dbfd115ef8e0514c2", "lon": -77.03646483333333, "is_disabled": 0, "is_reserved": 0, "fusion_lon": 0.0, "bike_id": "8f116794de8a7a4dbfd115ef8e0514c2", "lat": 38.91616}, {"type": "electric_bike", "rental_uris": {"android": "https://dc.lft.to/lastmile_qr_scan", "ios": "https://dc.lft.to/lastmile_qr_scan"}, "fusion_lat": 0.0, "name": "8455868d5de341778f49bc7979b6874a", "lon": -76.93011066666666, "is_disabled": 0, "is_reserved": 0, "fusion_lon": 0.0, "bike_id": "8455868d5de341778f49bc7979b6874a", "lat": 38.896541}, {"type": "electric_scooter", "rental_uris": {"android": "https://dc.lft.to/lastmile_qr_scan", "ios": "https://dc.lft.to/lastmile_qr_scan"}, "fusion_lat": 0.0, "name": "01802ff1d4643d87dea3b25e6c3f67eb", "lon": -77.02650583333333, "is_disabled": 0, "is_reserved": 0, "fusion_lon": 0.0, "bike_id": "01802ff1d4643d87dea3b25e6c3f67eb", "lat": 38.975630333333335}, {"type": "electric_scooter", "rental_uris": {"android": "https://dc.lft.to/lastmile_qr_scan", "ios": "https://dc.lft.to/lastmile_qr_scan"}, "fusion_lat": 0.0, "name": "dad1ec870afea801f6f16ae473cfd19f", "lon": -77.04878083333334, "is_disabled": 0, "is_reserved": 0, "fusion_lon": 0.0, "bike_id": "dad1ec870afea801f6f16ae473cfd19f", "lat": 38.9133905}, {"type": "electric_scooter", "rental_uris": {"android": "https://dc.lft.to/lastmile_qr_scan", "ios": "https://dc.lft.to/lastmile_qr_scan"}, "fusion_lat": 0.0, "name": "3cd3e2e7b7a57a7e4fbfbbc33b705cfa", "lon": -76.99507383333334, "is_disabled": 0, "is_reserved": 0, "fusion_lon": 0.0, "bike_id": "3cd3e2e7b7a57a7e4fbfbbc33b705cfa", "lat": 38.88010666666667}, {"type": "electric_scooter", "rental_uris": {"android": "https://dc.lft.to/lastmile_qr_scan", "ios": "https://dc.lft.to/lastmile_qr_scan"}, "fusion_lat": 0.0, "name": "3496412a024c5d4a6d2cd0690c2b9ffe", "lon": -76.9364245, "is_disabled": 0, "is_reserved": 0, "fusion_lon": 0.0, "bike_id": "3496412a024c5d4a6d2cd0690c2b9ffe", "lat": 38.90066483333333}, {"type": "electric_scooter", "rental_uris": {"android": "https://dc.lft.to/lastmile_qr_scan", "ios": "https://dc.lft.to/lastmile_qr_scan"}, "fusion_lat": 0.0, "name": "036dc105c52d82824e193d810d6d6faf", "lon": -77.04819166666667, "is_disabled": 0, "is_reserved": 0, "fusion_lon": 0.0, "bike_id": "036dc105c52d82824e193d810d6d6faf", "lat": 38.9050835}, {"type": "electric_bike", "rental_uris": {"android": "https://dc.lft.to/lastmile_qr_scan", "ios": "https://dc.lft.to/lastmile_qr_scan"}, "fusion_lat": 0.0, "name": "3ed3e80d3669976338ddc49aed899e24", "lon": -77.03465416666667, "is_disabled": 0, "is_reserved": 0, "fusion_lon": 0.0, "bike_id": "3ed3e80d3669976338ddc49aed899e24", "lat": 38.96435433333333}, {"type": "electric_scooter", "rental_uris": {"android": "https://dc.lft.to/lastmile_qr_scan", "ios": "https://dc.lft.to/lastmile_qr_scan"}, "fusion_lat": 0.0, "name": "363ce9ba183cdd2cc80479ead6e3c470", "lon": -77.02116533333333, "is_disabled": 0, "is_reserved": 0, "fusion_lon": 0.0, "bike_id": "363ce9ba183cdd2cc80479ead6e3c470", "lat": 38.91739316666666}, {"type": "electric_scooter", "rental_uris": {"android": "https://dc.lft.to/lastmile_qr_scan", "ios": "https://dc.lft.to/lastmile_qr_scan"}, "fusion_lat": 0.0, "name": "83b4d96b709532a682197cbd25af5844", "lon": -77.041898, "is_disabled": 0, "is_reserved": 0, "fusion_lon": 0.0, "bike_id": "83b4d96b709532a682197cbd25af5844", "lat": 38.903689666666665}, {"type": "electric_scooter", "rental_uris": {"android": "https://dc.lft.to/lastmile_qr_scan", "ios": "https://dc.lft.to/lastmile_qr_scan"}, "fusion_lat": 0.0, "name": "07c1e0cfd610599216d03cb6840401dc", "lon": -77.01117766666667, "is_disabled": 0, "is_reserved": 0, "fusion_lon": 0.0, "bike_id": "07c1e0cfd610599216d03cb6840401dc", "lat": 38.885490833333336}, {"type": "electric_scooter", "rental_uris": {"android": "https://dc.lft.to/lastmile_qr_scan", "ios": "https://dc.lft.to/lastmile_qr_scan"}, "fusion_lat": 0.0, "name": "3a1c4ead9261a279a6185445485befd6", "lon": -77.02420816666667, "is_disabled": 0, "is_reserved": 0, "fusion_lon": 0.0, "bike_id": "3a1c4ead9261a279a6185445485befd6", "lat": 38.93496}, {"type": "electric_scooter", "rental_uris": {"android": "https://dc.lft.to/lastmile_qr_scan", "ios": "https://dc.lft.to/lastmile_qr_scan"}, "fusion_lat": 0.0, "name": "5ac4b89ab1c830c5dfed54158d225791", "lon": -77.01417683333334, "is_disabled": 0, "is_reserved": 0, "fusion_lon": 0.0, "bike_id": "5ac4b89ab1c830c5dfed54158d225791", "lat": 38.92848433333333}, {"type": "electric_scooter", "rental_uris": {"android": "https://dc.lft.to/lastmile_qr_scan", "ios": "https://dc.lft.to/lastmile_qr_scan"}, "fusion_lat": 0.0, "name": "b730c0a6fe96f20fd810021296c4b0c3", "lon": -77.04188816666667, "is_disabled": 0, "is_reserved": 0, "fusion_lon": 0.0, "bike_id": "b730c0a6fe96f20fd810021296c4b0c3", "lat": 38.90536383333333}, {"type": "electric_scooter", "rental_uris": {"android": "https://dc.lft.to/lastmile_qr_scan", "ios": "https://dc.lft.to/lastmile_qr_scan"}, "fusion_lat": 0.0, "name": "ed917c5599724361e05e30739ba05828", "lon": -77.059374, "is_disabled": 0, "is_reserved": 0, "fusion_lon": 0.0, "bike_id": "ed917c5599724361e05e30739ba05828", "lat": 38.91246366666667}, {"type": "electric_scooter", "rental_uris": {"android": "https://dc.lft.to/lastmile_qr_scan", "ios": "https://dc.lft.to/lastmile_qr_scan"}, "fusion_lat": 0.0, "name": "ffbccafe9e2b4006b6c483319cca5ac3", "lon": -77.00831416666666, "is_disabled": 0, "is_reserved": 0, "fusion_lon": 0.0, "bike_id": "ffbccafe9e2b4006b6c483319cca5ac3", "lat": 38.913035666666666}, {"type": "electric_scooter", "rental_uris": {"android": "https://dc.lft.to/lastmile_qr_scan", "ios": "https://dc.lft.to/lastmile_qr_scan"}, "fusion_lat": 0.0, "name": "80f41da3efe8321734cfa175e087bef2", "lon": -76.9971315, "is_disabled": 0, "is_reserved": 0, "fusion_lon": 0.0, "bike_id": "80f41da3efe8321734cfa175e087bef2", "lat": 38.910856}, {"type": "electric_bike", "rental_uris": {"android": "https://dc.lft.to/lastmile_qr_scan", "ios": "https://dc.lft.to/lastmile_qr_scan"}, "fusion_lat": 0.0, "name": "be7ed9b8612780e1c0f116b0e6ab7ac8", "lon": -77.109203, "is_disabled": 0, "is_reserved": 0, "fusion_lon": 0.0, "bike_id": "be7ed9b8612780e1c0f116b0e6ab7ac8", "lat": 39.0519635}, {"type": "electric_scooter", "rental_uris": {"android": "https://dc.lft.to/lastmile_qr_scan", "ios": "https://dc.lft.to/lastmile_qr_scan"}, "fusion_lat": 0.0, "name": "a736954a8d398d0bd97eaced7da9bd35", "lon": -77.04683616666667, "is_disabled": 0, "is_reserved": 0, "fusion_lon": 0.0, "bike_id": "a736954a8d398d0bd97eaced7da9bd35", "lat": 38.90356116666667}, {"type": "electric_scooter", "rental_uris": {"android": "https://dc.lft.to/lastmile_qr_scan", "ios": "https://dc.lft.to/lastmile_qr_scan"}, "fusion_lat": 0.0, "name": "44cf8b332866ebc84bf43f0967336887", "lon": -77.0283365, "is_disabled": 0, "is_reserved": 0, "fusion_lon": 0.0, "bike_id": "44cf8b332866ebc84bf43f0967336887", "lat": 38.92476583333333}, {"type": "electric_scooter", "rental_uris": {"android": "https://dc.lft.to/lastmile_qr_scan", "ios": "https://dc.lft.to/lastmile_qr_scan"}, "fusion_lat": 0.0, "name": "3c5cfefb775481d0bbd290ffcef48a4c", "lon": -77.02680583333333, "is_disabled": 0, "is_reserved": 0, "fusion_lon": 0.0, "bike_id": "3c5cfefb775481d0bbd290ffcef48a4c", "lat": 38.8979675}, {"type": "electric_scooter", "rental_uris": {"android": "https://dc.lft.to/lastmile_qr_scan", "ios": "https://dc.lft.to/lastmile_qr_scan"}, "fusion_lat": 0.0, "name": "327ceee46d5d1b82c4252f5023d29039", "lon": -76.93001283333334, "is_disabled": 0, "is_reserved": 0, "fusion_lon": 0.0, "bike_id": "327ceee46d5d1b82c4252f5023d29039", "lat": 38.9018745}, {"type": "electric_scooter", "rental_uris": {"android": "https://dc.lft.to/lastmile_qr_scan", "ios": "https://dc.lft.to/lastmile_qr_scan"}, "fusion_lat": 0.0, "name": "cc20ba19212a0c5d22fb42018cfe160a", "lon": -77.03269466666667, "is_disabled": 0, "is_reserved": 0, "fusion_lon": 0.0, "bike_id": "cc20ba19212a0c5d22fb42018cfe160a", "lat": 38.92836883333333}, {"type": "electric_scooter", "rental_uris": {"android": "https://dc.lft.to/lastmile_qr_scan", "ios": "https://dc.lft.to/lastmile_qr_scan"}, "fusion_lat": 0.0, "name": "ce610f00526f7adfe1bfb2362968c4a3", "lon": -76.97870066666667, "is_disabled": 0, "is_reserved": 0, "fusion_lon": 0.0, "bike_id": "ce610f00526f7adfe1bfb2362968c4a3", "lat": 38.883032}, {"type": "electric_scooter", "rental_uris": {"android": "https://dc.lft.to/lastmile_qr_scan", "ios": "https://dc.lft.to/lastmile_qr_scan"}, "fusion_lat": 0.0, "name": "6c7468528bffa5e34d386668d52f46b9", "lon": -76.97617366666667, "is_disabled": 0, "is_reserved": 0, "fusion_lon": 0.0, "bike_id": "6c7468528bffa5e34d386668d52f46b9", "lat": 38.8995825}, {"type": "electric_scooter", "rental_uris": {"android": "https://dc.lft.to/lastmile_qr_scan", "ios": "https://dc.lft.to/lastmile_qr_scan"}, "fusion_lat": 0.0, "name": "a824c284395cecff500520491c095276", "lon": -77.03264466666667, "is_disabled": 0, "is_reserved": 0, "fusion_lon": 0.0, "bike_id": "a824c284395cecff500520491c095276", "lat": 38.935253333333335}, {"type": "electric_scooter", "rental_uris": {"android": "https://dc.lft.to/lastmile_qr_scan", "ios": "https://dc.lft.to/lastmile_qr_scan"}, "fusion_lat": 0.0, "name": "d588ed70a28c83518cf9418a5a2a07e9", "lon": -76.97712133333333, "is_disabled": 0, "is_reserved": 0, "fusion_lon": 0.0, "bike_id": "d588ed70a28c83518cf9418a5a2a07e9", "lat": 38.887776833333334}, {"type": "electric_scooter", "rental_uris": {"android": "https://dc.lft.to/lastmile_qr_scan", "ios": "https://dc.lft.to/lastmile_qr_scan"}, "fusion_lat": 0.0, "name": "c46fcdb671d51679ebf9ff4d207ff99e", "lon": -76.99521016666667, "is_disabled": 0, "is_reserved": 0, "fusion_lon": 0.0, "bike_id": "c46fcdb671d51679ebf9ff4d207ff99e", "lat": 38.895450333333336}, {"type": "electric_scooter", "rental_uris": {"android": "https://dc.lft.to/lastmile_qr_scan", "ios": "https://dc.lft.to/lastmile_qr_scan"}, "fusion_lat": 0.0, "name": "0314088913b39eb6dc577774efb43962", "lon": -77.01885966666667, "is_disabled": 0, "is_reserved": 0, "fusion_lon": 0.0, "bike_id": "0314088913b39eb6dc577774efb43962", "lat": 38.897460833333334}, {"type": "electric_scooter", "rental_uris": {"android": "https://dc.lft.to/lastmile_qr_scan", "ios": "https://dc.lft.to/lastmile_qr_scan"}, "fusion_lat": 0.0, "name": "b03ee491ee175c5c6462f6685dcc3b82", "lon": -77.00796383333333, "is_disabled": 0, "is_reserved": 0, "fusion_lon": 0.0, "bike_id": "b03ee491ee175c5c6462f6685dcc3b82", "lat": 38.89646}, {"type": "electric_scooter", "rental_uris": {"android": "https://dc.lft.to/lastmile_qr_scan", "ios": "https://dc.lft.to/lastmile_qr_scan"}, "fusion_lat": 0.0, "name": "fb504e5ebdae6c42c9ab183ac7196bfe", "lon": -77.07241766666667, "is_disabled": 0, "is_reserved": 0, "fusion_lon": 0.0, "bike_id": "fb504e5ebdae6c42c9ab183ac7196bfe", "lat": 38.940076833333336}, {"type": "electric_scooter", "rental_uris": {"android": "https://dc.lft.to/lastmile_qr_scan", "ios": "https://dc.lft.to/lastmile_qr_scan"}, "fusion_lat": 0.0, "name": "8ed2e065f5c34baf378ac8044534908f", "lon": -76.96776133333333, "is_disabled": 0, "is_reserved": 0, "fusion_lon": 0.0, "bike_id": "8ed2e065f5c34baf378ac8044534908f", "lat": 38.8592145}, {"type": "electric_scooter", "rental_uris": {"android": "https://dc.lft.to/lastmile_qr_scan", "ios": "https://dc.lft.to/lastmile_qr_scan"}, "fusion_lat": 0.0, "name": "a77529e83329992d948ed379c29f15d4", "lon": -77.027248, "is_disabled": 0, "is_reserved": 0, "fusion_lon": 0.0, "bike_id": "a77529e83329992d948ed379c29f15d4", "lat": 38.8972955}, {"type": "electric_scooter", "rental_uris": {"android": "https://dc.lft.to/lastmile_qr_scan", "ios": "https://dc.lft.to/lastmile_qr_scan"},