{"data": {"bikes": [{"is_reserved": 0, "type": "electric_scooter", "fusion_lat": 0.0, "is_disabled": 0, "rental_uris": {"ios": "https://dc.lft.to/lastmile_qr_scan", "android": "https://dc.lft.to/lastmile_qr_scan"}, "bike_id": "3d19e66ef6eeb5315fc1dc4554416f64", "lat": 38.89429583333333, "name": "3d19e66ef6eeb5315fc1dc4554416f64", "lon": -77.044746, "fusion_lon": 0.0}, {"is_reserved": 0, "type": "electric_scooter", "fusion_lat": 0.0, "is_disabled": 0, "rental_uris": {"ios": "https://dc.lft.to/lastmile_qr_scan", "android": "https://dc.lft.to/lastmile_qr_scan"}, "bike_id": "d835b613c0f7a043df5ac2d4d699a47a", "lat": 38.89863583333333, "name": "d835b613c0f7a043df5ac2d4d699a47a", "lon": -77.046762, "fusion_lon": 0.0}, {"is_reserved": 0, "type": "electric_scooter", "fusion_lat": 0.0, "is_disabled": 0, "rental_uris": {"ios": "https://dc.lft.to/lastmile_qr_scan", "android": "https://dc.lft.to/lastmile_qr_scan"}, "bike_id": "b00f3ce97b30004daa2cba3c86327f79", "lat": 38.91060383333333, "name": "b00f3ce97b30004daa2cba3c86327f79", "lon": -77.04351, "fusion_lon": 0.0}, {"is_reserved": 0, "type": "electric_bike", "fusion_lat": 0.0, "is_disabled": 0, "rental_uris": {"ios": "https://dc.lft.to/lastmile_qr_scan", "android": "https://dc.lft.to/lastmile_qr_scan"}, "bike_id": "75d6968971055cff5ae655ef76522f9b", "lat": 38.90239233333333, "name": "75d6968971055cff5ae655ef76522f9b", "lon": -77.05911566666667, "fusion_lon": 0.0}, {"is_reserved": 0, "type": "electric_scooter", "fusion_lat": 0.0, "is_disabled": 0, "rental_uris": {"ios": "https://dc.lft.to/lastmile_qr_scan", "android": "https://dc.lft.to/lastmile_qr_scan"}, "bike_id": "721a443942fe132c030976aee7a78a99", "lat": 38.895067833333336, "name": "721a443942fe132c030976aee7a78a99", "lon": -77.0230445, "fusion_lon": 0.0}, {"is_reserved": 0, "type": "electric_scooter", "fusion_lat": 0.0, "is_disabled": 0, "rental_uris": {"ios": "https://dc.lft.to/lastmile_qr_scan", "android": "https://dc.lft.to/lastmile_qr_scan"}, "bike_id": "46bb22ccd21f92881acab264dc787e9b", "lat": 38.92796416666667, "name": "46bb22ccd21f92881acab264dc787e9b", "lon": -77.03151, "fusion_lon": 0.0}, {"is_reserved": 0, "type": "electric_scooter", "fusion_lat": 0.0, "is_disabled": 0, "rental_uris": {"ios": "https://dc.lft.to/lastmile_qr_scan", "android": "https://dc.lft.to/lastmile_qr_scan"}, "bike_id": "4d488dae230f5d97b832638602988d8a", "lat": 38.931147, "name": "4d488dae230f5d97b832638602988d8a", "lon": -77.02344233333334, "fusion_lon": 0.0}, {"is_reserved": 0, "type": "electric_scooter", "fusion_lat": 0.0, "is_disabled": 0, "rental_uris": {"ios": "https://dc.lft.to/lastmile_qr_scan", "android": "https://dc.lft.to/lastmile_qr_scan"}, "bike_id": "60ccd196763aff82068d7496a0caff9c", "lat": 38.919162166666666, "name": "60ccd196763aff82068d7496a0caff9c", "lon": -77.01169133333333, "fusion_lon": 0.0}, {"is_reserved": 0, "type": "electric_scooter", "fusion_lat": 0.0, "is_disabled": 0, "rental_uris": {"ios": "https://dc.lft.to/lastmile_qr_scan", "android": "https://dc.lft.to/lastmile_qr_scan"}, "bike_id": "b411fea57a026816557feb98267aa8f5", "lat": 38.88613933333333, "name": "b411fea57a026816557feb98267aa8f5", "lon": -77.00332233333333, "fusion_lon": 0.0}, {"is_reserved": 0, "type": "electric_scooter", "fusion_lat": 0.0, "is_disabled": 0, "rental_uris": {"ios": "https://dc.lft.to/lastmile_qr_scan", "android": "https://dc.lft.to/lastmile_qr_scan"}, "bike_id": "32d0de7f6487a596e29dcdf0c79241b0", "lat": 38.876784, "name": "32d0de7f6487a596e29dcdf0c79241b0", "lon": -77.00337133333333, "fusion_lon": 0.0}, {"is_reserved": 0, "type": "electric_scooter", "fusion_lat": 0.0, "is_disabled": 0, "rental_uris": {"ios": "https://dc.lft.to/lastmile_qr_scan", "android": "https://dc.lft.to/lastmile_qr_scan"}, "bike_id": "dba70ee8ea477bdacf0035ad476e22d0", "lat": 38.878616, "name": "dba70ee8ea477bdacf0035ad476e22d0", "lon": -77.01767683333334, "fusion_lon": 0.0}, {"is_reserved": 0, "type": "electric_scooter", "fusion_lat": 0.0, "is_disabled": 0, "rental_uris": {"ios": "https://dc.lft.to/lastmile_qr_scan", "android": "https://dc.lft.to/lastmile_qr_scan"}, "bike_id": "36178c05d1eb8171113c96e9d4e9dc4e", "lat": 38.903752833333336, "name": "36178c05d1eb8171113c96e9d4e9dc4e", "lon": -77.02926216666667, "fusion_lon": 0.0}, {"is_reserved": 0, "type": "electric_scooter", "fusion_lat": 0.0, "is_disabled": 0, "rental_uris": {"ios": "https://dc.lft.to/lastmile_qr_scan", "android": "https://dc.lft.to/lastmile_qr_scan"}, "bike_id": "aa36db2309ea0e2f16a57647afe44ea3", "lat": 38.924659166666665, "name": "aa36db2309ea0e2f16a57647afe44ea3", "lon": -77.02238033333333, "fusion_lon": 0.0}, {"is_reserved": 0, "type": "electric_scooter", "fusion_lat": 0.0, "is_disabled": 0, "rental_uris": {"ios": "https://dc.lft.to/lastmile_qr_scan", "android": "https://dc.lft.to/lastmile_qr_scan"}, "bike_id": "7b9445dd012b8437937768a5ad910db7", "lat": 38.9009795, "name": "7b9445dd012b8437937768a5ad910db7", "lon": -77.04497883333333, "fusion_lon": 0.0}, {"is_reserved": 0, "type": "electric_scooter", "fusion_lat": 0.0, "is_disabled": 0, "rental_uris": {"ios": "https://dc.lft.to/lastmile_qr_scan", "android": "https://dc.lft.to/lastmile_qr_scan"}, "bike_id": "ec4a1f643b16c0bed982a1dc37c36341", "lat": 38.88161233333334, "name": "ec4a1f643b16c0bed982a1dc37c36341", "lon": -77.01313083333334, "fusion_lon": 0.0}, {"is_reserved": 0, "type": "electric_scooter", "fusion_lat": 0.0, "is_disabled": 0, "rental_uris": {"ios": "https://dc.lft.to/lastmile_qr_scan", "android": "https://dc.lft.to/lastmile_qr_scan"}, "bike_id": "d7a66d22bfe20bf748dabecfdb8f1c4f", "lat": 38.919478, "name": "d7a66d22bfe20bf748dabecfdb8f1c4f", "lon": -77.03181566666666, "fusion_lon": 0.0}, {"is_reserved": 0, "type": "electric_scooter", "fusion_lat": 0.0, "is_disabled": 0, "rental_uris": {"ios": "https://dc.lft.to/lastmile_qr_scan", "android": "https://dc.lft.to/lastmile_qr_scan"}, "bike_id": "969b57f15d1b6670575cb822b2754efe", "lat": 38.91677083333333, "name": "969b57f15d1b6670575cb822b2754efe", "lon": -77.0157385, "fusion_lon": 0.0}, {"is_reserved": 0, "type": "electric_bike", "fusion_lat": 0.0, "is_disabled": 0, "rental_uris": {"ios": "https://dc.lft.to/lastmile_qr_scan", "android": "https://dc.lft.to/lastmile_qr_scan"}, "bike_id": "95fe869982abbfa71aa5c0595aafd7d8", "lat": 38.9426105, "name": "95fe869982abbfa71aa5c0595aafd7d8", "lon": -76.99065883333333, "fusion_lon": 0.0}, {"is_reserved": 0, "type": "electric_bike", "fusion_lat": 0.0, "is_disabled": 0, "rental_uris": {"ios": "https://dc.lft.to/lastmile_qr_scan", "android": "https://dc.lft.to/lastmile_qr_scan"}, "bike_id": "929b9fb1704f0904c5ca48db7dc4930e", "lat": 38.858033166666665, "name": "929b9fb1704f0904c5ca48db7dc4930e", "lon": -76.98752266666666, "fusion_lon": 0.0}, {"is_reserved": 0, "type": "electric_scooter", "fusion_lat": 0.0, "is_disabled": 0, "rental_uris": {"ios": "https://dc.lft.to/lastmile_qr_scan", "android": "https://dc.lft.to/lastmile_qr_scan"}, "bike_id": "32031fb72c0ec2ac33c020eee547f79e", "lat": 38.919267833333336, "name": "32031fb72c0ec2ac33c020eee547f79e", "lon": -77.03175716666667, "fusion_lon": 0.0}, {"is_reserved": 0, "type": "electric_scooter", "fusion_lat": 0.0, "is_disabled": 0, "rental_uris": {"ios": "https://dc.lft.to/lastmile_qr_scan", "android": "https://dc.lft.to/lastmile_qr_scan"}, "bike_id": "d0cf3a24c27e6e65b737c9219c3d6ab3", "lat": 38.89468133333333, "name": "d0cf3a24c27e6e65b737c9219c3d6ab3", "lon": -77.0219525, "fusion_lon": 0.0}, {"is_reserved": 0, "type": "electric_scooter", "fusion_lat": 0.0, "is_disabled": 0, "rental_uris": {"ios": "https://dc.lft.to/lastmile_qr_scan", "android": "https://dc.lft.to/lastmile_qr_scan"}, "bike_id": "f91555d45ce5a31bf354c6dd874a2118", "lat": 38.9073975, "name": "f91555d45ce5a31bf354c6dd874a2118", "lon": -77.0051005, "fusion_lon": 0.0}, {"is_reserved": 0, "type": "electric_scooter", "fusion_lat": 0.0, "is_disabled": 0, "rental_uris": {"ios": "https://dc.lft.to/lastmile_qr_scan", "android": "https://dc.lft.to/lastmile_qr_scan"}, "bike_id": "af225c90aeff70fc738e0df9444b3d41", "lat": 38.892207, "name": "af225c90aeff70fc738e0df9444b3d41", "lon": -77.03215366666667, "fusion_lon": 0.0}, {"is_reserved": 0, "type": "electric_scooter", "fusion_lat": 0.0, "is_disabled": 0, "rental_uris": {"ios": "https://dc.lft.to/lastmile_qr_scan", "android": "https://dc.lft.to/lastmile_qr_scan"}, "bike_id": "b5c10fdb7354758934d2994e322128f8", "lat": 38.9388905, "name": "b5c10fdb7354758934d2994e322128f8", "lon": -77.02826733333333, "fusion_lon": 0.0}, {"is_reserved": 0, "type": "electric_scooter", "fusion_lat": 0.0, "is_disabled": 0, "rental_uris": {"ios": "https://dc.lft.to/lastmile_qr_scan", "android": "https://dc.lft.to/lastmile_qr_scan"}, "bike_id": "685ad8af87113577b54ca3d62ce4c560", "lat": 38.898895833333334, "name": "685ad8af87113577b54ca3d62ce4c560", "lon": -77.02174166666667, "fusion_lon": 0.0}, {"is_reserved": 0, "type": "electric_bike", "fusion_lat": 0.0, "is_disabled": 0, "rental_uris": {"ios": "https://dc.lft.to/lastmile_qr_scan", "android": "https://dc.lft.to/lastmile_qr_scan"}, "bike_id": "cb0abe8fb59c9dfdf443b6e5ac0e2402", "lat": 39.0262435, "name": "cb0abe8fb59c9dfdf443b6e5ac0e2402", "lon": -77.0388025, "fusion_lon": 0.0}, {"is_reserved": 0, "type": "electric_scooter", "fusion_lat": 0.0, "is_disabled": 0, "rental_uris": {"ios": "https://dc.lft.to/lastmile_qr_scan", "android": "https://dc.lft.to/lastmile_qr_scan"}, "bike_id": "c1470a46ce629d59bff77dafad594958", "lat": 38.9089165, "name": "c1470a46ce629d59bff77dafad594958", "lon": -77.045001, "fusion_lon": 0.0}, {"is_reserved": 0, "type": "electric_scooter", "fusion_lat": 0.0, "is_disabled": 0, "rental_uris": {"ios": "https://dc.lft.to/lastmile_qr_scan", "android": "https://dc.lft.to/lastmile_qr_scan"}, "bike_id": "6b5d9e802cb36e97491db15bf1c937a9", "lat": 38.890438, "name": "6b5d9e802cb36e97491db15bf1c937a9", "lon": -76.98834166666667, "fusion_lon": 0.0}, {"is_reserved": 0, "type": "electric_scooter", "fusion_lat": 0.0, "is_disabled": 0, "rental_uris": {"ios": "https://dc.lft.to/lastmile_qr_scan", "android": "https://dc.lft.to/lastmile_qr_scan"}, "bike_id": "6d7694b930e07ae57596f43ddbc3befd", "lat": 38.928354166666665, "name": "6d7694b930e07ae57596f43ddbc3befd", "lon": -77.03701683333334, "fusion_lon": 0.0}, {"is_reserved": 0, "type": "electric_scooter", "fusion_lat": 0.0, "is_disabled": 0, "rental_uris": {"ios": "https://dc.lft.to/lastmile_qr_scan", "android": "https://dc.lft.to/lastmile_qr_scan"}, "bike_id": "20f6b0ad793e034b2bbc51b45cae8823", "lat": 38.8983485, "name": "20f6b0ad793e034b2bbc51b45cae8823", "lon": -76.93841366666666, "fusion_lon": 0.0}, {"is_reserved": 0, "type": "electric_scooter", "fusion_lat": 0.0, "is_disabled": 0, "rental_uris": {"ios": "https://dc.lft.to/lastmile_qr_scan", "android": "https://dc.lft.to/lastmile_qr_scan"}, "bike_id": "34cad984b6914409841c7df26989d1b8", "lat": 38.886641, "name": "34cad984b6914409841c7df26989d1b8", "lon": -76.98563516666667, "fusion_lon": 0.0}, {"is_reserved": 0, "type": "electric_scooter", "fusion_lat": 0.0, "is_disabled": 0, "rental_uris": {"ios": "https://dc.lft.to/lastmile_qr_scan", "android": "https://dc.lft.to/lastmile_qr_scan"}, "bike_id": "91cd7e7d301f92d291e7f280ea8c22d6", "lat": 38.90605566666667, "name": "91cd7e7d301f92d291e7f280ea8c22d6", "lon": -77.0211465, "fusion_lon": 0.0}, {"is_reserved": 0, "type": "electric_scooter", "fusion_lat": 0.0, "is_disabled": 0, "rental_uris": {"ios": "https://dc.lft.to/lastmile_qr_scan", "android": "https://dc.lft.to/lastmile_qr_scan"}, "bike_id": "af5b1b36f7071ac9ab6f81a8df2a19db", "lat": 38.85521116666666, "name": "af5b1b36f7071ac9ab6f81a8df2a19db", "lon": -76.991467, "fusion_lon": 0.0}, {"is_reserved": 0, "type": "electric_scooter", "fusion_lat": 0.0, "is_disabled": 0, "rental_uris": {"ios": "https://dc.lft.to/lastmile_qr_scan", "android": "https://dc.lft.to/lastmile_qr_scan"}, "bike_id": "6f38fbd588f329977aeeebfbfbcbce0e", "lat": 38.902069166666664, "name": "6f38fbd588f329977aeeebfbfbcbce0e", "lon": -77.02377183333333, "fusion_lon": 0.0}, {"is_reserved": 0, "type": "electric_scooter", "fusion_lat": 0.0, "is_disabled": 0, "rental_uris": {"ios": "https://dc.lft.to/lastmile_qr_scan", "android": "https://dc.lft.to/lastmile_qr_scan"}, "bike_id": "cac2e1752ccfd7d8cb8e17a3d3db77cc", "lat": 38.922193666666665, "name": "cac2e1752ccfd7d8cb8e17a3d3db77cc", "lon": -77.03292433333333, "fusion_lon": 0.0}, {"is_reserved": 0, "type": "electric_scooter", "fusion_lat": 0.0, "is_disabled": 0, "rental_uris": {"ios": "https://dc.lft.to/lastmile_qr_scan", "android": "https://dc.lft.to/lastmile_qr_scan"}, "bike_id": "ab34709c18c049c43bda92302c68942f", "lat": 38.89476116666667, "name": "ab34709c18c049c43bda92302c68942f", "lon": -76.99358566666666, "fusion_lon": 0.0}, {"is_reserved": 0, "type": "electric_scooter", "fusion_lat": 0.0, "is_disabled": 0, "rental_uris": {"ios": "https://dc.lft.to/lastmile_qr_scan", "android": "https://dc.lft.to/lastmile_qr_scan"}, "bike_id": "88f2f5d4c96f802be96a3d230fb1e0dc", "lat": 38.934255666666665, "name": "88f2f5d4c96f802be96a3d230fb1e0dc", "lon": -77.04410266666666, "fusion_lon": 0.0}, {"is_reserved": 0, "type": "electric_scooter", "fusion_lat": 0.0, "is_disabled": 0, "rental_uris": {"ios": "https://dc.lft.to/lastmile_qr_scan", "android": "https://dc.lft.to/lastmile_qr_scan"}, "bike_id": "2d81338673105736f42e2dce69903325", "lat": 38.90748166666667, "name": "2d81338673105736f42e2dce69903325", "lon": -77.00302283333333, "fusion_lon": 0.0}, {"is_reserved": 0, "type": "electric_scooter", "fusion_lat": 0.0, "is_disabled": 0, "rental_uris": {"ios": "https://dc.lft.to/lastmile_qr_scan", "android": "https://dc.lft.to/lastmile_qr_scan"}, "bike_id": "f5c8ba915c09bba573d9fced2c2daafe", "lat": 38.898611833333334, "name": "f5c8ba915c09bba573d9fced2c2daafe", "lon": -77.03963016666667, "fusion_lon": 0.0}, {"is_reserved": 0, "type": "electric_scooter", "fusion_lat": 0.0, "is_disabled": 0, "rental_uris": {"ios": "https://dc.lft.to/lastmile_qr_scan", "android": "https://dc.lft.to/lastmile_qr_scan"}, "bike_id": "67c22d6d23b4e4fbcb7840dad379c665", "lat": 38.92086366666667, "name": "67c22d6d23b4e4fbcb7840dad379c665", "lon": -77.03638766666667, "fusion_lon": 0.0}, {"is_reserved": 0, "type": "electric_scooter", "fusion_lat": 0.0, "is_disabled": 0, "rental_uris": {"ios": "https://dc.lft.to/lastmile_qr_scan", "android": "https://dc.lft.to/lastmile_qr_scan"}, "bike_id": "8f5e096e220951fce0f962180918a674", "lat": 38.922869166666665, "name": "8f5e096e220951fce0f962180918a674", "lon": -77.01991983333333, "fusion_lon": 0.0}, {"is_reserved": 0, "type": "electric_scooter", "fusion_lat": 0.0, "is_disabled": 0, "rental_uris": {"ios": "https://dc.lft.to/lastmile_qr_scan", "android": "https://dc.lft.to/lastmile_qr_scan"}, "bike_id": "84cd56fdebfc2238944ae83e90d27254", "lat": 38.91820766666667, "name": "84cd56fdebfc2238944ae83e90d27254", "lon": -77.04171883333333, "fusion_lon": 0.0}, {"is_reserved": 0, "type": "electric_scooter", "fusion_lat": 0.0, "is_disabled": 0, "rental_uris": {"ios": "https://dc.lft.to/lastmile_qr_scan", "android": "https://dc.lft.to/lastmile_qr_scan"}, "bike_id": "c3dc4c4c4311b74da21c894094e3f8a4", "lat": 38.90250116666667, "name": "c3dc4c4c4311b74da21c894094e3f8a4", "lon": -77.01796566666667, "fusion_lon": 0.0}, {"is_reserved": 0, "type": "electric_scooter", "fusion_lat": 0.0, "is_disabled": 0, "rental_uris": {"ios": "https://dc.lft.to/lastmile_qr_scan", "android": "https://dc.lft.to/lastmile_qr_scan"}, "bike_id": "a043f116262c16209805b24e6257a75a", "lat": 38.90502083333333, "name": "a043f116262c16209805b24e6257a75a", "lon": -77.02806383333333, "fusion_lon": 0.0}, {"is_reserved": 0, "type": "electric_scooter", "fusion_lat": 0.0, "is_disabled": 0, "rental_uris": {"ios": "https://dc.lft.to/lastmile_qr_scan", "android": "https://dc.lft.to/lastmile_qr_scan"}, "bike_id": "57251c553d42e5a1645405d8d88b473c", "lat": 38.876325333333334, "name": "57251c553d42e5a1645405d8d88b473c", "lon": -77.00962216666667, "fusion_lon": 0.0}, {"is_reserved": 0, "type": "electric_scooter", "fusion_lat": 0.0, "is_disabled": 0, "rental_uris": {"ios": "https://dc.lft.to/lastmile_qr_scan", "android": "https://dc.lft.to/lastmile_qr_scan"}, "bike_id": "b04992ea453009b8c67f9e3e394bb20d", "lat": 38.9299595, "name": "b04992ea453009b8c67f9e3e394bb20d", "lon": -77.03793683333333, "fusion_lon": 0.0}, {"is_reserved": 0, "type": "electric_scooter", "fusion_lat": 0.0, "is_disabled": 0, "rental_uris": {"ios": "https://dc.lft.to/lastmile_qr_scan", "android": "https://dc.lft.to/lastmile_qr_scan"}, "bike_id": "6ef674a48119d5c39991d9a266914379", "lat": 38.893357, "name": "6ef674a48119d5c39991d9a266914379", "lon": -76.928912, "fusion_lon": 0.0}, {"is_reserved": 0, "type": "electric_scooter", "fusion_lat": 0.0, "is_disabled": 0, "rental_uris": {"ios": "https://dc.lft.to/lastmile_qr_scan", "android": "https://dc.lft.to/lastmile_qr_scan"}, "bike_id": "3ff672f40f003e1b24bc423abe9a4b9a", "lat": 38.9172385, "name": "3ff672f40f003e1b24bc423abe9a4b9a", "lon": -77.03462133333333, "fusion_lon": 0.0}, {"is_reserved": 0, "type": "electric_scooter", "fusion_lat": 0.0, "is_disabled": 0, "rental_uris": {"ios": "https://dc.lft.to/lastmile_qr_scan", "android": "https://dc.lft.to/lastmile_qr_scan"}, "bike_id": "ec8b6b3337384e539035c37da5e53dae", "lat": 38.937728, "name": "ec8b6b3337384e539035c37da5e53dae", "lon": -77.0266345, "fusion_lon": 0.0}, {"is_reserved": 0, "type": "electric_scooter", "fusion_lat": 0.0, "is_disabled": 0, "rental_uris": {"ios": "https://dc.lft.to/lastmile_qr_scan", "android": "https://dc.lft.to/lastmile_qr_scan"}, "bike_id": "8302ac7f7db1d1619bde3f6afaa7e316", "lat": 38.8996445, "name": "8302ac7f7db1d1619bde3f6afaa7e316", "lon": -77.0151105, "fusion_lon": 0.0}, {"is_reserved": 0, "type": "electric_scooter", "fusion_lat": 0.0, "is_disabled": 0, "rental_uris": {"ios": "https://dc.lft.to/lastmile_qr_scan", "android": "https://dc.lft.to/lastmile_qr_scan"}, "bike_id": "aec7703474c94ddc2fcfde713a2e3509", "lat": 38.94277366666667, "name": "aec7703474c94ddc2fcfde713a2e3509", "lon": -77.08196116666667, "fusion_lon": 0.0}, {"is_reserved": 0, "type": "electric_scooter", "fusion_lat": 0.0, "is_disabled": 0, "rental_uris": {"ios": "https://dc.lft.to/lastmile_qr_scan", "android": "https://dc.lft.to/lastmile_qr_scan"}, "bike_id": "fb79944e76ccf3ace5394a3b3dbb3349", "lat": 38.9126555, "name": "fb79944e76ccf3ace5394a3b3dbb3349", "lon": -77.00993133333333, "fusion_lon": 0.0}, {"is_reserved": 0, "type": "electric_scooter", "fusion_lat": 0.0, "is_disabled": 0, "rental_uris": {"ios": "https://dc.lft.to/lastmile_qr_scan", "android": "https://dc.lft.to/lastmile_qr_scan"}, "bike_id": "062dfddfd84e26856257a9f4df1a51fa", "lat": 38.900287166666665, "name": "062dfddfd84e26856257a9f4df1a51fa", "lon": -77.0200305, "fusion_lon": 0.0}, {"is_reserved": 0, "type": "electric_scooter", "fusion_lat": 0.0, "is_disabled": 0, "rental_uris": {"ios": "https://dc.lft.to/lastmile_qr_scan", "android": "https://dc.lft.to/lastmile_qr_scan"}, "bike_id": "b107ea576dbbe1d243e57920f23c7932", "lat": 38.956383333333335, "name": "b107ea576dbbe1d243e57920f23c7932", "lon": -77.03630066666666, "fusion_lon": 0.0}, {"is_reserved": 0, "type": "electric_scooter", "fusion_lat": 0.0, "is_disabled": 0, "rental_uris": {"ios": "https://dc.lft.to/lastmile_qr_scan", "android": "https://dc.lft.to/lastmile_qr_scan"}, "bike_id": "c2e7ccdcc7f60271908d345bf59ad22f", "lat": 38.91710616666667, "name": "c2e7ccdcc7f60271908d345bf59ad22f", "lon": -77.024074, "fusion_lon": 0.0}, {"is_reserved": 0, "type": "electric_scooter", "fusion_lat": 0.0, "is_disabled": 0, "rental_uris": {"ios": "https://dc.lft.to/lastmile_qr_scan", "android": "https://dc.lft.to/lastmile_qr_scan"}, "bike_id": "2bc739dc2134d0b484f215f40be01109", "lat": 38.91504466666667, "name": "2bc739dc2134d0b484f215f40be01109", "lon": -77.032162, "fusion_lon": 0.0}, {"is_reserved": 0, "type": "electric_scooter", "fusion_lat": 0.0, "is_disabled": 0, "rental_uris": {"ios": "https://dc.lft.to/lastmile_qr_scan", "android": "https://dc.lft.to/lastmile_qr_scan"}, "bike_id": "dfd29b729a4941d714c20800053f6a26", "lat": 38.90977083333333, "name": "dfd29b729a4941d714c20800053f6a26", "lon": -77.03295683333333, "fusion_lon": 0.0}, {"is_reserved": 0, "type": "electric_scooter", "fusion_lat": 0.0, "is_disabled": 0, "rental_uris": {"ios": "https://dc.lft.to/lastmile_qr_scan", "android": "https://dc.lft.to/lastmile_qr_scan"}, "bike_id": "1b44c243490ce5ef2c7c95e441ec2674", "lat": 38.91714866666667, "name": "1b44c243490ce5ef2c7c95e441ec2674", "lon": -77.03500916666667, "fusion_lon": 0.0}, {"is_reserved": 0, "type": "electric_scooter", "fusion_lat": 0.0, "is_disabled": 0, "rental_uris": {"ios": "https://dc.lft.to/lastmile_qr_scan", "android": "https://dc.lft.to/lastmile_qr_scan"}, "bike_id": "fcae7c0e30881388c17b5913ad2d1e3a", "lat": 38.909725333333334, "name": "fcae7c0e30881388c17b5913ad2d1e3a", "lon": -77.02204216666667, "fusion_lon": 0.0}, {"is_reserved": 0, "type": "electric_scooter", "fusion_lat": 0.0, "is_disabled": 0, "rental_uris": {"ios": "https://dc.lft.to/lastmile_qr_scan", "android": "https://dc.lft.to/lastmile_qr_scan"}, "bike_id": "fd43ab204b5a13d4eda8c7c746f41ba5", "lat": 38.923201, "name": "fd43ab204b5a13d4eda8c7c746f41ba5", "lon": -77.01953333333333, "fusion_lon": 0.0}, {"is_reserved": 0, "type": "electric_scooter", "fusion_lat": 0.0, "is_disabled": 0, "rental_uris": {"ios": "https://dc.lft.to/lastmile_qr_scan", "android": "https://dc.lft.to/lastmile_qr_scan"}, "bike_id": "4ea6642f4b0032806ed7340bff26fce5", "lat": 38.9232365, "name": "4ea6642f4b0032806ed7340bff26fce5", "lon": -77.04511666666667, "fusion_lon": 0.0}, {"is_reserved": 0, "type": "electric_scooter", "fusion_lat": 0.0, "is_disabled": 0, "rental_uris": {"ios": "https://dc.lft.to/lastmile_qr_scan", "android": "https://dc.lft.to/lastmile_qr_scan"}, "bike_id": "7fe8655595066fb6205c12b23bfd222c", "lat": 38.902721, "name": "7fe8655595066fb6205c12b23bfd222c", "lon": -77.02766716666666, "fusion_lon": 0.0}, {"is_reserved": 0, "type": "electric_scooter", "fusion_lat": 0.0, "is_disabled": 0, "rental_uris": {"ios": "https://dc.lft.to/lastmile_qr_scan", "android": "https://dc.lft.to/lastmile_qr_scan"}, "bike_id": "a1fa220a4ecb82b9b2cc0a087794ba6d", "lat": 38.9171165, "name": "a1fa220a4ecb82b9b2cc0a087794ba6d", "lon": -77.02408183333333, "fusion_lon": 0.0}, {"is_reserved": 0, "type": "electric_scooter", "fusion_lat": 0.0, "is_disabled": 0, "rental_uris": {"ios": "https://dc.lft.to/lastmile_qr_scan", "android": "https://dc.lft.to/lastmile_qr_scan"}, "bike_id": "5f4466c75ad8402670b2e60310f43b48", "lat": 38.935045833333334, "name": "5f4466c75ad8402670b2e60310f43b48", "lon": -77.02421316666667, "fusion_lon": 0.0}, {"is_reserved": 0, "type": "electric_scooter", "fusion_lat": 0.0, "is_disabled": 0, "rental_uris": {"ios": "https://dc.lft.to/lastmile_qr_scan", "android": "https://dc.lft.to/lastmile_qr_scan"}, "bike_id": "f2d640d1588af4f6bfdbd515d7a8822b", "lat": 38.92112, "name": "f2d640d1588af4f6bfdbd515d7a8822b", "lon": -77.03041566666667, "fusion_lon": 0.0}, {"is_reserved": 0, "type": "electric_scooter", "fusion_lat": 0.0, "is_disabled": 0, "rental_uris": {"ios": "https://dc.lft.to/lastmile_qr_scan", "android": "https://dc.lft.to/lastmile_qr_scan"}, "bike_id": "664072e883e19f8f8776b4e679b69c8a", "lat": 38.895178666666666, "name": "664072e883e19f8f8776b4e679b69c8a", "lon": -77.022789, "fusion_lon": 0.0}, {"is_reserved": 0, "type": "electric_scooter", "fusion_lat": 0.0, "is_disabled": 0, "rental_uris": {"ios": "https://dc.lft.to/lastmile_qr_scan", "android": "https://dc.lft.to/lastmile_qr_scan"}, "bike_id": "0dcf0bbd1c164e98a1d3a393fe9b3156", "lat": 38.9325355, "name": "0dcf0bbd1c164e98a1d3a393fe9b3156", "lon": -77.03285416666667, "fusion_lon": 0.0}, {"is_reserved": 0, "type": "electric_bike", "fusion_lat": 0.0, "is_disabled": 0, "rental_uris": {"ios": "https://dc.lft.to/lastmile_qr_scan", "android": "https://dc.lft.to/lastmile_qr_scan"}, "bike_id": "af66e482dfec316ac2e1536ed3986847", "lat": 38.864951833333336, "name": "af66e482dfec316ac2e1536ed3986847", "lon": -76.9698545, "fusion_lon": 0.0}, {"is_reserved": 0, "type": "electric_scooter", "fusion_lat": 0.0, "is_disabled": 0, "rental_uris": {"ios": "https://dc.lft.to/lastmile_qr_scan", "android": "https://dc.lft.to/lastmile_qr_scan"}, "bike_id": "4f8ef3d6816b458a6f34c37115cda81e", "lat": 38.90277, "name": "4f8ef3d6816b458a6f34c37115cda81e", "lon": -77.05921533333333, "fusion_lon": 0.0}, {"is_reserved": 0, "type": "electric_bike", "fusion_lat": 0.0, "is_disabled": 0, "rental_uris": {"ios": "https://dc.lft.to/lastmile_qr_scan", "android": "https://dc.lft.to/lastmile_qr_scan"}, "bike_id": "39efeaab8d4dab4d64e7d85c0b15a381", "lat": 38.90548283333333, "name": "39efeaab8d4dab4d64e7d85c0b15a381", "lon": -77.02222583333334, "fusion_lon": 0.0}, {"is_reserved": 0, "type": "electric_scooter", "fusion_lat": 0.0, "is_disabled": 0, "rental_uris": {"ios": "https://dc.lft.to/lastmile_qr_scan", "android": "https://dc.lft.to/lastmile_qr_scan"}, "bike_id": "edfe4570d4c344afa2ad3ed86dcaf1a0", "lat": 38.899208, "name": "edfe4570d4c344afa2ad3ed86dcaf1a0", "lon": -77.03203683333334, "fusion_lon": 0.0}, {"is_reserved": 0, "type": "electric_scooter", "fusion_lat": 0.0, "is_disabled": 0, "rental_uris": {"ios": "https://dc.lft.to/lastmile_qr_scan", "android": "https://dc.lft.to/lastmile_qr_scan"}, "bike_id": "ef5eccf9a96552d94f4966f8af3fc911", "lat": 38.87376866666666, "name": "ef5eccf9a96552d94f4966f8af3fc911", "lon": -77.00124283333334, "fusion_lon": 0.0}, {"is_reserved": 0, "type": "electric_scooter", "fusion_lat": 0.0, "is_disabled": 0, "rental_uris": {"ios": "https://dc.lft.to/lastmile_qr_scan", "android": "https://dc.lft.to/lastmile_qr_scan"}, "bike_id": "0a50408ce6b6a8e780f1d5cababf038d", "lat": 38.92861166666667, "name": "0a50408ce6b6a8e780f1d5cababf038d", "lon": -77.014203, "fusion_lon": 0.0}, {"is_reserved": 0, "type": "electric_scooter", "fusion_lat": 0.0, "is_disabled": 0, "rental_uris": {"ios": "https://dc.lft.to/lastmile_qr_scan", "android": "https://dc.lft.to/lastmile_qr_scan"}, "bike_id": "fcc6e10dd6950ed3fd709084471787ab", "lat": 38.930836666666664, "name": "fcc6e10dd6950ed3fd709084471787ab", "lon": -77.02682233333333, "fusion_lon": 0.0}, {"is_reserved": 0, "type": "electric_bike", "fusion_lat": 0.0, "is_disabled": 0, "rental_uris": {"ios": "https://dc.lft.to/lastmile_qr_scan", "android": "https://dc.lft.to/lastmile_qr_scan"}, "bike_id": "2879d56c8d692bef494e470c620bec38", "lat": 38.80522416666667, "name": "2879d56c8d692bef494e470c620bec38", "lon": -77.043402, "fusion_lon": 0.0}, {"is_reserved": 0, "type": "electric_scooter", "fusion_lat": 0.0, "is_disabled": 0, "rental_uris": {"ios": "https://dc.lft.to/lastmile_qr_scan", "android": "https://dc.lft.to/lastmile_qr_scan"}, "bike_id": "2fd106ba45e57c9ea0168ee835892123", "lat": 38.905848166666665, "name": "2fd106ba45e57c9ea0168ee835892123", "lon": -77.00642316666666, "fusion_lon": 0.0}, {"is_reserved": 0, "type": "electric_scooter", "fusion_lat": 0.0, "is_disabled": 0, "rental_uris": {"ios": "https://dc.lft.to/lastmile_qr_scan", "android": "https://dc.lft.to/lastmile_qr_scan"}, "bike_id": "cd4688ad099afa475456a981863800d7", "lat": 38.921099166666664, "name": "cd4688ad099afa475456a981863800d7", "lon": -77.04706033333333, "fusion_lon": 0.0}, {"is_reserved": 0, "type": "electric_scooter", "fusion_lat": 0.0, "is_disabled": 0, "rental_uris": {"ios": "https://dc.lft.to/lastmile_qr_scan", "android": "https://dc.lft.to/lastmile_qr_scan"}, "bike_id": "3a9d873d23cb327db9bbd015057059ac", "lat": 38.8785255, "name": "3a9d873d23cb327db9bbd015057059ac", "lon": -77.006939, "fusion_lon": 0.0}, {"is_reserved": 0, "type": "electric_bike", "fusion_lat": 0.0, "is_disabled": 0, "rental_uris": {"ios": "https://dc.lft.to/lastmile_qr_scan", "android": "https://dc.lft.to/lastmile_qr_scan"}, "bike_id": "4e13e1e4fee3d72459a183417672b576", "lat": 39.0708155, "name": "4e13e1e4fee3d72459a183417672b576", "lon": -77.11541733333334, "fusion_lon": 0.0}, {"is_reserved": 0, "type": "electric_bike", "fusion_lat": 0.0, "is_disabled": 0, "rental_uris": {"ios": "https://dc.lft.to/lastmile_qr_scan", "android": "https://dc.lft.to/lastmile_qr_scan"}, "bike_id": "6c33769095ad0d93aaffecc8d0e438e3", "lat": 38.804048, "name": "6c33769095ad0d93aaffecc8d0e438e3", "lon": -77.113282, "fusion_lon": 0.0}, {"is_reserved": 0, "type": "electric_scooter", "fusion_lat": 0.0, "is_disabled": 0, "rental_uris": {"ios": "https://dc.lft.to/lastmile_qr_scan", "android": "https://dc.lft.to/lastmile_qr_scan"}, "bike_id": "c3e5343be870ba7e5e96fd75960c305d", "lat": 38.91702016666667, "name": "c3e5343be870ba7e5e96fd75960c305d", "lon": -77.03595666666666, "fusion_lon": 0.0}, {"is_reserved": 0, "type": "electric_scooter", "fusion_lat": 0.0, "is_disabled": 0, "rental_uris": {"ios": "https://dc.lft.to/lastmile_qr_scan", "android": "https://dc.lft.to/lastmile_qr_scan"}, "bike_id": "8af6e886259a4aa5297dbdb116f3fc6a", "lat": 38.91676783333333, "name": "8af6e886259a4aa5297dbdb116f3fc6a", "lon": -77.022777, "fusion_lon": 0.0}, {"is_reserved": 0, "type": "electric_bike", "fusion_lat": 0.0, "is_disabled": 0, "rental_uris": {"ios": "https://dc.lft.to/lastmile_qr_scan", "android": "https://dc.lft.to/lastmile_qr_scan"}, "bike_id": "92e4f46db07a23f5286330f326791b34", "lat": 38.85591083333333, "name": "92e4f46db07a23f5286330f326791b34", "lon": -76.972696, "fusion_lon": 0.0}, {"is_reserved": 0, "type": "electric_scooter", "fusion_lat": 0.0, "is_disabled": 0, "rental_uris": {"ios": "https://dc.lft.to/lastmile_qr_scan", "android": "https://dc.lft.to/lastmile_qr_scan"}, "bike_id": "c94c7c4cde22dd503921de9a0d0a8ca2", "lat": 38.90904416666667, "name": "c94c7c4cde22dd503921de9a0d0a8ca2", "lon": -76.9911675, "fusion_lon": 0.0}, {"is_reserved": 0, "type": "electric_scooter", "fusion_lat": 0.0, "is_disabled": 0, "rental_uris": {"ios": "https://dc.lft.to/lastmile_qr_scan", "android": "https://dc.lft.to/lastmile_qr_scan"}, "bike_id": "afff3ec46b4f4103c9d312f3b84d3db5", "lat": 38.874769, "name": "afff3ec46b4f4103c9d312f3b84d3db5", "lon": -76.99165633333334, "fusion_lon": 0.0}, {"is_reserved": 0, "type": "electric_scooter", "fusion_lat": 0.0, "is_disabled": 0, "rental_uris": {"ios": "https://dc.lft.to/lastmile_qr_scan", "android": "https://dc.lft.to/lastmile_qr_scan"}, "bike_id": "75e6488620f64e7da69b66fb8ab43136", "lat": 38.93268166666667, "name": "75e6488620f64e7da69b66fb8ab43136", "lon": -77.02093216666667, "fusion_lon": 0.0}, {"is_reserved": 0, "type": "electric_scooter", "fusion_lat": 0.0, "is_disabled": 0, "rental_uris": {"ios": "https://dc.lft.to/lastmile_qr_scan", "android": "https://dc.lft.to/lastmile_qr_scan"}, "bike_id": "7afcf597a83737c105b3be66b0a772e8", "lat": 38.89976333333333, "name": "7afcf597a83737c105b3be66b0a772e8", "lon": -77.01605916666666, "fusion_lon": 0.0}, {"is_reserved": 0, "type": "electric_scooter", "fusion_lat": 0.0, "is_disabled": 0, "rental_uris": {"ios": "https://dc.lft.to/lastmile_qr_scan", "android": "https://dc.lft.to/lastmile_qr_scan"}, "bike_id": "01c037a41aed2db5635ca31b8f7289c4", "lat": 38.92860916666667, "name": "01c037a41aed2db5635ca31b8f7289c4", "lon": -77.01421233333333, "fusion_lon": 0.0}, {"is_reserved": 0, "type": "electric_scooter", "fusion_lat": 0.0, "is_disabled": 0, "rental_uris": {"ios": "https://dc.lft.to/lastmile_qr_scan", "android": "https://dc.lft.to/lastmile_qr_scan"}, "bike_id": "86ade38e171cb8a584a254c05aeea8ee", "lat": 38.95224316666667, "name": "86ade38e171cb8a584a254c05aeea8ee", "lon": -77.06886533333333, "fusion_lon": 0.0}, {"is_reserved": 0, "type": "electric_scooter", "fusion_lat": 0.0, "is_disabled": 0, "rental_uris": {"ios": "https://dc.lft.to/lastmile_qr_scan", "android": "https://dc.lft.to/lastmile_qr_scan"}, "bike_id": "01f4670689d1511904c5cd7dd9730726", "lat": 38.899473, "name": "01f4670689d1511904c5cd7dd9730726", "lon": -76.93772133333333, "fusion_lon": 0.0}, {"is_reserved": 0, "type": "electric_scooter", "fusion_lat": 0.0, "is_disabled": 0, "rental_uris": {"ios": "https://dc.lft.to/lastmile_qr_scan", "android": "https://dc.lft.to/lastmile_qr_scan"}, "bike_id": "c61e95f283412f92657e0e066d8c3943", "lat": 38.910097, "name": "c61e95f283412f92657e0e066d8c3943", "lon": -77.04419933333334, "fusion_lon": 0.0}, {"is_reserved": 0, "type": "electric_scooter", "fusion_lat": 0.0, "is_disabled": 0, "rental_uris": {"ios": "https://dc.lft.to/lastmile_qr_scan", "android": "https://dc.lft.to/lastmile_qr_scan"}, "bike_id": "f4c95960d3407e8fe468fdb514907ee0", "lat": 38.9018665, "name": "f4c95960d3407e8fe468fdb514907ee0", "lon": -76.976714, "fusion_lon": 0.0}, {"is_reserved": 0, "type": "electric_scooter", "fusion_lat": 0.0, "is_disabled": 0, "rental_uris": {"ios": "https://dc.lft.to/lastmile_qr_scan", "android": "https://dc.lft.to/lastmile_qr_scan"}, "bike_id": "b32047e988cded6757685503c9019948", "lat": 38.89728216666666, "name": "b32047e988cded6757685503c9019948", "lon": -77.02656883333333, "fusion_lon": 0.0}, {"is_reserved": 0, "type": "electric_scooter", "fusion_lat": 0.0, "is_disabled": 0, "rental_uris": {"ios": "https://dc.lft.to/lastmile_qr_scan", "android": "https://dc.lft.to/lastmile_qr_scan"}, "bike_id": "4e8b226aab1fb162eba627e96a118c7d", "lat": 38.92440666666667, "name": "4e8b226aab1fb162eba627e96a118c7d", "lon": -77.0340405, "fusion_lon": 0.0}, {"is_reserved": 0, "type": "electric_scooter", "fusion_lat": 0.0, "is_disabled": 0, "rental_uris": {"ios": "https://dc.lft.to/lastmile_qr_scan", "android": "https://dc.lft.to/lastmile_qr_scan"}, "bike_id": "22afeb200ecc92810f907856716e6658", "lat": 38.90367, "name": "22afeb200ecc92810f907856716e6658", "lon": -76.97815466666667, "fusion_lon": 0.0}, {"is_reserved": 0, "type": "electric_scooter", "fusion_lat": 0.0, "is_disabled": 0, "rental_uris": {"ios": "https://dc.lft.to/lastmile_qr_scan", "android": "https://dc.lft.to/lastmile_qr_scan"}, "bike_id": "60602f9e47d95cc4a9adb43c56e7a8ff", "lat": 38.910407, "name": "60602f9e47d95cc4a9adb43c56e7a8ff", "lon": -76.9383525, "fusion_lon": 0.0}, {"is_reserved": 0, "type": "electric_bike", "fusion_lat": 0.0, "is_disabled": 0, "rental_uris": {"ios": "https://dc.lft.to/lastmile_qr_scan", "android": "https://dc.lft.to/lastmile_qr_scan"}, "bike_id": "d77b9ba7698d535a80acb05e03cd43a5", "lat": 39.03477266666667, "name": "d77b9ba7698d535a80acb05e03cd43a5", "lon": -77.04106566666667, "fusion_lon": 0.0}, {"is_reserved": 0, "type": "electric_scooter", "fusion_lat": 0.0, "is_disabled": 0, "rental_uris": {"ios": "https://dc.lft.to/lastmile_qr_scan", "android": "https://dc.lft.to/lastmile_qr_scan"}, "bike_id": "b6bdb1ace803846174fecd82720c1edc", "lat": 38.897079, "name": "b6bdb1ace803846174fecd82720c1edc", "lon": -76.92999216666666, "fusion_lon": 0.0}, {"is_reserved": 0, "type": "electric_scooter", "fusion_lat": 0.0, "is_disabled": 0, "rental_uris": {"ios": "https://dc.lft.to/lastmile_qr_scan", "android": "https://dc.lft.to/lastmile_qr_scan"}, "bike_id": "de68f50ee9b85e493830555e272ccef7", "lat": 38.92488983333333, "name": "de68f50ee9b85e493830555e272ccef7", "lon": -77.02544433333334, "fusion_lon": 0.0}, {"is_reserved": 0, "type": "electric_scooter", "fusion_lat": 0.0, "is_disabled": 0, "rental_uris": {"ios": "https://dc.lft.to/lastmile_qr_scan", "android": "https://dc.lft.to/lastmile_qr_scan"}, "bike_id": "b2347455bb0edf71ee818e7ae0b6c36f", "lat": 38.90772066666667, "name": "b2347455bb0edf71ee818e7ae0b6c36f", "lon": -77.0240015, "fusion_lon": 0.0}, {"is_reserved": 0, "type": "electric_scooter", "fusion_lat": 0.0, "is_disabled": 0, "rental_uris": {"ios": "https://dc.lft.to/lastmile_qr_scan", "android": "https://dc.lft.to/lastmile_qr_scan"}, "bike_id": "9986fd2030068d25192c1ef0c9a577d9", "lat": 38.90301316666667, "name": "9986fd2030068d25192c1ef0c9a577d9", "lon": -76.99839883333334, "fusion_lon": 0.0}, {"is_reserved": 0, "type": "electric_scooter", "fusion_lat": 0.0, "is_disabled": 0, "rental_uris": {"ios": "https://dc.lft.to/lastmile_qr_scan", "android": "https://dc.lft.to/lastmile_qr_scan"}, "bike_id": "dbf57ebb985190039205b17183483796", "lat": 38.88009366666667, "name": "dbf57ebb985190039205b17183483796", "lon": -76.9983485, "fusion_lon": 0.0}, {"is_reserved": 0, "type": "electric_scooter", "fusion_lat": 0.0, "is_disabled": 0, "rental_uris": {"ios": "https://dc.lft.to/lastmile_qr_scan", "android": "https://dc.lft.to/lastmile_qr_scan"}, "bike_id": "a18c4dd6ea32bf6a276fedf83bdf4316", "lat": 38.9401265, "name": "a18c4dd6ea32bf6a276fedf83bdf4316", "lon": -77.077383, "fusion_lon": 0.0}, {"is_reserved": 0, "type": "electric_scooter", "fusion_lat": 0.0, "is_disabled": 0, "rental_uris": {"ios": "https://dc.lft.to/lastmile_qr_scan", "android": "https://dc.lft.to/lastmile_qr_scan"}, "bike_id": "8986dbf40964a05217da201a772995f6", "lat": 38.87886266666667, "name": "8986dbf40964a05217da201a772995f6", "lon": -76.96542716666667, "fusion_lon": 0.0}, {"is_reserved": 0, "type": "electric_scooter", "fusion_lat": 0.0, "is_disabled": 0, "rental_uris": {"ios": "https://dc.lft.to/lastmile_qr_scan", "android": "https://dc.lft.to/lastmile_qr_scan"}, "bike_id": "36548a1b163862fe3d612f63831bc4da", "lat": 38.930104, "name": "36548a1b163862fe3d612f63831bc4da", "lon": -77.02112133333334, "fusion_lon": 0.0}, {"is_reserved": 0, "type": "electric_scooter", "fusion_lat": 0.0, "is_disabled": 0, "rental_uris": {"ios": "https://dc.lft.to/lastmile_qr_scan", "android": "https://dc.lft.to/lastmile_qr_scan"}, "bike_id": "6767de581b03ed09d48b816ddaf78d6b", "lat": 38.910643666666665, "name": "6767de581b03ed09d48b816ddaf78d6b", "lon": -77.026559, "fusion_lon": 0.0}, {"is_reserved": 0, "type": "electric_bike", "fusion_lat": 0.0, "is_disabled": 0, "rental_uris": {"ios": "https://dc.lft.to/lastmile_qr_scan", "android": "https://dc.lft.to/lastmile_qr_scan"}, "bike_id": "d6b5dcea1b5d3cffc8daf37220172ccb", "lat": 38.93886833333333, "name": "d6b5dcea1b5d3cffc8daf37220172ccb", "lon": -76.99296516666666, "fusion_lon": 0.0}, {"is_reserved": 0, "type": "electric_scooter", "fusion_lat": 0.0, "is_disabled": 0, "rental_uris": {"ios": "https://dc.lft.to/lastmile_qr_scan", "android": "https://dc.lft.to/lastmile_qr_scan"}, "bike_id": "b41310c6b02330eacc832a96c31301f4", "lat": 38.917115333333335, "name": "b41310c6b02330eacc832a96c31301f4", "lon": -77.0920515, "fusion_lon": 0.0}, {"is_reserved": 0, "type": "electric_scooter", "fusion_lat": 0.0, "is_disabled": 0, "rental_uris": {"ios": "https://dc.lft.to/lastmile_qr_scan", "android": "https://dc.lft.to/lastmile_qr_scan"}, "bike_id": "556a278b70cd5371911b3f8744d6532a", "lat": 38.89742483333333, "name": "556a278b70cd5371911b3f8744d6532a", "lon": -77.0436235, "fusion_lon": 0.0}, {"is_reserved": 0, "type": "electric_scooter", "fusion_lat": 0.0, "is_disabled": 0, "rental_uris": {"ios": "https://dc.lft.to/lastmile_qr_scan", "android": "https://dc.lft.to/lastmile_qr_scan"}, "bike_id": "79df7d8c86d6c7c674f92b7a30afba2f", "lat": 38.885733, "name": "79df7d8c86d6c7c674f92b7a30afba2f", "lon": -77.00030116666667, "fusion_lon": 0.0}, {"is_reserved": 0, "type": "electric_scooter", "fusion_lat": 0.0, "is_disabled": 0, "rental_uris": {"ios": "https://dc.lft.to/lastmile_qr_scan", "android": "https://dc.lft.to/lastmile_qr_scan"}, "bike_id": "0c1f8366276526475eafd2575ecfb5c3", "lat": 38.939746166666666, "name": "0c1f8366276526475eafd2575ecfb5c3", "lon": -77.03432183333334, "fusion_lon": 0.0}, {"is_reserved": 0, "type": "electric_scooter", "fusion_lat": 0.0, "is_disabled": 0, "rental_uris": {"ios": "https://dc.lft.to/lastmile_qr_scan", "android": "https://dc.lft.to/lastmile_qr_scan"}, "bike_id": "6d65b587a49f3510c6f5841a7510bdd6", "lat": 38.920759333333336, "name": "6d65b587a49f3510c6f5841a7510bdd6", "lon": -77.02509733333333, "fusion_lon": 0.0}, {"is_reserved": 0, "type": "electric_scooter", "fusion_lat": 0.0, "is_disabled": 0, "rental_uris": {"ios": "https://dc.lft.to/lastmile_qr_scan", "android": "https://dc.lft.to/lastmile_qr_scan"}, "bike_id": "721aa8c80a3f02bbd18617ba6dd1c47a", "lat": 38.9098165, "name": "721aa8c80a3f02bbd18617ba6dd1c47a", "lon": -77.02183416666666, "fusion_lon": 0.0}, {"is_reserved": 0, "type": "electric_scooter", "fusion_lat": 0.0, "is_disabled": 0, "rental_uris": {"ios": "https://dc.lft.to/lastmile_qr_scan", "android": "https://dc.lft.to/lastmile_qr_scan"}, "bike_id": "c70bc0349a50dc336f4deb8f82ac4a3d", "lat": 38.879218333333334, "name": "c70bc0349a50dc336f4deb8f82ac4a3d", "lon": -76.94481783333333, "fusion_lon": 0.0}, {"is_reserved": 0, "type": "electric_bike", "fusion_lat": 0.0, "is_disabled": 0, "rental_uris": {"ios": "https://dc.lft.to/lastmile_qr_scan", "android": "https://dc.lft.to/lastmile_qr_scan"}, "bike_id": "e5ae79d72933937dc4ec9025d8fb4ab1", "lat": 38.99095366666667, "name": "e5ae79d72933937dc4ec9025d8fb4ab1", "lon": -76.99377433333333, "fusion_lon": 0.0}, {"is_reserved": 0, "type": "electric_scooter", "fusion_lat": 0.0, "is_disabled": 0, "rental_uris": {"ios": "https://dc.lft.to/lastmile_qr_scan", "android": "https://dc.lft.to/lastmile_qr_scan"}, "bike_id": "3780e8da49db5965c64c0673fbccbaa5", "lat": 38.905635, "name": "3780e8da49db5965c64c0673fbccbaa5", "lon": -77.00551733333333, "fusion_lon": 0.0}, {"is_reserved": 0, "type": "electric_bike", "fusion_lat": 0.0, "is_disabled": 0, "rental_uris": {"ios": "https://dc.lft.to/lastmile_qr_scan", "android": "https://dc.lft.to/lastmile_qr_scan"}, "bike_id": "6298a29a8b14611b0b4be5b68105feb3", "lat": 38.85464366666667, "name": "6298a29a8b14611b0b4be5b68105feb3", "lon": -76.97241766666667, "fusion_lon": 0.0}, {"is_reserved": 0, "type": "electric_scooter", "fusion_lat": 0.0, "is_disabled": 0, "rental_uris": {"ios": "https://dc.lft.to/lastmile_qr_scan", "android": "https://dc.lft.to/lastmile_qr_scan"}, "bike_id": "69abd350a52fa4c74fc33eddcd54dc34", "lat": 38.9292665, "name": "69abd350a52fa4c74fc33eddcd54dc34", "lon": -77.0374955, "fusion_lon": 0.0}, {"is_reserved": 0, "type": "electric_scooter", "fusion_lat": 0.0, "is_disabled": 0, "rental_uris": {"ios": "https://dc.lft.to/lastmile_qr_scan", "android": "https://dc.lft.to/lastmile_qr_scan"}, "bike_id": "70741bcb022989b5fe155de050dcee9c", "lat": 38.906113166666664, "name": "70741bcb022989b5fe155de050dcee9c", "lon": -76.98980183333333, "fusion_lon": 0.0}, {"is_reserved": 0, "type": "electric_bike", "fusion_lat": 0.0, "is_disabled": 0, "rental_uris": {"ios": "https://dc.lft.to/lastmile_qr_scan", "android": "https://dc.lft.to/lastmile_qr_scan"}, "bike_id": "984866488d83a78b19ee6159308bea84", "lat": 38.866214166666666, "name": "984866488d83a78b19ee6159308bea84", "lon": -76.99004183333334, "fusion_lon": 0.0}, {"is_reserved": 0, "type": "electric_scooter", "fusion_lat": 0.0, "is_disabled": 0, "rental_uris": {"ios": "https://dc.lft.to/lastmile_qr_scan", "android": "https://dc.lft.to/lastmile_qr_scan"}, "bike_id": "6463a2b9943f2358e1b6bcd2f192f188", "lat": 38.89965483333334, "name": "6463a2b9943f2358e1b6bcd2f192f188", "lon": -77.04714316666667, "fusion_lon": 0.0}, {"is_reserved": 0, "type": "electric_scooter", "fusion_lat": 0.0, "is_disabled": 0, "rental_uris": {"ios": "https://dc.lft.to/lastmile_qr_scan", "android": "https://dc.lft.to/lastmile_qr_scan"}, "bike_id": "8c23ffe7a776e785295bf862a7d922f9", "lat": 38.920497166666664, "name": "8c23ffe7a776e785295bf862a7d922f9", "lon": -77.01678, "fusion_lon": 0.0}, {"is_reserved": 0, "type": "electric_scooter", "fusion_lat": 0.0, "is_disabled": 0, "rental_uris": {"ios": "https://dc.lft.to/lastmile_qr_scan", "android": "https://dc.lft.to/lastmile_qr_scan"}, "bike_id": "5eedcc6813e15711ac6513b730f0560a", "lat": 38.8717625, "name": "5eedcc6813e15711ac6513b730f0560a", "lon": -77.0062235, "fusion_lon": 0.0}, {"is_reserved": 0, "type": "electric_scooter", "fusion_lat": 0.0, "is_disabled": 0, "rental_uris": {"ios": "https://dc.lft.to/lastmile_qr_scan", "android": "https://dc.lft.to/lastmile_qr_scan"}, "bike_id": "ebd1c59b222af121cc1892514fac4e69", "lat": 38.905565833333334, "name": "ebd1c59b222af121cc1892514fac4e69", "lon": -77.0627785, "fusion_lon": 0.0}, {"is_reserved": 0, "type": "electric_scooter", "fusion_lat": 0.0, "is_disabled": 0, "rental_uris": {"ios": "https://dc.lft.to/lastmile_qr_scan", "android": "https://dc.lft.to/lastmile_qr_scan"}, "bike_id": "9c3260832024c91973abf4adaa65a17d", "lat": 38.904190666666665, "name": "9c3260832024c91973abf4adaa65a17d", "lon": -76.98528633333333, "fusion_lon": 0.0}, {"is_reserved": 0, "type": "electric_scooter", "fusion_lat": 0.0, "is_disabled": 0, "rental_uris": {"ios": "https://dc.lft.to/lastmile_qr_scan", "android": "https://dc.lft.to/lastmile_qr_scan"}, "bike_id": "e56b8e05a2691499cd09c5b99a996033", "lat": 38.899732166666666, "name": "e56b8e05a2691499cd09c5b99a996033", "lon": -77.01618833333333, "fusion_lon": 0.0}, {"is_reserved": 0, "type": "electric_scooter", "fusion_lat": 0.0, "is_disabled": 0, "rental_uris": {"ios": "https://dc.lft.to/lastmile_qr_scan", "android": "https://dc.lft.to/lastmile_qr_scan"}, "bike_id": "360de5c23cbc31b9d21462cc0e903c6e", "lat": 38.88749283333333, "name": "360de5c23cbc31b9d21462cc0e903c6e", "lon": -77.0141115, "fusion_lon": 0.0}, {"is_reserved": 0, "type": "electric_scooter", "fusion_lat": 0.0, "is_disabled": 0, "rental_uris": {"ios": "https://dc.lft.to/lastmile_qr_scan", "android": "https://dc.lft.to/lastmile_qr_scan"}, "bike_id": "1a9524e7c862e6ea982f96a9de8d9a3e", "lat": 38.91488366666667, "name": "1a9524e7c862e6ea982f96a9de8d9a3e", "lon": -77.04086783333334, "fusion_lon": 0.0}, {"is_reserved": 0, "type": "electric_scooter", "fusion_lat": 0.0, "is_disabled": 0, "rental_uris": {"ios": "https://dc.lft.to/lastmile_qr_scan", "android": "https://dc.lft.to/lastmile_qr_scan"}, "bike_id": "7ff64035850696437daf41c1b115b458", "lat": 38.905914, "name": "7ff64035850696437daf41c1b115b458", "lon": -77.062917, "fusion_lon": 0.0}, {"is_reserved": 0, "type": "electric_scooter", "fusion_lat": 0.0, "is_disabled": 0, "rental_uris": {"ios": "https://dc.lft.to/lastmile_qr_scan", "android": "https://dc.lft.to/lastmile_qr_scan"}, "bike_id": "20aee8d93052ac8e43de52596d0855ec", "lat": 38.92466683333333, "name": "20aee8d93052ac8e43de52596d0855ec", "lon": -77.03786583333333, "fusion_lon": 0.0}, {"is_reserved": 0, "type": "electric_bike", "fusion_lat": 0.0, "is_disabled": 0, "rental_uris": {"ios": "https://dc.lft.to/lastmile_qr_scan", "android": "https://dc.lft.to/lastmile_qr_scan"}, "bike_id": "5cdeed616d3a51a92cadd0eddeca9eb5", "lat": 38.84861266666667, "name": "5cdeed616d3a51a92cadd0eddeca9eb5", "lon": -77.068306, "fusion_lon": 0.0}, {"is_reserved": 0, "type": "electric_scooter", "fusion_lat": 0.0, "is_disabled": 0, "rental_uris": {"ios": "https://dc.lft.to/lastmile_qr_scan", "android": "https://dc.lft.to/lastmile_qr_scan"}, "bike_id": "7103a0165ef122158167a758986166c0", "lat": 38.8940315, "name": "7103a0165ef122158167a758986166c0", "lon": -77.049971, "fusion_lon": 0.0}, {"is_reserved": 0, "type": "electric_bike", "fusion_lat": 0.0, "is_disabled": 0, "rental_uris": {"ios": "https://dc.lft.to/lastmile_qr_scan", "android": "https://dc.lft.to/lastmile_qr_scan"}, "bike_id": "0e11c191c918395262c568ed13908565", "lat": 38.88115366666667, "name": "0e11c191c918395262c568ed13908565", "lon": -77.016641, "fusion_lon": 0.0}, {"is_reserved": 0, "type": "electric_scooter", "fusion_lat": 0.0, "is_disabled": 0, "rental_uris": {"ios": "https://dc.lft.to/lastmile_qr_scan", "android": "https://dc.lft.to/lastmile_qr_scan"}, "bike_id": "051aa8ff7a0278b7fde44ef3bbaaa929", "lat": 38.92291683333333, "name": "051aa8ff7a0278b7fde44ef3bbaaa929", "lon": -77.03659966666666, "fusion_lon": 0.0}, {"is_reserved": 0, "type": "electric_scooter", "fusion_lat": 0.0, "is_disabled": 0, "rental_uris": {"ios": "https://dc.lft.to/lastmile_qr_scan", "android": "https://dc.lft.to/lastmile_qr_scan"}, "bike_id": "6b8aee6ef51d2a21fb03396f22bd6895", "lat": 38.9056415, "name": "6b8aee6ef51d2a21fb03396f22bd6895", "lon": -77.0055125, "fusion_lon": 0.0}, {"is_reserved": 0, "type": "electric_scooter", "fusion_lat": 0.0, "is_disabled": 0, "rental_uris": {"ios": "https://dc.lft.to/lastmile_qr_scan", "android": "https://dc.lft.to/lastmile_qr_scan"}, "bike_id": "5fd5f3f76e9bd81de082e743113eec5a", "lat": 38.938773166666664, "name": "5fd5f3f76e9bd81de082e743113eec5a", "lon": -77.02953633333334, "fusion_lon": 0.0}, {"is_reserved": 0, "type": "electric_scooter", "fusion_lat": 0.0, "is_disabled": 0, "rental_uris": {"ios": "https://dc.lft.to/lastmile_qr_scan", "android": "https://dc.lft.to/lastmile_qr_scan"}, "bike_id": "6ec255c72751de7ec173ca83fe5b15a4", "lat": 38.88181933333333, "name": "6ec255c72751de7ec173ca83fe5b15a4", "lon": -76.9254335, "fusion_lon": 0.0}, {"is_reserved": 0, "type": "electric_scooter", "fusion_lat": 0.0, "is_disabled": 0, "rental_uris": {"ios": "https://dc.lft.to/lastmile_qr_scan", "android": "https://dc.lft.to/lastmile_qr_scan"}, "bike_id": "c6fef3e8bdbb65e5c08c8858f384867c", "lat": 38.905438333333336, "name": "c6fef3e8bdbb65e5c08c8858f384867c", "lon": -77.05693983333333, "fusion_lon": 0.0}, {"is_reserved": 0, "type": "electric_scooter", "fusion_lat": 0.0, "is_disabled": 0, "rental_uris": {"ios": "https://dc.lft.to/lastmile_qr_scan", "android": "https://dc.lft.to/lastmile_qr_scan"}, "bike_id": "131092aeaabf18642a40ace4cb018070", "lat": 38.876975333333334, "name": "131092aeaabf18642a40ace4cb018070", "lon": -76.9961735, "fusion_lon": 0.0}, {"is_reserved": 0, "type": "electric_bike", "fusion_lat": 0.0, "is_disabled": 0, "rental_uris": {"ios": "https://dc.lft.to/lastmile_qr_scan", "android": "https://dc.lft.to/lastmile_qr_scan"}, "bike_id": "d58d49e2993663ca2ff6acd52e8734ad", "lat": 38.8447495, "name": "d58d49e2993663ca2ff6acd52e8734ad", "lon": -76.99599933333333, "fusion_lon": 0.0}, {"is_reserved": 0, "type": "electric_scooter", "fusion_lat": 0.0, "is_disabled": 0, "rental_uris": {"ios": "https://dc.lft.to/lastmile_qr_scan", "android": "https://dc.lft.to/lastmile_qr_scan"}, "bike_id": "8f91c5d55947217248cf3545201541d7", "lat": 38.92120283333333, "name": "8f91c5d55947217248cf3545201541d7", "lon": -77.0456335, "fusion_lon": 0.0}, {"is_reserved": 0, "type": "electric_scooter", "fusion_lat": 0.0, "is_disabled": 0, "rental_uris": {"ios": "https://dc.lft.to/lastmile_qr_scan", "android": "https://dc.lft.to/lastmile_qr_scan"}, "bike_id": "a971343fd0f70def7be501c2e39849f3", "lat": 38.90577433333333, "name": "a971343fd0f70def7be501c2e39849f3", "lon": -77.025054, "fusion_lon": 0.0}, {"is_reserved": 0, "type": "electric_scooter", "fusion_lat": 0.0, "is_disabled": 0, "rental_uris": {"ios": "https://dc.lft.to/lastmile_qr_scan", "android": "https://dc.lft.to/lastmile_qr_scan"}, "bike_id": "37319da3188bb2453aab3c900318db79", "lat": 38.918193333333335, "name": "37319da3188bb2453aab3c900318db79", "lon": -77.0248735, "fusion_lon": 0.0}, {"is_reserved": 0, "type": "electric_scooter", "fusion_lat": 0.0, "is_disabled": 0, "rental_uris": {"ios": "https://dc.lft.to/lastmile_qr_scan", "android": "https://dc.lft.to/lastmile_qr_scan"}, "bike_id": "85f680edcf441ddd6be435a77a7b1c8e", "lat": 38.90176, "name": "85f680edcf441ddd6be435a77a7b1c8e", "lon": -77.05087333333333, "fusion_lon": 0.0}, {"is_reserved": 0, "type": "electric_scooter", "fusion_lat": 0.0, "is_disabled": 0, "rental_uris": {"ios": "https://dc.lft.to/lastmile_qr_scan", "android": "https://dc.lft.to/lastmile_qr_scan"}, "bike_id": "5f67e4ed4d2eae06c977f999d63a63f7", "lat": 38.885796166666665, "name": "5f67e4ed4d2eae06c977f999d63a63f7", "lon": -77.01207983333333, "fusion_lon": 0.0}, {"is_reserved": 0, "type": "electric_scooter", "fusion_lat": 0.0, "is_disabled": 0, "rental_uris": {"ios": "https://dc.lft.to/lastmile_qr_scan", "android": "https://dc.lft.to/lastmile_qr_scan"}, "bike_id": "3271e295f9722f0219b37e8bcd2f731c", "lat": 38.91706933333333, "name": "3271e295f9722f0219b37e8bcd2f731c", "lon": -77.02262283333333, "fusion_lon": 0.0}, {"is_reserved": 0, "type": "electric_scooter", "fusion_lat": 0.0, "is_disabled": 0, "rental_uris": {"ios": "https://dc.lft.to/lastmile_qr_scan", "android": "https://dc.lft.to/lastmile_qr_scan"}, "bike_id": "1c91c41190dd1eef0088121a61a56c0e", "lat": 38.91785566666667, "name": "1c91c41190dd1eef0088121a61a56c0e", "lon": -77.02396583333334, "fusion_lon": 0.0}, {"is_reserved": 0, "type": "electric_scooter", "fusion_lat": 0.0, "is_disabled": 0, "rental_uris": {"ios": "https://dc.lft.to/lastmile_qr_scan", "android": "https://dc.lft.to/lastmile_qr_scan"}, "bike_id": "f1af24dfc90c944a0754ecc14e590e2e", "lat": 38.91378183333333, "name": "f1af24dfc90c944a0754ecc14e590e2e", "lon": -77.06429883333334, "fusion_lon": 0.0}, {"is_reserved": 0, "type": "electric_scooter", "fusion_lat": 0.0, "is_disabled": 0, "rental_uris": {"ios": "https://dc.lft.to/lastmile_qr_scan", "android": "https://dc.lft.to/lastmile_qr_scan"}, "bike_id": "8dab6f346a6bddb13e8805e4a42bf3a7", "lat": 38.903883666666665, "name": "8dab6f346a6bddb13e8805e4a42bf3a7", "lon": -77.0402425, "fusion_lon": 0.0}, {"is_reserved": 0, "type": "electric_scooter", "fusion_lat": 0.0, "is_disabled": 0, "rental_uris": {"ios": "https://dc.lft.to/lastmile_qr_scan", "android": "https://dc.lft.to/lastmile_qr_scan"}, "bike_id": "304e96aa4f49a96b0bfe0a603801b629", "lat": 38.915587333333335, "name": "304e96aa4f49a96b0bfe0a603801b629", "lon": -76.98509983333334, "fusion_lon": 0.0}, {"is_reserved": 0, "type": "electric_scooter", "fusion_lat": 0.0, "is_disabled": 0, "rental_uris": {"ios": "https://dc.lft.to/lastmile_qr_scan", "android": "https://dc.lft.to/lastmile_qr_scan"}, "bike_id": "cbe52f2d57e339cf68419fd7efbbf753", "lat": 38.908178, "name": "cbe52f2d57e339cf68419fd7efbbf753", "lon": -77.08427566666667, "fusion_lon": 0.0}, {"is_reserved": 0, "type": "electric_scooter", "fusion_lat": 0.0, "is_disabled": 0, "rental_uris": {"ios": "https://dc.lft.to/lastmile_qr_scan", "android": "https://dc.lft.to/lastmile_qr_scan"}, "bike_id": "dce7b934687ca833971c07b0c3a81555", "lat": 38.9009185, "name": "dce7b934687ca833971c07b0c3a81555", "lon": -77.02311583333334, "fusion_lon": 0.0}, {"is_reserved": 0, "type": "electric_scooter", "fusion_lat": 0.0, "is_disabled": 0, "rental_uris": {"ios": "https://dc.lft.to/lastmile_qr_scan", "android": "https://dc.lft.to/lastmile_qr_scan"}, "bike_id": "abab359b8f6672f4ffaa22ffe4cedbcf", "lat": 38.90863683333333, "name": "abab359b8f6672f4ffaa22ffe4cedbcf", "lon": -77.02665416666666, "fusion_lon": 0.0}, {"is_reserved": 0, "type": "electric_scooter", "fusion_lat": 0.0, "is_disabled": 0, "rental_uris": {"ios": "https://dc.lft.to/lastmile_qr_scan", "android": "https://dc.lft.to/lastmile_qr_scan"}, "bike_id": "cb308adbf805501389daddd316a23721", "lat": 38.9043515, "name": "cb308adbf805501389daddd316a23721", "lon": -76.97948933333333, "fusion_lon": 0.0}, {"is_reserved": 0, "type": "electric_bike", "fusion_lat": 0.0, "is_disabled": 0, "rental_uris": {"ios": "https://dc.lft.to/lastmile_qr_scan", "android": "https://dc.lft.to/lastmile_qr_scan"}, "bike_id": "ad230d5aa6e0530806aeb18cf50e1fee", "lat": 38.84624866666667, "name": "ad230d5aa6e0530806aeb18cf50e1fee", "lon": -76.97839033333334, "fusion_lon": 0.0}, {"is_reserved": 0, "type": "electric_scooter", "fusion_lat": 0.0, "is_disabled": 0, "rental_uris": {"ios": "https://dc.lft.to/lastmile_qr_scan", "android": "https://dc.lft.to/lastmile_qr_scan"}, "bike_id": "0f1b24819f6882cb32d5af8c9c92bec5", "lat": 38.9247565, "name": "0f1b24819f6882cb32d5af8c9c92bec5", "lon": -77.02215933333333, "fusion_lon": 0.0}, {"is_reserved": 0, "type": "electric_scooter", "fusion_lat": 0.0, "is_disabled": 0, "rental_uris": {"ios": "https://dc.lft.to/lastmile_qr_scan", "android": "https://dc.lft.to/lastmile_qr_scan"}, "bike_id": "6e0d3b32c3f53f9dd7ce0b86337673da", "lat": 38.887104, "name": "6e0d3b32c3f53f9dd7ce0b86337673da", "lon": -76.98341833333333, "fusion_lon": 0.0}, {"is_reserved": 0, "type": "electric_scooter", "fusion_lat": 0.0, "is_disabled": 0, "rental_uris": {"ios": "https://dc.lft.to/lastmile_qr_scan", "android": "https://dc.lft.to/lastmile_qr_scan"}, "bike_id": "628375cc4b4284fd267be8536ba75ed2", "lat": 38.926859, "name": "628375cc4b4284fd267be8536ba75ed2", "lon": -77.00871833333333, "fusion_lon": 0.0}, {"is_reserved": 0, "type": "electric_scooter", "fusion_lat": 0.0, "is_disabled": 0, "rental_uris": {"ios": "https://dc.lft.to/lastmile_qr_scan", "android": "https://dc.lft.to/lastmile_qr_scan"}, "bike_id": "f93c293247e3506c08398d4e170f58fa", "lat": 38.93167016666666, "name": "f93c293247e3506c08398d4e170f58fa", "lon": -77.05608716666667, "fusion_lon": 0.0}, {"is_reserved": 0, "type": "electric_scooter", "fusion_lat": 0.0, "is_disabled": 0, "rental_uris": {"ios": "https://dc.lft.to/lastmile_qr_scan", "android": "https://dc.lft.to/lastmile_qr_scan"}, "bike_id": "4a9ddacdc4f84a533b01db5ce8183155", "lat": 38.9241975, "name": "4a9ddacdc4f84a533b01db5ce8183155", "lon": -77.0194165, "fusion_lon": 0.0}, {"is_reserved": 0, "type": "electric_scooter", "fusion_lat": 0.0, "is_disabled": 0, "rental_uris": {"ios": "https://dc.lft.to/lastmile_qr_scan", "android": "https://dc.lft.to/lastmile_qr_scan"}, "bike_id": "d04482e63c7a258d97975291a8873c4d", "lat": 38.90747, "name": "d04482e63c7a258d97975291a8873c4d", "lon": -77.04471916666667, "fusion_lon": 0.0}, {"is_reserved": 0, "type": "electric_bike", "fusion_lat": 0.0, "is_disabled": 0, "rental_uris": {"ios": "https://dc.lft.to/lastmile_qr_scan", "android": "https://dc.lft.to/lastmile_qr_scan"}, "bike_id": "2012383a103c9a58d76dccf300911764", "lat": 39.084338833333334, "name": "2012383a103c9a58d76dccf300911764", "lon": -76.95142833333334, "fusion_lon": 0.0}, {"is_reserved": 0, "type": "electric_scooter", "fusion_lat": 0.0, "is_disabled": 0, "rental_uris": {"ios": "https://dc.lft.to/lastmile_qr_scan", "android": "https://dc.lft.to/lastmile_qr_scan"}, "bike_id": "f3ace093fbf29ca06c5752f0962dadb7", "lat": 38.8839605, "name": "f3ace093fbf29ca06c5752f0962dadb7", "lon": -76.93042066666666, "fusion_lon": 0.0}, {"is_reserved": 0, "type": "electric_scooter", "fusion_lat": 0.0, "is_disabled": 0, "rental_uris": {"ios": "https://dc.lft.to/lastmile_qr_scan", "android": "https://dc.lft.to/lastmile_qr_scan"}, "bike_id": "26cc5117d8b7c5326df48972762f3b8b", "lat": 38.92364083333333, "name": "26cc5117d8b7c5326df48972762f3b8b", "lon": -77.02982, "fusion_lon": 0.0}, {"is_reserved": 0, "type": "electric_scooter", "fusion_lat": 0.0, "is_disabled": 0, "rental_uris": {"ios": "https://dc.lft.to/lastmile_qr_scan", "android": "https://dc.lft.to/lastmile_qr_scan"}, "bike_id": "22eded51126ca4b2331be85cda1062e3", "lat": 38.90675183333333, "name": "22eded51126ca4b2331be85cda1062e3", "lon": -77.0271985, "fusion_lon": 0.0}, {"is_reserved": 0, "type": "electric_scooter", "fusion_lat": 0.0, "is_disabled": 0, "rental_uris": {"ios": "https://dc.lft.to/lastmile_qr_scan", "android": "https://dc.lft.to/lastmile_qr_scan"}, "bike_id": "c8b9c7b2e3362332b2e13304e7f91d90", "lat": 38.89433783333333, "name": "c8b9c7b2e3362332b2e13304e7f91d90", "lon": -77.00102166666667, "fusion_lon": 0.0}, {"is_reserved": 0, "type": "electric_scooter", "fusion_lat": 0.0, "is_disabled": 0, "rental_uris": {"ios": "https://dc.lft.to/lastmile_qr_scan", "android": "https://dc.lft.to/lastmile_qr_scan"}, "bike_id": "aa465e5f838704b4154389c5faf22409", "lat": 38.92807483333333, "name": "aa465e5f838704b4154389c5faf22409", "lon": -77.0239135, "fusion_lon": 0.0}, {"is_reserved": 0, "type": "electric_scooter", "fusion_lat": 0.0, "is_disabled": 0, "rental_uris": {"ios": "https://dc.lft.to/lastmile_qr_scan", "android": "https://dc.lft.to/lastmile_qr_scan"}, "bike_id": "f67390ca6467205d181dd6c7c95a7107", "lat": 38.90122866666667, "name": "f67390ca6467205d181dd6c7c95a7107", "lon": -77.05146066666667, "fusion_lon": 0.0}, {"is_reserved": 0, "type": "electric_scooter", "fusion_lat": 0.0, "is_disabled": 0, "rental_uris": {"ios": "https://dc.lft.to/lastmile_qr_scan", "android": "https://dc.lft.to/lastmile_qr_scan"}, "bike_id": "ffd0fb961abf4de59adef4c0b5d596eb", "lat": 38.8948305, "name": "ffd0fb961abf4de59adef4c0b5d596eb", "lon": -76.94869883333334, "fusion_lon": 0.0}, {"is_reserved": 0, "type": "electric_bike", "fusion_lat": 0.0, "is_disabled": 0, "rental_uris": {"ios": "https://dc.lft.to/lastmile_qr_scan", "android": "https://dc.lft.to/lastmile_qr_scan"}, "bike_id": "389c0d944fd2fbd2fe3a12da4303eacc", "lat": 38.875803833333336, "name": "389c0d944fd2fbd2fe3a12da4303eacc", "lon": -77.2341055, "fusion_lon": 0.0}, {"is_reserved": 0, "type": "electric_scooter", "fusion_lat": 0.0, "is_disabled": 0, "rental_uris": {"ios": "https://dc.lft.to/lastmile_qr_scan", "android": "https://dc.lft.to/lastmile_qr_scan"}, "bike_id": "7093aaa626202a08f896ba02374d13f6", "lat": 38.9176515, "name": "7093aaa626202a08f896ba02374d13f6", "lon": -77.00451616666666, "fusion_lon": 0.0}, {"is_reserved": 0, "type": "electric_scooter", "fusion_lat": 0.0, "is_disabled": 0, "rental_uris": {"ios": "https://dc.lft.to/lastmile_qr_scan", "android": "https://dc.lft.to/lastmile_qr_scan"}, "bike_id": "c8270948573ea9817d139c209aa84de1", "lat": 38.92441733333333, "name": "c8270948573ea9817d139c209aa84de1", "lon": -77.04242133333334, "fusion_lon": 0.0}, {"is_reserved": 0, "type": "electric_scooter", "fusion_lat": 0.0, "is_disabled": 0, "rental_uris": {"ios": "https://dc.lft.to/lastmile_qr_scan", "android": "https://dc.lft.to/lastmile_qr_scan"}, "bike_id": "3981ce1620f2ca5a0ef7418dd91df24c", "lat": 38.91601983333334, "name": "3981ce1620f2ca5a0ef7418dd91df24c", "lon": -77.023003, "fusion_lon": 0.0}, {"is_reserved": 0, "type": "electric_scooter", "fusion_lat": 0.0, "is_disabled": 0, "rental_uris": {"ios": "https://dc.lft.to/lastmile_qr_scan", "android": "https://dc.lft.to/lastmile_qr_scan"}, "bike_id": "e651094f77d7255210ab23efa08d1c6d", "lat": 38.89330966666667, "name": "e651094f77d7255210ab23efa08d1c6d", "lon": -76.9393, "fusion_lon": 0.0}, {"is_reserved": 0, "type": "electric_bike", "fusion_lat": 0.0, "is_disabled": 0, "rental_uris": {"ios": "https://dc.lft.to/lastmile_qr_scan", "android": "https://dc.lft.to/lastmile_qr_scan"}, "bike_id": "65f01ac231cf922d2c6814b4e7d6e3d9", "lat": 38.87673816666667, "name": "65f01ac231cf922d2c6814b4e7d6e3d9", "lon": -77.02088483333333, "fusion_lon": 0.0}, {"is_reserved": 0, "type": "electric_scooter", "fusion_lat": 0.0, "is_disabled": 0, "rental_uris": {"ios": "https://dc.lft.to/lastmile_qr_scan", "android": "https://dc.lft.to/lastmile_qr_scan"}, "bike_id": "dbdc270df64dc41abb4881ffb6936404", "lat": 38.870719666666666, "name": "dbdc270df64dc41abb4881ffb6936404", "lon": -76.98129616666667, "fusion_lon": 0.0}, {"is_reserved": 0, "type": "electric_scooter", "fusion_lat": 0.0, "is_disabled": 0, "rental_uris": {"ios": "https://dc.lft.to/lastmile_qr_scan", "android": "https://dc.lft.to/lastmile_qr_scan"}, "bike_id": "8dc611babdeb5b7379c32ffd6c91507e", "lat": 38.9024925, "name": "8dc611babdeb5b7379c32ffd6c91507e", "lon": -77.0174615, "fusion_lon": 0.0}, {"is_reserved": 0, "type": "electric_scooter", "fusion_lat": 0.0, "is_disabled": 0, "rental_uris": {"ios": "https://dc.lft.to/lastmile_qr_scan", "android": "https://dc.lft.to/lastmile_qr_scan"}, "bike_id": "5d478703f49486ca28f4857db5defb0f", "lat": 38.90854483333333, "name": "5d478703f49486ca28f4857db5defb0f", "lon": -77.02462483333333, "fusion_lon": 0.0}, {"is_reserved": 0, "type": "electric_scooter", "fusion_lat": 0.0, "is_disabled": 0, "rental_uris": {"ios": "https://dc.lft.to/lastmile_qr_scan", "android": "https://dc.lft.to/lastmile_qr_scan"}, "bike_id": "23d23200301f3829faa407d0c5730ea3", "lat": 38.90953016666667, "name": "23d23200301f3829faa407d0c5730ea3", "lon": -77.04657733333333, "fusion_lon": 0.0}, {"is_reserved": 0, "type": "electric_scooter", "fusion_lat": 0.0, "is_disabled": 0, "rental_uris": {"ios": "https://dc.lft.to/lastmile_qr_scan", "android": "https://dc.lft.to/lastmile_qr_scan"}, "bike_id": "8abd5df5fdef38948967c33bd28eaf8d", "lat": 38.92505366666666, "name": "8abd5df5fdef38948967c33bd28eaf8d", "lon": -77.05111716666667, "fusion_lon": 0.0}, {"is_reserved": 0, "type": "electric_bike", "fusion_lat": 0.0, "is_disabled": 0, "rental_uris": {"ios": "https://dc.lft.to/lastmile_qr_scan", "android": "https://dc.lft.to/lastmile_qr_scan"}, "bike_id": "de41b1375ead36875c4c926b87152d05", "lat": 38.93006166666667, "name": "de41b1375ead36875c4c926b87152d05", "lon": -77.03779916666667, "fusion_lon": 0.0}, {"is_reserved": 0, "type": "electric_scooter", "fusion_lat": 0.0, "is_disabled": 0, "rental_uris": {"ios": "https://dc.lft.to/lastmile_qr_scan", "android": "https://dc.lft.to/lastmile_qr_scan"}, "bike_id": "d0925905c35dc09e0f6ba2b7b58b44f2", "lat": 38.920974666666666, "name": "d0925905c35dc09e0f6ba2b7b58b44f2", "lon": -76.9948475, "fusion_lon": 0.0}, {"is_reserved": 0, "type": "electric_bike", "fusion_lat": 0.0, "is_disabled": 0, "rental_uris": {"ios": "https://dc.lft.to/lastmile_qr_scan", "android": "https://dc.lft.to/lastmile_qr_scan"}, "bike_id": "ecba6b63379cf1f843744365a55bfcae", "lat": 38.97285633333333, "name": "ecba6b63379cf1f843744365a55bfcae", "lon": -77.03628, "fusion_lon": 0.0}, {"is_reserved": 0, "type": "electric_scooter", "fusion_lat": 0.0, "is_disabled": 0, "rental_uris": {"ios": "https://dc.lft.to/lastmile_qr_scan", "android": "https://dc.lft.to/lastmile_qr_scan"}, "bike_id": "9562c9009753c91737d62e00de8ca597", "lat": 38.87842166666667, "name": "9562c9009753c91737d62e00de8ca597", "lon": -77.008557, "fusion_lon": 0.0}, {"is_reserved": 0, "type": "electric_scooter", "fusion_lat": 0.0, "is_disabled": 0, "rental_uris": {"ios": "https://dc.lft.to/lastmile_qr_scan", "android": "https://dc.lft.to/lastmile_qr_scan"}, "bike_id": "1563687c772c2a60dcc2c08af7324f57", "lat": 38.90248966666667, "name": "1563687c772c2a60dcc2c08af7324f57", "lon": -77.04542616666667, "fusion_lon": 0.0}, {"is_reserved": 0, "type": "electric_scooter", "fusion_lat": 0.0, "is_disabled": 0, "rental_uris": {"ios": "https://dc.lft.to/lastmile_qr_scan", "android": "https://dc.lft.to/lastmile_qr_scan"}, "bike_id": "5acefe710f293aa0b71f8a94466091e2", "lat": 38.90230716666667, "name": "5acefe710f293aa0b71f8a94466091e2", "lon": -76.99034666666667, "fusion_lon": 0.0}, {"is_reserved": 0, "type": "electric_scooter", "fusion_lat": 0.0, "is_disabled": 0, "rental_uris": {"ios": "https://dc.lft.to/lastmile_qr_scan", "android": "https://dc.lft.to/lastmile_qr_scan"}, "bike_id": "be41887c90e3a2929843fe3a2a520e5b", "lat": 38.894724333333336, "name": "be41887c90e3a2929843fe3a2a520e5b", "lon": -77.0273635, "fusion_lon": 0.0}, {"is_reserved": 0, "type": "electric_scooter", "fusion_lat": 0.0, "is_disabled": 0, "rental_uris": {"ios": "https://dc.lft.to/lastmile_qr_scan", "android": "https://dc.lft.to/lastmile_qr_scan"}, "bike_id": "44842ed78d11aa7885ee977f2cb3f81a", "lat": 38.92336133333333, "name": "44842ed78d11aa7885ee977f2cb3f81a", "lon": -77.03780033333334, "fusion_lon": 0.0}, {"is_reserved": 0, "type": "electric_bike", "fusion_lat": 0.0, "is_disabled": 0, "rental_uris": {"ios": "https://dc.lft.to/lastmile_qr_scan", "android": "https://dc.lft.to/lastmile_qr_scan"}, "bike_id": "51408cb37df71e0097e89bfe6fdaec56", "lat": 38.84288333333333, "name": "51408cb37df71e0097e89bfe6fdaec56", "lon": -77.06377033333334, "fusion_lon": 0.0}, {"is_reserved": 0, "type": "electric_bike", "fusion_lat": 0.0, "is_disabled": 0, "rental_uris": {"ios": "https://dc.lft.to/lastmile_qr_scan", "android": "https://dc.lft.to/lastmile_qr_scan"}, "bike_id": "1ba37271c43b027ca656b9272068f1b1", "lat": 38.95251616666667, "name": "1ba37271c43b027ca656b9272068f1b1", "lon": -77.096235, "fusion_lon": 0.0}, {"is_reserved": 0, "type": "electric_bike", "fusion_lat": 0.0, "is_disabled": 0, "rental_uris": {"ios": "https://dc.lft.to/lastmile_qr_scan", "android": "https://dc.lft.to/lastmile_qr_scan"}, "bike_id": "6eae3d97f3a2a0ca74290ad87f2d75e5", "lat": 38.84689983333333, "name": "6eae3d97f3a2a0ca74290ad87f2d75e5", "lon": -76.980617, "fusion_lon": 0.0}, {"is_reserved": 0, "type": "electric_bike", "fusion_lat": 0.0, "is_disabled": 0, "rental_uris": {"ios": "https://dc.lft.to/lastmile_qr_scan", "android": "https://dc.lft.to/lastmile_qr_scan"}, "bike_id": "8adb40ab8ab45529926cb0006498a4bd", "lat": 38.88763683333333, "name": "8adb40ab8ab45529926cb0006498a4bd", "lon": -77.156528, "fusion_lon": 0.0}, {"is_reserved": 0, "type": "electric_scooter", "fusion_lat": 0.0, "is_disabled": 0, "rental_uris": {"ios": "https://dc.lft.to/lastmile_qr_scan", "android": "https://dc.lft.to/lastmile_qr_scan"}, "bike_id": "8c09aafadcb1b529b0a7f4b90f2a382a", "lat": 38.92081433333333, "name": "8c09aafadcb1b529b0a7f4b90f2a382a", "lon": -77.0251335, "fusion_lon": 0.0}, {"is_reserved": 0, "type": "electric_scooter", "fusion_lat": 0.0, "is_disabled": 0, "rental_uris": {"ios": "https://dc.lft.to/lastmile_qr_scan", "android": "https://dc.lft.to/lastmile_qr_scan"}, "bike_id": "147205fe23730a265a9176d48fa007e6", "lat": 38.89549183333333, "name": "147205fe23730a265a9176d48fa007e6", "lon": -77.02681716666666, "fusion_lon": 0.0}, {"is_reserved": 0, "type": "electric_scooter", "fusion_lat": 0.0, "is_disabled": 0, "rental_uris": {"ios": "https://dc.lft.to/lastmile_qr_scan", "android": "https://dc.lft.to/lastmile_qr_scan"}, "bike_id": "d593978a6b83fc1bd4824d1d8a70dc10", "lat": 38.93013666666667, "name": "d593978a6b83fc1bd4824d1d8a70dc10", "lon": -77.021019, "fusion_lon": 0.0}, {"is_reserved": 0, "type": "electric_scooter", "fusion_lat": 0.0, "is_disabled": 0, "rental_uris": {"ios": "https://dc.lft.to/lastmile_qr_scan", "android": "https://dc.lft.to/lastmile_qr_scan"}, "bike_id": "bcd132ec6f264dde911d2aee707c4bb9", "lat": 38.89538733333333, "name": "bcd132ec6f264dde911d2aee707c4bb9", "lon": -77.0255895, "fusion_lon": 0.0}, {"is_reserved": 0, "type": "electric_scooter", "fusion_lat": 0.0, "is_disabled": 0, "rental_uris": {"ios": "https://dc.lft.to/lastmile_qr_scan", "android": "https://dc.lft.to/lastmile_qr_scan"}, "bike_id": "a79e448c6b46b3396aef2af264b119f0", "lat": 38.897399666666665, "name": "a79e448c6b46b3396aef2af264b119f0", "lon": -77.04802383333333, "fusion_lon": 0.0}, {"is_reserved": 0, "type": "electric_scooter", "fusion_lat": 0.0, "is_disabled": 0, "rental_uris": {"ios": "https://dc.lft.to/lastmile_qr_scan", "android": "https://dc.lft.to/lastmile_qr_scan"}, "bike_id": "539cd29ea41439266bbead5cf72fbc55", "lat": 38.9180485, "name": "539cd29ea41439266bbead5cf72fbc55", "lon": -77.04442333333333, "fusion_lon": 0.0}, {"is_reserved": 0, "type": "electric_scooter", "fusion_lat": 0.0, "is_disabled": 0, "rental_uris": {"ios": "https://dc.lft.to/lastmile_qr_scan", "android": "https://dc.lft.to/lastmile_qr_scan"}, "bike_id": "9183ecf40f0801f36158b75e41420604", "lat": 38.87616933333334, "name": "9183ecf40f0801f36158b75e41420604", "lon": -77.00573616666667, "fusion_lon": 0.0}, {"is_reserved": 0, "type": "electric_scooter", "fusion_lat": 0.0, "is_disabled": 0, "rental_uris": {"ios": "https://dc.lft.to/lastmile_qr_scan", "android": "https://dc.lft.to/lastmile_qr_scan"}, "bike_id": "9bade29f654630b2cbda3c585e66c0e6", "lat": 38.90590516666666, "name": "9bade29f654630b2cbda3c585e66c0e6", "lon": -77.01628066666666, "fusion_lon": 0.0}, {"is_reserved": 0, "type": "electric_scooter", "fusion_lat": 0.0, "is_disabled": 0, "rental_uris": {"ios": "https://dc.lft.to/lastmile_qr_scan", "android": "https://dc.lft.to/lastmile_qr_scan"}, "bike_id": "ef62d2f143d8b0613fb85ed740979f86", "lat": 38.9129245, "name": "ef62d2f143d8b0613fb85ed740979f86", "lon": -76.98701566666666, "fusion_lon": 0.0}, {"is_reserved": 0, "type": "electric_scooter", "fusion_lat": 0.0, "is_disabled": 0, "rental_uris": {"ios": "https://dc.lft.to/lastmile_qr_scan", "android": "https://dc.lft.to/lastmile_qr_scan"}, "bike_id": "fabec5d0b79cd00e87d6a92a0c51f896", "lat": 38.9181475, "name": "fabec5d0b79cd00e87d6a92a0c51f896", "lon": -77.024786, "fusion_lon": 0.0}, {"is_reserved": 0, "type": "electric_scooter", "fusion_lat": 0.0, "is_disabled": 0, "rental_uris": {"ios": "https://dc.lft.to/lastmile_qr_scan", "android": "https://dc.lft.to/lastmile_qr_scan"}, "bike_id": "cce1b57bcf677e3015d7a996edbf60d3", "lat": 38.8999805, "name": "cce1b57bcf677e3015d7a996edbf60d3", "lon": -77.02702366666666, "fusion_lon": 0.0}, {"is_reserved": 0, "type": "electric_scooter", "fusion_lat": 0.0, "is_disabled": 0, "rental_uris": {"ios": "https://dc.lft.to/lastmile_qr_scan", "android": "https://dc.lft.to/lastmile_qr_scan"}, "bike_id": "1e234e19ad02db4ed3ba99cde27b46b0", "lat": 38.93512333333334, "name": "1e234e19ad02db4ed3ba99cde27b46b0", "lon": -77.05694083333333, "fusion_lon": 0.0}, {"is_reserved": 0, "type": "electric_scooter", "fusion_lat": 0.0, "is_disabled": 0, "rental_uris": {"ios": "https://dc.lft.to/lastmile_qr_scan", "android": "https://dc.lft.to/lastmile_qr_scan"}, "bike_id": "06ce6bc11a95a0b93d9c6de3f3fd704c", "lat": 38.92015383333333, "name": "06ce6bc11a95a0b93d9c6de3f3fd704c", "lon": -77.03215516666667, "fusion_lon": 0.0}, {"is_reserved": 0, "type": "electric_scooter", "fusion_lat": 0.0, "is_disabled": 0, "rental_uris": {"ios": "https://dc.lft.to/lastmile_qr_scan", "android": "https://dc.lft.to/lastmile_qr_scan"}, "bike_id": "d203b99d463287e27a61bfc6c41d4c23", "lat": 38.921709166666666, "name": "d203b99d463287e27a61bfc6c41d4c23", "lon": -77.04010033333333, "fusion_lon": 0.0}, {"is_reserved": 0, "type": "electric_scooter", "fusion_lat": 0.0, "is_disabled": 0, "rental_uris": {"ios": "https://dc.lft.to/lastmile_qr_scan", "android": "https://dc.lft.to/lastmile_qr_scan"}, "bike_id": "8a17ab2fe38db8e13f171da72fe2f1bb", "lat": 38.90912633333333, "name": "8a17ab2fe38db8e13f171da72fe2f1bb", "lon": -77.03512916666666, "fusion_lon": 0.0}, {"is_reserved": 0, "type": "electric_scooter", "fusion_lat": 0.0, "is_disabled": 0, "rental_uris": {"ios": "https://dc.lft.to/lastmile_qr_scan", "android": "https://dc.lft.to/lastmile_qr_scan"}, "bike_id": "f757e8de6416cf2e1d861ad1cb72c953", "lat": 38.923405833333334, "name": "f757e8de6416cf2e1d861ad1cb72c953", "lon": -77.05784616666666, "fusion_lon": 0.0}, {"is_reserved": 0, "type": "electric_scooter", "fusion_lat": 0.0, "is_disabled": 0, "rental_uris": {"ios": "https://dc.lft.to/lastmile_qr_scan", "android": "https://dc.lft.to/lastmile_qr_scan"}, "bike_id": "e0c496bfb94e43d7de5bee1c5c137580", "lat": 38.919317666666664, "name": "e0c496bfb94e43d7de5bee1c5c137580", "lon": -77.03181233333333, "fusion_lon": 0.0}, {"is_reserved": 0, "type": "electric_scooter", "fusion_lat": 0.0, "is_disabled": 0, "rental_uris": {"ios": "https://dc.lft.to/lastmile_qr_scan", "android": "https://dc.lft.to/lastmile_qr_scan"}, "bike_id": "66a190c590aa4fabede705333929f652", "lat": 38.9074985, "name": "66a190c590aa4fabede705333929f652", "lon": -77.04164533333334, "fusion_lon": 0.0}, {"is_reserved": 0, "type": "electric_scooter", "fusion_lat": 0.0, "is_disabled": 0, "rental_uris": {"ios": "https://dc.lft.to/lastmile_qr_scan", "android": "https://dc.lft.to/lastmile_qr_scan"}, "bike_id": "aeb4a21cd32f7a2879615ae719d1e612", "lat": 38.876411, "name": "aeb4a21cd32f7a2879615ae719d1e612", "lon": -76.99291816666667, "fusion_lon": 0.0}, {"is_reserved": 0, "type": "electric_scooter", "fusion_lat": 0.0, "is_disabled": 0, "rental_uris": {"ios": "https://dc.lft.to/lastmile_qr_scan", "android": "https://dc.lft.to/lastmile_qr_scan"}, "bike_id": "28870e9c1a36403e968874d5ede66d2b", "lat": 38.93212116666667, "name": "28870e9c1a36403e968874d5ede66d2b", "lon": -77.03261483333333, "fusion_lon": 0.0}, {"is_reserved": 0, "type": "electric_bike", "fusion_lat": 0.0, "is_disabled": 0, "rental_uris": {"ios": "https://dc.lft.to/lastmile_qr_scan", "android": "https://dc.lft.to/lastmile_qr_scan"}, "bike_id": "50cb77aaf5afab9e655a8e162f624622", "lat": 38.83161316666666, "name": "50cb77aaf5afab9e655a8e162f624622", "lon": -76.99589416666667, "fusion_lon": 0.0}, {"is_reserved": 0, "type": "electric_scooter", "fusion_lat": 0.0, "is_disabled": 0, "rental_uris": {"ios": "https://dc.lft.to/lastmile_qr_scan", "android": "https://dc.lft.to/lastmile_qr_scan"}, "bike_id": "e9e8486b5c66fe90d3a91e829de89b4b", "lat": 38.91585633333333, "name": "e9e8486b5c66fe90d3a91e829de89b4b", "lon": -76.982988, "fusion_lon": 0.0}, {"is_reserved": 0, "type": "electric_scooter", "fusion_lat": 0.0, "is_disabled": 0, "rental_uris": {"ios": "https://dc.lft.to/lastmile_qr_scan", "android": "https://dc.lft.to/lastmile_qr_scan"}, "bike_id": "56921a8d8794080b024854831f1d280a", "lat": 38.91711933333333, "name": "56921a8d8794080b024854831f1d280a", "lon": -77.02409633333333, "fusion_lon": 0.0}, {"is_reserved": 0, "type": "electric_scooter", "fusion_lat": 0.0, "is_disabled": 0, "rental_uris": {"ios": "https://dc.lft.to/lastmile_qr_scan", "android": "https://dc.lft.to/lastmile_qr_scan"}, "bike_id": "5c4539f7288ea03bebb04ba7d1659984", "lat": 38.87477583333333, "name": "5c4539f7288ea03bebb04ba7d1659984", "lon": -77.0048365, "fusion_lon": 0.0}, {"is_reserved": 0, "type": "electric_scooter", "fusion_lat": 0.0, "is_disabled": 0, "rental_uris": {"ios": "https://dc.lft.to/lastmile_qr_scan", "android": "https://dc.lft.to/lastmile_qr_scan"}, "bike_id": "be6d2d6955072158247ef3df4310dafa", "lat": 38.93133, "name": "be6d2d6955072158247ef3df4310dafa", "lon": -77.02197683333333, "fusion_lon": 0.0}, {"is_reserved": 0, "type": "electric_scooter", "fusion_lat": 0.0, "is_disabled": 0, "rental_uris": {"ios": "https://dc.lft.to/lastmile_qr_scan", "android": "https://dc.lft.to/lastmile_qr_scan"}, "bike_id": "46671ae8c8133a06099d099884bb0f3e", "lat": 38.901876333333334, "name": "46671ae8c8133a06099d099884bb0f3e", "lon": -76.98841883333333, "fusion_lon": 0.0}, {"is_reserved": 0, "type": "electric_bike", "fusion_lat": 0.0, "is_disabled": 0, "rental_uris": {"ios": "https://dc.lft.to/lastmile_qr_scan", "android": "https://dc.lft.to/lastmile_qr_scan"}, "bike_id": "613aae004cf3b951b59674c81dec0395", "lat": 39.01067033333333, "name": "613aae004cf3b951b59674c81dec0395", "lon": -76.9224165, "fusion_lon": 0.0}, {"is_reserved": 0, "type": "electric_scooter", "fusion_lat": 0.0, "is_disabled": 0, "rental_uris": {"ios": "https://dc.lft.to/lastmile_qr_scan", "android": "https://dc.lft.to/lastmile_qr_scan"}, "bike_id": "6f50d36a0e6e86b4e2f3a12b1b59c3aa", "lat": 38.922448833333334, "name": "6f50d36a0e6e86b4e2f3a12b1b59c3aa", "lon": -77.03660116666667, "fusion_lon": 0.0}, {"is_reserved": 0, "type": "electric_scooter", "fusion_lat": 0.0, "is_disabled": 0, "rental_uris": {"ios": "https://dc.lft.to/lastmile_qr_scan", "android": "https://dc.lft.to/lastmile_qr_scan"}, "bike_id": "55772b9093693478dd3b1ec9a7191eda", "lat": 38.8737385, "name": "55772b9093693478dd3b1ec9a7191eda", "lon": -77.00189366666666, "fusion_lon": 0.0}, {"is_reserved": 0, "type": "electric_scooter", "fusion_lat": 0.0, "is_disabled": 0, "rental_uris": {"ios": "https://dc.lft.to/lastmile_qr_scan", "android": "https://dc.lft.to/lastmile_qr_scan"}, "bike_id": "3cd621a35910e348592ad19b44b0189c", "lat": 38.878428166666666, "name": "3cd621a35910e348592ad19b44b0189c", "lon": -76.93130383333333, "fusion_lon": 0.0}, {"is_reserved": 0, "type": "electric_scooter", "fusion_lat": 0.0, "is_disabled": 0, "rental_uris": {"ios": "https://dc.lft.to/lastmile_qr_scan", "android": "https://dc.lft.to/lastmile_qr_scan"}, "bike_id": "ceaca754e15ca63ded4a93239423b9c7", "lat": 38.91869533333333, "name": "ceaca754e15ca63ded4a93239423b9c7", "lon": -77.01528583333334, "fusion_lon": 0.0}, {"is_reserved": 0, "type": "electric_scooter", "fusion_lat": 0.0, "is_disabled": 0, "rental_uris": {"ios": "https://dc.lft.to/lastmile_qr_scan", "android": "https://dc.lft.to/lastmile_qr_scan"}, "bike_id": "0fe814e5f67cecd52b64046a930bbffa", "lat": 38.905583666666665, "name": "0fe814e5f67cecd52b64046a930bbffa", "lon": -77.0259475, "fusion_lon": 0.0}, {"is_reserved": 0, "type": "electric_scooter", "fusion_lat": 0.0, "is_disabled": 0, "rental_uris": {"ios": "https://dc.lft.to/lastmile_qr_scan", "android": "https://dc.lft.to/lastmile_qr_scan"}, "bike_id": "a3814410666cdd8e1add1137f72a13c7", "lat": 38.894762, "name": "a3814410666cdd8e1add1137f72a13c7", "lon": -77.02164716666667, "fusion_lon": 0.0}, {"is_reserved": 0, "type": "electric_scooter", "fusion_lat": 0.0, "is_disabled": 0, "rental_uris": {"ios": "https://dc.lft.to/lastmile_qr_scan", "android": "https://dc.lft.to/lastmile_qr_scan"}, "bike_id": "a46684e994977985d7b15d775f3ef133", "lat": 38.8984695, "name": "a46684e994977985d7b15d775f3ef133", "lon": -77.007339, "fusion_lon": 0.0}, {"is_reserved": 0, "type": "electric_scooter", "fusion_lat": 0.0, "is_disabled": 0, "rental_uris": {"ios": "https://dc.lft.to/lastmile_qr_scan", "android": "https://dc.lft.to/lastmile_qr_scan"}, "bike_id": "40ac05b88910ab73c940fceaec43167f", "lat": 38.92447683333333, "name": "40ac05b88910ab73c940fceaec43167f", "lon": -77.02131383333334, "fusion_lon": 0.0}, {"is_reserved": 0, "type": "electric_scooter", "fusion_lat": 0.0, "is_disabled": 0, "rental_uris": {"ios": "https://dc.lft.to/lastmile_qr_scan", "android": "https://dc.lft.to/lastmile_qr_scan"}, "bike_id": "0b3ece82a54078fffa6d8cfc8787bad2", "lat": 38.926531, "name": "0b3ece82a54078fffa6d8cfc8787bad2", "lon": -77.024293, "fusion_lon": 0.0}, {"is_reserved": 0, "type": "electric_scooter", "fusion_lat": 0.0, "is_disabled": 0, "rental_uris": {"ios": "https://dc.lft.to/lastmile_qr_scan", "android": "https://dc.lft.to/lastmile_qr_scan"}, "bike_id": "cdaff4ce575f7f8518aba79b858cc0b0", "lat": 38.916276333333336, "name": "cdaff4ce575f7f8518aba79b858cc0b0", "lon": -77.02952566666667, "fusion_lon": 0.0}, {"is_reserved": 0, "type": "electric_scooter", "fusion_lat": 0.0, "is_disabled": 0, "rental_uris": {"ios": "https://dc.lft.to/lastmile_qr_scan", "android": "https://dc.lft.to/lastmile_qr_scan"}, "bike_id": "6c961d3775e2841682300c48815084c1", "lat": 38.902570833333336, "name": "6c961d3775e2841682300c48815084c1", "lon": -77.01789066666667, "fusion_lon": 0.0}, {"is_reserved": 0, "type": "electric_scooter", "fusion_lat": 0.0, "is_disabled": 0, "rental_uris": {"ios": "https://dc.lft.to/lastmile_qr_scan", "android": "https://dc.lft.to/lastmile_qr_scan"}, "bike_id": "f98181c44fcd4a243a77ff7175ca6271", "lat": 38.91986166666667, "name": "f98181c44fcd4a243a77ff7175ca6271", "lon": -77.02366116666667, "fusion_lon": 0.0}, {"is_reserved": 0, "type": "electric_scooter", "fusion_lat": 0.0, "is_disabled": 0, "rental_uris": {"ios": "https://dc.lft.to/lastmile_qr_scan", "android": "https://dc.lft.to/lastmile_qr_scan"}, "bike_id": "f00334260c23e0d5aaa5289332820edc", "lat": 38.9133615, "name": "f00334260c23e0d5aaa5289332820edc", "lon": -77.03044233333334, "fusion_lon": 0.0}, {"is_reserved": 0, "type": "electric_scooter", "fusion_lat": 0.0, "is_disabled": 0, "rental_uris": {"ios": "https://dc.lft.to/lastmile_qr_scan", "android": "https://dc.lft.to/lastmile_qr_scan"}, "bike_id": "15614b82f8b49501f05aaf2db481f1d0", "lat": 38.9238705, "name": "15614b82f8b49501f05aaf2db481f1d0", "lon": -77.03080483333333, "fusion_lon": 0.0}, {"is_reserved": 0, "type": "electric_scooter", "fusion_lat": 0.0, "is_disabled": 0, "rental_uris": {"ios": "https://dc.lft.to/lastmile_qr_scan", "android": "https://dc.lft.to/lastmile_qr_scan"}, "bike_id": "eb269ee56f49b71f061b8ecad2c6640c", "lat": 38.92413716666667, "name": "eb269ee56f49b71f061b8ecad2c6640c", "lon": -77.021302, "fusion_lon": 0.0}, {"is_reserved": 0, "type": "electric_scooter", "fusion_lat": 0.0, "is_disabled": 0, "rental_uris": {"ios": "https://dc.lft.to/lastmile_qr_scan", "android": "https://dc.lft.to/lastmile_qr_scan"}, "bike_id": "bac4ed3300ea10a7d6e3fffb9368641e", "lat": 38.905194333333334, "name": "bac4ed3300ea10a7d6e3fffb9368641e", "lon": -77.0005, "fusion_lon": 0.0}, {"is_reserved": 0, "type": "electric_scooter", "fusion_lat": 0.0, "is_disabled": 0, "rental_uris": {"ios": "https://dc.lft.to/lastmile_qr_scan", "android": "https://dc.lft.to/lastmile_qr_scan"}, "bike_id": "605acffe28f18769363d706035631e1a", "lat": 38.9012985, "name": "605acffe28f18769363d706035631e1a", "lon": -77.01737816666666, "fusion_lon": 0.0}, {"is_reserved": 0, "type": "electric_scooter", "fusion_lat": 0.0, "is_disabled": 0, "rental_uris": {"ios": "https://dc.lft.to/lastmile_qr_scan", "android": "https://dc.lft.to/lastmile_qr_scan"}, "bike_id": "5fd3d06be7020f7f4a54e1bc8eafaef5", "lat": 38.922404, "name": "5fd3d06be7020f7f4a54e1bc8eafaef5", "lon": -76.98848033333333, "fusion_lon": 0.0}, {"is_reserved": 0, "type": "electric_scooter", "fusion_lat": 0.0, "is_disabled": 0, "rental_uris": {"ios": "https://dc.lft.to/lastmile_qr_scan", "android": "https://dc.lft.to/lastmile_qr_scan"}, "bike_id": "060f065fc006b4c2bb6c489d95557ce5", "lat": 38.8872605, "name": "060f065fc006b4c2bb6c489d95557ce5", "lon": -77.02196683333334, "fusion_lon": 0.0}, {"is_reserved": 0, "type": "electric_scooter", "fusion_lat": 0.0, "is_disabled": 0, "rental_uris": {"ios": "https://dc.lft.to/lastmile_qr_scan", "android": "https://dc.lft.to/lastmile_qr_scan"}, "bike_id": "5e9c9138d7c4b051c19912b9ae7aa0e6", "lat": 38.92374266666667, "name": "5e9c9138d7c4b051c19912b9ae7aa0e6", "lon": -77.027482, "fusion_lon": 0.0}, {"is_reserved": 0, "type": "electric_scooter", "fusion_lat": 0.0, "is_disabled": 0, "rental_uris": {"ios": "https://dc.lft.to/lastmile_qr_scan", "android": "https://dc.lft.to/lastmile_qr_scan"}, "bike_id": "cfc62837acf83e5162561f00cc9e7c16", "lat": 38.9007665, "name": "cfc62837acf83e5162561f00cc9e7c16", "lon": -77.01862683333333, "fusion_lon": 0.0}, {"is_reserved": 0, "type": "electric_scooter", "fusion_lat": 0.0, "is_disabled": 0, "rental_uris": {"ios": "https://dc.lft.to/lastmile_qr_scan", "android": "https://dc.lft.to/lastmile_qr_scan"}, "bike_id": "5b8289dce9fbcab5546f4cd8d9a87036", "lat": 38.905953833333335, "name": "5b8289dce9fbcab5546f4cd8d9a87036", "lon": -77.07272633333334, "fusion_lon": 0.0}, {"is_reserved": 0, "type": "electric_bike", "fusion_lat": 0.0, "is_disabled": 0, "rental_uris": {"ios": "https://dc.lft.to/lastmile_qr_scan", "android": "https://dc.lft.to/lastmile_qr_scan"}, "bike_id": "4f3b76f32d91474d434089c9141f91e2", "lat": 38.93353033333333, "name": "4f3b76f32d91474d434089c9141f91e2", "lon": -77.09715466666667, "fusion_lon": 0.0}, {"is_reserved": 0, "type": "electric_scooter", "fusion_lat": 0.0, "is_disabled": 0, "rental_uris": {"ios": "https://dc.lft.to/lastmile_qr_scan", "android": "https://dc.lft.to/lastmile_qr_scan"}, "bike_id": "ddc0e43a1fd89cc119d5562b29b3d2db", "lat": 38.90843916666667, "name": "ddc0e43a1fd89cc119d5562b29b3d2db", "lon": -77.0434885, "fusion_lon": 0.0}, {"is_reserved": 0, "type": "electric_scooter", "fusion_lat": 0.0, "is_disabled": 0, "rental_uris": {"ios": "https://dc.lft.to/lastmile_qr_scan", "android": "https://dc.lft.to/lastmile_qr_scan"}, "bike_id": "576c5ccaa417641e29b8f36f2a7469c2", "lat": 38.92384116666667, "name": "576c5ccaa417641e29b8f36f2a7469c2", "lon": -77.04110883333334, "fusion_lon": 0.0}, {"is_reserved": 0, "type": "electric_scooter", "fusion_lat": 0.0, "is_disabled": 0, "rental_uris": {"ios": "https://dc.lft.to/lastmile_qr_scan", "android": "https://dc.lft.to/lastmile_qr_scan"}, "bike_id": "e61debe2429c2c18a817badd6019488a", "lat": 38.91419233333333, "name": "e61debe2429c2c18a817badd6019488a", "lon": -77.03254983333333, "fusion_lon": 0.0}, {"is_reserved": 0, "type": "electric_scooter", "fusion_lat": 0.0, "is_disabled": 0, "rental_uris": {"ios": "https://dc.lft.to/lastmile_qr_scan", "android": "https://dc.lft.to/lastmile_qr_scan"}, "bike_id": "afc1d56f813d823e01df26ac7ff9d0b6", "lat": 38.9017585, "name": "afc1d56f813d823e01df26ac7ff9d0b6", "lon": -77.001995, "fusion_lon": 0.0}, {"is_reserved": 0, "type": "electric_scooter", "fusion_lat": 0.0, "is_disabled": 0, "rental_uris": {"ios": "https://dc.lft.to/lastmile_qr_scan", "android": "https://dc.lft.to/lastmile_qr_scan"}, "bike_id": "58333e8171056ff9001cfb03a3b4f8b2", "lat": 38.909502833333335, "name": "58333e8171056ff9001cfb03a3b4f8b2", "lon": -76.99587566666666, "fusion_lon": 0.0}, {"is_reserved": 0, "type": "electric_scooter", "fusion_lat": 0.0, "is_disabled": 0, "rental_uris": {"ios": "https://dc.lft.to/lastmile_qr_scan", "android": "https://dc.lft.to/lastmile_qr_scan"}, "bike_id": "c709dc9b2b96c7c38ceb7358ef984eab", "lat": 38.90555633333334, "name": "c709dc9b2b96c7c38ceb7358ef984eab", "lon": -77.03286483333333, "fusion_lon": 0.0}, {"is_reserved": 0, "type": "electric_scooter", "fusion_lat": 0.0, "is_disabled": 0, "rental_uris": {"ios": "https://dc.lft.to/lastmile_qr_scan", "android": "https://dc.lft.to/lastmile_qr_scan"}, "bike_id": "3a05d9b046cff51dc31f2cef3388c925", "lat": 38.93102866666667, "name": "3a05d9b046cff51dc31f2cef3388c925", "lon": -77.02474216666667, "fusion_lon": 0.0}, {"is_reserved": 0, "type": "electric_scooter", "fusion_lat": 0.0, "is_disabled": 0, "rental_uris": {"ios": "https://dc.lft.to/lastmile_qr_scan", "android": "https://dc.lft.to/lastmile_qr_scan"}, "bike_id": "029aec564ea09835e9cd3f25c19d469f", "lat": 38.932636333333335, "name": "029aec564ea09835e9cd3f25c19d469f", "lon": -77.0326545, "fusion_lon": 0.0}, {"is_reserved": 0, "type": "electric_scooter", "fusion_lat": 0.0, "is_disabled": 0, "rental_uris": {"ios": "https://dc.lft.to/lastmile_qr_scan", "android": "https://dc.lft.to/lastmile_qr_scan"}, "bike_id": "6e2c74281202a950d455463a314764e3", "lat": 38.86083283333333, "name": "6e2c74281202a950d455463a314764e3", "lon": -76.98373666666667, "fusion_lon": 0.0}, {"is_reserved": 0, "type": "electric_scooter", "fusion_lat": 0.0, "is_disabled": 0, "rental_uris": {"ios": "https://dc.lft.to/lastmile_qr_scan", "android": "https://dc.lft.to/lastmile_qr_scan"}, "bike_id": "f1d2e061b165ad3a2f01de1c7d931dee", "lat": 38.904903, "name": "f1d2e061b165ad3a2f01de1c7d931dee", "lon": -77.04857333333334, "fusion_lon": 0.0}, {"is_reserved": 0, "type": "electric_scooter", "fusion_lat": 0.0, "is_disabled": 0, "rental_uris": {"ios": "https://dc.lft.to/lastmile_qr_scan", "android": "https://dc.lft.to/lastmile_qr_scan"}, "bike_id": "e85c493028595340e8bf0cf27d2c6d0e", "lat": 38.8857995, "name": "e85c493028595340e8bf0cf27d2c6d0e", "lon": -77.012147, "fusion_lon": 0.0}, {"is_reserved": 0, "type": "electric_scooter", "fusion_lat": 0.0, "is_disabled": 0, "rental_uris": {"ios": "https://dc.lft.to/lastmile_qr_scan", "android": "https://dc.lft.to/lastmile_qr_scan"}, "bike_id": "98fae4ff1cac42b360cbaf7709294e29", "lat": 38.9043975, "name": "98fae4ff1cac42b360cbaf7709294e29", "lon": -76.99727133333333, "fusion_lon": 0.0}, {"is_reserved": 0, "type": "electric_bike", "fusion_lat": 0.0, "is_disabled": 0, "rental_uris": {"ios": "https://dc.lft.to/lastmile_qr_scan", "android": "https://dc.lft.to/lastmile_qr_scan"}, "bike_id": "6bd054823c5896704dfad73e33d079da", "lat": 38.8506155, "name": "6bd054823c5896704dfad73e33d079da", "lon": -76.95830216666667, "fusion_lon": 0.0}, {"is_reserved": 0, "type": "electric_scooter", "fusion_lat": 0.0, "is_disabled": 0, "rental_uris": {"ios": "https://dc.lft.to/lastmile_qr_scan", "android": "https://dc.lft.to/lastmile_qr_scan"}, "bike_id": "736af85e2e5d725085d4236e6548de69", "lat": 38.91925483333333, "name": "736af85e2e5d725085d4236e6548de69", "lon": -77.0311075, "fusion_lon": 0.0}, {"is_reserved": 0, "type": "electric_scooter", "fusion_lat": 0.0, "is_disabled": 0, "rental_uris": {"ios": "https://dc.lft.to/lastmile_qr_scan", "android": "https://dc.lft.to/lastmile_qr_scan"}, "bike_id": "77b786f6b6c8076e71516b7b2025c418", "lat": 38.88267916666667, "name": "77b786f6b6c8076e71516b7b2025c418", "lon": -76.99524066666666, "fusion_lon": 0.0}, {"is_reserved": 0, "type": "electric_scooter", "fusion_lat": 0.0, "is_disabled": 0, "rental_uris": {"ios": "https://dc.lft.to/lastmile_qr_scan", "android": "https://dc.lft.to/lastmile_qr_scan"}, "bike_id": "8f224cf5a4843223751c15a9e64cd47e", "lat": 38.909623833333335, "name": "8f224cf5a4843223751c15a9e64cd47e", "lon": -77.02375316666667, "fusion_lon": 0.0}, {"is_reserved": 0, "type": "electric_scooter", "fusion_lat": 0.0, "is_disabled": 0, "rental_uris": {"ios": "https://dc.lft.to/lastmile_qr_scan", "android": "https://dc.lft.to/lastmile_qr_scan"}, "bike_id": "cc2702ae2a03f47448ea3744bcb146fb", "lat": 38.90335316666667, "name": "cc2702ae2a03f47448ea3744bcb146fb", "lon": -76.97588266666666, "fusion_lon": 0.0}, {"is_reserved": 0, "type": "electric_scooter", "fusion_lat": 0.0, "is_disabled": 0, "rental_uris": {"ios": "https://dc.lft.to/lastmile_qr_scan", "android": "https://dc.lft.to/lastmile_qr_scan"}, "bike_id": "c07c7a06333417ac40a302f22ae11236", "lat": 38.920805666666666, "name": "c07c7a06333417ac40a302f22ae11236", "lon": -77.02510716666667, "fusion_lon": 0.0}, {"is_reserved": 0, "type": "electric_scooter", "fusion_lat": 0.0, "is_disabled": 0, "rental_uris": {"ios": "https://dc.lft.to/lastmile_qr_scan", "android": "https://dc.lft.to/lastmile_qr_scan"}, "bike_id": "3afaecf0ac83b8cfb909fa1ca2528fc6", "lat": 38.90963566666667, "name": "3afaecf0ac83b8cfb909fa1ca2528fc6", "lon": -77.01389216666666, "fusion_lon": 0.0}, {"is_reserved": 0, "type": "electric_scooter", "fusion_lat": 0.0, "is_disabled": 0, "rental_uris": {"ios": "https://dc.lft.to/lastmile_qr_scan", "android": "https://dc.lft.to/lastmile_qr_scan"}, "bike_id": "af885a175667ca1c896d8b576d9c227b", "lat": 38.933499166666664, "name": "af885a175667ca1c896d8b576d9c227b", "lon": -76.99435933333334, "fusion_lon": 0.0}, {"is_reserved": 0, "type": "electric_scooter", "fusion_lat": 0.0, "is_disabled": 0, "rental_uris": {"ios": "https://dc.lft.to/lastmile_qr_scan", "android": "https://dc.lft.to/lastmile_qr_scan"}, "bike_id": "0a2c842ff9453466ca579a5896a22e5f", "lat": 38.89901283333333, "name": "0a2c842ff9453466ca579a5896a22e5f", "lon": -77.040284, "fusion_lon": 0.0}, {"is_reserved": 0, "type": "electric_scooter", "fusion_lat": 0.0, "is_disabled": 0, "rental_uris": {"ios": "https://dc.lft.to/lastmile_qr_scan", "android": "https://dc.lft.to/lastmile_qr_scan"}, "bike_id": "eceb8b97e1d797623d8d38943329b71d", "lat": 38.899086, "name": "eceb8b97e1d797623d8d38943329b71d", "lon": -77.0032665, "fusion_lon": 0.0}, {"is_reserved": 0, "type": "electric_scooter", "fusion_lat": 0.0, "is_disabled": 0, "rental_uris": {"ios": "https://dc.lft.to/lastmile_qr_scan", "android": "https://dc.lft.to/lastmile_qr_scan"}, "bike_id": "89c562c0ca4c682fbe0110a290faee76", "lat": 38.90258133333333, "name": "89c562c0ca4c682fbe0110a290faee76", "lon": -77.0167995, "fusion_lon": 0.0}, {"is_reserved": 0, "type": "electric_scooter", "fusion_lat": 0.0, "is_disabled": 0, "rental_uris": {"ios": "https://dc.lft.to/lastmile_qr_scan", "android": "https://dc.lft.to/lastmile_qr_scan"}, "bike_id": "af2f019cf1a71db9617f0c21ce3273a7", "lat": 38.920676, "name": "af2f019cf1a71db9617f0c21ce3273a7", "lon": -77.02822333333333, "fusion_lon": 0.0}, {"is_reserved": 0, "type": "electric_scooter", "fusion_lat": 0.0, "is_disabled": 0, "rental_uris": {"ios": "https://dc.lft.to/lastmile_qr_scan", "android": "https://dc.lft.to/lastmile_qr_scan"}, "bike_id": "06262bc296e70f3b9bfe26907c6ccf73", "lat": 38.899318666666666, "name": "06262bc296e70f3b9bfe26907c6ccf73", "lon": -77.032248, "fusion_lon": 0.0}, {"is_reserved": 0, "type": "electric_scooter", "fusion_lat": 0.0, "is_disabled": 0, "rental_uris": {"ios": "https://dc.lft.to/lastmile_qr_scan", "android": "https://dc.lft.to/lastmile_qr_scan"}, "bike_id": "fde6cbd60507447f13d27415728caa5e", "lat": 38.907717833333336, "name": "fde6cbd60507447f13d27415728caa5e", "lon": -77.043523, "fusion_lon": 0.0}, {"is_reserved": 0, "type": "electric_scooter", "fusion_lat": 0.0, "is_disabled": 0, "rental_uris": {"ios": "https://dc.lft.to/lastmile_qr_scan", "android": "https://dc.lft.to/lastmile_qr_scan"}, "bike_id": "05560174e0503bf36b48b8b350e04769", "lat": 38.90272516666667, "name": "05560174e0503bf36b48b8b350e04769", "lon": -77.061812, "fusion_lon": 0.0}, {"is_reserved": 0, "type": "electric_bike", "fusion_lat": 0.0, "is_disabled": 0, "rental_uris": {"ios": "https://dc.lft.to/lastmile_qr_scan", "android": "https://dc.lft.to/lastmile_qr_scan"}, "bike_id": "b318841855db70a6c8922759ed1268ac", "lat": 38.888794, "name": "b318841855db70a6c8922759ed1268ac", "lon": -76.95701233333334, "fusion_lon": 0.0}, {"is_reserved": 0, "type": "electric_scooter", "fusion_lat": 0.0, "is_disabled": 0, "rental_uris": {"ios": "https://dc.lft.to/lastmile_qr_scan", "android": "https://dc.lft.to/lastmile_qr_scan"}, "bike_id": "9fe4c183a3dc78be8fea7b68a311fdbf", "lat": 38.903894, "name": "9fe4c183a3dc78be8fea7b68a311fdbf", "lon": -77.01644533333334, "fusion_lon": 0.0}, {"is_reserved": 0, "type": "electric_bike", "fusion_lat": 0.0, "is_disabled": 0, "rental_uris": {"ios": "https://dc.lft.to/lastmile_qr_scan", "android": "https://dc.lft.to/lastmile_qr_scan"}, "bike_id": "916d14e1598180f2920476f5844c8fa0", "lat": 38.8795665, "name": "916d14e1598180f2920476f5844c8fa0", "lon": -76.93193183333334, "fusion_lon": 0.0}, {"is_reserved": 0, "type": "electric_scooter", "fusion_lat": 0.0, "is_disabled": 0, "rental_uris": {"ios": "https://dc.lft.to/lastmile_qr_scan", "android": "https://dc.lft.to/lastmile_qr_scan"}, "bike_id": "038726e5e0e48fb8cad20f555e0c2953", "lat": 38.90768766666667, "name": "038726e5e0e48fb8cad20f555e0c2953", "lon": -77.01899566666667, "fusion_lon": 0.0}, {"is_reserved": 0, "type": "electric_scooter", "fusion_lat": 0.0, "is_disabled": 0, "rental_uris": {"ios": "https://dc.lft.to/lastmile_qr_scan", "android": "https://dc.lft.to/lastmile_qr_scan"}, "bike_id": "12063017257f1f9e593f0bd3ae894121", "lat": 38.91519016666667, "name": "12063017257f1f9e593f0bd3ae894121", "lon": -77.07274333333334, "fusion_lon": 0.0}, {"is_reserved": 0, "type": "electric_scooter", "fusion_lat": 0.0, "is_disabled": 0, "rental_uris": {"ios": "https://dc.lft.to/lastmile_qr_scan", "android": "https://dc.lft.to/lastmile_qr_scan"}, "bike_id": "133bec737f9c8c727fe4a59d418f83b5", "lat": 38.92369516666667, "name": "133bec737f9c8c727fe4a59d418f83b5", "lon": -77.043134, "fusion_lon": 0.0}, {"is_reserved": 0, "type": "electric_scooter", "fusion_lat": 0.0, "is_disabled": 0, "rental_uris": {"ios": "https://dc.lft.to/lastmile_qr_scan", "android": "https://dc.lft.to/lastmile_qr_scan"}, "bike_id": "e0e6947324dd1a85973e23f0232f2e15", "lat": 38.92040333333333, "name": "e0e6947324dd1a85973e23f0232f2e15", "lon": -77.04087416666667, "fusion_lon": 0.0}, {"is_reserved": 0, "type": "electric_scooter", "fusion_lat": 0.0, "is_disabled": 0, "rental_uris": {"ios": "https://dc.lft.to/lastmile_qr_scan", "android": "https://dc.lft.to/lastmile_qr_scan"}, "bike_id": "2acffef9d7dfd0a92984356c2d973847", "lat": 38.89362633333333, "name": "2acffef9d7dfd0a92984356c2d973847", "lon": -77.01975016666667, "fusion_lon": 0.0}, {"is_reserved": 0, "type": "electric_scooter", "fusion_lat": 0.0, "is_disabled": 0, "rental_uris": {"ios": "https://dc.lft.to/lastmile_qr_scan", "android": "https://dc.lft.to/lastmile_qr_scan"}, "bike_id": "8eebceaa0443d097d14ba10df4f4d003", "lat": 38.889932, "name": "8eebceaa0443d097d14ba10df4f4d003", "lon": -76.98815233333333, "fusion_lon": 0.0}, {"is_reserved": 0, "type": "electric_scooter", "fusion_lat": 0.0, "is_disabled": 0, "rental_uris": {"ios": "https://dc.lft.to/lastmile_qr_scan", "android": "https://dc.lft.to/lastmile_qr_scan"}, "bike_id": "92b9a88c7af4e383854fcb054a8e3d1a", "lat": 38.9213155, "name": "92b9a88c7af4e383854fcb054a8e3d1a", "lon": -77.044199, "fusion_lon": 0.0}, {"is_reserved": 0, "type": "electric_bike", "fusion_lat": 0.0, "is_disabled": 0, "rental_uris": {"ios": "https://dc.lft.to/lastmile_qr_scan", "android": "https://dc.lft.to/lastmile_qr_scan"}, "bike_id": "727be4b615607e3c68c02f120988c294", "lat": 38.948372666666664, "name": "727be4b615607e3c68c02f120988c294", "lon": -77.054325, "fusion_lon": 0.0}, {"is_reserved": 0, "type": "electric_scooter", "fusion_lat": 0.0, "is_disabled": 0, "rental_uris": {"ios": "https://dc.lft.to/lastmile_qr_scan", "android": "https://dc.lft.to/lastmile_qr_scan"}, "bike_id": "16598b038bc3f9b90ee6d9e16a6f7ec4", "lat": 38.92155283333334, "name": "16598b038bc3f9b90ee6d9e16a6f7ec4", "lon": -77.03465816666667, "fusion_lon": 0.0}, {"is_reserved": 0, "type": "electric_bike", "fusion_lat": 0.0, "is_disabled": 0, "rental_uris": {"ios": "https://dc.lft.to/lastmile_qr_scan", "android": "https://dc.lft.to/lastmile_qr_scan"}, "bike_id": "7bcb2fcecc11ea78e283ad6d88c89e8f", "lat": 38.93603383333333, "name": "7bcb2fcecc11ea78e283ad6d88c89e8f", "lon": -77.0212415, "fusion_lon": 0.0}, {"is_reserved": 0, "type": "electric_bike", "fusion_lat": 0.0, "is_disabled": 0, "rental_uris": {"ios": "https://dc.lft.to/lastmile_qr_scan", "android": "https://dc.lft.to/lastmile_qr_scan"},