{"data": {"bikes": [{"bike_id": "3718294660b6daa6f43e24512ca0c516", "fusion_lon": 0.0, "type": "electric_scooter", "name": "3718294660b6daa6f43e24512ca0c516", "rental_uris": {"android": "https://dc.lft.to/lastmile_qr_scan", "ios": "https://dc.lft.to/lastmile_qr_scan"}, "fusion_lat": 0.0, "lat": 38.8922535, "is_disabled": 0, "lon": -77.02718066666667, "is_reserved": 0}, {"bike_id": "e9cd0c465bfc4483acd5c016db45131d", "fusion_lon": 0.0, "type": "electric_scooter", "name": "e9cd0c465bfc4483acd5c016db45131d", "rental_uris": {"android": "https://dc.lft.to/lastmile_qr_scan", "ios": "https://dc.lft.to/lastmile_qr_scan"}, "fusion_lat": 0.0, "lat": 38.93555166666667, "is_disabled": 0, "lon": -77.0821195, "is_reserved": 0}, {"bike_id": "d2c42376de68b2586d8200f7eb3e3199", "fusion_lon": 0.0, "type": "electric_scooter", "name": "d2c42376de68b2586d8200f7eb3e3199", "rental_uris": {"android": "https://dc.lft.to/lastmile_qr_scan", "ios": "https://dc.lft.to/lastmile_qr_scan"}, "fusion_lat": 0.0, "lat": 38.8923295, "is_disabled": 0, "lon": -77.0500275, "is_reserved": 0}, {"bike_id": "c827fd3f7f9c0f1d67872366e2300430", "fusion_lon": 0.0, "type": "electric_scooter", "name": "c827fd3f7f9c0f1d67872366e2300430", "rental_uris": {"android": "https://dc.lft.to/lastmile_qr_scan", "ios": "https://dc.lft.to/lastmile_qr_scan"}, "fusion_lat": 0.0, "lat": 38.902579833333334, "is_disabled": 0, "lon": -77.0259, "is_reserved": 0}, {"bike_id": "19a64b67927c9b9e0f9c920499c4f0be", "fusion_lon": 0.0, "type": "electric_scooter", "name": "19a64b67927c9b9e0f9c920499c4f0be", "rental_uris": {"android": "https://dc.lft.to/lastmile_qr_scan", "ios": "https://dc.lft.to/lastmile_qr_scan"}, "fusion_lat": 0.0, "lat": 38.924702833333335, "is_disabled": 0, "lon": -77.02835066666667, "is_reserved": 0}, {"bike_id": "d06b3c8ed126142717d27a38e8d56f7c", "fusion_lon": 0.0, "type": "electric_scooter", "name": "d06b3c8ed126142717d27a38e8d56f7c", "rental_uris": {"android": "https://dc.lft.to/lastmile_qr_scan", "ios": "https://dc.lft.to/lastmile_qr_scan"}, "fusion_lat": 0.0, "lat": 38.9445775, "is_disabled": 0, "lon": -77.02806516666666, "is_reserved": 0}, {"bike_id": "853a12e842c11b240a9f3bfddbee0be8", "fusion_lon": 0.0, "type": "electric_scooter", "name": "853a12e842c11b240a9f3bfddbee0be8", "rental_uris": {"android": "https://dc.lft.to/lastmile_qr_scan", "ios": "https://dc.lft.to/lastmile_qr_scan"}, "fusion_lat": 0.0, "lat": 38.9183755, "is_disabled": 0, "lon": -77.03918866666666, "is_reserved": 0}, {"bike_id": "95617acceacd270ead8f95fe93369e82", "fusion_lon": 0.0, "type": "electric_scooter", "name": "95617acceacd270ead8f95fe93369e82", "rental_uris": {"android": "https://dc.lft.to/lastmile_qr_scan", "ios": "https://dc.lft.to/lastmile_qr_scan"}, "fusion_lat": 0.0, "lat": 38.91351366666667, "is_disabled": 0, "lon": -77.00339533333333, "is_reserved": 0}, {"bike_id": "427be7d206ede3d7afc07b5b5cb5bc29", "fusion_lon": 0.0, "type": "electric_scooter", "name": "427be7d206ede3d7afc07b5b5cb5bc29", "rental_uris": {"android": "https://dc.lft.to/lastmile_qr_scan", "ios": "https://dc.lft.to/lastmile_qr_scan"}, "fusion_lat": 0.0, "lat": 38.89435866666667, "is_disabled": 0, "lon": -77.001145, "is_reserved": 0}, {"bike_id": "ef7a394dbc9faa6f67265fbd8ec8e05b", "fusion_lon": 0.0, "type": "electric_scooter", "name": "ef7a394dbc9faa6f67265fbd8ec8e05b", "rental_uris": {"android": "https://dc.lft.to/lastmile_qr_scan", "ios": "https://dc.lft.to/lastmile_qr_scan"}, "fusion_lat": 0.0, "lat": 38.885030666666665, "is_disabled": 0, "lon": -77.03349416666667, "is_reserved": 0}, {"bike_id": "4157bb41916aaab96c7ab7d9be866bad", "fusion_lon": 0.0, "type": "electric_scooter", "name": "4157bb41916aaab96c7ab7d9be866bad", "rental_uris": {"android": "https://dc.lft.to/lastmile_qr_scan", "ios": "https://dc.lft.to/lastmile_qr_scan"}, "fusion_lat": 0.0, "lat": 38.921608166666665, "is_disabled": 0, "lon": -77.03376866666666, "is_reserved": 0}, {"bike_id": "67f79f9764b7856fe41ba10192fbd4b7", "fusion_lon": 0.0, "type": "electric_scooter", "name": "67f79f9764b7856fe41ba10192fbd4b7", "rental_uris": {"android": "https://dc.lft.to/lastmile_qr_scan", "ios": "https://dc.lft.to/lastmile_qr_scan"}, "fusion_lat": 0.0, "lat": 38.938814, "is_disabled": 0, "lon": -77.03283933333333, "is_reserved": 0}, {"bike_id": "ff1d8853efba3fd79253d4f320d9dd53", "fusion_lon": 0.0, "type": "electric_scooter", "name": "ff1d8853efba3fd79253d4f320d9dd53", "rental_uris": {"android": "https://dc.lft.to/lastmile_qr_scan", "ios": "https://dc.lft.to/lastmile_qr_scan"}, "fusion_lat": 0.0, "lat": 38.883031833333334, "is_disabled": 0, "lon": -76.948564, "is_reserved": 0}, {"bike_id": "f3a7c4b3a7d0384f1f923bb07c0a83a4", "fusion_lon": 0.0, "type": "electric_scooter", "name": "f3a7c4b3a7d0384f1f923bb07c0a83a4", "rental_uris": {"android": "https://dc.lft.to/lastmile_qr_scan", "ios": "https://dc.lft.to/lastmile_qr_scan"}, "fusion_lat": 0.0, "lat": 38.89487733333333, "is_disabled": 0, "lon": -76.94844383333333, "is_reserved": 0}, {"bike_id": "2b72306d74ee1b572a843e7198252ecf", "fusion_lon": 0.0, "type": "electric_scooter", "name": "2b72306d74ee1b572a843e7198252ecf", "rental_uris": {"android": "https://dc.lft.to/lastmile_qr_scan", "ios": "https://dc.lft.to/lastmile_qr_scan"}, "fusion_lat": 0.0, "lat": 38.92118816666667, "is_disabled": 0, "lon": -77.045736, "is_reserved": 0}, {"bike_id": "f1cb218705145eb79f8b1e1354418c67", "fusion_lon": 0.0, "type": "electric_scooter", "name": "f1cb218705145eb79f8b1e1354418c67", "rental_uris": {"android": "https://dc.lft.to/lastmile_qr_scan", "ios": "https://dc.lft.to/lastmile_qr_scan"}, "fusion_lat": 0.0, "lat": 38.85762166666667, "is_disabled": 0, "lon": -76.9931915, "is_reserved": 0}, {"bike_id": "cbd6a68f38da59ccfb3983781fce2e93", "fusion_lon": 0.0, "type": "electric_scooter", "name": "cbd6a68f38da59ccfb3983781fce2e93", "rental_uris": {"android": "https://dc.lft.to/lastmile_qr_scan", "ios": "https://dc.lft.to/lastmile_qr_scan"}, "fusion_lat": 0.0, "lat": 38.94416233333333, "is_disabled": 0, "lon": -77.05515883333334, "is_reserved": 0}, {"bike_id": "b5acb22578a5e65a41050d4838d87683", "fusion_lon": 0.0, "type": "electric_scooter", "name": "b5acb22578a5e65a41050d4838d87683", "rental_uris": {"android": "https://dc.lft.to/lastmile_qr_scan", "ios": "https://dc.lft.to/lastmile_qr_scan"}, "fusion_lat": 0.0, "lat": 38.89695, "is_disabled": 0, "lon": -76.99271666666667, "is_reserved": 0}, {"bike_id": "f2119c5dd8fb87939f5b147bf150f54d", "fusion_lon": 0.0, "type": "electric_scooter", "name": "f2119c5dd8fb87939f5b147bf150f54d", "rental_uris": {"android": "https://dc.lft.to/lastmile_qr_scan", "ios": "https://dc.lft.to/lastmile_qr_scan"}, "fusion_lat": 0.0, "lat": 38.8988385, "is_disabled": 0, "lon": -76.93174933333333, "is_reserved": 0}, {"bike_id": "4b7b8c97fab65a1242a78d908b82d5c7", "fusion_lon": 0.0, "type": "electric_scooter", "name": "4b7b8c97fab65a1242a78d908b82d5c7", "rental_uris": {"android": "https://dc.lft.to/lastmile_qr_scan", "ios": "https://dc.lft.to/lastmile_qr_scan"}, "fusion_lat": 0.0, "lat": 38.917801, "is_disabled": 0, "lon": -77.01469783333333, "is_reserved": 0}, {"bike_id": "c4cc9c1b862d5542b53a4d430596cd6d", "fusion_lon": 0.0, "type": "electric_scooter", "name": "c4cc9c1b862d5542b53a4d430596cd6d", "rental_uris": {"android": "https://dc.lft.to/lastmile_qr_scan", "ios": "https://dc.lft.to/lastmile_qr_scan"}, "fusion_lat": 0.0, "lat": 38.92694816666667, "is_disabled": 0, "lon": -77.03601383333333, "is_reserved": 0}, {"bike_id": "04f4ad3e5c5cf40cc24bc7dae1a1856a", "fusion_lon": 0.0, "type": "electric_scooter", "name": "04f4ad3e5c5cf40cc24bc7dae1a1856a", "rental_uris": {"android": "https://dc.lft.to/lastmile_qr_scan", "ios": "https://dc.lft.to/lastmile_qr_scan"}, "fusion_lat": 0.0, "lat": 38.92610416666667, "is_disabled": 0, "lon": -77.05293633333334, "is_reserved": 0}, {"bike_id": "3af3961efd7774e446e2e15a5b7691c8", "fusion_lon": 0.0, "type": "electric_scooter", "name": "3af3961efd7774e446e2e15a5b7691c8", "rental_uris": {"android": "https://dc.lft.to/lastmile_qr_scan", "ios": "https://dc.lft.to/lastmile_qr_scan"}, "fusion_lat": 0.0, "lat": 38.89488083333333, "is_disabled": 0, "lon": -76.99513083333333, "is_reserved": 0}, {"bike_id": "3fce538bf8fb706c05acaf6f67864796", "fusion_lon": 0.0, "type": "electric_scooter", "name": "3fce538bf8fb706c05acaf6f67864796", "rental_uris": {"android": "https://dc.lft.to/lastmile_qr_scan", "ios": "https://dc.lft.to/lastmile_qr_scan"}, "fusion_lat": 0.0, "lat": 38.897441666666666, "is_disabled": 0, "lon": -77.0004265, "is_reserved": 0}, {"bike_id": "69f16e490dc071adb1d371e6722e6417", "fusion_lon": 0.0, "type": "electric_scooter", "name": "69f16e490dc071adb1d371e6722e6417", "rental_uris": {"android": "https://dc.lft.to/lastmile_qr_scan", "ios": "https://dc.lft.to/lastmile_qr_scan"}, "fusion_lat": 0.0, "lat": 38.89224883333333, "is_disabled": 0, "lon": -77.02842933333334, "is_reserved": 0}, {"bike_id": "780f1669dbe69eabc120e33c99de727a", "fusion_lon": 0.0, "type": "electric_scooter", "name": "780f1669dbe69eabc120e33c99de727a", "rental_uris": {"android": "https://dc.lft.to/lastmile_qr_scan", "ios": "https://dc.lft.to/lastmile_qr_scan"}, "fusion_lat": 0.0, "lat": 38.88511866666666, "is_disabled": 0, "lon": -77.03346, "is_reserved": 0}, {"bike_id": "1c2899f910612ca7274d9948928cfc09", "fusion_lon": 0.0, "type": "electric_scooter", "name": "1c2899f910612ca7274d9948928cfc09", "rental_uris": {"android": "https://dc.lft.to/lastmile_qr_scan", "ios": "https://dc.lft.to/lastmile_qr_scan"}, "fusion_lat": 0.0, "lat": 38.91598233333333, "is_disabled": 0, "lon": -77.04911233333333, "is_reserved": 0}, {"bike_id": "fa6fd6eaa39fcfc25c9b1cee0ec4bfcf", "fusion_lon": 0.0, "type": "electric_scooter", "name": "fa6fd6eaa39fcfc25c9b1cee0ec4bfcf", "rental_uris": {"android": "https://dc.lft.to/lastmile_qr_scan", "ios": "https://dc.lft.to/lastmile_qr_scan"}, "fusion_lat": 0.0, "lat": 38.9154575, "is_disabled": 0, "lon": -77.03854783333334, "is_reserved": 0}, {"bike_id": "f83728395ceab37e9e51dcdda70849ac", "fusion_lon": 0.0, "type": "electric_scooter", "name": "f83728395ceab37e9e51dcdda70849ac", "rental_uris": {"android": "https://dc.lft.to/lastmile_qr_scan", "ios": "https://dc.lft.to/lastmile_qr_scan"}, "fusion_lat": 0.0, "lat": 38.88425983333333, "is_disabled": 0, "lon": -76.99551416666667, "is_reserved": 0}, {"bike_id": "6728dff896473985dceafcb660326162", "fusion_lon": 0.0, "type": "electric_bike", "name": "6728dff896473985dceafcb660326162", "rental_uris": {"android": "https://dc.lft.to/lastmile_qr_scan", "ios": "https://dc.lft.to/lastmile_qr_scan"}, "fusion_lat": 0.0, "lat": 38.8381185, "is_disabled": 0, "lon": -77.09523383333334, "is_reserved": 0}, {"bike_id": "b2ea6be5a9de557e39080a2bde5c7ddf", "fusion_lon": 0.0, "type": "electric_scooter", "name": "b2ea6be5a9de557e39080a2bde5c7ddf", "rental_uris": {"android": "https://dc.lft.to/lastmile_qr_scan", "ios": "https://dc.lft.to/lastmile_qr_scan"}, "fusion_lat": 0.0, "lat": 38.9217075, "is_disabled": 0, "lon": -77.03221183333333, "is_reserved": 0}, {"bike_id": "68af8b7c60c1c48c5df63995b7ae23f9", "fusion_lon": 0.0, "type": "electric_scooter", "name": "68af8b7c60c1c48c5df63995b7ae23f9", "rental_uris": {"android": "https://dc.lft.to/lastmile_qr_scan", "ios": "https://dc.lft.to/lastmile_qr_scan"}, "fusion_lat": 0.0, "lat": 38.909766, "is_disabled": 0, "lon": -77.03379033333333, "is_reserved": 0}, {"bike_id": "3c6d7465bbcd590dc3cd43f271b51d3e", "fusion_lon": 0.0, "type": "electric_scooter", "name": "3c6d7465bbcd590dc3cd43f271b51d3e", "rental_uris": {"android": "https://dc.lft.to/lastmile_qr_scan", "ios": "https://dc.lft.to/lastmile_qr_scan"}, "fusion_lat": 0.0, "lat": 38.9104305, "is_disabled": 0, "lon": -77.03838933333333, "is_reserved": 0}, {"bike_id": "7331e23df636b8b718b1afb0ef1af630", "fusion_lon": 0.0, "type": "electric_scooter", "name": "7331e23df636b8b718b1afb0ef1af630", "rental_uris": {"android": "https://dc.lft.to/lastmile_qr_scan", "ios": "https://dc.lft.to/lastmile_qr_scan"}, "fusion_lat": 0.0, "lat": 38.921027333333335, "is_disabled": 0, "lon": -77.046869, "is_reserved": 0}, {"bike_id": "9ece3a782f4cbff74ae4a8a7a5310c38", "fusion_lon": 0.0, "type": "electric_scooter", "name": "9ece3a782f4cbff74ae4a8a7a5310c38", "rental_uris": {"android": "https://dc.lft.to/lastmile_qr_scan", "ios": "https://dc.lft.to/lastmile_qr_scan"}, "fusion_lat": 0.0, "lat": 38.92786266666667, "is_disabled": 0, "lon": -77.05593516666667, "is_reserved": 0}, {"bike_id": "fa270de59eb88180d798878ff683c3e8", "fusion_lon": 0.0, "type": "electric_scooter", "name": "fa270de59eb88180d798878ff683c3e8", "rental_uris": {"android": "https://dc.lft.to/lastmile_qr_scan", "ios": "https://dc.lft.to/lastmile_qr_scan"}, "fusion_lat": 0.0, "lat": 38.893757666666666, "is_disabled": 0, "lon": -76.94961616666667, "is_reserved": 0}, {"bike_id": "244435a5dc981f0f35cb7a935270cc20", "fusion_lon": 0.0, "type": "electric_scooter", "name": "244435a5dc981f0f35cb7a935270cc20", "rental_uris": {"android": "https://dc.lft.to/lastmile_qr_scan", "ios": "https://dc.lft.to/lastmile_qr_scan"}, "fusion_lat": 0.0, "lat": 38.904355833333334, "is_disabled": 0, "lon": -77.04325366666667, "is_reserved": 0}, {"bike_id": "abb4be1dcc7ef9bdbe7197abd287c57e", "fusion_lon": 0.0, "type": "electric_scooter", "name": "abb4be1dcc7ef9bdbe7197abd287c57e", "rental_uris": {"android": "https://dc.lft.to/lastmile_qr_scan", "ios": "https://dc.lft.to/lastmile_qr_scan"}, "fusion_lat": 0.0, "lat": 38.909717666666666, "is_disabled": 0, "lon": -77.0241465, "is_reserved": 0}, {"bike_id": "cb4284a99dff14f444288bafe69fa17b", "fusion_lon": 0.0, "type": "electric_scooter", "name": "cb4284a99dff14f444288bafe69fa17b", "rental_uris": {"android": "https://dc.lft.to/lastmile_qr_scan", "ios": "https://dc.lft.to/lastmile_qr_scan"}, "fusion_lat": 0.0, "lat": 38.882219166666665, "is_disabled": 0, "lon": -77.0292775, "is_reserved": 0}, {"bike_id": "edb8fd505af8aa21acff90c957d12167", "fusion_lon": 0.0, "type": "electric_scooter", "name": "edb8fd505af8aa21acff90c957d12167", "rental_uris": {"android": "https://dc.lft.to/lastmile_qr_scan", "ios": "https://dc.lft.to/lastmile_qr_scan"}, "fusion_lat": 0.0, "lat": 38.905757, "is_disabled": 0, "lon": -77.01100416666667, "is_reserved": 0}, {"bike_id": "320dc5735fee98c7df4c7cf1f8dcf627", "fusion_lon": 0.0, "type": "electric_scooter", "name": "320dc5735fee98c7df4c7cf1f8dcf627", "rental_uris": {"android": "https://dc.lft.to/lastmile_qr_scan", "ios": "https://dc.lft.to/lastmile_qr_scan"}, "fusion_lat": 0.0, "lat": 38.948987, "is_disabled": 0, "lon": -77.01866616666666, "is_reserved": 0}, {"bike_id": "90ac5129799da973fb984aad3481564f", "fusion_lon": 0.0, "type": "electric_scooter", "name": "90ac5129799da973fb984aad3481564f", "rental_uris": {"android": "https://dc.lft.to/lastmile_qr_scan", "ios": "https://dc.lft.to/lastmile_qr_scan"}, "fusion_lat": 0.0, "lat": 38.87632466666667, "is_disabled": 0, "lon": -76.965228, "is_reserved": 0}, {"bike_id": "8687f6b9c3cc65769f17509fdaef6047", "fusion_lon": 0.0, "type": "electric_scooter", "name": "8687f6b9c3cc65769f17509fdaef6047", "rental_uris": {"android": "https://dc.lft.to/lastmile_qr_scan", "ios": "https://dc.lft.to/lastmile_qr_scan"}, "fusion_lat": 0.0, "lat": 38.8997695, "is_disabled": 0, "lon": -77.055651, "is_reserved": 0}, {"bike_id": "b5832fc2c08ab774252e974fba49c9ff", "fusion_lon": 0.0, "type": "electric_bike", "name": "b5832fc2c08ab774252e974fba49c9ff", "rental_uris": {"android": "https://dc.lft.to/lastmile_qr_scan", "ios": "https://dc.lft.to/lastmile_qr_scan"}, "fusion_lat": 0.0, "lat": 38.95964433333333, "is_disabled": 0, "lon": -76.98158383333333, "is_reserved": 0}, {"bike_id": "cba50499c55d796e0d6dd83758de6198", "fusion_lon": 0.0, "type": "electric_scooter", "name": "cba50499c55d796e0d6dd83758de6198", "rental_uris": {"android": "https://dc.lft.to/lastmile_qr_scan", "ios": "https://dc.lft.to/lastmile_qr_scan"}, "fusion_lat": 0.0, "lat": 38.8637045, "is_disabled": 0, "lon": -76.9745595, "is_reserved": 0}, {"bike_id": "07e9dccb3b91b4f7d00799b2acdc2bec", "fusion_lon": 0.0, "type": "electric_scooter", "name": "07e9dccb3b91b4f7d00799b2acdc2bec", "rental_uris": {"android": "https://dc.lft.to/lastmile_qr_scan", "ios": "https://dc.lft.to/lastmile_qr_scan"}, "fusion_lat": 0.0, "lat": 38.880268, "is_disabled": 0, "lon": -76.98821566666666, "is_reserved": 0}, {"bike_id": "f9dcb37b068d974d2abebfae44d3fe9b", "fusion_lon": 0.0, "type": "electric_scooter", "name": "f9dcb37b068d974d2abebfae44d3fe9b", "rental_uris": {"android": "https://dc.lft.to/lastmile_qr_scan", "ios": "https://dc.lft.to/lastmile_qr_scan"}, "fusion_lat": 0.0, "lat": 38.92505083333333, "is_disabled": 0, "lon": -77.04337866666667, "is_reserved": 0}, {"bike_id": "0c02e59216791e407e483340b3c0c3e3", "fusion_lon": 0.0, "type": "electric_scooter", "name": "0c02e59216791e407e483340b3c0c3e3", "rental_uris": {"android": "https://dc.lft.to/lastmile_qr_scan", "ios": "https://dc.lft.to/lastmile_qr_scan"}, "fusion_lat": 0.0, "lat": 38.90270866666667, "is_disabled": 0, "lon": -77.03467716666667, "is_reserved": 0}, {"bike_id": "bc6f4c985534bf13fa248836f54e9c90", "fusion_lon": 0.0, "type": "electric_scooter", "name": "bc6f4c985534bf13fa248836f54e9c90", "rental_uris": {"android": "https://dc.lft.to/lastmile_qr_scan", "ios": "https://dc.lft.to/lastmile_qr_scan"}, "fusion_lat": 0.0, "lat": 38.89963733333333, "is_disabled": 0, "lon": -77.03344166666666, "is_reserved": 0}, {"bike_id": "1592ed34a17e2ae6d37526659a3f1dd7", "fusion_lon": 0.0, "type": "electric_scooter", "name": "1592ed34a17e2ae6d37526659a3f1dd7", "rental_uris": {"android": "https://dc.lft.to/lastmile_qr_scan", "ios": "https://dc.lft.to/lastmile_qr_scan"}, "fusion_lat": 0.0, "lat": 38.91602116666667, "is_disabled": 0, "lon": -77.0366145, "is_reserved": 0}, {"bike_id": "a6cdfd910c20c16759e2f95fd76cc791", "fusion_lon": 0.0, "type": "electric_scooter", "name": "a6cdfd910c20c16759e2f95fd76cc791", "rental_uris": {"android": "https://dc.lft.to/lastmile_qr_scan", "ios": "https://dc.lft.to/lastmile_qr_scan"}, "fusion_lat": 0.0, "lat": 38.905177333333334, "is_disabled": 0, "lon": -77.04355566666666, "is_reserved": 0}, {"bike_id": "489c6a3e6ae693db44ffb3b16254e02f", "fusion_lon": 0.0, "type": "electric_scooter", "name": "489c6a3e6ae693db44ffb3b16254e02f", "rental_uris": {"android": "https://dc.lft.to/lastmile_qr_scan", "ios": "https://dc.lft.to/lastmile_qr_scan"}, "fusion_lat": 0.0, "lat": 38.90181183333333, "is_disabled": 0, "lon": -76.9807645, "is_reserved": 0}, {"bike_id": "cbd7dc93a92c893a902c7ce3248c4c95", "fusion_lon": 0.0, "type": "electric_scooter", "name": "cbd7dc93a92c893a902c7ce3248c4c95", "rental_uris": {"android": "https://dc.lft.to/lastmile_qr_scan", "ios": "https://dc.lft.to/lastmile_qr_scan"}, "fusion_lat": 0.0, "lat": 38.8809955, "is_disabled": 0, "lon": -77.026416, "is_reserved": 0}, {"bike_id": "34e8a2cff621f60568832b49377fd6e9", "fusion_lon": 0.0, "type": "electric_scooter", "name": "34e8a2cff621f60568832b49377fd6e9", "rental_uris": {"android": "https://dc.lft.to/lastmile_qr_scan", "ios": "https://dc.lft.to/lastmile_qr_scan"}, "fusion_lat": 0.0, "lat": 38.91113166666667, "is_disabled": 0, "lon": -77.04226433333334, "is_reserved": 0}, {"bike_id": "b8aff392c632d6c059d6508fe92063b4", "fusion_lon": 0.0, "type": "electric_bike", "name": "b8aff392c632d6c059d6508fe92063b4", "rental_uris": {"android": "https://dc.lft.to/lastmile_qr_scan", "ios": "https://dc.lft.to/lastmile_qr_scan"}, "fusion_lat": 0.0, "lat": 38.99227466666667, "is_disabled": 0, "lon": -76.87825666666667, "is_reserved": 0}, {"bike_id": "dca768fc559aba241a8ab2a81b67d198", "fusion_lon": 0.0, "type": "electric_bike", "name": "dca768fc559aba241a8ab2a81b67d198", "rental_uris": {"android": "https://dc.lft.to/lastmile_qr_scan", "ios": "https://dc.lft.to/lastmile_qr_scan"}, "fusion_lat": 0.0, "lat": 38.85577633333333, "is_disabled": 0, "lon": -77.10723766666666, "is_reserved": 0}, {"bike_id": "0fd45a76e7fa2b015a530510d26dcba7", "fusion_lon": 0.0, "type": "electric_scooter", "name": "0fd45a76e7fa2b015a530510d26dcba7", "rental_uris": {"android": "https://dc.lft.to/lastmile_qr_scan", "ios": "https://dc.lft.to/lastmile_qr_scan"}, "fusion_lat": 0.0, "lat": 38.926285, "is_disabled": 0, "lon": -77.0378725, "is_reserved": 0}, {"bike_id": "5b7de5742250135ef20589023570c8dc", "fusion_lon": 0.0, "type": "electric_bike", "name": "5b7de5742250135ef20589023570c8dc", "rental_uris": {"android": "https://dc.lft.to/lastmile_qr_scan", "ios": "https://dc.lft.to/lastmile_qr_scan"}, "fusion_lat": 0.0, "lat": 38.925075666666665, "is_disabled": 0, "lon": -76.98228016666667, "is_reserved": 0}, {"bike_id": "1faa7557221b3ccd0ba8072a2b02e8c3", "fusion_lon": 0.0, "type": "electric_scooter", "name": "1faa7557221b3ccd0ba8072a2b02e8c3", "rental_uris": {"android": "https://dc.lft.to/lastmile_qr_scan", "ios": "https://dc.lft.to/lastmile_qr_scan"}, "fusion_lat": 0.0, "lat": 38.90040833333333, "is_disabled": 0, "lon": -76.981745, "is_reserved": 0}, {"bike_id": "9e9e32e1f440adeaae3f44561d693e26", "fusion_lon": 0.0, "type": "electric_scooter", "name": "9e9e32e1f440adeaae3f44561d693e26", "rental_uris": {"android": "https://dc.lft.to/lastmile_qr_scan", "ios": "https://dc.lft.to/lastmile_qr_scan"}, "fusion_lat": 0.0, "lat": 38.899373, "is_disabled": 0, "lon": -77.05520966666667, "is_reserved": 0}, {"bike_id": "357cb246c25bbdb77a720a501a688ba4", "fusion_lon": 0.0, "type": "electric_scooter", "name": "357cb246c25bbdb77a720a501a688ba4", "rental_uris": {"android": "https://dc.lft.to/lastmile_qr_scan", "ios": "https://dc.lft.to/lastmile_qr_scan"}, "fusion_lat": 0.0, "lat": 38.90037916666667, "is_disabled": 0, "lon": -76.98777933333334, "is_reserved": 0}, {"bike_id": "b5655f1b07621ac5554760e6fa6adfd8", "fusion_lon": 0.0, "type": "electric_bike", "name": "b5655f1b07621ac5554760e6fa6adfd8", "rental_uris": {"android": "https://dc.lft.to/lastmile_qr_scan", "ios": "https://dc.lft.to/lastmile_qr_scan"}, "fusion_lat": 0.0, "lat": 38.88964416666666, "is_disabled": 0, "lon": -76.9487165, "is_reserved": 0}, {"bike_id": "bddc0483ef4f31990c09ef69851f4b86", "fusion_lon": 0.0, "type": "electric_scooter", "name": "bddc0483ef4f31990c09ef69851f4b86", "rental_uris": {"android": "https://dc.lft.to/lastmile_qr_scan", "ios": "https://dc.lft.to/lastmile_qr_scan"}, "fusion_lat": 0.0, "lat": 38.900119833333335, "is_disabled": 0, "lon": -76.97749183333333, "is_reserved": 0}, {"bike_id": "3caf24317a879ea4215a38f3c08e388a", "fusion_lon": 0.0, "type": "electric_scooter", "name": "3caf24317a879ea4215a38f3c08e388a", "rental_uris": {"android": "https://dc.lft.to/lastmile_qr_scan", "ios": "https://dc.lft.to/lastmile_qr_scan"}, "fusion_lat": 0.0, "lat": 38.91713333333333, "is_disabled": 0, "lon": -77.03895283333334, "is_reserved": 0}, {"bike_id": "0c81c173cf0a466057402f223778febb", "fusion_lon": 0.0, "type": "electric_scooter", "name": "0c81c173cf0a466057402f223778febb", "rental_uris": {"android": "https://dc.lft.to/lastmile_qr_scan", "ios": "https://dc.lft.to/lastmile_qr_scan"}, "fusion_lat": 0.0, "lat": 38.90689066666667, "is_disabled": 0, "lon": -77.00999866666666, "is_reserved": 0}, {"bike_id": "7d0e92e5adca263f4c805ca83ac3193c", "fusion_lon": 0.0, "type": "electric_bike", "name": "7d0e92e5adca263f4c805ca83ac3193c", "rental_uris": {"android": "https://dc.lft.to/lastmile_qr_scan", "ios": "https://dc.lft.to/lastmile_qr_scan"}, "fusion_lat": 0.0, "lat": 38.8749535, "is_disabled": 0, "lon": -77.04901, "is_reserved": 0}, {"bike_id": "c779afcdc5534c258114c9c89a75a8b4", "fusion_lon": 0.0, "type": "electric_scooter", "name": "c779afcdc5534c258114c9c89a75a8b4", "rental_uris": {"android": "https://dc.lft.to/lastmile_qr_scan", "ios": "https://dc.lft.to/lastmile_qr_scan"}, "fusion_lat": 0.0, "lat": 38.90704366666667, "is_disabled": 0, "lon": -77.00604133333333, "is_reserved": 0}, {"bike_id": "656253f45848bb1d4c7ab2bd60d4184f", "fusion_lon": 0.0, "type": "electric_scooter", "name": "656253f45848bb1d4c7ab2bd60d4184f", "rental_uris": {"android": "https://dc.lft.to/lastmile_qr_scan", "ios": "https://dc.lft.to/lastmile_qr_scan"}, "fusion_lat": 0.0, "lat": 38.898306, "is_disabled": 0, "lon": -76.946536, "is_reserved": 0}, {"bike_id": "f8aad37f6654494c2c97b6f6de274950", "fusion_lon": 0.0, "type": "electric_scooter", "name": "f8aad37f6654494c2c97b6f6de274950", "rental_uris": {"android": "https://dc.lft.to/lastmile_qr_scan", "ios": "https://dc.lft.to/lastmile_qr_scan"}, "fusion_lat": 0.0, "lat": 38.92347683333333, "is_disabled": 0, "lon": -77.01896566666667, "is_reserved": 0}, {"bike_id": "bcaf5824e09f2aadb96b75cd130116e7", "fusion_lon": 0.0, "type": "electric_scooter", "name": "bcaf5824e09f2aadb96b75cd130116e7", "rental_uris": {"android": "https://dc.lft.to/lastmile_qr_scan", "ios": "https://dc.lft.to/lastmile_qr_scan"}, "fusion_lat": 0.0, "lat": 38.93270166666667, "is_disabled": 0, "lon": -77.0442465, "is_reserved": 0}, {"bike_id": "3a6a54b0ad4d90083dfb3d27bb9c8707", "fusion_lon": 0.0, "type": "electric_scooter", "name": "3a6a54b0ad4d90083dfb3d27bb9c8707", "rental_uris": {"android": "https://dc.lft.to/lastmile_qr_scan", "ios": "https://dc.lft.to/lastmile_qr_scan"}, "fusion_lat": 0.0, "lat": 38.920529, "is_disabled": 0, "lon": -77.04180283333334, "is_reserved": 0}, {"bike_id": "f2085e33249f799c3a8b86af3b953418", "fusion_lon": 0.0, "type": "electric_scooter", "name": "f2085e33249f799c3a8b86af3b953418", "rental_uris": {"android": "https://dc.lft.to/lastmile_qr_scan", "ios": "https://dc.lft.to/lastmile_qr_scan"}, "fusion_lat": 0.0, "lat": 38.917590833333335, "is_disabled": 0, "lon": -77.01600266666667, "is_reserved": 0}, {"bike_id": "b3082e5191109494e4e697cd2e3a1ff7", "fusion_lon": 0.0, "type": "electric_scooter", "name": "b3082e5191109494e4e697cd2e3a1ff7", "rental_uris": {"android": "https://dc.lft.to/lastmile_qr_scan", "ios": "https://dc.lft.to/lastmile_qr_scan"}, "fusion_lat": 0.0, "lat": 38.906815333333334, "is_disabled": 0, "lon": -77.07303583333334, "is_reserved": 0}, {"bike_id": "0cef49639333ab7bdb455d065ed1a540", "fusion_lon": 0.0, "type": "electric_bike", "name": "0cef49639333ab7bdb455d065ed1a540", "rental_uris": {"android": "https://dc.lft.to/lastmile_qr_scan", "ios": "https://dc.lft.to/lastmile_qr_scan"}, "fusion_lat": 0.0, "lat": 38.99060766666667, "is_disabled": 0, "lon": -77.10021033333334, "is_reserved": 0}, {"bike_id": "b69b95215bdef9fff68d6de63ed95759", "fusion_lon": 0.0, "type": "electric_scooter", "name": "b69b95215bdef9fff68d6de63ed95759", "rental_uris": {"android": "https://dc.lft.to/lastmile_qr_scan", "ios": "https://dc.lft.to/lastmile_qr_scan"}, "fusion_lat": 0.0, "lat": 38.924902, "is_disabled": 0, "lon": -77.02142116666667, "is_reserved": 0}, {"bike_id": "3eaec97f690eb6fbd054d4d08598e055", "fusion_lon": 0.0, "type": "electric_scooter", "name": "3eaec97f690eb6fbd054d4d08598e055", "rental_uris": {"android": "https://dc.lft.to/lastmile_qr_scan", "ios": "https://dc.lft.to/lastmile_qr_scan"}, "fusion_lat": 0.0, "lat": 38.89762533333333, "is_disabled": 0, "lon": -76.96997183333333, "is_reserved": 0}, {"bike_id": "2864875fe0e568ff9ab293db692b9811", "fusion_lon": 0.0, "type": "electric_scooter", "name": "2864875fe0e568ff9ab293db692b9811", "rental_uris": {"android": "https://dc.lft.to/lastmile_qr_scan", "ios": "https://dc.lft.to/lastmile_qr_scan"}, "fusion_lat": 0.0, "lat": 38.9183805, "is_disabled": 0, "lon": -77.02299816666667, "is_reserved": 0}, {"bike_id": "8ee0ee7b1030f6d05e1e5a06a6281991", "fusion_lon": 0.0, "type": "electric_scooter", "name": "8ee0ee7b1030f6d05e1e5a06a6281991", "rental_uris": {"android": "https://dc.lft.to/lastmile_qr_scan", "ios": "https://dc.lft.to/lastmile_qr_scan"}, "fusion_lat": 0.0, "lat": 38.927771166666666, "is_disabled": 0, "lon": -77.03710466666666, "is_reserved": 0}, {"bike_id": "8ea27e98ab8f3dd5ccaa05ca5507ca36", "fusion_lon": 0.0, "type": "electric_scooter", "name": "8ea27e98ab8f3dd5ccaa05ca5507ca36", "rental_uris": {"android": "https://dc.lft.to/lastmile_qr_scan", "ios": "https://dc.lft.to/lastmile_qr_scan"}, "fusion_lat": 0.0, "lat": 38.89562633333333, "is_disabled": 0, "lon": -77.00918716666666, "is_reserved": 0}, {"bike_id": "7621ef54edc576f6bbe33e6577e826ed", "fusion_lon": 0.0, "type": "electric_scooter", "name": "7621ef54edc576f6bbe33e6577e826ed", "rental_uris": {"android": "https://dc.lft.to/lastmile_qr_scan", "ios": "https://dc.lft.to/lastmile_qr_scan"}, "fusion_lat": 0.0, "lat": 38.9388135, "is_disabled": 0, "lon": -77.02482483333333, "is_reserved": 0}, {"bike_id": "318119a0f28bfc1ab8faef4c6c612a3a", "fusion_lon": 0.0, "type": "electric_scooter", "name": "318119a0f28bfc1ab8faef4c6c612a3a", "rental_uris": {"android": "https://dc.lft.to/lastmile_qr_scan", "ios": "https://dc.lft.to/lastmile_qr_scan"}, "fusion_lat": 0.0, "lat": 38.90013833333333, "is_disabled": 0, "lon": -76.991211, "is_reserved": 0}, {"bike_id": "87e51705082d1914b47501d25f4fd2be", "fusion_lon": 0.0, "type": "electric_scooter", "name": "87e51705082d1914b47501d25f4fd2be", "rental_uris": {"android": "https://dc.lft.to/lastmile_qr_scan", "ios": "https://dc.lft.to/lastmile_qr_scan"}, "fusion_lat": 0.0, "lat": 38.8989185, "is_disabled": 0, "lon": -76.985715, "is_reserved": 0}, {"bike_id": "e1906fc48e5ee1223227e7a05168a047", "fusion_lon": 0.0, "type": "electric_scooter", "name": "e1906fc48e5ee1223227e7a05168a047", "rental_uris": {"android": "https://dc.lft.to/lastmile_qr_scan", "ios": "https://dc.lft.to/lastmile_qr_scan"}, "fusion_lat": 0.0, "lat": 38.92375033333333, "is_disabled": 0, "lon": -77.02800966666666, "is_reserved": 0}, {"bike_id": "37998ab83611f0cb4dd4ff8885c7d440", "fusion_lon": 0.0, "type": "electric_scooter", "name": "37998ab83611f0cb4dd4ff8885c7d440", "rental_uris": {"android": "https://dc.lft.to/lastmile_qr_scan", "ios": "https://dc.lft.to/lastmile_qr_scan"}, "fusion_lat": 0.0, "lat": 38.912566166666664, "is_disabled": 0, "lon": -77.04094516666666, "is_reserved": 0}, {"bike_id": "963f2d27a48587d44d6a05c050b27b86", "fusion_lon": 0.0, "type": "electric_scooter", "name": "963f2d27a48587d44d6a05c050b27b86", "rental_uris": {"android": "https://dc.lft.to/lastmile_qr_scan", "ios": "https://dc.lft.to/lastmile_qr_scan"}, "fusion_lat": 0.0, "lat": 38.91194316666667, "is_disabled": 0, "lon": -77.01814283333333, "is_reserved": 0}, {"bike_id": "fa4655bd166431d2c58a492acddffb1c", "fusion_lon": 0.0, "type": "electric_scooter", "name": "fa4655bd166431d2c58a492acddffb1c", "rental_uris": {"android": "https://dc.lft.to/lastmile_qr_scan", "ios": "https://dc.lft.to/lastmile_qr_scan"}, "fusion_lat": 0.0, "lat": 38.91664466666667, "is_disabled": 0, "lon": -77.01925466666667, "is_reserved": 0}, {"bike_id": "bfddc54cc3f102c78ba891b62c40f5e2", "fusion_lon": 0.0, "type": "electric_scooter", "name": "bfddc54cc3f102c78ba891b62c40f5e2", "rental_uris": {"android": "https://dc.lft.to/lastmile_qr_scan", "ios": "https://dc.lft.to/lastmile_qr_scan"}, "fusion_lat": 0.0, "lat": 38.90735766666667, "is_disabled": 0, "lon": -77.04287933333333, "is_reserved": 0}, {"bike_id": "f1ab3643aa6562fea80d4e297ef26146", "fusion_lon": 0.0, "type": "electric_scooter", "name": "f1ab3643aa6562fea80d4e297ef26146", "rental_uris": {"android": "https://dc.lft.to/lastmile_qr_scan", "ios": "https://dc.lft.to/lastmile_qr_scan"}, "fusion_lat": 0.0, "lat": 38.91109683333333, "is_disabled": 0, "lon": -77.0481325, "is_reserved": 0}, {"bike_id": "1185b1b535a5448568ee0da0a2dff336", "fusion_lon": 0.0, "type": "electric_scooter", "name": "1185b1b535a5448568ee0da0a2dff336", "rental_uris": {"android": "https://dc.lft.to/lastmile_qr_scan", "ios": "https://dc.lft.to/lastmile_qr_scan"}, "fusion_lat": 0.0, "lat": 38.92272583333333, "is_disabled": 0, "lon": -77.0296715, "is_reserved": 0}, {"bike_id": "9bdd43e0d7f0958a5e5bda87a86cef1e", "fusion_lon": 0.0, "type": "electric_scooter", "name": "9bdd43e0d7f0958a5e5bda87a86cef1e", "rental_uris": {"android": "https://dc.lft.to/lastmile_qr_scan", "ios": "https://dc.lft.to/lastmile_qr_scan"}, "fusion_lat": 0.0, "lat": 38.91559766666666, "is_disabled": 0, "lon": -77.04625216666666, "is_reserved": 0}, {"bike_id": "3dd1ee63cb1c79eb60d067b1cdfc01e8", "fusion_lon": 0.0, "type": "electric_scooter", "name": "3dd1ee63cb1c79eb60d067b1cdfc01e8", "rental_uris": {"android": "https://dc.lft.to/lastmile_qr_scan", "ios": "https://dc.lft.to/lastmile_qr_scan"}, "fusion_lat": 0.0, "lat": 38.90569166666667, "is_disabled": 0, "lon": -77.02414066666667, "is_reserved": 0}, {"bike_id": "62fc168b6c39ef5ebdbe3287c841e900", "fusion_lon": 0.0, "type": "electric_bike", "name": "62fc168b6c39ef5ebdbe3287c841e900", "rental_uris": {"android": "https://dc.lft.to/lastmile_qr_scan", "ios": "https://dc.lft.to/lastmile_qr_scan"}, "fusion_lat": 0.0, "lat": 38.869096, "is_disabled": 0, "lon": -77.13182, "is_reserved": 0}, {"bike_id": "a093d5a72951c09e68505baac0d09ade", "fusion_lon": 0.0, "type": "electric_bike", "name": "a093d5a72951c09e68505baac0d09ade", "rental_uris": {"android": "https://dc.lft.to/lastmile_qr_scan", "ios": "https://dc.lft.to/lastmile_qr_scan"}, "fusion_lat": 0.0, "lat": 38.99669866666667, "is_disabled": 0, "lon": -77.0380145, "is_reserved": 0}, {"bike_id": "6df6caac30272704f04cf5e3b76043d8", "fusion_lon": 0.0, "type": "electric_scooter", "name": "6df6caac30272704f04cf5e3b76043d8", "rental_uris": {"android": "https://dc.lft.to/lastmile_qr_scan", "ios": "https://dc.lft.to/lastmile_qr_scan"}, "fusion_lat": 0.0, "lat": 38.909565666666666, "is_disabled": 0, "lon": -77.02404716666666, "is_reserved": 0}, {"bike_id": "f8aada1b208e047ba4f98842231f2088", "fusion_lon": 0.0, "type": "electric_scooter", "name": "f8aada1b208e047ba4f98842231f2088", "rental_uris": {"android": "https://dc.lft.to/lastmile_qr_scan", "ios": "https://dc.lft.to/lastmile_qr_scan"}, "fusion_lat": 0.0, "lat": 38.880445333333334, "is_disabled": 0, "lon": -77.03067833333333, "is_reserved": 0}, {"bike_id": "a40d212e4b90e88ef613717444a8ae29", "fusion_lon": 0.0, "type": "electric_scooter", "name": "a40d212e4b90e88ef613717444a8ae29", "rental_uris": {"android": "https://dc.lft.to/lastmile_qr_scan", "ios": "https://dc.lft.to/lastmile_qr_scan"}, "fusion_lat": 0.0, "lat": 38.8944315, "is_disabled": 0, "lon": -76.9478075, "is_reserved": 0}, {"bike_id": "66a2e893e595b5266883f7ca8f3bdc10", "fusion_lon": 0.0, "type": "electric_scooter", "name": "66a2e893e595b5266883f7ca8f3bdc10", "rental_uris": {"android": "https://dc.lft.to/lastmile_qr_scan", "ios": "https://dc.lft.to/lastmile_qr_scan"}, "fusion_lat": 0.0, "lat": 38.883650833333334, "is_disabled": 0, "lon": -77.02580216666667, "is_reserved": 0}, {"bike_id": "7d2b688b25db0456012e5e04093ae108", "fusion_lon": 0.0, "type": "electric_scooter", "name": "7d2b688b25db0456012e5e04093ae108", "rental_uris": {"android": "https://dc.lft.to/lastmile_qr_scan", "ios": "https://dc.lft.to/lastmile_qr_scan"}, "fusion_lat": 0.0, "lat": 38.8818715, "is_disabled": 0, "lon": -77.0035485, "is_reserved": 0}, {"bike_id": "505233b421267d433f59825ef1a37efe", "fusion_lon": 0.0, "type": "electric_scooter", "name": "505233b421267d433f59825ef1a37efe", "rental_uris": {"android": "https://dc.lft.to/lastmile_qr_scan", "ios": "https://dc.lft.to/lastmile_qr_scan"}, "fusion_lat": 0.0, "lat": 38.879055, "is_disabled": 0, "lon": -76.99164266666666, "is_reserved": 0}, {"bike_id": "d53f06990bba7a10b1c6d9dee484aaa1", "fusion_lon": 0.0, "type": "electric_scooter", "name": "d53f06990bba7a10b1c6d9dee484aaa1", "rental_uris": {"android": "https://dc.lft.to/lastmile_qr_scan", "ios": "https://dc.lft.to/lastmile_qr_scan"}, "fusion_lat": 0.0, "lat": 38.929591333333335, "is_disabled": 0, "lon": -77.03417133333333, "is_reserved": 0}, {"bike_id": "b25a24554b5d7bc06fbff41a2506f216", "fusion_lon": 0.0, "type": "electric_scooter", "name": "b25a24554b5d7bc06fbff41a2506f216", "rental_uris": {"android": "https://dc.lft.to/lastmile_qr_scan", "ios": "https://dc.lft.to/lastmile_qr_scan"}, "fusion_lat": 0.0, "lat": 38.880361, "is_disabled": 0, "lon": -76.99628116666666, "is_reserved": 0}, {"bike_id": "9af059462cbea8455884b82fc9efdafb", "fusion_lon": 0.0, "type": "electric_scooter", "name": "9af059462cbea8455884b82fc9efdafb", "rental_uris": {"android": "https://dc.lft.to/lastmile_qr_scan", "ios": "https://dc.lft.to/lastmile_qr_scan"}, "fusion_lat": 0.0, "lat": 38.898557, "is_disabled": 0, "lon": -77.033199, "is_reserved": 0}, {"bike_id": "31eadf368265faf6a0616deca2680604", "fusion_lon": 0.0, "type": "electric_scooter", "name": "31eadf368265faf6a0616deca2680604", "rental_uris": {"android": "https://dc.lft.to/lastmile_qr_scan", "ios": "https://dc.lft.to/lastmile_qr_scan"}, "fusion_lat": 0.0, "lat": 38.9184835, "is_disabled": 0, "lon": -76.96555366666666, "is_reserved": 0}, {"bike_id": "8e8d4bc99b4f8512a512ff5252bb8844", "fusion_lon": 0.0, "type": "electric_bike", "name": "8e8d4bc99b4f8512a512ff5252bb8844", "rental_uris": {"android": "https://dc.lft.to/lastmile_qr_scan", "ios": "https://dc.lft.to/lastmile_qr_scan"}, "fusion_lat": 0.0, "lat": 38.9909215, "is_disabled": 0, "lon": -76.87496016666667, "is_reserved": 0}, {"bike_id": "00f5e125ab488174d50b1f8e6c0b564c", "fusion_lon": 0.0, "type": "electric_scooter", "name": "00f5e125ab488174d50b1f8e6c0b564c", "rental_uris": {"android": "https://dc.lft.to/lastmile_qr_scan", "ios": "https://dc.lft.to/lastmile_qr_scan"}, "fusion_lat": 0.0, "lat": 38.921424333333334, "is_disabled": 0, "lon": -77.00957033333333, "is_reserved": 0}, {"bike_id": "664bb8bacd405002809d53e90647faed", "fusion_lon": 0.0, "type": "electric_bike", "name": "664bb8bacd405002809d53e90647faed", "rental_uris": {"android": "https://dc.lft.to/lastmile_qr_scan", "ios": "https://dc.lft.to/lastmile_qr_scan"}, "fusion_lat": 0.0, "lat": 38.828767166666665, "is_disabled": 0, "lon": -77.112197, "is_reserved": 0}, {"bike_id": "4bc8ecdff919fc6327bb791bb1887073", "fusion_lon": 0.0, "type": "electric_scooter", "name": "4bc8ecdff919fc6327bb791bb1887073", "rental_uris": {"android": "https://dc.lft.to/lastmile_qr_scan", "ios": "https://dc.lft.to/lastmile_qr_scan"}, "fusion_lat": 0.0, "lat": 38.89883716666667, "is_disabled": 0, "lon": -76.93162016666666, "is_reserved": 0}, {"bike_id": "5f0c895d8e647e5c66aa1bba68eb86cb", "fusion_lon": 0.0, "type": "electric_scooter", "name": "5f0c895d8e647e5c66aa1bba68eb86cb", "rental_uris": {"android": "https://dc.lft.to/lastmile_qr_scan", "ios": "https://dc.lft.to/lastmile_qr_scan"}, "fusion_lat": 0.0, "lat": 38.884486, "is_disabled": 0, "lon": -77.01042866666667, "is_reserved": 0}, {"bike_id": "32aa5bf5dd8aaa6cca8ad49e7d85dc04", "fusion_lon": 0.0, "type": "electric_scooter", "name": "32aa5bf5dd8aaa6cca8ad49e7d85dc04", "rental_uris": {"android": "https://dc.lft.to/lastmile_qr_scan", "ios": "https://dc.lft.to/lastmile_qr_scan"}, "fusion_lat": 0.0, "lat": 38.885959166666666, "is_disabled": 0, "lon": -76.95257333333333, "is_reserved": 0}, {"bike_id": "0b1fc64cfd0247c6413bcc1fb2b58ba4", "fusion_lon": 0.0, "type": "electric_scooter", "name": "0b1fc64cfd0247c6413bcc1fb2b58ba4", "rental_uris": {"android": "https://dc.lft.to/lastmile_qr_scan", "ios": "https://dc.lft.to/lastmile_qr_scan"}, "fusion_lat": 0.0, "lat": 38.91140983333333, "is_disabled": 0, "lon": -76.99010466666667, "is_reserved": 0}, {"bike_id": "32ed09d27d240d894dc9a8b2e609c940", "fusion_lon": 0.0, "type": "electric_scooter", "name": "32ed09d27d240d894dc9a8b2e609c940", "rental_uris": {"android": "https://dc.lft.to/lastmile_qr_scan", "ios": "https://dc.lft.to/lastmile_qr_scan"}, "fusion_lat": 0.0, "lat": 38.91044333333333, "is_disabled": 0, "lon": -77.0646245, "is_reserved": 0}, {"bike_id": "8ccf1009a624dab8ba0f1fb20c09037a", "fusion_lon": 0.0, "type": "electric_scooter", "name": "8ccf1009a624dab8ba0f1fb20c09037a", "rental_uris": {"android": "https://dc.lft.to/lastmile_qr_scan", "ios": "https://dc.lft.to/lastmile_qr_scan"}, "fusion_lat": 0.0, "lat": 38.903911, "is_disabled": 0, "lon": -76.97906383333333, "is_reserved": 0}, {"bike_id": "7f4ace4c3eca8e6709b0c36202f15c33", "fusion_lon": 0.0, "type": "electric_scooter", "name": "7f4ace4c3eca8e6709b0c36202f15c33", "rental_uris": {"android": "https://dc.lft.to/lastmile_qr_scan", "ios": "https://dc.lft.to/lastmile_qr_scan"}, "fusion_lat": 0.0, "lat": 38.934276, "is_disabled": 0, "lon": -77.04313833333333, "is_reserved": 0}, {"bike_id": "e70e42868a5a127eef49e1e5813addd5", "fusion_lon": 0.0, "type": "electric_scooter", "name": "e70e42868a5a127eef49e1e5813addd5", "rental_uris": {"android": "https://dc.lft.to/lastmile_qr_scan", "ios": "https://dc.lft.to/lastmile_qr_scan"}, "fusion_lat": 0.0, "lat": 38.9288295, "is_disabled": 0, "lon": -77.02709183333333, "is_reserved": 0}, {"bike_id": "2757c239584d2b936430cea0df91437d", "fusion_lon": 0.0, "type": "electric_scooter", "name": "2757c239584d2b936430cea0df91437d", "rental_uris": {"android": "https://dc.lft.to/lastmile_qr_scan", "ios": "https://dc.lft.to/lastmile_qr_scan"}, "fusion_lat": 0.0, "lat": 38.906921, "is_disabled": 0, "lon": -77.03454583333334, "is_reserved": 0}, {"bike_id": "41570e901cd8e6008bcf3cb02f29533b", "fusion_lon": 0.0, "type": "electric_scooter", "name": "41570e901cd8e6008bcf3cb02f29533b", "rental_uris": {"android": "https://dc.lft.to/lastmile_qr_scan", "ios": "https://dc.lft.to/lastmile_qr_scan"}, "fusion_lat": 0.0, "lat": 38.8793855, "is_disabled": 0, "lon": -77.01717466666666, "is_reserved": 0}, {"bike_id": "d67546bc9e737c2ab97c858ae4f97ad2", "fusion_lon": 0.0, "type": "electric_scooter", "name": "d67546bc9e737c2ab97c858ae4f97ad2", "rental_uris": {"android": "https://dc.lft.to/lastmile_qr_scan", "ios": "https://dc.lft.to/lastmile_qr_scan"}, "fusion_lat": 0.0, "lat": 38.9257605, "is_disabled": 0, "lon": -77.03245566666666, "is_reserved": 0}, {"bike_id": "eb3446737aa4029365aa4b151aa808b5", "fusion_lon": 0.0, "type": "electric_scooter", "name": "eb3446737aa4029365aa4b151aa808b5", "rental_uris": {"android": "https://dc.lft.to/lastmile_qr_scan", "ios": "https://dc.lft.to/lastmile_qr_scan"}, "fusion_lat": 0.0, "lat": 38.87925166666667, "is_disabled": 0, "lon": -77.00512816666667, "is_reserved": 0}, {"bike_id": "c23b0731bb83fde942fba1a5691b64f8", "fusion_lon": 0.0, "type": "electric_scooter", "name": "c23b0731bb83fde942fba1a5691b64f8", "rental_uris": {"android": "https://dc.lft.to/lastmile_qr_scan", "ios": "https://dc.lft.to/lastmile_qr_scan"}, "fusion_lat": 0.0, "lat": 38.928288, "is_disabled": 0, "lon": -77.02262616666667, "is_reserved": 0}, {"bike_id": "54e7cc9e56fbf343d6f592b362261e9d", "fusion_lon": 0.0, "type": "electric_scooter", "name": "54e7cc9e56fbf343d6f592b362261e9d", "rental_uris": {"android": "https://dc.lft.to/lastmile_qr_scan", "ios": "https://dc.lft.to/lastmile_qr_scan"}, "fusion_lat": 0.0, "lat": 38.89665516666667, "is_disabled": 0, "lon": -77.04328783333334, "is_reserved": 0}, {"bike_id": "cc7b2b40553a9fd290d7468fcc9718d3", "fusion_lon": 0.0, "type": "electric_scooter", "name": "cc7b2b40553a9fd290d7468fcc9718d3", "rental_uris": {"android": "https://dc.lft.to/lastmile_qr_scan", "ios": "https://dc.lft.to/lastmile_qr_scan"}, "fusion_lat": 0.0, "lat": 38.93072, "is_disabled": 0, "lon": -77.03258416666667, "is_reserved": 0}, {"bike_id": "5a5833ddf78f093fe51e6e1adaef8abe", "fusion_lon": 0.0, "type": "electric_scooter", "name": "5a5833ddf78f093fe51e6e1adaef8abe", "rental_uris": {"android": "https://dc.lft.to/lastmile_qr_scan", "ios": "https://dc.lft.to/lastmile_qr_scan"}, "fusion_lat": 0.0, "lat": 38.903361833333335, "is_disabled": 0, "lon": -77.03439566666667, "is_reserved": 0}, {"bike_id": "bc9206ff74e99b9b84486cc01a35f31f", "fusion_lon": 0.0, "type": "electric_scooter", "name": "bc9206ff74e99b9b84486cc01a35f31f", "rental_uris": {"android": "https://dc.lft.to/lastmile_qr_scan", "ios": "https://dc.lft.to/lastmile_qr_scan"}, "fusion_lat": 0.0, "lat": 38.883611, "is_disabled": 0, "lon": -77.02332433333333, "is_reserved": 0}, {"bike_id": "d577058d36a53445fa0f71a42653a6f0", "fusion_lon": 0.0, "type": "electric_scooter", "name": "d577058d36a53445fa0f71a42653a6f0", "rental_uris": {"android": "https://dc.lft.to/lastmile_qr_scan", "ios": "https://dc.lft.to/lastmile_qr_scan"}, "fusion_lat": 0.0, "lat": 38.912628166666664, "is_disabled": 0, "lon": -77.03263233333334, "is_reserved": 0}, {"bike_id": "78aaebd8db8054d9e95f99d5c695036a", "fusion_lon": 0.0, "type": "electric_scooter", "name": "78aaebd8db8054d9e95f99d5c695036a", "rental_uris": {"android": "https://dc.lft.to/lastmile_qr_scan", "ios": "https://dc.lft.to/lastmile_qr_scan"}, "fusion_lat": 0.0, "lat": 38.932351, "is_disabled": 0, "lon": -77.038806, "is_reserved": 0}, {"bike_id": "827b63cd7b2caa0fe8bb15e3407a900a", "fusion_lon": 0.0, "type": "electric_bike", "name": "827b63cd7b2caa0fe8bb15e3407a900a", "rental_uris": {"android": "https://dc.lft.to/lastmile_qr_scan", "ios": "https://dc.lft.to/lastmile_qr_scan"}, "fusion_lat": 0.0, "lat": 38.91667283333334, "is_disabled": 0, "lon": -77.0237305, "is_reserved": 0}, {"bike_id": "8fdbb42a4d893627643bef36ad8fb48e", "fusion_lon": 0.0, "type": "electric_bike", "name": "8fdbb42a4d893627643bef36ad8fb48e", "rental_uris": {"android": "https://dc.lft.to/lastmile_qr_scan", "ios": "https://dc.lft.to/lastmile_qr_scan"}, "fusion_lat": 0.0, "lat": 38.9620035, "is_disabled": 0, "lon": -77.0261135, "is_reserved": 0}, {"bike_id": "9d23471709b8710f82021f07acc4d8bf", "fusion_lon": 0.0, "type": "electric_scooter", "name": "9d23471709b8710f82021f07acc4d8bf", "rental_uris": {"android": "https://dc.lft.to/lastmile_qr_scan", "ios": "https://dc.lft.to/lastmile_qr_scan"}, "fusion_lat": 0.0, "lat": 38.937049333333334, "is_disabled": 0, "lon": -77.05600516666667, "is_reserved": 0}, {"bike_id": "e5ac54cfd57b852fee805c0d3ae53369", "fusion_lon": 0.0, "type": "electric_scooter", "name": "e5ac54cfd57b852fee805c0d3ae53369", "rental_uris": {"android": "https://dc.lft.to/lastmile_qr_scan", "ios": "https://dc.lft.to/lastmile_qr_scan"}, "fusion_lat": 0.0, "lat": 38.97375433333333, "is_disabled": 0, "lon": -77.03125616666667, "is_reserved": 0}, {"bike_id": "b6775a6db1c5fbf5a29850a47eb8b093", "fusion_lon": 0.0, "type": "electric_scooter", "name": "b6775a6db1c5fbf5a29850a47eb8b093", "rental_uris": {"android": "https://dc.lft.to/lastmile_qr_scan", "ios": "https://dc.lft.to/lastmile_qr_scan"}, "fusion_lat": 0.0, "lat": 38.91043583333333, "is_disabled": 0, "lon": -77.03378266666667, "is_reserved": 0}, {"bike_id": "3935f8eca8eba86f214f3889b6eaa57d", "fusion_lon": 0.0, "type": "electric_scooter", "name": "3935f8eca8eba86f214f3889b6eaa57d", "rental_uris": {"android": "https://dc.lft.to/lastmile_qr_scan", "ios": "https://dc.lft.to/lastmile_qr_scan"}, "fusion_lat": 0.0, "lat": 38.8929785, "is_disabled": 0, "lon": -77.04653666666667, "is_reserved": 0}, {"bike_id": "4d3c15d42bae1b5c26c04240a4a9ef38", "fusion_lon": 0.0, "type": "electric_scooter", "name": "4d3c15d42bae1b5c26c04240a4a9ef38", "rental_uris": {"android": "https://dc.lft.to/lastmile_qr_scan", "ios": "https://dc.lft.to/lastmile_qr_scan"}, "fusion_lat": 0.0, "lat": 38.92500283333333, "is_disabled": 0, "lon": -77.02149866666667, "is_reserved": 0}, {"bike_id": "93c6c9e4ac536a8b888b0aeb16ef9323", "fusion_lon": 0.0, "type": "electric_scooter", "name": "93c6c9e4ac536a8b888b0aeb16ef9323", "rental_uris": {"android": "https://dc.lft.to/lastmile_qr_scan", "ios": "https://dc.lft.to/lastmile_qr_scan"}, "fusion_lat": 0.0, "lat": 38.92159133333333, "is_disabled": 0, "lon": -77.04115883333333, "is_reserved": 0}, {"bike_id": "26b8558babad70be04ca50c7aedf8227", "fusion_lon": 0.0, "type": "electric_scooter", "name": "26b8558babad70be04ca50c7aedf8227", "rental_uris": {"android": "https://dc.lft.to/lastmile_qr_scan", "ios": "https://dc.lft.to/lastmile_qr_scan"}, "fusion_lat": 0.0, "lat": 38.874318, "is_disabled": 0, "lon": -77.04410533333333, "is_reserved": 0}, {"bike_id": "889a2078f0333937a1fed93f2d063f5d", "fusion_lon": 0.0, "type": "electric_scooter", "name": "889a2078f0333937a1fed93f2d063f5d", "rental_uris": {"android": "https://dc.lft.to/lastmile_qr_scan", "ios": "https://dc.lft.to/lastmile_qr_scan"}, "fusion_lat": 0.0, "lat": 38.855328166666666, "is_disabled": 0, "lon": -76.969203, "is_reserved": 0}, {"bike_id": "51bcc06264770391ee1f9b47a5a1a94e", "fusion_lon": 0.0, "type": "electric_scooter", "name": "51bcc06264770391ee1f9b47a5a1a94e", "rental_uris": {"android": "https://dc.lft.to/lastmile_qr_scan", "ios": "https://dc.lft.to/lastmile_qr_scan"}, "fusion_lat": 0.0, "lat": 38.911653333333334, "is_disabled": 0, "lon": -77.03845333333334, "is_reserved": 0}, {"bike_id": "297e5c82615b408f0969574a32316841", "fusion_lon": 0.0, "type": "electric_bike", "name": "297e5c82615b408f0969574a32316841", "rental_uris": {"android": "https://dc.lft.to/lastmile_qr_scan", "ios": "https://dc.lft.to/lastmile_qr_scan"}, "fusion_lat": 0.0, "lat": 38.9675995, "is_disabled": 0, "lon": -77.09163883333333, "is_reserved": 0}, {"bike_id": "2d60d7d93ffa3fe39b8ce199b8b54050", "fusion_lon": 0.0, "type": "electric_scooter", "name": "2d60d7d93ffa3fe39b8ce199b8b54050", "rental_uris": {"android": "https://dc.lft.to/lastmile_qr_scan", "ios": "https://dc.lft.to/lastmile_qr_scan"}, "fusion_lat": 0.0, "lat": 38.918776666666666, "is_disabled": 0, "lon": -77.03504466666666, "is_reserved": 0}, {"bike_id": "920267274adb882ac9e6fe859912160c", "fusion_lon": 0.0, "type": "electric_bike", "name": "920267274adb882ac9e6fe859912160c", "rental_uris": {"android": "https://dc.lft.to/lastmile_qr_scan", "ios": "https://dc.lft.to/lastmile_qr_scan"}, "fusion_lat": 0.0, "lat": 38.863786, "is_disabled": 0, "lon": -77.129021, "is_reserved": 0}, {"bike_id": "42038aaec8941da4f417d7a124e9c626", "fusion_lon": 0.0, "type": "electric_scooter", "name": "42038aaec8941da4f417d7a124e9c626", "rental_uris": {"android": "https://dc.lft.to/lastmile_qr_scan", "ios": "https://dc.lft.to/lastmile_qr_scan"}, "fusion_lat": 0.0, "lat": 38.8969945, "is_disabled": 0, "lon": -77.02181683333333, "is_reserved": 0}, {"bike_id": "4e55f694543083c9bd6caa4258f967b6", "fusion_lon": 0.0, "type": "electric_scooter", "name": "4e55f694543083c9bd6caa4258f967b6", "rental_uris": {"android": "https://dc.lft.to/lastmile_qr_scan", "ios": "https://dc.lft.to/lastmile_qr_scan"}, "fusion_lat": 0.0, "lat": 38.942806833333336, "is_disabled": 0, "lon": -77.02943433333333, "is_reserved": 0}, {"bike_id": "62da1d42aae105ea01fa9e8bee3ed148", "fusion_lon": 0.0, "type": "electric_scooter", "name": "62da1d42aae105ea01fa9e8bee3ed148", "rental_uris": {"android": "https://dc.lft.to/lastmile_qr_scan", "ios": "https://dc.lft.to/lastmile_qr_scan"}, "fusion_lat": 0.0, "lat": 38.93104966666667, "is_disabled": 0, "lon": -77.0239495, "is_reserved": 0}, {"bike_id": "3e1114e5405f1163e7593897fdcc16f7", "fusion_lon": 0.0, "type": "electric_scooter", "name": "3e1114e5405f1163e7593897fdcc16f7", "rental_uris": {"android": "https://dc.lft.to/lastmile_qr_scan", "ios": "https://dc.lft.to/lastmile_qr_scan"}, "fusion_lat": 0.0, "lat": 38.875356, "is_disabled": 0, "lon": -77.0055375, "is_reserved": 0}, {"bike_id": "113ce1c1a4d970a6154dbd35100d5d72", "fusion_lon": 0.0, "type": "electric_scooter", "name": "113ce1c1a4d970a6154dbd35100d5d72", "rental_uris": {"android": "https://dc.lft.to/lastmile_qr_scan", "ios": "https://dc.lft.to/lastmile_qr_scan"}, "fusion_lat": 0.0, "lat": 38.90053183333333, "is_disabled": 0, "lon": -77.04489833333334, "is_reserved": 0}, {"bike_id": "527df5579846ba71f0e29e5a0adf7a6f", "fusion_lon": 0.0, "type": "electric_scooter", "name": "527df5579846ba71f0e29e5a0adf7a6f", "rental_uris": {"android": "https://dc.lft.to/lastmile_qr_scan", "ios": "https://dc.lft.to/lastmile_qr_scan"}, "fusion_lat": 0.0, "lat": 38.88660216666667, "is_disabled": 0, "lon": -77.03387183333334, "is_reserved": 0}, {"bike_id": "463ef32bfe18adf6d3fc86ea848ad99f", "fusion_lon": 0.0, "type": "electric_scooter", "name": "463ef32bfe18adf6d3fc86ea848ad99f", "rental_uris": {"android": "https://dc.lft.to/lastmile_qr_scan", "ios": "https://dc.lft.to/lastmile_qr_scan"}, "fusion_lat": 0.0, "lat": 38.914871833333336, "is_disabled": 0, "lon": -77.04647966666667, "is_reserved": 0}, {"bike_id": "966e6d4d6eaeacffa90e51d7a37bce04", "fusion_lon": 0.0, "type": "electric_scooter", "name": "966e6d4d6eaeacffa90e51d7a37bce04", "rental_uris": {"android": "https://dc.lft.to/lastmile_qr_scan", "ios": "https://dc.lft.to/lastmile_qr_scan"}, "fusion_lat": 0.0, "lat": 38.93944666666667, "is_disabled": 0, "lon": -77.06035616666666, "is_reserved": 0}, {"bike_id": "ad5894eeaec1eef1c7dc529570834232", "fusion_lon": 0.0, "type": "electric_scooter", "name": "ad5894eeaec1eef1c7dc529570834232", "rental_uris": {"android": "https://dc.lft.to/lastmile_qr_scan", "ios": "https://dc.lft.to/lastmile_qr_scan"}, "fusion_lat": 0.0, "lat": 38.865066, "is_disabled": 0, "lon": -76.99002316666666, "is_reserved": 0}, {"bike_id": "e8e1911b91b21ce8c655803869ddae6b", "fusion_lon": 0.0, "type": "electric_scooter", "name": "e8e1911b91b21ce8c655803869ddae6b", "rental_uris": {"android": "https://dc.lft.to/lastmile_qr_scan", "ios": "https://dc.lft.to/lastmile_qr_scan"}, "fusion_lat": 0.0, "lat": 38.898551166666664, "is_disabled": 0, "lon": -76.9764835, "is_reserved": 0}, {"bike_id": "ff6dcca4bf70b5eb32a537645d09a6dd", "fusion_lon": 0.0, "type": "electric_scooter", "name": "ff6dcca4bf70b5eb32a537645d09a6dd", "rental_uris": {"android": "https://dc.lft.to/lastmile_qr_scan", "ios": "https://dc.lft.to/lastmile_qr_scan"}, "fusion_lat": 0.0, "lat": 38.9013785, "is_disabled": 0, "lon": -76.99426416666667, "is_reserved": 0}, {"bike_id": "2b9152b7d3846a961f813d1d63397af5", "fusion_lon": 0.0, "type": "electric_scooter", "name": "2b9152b7d3846a961f813d1d63397af5", "rental_uris": {"android": "https://dc.lft.to/lastmile_qr_scan", "ios": "https://dc.lft.to/lastmile_qr_scan"}, "fusion_lat": 0.0, "lat": 38.914808666666666, "is_disabled": 0, "lon": -77.01452516666667, "is_reserved": 0}, {"bike_id": "1d23b4f5581b6d7e7aeace9aaaa8d1b2", "fusion_lon": 0.0, "type": "electric_scooter", "name": "1d23b4f5581b6d7e7aeace9aaaa8d1b2", "rental_uris": {"android": "https://dc.lft.to/lastmile_qr_scan", "ios": "https://dc.lft.to/lastmile_qr_scan"}, "fusion_lat": 0.0, "lat": 38.899718, "is_disabled": 0, "lon": -76.934325, "is_reserved": 0}, {"bike_id": "2fde12368d69364f723db5ee2364d066", "fusion_lon": 0.0, "type": "electric_scooter", "name": "2fde12368d69364f723db5ee2364d066", "rental_uris": {"android": "https://dc.lft.to/lastmile_qr_scan", "ios": "https://dc.lft.to/lastmile_qr_scan"}, "fusion_lat": 0.0, "lat": 38.908061333333336, "is_disabled": 0, "lon": -77.0514565, "is_reserved": 0}, {"bike_id": "f1ab41e34945aec4ac327631de49fcb0", "fusion_lon": 0.0, "type": "electric_scooter", "name": "f1ab41e34945aec4ac327631de49fcb0", "rental_uris": {"android": "https://dc.lft.to/lastmile_qr_scan", "ios": "https://dc.lft.to/lastmile_qr_scan"}, "fusion_lat": 0.0, "lat": 38.9332825, "is_disabled": 0, "lon": -76.990994, "is_reserved": 0}, {"bike_id": "79335c35ebdbfcfcd826c37b9f8a423c", "fusion_lon": 0.0, "type": "electric_scooter", "name": "79335c35ebdbfcfcd826c37b9f8a423c", "rental_uris": {"android": "https://dc.lft.to/lastmile_qr_scan", "ios": "https://dc.lft.to/lastmile_qr_scan"}, "fusion_lat": 0.0, "lat": 38.93478433333333, "is_disabled": 0, "lon": -77.02403516666666, "is_reserved": 0}, {"bike_id": "9e9f6bdf2f8b30a3722626123297a4af", "fusion_lon": 0.0, "type": "electric_scooter", "name": "9e9f6bdf2f8b30a3722626123297a4af", "rental_uris": {"android": "https://dc.lft.to/lastmile_qr_scan", "ios": "https://dc.lft.to/lastmile_qr_scan"}, "fusion_lat": 0.0, "lat": 38.9047885, "is_disabled": 0, "lon": -77.0200425, "is_reserved": 0}, {"bike_id": "b8c291cc497c4eca4803db6835bbbf5c", "fusion_lon": 0.0, "type": "electric_scooter", "name": "b8c291cc497c4eca4803db6835bbbf5c", "rental_uris": {"android": "https://dc.lft.to/lastmile_qr_scan", "ios": "https://dc.lft.to/lastmile_qr_scan"}, "fusion_lat": 0.0, "lat": 38.9036585, "is_disabled": 0, "lon": -77.000466, "is_reserved": 0}, {"bike_id": "9865a2e277bdb1a25f46c4908ae121cd", "fusion_lon": 0.0, "type": "electric_scooter", "name": "9865a2e277bdb1a25f46c4908ae121cd", "rental_uris": {"android": "https://dc.lft.to/lastmile_qr_scan", "ios": "https://dc.lft.to/lastmile_qr_scan"}, "fusion_lat": 0.0, "lat": 38.846221666666665, "is_disabled": 0, "lon": -76.99631716666667, "is_reserved": 0}, {"bike_id": "0185e7c9681416fa7d8b2d5fbcc3a097", "fusion_lon": 0.0, "type": "electric_scooter", "name": "0185e7c9681416fa7d8b2d5fbcc3a097", "rental_uris": {"android": "https://dc.lft.to/lastmile_qr_scan", "ios": "https://dc.lft.to/lastmile_qr_scan"}, "fusion_lat": 0.0, "lat": 38.93880433333333, "is_disabled": 0, "lon": -77.02483983333333, "is_reserved": 0}, {"bike_id": "7438c21f641049e8309e79cf8a9eb5bf", "fusion_lon": 0.0, "type": "electric_scooter", "name": "7438c21f641049e8309e79cf8a9eb5bf", "rental_uris": {"android": "https://dc.lft.to/lastmile_qr_scan", "ios": "https://dc.lft.to/lastmile_qr_scan"}, "fusion_lat": 0.0, "lat": 38.918267666666665, "is_disabled": 0, "lon": -77.0253305, "is_reserved": 0}, {"bike_id": "acff453524b02846655dedd9bcda9111", "fusion_lon": 0.0, "type": "electric_scooter", "name": "acff453524b02846655dedd9bcda9111", "rental_uris": {"android": "https://dc.lft.to/lastmile_qr_scan", "ios": "https://dc.lft.to/lastmile_qr_scan"}, "fusion_lat": 0.0, "lat": 38.86114366666666, "is_disabled": 0, "lon": -76.99011966666667, "is_reserved": 0}, {"bike_id": "361988f3d18afc1234457c1f3b860c04", "fusion_lon": 0.0, "type": "electric_scooter", "name": "361988f3d18afc1234457c1f3b860c04", "rental_uris": {"android": "https://dc.lft.to/lastmile_qr_scan", "ios": "https://dc.lft.to/lastmile_qr_scan"}, "fusion_lat": 0.0, "lat": 38.89405433333334, "is_disabled": 0, "lon": -77.02148933333334, "is_reserved": 0}, {"bike_id": "bb5f2404276ce9f84458fc54962d4c8f", "fusion_lon": 0.0, "type": "electric_scooter", "name": "bb5f2404276ce9f84458fc54962d4c8f", "rental_uris": {"android": "https://dc.lft.to/lastmile_qr_scan", "ios": "https://dc.lft.to/lastmile_qr_scan"}, "fusion_lat": 0.0, "lat": 38.9184065, "is_disabled": 0, "lon": -77.03209383333333, "is_reserved": 0}, {"bike_id": "ca40ba28a6864e1d7da26da4fddf2383", "fusion_lon": 0.0, "type": "electric_scooter", "name": "ca40ba28a6864e1d7da26da4fddf2383", "rental_uris": {"android": "https://dc.lft.to/lastmile_qr_scan", "ios": "https://dc.lft.to/lastmile_qr_scan"}, "fusion_lat": 0.0, "lat": 38.943128333333334, "is_disabled": 0, "lon": -77.0154065, "is_reserved": 0}, {"bike_id": "5c7fae003febc60a0f501129443c8e72", "fusion_lon": 0.0, "type": "electric_scooter", "name": "5c7fae003febc60a0f501129443c8e72", "rental_uris": {"android": "https://dc.lft.to/lastmile_qr_scan", "ios": "https://dc.lft.to/lastmile_qr_scan"}, "fusion_lat": 0.0, "lat": 38.895332333333336, "is_disabled": 0, "lon": -76.94895966666667, "is_reserved": 0}, {"bike_id": "7e669240054cd04a7ff0e6f1e2e5e975", "fusion_lon": 0.0, "type": "electric_scooter", "name": "7e669240054cd04a7ff0e6f1e2e5e975", "rental_uris": {"android": "https://dc.lft.to/lastmile_qr_scan", "ios": "https://dc.lft.to/lastmile_qr_scan"}, "fusion_lat": 0.0, "lat": 38.909633666666664, "is_disabled": 0, "lon": -77.016038, "is_reserved": 0}, {"bike_id": "4bbd131e93a2e8470b3dc1508e919962", "fusion_lon": 0.0, "type": "electric_bike", "name": "4bbd131e93a2e8470b3dc1508e919962", "rental_uris": {"android": "https://dc.lft.to/lastmile_qr_scan", "ios": "https://dc.lft.to/lastmile_qr_scan"}, "fusion_lat": 0.0, "lat": 38.990488666666664, "is_disabled": 0, "lon": -77.06949133333333, "is_reserved": 0}, {"bike_id": "76054162a8f713debab5e0792b9dd7e1", "fusion_lon": 0.0, "type": "electric_scooter", "name": "76054162a8f713debab5e0792b9dd7e1", "rental_uris": {"android": "https://dc.lft.to/lastmile_qr_scan", "ios": "https://dc.lft.to/lastmile_qr_scan"}, "fusion_lat": 0.0, "lat": 38.926416833333334, "is_disabled": 0, "lon": -77.025186, "is_reserved": 0}, {"bike_id": "8e000b312bc17a116369d363d688c122", "fusion_lon": 0.0, "type": "electric_bike", "name": "8e000b312bc17a116369d363d688c122", "rental_uris": {"android": "https://dc.lft.to/lastmile_qr_scan", "ios": "https://dc.lft.to/lastmile_qr_scan"}, "fusion_lat": 0.0, "lat": 38.90633183333333, "is_disabled": 0, "lon": -76.98608283333333, "is_reserved": 0}, {"bike_id": "a035941f6717419291f123e06a20deec", "fusion_lon": 0.0, "type": "electric_scooter", "name": "a035941f6717419291f123e06a20deec", "rental_uris": {"android": "https://dc.lft.to/lastmile_qr_scan", "ios": "https://dc.lft.to/lastmile_qr_scan"}, "fusion_lat": 0.0, "lat": 38.902215, "is_disabled": 0, "lon": -76.99012816666666, "is_reserved": 0}, {"bike_id": "63ec89aa95c9b79409d8d257a52efa47", "fusion_lon": 0.0, "type": "electric_scooter", "name": "63ec89aa95c9b79409d8d257a52efa47", "rental_uris": {"android": "https://dc.lft.to/lastmile_qr_scan", "ios": "https://dc.lft.to/lastmile_qr_scan"}, "fusion_lat": 0.0, "lat": 38.90786216666667, "is_disabled": 0, "lon": -77.030608, "is_reserved": 0}, {"bike_id": "77add38d00b705345f0a6bd1a21100fd", "fusion_lon": 0.0, "type": "electric_scooter", "name": "77add38d00b705345f0a6bd1a21100fd", "rental_uris": {"android": "https://dc.lft.to/lastmile_qr_scan", "ios": "https://dc.lft.to/lastmile_qr_scan"}, "fusion_lat": 0.0, "lat": 38.9050475, "is_disabled": 0, "lon": -77.02946883333334, "is_reserved": 0}, {"bike_id": "e83c62add2ad1288ed7390a231a15a0f", "fusion_lon": 0.0, "type": "electric_scooter", "name": "e83c62add2ad1288ed7390a231a15a0f", "rental_uris": {"android": "https://dc.lft.to/lastmile_qr_scan", "ios": "https://dc.lft.to/lastmile_qr_scan"}, "fusion_lat": 0.0, "lat": 38.95427166666666, "is_disabled": 0, "lon": -77.02973133333333, "is_reserved": 0}, {"bike_id": "6808b9439c1756ac4baaee2059be24f6", "fusion_lon": 0.0, "type": "electric_scooter", "name": "6808b9439c1756ac4baaee2059be24f6", "rental_uris": {"android": "https://dc.lft.to/lastmile_qr_scan", "ios": "https://dc.lft.to/lastmile_qr_scan"}, "fusion_lat": 0.0, "lat": 38.91274116666666, "is_disabled": 0, "lon": -77.03827416666667, "is_reserved": 0}, {"bike_id": "6db5a041f4f470b7a6891e175f8d2096", "fusion_lon": 0.0, "type": "electric_scooter", "name": "6db5a041f4f470b7a6891e175f8d2096", "rental_uris": {"android": "https://dc.lft.to/lastmile_qr_scan", "ios": "https://dc.lft.to/lastmile_qr_scan"}, "fusion_lat": 0.0, "lat": 38.874745, "is_disabled": 0, "lon": -77.005297, "is_reserved": 0}, {"bike_id": "fd95902b8540a00c0a6ad82b2c66fa69", "fusion_lon": 0.0, "type": "electric_scooter", "name": "fd95902b8540a00c0a6ad82b2c66fa69", "rental_uris": {"android": "https://dc.lft.to/lastmile_qr_scan", "ios": "https://dc.lft.to/lastmile_qr_scan"}, "fusion_lat": 0.0, "lat": 38.89971166666667, "is_disabled": 0, "lon": -76.93762233333334, "is_reserved": 0}, {"bike_id": "d4db3ff68a142768ef4e3364c219b037", "fusion_lon": 0.0, "type": "electric_scooter", "name": "d4db3ff68a142768ef4e3364c219b037", "rental_uris": {"android": "https://dc.lft.to/lastmile_qr_scan", "ios": "https://dc.lft.to/lastmile_qr_scan"}, "fusion_lat": 0.0, "lat": 38.903611166666664, "is_disabled": 0, "lon": -76.97455933333333, "is_reserved": 0}, {"bike_id": "ca8589f04a2f439aa764dece280d3fd3", "fusion_lon": 0.0, "type": "electric_scooter", "name": "ca8589f04a2f439aa764dece280d3fd3", "rental_uris": {"android": "https://dc.lft.to/lastmile_qr_scan", "ios": "https://dc.lft.to/lastmile_qr_scan"}, "fusion_lat": 0.0, "lat": 38.91820466666667, "is_disabled": 0, "lon": -77.03289916666667, "is_reserved": 0}, {"bike_id": "4864795a937611b35551730b30f40c54", "fusion_lon": 0.0, "type": "electric_scooter", "name": "4864795a937611b35551730b30f40c54", "rental_uris": {"android": "https://dc.lft.to/lastmile_qr_scan", "ios": "https://dc.lft.to/lastmile_qr_scan"}, "fusion_lat": 0.0, "lat": 38.908708, "is_disabled": 0, "lon": -77.03220133333333, "is_reserved": 0}, {"bike_id": "0e3c551d9a83e247ec3cb8c5721148e8", "fusion_lon": 0.0, "type": "electric_scooter", "name": "0e3c551d9a83e247ec3cb8c5721148e8", "rental_uris": {"android": "https://dc.lft.to/lastmile_qr_scan", "ios": "https://dc.lft.to/lastmile_qr_scan"}, "fusion_lat": 0.0, "lat": 38.914102, "is_disabled": 0, "lon": -77.032257, "is_reserved": 0}, {"bike_id": "8c55e2f4d0f6e8865ce1938c82d89c8c", "fusion_lon": 0.0, "type": "electric_scooter", "name": "8c55e2f4d0f6e8865ce1938c82d89c8c", "rental_uris": {"android": "https://dc.lft.to/lastmile_qr_scan", "ios": "https://dc.lft.to/lastmile_qr_scan"}, "fusion_lat": 0.0, "lat": 38.88673283333333, "is_disabled": 0, "lon": -76.95239133333334, "is_reserved": 0}, {"bike_id": "82201de5cdb285812abf4cab017d7311", "fusion_lon": 0.0, "type": "electric_scooter", "name": "82201de5cdb285812abf4cab017d7311", "rental_uris": {"android": "https://dc.lft.to/lastmile_qr_scan", "ios": "https://dc.lft.to/lastmile_qr_scan"}, "fusion_lat": 0.0, "lat": 38.95655333333333, "is_disabled": 0, "lon": -77.03302433333333, "is_reserved": 0}, {"bike_id": "032faca9c9a068b624d245d1a99c8dd2", "fusion_lon": 0.0, "type": "electric_scooter", "name": "032faca9c9a068b624d245d1a99c8dd2", "rental_uris": {"android": "https://dc.lft.to/lastmile_qr_scan", "ios": "https://dc.lft.to/lastmile_qr_scan"}, "fusion_lat": 0.0, "lat": 38.917281333333335, "is_disabled": 0, "lon": -77.01922816666666, "is_reserved": 0}, {"bike_id": "108afbf3fca6338df0f31efc38ce05eb", "fusion_lon": 0.0, "type": "electric_scooter", "name": "108afbf3fca6338df0f31efc38ce05eb", "rental_uris": {"android": "https://dc.lft.to/lastmile_qr_scan", "ios": "https://dc.lft.to/lastmile_qr_scan"}, "fusion_lat": 0.0, "lat": 38.95002483333333, "is_disabled": 0, "lon": -77.0270755, "is_reserved": 0}, {"bike_id": "54209e1b3321bd899a4c34939beb3188", "fusion_lon": 0.0, "type": "electric_bike", "name": "54209e1b3321bd899a4c34939beb3188", "rental_uris": {"android": "https://dc.lft.to/lastmile_qr_scan", "ios": "https://dc.lft.to/lastmile_qr_scan"}, "fusion_lat": 0.0, "lat": 38.841113, "is_disabled": 0, "lon": -77.08949183333333, "is_reserved": 0}, {"bike_id": "e512c8f56ab11d979a2b0b67a298d3ab", "fusion_lon": 0.0, "type": "electric_scooter", "name": "e512c8f56ab11d979a2b0b67a298d3ab", "rental_uris": {"android": "https://dc.lft.to/lastmile_qr_scan", "ios": "https://dc.lft.to/lastmile_qr_scan"}, "fusion_lat": 0.0, "lat": 38.90239733333333, "is_disabled": 0, "lon": -77.00202483333334, "is_reserved": 0}, {"bike_id": "05758727645d96b1f8753ac3cd8ffc27", "fusion_lon": 0.0, "type": "electric_scooter", "name": "05758727645d96b1f8753ac3cd8ffc27", "rental_uris": {"android": "https://dc.lft.to/lastmile_qr_scan", "ios": "https://dc.lft.to/lastmile_qr_scan"}, "fusion_lat": 0.0, "lat": 38.919904, "is_disabled": 0, "lon": -77.03272933333334, "is_reserved": 0}, {"bike_id": "3c9f6a4933035c8bb245955865b9172b", "fusion_lon": 0.0, "type": "electric_scooter", "name": "3c9f6a4933035c8bb245955865b9172b", "rental_uris": {"android": "https://dc.lft.to/lastmile_qr_scan", "ios": "https://dc.lft.to/lastmile_qr_scan"}, "fusion_lat": 0.0, "lat": 38.9047345, "is_disabled": 0, "lon": -77.038162, "is_reserved": 0}, {"bike_id": "9f1226a4d0e9befadf1ac74ac287a249", "fusion_lon": 0.0, "type": "electric_bike", "name": "9f1226a4d0e9befadf1ac74ac287a249", "rental_uris": {"android": "https://dc.lft.to/lastmile_qr_scan", "ios": "https://dc.lft.to/lastmile_qr_scan"}, "fusion_lat": 0.0, "lat": 38.8125055, "is_disabled": 0, "lon": -77.04071, "is_reserved": 0}, {"bike_id": "8221bc5370c3fb48bf1826e194198c57", "fusion_lon": 0.0, "type": "electric_scooter", "name": "8221bc5370c3fb48bf1826e194198c57", "rental_uris": {"android": "https://dc.lft.to/lastmile_qr_scan", "ios": "https://dc.lft.to/lastmile_qr_scan"}, "fusion_lat": 0.0, "lat": 38.925002, "is_disabled": 0, "lon": -77.02251866666667, "is_reserved": 0}, {"bike_id": "61fb3defdfe7e17eb73721f3ef92ecae", "fusion_lon": 0.0, "type": "electric_bike", "name": "61fb3defdfe7e17eb73721f3ef92ecae", "rental_uris": {"android": "https://dc.lft.to/lastmile_qr_scan", "ios": "https://dc.lft.to/lastmile_qr_scan"}, "fusion_lat": 0.0, "lat": 38.9241295, "is_disabled": 0, "lon": -77.05037416666667, "is_reserved": 0}, {"bike_id": "6c7e4aa83c717a01f7dd491d2cf6db67", "fusion_lon": 0.0, "type": "electric_scooter", "name": "6c7e4aa83c717a01f7dd491d2cf6db67", "rental_uris": {"android": "https://dc.lft.to/lastmile_qr_scan", "ios": "https://dc.lft.to/lastmile_qr_scan"}, "fusion_lat": 0.0, "lat": 38.90238766666667, "is_disabled": 0, "lon": -77.01961483333334, "is_reserved": 0}, {"bike_id": "bbcf5fbca2e044c06fc10db666ea2f4f", "fusion_lon": 0.0, "type": "electric_scooter", "name": "bbcf5fbca2e044c06fc10db666ea2f4f", "rental_uris": {"android": "https://dc.lft.to/lastmile_qr_scan", "ios": "https://dc.lft.to/lastmile_qr_scan"}, "fusion_lat": 0.0, "lat": 38.956322666666665, "is_disabled": 0, "lon": -77.029847, "is_reserved": 0}, {"bike_id": "382f925e866bf4b862f616656a4132cf", "fusion_lon": 0.0, "type": "electric_scooter", "name": "382f925e866bf4b862f616656a4132cf", "rental_uris": {"android": "https://dc.lft.to/lastmile_qr_scan", "ios": "https://dc.lft.to/lastmile_qr_scan"}, "fusion_lat": 0.0, "lat": 38.900309166666666, "is_disabled": 0, "lon": -76.99509166666667, "is_reserved": 0}, {"bike_id": "2d67253c137bb5af94df6854fcb9917f", "fusion_lon": 0.0, "type": "electric_scooter", "name": "2d67253c137bb5af94df6854fcb9917f", "rental_uris": {"android": "https://dc.lft.to/lastmile_qr_scan", "ios": "https://dc.lft.to/lastmile_qr_scan"}, "fusion_lat": 0.0, "lat": 38.90562833333333, "is_disabled": 0, "lon": -77.0279515, "is_reserved": 0}, {"bike_id": "64bbfd16796ecd0ecd5c1ac22eaff71f", "fusion_lon": 0.0, "type": "electric_bike", "name": "64bbfd16796ecd0ecd5c1ac22eaff71f", "rental_uris": {"android": "https://dc.lft.to/lastmile_qr_scan", "ios": "https://dc.lft.to/lastmile_qr_scan"}, "fusion_lat": 0.0, "lat": 38.872342, "is_disabled": 0, "lon": -76.93200716666666, "is_reserved": 0}, {"bike_id": "f7ccc867f3cbff1604337a6f3b8dbabf", "fusion_lon": 0.0, "type": "electric_bike", "name": "f7ccc867f3cbff1604337a6f3b8dbabf", "rental_uris": {"android": "https://dc.lft.to/lastmile_qr_scan", "ios": "https://dc.lft.to/lastmile_qr_scan"}, "fusion_lat": 0.0, "lat": 39.089020833333336, "is_disabled": 0, "lon": -77.178487, "is_reserved": 0}, {"bike_id": "ad0212afa7320ec9b4f7feb8fc0d0213", "fusion_lon": 0.0, "type": "electric_scooter", "name": "ad0212afa7320ec9b4f7feb8fc0d0213", "rental_uris": {"android": "https://dc.lft.to/lastmile_qr_scan", "ios": "https://dc.lft.to/lastmile_qr_scan"}, "fusion_lat": 0.0, "lat": 38.9507185, "is_disabled": 0, "lon": -77.06534366666666, "is_reserved": 0}, {"bike_id": "225bde5f7daab424edfac1391b120825", "fusion_lon": 0.0, "type": "electric_scooter", "name": "225bde5f7daab424edfac1391b120825", "rental_uris": {"android": "https://dc.lft.to/lastmile_qr_scan", "ios": "https://dc.lft.to/lastmile_qr_scan"}, "fusion_lat": 0.0, "lat": 38.86677316666667, "is_disabled": 0, "lon": -76.98879033333333, "is_reserved": 0}, {"bike_id": "a69fbf51ccffa4342d37ca92df323bdd", "fusion_lon": 0.0, "type": "electric_scooter", "name": "a69fbf51ccffa4342d37ca92df323bdd", "rental_uris": {"android": "https://dc.lft.to/lastmile_qr_scan", "ios": "https://dc.lft.to/lastmile_qr_scan"}, "fusion_lat": 0.0, "lat": 38.94569966666667, "is_disabled": 0, "lon": -77.03455116666666, "is_reserved": 0}, {"bike_id": "60aa855490271ab92941c066efedcbfe", "fusion_lon": 0.0, "type": "electric_scooter", "name": "60aa855490271ab92941c066efedcbfe", "rental_uris": {"android": "https://dc.lft.to/lastmile_qr_scan", "ios": "https://dc.lft.to/lastmile_qr_scan"}, "fusion_lat": 0.0, "lat": 38.88605366666667, "is_disabled": 0, "lon": -76.99456366666666, "is_reserved": 0}, {"bike_id": "91acdc7b8a5d0d7a6aa1007f1b140ca3", "fusion_lon": 0.0, "type": "electric_scooter", "name": "91acdc7b8a5d0d7a6aa1007f1b140ca3", "rental_uris": {"android": "https://dc.lft.to/lastmile_qr_scan", "ios": "https://dc.lft.to/lastmile_qr_scan"}, "fusion_lat": 0.0, "lat": 38.94092333333333, "is_disabled": 0, "lon": -77.02522616666667, "is_reserved": 0}, {"bike_id": "b160c86843dc56b2ba74345f2241f4a5", "fusion_lon": 0.0, "type": "electric_scooter", "name": "b160c86843dc56b2ba74345f2241f4a5", "rental_uris": {"android": "https://dc.lft.to/lastmile_qr_scan", "ios": "https://dc.lft.to/lastmile_qr_scan"}, "fusion_lat": 0.0, "lat": 38.915540666666665, "is_disabled": 0, "lon": -77.0232835, "is_reserved": 0}, {"bike_id": "1175c2db1477be7fd6df7f57b9c92150", "fusion_lon": 0.0, "type": "electric_bike", "name": "1175c2db1477be7fd6df7f57b9c92150", "rental_uris": {"android": "https://dc.lft.to/lastmile_qr_scan", "ios": "https://dc.lft.to/lastmile_qr_scan"}, "fusion_lat": 0.0, "lat": 38.856193833333336, "is_disabled": 0, "lon": -77.08539716666667, "is_reserved": 0}, {"bike_id": "3c81f6d24442c7c171cd83cff630355a", "fusion_lon": 0.0, "type": "electric_scooter", "name": "3c81f6d24442c7c171cd83cff630355a", "rental_uris": {"android": "https://dc.lft.to/lastmile_qr_scan", "ios": "https://dc.lft.to/lastmile_qr_scan"}, "fusion_lat": 0.0, "lat": 38.885121166666664, "is_disabled": 0, "lon": -77.03343766666667, "is_reserved": 0}, {"bike_id": "bab92457e79f8005998d6a4d576209d7", "fusion_lon": 0.0, "type": "electric_bike", "name": "bab92457e79f8005998d6a4d576209d7", "rental_uris": {"android": "https://dc.lft.to/lastmile_qr_scan", "ios": "https://dc.lft.to/lastmile_qr_scan"}, "fusion_lat": 0.0, "lat": 38.962194, "is_disabled": 0, "lon": -77.02629216666666, "is_reserved": 0}, {"bike_id": "4fa3e28757a8b2d89ee3fb777567324c", "fusion_lon": 0.0, "type": "electric_scooter", "name": "4fa3e28757a8b2d89ee3fb777567324c", "rental_uris": {"android": "https://dc.lft.to/lastmile_qr_scan", "ios": "https://dc.lft.to/lastmile_qr_scan"}, "fusion_lat": 0.0, "lat": 38.892345166666665, "is_disabled": 0, "lon": -77.050033, "is_reserved": 0}, {"bike_id": "8142e058784f211e216b2f66c021a204", "fusion_lon": 0.0, "type": "electric_scooter", "name": "8142e058784f211e216b2f66c021a204", "rental_uris": {"android": "https://dc.lft.to/lastmile_qr_scan", "ios": "https://dc.lft.to/lastmile_qr_scan"}, "fusion_lat": 0.0, "lat": 38.91403416666667, "is_disabled": 0, "lon": -77.04172783333334, "is_reserved": 0}, {"bike_id": "87251fbb8a841ebb09f7fac62bea9c81", "fusion_lon": 0.0, "type": "electric_scooter", "name": "87251fbb8a841ebb09f7fac62bea9c81", "rental_uris": {"android": "https://dc.lft.to/lastmile_qr_scan", "ios": "https://dc.lft.to/lastmile_qr_scan"}, "fusion_lat": 0.0, "lat": 38.93038966666667, "is_disabled": 0, "lon": -77.032992, "is_reserved": 0}, {"bike_id": "8afb057d867885e565f42b344077c833", "fusion_lon": 0.0, "type": "electric_scooter", "name": "8afb057d867885e565f42b344077c833", "rental_uris": {"android": "https://dc.lft.to/lastmile_qr_scan", "ios": "https://dc.lft.to/lastmile_qr_scan"}, "fusion_lat": 0.0, "lat": 38.9499795, "is_disabled": 0, "lon": -77.01845116666667, "is_reserved": 0}, {"bike_id": "a7bffd6ce7be0a8fa3d150783bf0ac79", "fusion_lon": 0.0, "type": "electric_scooter", "name": "a7bffd6ce7be0a8fa3d150783bf0ac79", "rental_uris": {"android": "https://dc.lft.to/lastmile_qr_scan", "ios": "https://dc.lft.to/lastmile_qr_scan"}, "fusion_lat": 0.0, "lat": 38.9395675, "is_disabled": 0, "lon": -77.02494666666666, "is_reserved": 0}, {"bike_id": "b35beae9eb17ddfae73671e801b97216", "fusion_lon": 0.0, "type": "electric_scooter", "name": "b35beae9eb17ddfae73671e801b97216", "rental_uris": {"android": "https://dc.lft.to/lastmile_qr_scan", "ios": "https://dc.lft.to/lastmile_qr_scan"}, "fusion_lat": 0.0, "lat": 38.92874583333333, "is_disabled": 0, "lon": -77.02820016666666, "is_reserved": 0}, {"bike_id": "6bd0cc6390321490f43bfd4008e29b6b", "fusion_lon": 0.0, "type": "electric_scooter", "name": "6bd0cc6390321490f43bfd4008e29b6b", "rental_uris": {"android": "https://dc.lft.to/lastmile_qr_scan", "ios": "https://dc.lft.to/lastmile_qr_scan"}, "fusion_lat": 0.0, "lat": 38.95528916666667, "is_disabled": 0, "lon": -77.00741266666667, "is_reserved": 0}, {"bike_id": "fe27c6ddfa158922ce04dabd07afbad5", "fusion_lon": 0.0, "type": "electric_scooter", "name": "fe27c6ddfa158922ce04dabd07afbad5", "rental_uris": {"android": "https://dc.lft.to/lastmile_qr_scan", "ios": "https://dc.lft.to/lastmile_qr_scan"}, "fusion_lat": 0.0, "lat": 38.924204333333336, "is_disabled": 0, "lon": -77.02008366666666, "is_reserved": 0}, {"bike_id": "67777de2ffeceb1bd33845685c521038", "fusion_lon": 0.0, "type": "electric_scooter", "name": "67777de2ffeceb1bd33845685c521038", "rental_uris": {"android": "https://dc.lft.to/lastmile_qr_scan", "ios": "https://dc.lft.to/lastmile_qr_scan"}, "fusion_lat": 0.0, "lat": 38.95220283333333, "is_disabled": 0, "lon": -77.06775433333334, "is_reserved": 0}, {"bike_id": "c3e132db972b6ac36768324ff3a14e37", "fusion_lon": 0.0, "type": "electric_bike", "name": "c3e132db972b6ac36768324ff3a14e37", "rental_uris": {"android": "https://dc.lft.to/lastmile_qr_scan", "ios": "https://dc.lft.to/lastmile_qr_scan"}, "fusion_lat": 0.0, "lat": 38.994589, "is_disabled": 0, "lon": -76.90815933333333, "is_reserved": 0}, {"bike_id": "f133e78c6fba99853f348c5832e8a894", "fusion_lon": 0.0, "type": "electric_scooter", "name": "f133e78c6fba99853f348c5832e8a894", "rental_uris": {"android": "https://dc.lft.to/lastmile_qr_scan", "ios": "https://dc.lft.to/lastmile_qr_scan"}, "fusion_lat": 0.0, "lat": 38.90635416666667, "is_disabled": 0, "lon": -77.00042366666666, "is_reserved": 0}, {"bike_id": "8be51e2409804f8da8c817cdd05325c3", "fusion_lon": 0.0, "type": "electric_scooter", "name": "8be51e2409804f8da8c817cdd05325c3", "rental_uris": {"android": "https://dc.lft.to/lastmile_qr_scan", "ios": "https://dc.lft.to/lastmile_qr_scan"}, "fusion_lat": 0.0, "lat": 38.914068666666665, "is_disabled": 0, "lon": -77.0418445, "is_reserved": 0}, {"bike_id": "f489ac63cec8562dc194f8b672a506af", "fusion_lon": 0.0, "type": "electric_scooter", "name": "f489ac63cec8562dc194f8b672a506af", "rental_uris": {"android": "https://dc.lft.to/lastmile_qr_scan", "ios": "https://dc.lft.to/lastmile_qr_scan"}, "fusion_lat": 0.0, "lat": 38.91335466666666, "is_disabled": 0, "lon": -77.04822616666667, "is_reserved": 0}, {"bike_id": "bb7a56f943e8b1912083404c0853ac05", "fusion_lon": 0.0, "type": "electric_bike", "name": "bb7a56f943e8b1912083404c0853ac05", "rental_uris": {"android": "https://dc.lft.to/lastmile_qr_scan", "ios": "https://dc.lft.to/lastmile_qr_scan"}, "fusion_lat": 0.0, "lat": 38.9266105, "is_disabled": 0, "lon": -77.023749, "is_reserved": 0}, {"bike_id": "9e4e9ceedec3dc2b58e2f0e002bdada6", "fusion_lon": 0.0, "type": "electric_scooter", "name": "9e4e9ceedec3dc2b58e2f0e002bdada6", "rental_uris": {"android": "https://dc.lft.to/lastmile_qr_scan", "ios": "https://dc.lft.to/lastmile_qr_scan"}, "fusion_lat": 0.0, "lat": 38.93369766666667, "is_disabled": 0, "lon": -77.05733, "is_reserved": 0}, {"bike_id": "90636e5cdeb0abf5edd5e3b1401e1523", "fusion_lon": 0.0, "type": "electric_bike", "name": "90636e5cdeb0abf5edd5e3b1401e1523", "rental_uris": {"android": "https://dc.lft.to/lastmile_qr_scan", "ios": "https://dc.lft.to/lastmile_qr_scan"}, "fusion_lat": 0.0, "lat": 38.8801275, "is_disabled": 0, "lon": -76.91597233333333, "is_reserved": 0}, {"bike_id": "554b9e4d032e2b431a6f0487427c9895", "fusion_lon": 0.0, "type": "electric_scooter", "name": "554b9e4d032e2b431a6f0487427c9895", "rental_uris": {"android": "https://dc.lft.to/lastmile_qr_scan", "ios": "https://dc.lft.to/lastmile_qr_scan"}, "fusion_lat": 0.0, "lat": 38.90325133333333, "is_disabled": 0, "lon": -77.021439, "is_reserved": 0}, {"bike_id": "7a6aef1c992d44693b61626a933a8c90", "fusion_lon": 0.0, "type": "electric_bike", "name": "7a6aef1c992d44693b61626a933a8c90", "rental_uris": {"android": "https://dc.lft.to/lastmile_qr_scan", "ios": "https://dc.lft.to/lastmile_qr_scan"}, "fusion_lat": 0.0, "lat": 38.845391, "is_disabled": 0, "lon": -76.987824, "is_reserved": 0}, {"bike_id": "ca07fac477c9635b7d75bc14026d198b", "fusion_lon": 0.0, "type": "electric_scooter", "name": "ca07fac477c9635b7d75bc14026d198b", "rental_uris": {"android": "https://dc.lft.to/lastmile_qr_scan", "ios": "https://dc.lft.to/lastmile_qr_scan"}, "fusion_lat": 0.0, "lat": 38.914080166666665, "is_disabled": 0, "lon": -77.03267366666667, "is_reserved": 0}, {"bike_id": "d0c433468189dfbd2425ed08e34eeb4a", "fusion_lon": 0.0, "type": "electric_scooter", "name": "d0c433468189dfbd2425ed08e34eeb4a", "rental_uris": {"android": "https://dc.lft.to/lastmile_qr_scan", "ios": "https://dc.lft.to/lastmile_qr_scan"}, "fusion_lat": 0.0, "lat": 38.92987766666667, "is_disabled": 0, "lon": -77.03191666666666, "is_reserved": 0}, {"bike_id": "21fd7cc94c72d96b53ca35a927bef9c5", "fusion_lon": 0.0, "type": "electric_scooter", "name": "21fd7cc94c72d96b53ca35a927bef9c5", "rental_uris": {"android": "https://dc.lft.to/lastmile_qr_scan", "ios": "https://dc.lft.to/lastmile_qr_scan"}, "fusion_lat": 0.0, "lat": 38.90723583333333, "is_disabled": 0, "lon": -77.0352655, "is_reserved": 0}, {"bike_id": "2b94308ca0cf9fe7e266a364da6a7820", "fusion_lon": 0.0, "type": "electric_scooter", "name": "2b94308ca0cf9fe7e266a364da6a7820", "rental_uris": {"android": "https://dc.lft.to/lastmile_qr_scan", "ios": "https://dc.lft.to/lastmile_qr_scan"}, "fusion_lat": 0.0, "lat": 38.9347925, "is_disabled": 0, "lon": -77.06531633333333, "is_reserved": 0}, {"bike_id": "311ca569c0cfe1f165748e06f1d29545", "fusion_lon": 0.0, "type": "electric_scooter", "name": "311ca569c0cfe1f165748e06f1d29545", "rental_uris": {"android": "https://dc.lft.to/lastmile_qr_scan", "ios": "https://dc.lft.to/lastmile_qr_scan"}, "fusion_lat": 0.0, "lat": 38.906869666666665, "is_disabled": 0, "lon": -77.06344916666667, "is_reserved": 0}, {"bike_id": "d24df3dee68d72c3899342700349c8e8", "fusion_lon": 0.0, "type": "electric_scooter", "name": "d24df3dee68d72c3899342700349c8e8", "rental_uris": {"android": "https://dc.lft.to/lastmile_qr_scan", "ios": "https://dc.lft.to/lastmile_qr_scan"}, "fusion_lat": 0.0, "lat": 38.9290195, "is_disabled": 0, "lon": -76.984712, "is_reserved": 0}, {"bike_id": "1bef9a506384b0f1c01b8b1d6652b35b", "fusion_lon": 0.0, "type": "electric_scooter", "name": "1bef9a506384b0f1c01b8b1d6652b35b", "rental_uris": {"android": "https://dc.lft.to/lastmile_qr_scan", "ios": "https://dc.lft.to/lastmile_qr_scan"}, "fusion_lat": 0.0, "lat": 38.90469616666667, "is_disabled": 0, "lon": -77.0348095, "is_reserved": 0}, {"bike_id": "7288666af12ce3a94f44d76c8f5a57be", "fusion_lon": 0.0, "type": "electric_scooter", "name": "7288666af12ce3a94f44d76c8f5a57be", "rental_uris": {"android": "https://dc.lft.to/lastmile_qr_scan", "ios": "https://dc.lft.to/lastmile_qr_scan"}, "fusion_lat": 0.0, "lat": 38.89080416666667, "is_disabled": 0, "lon": -76.91923433333334, "is_reserved": 0}, {"bike_id": "59cce5af78955d900c33935430eb46ef", "fusion_lon": 0.0, "type": "electric_scooter", "name": "59cce5af78955d900c33935430eb46ef", "rental_uris": {"android": "https://dc.lft.to/lastmile_qr_scan", "ios": "https://dc.lft.to/lastmile_qr_scan"}, "fusion_lat": 0.0, "lat": 38.934268, "is_disabled": 0, "lon": -77.0440565, "is_reserved": 0}, {"bike_id": "a6f16ffd2479431ba80b24b5d7926c21", "fusion_lon": 0.0, "type": "electric_scooter", "name": "a6f16ffd2479431ba80b24b5d7926c21", "rental_uris": {"android": "https://dc.lft.to/lastmile_qr_scan", "ios": "https://dc.lft.to/lastmile_qr_scan"}, "fusion_lat": 0.0, "lat": 38.9057055, "is_disabled": 0, "lon": -77.030605, "is_reserved": 0}, {"bike_id": "61583b8b812a58cc58fded8ac2895f28", "fusion_lon": 0.0, "type": "electric_bike", "name": "61583b8b812a58cc58fded8ac2895f28", "rental_uris": {"android": "https://dc.lft.to/lastmile_qr_scan", "ios": "https://dc.lft.to/lastmile_qr_scan"}, "fusion_lat": 0.0, "lat": 38.89804683333333, "is_disabled": 0, "lon": -77.00591433333334, "is_reserved": 0}, {"bike_id": "acd6589925ee35d0a22b7e99e708bb44", "fusion_lon": 0.0, "type": "electric_scooter", "name": "acd6589925ee35d0a22b7e99e708bb44", "rental_uris": {"android": "https://dc.lft.to/lastmile_qr_scan", "ios": "https://dc.lft.to/lastmile_qr_scan"}, "fusion_lat": 0.0, "lat": 38.92064, "is_disabled": 0, "lon": -77.03826333333333, "is_reserved": 0}, {"bike_id": "6db929edcaa348562554efc2c61cea56", "fusion_lon": 0.0, "type": "electric_scooter", "name": "6db929edcaa348562554efc2c61cea56", "rental_uris": {"android": "https://dc.lft.to/lastmile_qr_scan", "ios": "https://dc.lft.to/lastmile_qr_scan"}, "fusion_lat": 0.0, "lat": 38.921573, "is_disabled": 0, "lon": -77.04708, "is_reserved": 0}, {"bike_id": "36e4a23e5560265ff053d3e6772eb9a4", "fusion_lon": 0.0, "type": "electric_bike", "name": "36e4a23e5560265ff053d3e6772eb9a4", "rental_uris": {"android": "https://dc.lft.to/lastmile_qr_scan", "ios": "https://dc.lft.to/lastmile_qr_scan"}, "fusion_lat": 0.0, "lat": 38.90317133333333, "is_disabled": 0, "lon": -76.99131516666667, "is_reserved": 0}, {"bike_id": "40599fd056a71b1d01111e7bd309143f", "fusion_lon": 0.0, "type": "electric_scooter", "name": "40599fd056a71b1d01111e7bd309143f", "rental_uris": {"android": "https://dc.lft.to/lastmile_qr_scan", "ios": "https://dc.lft.to/lastmile_qr_scan"}, "fusion_lat": 0.0, "lat": 38.94038483333333, "is_disabled": 0, "lon": -77.02958266666667, "is_reserved": 0}, {"bike_id": "64c5f30b0827c2a790ddce99234f8043", "fusion_lon": 0.0, "type": "electric_bike", "name": "64c5f30b0827c2a790ddce99234f8043", "rental_uris": {"android": "https://dc.lft.to/lastmile_qr_scan", "ios": "https://dc.lft.to/lastmile_qr_scan"}, "fusion_lat": 0.0, "lat": 38.95086333333333, "is_disabled": 0, "lon": -77.01225866666667, "is_reserved": 0}, {"bike_id": "f0f393c57fbd5c15c70f73c7110bf954", "fusion_lon": 0.0, "type": "electric_scooter", "name": "f0f393c57fbd5c15c70f73c7110bf954", "rental_uris": {"android": "https://dc.lft.to/lastmile_qr_scan", "ios": "https://dc.lft.to/lastmile_qr_scan"}, "fusion_lat": 0.0, "lat": 38.90085366666667, "is_disabled": 0, "lon": -77.04824066666667, "is_reserved": 0}, {"bike_id": "1f99adb98360be6fedee28712449a90a", "fusion_lon": 0.0, "type": "electric_scooter", "name": "1f99adb98360be6fedee28712449a90a", "rental_uris": {"android": "https://dc.lft.to/lastmile_qr_scan", "ios": "https://dc.lft.to/lastmile_qr_scan"}, "fusion_lat": 0.0, "lat": 38.87675016666667, "is_disabled": 0, "lon": -77.01590116666667, "is_reserved": 0}, {"bike_id": "547a0cfe35bf47644e15e98630f6b60d", "fusion_lon": 0.0, "type": "electric_scooter", "name": "547a0cfe35bf47644e15e98630f6b60d", "rental_uris": {"android": "https://dc.lft.to/lastmile_qr_scan", "ios": "https://dc.lft.to/lastmile_qr_scan"}, "fusion_lat": 0.0, "lat": 38.91109983333333, "is_disabled": 0, "lon": -77.0449915, "is_reserved": 0}, {"bike_id": "e2cb6a9e58c137185b54069ce03514d3", "fusion_lon": 0.0, "type": "electric_scooter", "name": "e2cb6a9e58c137185b54069ce03514d3", "rental_uris": {"android": "https://dc.lft.to/lastmile_qr_scan", "ios": "https://dc.lft.to/lastmile_qr_scan"}, "fusion_lat": 0.0, "lat": 38.92259716666667, "is_disabled": 0, "lon": -77.03072433333334, "is_reserved": 0}, {"bike_id": "7dee2c0b2d76d6a03442e1a36e1b03d8", "fusion_lon": 0.0, "type": "electric_scooter", "name": "7dee2c0b2d76d6a03442e1a36e1b03d8", "rental_uris": {"android": "https://dc.lft.to/lastmile_qr_scan", "ios": "https://dc.lft.to/lastmile_qr_scan"}, "fusion_lat": 0.0, "lat": 38.904024166666666, "is_disabled": 0, "lon": -77.03369316666667, "is_reserved": 0}, {"bike_id": "171334c20294f0c072c724d1a4a02134", "fusion_lon": 0.0, "type": "electric_scooter", "name": "171334c20294f0c072c724d1a4a02134", "rental_uris": {"android": "https://dc.lft.to/lastmile_qr_scan", "ios": "https://dc.lft.to/lastmile_qr_scan"}, "fusion_lat": 0.0, "lat": 38.879176, "is_disabled": 0, "lon": -77.02360266666666, "is_reserved": 0}, {"bike_id": "52ea9cea29ecb798423a5bd45bf15c59", "fusion_lon": 0.0, "type": "electric_scooter", "name": "52ea9cea29ecb798423a5bd45bf15c59", "rental_uris": {"android": "https://dc.lft.to/lastmile_qr_scan", "ios": "https://dc.lft.to/lastmile_qr_scan"}, "fusion_lat": 0.0, "lat": 38.900044333333334, "is_disabled": 0, "lon": -76.9841315, "is_reserved": 0}, {"bike_id": "7688bf8e60ce8a6921b8f33462e6a1dd", "fusion_lon": 0.0, "type": "electric_scooter", "name": "7688bf8e60ce8a6921b8f33462e6a1dd", "rental_uris": {"android": "https://dc.lft.to/lastmile_qr_scan", "ios": "https://dc.lft.to/lastmile_qr_scan"}, "fusion_lat": 0.0, "lat": 38.91926733333333, "is_disabled": 0, "lon": -77.03134666666666, "is_reserved": 0}, {"bike_id": "df7fd682ed3f8d6b8022ec569f4bbb27", "fusion_lon": 0.0, "type": "electric_scooter", "name": "df7fd682ed3f8d6b8022ec569f4bbb27", "rental_uris": {"android": "https://dc.lft.to/lastmile_qr_scan", "ios": "https://dc.lft.to/lastmile_qr_scan"}, "fusion_lat": 0.0, "lat": 38.879249333333334, "is_disabled": 0, "lon": -76.99169916666666, "is_reserved": 0}, {"bike_id": "6c0a3e323292656cb017322c369b1cde", "fusion_lon": 0.0, "type": "electric_scooter", "name": "6c0a3e323292656cb017322c369b1cde", "rental_uris": {"android": "https://dc.lft.to/lastmile_qr_scan", "ios": "https://dc.lft.to/lastmile_qr_scan"}, "fusion_lat": 0.0, "lat": 38.90755866666667, "is_disabled": 0, "lon": -76.99879166666666, "is_reserved": 0}, {"bike_id": "4ad4ea787e22769b4f7f6edda0c799a3", "fusion_lon": 0.0, "type": "electric_scooter", "name": "4ad4ea787e22769b4f7f6edda0c799a3", "rental_uris": {"android": "https://dc.lft.to/lastmile_qr_scan", "ios": "https://dc.lft.to/lastmile_qr_scan"}, "fusion_lat": 0.0, "lat": 38.91848983333333, "is_disabled": 0, "lon": -76.96566, "is_reserved": 0}, {"bike_id": "380d5382d9facdd8251a25e4bc93e214", "fusion_lon": 0.0, "type": "electric_scooter", "name": "380d5382d9facdd8251a25e4bc93e214", "rental_uris": {"android": "https://dc.lft.to/lastmile_qr_scan", "ios": "https://dc.lft.to/lastmile_qr_scan"}, "fusion_lat": 0.0, "lat": 38.921563166666665, "is_disabled": 0, "lon": -77.033892, "is_reserved": 0}, {"bike_id": "5730103a7987faf39d142aab4d9dfd27", "fusion_lon": 0.0, "type": "electric_scooter", "name": "5730103a7987faf39d142aab4d9dfd27", "rental_uris": {"android": "https://dc.lft.to/lastmile_qr_scan", "ios": "https://dc.lft.to/lastmile_qr_scan"}, "fusion_lat": 0.0, "lat": 38.9047155, "is_disabled": 0, "lon": -77.03482516666666, "is_reserved": 0}, {"bike_id": "d7221fbd3edd47787b43fef8b3081150", "fusion_lon": 0.0, "type": "electric_scooter", "name": "d7221fbd3edd47787b43fef8b3081150", "rental_uris": {"android": "https://dc.lft.to/lastmile_qr_scan", "ios": "https://dc.lft.to/lastmile_qr_scan"}, "fusion_lat": 0.0, "lat": 38.908726, "is_disabled": 0, "lon": -77.04337883333334, "is_reserved": 0}, {"bike_id": "3da30cdeb38ff208a859f4e3c786be00", "fusion_lon": 0.0, "type": "electric_bike", "name": "3da30cdeb38ff208a859f4e3c786be00", "rental_uris": {"android": "https://dc.lft.to/lastmile_qr_scan", "ios": "https://dc.lft.to/lastmile_qr_scan"}, "fusion_lat": 0.0, "lat": 38.973896333333336, "is_disabled": 0, "lon": -77.06474983333334, "is_reserved": 0}, {"bike_id": "b58ec4087510dd8d67c9613a5ec5b4c6", "fusion_lon": 0.0, "type": "electric_scooter", "name": "b58ec4087510dd8d67c9613a5ec5b4c6", "rental_uris": {"android": "https://dc.lft.to/lastmile_qr_scan", "ios": "https://dc.lft.to/lastmile_qr_scan"}, "fusion_lat": 0.0, "lat": 38.90262166666667, "is_disabled": 0, "lon": -77.0264585, "is_reserved": 0}, {"bike_id": "7cad324cedf31961161bd1f1e5208bef", "fusion_lon": 0.0, "type": "electric_scooter", "name": "7cad324cedf31961161bd1f1e5208bef", "rental_uris": {"android": "https://dc.lft.to/lastmile_qr_scan", "ios": "https://dc.lft.to/lastmile_qr_scan"}, "fusion_lat": 0.0, "lat": 38.89239416666667, "is_disabled": 0, "lon": -77.0280345, "is_reserved": 0}, {"bike_id": "160be1127b209232af040f52558689fc", "fusion_lon": 0.0, "type": "electric_scooter", "name": "160be1127b209232af040f52558689fc", "rental_uris": {"android": "https://dc.lft.to/lastmile_qr_scan", "ios": "https://dc.lft.to/lastmile_qr_scan"}, "fusion_lat": 0.0, "lat": 38.91638833333333, "is_disabled": 0, "lon": -77.03203816666667, "is_reserved": 0}, {"bike_id": "5827db77c5ea822c6b77f4a50b82ef35", "fusion_lon": 0.0, "type": "electric_bike", "name": "5827db77c5ea822c6b77f4a50b82ef35", "rental_uris": {"android": "https://dc.lft.to/lastmile_qr_scan", "ios": "https://dc.lft.to/lastmile_qr_scan"}, "fusion_lat": 0.0, "lat": 38.9353965, "is_disabled": 0, "lon": -77.05213916666666, "is_reserved": 0}, {"bike_id": "c15f672bf402336c9c8cf8b8cb8f3adb", "fusion_lon": 0.0, "type": "electric_scooter", "name": "c15f672bf402336c9c8cf8b8cb8f3adb", "rental_uris": {"android": "https://dc.lft.to/lastmile_qr_scan", "ios": "https://dc.lft.to/lastmile_qr_scan"}, "fusion_lat": 0.0, "lat": 38.887441833333334, "is_disabled": 0, "lon": -77.02828366666667, "is_reserved": 0}, {"bike_id": "33fb4e9b7f789e97f6e73c3a8b7bdfe0", "fusion_lon": 0.0, "type": "electric_scooter", "name": "33fb4e9b7f789e97f6e73c3a8b7bdfe0", "rental_uris": {"android": "https://dc.lft.to/lastmile_qr_scan", "ios": "https://dc.lft.to/lastmile_qr_scan"}, "fusion_lat": 0.0, "lat": 38.939785666666666, "is_disabled": 0, "lon": -77.0271345, "is_reserved": 0}, {"bike_id": "07c3c44c532e5bee41458ab9f58dff5a", "fusion_lon": 0.0, "type": "electric_scooter", "name": "07c3c44c532e5bee41458ab9f58dff5a", "rental_uris": {"android": "https://dc.lft.to/lastmile_qr_scan", "ios": "https://dc.lft.to/lastmile_qr_scan"}, "fusion_lat": 0.0, "lat": 38.92000633333333, "is_disabled": 0, "lon": -77.07188866666667, "is_reserved": 0}, {"bike_id": "5f580b807f30e8286ee455e9990687de", "fusion_lon": 0.0, "type": "electric_scooter", "name": "5f580b807f30e8286ee455e9990687de", "rental_uris": {"android": "https://dc.lft.to/lastmile_qr_scan", "ios": "https://dc.lft.to/lastmile_qr_scan"}, "fusion_lat": 0.0, "lat": 38.93595833333333, "is_disabled": 0, "lon": -77.03522683333334, "is_reserved": 0}, {"bike_id": "37c92bd040344c113aafed40ec2cce20", "fusion_lon": 0.0, "type": "electric_scooter", "name": "37c92bd040344c113aafed40ec2cce20", "rental_uris": {"android": "https://dc.lft.to/lastmile_qr_scan", "ios": "https://dc.lft.to/lastmile_qr_scan"}, "fusion_lat": 0.0, "lat": 38.9025545, "is_disabled": 0, "lon": -77.02072683333333, "is_reserved": 0}, {"bike_id": "979ee9228625ac78e473237728fd5b42", "fusion_lon": 0.0, "type": "electric_scooter", "name": "979ee9228625ac78e473237728fd5b42", "rental_uris": {"android": "https://dc.lft.to/lastmile_qr_scan", "ios": "https://dc.lft.to/lastmile_qr_scan"}, "fusion_lat": 0.0, "lat": 38.90041, "is_disabled": 0, "lon": -76.993712, "is_reserved": 0}, {"bike_id": "561d383612b4be855d0b1f67ca243c1f", "fusion_lon": 0.0, "type": "electric_scooter", "name": "561d383612b4be855d0b1f67ca243c1f", "rental_uris": {"android": "https://dc.lft.to/lastmile_qr_scan", "ios": "https://dc.lft.to/lastmile_qr_scan"}, "fusion_lat": 0.0, "lat": 38.92982116666667, "is_disabled": 0, "lon": -77.03240383333333, "is_reserved": 0}, {"bike_id": "91d52b29ced9310b8b5e7b4f73bbf132", "fusion_lon": 0.0, "type": "electric_scooter", "name": "91d52b29ced9310b8b5e7b4f73bbf132", "rental_uris": {"android": "https://dc.lft.to/lastmile_qr_scan", "ios": "https://dc.lft.to/lastmile_qr_scan"}, "fusion_lat": 0.0, "lat": 38.853209, "is_disabled": 0, "lon": -76.98007, "is_reserved": 0}, {"bike_id": "464db3ceaec45b81bbeb69fb72ac2236", "fusion_lon": 0.0, "type": "electric_scooter", "name": "464db3ceaec45b81bbeb69fb72ac2236", "rental_uris": {"android": "https://dc.lft.to/lastmile_qr_scan", "ios": "https://dc.lft.to/lastmile_qr_scan"}, "fusion_lat": 0.0, "lat": 38.957125166666664, "is_disabled": 0, "lon": -77.02402716666667, "is_reserved": 0}, {"bike_id": "ff94fe54460b8ac1439b95fa96298321", "fusion_lon": 0.0, "type": "electric_scooter", "name": "ff94fe54460b8ac1439b95fa96298321", "rental_uris": {"android": "https://dc.lft.to/lastmile_qr_scan", "ios": "https://dc.lft.to/lastmile_qr_scan"}, "fusion_lat": 0.0, "lat": 38.8635965, "is_disabled": 0, "lon": -76.99094016666666, "is_reserved": 0}, {"bike_id": "5d21ada792eef15138c31b8adc41eb11", "fusion_lon": 0.0, "type": "electric_scooter", "name": "5d21ada792eef15138c31b8adc41eb11", "rental_uris": {"android": "https://dc.lft.to/lastmile_qr_scan", "ios": "https://dc.lft.to/lastmile_qr_scan"}, "fusion_lat": 0.0, "lat": 38.93867866666667, "is_disabled": 0, "lon": -77.032062, "is_reserved": 0}, {"bike_id": "03a33faf534ac22d4e7528156206dc40", "fusion_lon": 0.0, "type": "electric_scooter", "name": "03a33faf534ac22d4e7528156206dc40", "rental_uris": {"android": "https://dc.lft.to/lastmile_qr_scan", "ios": "https://dc.lft.to/lastmile_qr_scan"}, "fusion_lat": 0.0, "lat": 38.92039666666667, "is_disabled": 0, "lon": -77.0236565, "is_reserved": 0}, {"bike_id": "677dba0a2b20b5dcea6c8dba76e3c86e", "fusion_lon": 0.0, "type": "electric_scooter", "name": "677dba0a2b20b5dcea6c8dba76e3c86e", "rental_uris": {"android": "https://dc.lft.to/lastmile_qr_scan", "ios": "https://dc.lft.to/lastmile_qr_scan"}, "fusion_lat": 0.0, "lat": 38.90754066666667, "is_disabled": 0, "lon": -77.0019875, "is_reserved": 0}, {"bike_id": "661bdfedd6983bf0f36341733a100dc9", "fusion_lon": 0.0, "type": "electric_bike", "name": "661bdfedd6983bf0f36341733a100dc9", "rental_uris": {"android": "https://dc.lft.to/lastmile_qr_scan", "ios": "https://dc.lft.to/lastmile_qr_scan"}, "fusion_lat": 0.0, "lat": 38.93207866666667, "is_disabled": 0, "lon": -77.03724533333333, "is_reserved": 0}, {"bike_id": "95cfb389d1a1b21248a7d5b0b3cb6b8d", "fusion_lon": 0.0, "type": "electric_scooter", "name": "95cfb389d1a1b21248a7d5b0b3cb6b8d", "rental_uris": {"android": "https://dc.lft.to/lastmile_qr_scan", "ios": "https://dc.lft.to/lastmile_qr_scan"}, "fusion_lat": 0.0, "lat": 38.901360333333336, "is_disabled": 0, "lon": -77.0031755, "is_reserved": 0}, {"bike_id": "74df365e374ef21ee2a7ff3d40af3dc1", "fusion_lon": 0.0, "type": "electric_scooter", "name": "74df365e374ef21ee2a7ff3d40af3dc1", "rental_uris": {"android": "https://dc.lft.to/lastmile_qr_scan", "ios": "https://dc.lft.to/lastmile_qr_scan"}, "fusion_lat": 0.0, "lat": 38.902793, "is_disabled": 0, "lon": -77.03665133333334, "is_reserved": 0}, {"bike_id": "edf252408cf903c24a544aec93a2b9ed", "fusion_lon": 0.0, "type": "electric_scooter", "name": "edf252408cf903c24a544aec93a2b9ed", "rental_uris": {"android": "https://dc.lft.to/lastmile_qr_scan", "ios": "https://dc.lft.to/lastmile_qr_scan"}, "fusion_lat": 0.0, "lat": 38.87926, "is_disabled": 0, "lon": -77.0040475, "is_reserved": 0}, {"bike_id": "7dd516970a83996bb3a05006249dbfb7", "fusion_lon": 0.0, "type": "electric_scooter", "name": "7dd516970a83996bb3a05006249dbfb7", "rental_uris": {"android": "https://dc.lft.to/lastmile_qr_scan", "ios": "https://dc.lft.to/lastmile_qr_scan"}, "fusion_lat": 0.0, "lat": 38.880455833333336, "is_disabled": 0, "lon": -76.99951966666667, "is_reserved": 0}, {"bike_id": "8d41e0539bc89fbadae8975ceea1788b", "fusion_lon": 0.0, "type": "electric_bike", "name": "8d41e0539bc89fbadae8975ceea1788b", "rental_uris": {"android": "https://dc.lft.to/lastmile_qr_scan", "ios": "https://dc.lft.to/lastmile_qr_scan"}, "fusion_lat": 0.0, "lat": 38.83937983333333, "is_disabled": 0, "lon": -77.0791295, "is_reserved": 0}, {"bike_id": "fee090de14c780f24fd1815fa3c680f8", "fusion_lon": 0.0, "type": "electric_scooter", "name": "fee090de14c780f24fd1815fa3c680f8", "rental_uris": {"android": "https://dc.lft.to/lastmile_qr_scan", "ios": "https://dc.lft.to/lastmile_qr_scan"}, "fusion_lat": 0.0, "lat": 38.9149125, "is_disabled": 0, "lon": -77.01323833333333, "is_reserved": 0}, {"bike_id": "6cd9f55f39c7e9a71c34ca0132575972", "fusion_lon": 0.0, "type": "electric_scooter", "name": "6cd9f55f39c7e9a71c34ca0132575972", "rental_uris": {"android": "https://dc.lft.to/lastmile_qr_scan", "ios": "https://dc.lft.to/lastmile_qr_scan"}, "fusion_lat": 0.0, "lat": 38.86947816666667, "is_disabled": 0, "lon": -77.00859366666667, "is_reserved": 0}, {"bike_id": "b29a3a3635ea680d590cd15bc8e9ccf5", "fusion_lon": 0.0, "type": "electric_scooter", "name": "b29a3a3635ea680d590cd15bc8e9ccf5", "rental_uris": {"android": "https://dc.lft.to/lastmile_qr_scan", "ios": "https://dc.lft.to/lastmile_qr_scan"}, "fusion_lat": 0.0, "lat": 38.90983283333333, "is_disabled": 0, "lon": -77.0345025, "is_reserved": 0}, {"bike_id": "0a4a613d188e9a75a008456ba9f0eca1", "fusion_lon": 0.0, "type": "electric_scooter", "name": "0a4a613d188e9a75a008456ba9f0eca1", "rental_uris": {"android": "https://dc.lft.to/lastmile_qr_scan", "ios": "https://dc.lft.to/lastmile_qr_scan"}, "fusion_lat": 0.0, "lat": 38.905027, "is_disabled": 0, "lon": -77.029531, "is_reserved": 0},