{"data": {"bikes": [{"fusion_lat": 0.0, "name": "25e00e0fc416c8fc5e085dc962f93a37", "lon": -77.04333666666666, "rental_uris": {"android": "https://dc.lft.to/lastmile_qr_scan", "ios": "https://dc.lft.to/lastmile_qr_scan"}, "fusion_lon": 0.0, "bike_id": "25e00e0fc416c8fc5e085dc962f93a37", "is_disabled": 0, "lat": 38.90136783333333, "is_reserved": 0, "type": "electric_scooter"}, {"fusion_lat": 0.0, "name": "673f5380ce85f67710a4e20b4fc5d601", "lon": -76.98596683333334, "rental_uris": {"android": "https://dc.lft.to/lastmile_qr_scan", "ios": "https://dc.lft.to/lastmile_qr_scan"}, "fusion_lon": 0.0, "bike_id": "673f5380ce85f67710a4e20b4fc5d601", "is_disabled": 0, "lat": 38.86696833333333, "is_reserved": 0, "type": "electric_scooter"}, {"fusion_lat": 0.0, "name": "3766ce7e3e4c639ec353eab2bd9c5d06", "lon": -77.03438033333333, "rental_uris": {"android": "https://dc.lft.to/lastmile_qr_scan", "ios": "https://dc.lft.to/lastmile_qr_scan"}, "fusion_lon": 0.0, "bike_id": "3766ce7e3e4c639ec353eab2bd9c5d06", "is_disabled": 0, "lat": 38.930924, "is_reserved": 0, "type": "electric_scooter"}, {"fusion_lat": 0.0, "name": "f434b354858a8df7deb7109dfd099bd8", "lon": -77.014901, "rental_uris": {"android": "https://dc.lft.to/lastmile_qr_scan", "ios": "https://dc.lft.to/lastmile_qr_scan"}, "fusion_lon": 0.0, "bike_id": "f434b354858a8df7deb7109dfd099bd8", "is_disabled": 0, "lat": 38.89218833333334, "is_reserved": 0, "type": "electric_scooter"}, {"fusion_lat": 0.0, "name": "d032248dad6a81c2d414a5f38625198c", "lon": -77.04330833333333, "rental_uris": {"android": "https://dc.lft.to/lastmile_qr_scan", "ios": "https://dc.lft.to/lastmile_qr_scan"}, "fusion_lon": 0.0, "bike_id": "d032248dad6a81c2d414a5f38625198c", "is_disabled": 0, "lat": 38.9219035, "is_reserved": 0, "type": "electric_scooter"}, {"fusion_lat": 0.0, "name": "f8173a0d723a71778f1bcb20f4444a5d", "lon": -77.03403433333334, "rental_uris": {"android": "https://dc.lft.to/lastmile_qr_scan", "ios": "https://dc.lft.to/lastmile_qr_scan"}, "fusion_lon": 0.0, "bike_id": "f8173a0d723a71778f1bcb20f4444a5d", "is_disabled": 0, "lat": 38.9244145, "is_reserved": 0, "type": "electric_scooter"}, {"fusion_lat": 0.0, "name": "77b3692816887bd82da034cb3292fca5", "lon": -77.03139683333333, "rental_uris": {"android": "https://dc.lft.to/lastmile_qr_scan", "ios": "https://dc.lft.to/lastmile_qr_scan"}, "fusion_lon": 0.0, "bike_id": "77b3692816887bd82da034cb3292fca5", "is_disabled": 0, "lat": 38.9192405, "is_reserved": 0, "type": "electric_scooter"}, {"fusion_lat": 0.0, "name": "f369bdbc806a7f051a342cc1587fccdf", "lon": -77.022029, "rental_uris": {"android": "https://dc.lft.to/lastmile_qr_scan", "ios": "https://dc.lft.to/lastmile_qr_scan"}, "fusion_lon": 0.0, "bike_id": "f369bdbc806a7f051a342cc1587fccdf", "is_disabled": 0, "lat": 38.914105166666666, "is_reserved": 0, "type": "electric_scooter"}, {"fusion_lat": 0.0, "name": "d3de2a8eb4392b45d3d93892dee784c9", "lon": -76.9732985, "rental_uris": {"android": "https://dc.lft.to/lastmile_qr_scan", "ios": "https://dc.lft.to/lastmile_qr_scan"}, "fusion_lon": 0.0, "bike_id": "d3de2a8eb4392b45d3d93892dee784c9", "is_disabled": 0, "lat": 38.904809666666665, "is_reserved": 0, "type": "electric_bike"}, {"fusion_lat": 0.0, "name": "30fe31072cae3a450ea1ec8b8e778769", "lon": -77.0438575, "rental_uris": {"android": "https://dc.lft.to/lastmile_qr_scan", "ios": "https://dc.lft.to/lastmile_qr_scan"}, "fusion_lon": 0.0, "bike_id": "30fe31072cae3a450ea1ec8b8e778769", "is_disabled": 0, "lat": 38.916605, "is_reserved": 0, "type": "electric_scooter"}, {"fusion_lat": 0.0, "name": "5279ceebe9b449d7ffd474e3f8bcd38e", "lon": -76.9302955, "rental_uris": {"android": "https://dc.lft.to/lastmile_qr_scan", "ios": "https://dc.lft.to/lastmile_qr_scan"}, "fusion_lon": 0.0, "bike_id": "5279ceebe9b449d7ffd474e3f8bcd38e", "is_disabled": 0, "lat": 38.9001065, "is_reserved": 0, "type": "electric_scooter"}, {"fusion_lat": 0.0, "name": "6c10a6487738efc00b58b4affb80be56", "lon": -76.99066866666666, "rental_uris": {"android": "https://dc.lft.to/lastmile_qr_scan", "ios": "https://dc.lft.to/lastmile_qr_scan"}, "fusion_lon": 0.0, "bike_id": "6c10a6487738efc00b58b4affb80be56", "is_disabled": 0, "lat": 38.86347716666667, "is_reserved": 0, "type": "electric_scooter"}, {"fusion_lat": 0.0, "name": "d9b10894fe9126b129416e33632ba4e8", "lon": -77.02595616666666, "rental_uris": {"android": "https://dc.lft.to/lastmile_qr_scan", "ios": "https://dc.lft.to/lastmile_qr_scan"}, "fusion_lon": 0.0, "bike_id": "d9b10894fe9126b129416e33632ba4e8", "is_disabled": 0, "lat": 38.905005833333334, "is_reserved": 0, "type": "electric_scooter"}, {"fusion_lat": 0.0, "name": "e43c39770bac52dc13c5be74c9204b65", "lon": -77.02703633333333, "rental_uris": {"android": "https://dc.lft.to/lastmile_qr_scan", "ios": "https://dc.lft.to/lastmile_qr_scan"}, "fusion_lon": 0.0, "bike_id": "e43c39770bac52dc13c5be74c9204b65", "is_disabled": 0, "lat": 38.9498855, "is_reserved": 0, "type": "electric_scooter"}, {"fusion_lat": 0.0, "name": "19c546dc9e6b6ddeb730a9e6f9239b71", "lon": -77.04877033333334, "rental_uris": {"android": "https://dc.lft.to/lastmile_qr_scan", "ios": "https://dc.lft.to/lastmile_qr_scan"}, "fusion_lon": 0.0, "bike_id": "19c546dc9e6b6ddeb730a9e6f9239b71", "is_disabled": 0, "lat": 38.8922935, "is_reserved": 0, "type": "electric_scooter"}, {"fusion_lat": 0.0, "name": "d7b784cb4ecda99d437314927319bb14", "lon": -76.94887733333333, "rental_uris": {"android": "https://dc.lft.to/lastmile_qr_scan", "ios": "https://dc.lft.to/lastmile_qr_scan"}, "fusion_lon": 0.0, "bike_id": "d7b784cb4ecda99d437314927319bb14", "is_disabled": 0, "lat": 38.89508333333333, "is_reserved": 0, "type": "electric_scooter"}, {"fusion_lat": 0.0, "name": "cdd88090b15c0da38b721c6bde4158cb", "lon": -77.01982333333333, "rental_uris": {"android": "https://dc.lft.to/lastmile_qr_scan", "ios": "https://dc.lft.to/lastmile_qr_scan"}, "fusion_lon": 0.0, "bike_id": "cdd88090b15c0da38b721c6bde4158cb", "is_disabled": 0, "lat": 38.886094166666666, "is_reserved": 0, "type": "electric_scooter"}, {"fusion_lat": 0.0, "name": "3cac61aa0252151f441c6eb5f08c3360", "lon": -77.011962, "rental_uris": {"android": "https://dc.lft.to/lastmile_qr_scan", "ios": "https://dc.lft.to/lastmile_qr_scan"}, "fusion_lon": 0.0, "bike_id": "3cac61aa0252151f441c6eb5f08c3360", "is_disabled": 0, "lat": 38.915481, "is_reserved": 0, "type": "electric_scooter"}, {"fusion_lat": 0.0, "name": "5429f801f8b7f927926336a54141c26d", "lon": -77.05891516666667, "rental_uris": {"android": "https://dc.lft.to/lastmile_qr_scan", "ios": "https://dc.lft.to/lastmile_qr_scan"}, "fusion_lon": 0.0, "bike_id": "5429f801f8b7f927926336a54141c26d", "is_disabled": 0, "lat": 38.9360725, "is_reserved": 0, "type": "electric_scooter"}, {"fusion_lat": 0.0, "name": "f81eb3c921c778fc507ff02bf1f30a8b", "lon": -77.02392933333333, "rental_uris": {"android": "https://dc.lft.to/lastmile_qr_scan", "ios": "https://dc.lft.to/lastmile_qr_scan"}, "fusion_lon": 0.0, "bike_id": "f81eb3c921c778fc507ff02bf1f30a8b", "is_disabled": 0, "lat": 38.919552, "is_reserved": 0, "type": "electric_scooter"}, {"fusion_lat": 0.0, "name": "50b527a4c2a3ed25fa95f19eb1be7acd", "lon": -77.00711916666667, "rental_uris": {"android": "https://dc.lft.to/lastmile_qr_scan", "ios": "https://dc.lft.to/lastmile_qr_scan"}, "fusion_lon": 0.0, "bike_id": "50b527a4c2a3ed25fa95f19eb1be7acd", "is_disabled": 0, "lat": 38.95759433333333, "is_reserved": 0, "type": "electric_bike"}, {"fusion_lat": 0.0, "name": "a5d6a98752cd5d083daea40fda444457", "lon": -76.93195283333333, "rental_uris": {"android": "https://dc.lft.to/lastmile_qr_scan", "ios": "https://dc.lft.to/lastmile_qr_scan"}, "fusion_lon": 0.0, "bike_id": "a5d6a98752cd5d083daea40fda444457", "is_disabled": 0, "lat": 38.898784, "is_reserved": 0, "type": "electric_scooter"}, {"fusion_lat": 0.0, "name": "34c12fe99a87c4e33257aa5a827a88c4", "lon": -77.050177, "rental_uris": {"android": "https://dc.lft.to/lastmile_qr_scan", "ios": "https://dc.lft.to/lastmile_qr_scan"}, "fusion_lon": 0.0, "bike_id": "34c12fe99a87c4e33257aa5a827a88c4", "is_disabled": 0, "lat": 38.904068, "is_reserved": 0, "type": "electric_scooter"}, {"fusion_lat": 0.0, "name": "1d76ad6f6c25b84ea329bfeb363d6964", "lon": -76.990024, "rental_uris": {"android": "https://dc.lft.to/lastmile_qr_scan", "ios": "https://dc.lft.to/lastmile_qr_scan"}, "fusion_lon": 0.0, "bike_id": "1d76ad6f6c25b84ea329bfeb363d6964", "is_disabled": 0, "lat": 38.86502, "is_reserved": 0, "type": "electric_scooter"}, {"fusion_lat": 0.0, "name": "6bfad655ceebdde8e7b868d60c5aa783", "lon": -77.0442145, "rental_uris": {"android": "https://dc.lft.to/lastmile_qr_scan", "ios": "https://dc.lft.to/lastmile_qr_scan"}, "fusion_lon": 0.0, "bike_id": "6bfad655ceebdde8e7b868d60c5aa783", "is_disabled": 0, "lat": 38.91128283333333, "is_reserved": 0, "type": "electric_scooter"}, {"fusion_lat": 0.0, "name": "50704a25409da67a246bd25f5102973d", "lon": -76.98230649999999, "rental_uris": {"android": "https://dc.lft.to/lastmile_qr_scan", "ios": "https://dc.lft.to/lastmile_qr_scan"}, "fusion_lon": 0.0, "bike_id": "50704a25409da67a246bd25f5102973d", "is_disabled": 0, "lat": 38.868953833333336, "is_reserved": 0, "type": "electric_scooter"}, {"fusion_lat": 0.0, "name": "1caa9f2e0838d6316adf8c4fca987e1d", "lon": -77.01401983333334, "rental_uris": {"android": "https://dc.lft.to/lastmile_qr_scan", "ios": "https://dc.lft.to/lastmile_qr_scan"}, "fusion_lon": 0.0, "bike_id": "1caa9f2e0838d6316adf8c4fca987e1d", "is_disabled": 0, "lat": 38.92854333333333, "is_reserved": 0, "type": "electric_scooter"}, {"fusion_lat": 0.0, "name": "de57ce6cb9a55173d947de0189d9d6c4", "lon": -77.043785, "rental_uris": {"android": "https://dc.lft.to/lastmile_qr_scan", "ios": "https://dc.lft.to/lastmile_qr_scan"}, "fusion_lon": 0.0, "bike_id": "de57ce6cb9a55173d947de0189d9d6c4", "is_disabled": 0, "lat": 38.89218233333333, "is_reserved": 0, "type": "electric_scooter"}, {"fusion_lat": 0.0, "name": "efb17eac268df32f1cde848a52c38b6f", "lon": -77.04375216666666, "rental_uris": {"android": "https://dc.lft.to/lastmile_qr_scan", "ios": "https://dc.lft.to/lastmile_qr_scan"}, "fusion_lon": 0.0, "bike_id": "efb17eac268df32f1cde848a52c38b6f", "is_disabled": 0, "lat": 38.892189, "is_reserved": 0, "type": "electric_scooter"}, {"fusion_lat": 0.0, "name": "578787bea6d697c538dfbd1c6d60de7c", "lon": -77.04880083333333, "rental_uris": {"android": "https://dc.lft.to/lastmile_qr_scan", "ios": "https://dc.lft.to/lastmile_qr_scan"}, "fusion_lon": 0.0, "bike_id": "578787bea6d697c538dfbd1c6d60de7c", "is_disabled": 0, "lat": 38.9072305, "is_reserved": 0, "type": "electric_scooter"}, {"fusion_lat": 0.0, "name": "01ab95cdde55ce1027e51f3b15064222", "lon": -77.03437166666667, "rental_uris": {"android": "https://dc.lft.to/lastmile_qr_scan", "ios": "https://dc.lft.to/lastmile_qr_scan"}, "fusion_lon": 0.0, "bike_id": "01ab95cdde55ce1027e51f3b15064222", "is_disabled": 0, "lat": 38.918076, "is_reserved": 0, "type": "electric_scooter"}, {"fusion_lat": 0.0, "name": "88debdd5fed070b8264c9013b97d935d", "lon": -77.0334155, "rental_uris": {"android": "https://dc.lft.to/lastmile_qr_scan", "ios": "https://dc.lft.to/lastmile_qr_scan"}, "fusion_lon": 0.0, "bike_id": "88debdd5fed070b8264c9013b97d935d", "is_disabled": 0, "lat": 38.916988, "is_reserved": 0, "type": "electric_scooter"}, {"fusion_lat": 0.0, "name": "825ba707adca8ac6dfc0c175b5139e1e", "lon": -77.04679316666666, "rental_uris": {"android": "https://dc.lft.to/lastmile_qr_scan", "ios": "https://dc.lft.to/lastmile_qr_scan"}, "fusion_lon": 0.0, "bike_id": "825ba707adca8ac6dfc0c175b5139e1e", "is_disabled": 0, "lat": 38.895551833333336, "is_reserved": 0, "type": "electric_scooter"}, {"fusion_lat": 0.0, "name": "02462b99740be1119e61f06779db46cc", "lon": -76.955833, "rental_uris": {"android": "https://dc.lft.to/lastmile_qr_scan", "ios": "https://dc.lft.to/lastmile_qr_scan"}, "fusion_lon": 0.0, "bike_id": "02462b99740be1119e61f06779db46cc", "is_disabled": 0, "lat": 38.96735666666667, "is_reserved": 0, "type": "electric_bike"}, {"fusion_lat": 0.0, "name": "3cf70a851974263c95c7877d5242955c", "lon": -77.01987916666667, "rental_uris": {"android": "https://dc.lft.to/lastmile_qr_scan", "ios": "https://dc.lft.to/lastmile_qr_scan"}, "fusion_lon": 0.0, "bike_id": "3cf70a851974263c95c7877d5242955c", "is_disabled": 0, "lat": 38.960258333333336, "is_reserved": 0, "type": "electric_scooter"}, {"fusion_lat": 0.0, "name": "ccab91147061d9f28ff8d4e649679ba0", "lon": -77.0214505, "rental_uris": {"android": "https://dc.lft.to/lastmile_qr_scan", "ios": "https://dc.lft.to/lastmile_qr_scan"}, "fusion_lon": 0.0, "bike_id": "ccab91147061d9f28ff8d4e649679ba0", "is_disabled": 0, "lat": 38.89504983333333, "is_reserved": 0, "type": "electric_scooter"}, {"fusion_lat": 0.0, "name": "8d23f80babb847d2cda8e9a0b2e06bd7", "lon": -76.9499715, "rental_uris": {"android": "https://dc.lft.to/lastmile_qr_scan", "ios": "https://dc.lft.to/lastmile_qr_scan"}, "fusion_lon": 0.0, "bike_id": "8d23f80babb847d2cda8e9a0b2e06bd7", "is_disabled": 0, "lat": 38.89370016666667, "is_reserved": 0, "type": "electric_scooter"}, {"fusion_lat": 0.0, "name": "9940d818545beb166db5b06374516b9a", "lon": -77.03013833333333, "rental_uris": {"android": "https://dc.lft.to/lastmile_qr_scan", "ios": "https://dc.lft.to/lastmile_qr_scan"}, "fusion_lon": 0.0, "bike_id": "9940d818545beb166db5b06374516b9a", "is_disabled": 0, "lat": 38.911853666666666, "is_reserved": 0, "type": "electric_scooter"}, {"fusion_lat": 0.0, "name": "80e1a9a2dac427ae376ba2606f8c9629", "lon": -77.0340915, "rental_uris": {"android": "https://dc.lft.to/lastmile_qr_scan", "ios": "https://dc.lft.to/lastmile_qr_scan"}, "fusion_lon": 0.0, "bike_id": "80e1a9a2dac427ae376ba2606f8c9629", "is_disabled": 0, "lat": 38.92267483333333, "is_reserved": 0, "type": "electric_scooter"}, {"fusion_lat": 0.0, "name": "27bdbbe9441f0adcedcf78aba44aea70", "lon": -77.0222925, "rental_uris": {"android": "https://dc.lft.to/lastmile_qr_scan", "ios": "https://dc.lft.to/lastmile_qr_scan"}, "fusion_lon": 0.0, "bike_id": "27bdbbe9441f0adcedcf78aba44aea70", "is_disabled": 0, "lat": 38.9354585, "is_reserved": 0, "type": "electric_scooter"}, {"fusion_lat": 0.0, "name": "97a7d502189d2ea79cf2121ef40e9788", "lon": -77.02491466666666, "rental_uris": {"android": "https://dc.lft.to/lastmile_qr_scan", "ios": "https://dc.lft.to/lastmile_qr_scan"}, "fusion_lon": 0.0, "bike_id": "97a7d502189d2ea79cf2121ef40e9788", "is_disabled": 0, "lat": 38.927414666666664, "is_reserved": 0, "type": "electric_scooter"}, {"fusion_lat": 0.0, "name": "dfd2f8ba5d81c662c3c0a76746e573db", "lon": -76.9871425, "rental_uris": {"android": "https://dc.lft.to/lastmile_qr_scan", "ios": "https://dc.lft.to/lastmile_qr_scan"}, "fusion_lon": 0.0, "bike_id": "dfd2f8ba5d81c662c3c0a76746e573db", "is_disabled": 0, "lat": 38.866982166666666, "is_reserved": 0, "type": "electric_scooter"}, {"fusion_lat": 0.0, "name": "5c28b02be9d26558811b64f49d4aea06", "lon": -77.00408566666667, "rental_uris": {"android": "https://dc.lft.to/lastmile_qr_scan", "ios": "https://dc.lft.to/lastmile_qr_scan"}, "fusion_lon": 0.0, "bike_id": "5c28b02be9d26558811b64f49d4aea06", "is_disabled": 0, "lat": 38.930848, "is_reserved": 0, "type": "electric_scooter"}, {"fusion_lat": 0.0, "name": "6d9659e7432f9d409e7ef8a8ff0f85ca", "lon": -77.04350216666667, "rental_uris": {"android": "https://dc.lft.to/lastmile_qr_scan", "ios": "https://dc.lft.to/lastmile_qr_scan"}, "fusion_lon": 0.0, "bike_id": "6d9659e7432f9d409e7ef8a8ff0f85ca", "is_disabled": 0, "lat": 38.90875233333333, "is_reserved": 0, "type": "electric_scooter"}, {"fusion_lat": 0.0, "name": "1523b72199da4f17f273cc04b168f023", "lon": -77.05134116666666, "rental_uris": {"android": "https://dc.lft.to/lastmile_qr_scan", "ios": "https://dc.lft.to/lastmile_qr_scan"}, "fusion_lon": 0.0, "bike_id": "1523b72199da4f17f273cc04b168f023", "is_disabled": 0, "lat": 38.92361366666667, "is_reserved": 0, "type": "electric_scooter"}, {"fusion_lat": 0.0, "name": "1af2abc501bee5713d937711296482ae", "lon": -77.028529, "rental_uris": {"android": "https://dc.lft.to/lastmile_qr_scan", "ios": "https://dc.lft.to/lastmile_qr_scan"}, "fusion_lon": 0.0, "bike_id": "1af2abc501bee5713d937711296482ae", "is_disabled": 0, "lat": 38.934729833333336, "is_reserved": 0, "type": "electric_scooter"}, {"fusion_lat": 0.0, "name": "0e23fa33a61cf1eee2c7f58d7f882d19", "lon": -77.05130783333334, "rental_uris": {"android": "https://dc.lft.to/lastmile_qr_scan", "ios": "https://dc.lft.to/lastmile_qr_scan"}, "fusion_lon": 0.0, "bike_id": "0e23fa33a61cf1eee2c7f58d7f882d19", "is_disabled": 0, "lat": 38.92364666666667, "is_reserved": 0, "type": "electric_scooter"}, {"fusion_lat": 0.0, "name": "f558e83bff05b1ed4532b37485d05d99", "lon": -77.03265416666666, "rental_uris": {"android": "https://dc.lft.to/lastmile_qr_scan", "ios": "https://dc.lft.to/lastmile_qr_scan"}, "fusion_lon": 0.0, "bike_id": "f558e83bff05b1ed4532b37485d05d99", "is_disabled": 0, "lat": 38.932580333333334, "is_reserved": 0, "type": "electric_scooter"}, {"fusion_lat": 0.0, "name": "f0626fd122cd2e5a04cfa6d5b02c358f", "lon": -77.02628683333333, "rental_uris": {"android": "https://dc.lft.to/lastmile_qr_scan", "ios": "https://dc.lft.to/lastmile_qr_scan"}, "fusion_lon": 0.0, "bike_id": "f0626fd122cd2e5a04cfa6d5b02c358f", "is_disabled": 0, "lat": 38.89215316666667, "is_reserved": 0, "type": "electric_scooter"}, {"fusion_lat": 0.0, "name": "cc52b2fa32c73df0c98c37828c8e6a72", "lon": -77.01344366666666, "rental_uris": {"android": "https://dc.lft.to/lastmile_qr_scan", "ios": "https://dc.lft.to/lastmile_qr_scan"}, "fusion_lon": 0.0, "bike_id": "cc52b2fa32c73df0c98c37828c8e6a72", "is_disabled": 0, "lat": 38.878130666666664, "is_reserved": 0, "type": "electric_scooter"}, {"fusion_lat": 0.0, "name": "06ce9115ad3af3e4febb6ea0ea68d785", "lon": -77.02770233333334, "rental_uris": {"android": "https://dc.lft.to/lastmile_qr_scan", "ios": "https://dc.lft.to/lastmile_qr_scan"}, "fusion_lon": 0.0, "bike_id": "06ce9115ad3af3e4febb6ea0ea68d785", "is_disabled": 0, "lat": 38.89197933333333, "is_reserved": 0, "type": "electric_scooter"}, {"fusion_lat": 0.0, "name": "2d59ca1292a693b93c82c1b6ed5bb2b2", "lon": -77.0238155, "rental_uris": {"android": "https://dc.lft.to/lastmile_qr_scan", "ios": "https://dc.lft.to/lastmile_qr_scan"}, "fusion_lon": 0.0, "bike_id": "2d59ca1292a693b93c82c1b6ed5bb2b2", "is_disabled": 0, "lat": 38.903619666666664, "is_reserved": 0, "type": "electric_scooter"}, {"fusion_lat": 0.0, "name": "6a9387625b8b69563e12df3fcfb2ba1e", "lon": -77.0549535, "rental_uris": {"android": "https://dc.lft.to/lastmile_qr_scan", "ios": "https://dc.lft.to/lastmile_qr_scan"}, "fusion_lon": 0.0, "bike_id": "6a9387625b8b69563e12df3fcfb2ba1e", "is_disabled": 0, "lat": 39.01474066666667, "is_reserved": 0, "type": "electric_bike"}, {"fusion_lat": 0.0, "name": "de05867b67e8c9e03ee3530ddd755169", "lon": -76.98197016666667, "rental_uris": {"android": "https://dc.lft.to/lastmile_qr_scan", "ios": "https://dc.lft.to/lastmile_qr_scan"}, "fusion_lon": 0.0, "bike_id": "de05867b67e8c9e03ee3530ddd755169", "is_disabled": 0, "lat": 38.96739083333333, "is_reserved": 0, "type": "electric_bike"}, {"fusion_lat": 0.0, "name": "c7538e3eb8b0fb357a795f84cbfb94d1", "lon": -77.04705366666667, "rental_uris": {"android": "https://dc.lft.to/lastmile_qr_scan", "ios": "https://dc.lft.to/lastmile_qr_scan"}, "fusion_lon": 0.0, "bike_id": "c7538e3eb8b0fb357a795f84cbfb94d1", "is_disabled": 0, "lat": 38.912693, "is_reserved": 0, "type": "electric_scooter"}, {"fusion_lat": 0.0, "name": "55dd72e6fb4384bd837882a115b0aa79", "lon": -77.02710966666666, "rental_uris": {"android": "https://dc.lft.to/lastmile_qr_scan", "ios": "https://dc.lft.to/lastmile_qr_scan"}, "fusion_lon": 0.0, "bike_id": "55dd72e6fb4384bd837882a115b0aa79", "is_disabled": 0, "lat": 38.9065405, "is_reserved": 0, "type": "electric_scooter"}, {"fusion_lat": 0.0, "name": "ca8c1e36f50339e907998df7b48602e5", "lon": -77.03642316666667, "rental_uris": {"android": "https://dc.lft.to/lastmile_qr_scan", "ios": "https://dc.lft.to/lastmile_qr_scan"}, "fusion_lon": 0.0, "bike_id": "ca8c1e36f50339e907998df7b48602e5", "is_disabled": 0, "lat": 38.9227385, "is_reserved": 0, "type": "electric_scooter"}, {"fusion_lat": 0.0, "name": "edb12ceb5f7bd7e284f80f63e01d1f6c", "lon": -76.99737116666667, "rental_uris": {"android": "https://dc.lft.to/lastmile_qr_scan", "ios": "https://dc.lft.to/lastmile_qr_scan"}, "fusion_lon": 0.0, "bike_id": "edb12ceb5f7bd7e284f80f63e01d1f6c", "is_disabled": 0, "lat": 38.88989766666667, "is_reserved": 0, "type": "electric_scooter"}, {"fusion_lat": 0.0, "name": "103980cb17e5463ec31a1cd78ce98369", "lon": -77.02281183333334, "rental_uris": {"android": "https://dc.lft.to/lastmile_qr_scan", "ios": "https://dc.lft.to/lastmile_qr_scan"}, "fusion_lon": 0.0, "bike_id": "103980cb17e5463ec31a1cd78ce98369", "is_disabled": 0, "lat": 38.9078225, "is_reserved": 0, "type": "electric_scooter"}, {"fusion_lat": 0.0, "name": "68954db0b756429a1949a0491ded5be4", "lon": -77.04167033333333, "rental_uris": {"android": "https://dc.lft.to/lastmile_qr_scan", "ios": "https://dc.lft.to/lastmile_qr_scan"}, "fusion_lon": 0.0, "bike_id": "68954db0b756429a1949a0491ded5be4", "is_disabled": 0, "lat": 38.914870666666665, "is_reserved": 0, "type": "electric_scooter"}, {"fusion_lat": 0.0, "name": "eb8cdb5e7c96b7b0d2705bdc97bf3ca0", "lon": -76.98233683333333, "rental_uris": {"android": "https://dc.lft.to/lastmile_qr_scan", "ios": "https://dc.lft.to/lastmile_qr_scan"}, "fusion_lon": 0.0, "bike_id": "eb8cdb5e7c96b7b0d2705bdc97bf3ca0", "is_disabled": 0, "lat": 38.868770166666664, "is_reserved": 0, "type": "electric_scooter"}, {"fusion_lat": 0.0, "name": "ff99b23b274f38c685294540b9095c1e", "lon": -77.00898733333334, "rental_uris": {"android": "https://dc.lft.to/lastmile_qr_scan", "ios": "https://dc.lft.to/lastmile_qr_scan"}, "fusion_lon": 0.0, "bike_id": "ff99b23b274f38c685294540b9095c1e", "is_disabled": 0, "lat": 38.8745845, "is_reserved": 0, "type": "electric_scooter"}, {"fusion_lat": 0.0, "name": "81a33734114fd02e0a02daf27d92e214", "lon": -76.98715483333334, "rental_uris": {"android": "https://dc.lft.to/lastmile_qr_scan", "ios": "https://dc.lft.to/lastmile_qr_scan"}, "fusion_lon": 0.0, "bike_id": "81a33734114fd02e0a02daf27d92e214", "is_disabled": 0, "lat": 38.86697066666667, "is_reserved": 0, "type": "electric_scooter"}, {"fusion_lat": 0.0, "name": "4ac28d08df4617b7e32124f9447fbbf6", "lon": -77.03532133333333, "rental_uris": {"android": "https://dc.lft.to/lastmile_qr_scan", "ios": "https://dc.lft.to/lastmile_qr_scan"}, "fusion_lon": 0.0, "bike_id": "4ac28d08df4617b7e32124f9447fbbf6", "is_disabled": 0, "lat": 38.923926, "is_reserved": 0, "type": "electric_scooter"}, {"fusion_lat": 0.0, "name": "ad4e02ee201d143105847924067bb10f", "lon": -76.96688683333333, "rental_uris": {"android": "https://dc.lft.to/lastmile_qr_scan", "ios": "https://dc.lft.to/lastmile_qr_scan"}, "fusion_lon": 0.0, "bike_id": "ad4e02ee201d143105847924067bb10f", "is_disabled": 0, "lat": 38.94562233333333, "is_reserved": 0, "type": "electric_bike"}, {"fusion_lat": 0.0, "name": "da046e6213d468331abb9e07eb7cb889", "lon": -77.04605833333333, "rental_uris": {"android": "https://dc.lft.to/lastmile_qr_scan", "ios": "https://dc.lft.to/lastmile_qr_scan"}, "fusion_lon": 0.0, "bike_id": "da046e6213d468331abb9e07eb7cb889", "is_disabled": 0, "lat": 38.91534466666667, "is_reserved": 0, "type": "electric_scooter"}, {"fusion_lat": 0.0, "name": "6b8b53cd571bd5982517e84371ce0fec", "lon": -76.99696983333334, "rental_uris": {"android": "https://dc.lft.to/lastmile_qr_scan", "ios": "https://dc.lft.to/lastmile_qr_scan"}, "fusion_lon": 0.0, "bike_id": "6b8b53cd571bd5982517e84371ce0fec", "is_disabled": 0, "lat": 38.90999633333333, "is_reserved": 0, "type": "electric_scooter"}, {"fusion_lat": 0.0, "name": "b07e995d02e96259d7e8129d0b5e6f31", "lon": -77.04334933333334, "rental_uris": {"android": "https://dc.lft.to/lastmile_qr_scan", "ios": "https://dc.lft.to/lastmile_qr_scan"}, "fusion_lon": 0.0, "bike_id": "b07e995d02e96259d7e8129d0b5e6f31", "is_disabled": 0, "lat": 38.892251, "is_reserved": 0, "type": "electric_scooter"}, {"fusion_lat": 0.0, "name": "70a136cc46169990bc1499dc7e10e0a4", "lon": -77.04021683333333, "rental_uris": {"android": "https://dc.lft.to/lastmile_qr_scan", "ios": "https://dc.lft.to/lastmile_qr_scan"}, "fusion_lon": 0.0, "bike_id": "70a136cc46169990bc1499dc7e10e0a4", "is_disabled": 0, "lat": 38.921695166666666, "is_reserved": 0, "type": "electric_scooter"}, {"fusion_lat": 0.0, "name": "f55d7250173b16a2e4c78f8c10333a08", "lon": -77.023281, "rental_uris": {"android": "https://dc.lft.to/lastmile_qr_scan", "ios": "https://dc.lft.to/lastmile_qr_scan"}, "fusion_lon": 0.0, "bike_id": "f55d7250173b16a2e4c78f8c10333a08", "is_disabled": 0, "lat": 38.926612166666665, "is_reserved": 0, "type": "electric_scooter"}, {"fusion_lat": 0.0, "name": "73c4e94a91d4359bec775ee9cb72151c", "lon": -77.02807, "rental_uris": {"android": "https://dc.lft.to/lastmile_qr_scan", "ios": "https://dc.lft.to/lastmile_qr_scan"}, "fusion_lon": 0.0, "bike_id": "73c4e94a91d4359bec775ee9cb72151c", "is_disabled": 0, "lat": 38.9126775, "is_reserved": 0, "type": "electric_scooter"}, {"fusion_lat": 0.0, "name": "ea594a454b6e227e0b63a8a831558f52", "lon": -77.048356, "rental_uris": {"android": "https://dc.lft.to/lastmile_qr_scan", "ios": "https://dc.lft.to/lastmile_qr_scan"}, "fusion_lon": 0.0, "bike_id": "ea594a454b6e227e0b63a8a831558f52", "is_disabled": 0, "lat": 38.916080666666666, "is_reserved": 0, "type": "electric_scooter"}, {"fusion_lat": 0.0, "name": "3b780c6090689bb9c59ea9c2fdba0f63", "lon": -77.0455065, "rental_uris": {"android": "https://dc.lft.to/lastmile_qr_scan", "ios": "https://dc.lft.to/lastmile_qr_scan"}, "fusion_lon": 0.0, "bike_id": "3b780c6090689bb9c59ea9c2fdba0f63", "is_disabled": 0, "lat": 38.9025095, "is_reserved": 0, "type": "electric_scooter"}, {"fusion_lat": 0.0, "name": "1520dc418df000cf0c6dab0f58fe9d2a", "lon": -76.9306195, "rental_uris": {"android": "https://dc.lft.to/lastmile_qr_scan", "ios": "https://dc.lft.to/lastmile_qr_scan"}, "fusion_lon": 0.0, "bike_id": "1520dc418df000cf0c6dab0f58fe9d2a", "is_disabled": 0, "lat": 38.898514666666664, "is_reserved": 0, "type": "electric_scooter"}, {"fusion_lat": 0.0, "name": "b3179ceb72b17e77ff60e533858ddf58", "lon": -77.02802866666667, "rental_uris": {"android": "https://dc.lft.to/lastmile_qr_scan", "ios": "https://dc.lft.to/lastmile_qr_scan"}, "fusion_lon": 0.0, "bike_id": "b3179ceb72b17e77ff60e533858ddf58", "is_disabled": 0, "lat": 38.89226033333333, "is_reserved": 0, "type": "electric_scooter"}, {"fusion_lat": 0.0, "name": "a3cec596027b3dc5e2b877046455b5ae", "lon": -77.04659166666667, "rental_uris": {"android": "https://dc.lft.to/lastmile_qr_scan", "ios": "https://dc.lft.to/lastmile_qr_scan"}, "fusion_lon": 0.0, "bike_id": "a3cec596027b3dc5e2b877046455b5ae", "is_disabled": 0, "lat": 38.892190166666666, "is_reserved": 0, "type": "electric_scooter"}, {"fusion_lat": 0.0, "name": "2b4eb428849a96cc58edc69dda47e562", "lon": -76.9994215, "rental_uris": {"android": "https://dc.lft.to/lastmile_qr_scan", "ios": "https://dc.lft.to/lastmile_qr_scan"}, "fusion_lon": 0.0, "bike_id": "2b4eb428849a96cc58edc69dda47e562", "is_disabled": 0, "lat": 38.843142666666665, "is_reserved": 0, "type": "electric_scooter"}, {"fusion_lat": 0.0, "name": "63fb018d42c3c80361fbe70231f4a560", "lon": -76.99065633333333, "rental_uris": {"android": "https://dc.lft.to/lastmile_qr_scan", "ios": "https://dc.lft.to/lastmile_qr_scan"}, "fusion_lon": 0.0, "bike_id": "63fb018d42c3c80361fbe70231f4a560", "is_disabled": 0, "lat": 38.863765666666666, "is_reserved": 0, "type": "electric_scooter"}, {"fusion_lat": 0.0, "name": "c8ee2607e6cea53180da7a9cfeb64187", "lon": -77.032645, "rental_uris": {"android": "https://dc.lft.to/lastmile_qr_scan", "ios": "https://dc.lft.to/lastmile_qr_scan"}, "fusion_lon": 0.0, "bike_id": "c8ee2607e6cea53180da7a9cfeb64187", "is_disabled": 0, "lat": 38.93987283333333, "is_reserved": 0, "type": "electric_scooter"}, {"fusion_lat": 0.0, "name": "42a558e625ce8190e0ae37802121501f", "lon": -77.04561466666667, "rental_uris": {"android": "https://dc.lft.to/lastmile_qr_scan", "ios": "https://dc.lft.to/lastmile_qr_scan"}, "fusion_lon": 0.0, "bike_id": "42a558e625ce8190e0ae37802121501f", "is_disabled": 0, "lat": 38.89604583333333, "is_reserved": 0, "type": "electric_scooter"}, {"fusion_lat": 0.0, "name": "18ffea55f70d9583924811109ab739e5", "lon": -77.01365966666667, "rental_uris": {"android": "https://dc.lft.to/lastmile_qr_scan", "ios": "https://dc.lft.to/lastmile_qr_scan"}, "fusion_lon": 0.0, "bike_id": "18ffea55f70d9583924811109ab739e5", "is_disabled": 0, "lat": 38.88707516666667, "is_reserved": 0, "type": "electric_scooter"}, {"fusion_lat": 0.0, "name": "73f0628e52f06d3564ce96a41f219f9d", "lon": -77.005471, "rental_uris": {"android": "https://dc.lft.to/lastmile_qr_scan", "ios": "https://dc.lft.to/lastmile_qr_scan"}, "fusion_lon": 0.0, "bike_id": "73f0628e52f06d3564ce96a41f219f9d", "is_disabled": 0, "lat": 38.874560333333335, "is_reserved": 0, "type": "electric_scooter"}, {"fusion_lat": 0.0, "name": "f70358e9dc1a66c7aa9f3279db8a486f", "lon": -76.98523966666667, "rental_uris": {"android": "https://dc.lft.to/lastmile_qr_scan", "ios": "https://dc.lft.to/lastmile_qr_scan"}, "fusion_lon": 0.0, "bike_id": "f70358e9dc1a66c7aa9f3279db8a486f", "is_disabled": 0, "lat": 38.866535166666665, "is_reserved": 0, "type": "electric_scooter"}, {"fusion_lat": 0.0, "name": "bd422178b230d674d93c1b8542435d5f", "lon": -77.02199733333333, "rental_uris": {"android": "https://dc.lft.to/lastmile_qr_scan", "ios": "https://dc.lft.to/lastmile_qr_scan"}, "fusion_lon": 0.0, "bike_id": "bd422178b230d674d93c1b8542435d5f", "is_disabled": 0, "lat": 38.89847416666667, "is_reserved": 0, "type": "electric_scooter"}, {"fusion_lat": 0.0, "name": "89c6b8f7c09ad5f8bb881600d829eb9e", "lon": -77.03295966666667, "rental_uris": {"android": "https://dc.lft.to/lastmile_qr_scan", "ios": "https://dc.lft.to/lastmile_qr_scan"}, "fusion_lon": 0.0, "bike_id": "89c6b8f7c09ad5f8bb881600d829eb9e", "is_disabled": 0, "lat": 38.95628683333333, "is_reserved": 0, "type": "electric_scooter"}, {"fusion_lat": 0.0, "name": "cbe3654ba22cf2f4df50fcc117b44a15", "lon": -77.034429, "rental_uris": {"android": "https://dc.lft.to/lastmile_qr_scan", "ios": "https://dc.lft.to/lastmile_qr_scan"}, "fusion_lon": 0.0, "bike_id": "cbe3654ba22cf2f4df50fcc117b44a15", "is_disabled": 0, "lat": 38.9191025, "is_reserved": 0, "type": "electric_scooter"}, {"fusion_lat": 0.0, "name": "0c1e4cfb65b8f0eff8750b5bea93f645", "lon": -77.02531066666667, "rental_uris": {"android": "https://dc.lft.to/lastmile_qr_scan", "ios": "https://dc.lft.to/lastmile_qr_scan"}, "fusion_lon": 0.0, "bike_id": "0c1e4cfb65b8f0eff8750b5bea93f645", "is_disabled": 0, "lat": 38.918158, "is_reserved": 0, "type": "electric_scooter"}, {"fusion_lat": 0.0, "name": "95373ba8602d4017f3ca4be5ae1b9f8a", "lon": -77.02154583333333, "rental_uris": {"android": "https://dc.lft.to/lastmile_qr_scan", "ios": "https://dc.lft.to/lastmile_qr_scan"}, "fusion_lon": 0.0, "bike_id": "95373ba8602d4017f3ca4be5ae1b9f8a", "is_disabled": 0, "lat": 38.925972, "is_reserved": 0, "type": "electric_scooter"}, {"fusion_lat": 0.0, "name": "37e9195410e6e25ac3710c99fc45df53", "lon": -77.012345, "rental_uris": {"android": "https://dc.lft.to/lastmile_qr_scan", "ios": "https://dc.lft.to/lastmile_qr_scan"}, "fusion_lon": 0.0, "bike_id": "37e9195410e6e25ac3710c99fc45df53", "is_disabled": 0, "lat": 38.892924, "is_reserved": 0, "type": "electric_scooter"}, {"fusion_lat": 0.0, "name": "4deedf69aa3b5bd2bb0d13ff5db23f8f", "lon": -77.02235216666666, "rental_uris": {"android": "https://dc.lft.to/lastmile_qr_scan", "ios": "https://dc.lft.to/lastmile_qr_scan"}, "fusion_lon": 0.0, "bike_id": "4deedf69aa3b5bd2bb0d13ff5db23f8f", "is_disabled": 0, "lat": 38.92482116666667, "is_reserved": 0, "type": "electric_scooter"}, {"fusion_lat": 0.0, "name": "5c3db709c8ab5d5cd0d5dff511694cef", "lon": -77.00704433333334, "rental_uris": {"android": "https://dc.lft.to/lastmile_qr_scan", "ios": "https://dc.lft.to/lastmile_qr_scan"}, "fusion_lon": 0.0, "bike_id": "5c3db709c8ab5d5cd0d5dff511694cef", "is_disabled": 0, "lat": 38.915512, "is_reserved": 0, "type": "electric_scooter"}, {"fusion_lat": 0.0, "name": "a1755e7101ec5a850b75fae958dcd531", "lon": -76.91219383333333, "rental_uris": {"android": "https://dc.lft.to/lastmile_qr_scan", "ios": "https://dc.lft.to/lastmile_qr_scan"}, "fusion_lon": 0.0, "bike_id": "a1755e7101ec5a850b75fae958dcd531", "is_disabled": 0, "lat": 38.90315116666667, "is_reserved": 0, "type": "electric_bike"}, {"fusion_lat": 0.0, "name": "5c8e0a1f1468cfc6cc527c9b63d7a8df", "lon": -77.037599, "rental_uris": {"android": "https://dc.lft.to/lastmile_qr_scan", "ios": "https://dc.lft.to/lastmile_qr_scan"}, "fusion_lon": 0.0, "bike_id": "5c8e0a1f1468cfc6cc527c9b63d7a8df", "is_disabled": 0, "lat": 38.9290135, "is_reserved": 0, "type": "electric_scooter"}, {"fusion_lat": 0.0, "name": "c3c11df615044b014e28f04740925a58", "lon": -77.0056755, "rental_uris": {"android": "https://dc.lft.to/lastmile_qr_scan", "ios": "https://dc.lft.to/lastmile_qr_scan"}, "fusion_lon": 0.0, "bike_id": "c3c11df615044b014e28f04740925a58", "is_disabled": 0, "lat": 38.87472016666667, "is_reserved": 0, "type": "electric_scooter"}, {"fusion_lat": 0.0, "name": "c36bb738ffcd246e6db45b6e5db4307e", "lon": -76.98712683333333, "rental_uris": {"android": "https://dc.lft.to/lastmile_qr_scan", "ios": "https://dc.lft.to/lastmile_qr_scan"}, "fusion_lon": 0.0, "bike_id": "c36bb738ffcd246e6db45b6e5db4307e", "is_disabled": 0, "lat": 38.86700533333333, "is_reserved": 0, "type": "electric_scooter"}, {"fusion_lat": 0.0, "name": "ace9c47ff3583f5575683af3cf225fed", "lon": -76.96511633333333, "rental_uris": {"android": "https://dc.lft.to/lastmile_qr_scan", "ios": "https://dc.lft.to/lastmile_qr_scan"}, "fusion_lon": 0.0, "bike_id": "ace9c47ff3583f5575683af3cf225fed", "is_disabled": 0, "lat": 38.8764525, "is_reserved": 0, "type": "electric_scooter"}, {"fusion_lat": 0.0, "name": "b5f8cb9726f80591c664dcdcff192c06", "lon": -77.003558, "rental_uris": {"android": "https://dc.lft.to/lastmile_qr_scan", "ios": "https://dc.lft.to/lastmile_qr_scan"}, "fusion_lon": 0.0, "bike_id": "b5f8cb9726f80591c664dcdcff192c06", "is_disabled": 0, "lat": 38.87663383333334, "is_reserved": 0, "type": "electric_scooter"}, {"fusion_lat": 0.0, "name": "f164f8ca26cf923d8333e502451f9f71", "lon": -77.03243066666667, "rental_uris": {"android": "https://dc.lft.to/lastmile_qr_scan", "ios": "https://dc.lft.to/lastmile_qr_scan"}, "fusion_lon": 0.0, "bike_id": "f164f8ca26cf923d8333e502451f9f71", "is_disabled": 0, "lat": 38.928717, "is_reserved": 0, "type": "electric_scooter"}, {"fusion_lat": 0.0, "name": "c57771a97b3a46ff6f12a65e689b4c6c", "lon": -77.03235883333333, "rental_uris": {"android": "https://dc.lft.to/lastmile_qr_scan", "ios": "https://dc.lft.to/lastmile_qr_scan"}, "fusion_lon": 0.0, "bike_id": "c57771a97b3a46ff6f12a65e689b4c6c", "is_disabled": 0, "lat": 38.912547333333336, "is_reserved": 0, "type": "electric_scooter"}, {"fusion_lat": 0.0, "name": "a10497f2c6ab20a82b7732d5f78e61fe", "lon": -77.04994383333333, "rental_uris": {"android": "https://dc.lft.to/lastmile_qr_scan", "ios": "https://dc.lft.to/lastmile_qr_scan"}, "fusion_lon": 0.0, "bike_id": "a10497f2c6ab20a82b7732d5f78e61fe", "is_disabled": 0, "lat": 38.897275, "is_reserved": 0, "type": "electric_scooter"}, {"fusion_lat": 0.0, "name": "6fbe44e1ff2b274a7c99f817e952c7e1", "lon": -77.0326995, "rental_uris": {"android": "https://dc.lft.to/lastmile_qr_scan", "ios": "https://dc.lft.to/lastmile_qr_scan"}, "fusion_lon": 0.0, "bike_id": "6fbe44e1ff2b274a7c99f817e952c7e1", "is_disabled": 0, "lat": 38.93983733333334, "is_reserved": 0, "type": "electric_scooter"}, {"fusion_lat": 0.0, "name": "f90664391c5aaab591b6b1b01cc2f1ae", "lon": -76.9773525, "rental_uris": {"android": "https://dc.lft.to/lastmile_qr_scan", "ios": "https://dc.lft.to/lastmile_qr_scan"}, "fusion_lon": 0.0, "bike_id": "f90664391c5aaab591b6b1b01cc2f1ae", "is_disabled": 0, "lat": 38.8646915, "is_reserved": 0, "type": "electric_scooter"}, {"fusion_lat": 0.0, "name": "1e37c88224cb74e18ea4f1ceeca44d6b", "lon": -77.0326525, "rental_uris": {"android": "https://dc.lft.to/lastmile_qr_scan", "ios": "https://dc.lft.to/lastmile_qr_scan"}, "fusion_lon": 0.0, "bike_id": "1e37c88224cb74e18ea4f1ceeca44d6b", "is_disabled": 0, "lat": 38.93985266666667, "is_reserved": 0, "type": "electric_scooter"}, {"fusion_lat": 0.0, "name": "8539a9068aa32740eb1d3abe3ed3cba1", "lon": -77.032056, "rental_uris": {"android": "https://dc.lft.to/lastmile_qr_scan", "ios": "https://dc.lft.to/lastmile_qr_scan"}, "fusion_lon": 0.0, "bike_id": "8539a9068aa32740eb1d3abe3ed3cba1", "is_disabled": 0, "lat": 38.919787166666666, "is_reserved": 0, "type": "electric_bike"}, {"fusion_lat": 0.0, "name": "db4ed9cf524102adafd3bed6cfe9b216", "lon": -77.0371785, "rental_uris": {"android": "https://dc.lft.to/lastmile_qr_scan", "ios": "https://dc.lft.to/lastmile_qr_scan"}, "fusion_lon": 0.0, "bike_id": "db4ed9cf524102adafd3bed6cfe9b216", "is_disabled": 0, "lat": 38.91623383333334, "is_reserved": 0, "type": "electric_scooter"}, {"fusion_lat": 0.0, "name": "f967a4ba1e95430f4020ec4c3e90ddf4", "lon": -77.01120216666666, "rental_uris": {"android": "https://dc.lft.to/lastmile_qr_scan", "ios": "https://dc.lft.to/lastmile_qr_scan"}, "fusion_lon": 0.0, "bike_id": "f967a4ba1e95430f4020ec4c3e90ddf4", "is_disabled": 0, "lat": 38.9202685, "is_reserved": 0, "type": "electric_scooter"}, {"fusion_lat": 0.0, "name": "f005c7e888c311dc4f841835a0d357e5", "lon": -77.04333033333333, "rental_uris": {"android": "https://dc.lft.to/lastmile_qr_scan", "ios": "https://dc.lft.to/lastmile_qr_scan"}, "fusion_lon": 0.0, "bike_id": "f005c7e888c311dc4f841835a0d357e5", "is_disabled": 0, "lat": 38.901092166666665, "is_reserved": 0, "type": "electric_scooter"}, {"fusion_lat": 0.0, "name": "0079b44a7059583a310941bf425bffd7", "lon": -76.99331816666667, "rental_uris": {"android": "https://dc.lft.to/lastmile_qr_scan", "ios": "https://dc.lft.to/lastmile_qr_scan"}, "fusion_lon": 0.0, "bike_id": "0079b44a7059583a310941bf425bffd7", "is_disabled": 0, "lat": 38.871408333333335, "is_reserved": 0, "type": "electric_scooter"}, {"fusion_lat": 0.0, "name": "d908fd6c29ada297f8fb476309d79c5e", "lon": -77.0232065, "rental_uris": {"android": "https://dc.lft.to/lastmile_qr_scan", "ios": "https://dc.lft.to/lastmile_qr_scan"}, "fusion_lon": 0.0, "bike_id": "d908fd6c29ada297f8fb476309d79c5e", "is_disabled": 0, "lat": 38.91835433333333, "is_reserved": 0, "type": "electric_scooter"}, {"fusion_lat": 0.0, "name": "24d04586c362b108271563e0844737cf", "lon": -77.02792983333333, "rental_uris": {"android": "https://dc.lft.to/lastmile_qr_scan", "ios": "https://dc.lft.to/lastmile_qr_scan"}, "fusion_lon": 0.0, "bike_id": "24d04586c362b108271563e0844737cf", "is_disabled": 0, "lat": 38.93082733333333, "is_reserved": 0, "type": "electric_scooter"}, {"fusion_lat": 0.0, "name": "d803ccff22d701b3c00d7e5b784acdbb", "lon": -76.98377933333333, "rental_uris": {"android": "https://dc.lft.to/lastmile_qr_scan", "ios": "https://dc.lft.to/lastmile_qr_scan"}, "fusion_lon": 0.0, "bike_id": "d803ccff22d701b3c00d7e5b784acdbb", "is_disabled": 0, "lat": 38.878346, "is_reserved": 0, "type": "electric_bike"}, {"fusion_lat": 0.0, "name": "fac19021df62add7949f1b4fa70aef59", "lon": -77.0571435, "rental_uris": {"android": "https://dc.lft.to/lastmile_qr_scan", "ios": "https://dc.lft.to/lastmile_qr_scan"}, "fusion_lon": 0.0, "bike_id": "fac19021df62add7949f1b4fa70aef59", "is_disabled": 0, "lat": 38.93338083333333, "is_reserved": 0, "type": "electric_scooter"}, {"fusion_lat": 0.0, "name": "1dadbdd2789ea145e9deebd274591367", "lon": -77.07655266666667, "rental_uris": {"android": "https://dc.lft.to/lastmile_qr_scan", "ios": "https://dc.lft.to/lastmile_qr_scan"}, "fusion_lon": 0.0, "bike_id": "1dadbdd2789ea145e9deebd274591367", "is_disabled": 0, "lat": 38.94207133333333, "is_reserved": 0, "type": "electric_scooter"}, {"fusion_lat": 0.0, "name": "f65e35edea086b1d3adcefef89823aee", "lon": -77.02580116666667, "rental_uris": {"android": "https://dc.lft.to/lastmile_qr_scan", "ios": "https://dc.lft.to/lastmile_qr_scan"}, "fusion_lon": 0.0, "bike_id": "f65e35edea086b1d3adcefef89823aee", "is_disabled": 0, "lat": 38.931878, "is_reserved": 0, "type": "electric_scooter"}, {"fusion_lat": 0.0, "name": "77d241811cc8be5fbc0c16669a49c265", "lon": -77.03099366666666, "rental_uris": {"android": "https://dc.lft.to/lastmile_qr_scan", "ios": "https://dc.lft.to/lastmile_qr_scan"}, "fusion_lon": 0.0, "bike_id": "77d241811cc8be5fbc0c16669a49c265", "is_disabled": 0, "lat": 38.928594333333336, "is_reserved": 0, "type": "electric_scooter"}, {"fusion_lat": 0.0, "name": "515fca05dfac54394c808a521f4568ce", "lon": -77.0127465, "rental_uris": {"android": "https://dc.lft.to/lastmile_qr_scan", "ios": "https://dc.lft.to/lastmile_qr_scan"}, "fusion_lon": 0.0, "bike_id": "515fca05dfac54394c808a521f4568ce", "is_disabled": 0, "lat": 38.91542833333333, "is_reserved": 0, "type": "electric_scooter"}, {"fusion_lat": 0.0, "name": "ef6917659448ed1371b9728c62ef00d6", "lon": -77.03659366666666, "rental_uris": {"android": "https://dc.lft.to/lastmile_qr_scan", "ios": "https://dc.lft.to/lastmile_qr_scan"}, "fusion_lon": 0.0, "bike_id": "ef6917659448ed1371b9728c62ef00d6", "is_disabled": 0, "lat": 38.90274683333333, "is_reserved": 0, "type": "electric_scooter"}, {"fusion_lat": 0.0, "name": "423e66514ad4bd01cbb34aff094831a6", "lon": -77.02580783333333, "rental_uris": {"android": "https://dc.lft.to/lastmile_qr_scan", "ios": "https://dc.lft.to/lastmile_qr_scan"}, "fusion_lon": 0.0, "bike_id": "423e66514ad4bd01cbb34aff094831a6", "is_disabled": 0, "lat": 38.914800666666665, "is_reserved": 0, "type": "electric_scooter"}, {"fusion_lat": 0.0, "name": "0681574175346e699db1785c55ff3e55", "lon": -77.03293783333334, "rental_uris": {"android": "https://dc.lft.to/lastmile_qr_scan", "ios": "https://dc.lft.to/lastmile_qr_scan"}, "fusion_lon": 0.0, "bike_id": "0681574175346e699db1785c55ff3e55", "is_disabled": 0, "lat": 38.9562805, "is_reserved": 0, "type": "electric_scooter"}, {"fusion_lat": 0.0, "name": "c25e60262eeac4d8c86e0a0ba208ff3e", "lon": -77.00061133333334, "rental_uris": {"android": "https://dc.lft.to/lastmile_qr_scan", "ios": "https://dc.lft.to/lastmile_qr_scan"}, "fusion_lon": 0.0, "bike_id": "c25e60262eeac4d8c86e0a0ba208ff3e", "is_disabled": 0, "lat": 38.874188, "is_reserved": 0, "type": "electric_scooter"}, {"fusion_lat": 0.0, "name": "9c024fb85cb247563ebd2d6185570217", "lon": -77.03077866666666, "rental_uris": {"android": "https://dc.lft.to/lastmile_qr_scan", "ios": "https://dc.lft.to/lastmile_qr_scan"}, "fusion_lon": 0.0, "bike_id": "9c024fb85cb247563ebd2d6185570217", "is_disabled": 0, "lat": 38.93308116666667, "is_reserved": 0, "type": "electric_scooter"}, {"fusion_lat": 0.0, "name": "ac9451a8460570bb0e563e1a04c99cef", "lon": -77.02345033333333, "rental_uris": {"android": "https://dc.lft.to/lastmile_qr_scan", "ios": "https://dc.lft.to/lastmile_qr_scan"}, "fusion_lon": 0.0, "bike_id": "ac9451a8460570bb0e563e1a04c99cef", "is_disabled": 0, "lat": 38.920641, "is_reserved": 0, "type": "electric_scooter"}, {"fusion_lat": 0.0, "name": "369832e51fe41855833be0d5c2fab633", "lon": -77.02580516666667, "rental_uris": {"android": "https://dc.lft.to/lastmile_qr_scan", "ios": "https://dc.lft.to/lastmile_qr_scan"}, "fusion_lon": 0.0, "bike_id": "369832e51fe41855833be0d5c2fab633", "is_disabled": 0, "lat": 38.88416133333333, "is_reserved": 0, "type": "electric_scooter"}, {"fusion_lat": 0.0, "name": "174a18560047cf7c0748e9038ed3ecbc", "lon": -76.97935366666667, "rental_uris": {"android": "https://dc.lft.to/lastmile_qr_scan", "ios": "https://dc.lft.to/lastmile_qr_scan"}, "fusion_lon": 0.0, "bike_id": "174a18560047cf7c0748e9038ed3ecbc", "is_disabled": 0, "lat": 38.88756566666667, "is_reserved": 0, "type": "electric_scooter"}, {"fusion_lat": 0.0, "name": "ee9c0156d8b0a4b9c09bbaf3cb39527c", "lon": -77.012729, "rental_uris": {"android": "https://dc.lft.to/lastmile_qr_scan", "ios": "https://dc.lft.to/lastmile_qr_scan"}, "fusion_lon": 0.0, "bike_id": "ee9c0156d8b0a4b9c09bbaf3cb39527c", "is_disabled": 0, "lat": 38.892298, "is_reserved": 0, "type": "electric_scooter"}, {"fusion_lat": 0.0, "name": "87c156d2478c3a0dd677af5d9165da4b", "lon": -77.016415, "rental_uris": {"android": "https://dc.lft.to/lastmile_qr_scan", "ios": "https://dc.lft.to/lastmile_qr_scan"}, "fusion_lon": 0.0, "bike_id": "87c156d2478c3a0dd677af5d9165da4b", "is_disabled": 0, "lat": 38.92945133333333, "is_reserved": 0, "type": "electric_scooter"}, {"fusion_lat": 0.0, "name": "6802895519acb5e6fa2c51c11773844b", "lon": -77.034055, "rental_uris": {"android": "https://dc.lft.to/lastmile_qr_scan", "ios": "https://dc.lft.to/lastmile_qr_scan"}, "fusion_lon": 0.0, "bike_id": "6802895519acb5e6fa2c51c11773844b", "is_disabled": 0, "lat": 38.92268983333334, "is_reserved": 0, "type": "electric_scooter"}, {"fusion_lat": 0.0, "name": "c56e65933520d6269ddea77588ab9284", "lon": -76.900817, "rental_uris": {"android": "https://dc.lft.to/lastmile_qr_scan", "ios": "https://dc.lft.to/lastmile_qr_scan"}, "fusion_lon": 0.0, "bike_id": "c56e65933520d6269ddea77588ab9284", "is_disabled": 0, "lat": 38.8875885, "is_reserved": 0, "type": "electric_bike"}, {"fusion_lat": 0.0, "name": "699a3450c6559a2f307a71d0b649dd05", "lon": -77.04376116666667, "rental_uris": {"android": "https://dc.lft.to/lastmile_qr_scan", "ios": "https://dc.lft.to/lastmile_qr_scan"}, "fusion_lon": 0.0, "bike_id": "699a3450c6559a2f307a71d0b649dd05", "is_disabled": 0, "lat": 38.89222566666667, "is_reserved": 0, "type": "electric_scooter"}, {"fusion_lat": 0.0, "name": "8fe5379c3aa3f4d13e71c2a9dc985a02", "lon": -76.982704, "rental_uris": {"android": "https://dc.lft.to/lastmile_qr_scan", "ios": "https://dc.lft.to/lastmile_qr_scan"}, "fusion_lon": 0.0, "bike_id": "8fe5379c3aa3f4d13e71c2a9dc985a02", "is_disabled": 0, "lat": 38.89930666666667, "is_reserved": 0, "type": "electric_scooter"}, {"fusion_lat": 0.0, "name": "c3fe08c95717720157d5e3a7ef96c719", "lon": -77.02842233333334, "rental_uris": {"android": "https://dc.lft.to/lastmile_qr_scan", "ios": "https://dc.lft.to/lastmile_qr_scan"}, "fusion_lon": 0.0, "bike_id": "c3fe08c95717720157d5e3a7ef96c719", "is_disabled": 0, "lat": 38.932212666666665, "is_reserved": 0, "type": "electric_scooter"}, {"fusion_lat": 0.0, "name": "004d14a35539d27d258b11e2111fc12c", "lon": -77.0222385, "rental_uris": {"android": "https://dc.lft.to/lastmile_qr_scan", "ios": "https://dc.lft.to/lastmile_qr_scan"}, "fusion_lon": 0.0, "bike_id": "004d14a35539d27d258b11e2111fc12c", "is_disabled": 0, "lat": 38.935491999999996, "is_reserved": 0, "type": "electric_scooter"}, {"fusion_lat": 0.0, "name": "52574e7d9fdadd2218b61b8aaef44d2a", "lon": -77.02928283333334, "rental_uris": {"android": "https://dc.lft.to/lastmile_qr_scan", "ios": "https://dc.lft.to/lastmile_qr_scan"}, "fusion_lon": 0.0, "bike_id": "52574e7d9fdadd2218b61b8aaef44d2a", "is_disabled": 0, "lat": 38.89824733333333, "is_reserved": 0, "type": "electric_scooter"}, {"fusion_lat": 0.0, "name": "148e865710ed39540dc1175f815a59d3", "lon": -77.03182733333334, "rental_uris": {"android": "https://dc.lft.to/lastmile_qr_scan", "ios": "https://dc.lft.to/lastmile_qr_scan"}, "fusion_lon": 0.0, "bike_id": "148e865710ed39540dc1175f815a59d3", "is_disabled": 0, "lat": 38.90811866666667, "is_reserved": 0, "type": "electric_scooter"}, {"fusion_lat": 0.0, "name": "bfd85e3c7a41ad03a5a7022c6f285878", "lon": -77.02659683333333, "rental_uris": {"android": "https://dc.lft.to/lastmile_qr_scan", "ios": "https://dc.lft.to/lastmile_qr_scan"}, "fusion_lon": 0.0, "bike_id": "bfd85e3c7a41ad03a5a7022c6f285878", "is_disabled": 0, "lat": 38.93266233333333, "is_reserved": 0, "type": "electric_bike"}, {"fusion_lat": 0.0, "name": "7162b8080ae74d679f3e1d0a799142ba", "lon": -77.034588, "rental_uris": {"android": "https://dc.lft.to/lastmile_qr_scan", "ios": "https://dc.lft.to/lastmile_qr_scan"}, "fusion_lon": 0.0, "bike_id": "7162b8080ae74d679f3e1d0a799142ba", "is_disabled": 0, "lat": 38.91066166666667, "is_reserved": 0, "type": "electric_scooter"}, {"fusion_lat": 0.0, "name": "134e0ade39e52e34fdb2619799925cf8", "lon": -76.97452166666666, "rental_uris": {"android": "https://dc.lft.to/lastmile_qr_scan", "ios": "https://dc.lft.to/lastmile_qr_scan"}, "fusion_lon": 0.0, "bike_id": "134e0ade39e52e34fdb2619799925cf8", "is_disabled": 0, "lat": 38.864123166666666, "is_reserved": 0, "type": "electric_scooter"}, {"fusion_lat": 0.0, "name": "d81f8a5f4ccf639b9297b317879bf55a", "lon": -77.03333183333334, "rental_uris": {"android": "https://dc.lft.to/lastmile_qr_scan", "ios": "https://dc.lft.to/lastmile_qr_scan"}, "fusion_lon": 0.0, "bike_id": "d81f8a5f4ccf639b9297b317879bf55a", "is_disabled": 0, "lat": 38.903519833333334, "is_reserved": 0, "type": "electric_scooter"}, {"fusion_lat": 0.0, "name": "1a82e3f8269d3cb6d5150a8d25ba6b48", "lon": -77.006047, "rental_uris": {"android": "https://dc.lft.to/lastmile_qr_scan", "ios": "https://dc.lft.to/lastmile_qr_scan"}, "fusion_lon": 0.0, "bike_id": "1a82e3f8269d3cb6d5150a8d25ba6b48", "is_disabled": 0, "lat": 38.871829166666664, "is_reserved": 0, "type": "electric_scooter"}, {"fusion_lat": 0.0, "name": "f671b8f92b5b10df99024555d747cf6b", "lon": -76.99377033333333, "rental_uris": {"android": "https://dc.lft.to/lastmile_qr_scan", "ios": "https://dc.lft.to/lastmile_qr_scan"}, "fusion_lon": 0.0, "bike_id": "f671b8f92b5b10df99024555d747cf6b", "is_disabled": 0, "lat": 38.923538666666666, "is_reserved": 0, "type": "electric_scooter"}, {"fusion_lat": 0.0, "name": "b9d687af79e876c25342d47b183d2c73", "lon": -77.02167016666667, "rental_uris": {"android": "https://dc.lft.to/lastmile_qr_scan", "ios": "https://dc.lft.to/lastmile_qr_scan"}, "fusion_lon": 0.0, "bike_id": "b9d687af79e876c25342d47b183d2c73", "is_disabled": 0, "lat": 38.89306783333333, "is_reserved": 0, "type": "electric_scooter"}, {"fusion_lat": 0.0, "name": "49fb2c9483f8524d0e134869644c0f79", "lon": -77.0260745, "rental_uris": {"android": "https://dc.lft.to/lastmile_qr_scan", "ios": "https://dc.lft.to/lastmile_qr_scan"}, "fusion_lon": 0.0, "bike_id": "49fb2c9483f8524d0e134869644c0f79", "is_disabled": 0, "lat": 38.91551, "is_reserved": 0, "type": "electric_scooter"}, {"fusion_lat": 0.0, "name": "851fea65d04e8e3a964129be0f7899cd", "lon": -77.0626205, "rental_uris": {"android": "https://dc.lft.to/lastmile_qr_scan", "ios": "https://dc.lft.to/lastmile_qr_scan"}, "fusion_lon": 0.0, "bike_id": "851fea65d04e8e3a964129be0f7899cd", "is_disabled": 0, "lat": 38.9052425, "is_reserved": 0, "type": "electric_scooter"}, {"fusion_lat": 0.0, "name": "ca71b1c635d89fb200028c0468e3df5b", "lon": -77.00885183333334, "rental_uris": {"android": "https://dc.lft.to/lastmile_qr_scan", "ios": "https://dc.lft.to/lastmile_qr_scan"}, "fusion_lon": 0.0, "bike_id": "ca71b1c635d89fb200028c0468e3df5b", "is_disabled": 0, "lat": 38.96123983333333, "is_reserved": 0, "type": "electric_scooter"}, {"fusion_lat": 0.0, "name": "a89f52d82160a59c680a09a4dd77760e", "lon": -76.97016333333333, "rental_uris": {"android": "https://dc.lft.to/lastmile_qr_scan", "ios": "https://dc.lft.to/lastmile_qr_scan"}, "fusion_lon": 0.0, "bike_id": "a89f52d82160a59c680a09a4dd77760e", "is_disabled": 0, "lat": 38.873630166666665, "is_reserved": 0, "type": "electric_scooter"}, {"fusion_lat": 0.0, "name": "1f6d409d9cc92fa1deb3da572d495d49", "lon": -77.02836683333334, "rental_uris": {"android": "https://dc.lft.to/lastmile_qr_scan", "ios": "https://dc.lft.to/lastmile_qr_scan"}, "fusion_lon": 0.0, "bike_id": "1f6d409d9cc92fa1deb3da572d495d49", "is_disabled": 0, "lat": 38.8974165, "is_reserved": 0, "type": "electric_scooter"}, {"fusion_lat": 0.0, "name": "067018c592bfcad3c63e8270b83c7fb6", "lon": -77.04567883333333, "rental_uris": {"android": "https://dc.lft.to/lastmile_qr_scan", "ios": "https://dc.lft.to/lastmile_qr_scan"}, "fusion_lon": 0.0, "bike_id": "067018c592bfcad3c63e8270b83c7fb6", "is_disabled": 0, "lat": 38.91943466666667, "is_reserved": 0, "type": "electric_scooter"}, {"fusion_lat": 0.0, "name": "1ef7a91ead2b59a182bd974a5fe3cdf2", "lon": -77.026056, "rental_uris": {"android": "https://dc.lft.to/lastmile_qr_scan", "ios": "https://dc.lft.to/lastmile_qr_scan"}, "fusion_lon": 0.0, "bike_id": "1ef7a91ead2b59a182bd974a5fe3cdf2", "is_disabled": 0, "lat": 38.909725333333334, "is_reserved": 0, "type": "electric_scooter"}, {"fusion_lat": 0.0, "name": "de8296ebffb2d4559036d3a126f29145", "lon": -77.048286, "rental_uris": {"android": "https://dc.lft.to/lastmile_qr_scan", "ios": "https://dc.lft.to/lastmile_qr_scan"}, "fusion_lon": 0.0, "bike_id": "de8296ebffb2d4559036d3a126f29145", "is_disabled": 0, "lat": 38.91878283333333, "is_reserved": 0, "type": "electric_scooter"}, {"fusion_lat": 0.0, "name": "ac32faa3f6ad4daa5c2596bf6d081c75", "lon": -77.03273666666666, "rental_uris": {"android": "https://dc.lft.to/lastmile_qr_scan", "ios": "https://dc.lft.to/lastmile_qr_scan"}, "fusion_lon": 0.0, "bike_id": "ac32faa3f6ad4daa5c2596bf6d081c75", "is_disabled": 0, "lat": 38.89849233333333, "is_reserved": 0, "type": "electric_scooter"}, {"fusion_lat": 0.0, "name": "30b5b1d06a38c3dea2e2ddddc5c2cda5", "lon": -77.02247883333334, "rental_uris": {"android": "https://dc.lft.to/lastmile_qr_scan", "ios": "https://dc.lft.to/lastmile_qr_scan"}, "fusion_lon": 0.0, "bike_id": "30b5b1d06a38c3dea2e2ddddc5c2cda5", "is_disabled": 0, "lat": 38.92287016666667, "is_reserved": 0, "type": "electric_scooter"}, {"fusion_lat": 0.0, "name": "fae83508bc070a4671c6483ff4baba21", "lon": -76.93325666666667, "rental_uris": {"android": "https://dc.lft.to/lastmile_qr_scan", "ios": "https://dc.lft.to/lastmile_qr_scan"}, "fusion_lon": 0.0, "bike_id": "fae83508bc070a4671c6483ff4baba21", "is_disabled": 0, "lat": 38.900494, "is_reserved": 0, "type": "electric_scooter"}, {"fusion_lat": 0.0, "name": "13beece7d319acb903cf9eb8a34b6680", "lon": -77.01609316666666, "rental_uris": {"android": "https://dc.lft.to/lastmile_qr_scan", "ios": "https://dc.lft.to/lastmile_qr_scan"}, "fusion_lon": 0.0, "bike_id": "13beece7d319acb903cf9eb8a34b6680", "is_disabled": 0, "lat": 38.877089833333336, "is_reserved": 0, "type": "electric_scooter"}, {"fusion_lat": 0.0, "name": "6abf4ee1b8e4e27451f4b66e40d58fb4", "lon": -77.05080883333333, "rental_uris": {"android": "https://dc.lft.to/lastmile_qr_scan", "ios": "https://dc.lft.to/lastmile_qr_scan"}, "fusion_lon": 0.0, "bike_id": "6abf4ee1b8e4e27451f4b66e40d58fb4", "is_disabled": 0, "lat": 38.905192, "is_reserved": 0, "type": "electric_scooter"}, {"fusion_lat": 0.0, "name": "aba59dc154164eb6c694c7aa493c7648", "lon": -77.04538466666666, "rental_uris": {"android": "https://dc.lft.to/lastmile_qr_scan", "ios": "https://dc.lft.to/lastmile_qr_scan"}, "fusion_lon": 0.0, "bike_id": "aba59dc154164eb6c694c7aa493c7648", "is_disabled": 0, "lat": 38.931886166666665, "is_reserved": 0, "type": "electric_scooter"}, {"fusion_lat": 0.0, "name": "1ee9767f1627b7a49d4fb45194d982fc", "lon": -77.02368983333334, "rental_uris": {"android": "https://dc.lft.to/lastmile_qr_scan", "ios": "https://dc.lft.to/lastmile_qr_scan"}, "fusion_lon": 0.0, "bike_id": "1ee9767f1627b7a49d4fb45194d982fc", "is_disabled": 0, "lat": 38.87923166666667, "is_reserved": 0, "type": "electric_scooter"}, {"fusion_lat": 0.0, "name": "4f698b2d0eb2759027d7fdf9f55c0d04", "lon": -77.07898016666667, "rental_uris": {"android": "https://dc.lft.to/lastmile_qr_scan", "ios": "https://dc.lft.to/lastmile_qr_scan"}, "fusion_lon": 0.0, "bike_id": "4f698b2d0eb2759027d7fdf9f55c0d04", "is_disabled": 0, "lat": 38.8393845, "is_reserved": 0, "type": "electric_bike"}, {"fusion_lat": 0.0, "name": "a3ce9e425eaea708eadb9181b58f9255", "lon": -77.01909383333333, "rental_uris": {"android": "https://dc.lft.to/lastmile_qr_scan", "ios": "https://dc.lft.to/lastmile_qr_scan"}, "fusion_lon": 0.0, "bike_id": "a3ce9e425eaea708eadb9181b58f9255", "is_disabled": 0, "lat": 38.92341233333333, "is_reserved": 0, "type": "electric_scooter"}, {"fusion_lat": 0.0, "name": "fbb6d50138b170547311ae4ac6ffab8e", "lon": -76.94808283333333, "rental_uris": {"android": "https://dc.lft.to/lastmile_qr_scan", "ios": "https://dc.lft.to/lastmile_qr_scan"}, "fusion_lon": 0.0, "bike_id": "fbb6d50138b170547311ae4ac6ffab8e", "is_disabled": 0, "lat": 38.86193316666667, "is_reserved": 0, "type": "electric_bike"}, {"fusion_lat": 0.0, "name": "a90d9d1ecce3950532bab6996e25a759", "lon": -77.00621816666667, "rental_uris": {"android": "https://dc.lft.to/lastmile_qr_scan", "ios": "https://dc.lft.to/lastmile_qr_scan"}, "fusion_lon": 0.0, "bike_id": "a90d9d1ecce3950532bab6996e25a759", "is_disabled": 0, "lat": 38.88240283333333, "is_reserved": 0, "type": "electric_scooter"}, {"fusion_lat": 0.0, "name": "1385d23cb36c03369ccc3b3dc353b10f", "lon": -77.001265, "rental_uris": {"android": "https://dc.lft.to/lastmile_qr_scan", "ios": "https://dc.lft.to/lastmile_qr_scan"}, "fusion_lon": 0.0, "bike_id": "1385d23cb36c03369ccc3b3dc353b10f", "is_disabled": 0, "lat": 38.8737825, "is_reserved": 0, "type": "electric_scooter"}, {"fusion_lat": 0.0, "name": "916b6da607cb2fe02c1d0378966c82e4", "lon": -77.032839, "rental_uris": {"android": "https://dc.lft.to/lastmile_qr_scan", "ios": "https://dc.lft.to/lastmile_qr_scan"}, "fusion_lon": 0.0, "bike_id": "916b6da607cb2fe02c1d0378966c82e4", "is_disabled": 0, "lat": 38.9014445, "is_reserved": 0, "type": "electric_scooter"}, {"fusion_lat": 0.0, "name": "0776083cad53c501016b131d9e054815", "lon": -77.04194716666667, "rental_uris": {"android": "https://dc.lft.to/lastmile_qr_scan", "ios": "https://dc.lft.to/lastmile_qr_scan"}, "fusion_lon": 0.0, "bike_id": "0776083cad53c501016b131d9e054815", "is_disabled": 0, "lat": 38.907956666666664, "is_reserved": 0, "type": "electric_scooter"}, {"fusion_lat": 0.0, "name": "d80b956aed2733fa503f4f5d96aaecb5", "lon": -77.03978433333333, "rental_uris": {"android": "https://dc.lft.to/lastmile_qr_scan", "ios": "https://dc.lft.to/lastmile_qr_scan"}, "fusion_lon": 0.0, "bike_id": "d80b956aed2733fa503f4f5d96aaecb5", "is_disabled": 0, "lat": 38.902606166666665, "is_reserved": 0, "type": "electric_scooter"}, {"fusion_lat": 0.0, "name": "b2229b180ebe7b7c2f69948ad6b4dd7e", "lon": -77.006154, "rental_uris": {"android": "https://dc.lft.to/lastmile_qr_scan", "ios": "https://dc.lft.to/lastmile_qr_scan"}, "fusion_lon": 0.0, "bike_id": "b2229b180ebe7b7c2f69948ad6b4dd7e", "is_disabled": 0, "lat": 38.904055166666666, "is_reserved": 0, "type": "electric_scooter"}, {"fusion_lat": 0.0, "name": "156ef5e9976007284aa4d539b4f14148", "lon": -77.04232083333333, "rental_uris": {"android": "https://dc.lft.to/lastmile_qr_scan", "ios": "https://dc.lft.to/lastmile_qr_scan"}, "fusion_lon": 0.0, "bike_id": "156ef5e9976007284aa4d539b4f14148", "is_disabled": 0, "lat": 38.92171333333334, "is_reserved": 0, "type": "electric_scooter"}, {"fusion_lat": 0.0, "name": "939b52d1b9219970f2a606edb10a197f", "lon": -77.0484495, "rental_uris": {"android": "https://dc.lft.to/lastmile_qr_scan", "ios": "https://dc.lft.to/lastmile_qr_scan"}, "fusion_lon": 0.0, "bike_id": "939b52d1b9219970f2a606edb10a197f", "is_disabled": 0, "lat": 38.88835783333333, "is_reserved": 0, "type": "electric_scooter"}, {"fusion_lat": 0.0, "name": "99e7b9a21ef7766663e98f0c61ff6e81", "lon": -76.98594116666666, "rental_uris": {"android": "https://dc.lft.to/lastmile_qr_scan", "ios": "https://dc.lft.to/lastmile_qr_scan"}, "fusion_lon": 0.0, "bike_id": "99e7b9a21ef7766663e98f0c61ff6e81", "is_disabled": 0, "lat": 38.86697133333333, "is_reserved": 0, "type": "electric_scooter"}, {"fusion_lat": 0.0, "name": "dd859867b3d7e40364b1498891fc3dd7", "lon": -77.0273405, "rental_uris": {"android": "https://dc.lft.to/lastmile_qr_scan", "ios": "https://dc.lft.to/lastmile_qr_scan"}, "fusion_lon": 0.0, "bike_id": "dd859867b3d7e40364b1498891fc3dd7", "is_disabled": 0, "lat": 38.952021, "is_reserved": 0, "type": "electric_scooter"}, {"fusion_lat": 0.0, "name": "f846cd693420c7e2cec3e1cc8f4c456a", "lon": -77.03214733333333, "rental_uris": {"android": "https://dc.lft.to/lastmile_qr_scan", "ios": "https://dc.lft.to/lastmile_qr_scan"}, "fusion_lon": 0.0, "bike_id": "f846cd693420c7e2cec3e1cc8f4c456a", "is_disabled": 0, "lat": 38.91731983333333, "is_reserved": 0, "type": "electric_scooter"}, {"fusion_lat": 0.0, "name": "5ea35e5e56c00d212eab34d537a13d16", "lon": -77.00927783333333, "rental_uris": {"android": "https://dc.lft.to/lastmile_qr_scan", "ios": "https://dc.lft.to/lastmile_qr_scan"}, "fusion_lon": 0.0, "bike_id": "5ea35e5e56c00d212eab34d537a13d16", "is_disabled": 0, "lat": 38.896072, "is_reserved": 0, "type": "electric_scooter"}, {"fusion_lat": 0.0, "name": "550a69c8305112cd06f2a9f088634547", "lon": -76.9802525, "rental_uris": {"android": "https://dc.lft.to/lastmile_qr_scan", "ios": "https://dc.lft.to/lastmile_qr_scan"}, "fusion_lon": 0.0, "bike_id": "550a69c8305112cd06f2a9f088634547", "is_disabled": 0, "lat": 38.853186, "is_reserved": 0, "type": "electric_bike"}, {"fusion_lat": 0.0, "name": "dfa2eabfc004d852689264c1400d39e4", "lon": -77.02173716666667, "rental_uris": {"android": "https://dc.lft.to/lastmile_qr_scan", "ios": "https://dc.lft.to/lastmile_qr_scan"}, "fusion_lon": 0.0, "bike_id": "dfa2eabfc004d852689264c1400d39e4", "is_disabled": 0, "lat": 38.899689, "is_reserved": 0, "type": "electric_scooter"}, {"fusion_lat": 0.0, "name": "30fb18aa894cfb113e74a0a497595c42", "lon": -76.95576033333333, "rental_uris": {"android": "https://dc.lft.to/lastmile_qr_scan", "ios": "https://dc.lft.to/lastmile_qr_scan"}, "fusion_lon": 0.0, "bike_id": "30fb18aa894cfb113e74a0a497595c42", "is_disabled": 0, "lat": 38.88616066666667, "is_reserved": 0, "type": "electric_scooter"}, {"fusion_lat": 0.0, "name": "c746e7e061f5640c6b5f395fe05f09c2", "lon": -76.977297, "rental_uris": {"android": "https://dc.lft.to/lastmile_qr_scan", "ios": "https://dc.lft.to/lastmile_qr_scan"}, "fusion_lon": 0.0, "bike_id": "c746e7e061f5640c6b5f395fe05f09c2", "is_disabled": 0, "lat": 38.872874833333334, "is_reserved": 0, "type": "electric_scooter"}, {"fusion_lat": 0.0, "name": "7d16c314d09848471e7e61341de570b9", "lon": -77.02802383333334, "rental_uris": {"android": "https://dc.lft.to/lastmile_qr_scan", "ios": "https://dc.lft.to/lastmile_qr_scan"}, "fusion_lon": 0.0, "bike_id": "7d16c314d09848471e7e61341de570b9", "is_disabled": 0, "lat": 38.8922715, "is_reserved": 0, "type": "electric_scooter"}, {"fusion_lat": 0.0, "name": "ecdd801e3c74e36bb0144403fd3eba0f", "lon": -76.9783915, "rental_uris": {"android": "https://dc.lft.to/lastmile_qr_scan", "ios": "https://dc.lft.to/lastmile_qr_scan"}, "fusion_lon": 0.0, "bike_id": "ecdd801e3c74e36bb0144403fd3eba0f", "is_disabled": 0, "lat": 38.87203683333333, "is_reserved": 0, "type": "electric_scooter"}, {"fusion_lat": 0.0, "name": "bc493a7d74b379366fee841b4ef4dd9a", "lon": -77.08012583333333, "rental_uris": {"android": "https://dc.lft.to/lastmile_qr_scan", "ios": "https://dc.lft.to/lastmile_qr_scan"}, "fusion_lon": 0.0, "bike_id": "bc493a7d74b379366fee841b4ef4dd9a", "is_disabled": 0, "lat": 38.9506425, "is_reserved": 0, "type": "electric_scooter"}, {"fusion_lat": 0.0, "name": "e0cea1846310d75f094a1cdd245f6d1c", "lon": -76.98421116666667, "rental_uris": {"android": "https://dc.lft.to/lastmile_qr_scan", "ios": "https://dc.lft.to/lastmile_qr_scan"}, "fusion_lon": 0.0, "bike_id": "e0cea1846310d75f094a1cdd245f6d1c", "is_disabled": 0, "lat": 38.855364333333334, "is_reserved": 0, "type": "electric_scooter"}, {"fusion_lat": 0.0, "name": "5284cfb1fc67839e96455ce25fd251d8", "lon": -77.01732733333333, "rental_uris": {"android": "https://dc.lft.to/lastmile_qr_scan", "ios": "https://dc.lft.to/lastmile_qr_scan"}, "fusion_lon": 0.0, "bike_id": "5284cfb1fc67839e96455ce25fd251d8", "is_disabled": 0, "lat": 38.90272816666667, "is_reserved": 0, "type": "electric_scooter"}, {"fusion_lat": 0.0, "name": "5b119a3f1e42fa0038de8e6c2f93e5bb", "lon": -76.97306316666666, "rental_uris": {"android": "https://dc.lft.to/lastmile_qr_scan", "ios": "https://dc.lft.to/lastmile_qr_scan"}, "fusion_lon": 0.0, "bike_id": "5b119a3f1e42fa0038de8e6c2f93e5bb", "is_disabled": 0, "lat": 38.91642783333333, "is_reserved": 0, "type": "electric_bike"}, {"fusion_lat": 0.0, "name": "2fa1350d69e455150a9f97d7b3a4a0f8", "lon": -77.0810965, "rental_uris": {"android": "https://dc.lft.to/lastmile_qr_scan", "ios": "https://dc.lft.to/lastmile_qr_scan"}, "fusion_lon": 0.0, "bike_id": "2fa1350d69e455150a9f97d7b3a4a0f8", "is_disabled": 0, "lat": 38.9358095, "is_reserved": 0, "type": "electric_scooter"}, {"fusion_lat": 0.0, "name": "41885361349ace93814d54daa382be95", "lon": -77.048758, "rental_uris": {"android": "https://dc.lft.to/lastmile_qr_scan", "ios": "https://dc.lft.to/lastmile_qr_scan"}, "fusion_lon": 0.0, "bike_id": "41885361349ace93814d54daa382be95", "is_disabled": 0, "lat": 38.89274833333333, "is_reserved": 0, "type": "electric_scooter"}, {"fusion_lat": 0.0, "name": "7805203321d2edf26782e9348cbca693", "lon": -76.92624316666667, "rental_uris": {"android": "https://dc.lft.to/lastmile_qr_scan", "ios": "https://dc.lft.to/lastmile_qr_scan"}, "fusion_lon": 0.0, "bike_id": "7805203321d2edf26782e9348cbca693", "is_disabled": 0, "lat": 38.8848705, "is_reserved": 0, "type": "electric_scooter"}, {"fusion_lat": 0.0, "name": "44b417d47c292607afc4c6bfbad0f6cc", "lon": -77.0220975, "rental_uris": {"android": "https://dc.lft.to/lastmile_qr_scan", "ios": "https://dc.lft.to/lastmile_qr_scan"}, "fusion_lon": 0.0, "bike_id": "44b417d47c292607afc4c6bfbad0f6cc", "is_disabled": 0, "lat": 38.920859, "is_reserved": 0, "type": "electric_scooter"}, {"fusion_lat": 0.0, "name": "5f1e6dd55c8a6d1e20aa6e97bcc8fe10", "lon": -77.0319175, "rental_uris": {"android": "https://dc.lft.to/lastmile_qr_scan", "ios": "https://dc.lft.to/lastmile_qr_scan"}, "fusion_lon": 0.0, "bike_id": "5f1e6dd55c8a6d1e20aa6e97bcc8fe10", "is_disabled": 0, "lat": 38.91561883333333, "is_reserved": 0, "type": "electric_scooter"}, {"fusion_lat": 0.0, "name": "9f818a142f556c44834140cbc6d442bf", "lon": -77.02597583333333, "rental_uris": {"android": "https://dc.lft.to/lastmile_qr_scan", "ios": "https://dc.lft.to/lastmile_qr_scan"}, "fusion_lon": 0.0, "bike_id": "9f818a142f556c44834140cbc6d442bf", "is_disabled": 0, "lat": 38.944145666666664, "is_reserved": 0, "type": "electric_scooter"}, {"fusion_lat": 0.0, "name": "3caed25563e95eeefe593ad65f7e45a2", "lon": -77.07104833333334, "rental_uris": {"android": "https://dc.lft.to/lastmile_qr_scan", "ios": "https://dc.lft.to/lastmile_qr_scan"}, "fusion_lon": 0.0, "bike_id": "3caed25563e95eeefe593ad65f7e45a2", "is_disabled": 0, "lat": 38.9317475, "is_reserved": 0, "type": "electric_scooter"}, {"fusion_lat": 0.0, "name": "21edc9b3686dbaddb4e6d814189f817a", "lon": -77.0190435, "rental_uris": {"android": "https://dc.lft.to/lastmile_qr_scan", "ios": "https://dc.lft.to/lastmile_qr_scan"}, "fusion_lon": 0.0, "bike_id": "21edc9b3686dbaddb4e6d814189f817a", "is_disabled": 0, "lat": 38.922576, "is_reserved": 0, "type": "electric_scooter"}, {"fusion_lat": 0.0, "name": "22f0be5025497451ea3cd6cc0ffb793f", "lon": -76.93021383333334, "rental_uris": {"android": "https://dc.lft.to/lastmile_qr_scan", "ios": "https://dc.lft.to/lastmile_qr_scan"}, "fusion_lon": 0.0, "bike_id": "22f0be5025497451ea3cd6cc0ffb793f", "is_disabled": 0, "lat": 38.900814, "is_reserved": 0, "type": "electric_scooter"}, {"fusion_lat": 0.0, "name": "10170a7ce3c919f5dfbdd3daba927429", "lon": -77.0240675, "rental_uris": {"android": "https://dc.lft.to/lastmile_qr_scan", "ios": "https://dc.lft.to/lastmile_qr_scan"}, "fusion_lon": 0.0, "bike_id": "10170a7ce3c919f5dfbdd3daba927429", "is_disabled": 0, "lat": 38.89810166666667, "is_reserved": 0, "type": "electric_scooter"}, {"fusion_lat": 0.0, "name": "2eb4b15d659e80036d276b7f525cc51d", "lon": -77.07002833333334, "rental_uris": {"android": "https://dc.lft.to/lastmile_qr_scan", "ios": "https://dc.lft.to/lastmile_qr_scan"}, "fusion_lon": 0.0, "bike_id": "2eb4b15d659e80036d276b7f525cc51d", "is_disabled": 0, "lat": 38.95556633333333, "is_reserved": 0, "type": "electric_scooter"}, {"fusion_lat": 0.0, "name": "ac9d702e2f37188894b7145d22f1d405", "lon": -77.06691833333333, "rental_uris": {"android": "https://dc.lft.to/lastmile_qr_scan", "ios": "https://dc.lft.to/lastmile_qr_scan"}, "fusion_lon": 0.0, "bike_id": "ac9d702e2f37188894b7145d22f1d405", "is_disabled": 0, "lat": 38.95020516666666, "is_reserved": 0, "type": "electric_scooter"}, {"fusion_lat": 0.0, "name": "8032c6ea3477cf1655051a10a034e885", "lon": -77.010776, "rental_uris": {"android": "https://dc.lft.to/lastmile_qr_scan", "ios": "https://dc.lft.to/lastmile_qr_scan"}, "fusion_lon": 0.0, "bike_id": "8032c6ea3477cf1655051a10a034e885", "is_disabled": 0, "lat": 38.916293, "is_reserved": 0, "type": "electric_scooter"}, {"fusion_lat": 0.0, "name": "58a77f73cdd54f3685cf916929b02086", "lon": -77.02421466666667, "rental_uris": {"android": "https://dc.lft.to/lastmile_qr_scan", "ios": "https://dc.lft.to/lastmile_qr_scan"}, "fusion_lon": 0.0, "bike_id": "58a77f73cdd54f3685cf916929b02086", "is_disabled": 0, "lat": 38.92655416666667, "is_reserved": 0, "type": "electric_scooter"}, {"fusion_lat": 0.0, "name": "33e2d957dfd98dc76836f939b13a5784", "lon": -77.0231875, "rental_uris": {"android": "https://dc.lft.to/lastmile_qr_scan", "ios": "https://dc.lft.to/lastmile_qr_scan"}, "fusion_lon": 0.0, "bike_id": "33e2d957dfd98dc76836f939b13a5784", "is_disabled": 0, "lat": 38.91677766666667, "is_reserved": 0, "type": "electric_scooter"}, {"fusion_lat": 0.0, "name": "1e528cd2ba4b0cc25b91c4c5c6c80b49", "lon": -77.05181283333333, "rental_uris": {"android": "https://dc.lft.to/lastmile_qr_scan", "ios": "https://dc.lft.to/lastmile_qr_scan"}, "fusion_lon": 0.0, "bike_id": "1e528cd2ba4b0cc25b91c4c5c6c80b49", "is_disabled": 0, "lat": 38.924274833333335, "is_reserved": 0, "type": "electric_scooter"}, {"fusion_lat": 0.0, "name": "8d2e65844b6f589804b9e4924e0aa4b5", "lon": -76.99385216666667, "rental_uris": {"android": "https://dc.lft.to/lastmile_qr_scan", "ios": "https://dc.lft.to/lastmile_qr_scan"}, "fusion_lon": 0.0, "bike_id": "8d2e65844b6f589804b9e4924e0aa4b5", "is_disabled": 0, "lat": 38.877103166666664, "is_reserved": 0, "type": "electric_scooter"}, {"fusion_lat": 0.0, "name": "f90da739495702c2eb0b19c53e218f79", "lon": -77.03325033333333, "rental_uris": {"android": "https://dc.lft.to/lastmile_qr_scan", "ios": "https://dc.lft.to/lastmile_qr_scan"}, "fusion_lon": 0.0, "bike_id": "f90da739495702c2eb0b19c53e218f79", "is_disabled": 0, "lat": 38.91386816666667, "is_reserved": 0, "type": "electric_scooter"}, {"fusion_lat": 0.0, "name": "ed85b191cb9cd4c4b76b2b4dfb403bf3", "lon": -77.03372316666666, "rental_uris": {"android": "https://dc.lft.to/lastmile_qr_scan", "ios": "https://dc.lft.to/lastmile_qr_scan"}, "fusion_lon": 0.0, "bike_id": "ed85b191cb9cd4c4b76b2b4dfb403bf3", "is_disabled": 0, "lat": 38.90262633333333, "is_reserved": 0, "type": "electric_scooter"}, {"fusion_lat": 0.0, "name": "7f78f8f72c2089a0cb0b6af1f72738a0", "lon": -77.06589733333334, "rental_uris": {"android": "https://dc.lft.to/lastmile_qr_scan", "ios": "https://dc.lft.to/lastmile_qr_scan"}, "fusion_lon": 0.0, "bike_id": "7f78f8f72c2089a0cb0b6af1f72738a0", "is_disabled": 0, "lat": 38.91228916666667, "is_reserved": 0, "type": "electric_scooter"}, {"fusion_lat": 0.0, "name": "0c69e157fdf0916bb61318c1f358b143", "lon": -76.97738233333334, "rental_uris": {"android": "https://dc.lft.to/lastmile_qr_scan", "ios": "https://dc.lft.to/lastmile_qr_scan"}, "fusion_lon": 0.0, "bike_id": "0c69e157fdf0916bb61318c1f358b143", "is_disabled": 0, "lat": 38.87146583333333, "is_reserved": 0, "type": "electric_scooter"}, {"fusion_lat": 0.0, "name": "2cab2feb4a4835943c52df8c5234f7d2", "lon": -77.0324965, "rental_uris": {"android": "https://dc.lft.to/lastmile_qr_scan", "ios": "https://dc.lft.to/lastmile_qr_scan"}, "fusion_lon": 0.0, "bike_id": "2cab2feb4a4835943c52df8c5234f7d2", "is_disabled": 0, "lat": 38.9211135, "is_reserved": 0, "type": "electric_scooter"}, {"fusion_lat": 0.0, "name": "25a27fef74d53e9307e0deea5af02967", "lon": -77.0442185, "rental_uris": {"android": "https://dc.lft.to/lastmile_qr_scan", "ios": "https://dc.lft.to/lastmile_qr_scan"}, "fusion_lon": 0.0, "bike_id": "25a27fef74d53e9307e0deea5af02967", "is_disabled": 0, "lat": 38.90939733333333, "is_reserved": 0, "type": "electric_scooter"}, {"fusion_lat": 0.0, "name": "6b2ab7f94acb9159a0053e9b10ab200b", "lon": -77.04183783333333, "rental_uris": {"android": "https://dc.lft.to/lastmile_qr_scan", "ios": "https://dc.lft.to/lastmile_qr_scan"}, "fusion_lon": 0.0, "bike_id": "6b2ab7f94acb9159a0053e9b10ab200b", "is_disabled": 0, "lat": 38.918552, "is_reserved": 0, "type": "electric_scooter"}, {"fusion_lat": 0.0, "name": "726d590a88f5a2122f3b48fe65f64d7b", "lon": -77.02567066666667, "rental_uris": {"android": "https://dc.lft.to/lastmile_qr_scan", "ios": "https://dc.lft.to/lastmile_qr_scan"}, "fusion_lon": 0.0, "bike_id": "726d590a88f5a2122f3b48fe65f64d7b", "is_disabled": 0, "lat": 38.9385995, "is_reserved": 0, "type": "electric_scooter"}, {"fusion_lat": 0.0, "name": "2843188b1bf6b13b87d9d47d692b55cb", "lon": -77.03979866666667, "rental_uris": {"android": "https://dc.lft.to/lastmile_qr_scan", "ios": "https://dc.lft.to/lastmile_qr_scan"}, "fusion_lon": 0.0, "bike_id": "2843188b1bf6b13b87d9d47d692b55cb", "is_disabled": 0, "lat": 38.90477966666667, "is_reserved": 0, "type": "electric_scooter"}, {"fusion_lat": 0.0, "name": "df1a00f0a8e375d17c6a22aec673d5c6", "lon": -77.05115366666666, "rental_uris": {"android": "https://dc.lft.to/lastmile_qr_scan", "ios": "https://dc.lft.to/lastmile_qr_scan"}, "fusion_lon": 0.0, "bike_id": "df1a00f0a8e375d17c6a22aec673d5c6", "is_disabled": 0, "lat": 38.92360083333333, "is_reserved": 0, "type": "electric_scooter"}, {"fusion_lat": 0.0, "name": "fd247664a8ecb9d3e7ca4f073498232c", "lon": -77.13103166666667, "rental_uris": {"android": "https://dc.lft.to/lastmile_qr_scan", "ios": "https://dc.lft.to/lastmile_qr_scan"}, "fusion_lon": 0.0, "bike_id": "fd247664a8ecb9d3e7ca4f073498232c", "is_disabled": 0, "lat": 39.02432683333333, "is_reserved": 0, "type": "electric_bike"}, {"fusion_lat": 0.0, "name": "07e1b7a07587fcad6f0dbe5efb6932fc", "lon": -77.02486466666667, "rental_uris": {"android": "https://dc.lft.to/lastmile_qr_scan", "ios": "https://dc.lft.to/lastmile_qr_scan"}, "fusion_lon": 0.0, "bike_id": "07e1b7a07587fcad6f0dbe5efb6932fc", "is_disabled": 0, "lat": 38.93902216666667, "is_reserved": 0, "type": "electric_scooter"}, {"fusion_lat": 0.0, "name": "a1475b8e907c7727d6ae96a6b77c92f9", "lon": -76.98616533333333, "rental_uris": {"android": "https://dc.lft.to/lastmile_qr_scan", "ios": "https://dc.lft.to/lastmile_qr_scan"}, "fusion_lon": 0.0, "bike_id": "a1475b8e907c7727d6ae96a6b77c92f9", "is_disabled": 0, "lat": 38.939685833333336, "is_reserved": 0, "type": "electric_bike"}, {"fusion_lat": 0.0, "name": "97261bb6975dd50ae04e99ae76745e01", "lon": -77.04573, "rental_uris": {"android": "https://dc.lft.to/lastmile_qr_scan", "ios": "https://dc.lft.to/lastmile_qr_scan"}, "fusion_lon": 0.0, "bike_id": "97261bb6975dd50ae04e99ae76745e01", "is_disabled": 0, "lat": 38.90244216666667, "is_reserved": 0, "type": "electric_scooter"}, {"fusion_lat": 0.0, "name": "ddb3859e63644fcbc573cbcd218498ca", "lon": -76.99146983333333, "rental_uris": {"android": "https://dc.lft.to/lastmile_qr_scan", "ios": "https://dc.lft.to/lastmile_qr_scan"}, "fusion_lon": 0.0, "bike_id": "ddb3859e63644fcbc573cbcd218498ca", "is_disabled": 0, "lat": 38.885958, "is_reserved": 0, "type": "electric_scooter"}, {"fusion_lat": 0.0, "name": "0d79c1323f161793c99a7a3e5906bc19", "lon": -76.99297583333333, "rental_uris": {"android": "https://dc.lft.to/lastmile_qr_scan", "ios": "https://dc.lft.to/lastmile_qr_scan"}, "fusion_lon": 0.0, "bike_id": "0d79c1323f161793c99a7a3e5906bc19", "is_disabled": 0, "lat": 38.85756766666667, "is_reserved": 0, "type": "electric_scooter"}, {"fusion_lat": 0.0, "name": "9c51a832240b9314fd3cc7d2e1292cff", "lon": -77.02961666666667, "rental_uris": {"android": "https://dc.lft.to/lastmile_qr_scan", "ios": "https://dc.lft.to/lastmile_qr_scan"}, "fusion_lon": 0.0, "bike_id": "9c51a832240b9314fd3cc7d2e1292cff", "is_disabled": 0, "lat": 38.91667283333334, "is_reserved": 0, "type": "electric_scooter"}, {"fusion_lat": 0.0, "name": "01f471315b8ea904476f5ab4177a2c4a", "lon": -77.02939033333334, "rental_uris": {"android": "https://dc.lft.to/lastmile_qr_scan", "ios": "https://dc.lft.to/lastmile_qr_scan"}, "fusion_lon": 0.0, "bike_id": "01f471315b8ea904476f5ab4177a2c4a", "is_disabled": 0, "lat": 38.93977016666667, "is_reserved": 0, "type": "electric_scooter"}, {"fusion_lat": 0.0, "name": "12d8add58ff8fa5242d438ffa4c57125", "lon": -77.245561, "rental_uris": {"android": "https://dc.lft.to/lastmile_qr_scan", "ios": "https://dc.lft.to/lastmile_qr_scan"}, "fusion_lon": 0.0, "bike_id": "12d8add58ff8fa5242d438ffa4c57125", "is_disabled": 0, "lat": 38.88244066666667, "is_reserved": 0, "type": "electric_bike"}, {"fusion_lat": 0.0, "name": "aca4b2542e0ccb2e57c0295a8b22b6f2", "lon": -77.04121416666666, "rental_uris": {"android": "https://dc.lft.to/lastmile_qr_scan", "ios": "https://dc.lft.to/lastmile_qr_scan"}, "fusion_lon": 0.0, "bike_id": "aca4b2542e0ccb2e57c0295a8b22b6f2", "is_disabled": 0, "lat": 38.92143216666667, "is_reserved": 0, "type": "electric_scooter"}, {"fusion_lat": 0.0, "name": "7aea082fc978347d484516690d2c7e06", "lon": -77.02225466666667, "rental_uris": {"android": "https://dc.lft.to/lastmile_qr_scan", "ios": "https://dc.lft.to/lastmile_qr_scan"}, "fusion_lon": 0.0, "bike_id": "7aea082fc978347d484516690d2c7e06", "is_disabled": 0, "lat": 38.92476033333333, "is_reserved": 0, "type": "electric_scooter"}, {"fusion_lat": 0.0, "name": "e938b7be870eaa09ccd781c24ef1b31a", "lon": -77.06592266666667, "rental_uris": {"android": "https://dc.lft.to/lastmile_qr_scan", "ios": "https://dc.lft.to/lastmile_qr_scan"}, "fusion_lon": 0.0, "bike_id": "e938b7be870eaa09ccd781c24ef1b31a", "is_disabled": 0, "lat": 38.91242716666667, "is_reserved": 0, "type": "electric_bike"}, {"fusion_lat": 0.0, "name": "b94417114a4e3bcbce36d6517e0508e0", "lon": -77.0013455, "rental_uris": {"android": "https://dc.lft.to/lastmile_qr_scan", "ios": "https://dc.lft.to/lastmile_qr_scan"}, "fusion_lon": 0.0, "bike_id": "b94417114a4e3bcbce36d6517e0508e0", "is_disabled": 0, "lat": 38.873726, "is_reserved": 0, "type": "electric_scooter"}, {"fusion_lat": 0.0, "name": "4a0c6595d5c19d12be29bbe7ba77f1af", "lon": -77.0265325, "rental_uris": {"android": "https://dc.lft.to/lastmile_qr_scan", "ios": "https://dc.lft.to/lastmile_qr_scan"}, "fusion_lon": 0.0, "bike_id": "4a0c6595d5c19d12be29bbe7ba77f1af", "is_disabled": 0, "lat": 38.93864283333333, "is_reserved": 0, "type": "electric_scooter"}, {"fusion_lat": 0.0, "name": "f4337b9da19633e4b0dec28849748f8b", "lon": -77.034136, "rental_uris": {"android": "https://dc.lft.to/lastmile_qr_scan", "ios": "https://dc.lft.to/lastmile_qr_scan"}, "fusion_lon": 0.0, "bike_id": "f4337b9da19633e4b0dec28849748f8b", "is_disabled": 0, "lat": 38.960376333333336, "is_reserved": 0, "type": "electric_bike"}, {"fusion_lat": 0.0, "name": "0c9a12ea2329148d45b61cdde026a72e", "lon": -77.028289, "rental_uris": {"android": "https://dc.lft.to/lastmile_qr_scan", "ios": "https://dc.lft.to/lastmile_qr_scan"}, "fusion_lon": 0.0, "bike_id": "0c9a12ea2329148d45b61cdde026a72e", "is_disabled": 0, "lat": 38.938825333333334, "is_reserved": 0, "type": "electric_scooter"}, {"fusion_lat": 0.0, "name": "1ea154867f6502b28ade390ada63ea09", "lon": -77.1176935, "rental_uris": {"android": "https://dc.lft.to/lastmile_qr_scan", "ios": "https://dc.lft.to/lastmile_qr_scan"}, "fusion_lon": 0.0, "bike_id": "1ea154867f6502b28ade390ada63ea09", "is_disabled": 0, "lat": 38.8557425, "is_reserved": 0, "type": "electric_bike"}, {"fusion_lat": 0.0, "name": "d81600ae0f2818a0617751e5b090bdc7", "lon": -76.993565, "rental_uris": {"android": "https://dc.lft.to/lastmile_qr_scan", "ios": "https://dc.lft.to/lastmile_qr_scan"}, "fusion_lon": 0.0, "bike_id": "d81600ae0f2818a0617751e5b090bdc7", "is_disabled": 0, "lat": 38.845035, "is_reserved": 0, "type": "electric_bike"}, {"fusion_lat": 0.0, "name": "0120b7d168a8b800cb352f9c917ab799", "lon": -77.04108383333333, "rental_uris": {"android": "https://dc.lft.to/lastmile_qr_scan", "ios": "https://dc.lft.to/lastmile_qr_scan"}, "fusion_lon": 0.0, "bike_id": "0120b7d168a8b800cb352f9c917ab799", "is_disabled": 0, "lat": 38.91724283333333, "is_reserved": 0, "type": "electric_scooter"}, {"fusion_lat": 0.0, "name": "b609603453c4ddd48181a92bb9b90e65", "lon": -77.04695166666667, "rental_uris": {"android": "https://dc.lft.to/lastmile_qr_scan", "ios": "https://dc.lft.to/lastmile_qr_scan"}, "fusion_lon": 0.0, "bike_id": "b609603453c4ddd48181a92bb9b90e65", "is_disabled": 0, "lat": 38.905534, "is_reserved": 0, "type": "electric_scooter"}, {"fusion_lat": 0.0, "name": "f4729c939d4025d19a43daaf784fbd4e", "lon": -76.9836865, "rental_uris": {"android": "https://dc.lft.to/lastmile_qr_scan", "ios": "https://dc.lft.to/lastmile_qr_scan"}, "fusion_lon": 0.0, "bike_id": "f4729c939d4025d19a43daaf784fbd4e", "is_disabled": 0, "lat": 38.91542916666667, "is_reserved": 0, "type": "electric_scooter"}, {"fusion_lat": 0.0, "name": "82b572cb3cd463e4c24607106438a46b", "lon": -77.0073555, "rental_uris": {"android": "https://dc.lft.to/lastmile_qr_scan", "ios": "https://dc.lft.to/lastmile_qr_scan"}, "fusion_lon": 0.0, "bike_id": "82b572cb3cd463e4c24607106438a46b", "is_disabled": 0, "lat": 38.87661333333333, "is_reserved": 0, "type": "electric_bike"}, {"fusion_lat": 0.0, "name": "b81b1ad8ed99cb72e7944be7a9c731d1", "lon": -77.0395, "rental_uris": {"android": "https://dc.lft.to/lastmile_qr_scan", "ios": "https://dc.lft.to/lastmile_qr_scan"}, "fusion_lon": 0.0, "bike_id": "b81b1ad8ed99cb72e7944be7a9c731d1", "is_disabled": 0, "lat": 38.90063583333333, "is_reserved": 0, "type": "electric_scooter"}, {"fusion_lat": 0.0, "name": "7a9ba71b5811752f28de0d95be654ce4", "lon": -77.02779783333334, "rental_uris": {"android": "https://dc.lft.to/lastmile_qr_scan", "ios": "https://dc.lft.to/lastmile_qr_scan"}, "fusion_lon": 0.0, "bike_id": "7a9ba71b5811752f28de0d95be654ce4", "is_disabled": 0, "lat": 38.9625365, "is_reserved": 0, "type": "electric_scooter"}, {"fusion_lat": 0.0, "name": "be7fbf21e82715a9839348d50235e411", "lon": -77.018975, "rental_uris": {"android": "https://dc.lft.to/lastmile_qr_scan", "ios": "https://dc.lft.to/lastmile_qr_scan"}, "fusion_lon": 0.0, "bike_id": "be7fbf21e82715a9839348d50235e411", "is_disabled": 0, "lat": 38.913906, "is_reserved": 0, "type": "electric_scooter"}, {"fusion_lat": 0.0, "name": "2778036ac114624416cd81bba95647ef", "lon": -77.0267175, "rental_uris": {"android": "https://dc.lft.to/lastmile_qr_scan", "ios": "https://dc.lft.to/lastmile_qr_scan"}, "fusion_lon": 0.0, "bike_id": "2778036ac114624416cd81bba95647ef", "is_disabled": 0, "lat": 38.92810566666667, "is_reserved": 0, "type": "electric_scooter"}, {"fusion_lat": 0.0, "name": "c679462586b77795502a664029bce4b9", "lon": -77.04470583333334, "rental_uris": {"android": "https://dc.lft.to/lastmile_qr_scan", "ios": "https://dc.lft.to/lastmile_qr_scan"}, "fusion_lon": 0.0, "bike_id": "c679462586b77795502a664029bce4b9", "is_disabled": 0, "lat": 38.91252933333333, "is_reserved": 0, "type": "electric_scooter"}, {"fusion_lat": 0.0, "name": "7cc5ce7708ab1c0597ccf7ab6cf62e40", "lon": -77.022682, "rental_uris": {"android": "https://dc.lft.to/lastmile_qr_scan", "ios": "https://dc.lft.to/lastmile_qr_scan"}, "fusion_lon": 0.0, "bike_id": "7cc5ce7708ab1c0597ccf7ab6cf62e40", "is_disabled": 0, "lat": 38.93761716666667, "is_reserved": 0, "type": "electric_scooter"}, {"fusion_lat": 0.0, "name": "433dc9db6cea0c0376077907538639c0", "lon": -77.0415895, "rental_uris": {"android": "https://dc.lft.to/lastmile_qr_scan", "ios": "https://dc.lft.to/lastmile_qr_scan"}, "fusion_lon": 0.0, "bike_id": "433dc9db6cea0c0376077907538639c0", "is_disabled": 0, "lat": 38.91346433333333, "is_reserved": 0, "type": "electric_scooter"}, {"fusion_lat": 0.0, "name": "7e208f1a1dc4d7e1fb6f322b99cb9eb3", "lon": -76.9906295, "rental_uris": {"android": "https://dc.lft.to/lastmile_qr_scan", "ios": "https://dc.lft.to/lastmile_qr_scan"}, "fusion_lon": 0.0, "bike_id": "7e208f1a1dc4d7e1fb6f322b99cb9eb3", "is_disabled": 0, "lat": 38.863578, "is_reserved": 0, "type": "electric_scooter"}, {"fusion_lat": 0.0, "name": "a369182c6814adb0cabb1ee5603ee45d", "lon": -77.04312183333333, "rental_uris": {"android": "https://dc.lft.to/lastmile_qr_scan", "ios": "https://dc.lft.to/lastmile_qr_scan"}, "fusion_lon": 0.0, "bike_id": "a369182c6814adb0cabb1ee5603ee45d", "is_disabled": 0, "lat": 38.922181, "is_reserved": 0, "type": "electric_scooter"}, {"fusion_lat": 0.0, "name": "c45a68a4feecc6d0b202bcc032182d39", "lon": -77.01141066666666, "rental_uris": {"android": "https://dc.lft.to/lastmile_qr_scan", "ios": "https://dc.lft.to/lastmile_qr_scan"}, "fusion_lon": 0.0, "bike_id": "c45a68a4feecc6d0b202bcc032182d39", "is_disabled": 0, "lat": 38.9064945, "is_reserved": 0, "type": "electric_scooter"}, {"fusion_lat": 0.0, "name": "59c1785e4e2f168279b79f4396788e05", "lon": -77.00519783333333, "rental_uris": {"android": "https://dc.lft.to/lastmile_qr_scan", "ios": "https://dc.lft.to/lastmile_qr_scan"}, "fusion_lon": 0.0, "bike_id": "59c1785e4e2f168279b79f4396788e05", "is_disabled": 0, "lat": 38.87463283333334, "is_reserved": 0, "type": "electric_scooter"}, {"fusion_lat": 0.0, "name": "ad5ffe256c822a38906b4d30d0c7de2c", "lon": -76.98413, "rental_uris": {"android": "https://dc.lft.to/lastmile_qr_scan", "ios": "https://dc.lft.to/lastmile_qr_scan"}, "fusion_lon": 0.0, "bike_id": "ad5ffe256c822a38906b4d30d0c7de2c", "is_disabled": 0, "lat": 38.855120666666664, "is_reserved": 0, "type": "electric_bike"}, {"fusion_lat": 0.0, "name": "d477f06d66cc4dd6b0e02cfcd69596d3", "lon": -77.03640183333333, "rental_uris": {"android": "https://dc.lft.to/lastmile_qr_scan", "ios": "https://dc.lft.to/lastmile_qr_scan"}, "fusion_lon": 0.0, "bike_id": "d477f06d66cc4dd6b0e02cfcd69596d3", "is_disabled": 0, "lat": 38.930325833333335, "is_reserved": 0, "type": "electric_scooter"}, {"fusion_lat": 0.0, "name": "9c0d4f050fdc05ffb02b4687a252da7f", "lon": -77.00601933333333, "rental_uris": {"android": "https://dc.lft.to/lastmile_qr_scan", "ios": "https://dc.lft.to/lastmile_qr_scan"}, "fusion_lon": 0.0, "bike_id": "9c0d4f050fdc05ffb02b4687a252da7f", "is_disabled": 0, "lat": 38.8718375, "is_reserved": 0, "type": "electric_scooter"}, {"fusion_lat": 0.0, "name": "620191ee93b03737065279a13ff92711", "lon": -77.02717116666666, "rental_uris": {"android": "https://dc.lft.to/lastmile_qr_scan", "ios": "https://dc.lft.to/lastmile_qr_scan"}, "fusion_lon": 0.0, "bike_id": "620191ee93b03737065279a13ff92711", "is_disabled": 0, "lat": 38.9095195, "is_reserved": 0, "type": "electric_scooter"}, {"fusion_lat": 0.0, "name": "be26bb8f2dc37d952dfcb4d9ec148d82", "lon": -77.02168683333333, "rental_uris": {"android": "https://dc.lft.to/lastmile_qr_scan", "ios": "https://dc.lft.to/lastmile_qr_scan"}, "fusion_lon": 0.0, "bike_id": "be26bb8f2dc37d952dfcb4d9ec148d82", "is_disabled": 0, "lat": 38.89340883333333, "is_reserved": 0, "type": "electric_scooter"}, {"fusion_lat": 0.0, "name": "da5378a093cfa83ee3f1b6be57cef6b4", "lon": -77.04349866666666, "rental_uris": {"android": "https://dc.lft.to/lastmile_qr_scan", "ios": "https://dc.lft.to/lastmile_qr_scan"}, "fusion_lon": 0.0, "bike_id": "da5378a093cfa83ee3f1b6be57cef6b4", "is_disabled": 0, "lat": 38.92172333333333, "is_reserved": 0, "type": "electric_scooter"}, {"fusion_lat": 0.0, "name": "4203d8b641294e6ef1e199bc9c9f4a88", "lon": -77.02663416666667, "rental_uris": {"android": "https://dc.lft.to/lastmile_qr_scan", "ios": "https://dc.lft.to/lastmile_qr_scan"}, "fusion_lon": 0.0, "bike_id": "4203d8b641294e6ef1e199bc9c9f4a88", "is_disabled": 0, "lat": 38.921771, "is_reserved": 0, "type": "electric_scooter"}, {"fusion_lat": 0.0, "name": "9a1ff3849a268698944f02811950b969", "lon": -76.98859583333333, "rental_uris": {"android": "https://dc.lft.to/lastmile_qr_scan", "ios": "https://dc.lft.to/lastmile_qr_scan"}, "fusion_lon": 0.0, "bike_id": "9a1ff3849a268698944f02811950b969", "is_disabled": 0, "lat": 38.891921833333335, "is_reserved": 0, "type": "electric_scooter"}, {"fusion_lat": 0.0, "name": "982318242c4e9478cffed9ba22d19f9d", "lon": -77.012842, "rental_uris": {"android": "https://dc.lft.to/lastmile_qr_scan", "ios": "https://dc.lft.to/lastmile_qr_scan"}, "fusion_lon": 0.0, "bike_id": "982318242c4e9478cffed9ba22d19f9d", "is_disabled": 0, "lat": 38.9515795, "is_reserved": 0, "type": "electric_bike"}, {"fusion_lat": 0.0, "name": "ed4b25c3555dc2ff8eb908f75387172d", "lon": -77.006151, "rental_uris": {"android": "https://dc.lft.to/lastmile_qr_scan", "ios": "https://dc.lft.to/lastmile_qr_scan"}, "fusion_lon": 0.0, "bike_id": "ed4b25c3555dc2ff8eb908f75387172d", "is_disabled": 0, "lat": 38.879643333333334, "is_reserved": 0, "type": "electric_scooter"}, {"fusion_lat": 0.0, "name": "e3e68de2505e07ac67cb9195da05affc", "lon": -77.00777166666667, "rental_uris": {"android": "https://dc.lft.to/lastmile_qr_scan", "ios": "https://dc.lft.to/lastmile_qr_scan"}, "fusion_lon": 0.0, "bike_id": "e3e68de2505e07ac67cb9195da05affc", "is_disabled": 0, "lat": 38.91498883333333, "is_reserved": 0, "type": "electric_scooter"}, {"fusion_lat": 0.0, "name": "238dcaa376c786e90261bdaf1d0da4f7", "lon": -76.97149316666666, "rental_uris": {"android": "https://dc.lft.to/lastmile_qr_scan", "ios": "https://dc.lft.to/lastmile_qr_scan"}, "fusion_lon": 0.0, "bike_id": "238dcaa376c786e90261bdaf1d0da4f7", "is_disabled": 0, "lat": 38.9233635, "is_reserved": 0, "type": "electric_bike"}, {"fusion_lat": 0.0, "name": "6035ac8b3c921fbc94249dc85c66d2cd", "lon": -77.03594516666666, "rental_uris": {"android": "https://dc.lft.to/lastmile_qr_scan", "ios": "https://dc.lft.to/lastmile_qr_scan"}, "fusion_lon": 0.0, "bike_id": "6035ac8b3c921fbc94249dc85c66d2cd", "is_disabled": 0, "lat": 38.936738166666665, "is_reserved": 0, "type": "electric_scooter"}, {"fusion_lat": 0.0, "name": "4165bd8942a2dbc816ac27f578ef8c16", "lon": -77.01879983333333, "rental_uris": {"android": "https://dc.lft.to/lastmile_qr_scan", "ios": "https://dc.lft.to/lastmile_qr_scan"}, "fusion_lon": 0.0, "bike_id": "4165bd8942a2dbc816ac27f578ef8c16", "is_disabled": 0, "lat": 38.93206716666667, "is_reserved": 0, "type": "electric_bike"}, {"fusion_lat": 0.0, "name": "3fdb48bb4a8dc62610cde24be83a8f49", "lon": -77.03820083333333, "rental_uris": {"android": "https://dc.lft.to/lastmile_qr_scan", "ios": "https://dc.lft.to/lastmile_qr_scan"}, "fusion_lon": 0.0, "bike_id": "3fdb48bb4a8dc62610cde24be83a8f49", "is_disabled": 0, "lat": 38.93062833333333, "is_reserved": 0, "type": "electric_scooter"}, {"fusion_lat": 0.0, "name": "797d14f1ac2b3fba5bd06457565e7e34", "lon": -77.07036183333334, "rental_uris": {"android": "https://dc.lft.to/lastmile_qr_scan", "ios": "https://dc.lft.to/lastmile_qr_scan"}, "fusion_lon": 0.0, "bike_id": "797d14f1ac2b3fba5bd06457565e7e34", "is_disabled": 0, "lat": 38.918638333333334, "is_reserved": 0, "type": "electric_scooter"}, {"fusion_lat": 0.0, "name": "6852561def8b777b6c2600fa45585af2", "lon": -76.97224483333333, "rental_uris": {"android": "https://dc.lft.to/lastmile_qr_scan", "ios": "https://dc.lft.to/lastmile_qr_scan"}, "fusion_lon": 0.0, "bike_id": "6852561def8b777b6c2600fa45585af2", "is_disabled": 0, "lat": 38.98360983333333, "is_reserved": 0, "type": "electric_bike"}, {"fusion_lat": 0.0, "name": "ac802692cf15ced3d78502a3ae6ca809", "lon": -77.03887583333334, "rental_uris": {"android": "https://dc.lft.to/lastmile_qr_scan", "ios": "https://dc.lft.to/lastmile_qr_scan"}, "fusion_lon": 0.0, "bike_id": "ac802692cf15ced3d78502a3ae6ca809", "is_disabled": 0, "lat": 38.9312695, "is_reserved": 0, "type": "electric_scooter"}, {"fusion_lat": 0.0, "name": "629d0385d9a442f9578c766f9c102a2b", "lon": -77.01551516666666, "rental_uris": {"android": "https://dc.lft.to/lastmile_qr_scan", "ios": "https://dc.lft.to/lastmile_qr_scan"}, "fusion_lon": 0.0, "bike_id": "629d0385d9a442f9578c766f9c102a2b", "is_disabled": 0, "lat": 38.8917205, "is_reserved": 0, "type": "electric_scooter"}, {"fusion_lat": 0.0, "name": "a4a5aad12d6e491c4a0e209360336f3e", "lon": -77.03943816666667, "rental_uris": {"android": "https://dc.lft.to/lastmile_qr_scan", "ios": "https://dc.lft.to/lastmile_qr_scan"}, "fusion_lon": 0.0, "bike_id": "a4a5aad12d6e491c4a0e209360336f3e", "is_disabled": 0, "lat": 38.902542, "is_reserved": 0, "type": "electric_scooter"}, {"fusion_lat": 0.0, "name": "3f6a76e5c7516c68d933a16804f709c0", "lon": -77.03714183333334, "rental_uris": {"android": "https://dc.lft.to/lastmile_qr_scan", "ios": "https://dc.lft.to/lastmile_qr_scan"}, "fusion_lon": 0.0, "bike_id": "3f6a76e5c7516c68d933a16804f709c0", "is_disabled": 0, "lat": 38.92831416666667, "is_reserved": 0, "type": "electric_scooter"}, {"fusion_lat": 0.0, "name": "995f522be44771d6fd4336a6f0cc671e", "lon": -77.0328845, "rental_uris": {"android": "https://dc.lft.to/lastmile_qr_scan", "ios": "https://dc.lft.to/lastmile_qr_scan"}, "fusion_lon": 0.0, "bike_id": "995f522be44771d6fd4336a6f0cc671e", "is_disabled": 0, "lat": 38.9162485, "is_reserved": 0, "type": "electric_scooter"}, {"fusion_lat": 0.0, "name": "72a973dc036dd2f47995eb2bcd94fb27", "lon": -77.02386816666667, "rental_uris": {"android": "https://dc.lft.to/lastmile_qr_scan", "ios": "https://dc.lft.to/lastmile_qr_scan"}, "fusion_lon": 0.0, "bike_id": "72a973dc036dd2f47995eb2bcd94fb27", "is_disabled": 0, "lat": 38.9333325, "is_reserved": 0, "type": "electric_scooter"}, {"fusion_lat": 0.0, "name": "cddad8298046d08bddd15bc67cfb706e", "lon": -76.97592666666667, "rental_uris": {"android": "https://dc.lft.to/lastmile_qr_scan", "ios": "https://dc.lft.to/lastmile_qr_scan"}, "fusion_lon": 0.0, "bike_id": "cddad8298046d08bddd15bc67cfb706e", "is_disabled": 0, "lat": 38.869951, "is_reserved": 0, "type": "electric_scooter"}, {"fusion_lat": 0.0, "name": "bcbd175e11c6c263174b8b3244d4872b", "lon": -77.0033835, "rental_uris": {"android": "https://dc.lft.to/lastmile_qr_scan", "ios": "https://dc.lft.to/lastmile_qr_scan"}, "fusion_lon": 0.0, "bike_id": "bcbd175e11c6c263174b8b3244d4872b", "is_disabled": 0, "lat": 38.895029666666666, "is_reserved": 0, "type": "electric_scooter"}, {"fusion_lat": 0.0, "name": "0e9f1de89ebb892a4ec28bbfaaf2f290", "lon": -77.08071833333334, "rental_uris": {"android": "https://dc.lft.to/lastmile_qr_scan", "ios": "https://dc.lft.to/lastmile_qr_scan"}, "fusion_lon": 0.0, "bike_id": "0e9f1de89ebb892a4ec28bbfaaf2f290", "is_disabled": 0, "lat": 39.05280833333333, "is_reserved": 0, "type": "electric_bike"}, {"fusion_lat": 0.0, "name": "8c4935001ae8c3f81ce778c07aa5180d", "lon": -76.92816366666666, "rental_uris": {"android": "https://dc.lft.to/lastmile_qr_scan", "ios": "https://dc.lft.to/lastmile_qr_scan"}, "fusion_lon": 0.0, "bike_id": "8c4935001ae8c3f81ce778c07aa5180d", "is_disabled": 0, "lat": 38.960985, "is_reserved": 0, "type": "electric_bike"}, {"fusion_lat": 0.0, "name": "2478b7f3c42540a594979bdd774a2aec", "lon": -77.016481, "rental_uris": {"android": "https://dc.lft.to/lastmile_qr_scan", "ios": "https://dc.lft.to/lastmile_qr_scan"}, "fusion_lon": 0.0, "bike_id": "2478b7f3c42540a594979bdd774a2aec", "is_disabled": 0, "lat": 38.872023666666664, "is_reserved": 0, "type": "electric_scooter"}, {"fusion_lat": 0.0, "name": "025c0b9b5b8f9ebcb47b3c0296c9cffd", "lon": -77.05188666666666, "rental_uris": {"android": "https://dc.lft.to/lastmile_qr_scan", "ios": "https://dc.lft.to/lastmile_qr_scan"}, "fusion_lon": 0.0, "bike_id": "025c0b9b5b8f9ebcb47b3c0296c9cffd", "is_disabled": 0, "lat": 38.923586, "is_reserved": 0, "type": "electric_scooter"}, {"fusion_lat": 0.0, "name": "1ad150f4c5985e06bc8cb0be7777b2d9", "lon": -77.06524583333334, "rental_uris": {"android": "https://dc.lft.to/lastmile_qr_scan", "ios": "https://dc.lft.to/lastmile_qr_scan"}, "fusion_lon": 0.0, "bike_id": "1ad150f4c5985e06bc8cb0be7777b2d9", "is_disabled": 0, "lat": 38.90399433333333, "is_reserved": 0, "type": "electric_scooter"}, {"fusion_lat": 0.0, "name": "5ff74c26773b1079409806ac891053c8", "lon": -77.01939866666666, "rental_uris": {"android": "https://dc.lft.to/lastmile_qr_scan", "ios": "https://dc.lft.to/lastmile_qr_scan"}, "fusion_lon": 0.0, "bike_id": "5ff74c26773b1079409806ac891053c8", "is_disabled": 0, "lat": 38.92415, "is_reserved": 0, "type": "electric_scooter"}, {"fusion_lat": 0.0, "name": "28f90bfd3ebee0764c8da3771b7d7202", "lon": -77.04556016666666, "rental_uris": {"android": "https://dc.lft.to/lastmile_qr_scan", "ios": "https://dc.lft.to/lastmile_qr_scan"}, "fusion_lon": 0.0, "bike_id": "28f90bfd3ebee0764c8da3771b7d7202", "is_disabled": 0, "lat": 38.908588333333334, "is_reserved": 0, "type": "electric_scooter"}, {"fusion_lat": 0.0, "name": "7908457cbed530432c8565fb1202e3f5", "lon": -77.03636383333334, "rental_uris": {"android": "https://dc.lft.to/lastmile_qr_scan", "ios": "https://dc.lft.to/lastmile_qr_scan"}, "fusion_lon": 0.0, "bike_id": "7908457cbed530432c8565fb1202e3f5", "is_disabled": 0, "lat": 38.92745716666667, "is_reserved": 0, "type": "electric_scooter"}, {"fusion_lat": 0.0, "name": "135f13558b4342578448fea0b067aff0", "lon": -77.03718133333334, "rental_uris": {"android": "https://dc.lft.to/lastmile_qr_scan", "ios": "https://dc.lft.to/lastmile_qr_scan"}, "fusion_lon": 0.0, "bike_id": "135f13558b4342578448fea0b067aff0", "is_disabled": 0, "lat": 38.91810516666666, "is_reserved": 0, "type": "electric_scooter"}, {"fusion_lat": 0.0, "name": "b15a2b1788799a809ec03a58d1eb2732", "lon": -77.02832033333334, "rental_uris": {"android": "https://dc.lft.to/lastmile_qr_scan", "ios": "https://dc.lft.to/lastmile_qr_scan"}, "fusion_lon": 0.0, "bike_id": "b15a2b1788799a809ec03a58d1eb2732", "is_disabled": 0, "lat": 38.88724583333333, "is_reserved": 0, "type": "electric_scooter"}, {"fusion_lat": 0.0, "name": "6d6d101a50f74b922879ca33d2392833", "lon": -76.9955915, "rental_uris": {"android": "https://dc.lft.to/lastmile_qr_scan", "ios": "https://dc.lft.to/lastmile_qr_scan"}, "fusion_lon": 0.0, "bike_id": "6d6d101a50f74b922879ca33d2392833", "is_disabled": 0, "lat": 38.902424333333336, "is_reserved": 0, "type": "electric_scooter"}, {"fusion_lat": 0.0, "name": "99e5f15b71d35d4f7141af280f508e48", "lon": -77.0416035, "rental_uris": {"android": "https://dc.lft.to/lastmile_qr_scan", "ios": "https://dc.lft.to/lastmile_qr_scan"}, "fusion_lon": 0.0, "bike_id": "99e5f15b71d35d4f7141af280f508e48", "is_disabled": 0, "lat": 38.91746233333333, "is_reserved": 0, "type": "electric_scooter"}, {"fusion_lat": 0.0, "name": "9d15b3ea525f7571810c684f43eb70e3", "lon": -77.03217016666666, "rental_uris": {"android": "https://dc.lft.to/lastmile_qr_scan", "ios": "https://dc.lft.to/lastmile_qr_scan"}, "fusion_lon": 0.0, "bike_id": "9d15b3ea525f7571810c684f43eb70e3", "is_disabled": 0, "lat": 38.898584166666666, "is_reserved": 0, "type": "electric_scooter"}, {"fusion_lat": 0.0, "name": "dbf1affaf72182ddcbdf9e0db5933838", "lon": -77.024269, "rental_uris": {"android": "https://dc.lft.to/lastmile_qr_scan", "ios": "https://dc.lft.to/lastmile_qr_scan"}, "fusion_lon": 0.0, "bike_id": "dbf1affaf72182ddcbdf9e0db5933838", "is_disabled": 0, "lat": 38.937983, "is_reserved": 0, "type": "electric_bike"}, {"fusion_lat": 0.0, "name": "0f1710e4e2c40d1d76eb203e82a0b0c4", "lon": -76.98360033333333, "rental_uris": {"android": "https://dc.lft.to/lastmile_qr_scan", "ios": "https://dc.lft.to/lastmile_qr_scan"}, "fusion_lon": 0.0, "bike_id": "0f1710e4e2c40d1d76eb203e82a0b0c4", "is_disabled": 0, "lat": 38.89722066666667, "is_reserved": 0, "type": "electric_scooter"}, {"fusion_lat": 0.0, "name": "ca863c0acfb290940f6ac8127ac20bbb", "lon": -77.1072475, "rental_uris": {"android": "https://dc.lft.to/lastmile_qr_scan", "ios": "https://dc.lft.to/lastmile_qr_scan"}, "fusion_lon": 0.0, "bike_id": "ca863c0acfb290940f6ac8127ac20bbb", "is_disabled": 0, "lat": 38.855278, "is_reserved": 0, "type": "electric_bike"}, {"fusion_lat": 0.0, "name": "dc12dc73c4efff1c62b654f14608d3a9", "lon": -77.02310316666667, "rental_uris": {"android": "https://dc.lft.to/lastmile_qr_scan", "ios": "https://dc.lft.to/lastmile_qr_scan"},