{"data": {"bikes": [{"lat": 38.91815966666667, "type": "electric_scooter", "rental_uris": {"android": "https://dc.lft.to/lastmile_qr_scan", "ios": "https://dc.lft.to/lastmile_qr_scan"}, "fusion_lat": 0.0, "name": "8ae49f6bc8b547d487833d03561def03", "is_reserved": 0, "is_disabled": 0, "bike_id": "8ae49f6bc8b547d487833d03561def03", "fusion_lon": 0.0, "lon": -77.031456}, {"lat": 38.92662633333333, "type": "electric_scooter", "rental_uris": {"android": "https://dc.lft.to/lastmile_qr_scan", "ios": "https://dc.lft.to/lastmile_qr_scan"}, "fusion_lat": 0.0, "name": "65e0615baeb38c5e296a8de38198e3c6", "is_reserved": 0, "is_disabled": 0, "bike_id": "65e0615baeb38c5e296a8de38198e3c6", "fusion_lon": 0.0, "lon": -77.0430515}, {"lat": 38.84755716666667, "type": "electric_scooter", "rental_uris": {"android": "https://dc.lft.to/lastmile_qr_scan", "ios": "https://dc.lft.to/lastmile_qr_scan"}, "fusion_lat": 0.0, "name": "aac4d1cd9ced47c65c2cd11b42edfbad", "is_reserved": 0, "is_disabled": 0, "bike_id": "aac4d1cd9ced47c65c2cd11b42edfbad", "fusion_lon": 0.0, "lon": -76.99503116666666}, {"lat": 38.859791666666666, "type": "electric_scooter", "rental_uris": {"android": "https://dc.lft.to/lastmile_qr_scan", "ios": "https://dc.lft.to/lastmile_qr_scan"}, "fusion_lat": 0.0, "name": "42bbc9613df3f20272c3d268a15ae67b", "is_reserved": 0, "is_disabled": 0, "bike_id": "42bbc9613df3f20272c3d268a15ae67b", "fusion_lon": 0.0, "lon": -76.99651766666666}, {"lat": 38.91651016666667, "type": "electric_scooter", "rental_uris": {"android": "https://dc.lft.to/lastmile_qr_scan", "ios": "https://dc.lft.to/lastmile_qr_scan"}, "fusion_lat": 0.0, "name": "7e7ceaddae5129c371cbce34de180a10", "is_reserved": 0, "is_disabled": 0, "bike_id": "7e7ceaddae5129c371cbce34de180a10", "fusion_lon": 0.0, "lon": -77.0301545}, {"lat": 38.922844166666664, "type": "electric_scooter", "rental_uris": {"android": "https://dc.lft.to/lastmile_qr_scan", "ios": "https://dc.lft.to/lastmile_qr_scan"}, "fusion_lat": 0.0, "name": "01ac0309c464dcd62979ba2783de3ffc", "is_reserved": 0, "is_disabled": 0, "bike_id": "01ac0309c464dcd62979ba2783de3ffc", "fusion_lon": 0.0, "lon": -77.03657883333334}, {"lat": 38.898509, "type": "electric_bike", "rental_uris": {"android": "https://dc.lft.to/lastmile_qr_scan", "ios": "https://dc.lft.to/lastmile_qr_scan"}, "fusion_lat": 0.0, "name": "57039df0618c14fbefaea39774f16c31", "is_reserved": 0, "is_disabled": 0, "bike_id": "57039df0618c14fbefaea39774f16c31", "fusion_lon": 0.0, "lon": -76.931927}, {"lat": 38.89714083333333, "type": "electric_scooter", "rental_uris": {"android": "https://dc.lft.to/lastmile_qr_scan", "ios": "https://dc.lft.to/lastmile_qr_scan"}, "fusion_lat": 0.0, "name": "f398fdedceed11c226571b5a84ab635c", "is_reserved": 0, "is_disabled": 0, "bike_id": "f398fdedceed11c226571b5a84ab635c", "fusion_lon": 0.0, "lon": -77.027377}, {"lat": 38.89721683333333, "type": "electric_scooter", "rental_uris": {"android": "https://dc.lft.to/lastmile_qr_scan", "ios": "https://dc.lft.to/lastmile_qr_scan"}, "fusion_lat": 0.0, "name": "1becbd23033a59a36a55fbfeb1062815", "is_reserved": 0, "is_disabled": 0, "bike_id": "1becbd23033a59a36a55fbfeb1062815", "fusion_lon": 0.0, "lon": -77.05526033333334}, {"lat": 38.8994125, "type": "electric_scooter", "rental_uris": {"android": "https://dc.lft.to/lastmile_qr_scan", "ios": "https://dc.lft.to/lastmile_qr_scan"}, "fusion_lat": 0.0, "name": "899b1282218be43b6bb62ad38b571abc", "is_reserved": 0, "is_disabled": 0, "bike_id": "899b1282218be43b6bb62ad38b571abc", "fusion_lon": 0.0, "lon": -77.054178}, {"lat": 38.948126333333335, "type": "electric_bike", "rental_uris": {"android": "https://dc.lft.to/lastmile_qr_scan", "ios": "https://dc.lft.to/lastmile_qr_scan"}, "fusion_lat": 0.0, "name": "c97263c39996fc5d388fc5fb549d2895", "is_reserved": 0, "is_disabled": 0, "bike_id": "c97263c39996fc5d388fc5fb549d2895", "fusion_lon": 0.0, "lon": -77.10003933333333}, {"lat": 38.9159575, "type": "electric_scooter", "rental_uris": {"android": "https://dc.lft.to/lastmile_qr_scan", "ios": "https://dc.lft.to/lastmile_qr_scan"}, "fusion_lat": 0.0, "name": "41e6d46c3da2d3ee87b116c3110b6489", "is_reserved": 0, "is_disabled": 0, "bike_id": "41e6d46c3da2d3ee87b116c3110b6489", "fusion_lon": 0.0, "lon": -76.99356683333333}, {"lat": 38.9128765, "type": "electric_scooter", "rental_uris": {"android": "https://dc.lft.to/lastmile_qr_scan", "ios": "https://dc.lft.to/lastmile_qr_scan"}, "fusion_lat": 0.0, "name": "102d188095e296f0820b438d62c1c2b0", "is_reserved": 0, "is_disabled": 0, "bike_id": "102d188095e296f0820b438d62c1c2b0", "fusion_lon": 0.0, "lon": -77.02387516666667}, {"lat": 38.91713516666667, "type": "electric_scooter", "rental_uris": {"android": "https://dc.lft.to/lastmile_qr_scan", "ios": "https://dc.lft.to/lastmile_qr_scan"}, "fusion_lat": 0.0, "name": "33e8e97479604fd02b2aad534f3c775d", "is_reserved": 0, "is_disabled": 0, "bike_id": "33e8e97479604fd02b2aad534f3c775d", "fusion_lon": 0.0, "lon": -76.97647316666666}, {"lat": 38.912477833333334, "type": "electric_scooter", "rental_uris": {"android": "https://dc.lft.to/lastmile_qr_scan", "ios": "https://dc.lft.to/lastmile_qr_scan"}, "fusion_lat": 0.0, "name": "1b5f2095e1fbb4ad44b552c5f07510d9", "is_reserved": 0, "is_disabled": 0, "bike_id": "1b5f2095e1fbb4ad44b552c5f07510d9", "fusion_lon": 0.0, "lon": -77.0444175}, {"lat": 38.90164716666666, "type": "electric_scooter", "rental_uris": {"android": "https://dc.lft.to/lastmile_qr_scan", "ios": "https://dc.lft.to/lastmile_qr_scan"}, "fusion_lat": 0.0, "name": "15422911adfe672e7e9a80613499ad15", "is_reserved": 0, "is_disabled": 0, "bike_id": "15422911adfe672e7e9a80613499ad15", "fusion_lon": 0.0, "lon": -77.01603833333333}, {"lat": 38.91030683333334, "type": "electric_scooter", "rental_uris": {"android": "https://dc.lft.to/lastmile_qr_scan", "ios": "https://dc.lft.to/lastmile_qr_scan"}, "fusion_lat": 0.0, "name": "13a6e4e32a58994456aa4cfee8468ee3", "is_reserved": 0, "is_disabled": 0, "bike_id": "13a6e4e32a58994456aa4cfee8468ee3", "fusion_lon": 0.0, "lon": -77.034138}, {"lat": 38.9239655, "type": "electric_scooter", "rental_uris": {"android": "https://dc.lft.to/lastmile_qr_scan", "ios": "https://dc.lft.to/lastmile_qr_scan"}, "fusion_lat": 0.0, "name": "b90c5121c1b4d5ffa9c8e17b4c1f158c", "is_reserved": 0, "is_disabled": 0, "bike_id": "b90c5121c1b4d5ffa9c8e17b4c1f158c", "fusion_lon": 0.0, "lon": -77.02045133333333}, {"lat": 38.921646, "type": "electric_scooter", "rental_uris": {"android": "https://dc.lft.to/lastmile_qr_scan", "ios": "https://dc.lft.to/lastmile_qr_scan"}, "fusion_lat": 0.0, "name": "5883170768e5e145675380a4fe9dcadc", "is_reserved": 0, "is_disabled": 0, "bike_id": "5883170768e5e145675380a4fe9dcadc", "fusion_lon": 0.0, "lon": -77.03830183333334}, {"lat": 38.8731045, "type": "electric_scooter", "rental_uris": {"android": "https://dc.lft.to/lastmile_qr_scan", "ios": "https://dc.lft.to/lastmile_qr_scan"}, "fusion_lat": 0.0, "name": "9c877dfbb074243ff32d992e71fe23eb", "is_reserved": 0, "is_disabled": 0, "bike_id": "9c877dfbb074243ff32d992e71fe23eb", "fusion_lon": 0.0, "lon": -77.0106525}, {"lat": 38.923896, "type": "electric_scooter", "rental_uris": {"android": "https://dc.lft.to/lastmile_qr_scan", "ios": "https://dc.lft.to/lastmile_qr_scan"}, "fusion_lat": 0.0, "name": "fee40704482734838f4d9b2b5d75f660", "is_reserved": 0, "is_disabled": 0, "bike_id": "fee40704482734838f4d9b2b5d75f660", "fusion_lon": 0.0, "lon": -77.02165666666667}, {"lat": 38.87730883333333, "type": "electric_bike", "rental_uris": {"android": "https://dc.lft.to/lastmile_qr_scan", "ios": "https://dc.lft.to/lastmile_qr_scan"}, "fusion_lat": 0.0, "name": "570241fd823454e5c840366633a4bc2b", "is_reserved": 0, "is_disabled": 0, "bike_id": "570241fd823454e5c840366633a4bc2b", "fusion_lon": 0.0, "lon": -77.11849816666667}, {"lat": 38.898383, "type": "electric_scooter", "rental_uris": {"android": "https://dc.lft.to/lastmile_qr_scan", "ios": "https://dc.lft.to/lastmile_qr_scan"}, "fusion_lat": 0.0, "name": "d0c4d4b6ffa111bfb3982e8107815d9a", "is_reserved": 0, "is_disabled": 0, "bike_id": "d0c4d4b6ffa111bfb3982e8107815d9a", "fusion_lon": 0.0, "lon": -77.02805266666667}, {"lat": 38.918721166666664, "type": "electric_scooter", "rental_uris": {"android": "https://dc.lft.to/lastmile_qr_scan", "ios": "https://dc.lft.to/lastmile_qr_scan"}, "fusion_lat": 0.0, "name": "f00469d43b9bf30cf1bdef07c0b425da", "is_reserved": 0, "is_disabled": 0, "bike_id": "f00469d43b9bf30cf1bdef07c0b425da", "fusion_lon": 0.0, "lon": -77.04315066666666}, {"lat": 38.928270833333336, "type": "electric_scooter", "rental_uris": {"android": "https://dc.lft.to/lastmile_qr_scan", "ios": "https://dc.lft.to/lastmile_qr_scan"}, "fusion_lat": 0.0, "name": "b55fabe3f7c6e3c287a7ac030352b641", "is_reserved": 0, "is_disabled": 0, "bike_id": "b55fabe3f7c6e3c287a7ac030352b641", "fusion_lon": 0.0, "lon": -76.99588183333333}, {"lat": 38.90204966666667, "type": "electric_scooter", "rental_uris": {"android": "https://dc.lft.to/lastmile_qr_scan", "ios": "https://dc.lft.to/lastmile_qr_scan"}, "fusion_lat": 0.0, "name": "835fc1ce3ff13dede93964ee4175eb6c", "is_reserved": 0, "is_disabled": 0, "bike_id": "835fc1ce3ff13dede93964ee4175eb6c", "fusion_lon": 0.0, "lon": -77.023372}, {"lat": 38.91723983333333, "type": "electric_scooter", "rental_uris": {"android": "https://dc.lft.to/lastmile_qr_scan", "ios": "https://dc.lft.to/lastmile_qr_scan"}, "fusion_lat": 0.0, "name": "016f3a377008b774104afc69e6f60d6d", "is_reserved": 0, "is_disabled": 0, "bike_id": "016f3a377008b774104afc69e6f60d6d", "fusion_lon": 0.0, "lon": -77.03617816666667}, {"lat": 38.9073105, "type": "electric_scooter", "rental_uris": {"android": "https://dc.lft.to/lastmile_qr_scan", "ios": "https://dc.lft.to/lastmile_qr_scan"}, "fusion_lat": 0.0, "name": "9536cf73a5cbc14dee770f08284850cd", "is_reserved": 0, "is_disabled": 0, "bike_id": "9536cf73a5cbc14dee770f08284850cd", "fusion_lon": 0.0, "lon": -77.02950633333333}, {"lat": 38.9342235, "type": "electric_scooter", "rental_uris": {"android": "https://dc.lft.to/lastmile_qr_scan", "ios": "https://dc.lft.to/lastmile_qr_scan"}, "fusion_lat": 0.0, "name": "d7fc80a84b0763e13ed377321f1834fa", "is_reserved": 0, "is_disabled": 0, "bike_id": "d7fc80a84b0763e13ed377321f1834fa", "fusion_lon": 0.0, "lon": -77.0329025}, {"lat": 38.9039235, "type": "electric_scooter", "rental_uris": {"android": "https://dc.lft.to/lastmile_qr_scan", "ios": "https://dc.lft.to/lastmile_qr_scan"}, "fusion_lat": 0.0, "name": "d7ba1b5df2ac5485f76123035179261f", "is_reserved": 0, "is_disabled": 0, "bike_id": "d7ba1b5df2ac5485f76123035179261f", "fusion_lon": 0.0, "lon": -77.06027516666667}, {"lat": 38.9026685, "type": "electric_scooter", "rental_uris": {"android": "https://dc.lft.to/lastmile_qr_scan", "ios": "https://dc.lft.to/lastmile_qr_scan"}, "fusion_lat": 0.0, "name": "c32f1846c694e6c2f3772697e6ffc461", "is_reserved": 0, "is_disabled": 0, "bike_id": "c32f1846c694e6c2f3772697e6ffc461", "fusion_lon": 0.0, "lon": -76.929003}, {"lat": 38.887241333333336, "type": "electric_scooter", "rental_uris": {"android": "https://dc.lft.to/lastmile_qr_scan", "ios": "https://dc.lft.to/lastmile_qr_scan"}, "fusion_lat": 0.0, "name": "42cc7404b44a37cda92efcc8bb01afb0", "is_reserved": 0, "is_disabled": 0, "bike_id": "42cc7404b44a37cda92efcc8bb01afb0", "fusion_lon": 0.0, "lon": -77.0213305}, {"lat": 38.91601566666667, "type": "electric_scooter", "rental_uris": {"android": "https://dc.lft.to/lastmile_qr_scan", "ios": "https://dc.lft.to/lastmile_qr_scan"}, "fusion_lat": 0.0, "name": "99ed47e38bbdef9f0dec289a90989b18", "is_reserved": 0, "is_disabled": 0, "bike_id": "99ed47e38bbdef9f0dec289a90989b18", "fusion_lon": 0.0, "lon": -77.02294616666667}, {"lat": 38.8954195, "type": "electric_scooter", "rental_uris": {"android": "https://dc.lft.to/lastmile_qr_scan", "ios": "https://dc.lft.to/lastmile_qr_scan"}, "fusion_lat": 0.0, "name": "585370976623e37219444b3849e617d0", "is_reserved": 0, "is_disabled": 0, "bike_id": "585370976623e37219444b3849e617d0", "fusion_lon": 0.0, "lon": -76.98336283333333}, {"lat": 38.91465083333333, "type": "electric_scooter", "rental_uris": {"android": "https://dc.lft.to/lastmile_qr_scan", "ios": "https://dc.lft.to/lastmile_qr_scan"}, "fusion_lat": 0.0, "name": "142f42758def0eb01324f910b9d7236b", "is_reserved": 0, "is_disabled": 0, "bike_id": "142f42758def0eb01324f910b9d7236b", "fusion_lon": 0.0, "lon": -77.04562466666667}, {"lat": 38.86978416666667, "type": "electric_scooter", "rental_uris": {"android": "https://dc.lft.to/lastmile_qr_scan", "ios": "https://dc.lft.to/lastmile_qr_scan"}, "fusion_lat": 0.0, "name": "3f3ac5f7208b8d4d77fcb561aeeb43d3", "is_reserved": 0, "is_disabled": 0, "bike_id": "3f3ac5f7208b8d4d77fcb561aeeb43d3", "fusion_lon": 0.0, "lon": -77.0137175}, {"lat": 38.91483183333333, "type": "electric_scooter", "rental_uris": {"android": "https://dc.lft.to/lastmile_qr_scan", "ios": "https://dc.lft.to/lastmile_qr_scan"}, "fusion_lat": 0.0, "name": "41659530ad408f4dcf417897114996ea", "is_reserved": 0, "is_disabled": 0, "bike_id": "41659530ad408f4dcf417897114996ea", "fusion_lon": 0.0, "lon": -77.03764133333334}, {"lat": 38.892849, "type": "electric_scooter", "rental_uris": {"android": "https://dc.lft.to/lastmile_qr_scan", "ios": "https://dc.lft.to/lastmile_qr_scan"}, "fusion_lat": 0.0, "name": "aadcba17fbcdde0ff14b27d27d995dde", "is_reserved": 0, "is_disabled": 0, "bike_id": "aadcba17fbcdde0ff14b27d27d995dde", "fusion_lon": 0.0, "lon": -77.046566}, {"lat": 38.87360866666667, "type": "electric_scooter", "rental_uris": {"android": "https://dc.lft.to/lastmile_qr_scan", "ios": "https://dc.lft.to/lastmile_qr_scan"}, "fusion_lat": 0.0, "name": "71b0c479aaefe933c0aa4d66c128eb46", "is_reserved": 0, "is_disabled": 0, "bike_id": "71b0c479aaefe933c0aa4d66c128eb46", "fusion_lon": 0.0, "lon": -77.00128416666666}, {"lat": 38.9047045, "type": "electric_scooter", "rental_uris": {"android": "https://dc.lft.to/lastmile_qr_scan", "ios": "https://dc.lft.to/lastmile_qr_scan"}, "fusion_lat": 0.0, "name": "02a80a25ac71a9311cac652f558c02ea", "is_reserved": 0, "is_disabled": 0, "bike_id": "02a80a25ac71a9311cac652f558c02ea", "fusion_lon": 0.0, "lon": -77.06594583333333}, {"lat": 38.987772, "type": "electric_bike", "rental_uris": {"android": "https://dc.lft.to/lastmile_qr_scan", "ios": "https://dc.lft.to/lastmile_qr_scan"}, "fusion_lat": 0.0, "name": "7c4da6f190b7208eedd07d92df5afac0", "is_reserved": 0, "is_disabled": 0, "bike_id": "7c4da6f190b7208eedd07d92df5afac0", "fusion_lon": 0.0, "lon": -77.140998}, {"lat": 38.9241455, "type": "electric_bike", "rental_uris": {"android": "https://dc.lft.to/lastmile_qr_scan", "ios": "https://dc.lft.to/lastmile_qr_scan"}, "fusion_lat": 0.0, "name": "f91bfa6ccaeaba760017ddad6c2d2103", "is_reserved": 0, "is_disabled": 0, "bike_id": "f91bfa6ccaeaba760017ddad6c2d2103", "fusion_lon": 0.0, "lon": -77.05039266666667}, {"lat": 38.907136666666666, "type": "electric_scooter", "rental_uris": {"android": "https://dc.lft.to/lastmile_qr_scan", "ios": "https://dc.lft.to/lastmile_qr_scan"}, "fusion_lat": 0.0, "name": "8f257e1cae0136734450c2ac6ff34b4d", "is_reserved": 0, "is_disabled": 0, "bike_id": "8f257e1cae0136734450c2ac6ff34b4d", "fusion_lon": 0.0, "lon": -77.025201}, {"lat": 38.870172, "type": "electric_bike", "rental_uris": {"android": "https://dc.lft.to/lastmile_qr_scan", "ios": "https://dc.lft.to/lastmile_qr_scan"}, "fusion_lat": 0.0, "name": "bc644ef9b3a9c633f9648187e10653b0", "is_reserved": 0, "is_disabled": 0, "bike_id": "bc644ef9b3a9c633f9648187e10653b0", "fusion_lon": 0.0, "lon": -77.22904616666666}, {"lat": 38.89234533333333, "type": "electric_scooter", "rental_uris": {"android": "https://dc.lft.to/lastmile_qr_scan", "ios": "https://dc.lft.to/lastmile_qr_scan"}, "fusion_lat": 0.0, "name": "8fe0664de1eb1122392c7aaa41ee09a5", "is_reserved": 0, "is_disabled": 0, "bike_id": "8fe0664de1eb1122392c7aaa41ee09a5", "fusion_lon": 0.0, "lon": -77.04354766666667}, {"lat": 38.919250166666664, "type": "electric_scooter", "rental_uris": {"android": "https://dc.lft.to/lastmile_qr_scan", "ios": "https://dc.lft.to/lastmile_qr_scan"}, "fusion_lat": 0.0, "name": "9941b043f4c1d0f0bbdc495b7c08a913", "is_reserved": 0, "is_disabled": 0, "bike_id": "9941b043f4c1d0f0bbdc495b7c08a913", "fusion_lon": 0.0, "lon": -77.03264316666667}, {"lat": 38.927067666666666, "type": "electric_bike", "rental_uris": {"android": "https://dc.lft.to/lastmile_qr_scan", "ios": "https://dc.lft.to/lastmile_qr_scan"}, "fusion_lat": 0.0, "name": "0c3b78c1a8a267ecefb7cc9605182f69", "is_reserved": 0, "is_disabled": 0, "bike_id": "0c3b78c1a8a267ecefb7cc9605182f69", "fusion_lon": 0.0, "lon": -77.0207965}, {"lat": 38.897862333333336, "type": "electric_scooter", "rental_uris": {"android": "https://dc.lft.to/lastmile_qr_scan", "ios": "https://dc.lft.to/lastmile_qr_scan"}, "fusion_lat": 0.0, "name": "d0bc8f25643f5825a337caee4480ca46", "is_reserved": 0, "is_disabled": 0, "bike_id": "d0bc8f25643f5825a337caee4480ca46", "fusion_lon": 0.0, "lon": -76.94728583333334}, {"lat": 38.91708416666667, "type": "electric_scooter", "rental_uris": {"android": "https://dc.lft.to/lastmile_qr_scan", "ios": "https://dc.lft.to/lastmile_qr_scan"}, "fusion_lat": 0.0, "name": "2fd852120dabe523822975f47385ada1", "is_reserved": 0, "is_disabled": 0, "bike_id": "2fd852120dabe523822975f47385ada1", "fusion_lon": 0.0, "lon": -77.03340366666667}, {"lat": 38.87085166666667, "type": "electric_bike", "rental_uris": {"android": "https://dc.lft.to/lastmile_qr_scan", "ios": "https://dc.lft.to/lastmile_qr_scan"}, "fusion_lat": 0.0, "name": "716449808077c181a36f5e74e1f72e61", "is_reserved": 0, "is_disabled": 0, "bike_id": "716449808077c181a36f5e74e1f72e61", "fusion_lon": 0.0, "lon": -77.012061}, {"lat": 38.9038695, "type": "electric_scooter", "rental_uris": {"android": "https://dc.lft.to/lastmile_qr_scan", "ios": "https://dc.lft.to/lastmile_qr_scan"}, "fusion_lat": 0.0, "name": "19a1fbfeb79862cf53c905c29cdec40c", "is_reserved": 0, "is_disabled": 0, "bike_id": "19a1fbfeb79862cf53c905c29cdec40c", "fusion_lon": 0.0, "lon": -77.029973}, {"lat": 38.927908, "type": "electric_scooter", "rental_uris": {"android": "https://dc.lft.to/lastmile_qr_scan", "ios": "https://dc.lft.to/lastmile_qr_scan"}, "fusion_lat": 0.0, "name": "b7fead86fda7c3b7dd784573159fdbab", "is_reserved": 0, "is_disabled": 0, "bike_id": "b7fead86fda7c3b7dd784573159fdbab", "fusion_lon": 0.0, "lon": -77.02732216666666}, {"lat": 38.942662166666665, "type": "electric_scooter", "rental_uris": {"android": "https://dc.lft.to/lastmile_qr_scan", "ios": "https://dc.lft.to/lastmile_qr_scan"}, "fusion_lat": 0.0, "name": "c200cdf39e71771025700387a02628dc", "is_reserved": 0, "is_disabled": 0, "bike_id": "c200cdf39e71771025700387a02628dc", "fusion_lon": 0.0, "lon": -77.03263116666666}, {"lat": 38.892338333333335, "type": "electric_scooter", "rental_uris": {"android": "https://dc.lft.to/lastmile_qr_scan", "ios": "https://dc.lft.to/lastmile_qr_scan"}, "fusion_lat": 0.0, "name": "9db7b51340f111c7338b1ccfc05f86c9", "is_reserved": 0, "is_disabled": 0, "bike_id": "9db7b51340f111c7338b1ccfc05f86c9", "fusion_lon": 0.0, "lon": -77.03184866666666}, {"lat": 38.89226266666667, "type": "electric_scooter", "rental_uris": {"android": "https://dc.lft.to/lastmile_qr_scan", "ios": "https://dc.lft.to/lastmile_qr_scan"}, "fusion_lat": 0.0, "name": "480f44b66e3c623389a85537493aaa59", "is_reserved": 0, "is_disabled": 0, "bike_id": "480f44b66e3c623389a85537493aaa59", "fusion_lon": 0.0, "lon": -77.03224933333334}, {"lat": 38.894826, "type": "electric_bike", "rental_uris": {"android": "https://dc.lft.to/lastmile_qr_scan", "ios": "https://dc.lft.to/lastmile_qr_scan"}, "fusion_lat": 0.0, "name": "283a54927e9d1769f07d1b1e3adc0e8e", "is_reserved": 0, "is_disabled": 0, "bike_id": "283a54927e9d1769f07d1b1e3adc0e8e", "fusion_lon": 0.0, "lon": -77.02634483333334}, {"lat": 38.92239816666667, "type": "electric_scooter", "rental_uris": {"android": "https://dc.lft.to/lastmile_qr_scan", "ios": "https://dc.lft.to/lastmile_qr_scan"}, "fusion_lat": 0.0, "name": "b4f6406ee23af9ef25a3621478c79001", "is_reserved": 0, "is_disabled": 0, "bike_id": "b4f6406ee23af9ef25a3621478c79001", "fusion_lon": 0.0, "lon": -77.03514866666667}, {"lat": 38.911139666666664, "type": "electric_scooter", "rental_uris": {"android": "https://dc.lft.to/lastmile_qr_scan", "ios": "https://dc.lft.to/lastmile_qr_scan"}, "fusion_lat": 0.0, "name": "77648b661f673777adf01f9c90d5c439", "is_reserved": 0, "is_disabled": 0, "bike_id": "77648b661f673777adf01f9c90d5c439", "fusion_lon": 0.0, "lon": -77.04471833333334}, {"lat": 38.934799, "type": "electric_scooter", "rental_uris": {"android": "https://dc.lft.to/lastmile_qr_scan", "ios": "https://dc.lft.to/lastmile_qr_scan"}, "fusion_lat": 0.0, "name": "6ee0ad11184c2fdf0a30d2c417f0cd19", "is_reserved": 0, "is_disabled": 0, "bike_id": "6ee0ad11184c2fdf0a30d2c417f0cd19", "fusion_lon": 0.0, "lon": -77.0727155}, {"lat": 38.908160333333335, "type": "electric_scooter", "rental_uris": {"android": "https://dc.lft.to/lastmile_qr_scan", "ios": "https://dc.lft.to/lastmile_qr_scan"}, "fusion_lat": 0.0, "name": "14ded07a1141c01bc9029239d6ec3e2b", "is_reserved": 0, "is_disabled": 0, "bike_id": "14ded07a1141c01bc9029239d6ec3e2b", "fusion_lon": 0.0, "lon": -77.02214483333333}, {"lat": 38.91211966666667, "type": "electric_scooter", "rental_uris": {"android": "https://dc.lft.to/lastmile_qr_scan", "ios": "https://dc.lft.to/lastmile_qr_scan"}, "fusion_lat": 0.0, "name": "161cdb9af7431b44ca41721619b0edcb", "is_reserved": 0, "is_disabled": 0, "bike_id": "161cdb9af7431b44ca41721619b0edcb", "fusion_lon": 0.0, "lon": -77.03191483333333}, {"lat": 38.889706, "type": "electric_scooter", "rental_uris": {"android": "https://dc.lft.to/lastmile_qr_scan", "ios": "https://dc.lft.to/lastmile_qr_scan"}, "fusion_lat": 0.0, "name": "98ba36cc8edaa2030f1408b7eb8c966e", "is_reserved": 0, "is_disabled": 0, "bike_id": "98ba36cc8edaa2030f1408b7eb8c966e", "fusion_lon": 0.0, "lon": -76.9945855}, {"lat": 38.9248705, "type": "electric_scooter", "rental_uris": {"android": "https://dc.lft.to/lastmile_qr_scan", "ios": "https://dc.lft.to/lastmile_qr_scan"}, "fusion_lat": 0.0, "name": "08184484dcf5cf4c7dd4d0729cedb1f9", "is_reserved": 0, "is_disabled": 0, "bike_id": "08184484dcf5cf4c7dd4d0729cedb1f9", "fusion_lon": 0.0, "lon": -77.03008183333333}, {"lat": 38.903763833333336, "type": "electric_scooter", "rental_uris": {"android": "https://dc.lft.to/lastmile_qr_scan", "ios": "https://dc.lft.to/lastmile_qr_scan"}, "fusion_lat": 0.0, "name": "ea0336a38b72b5079ab294fc951cc9f2", "is_reserved": 0, "is_disabled": 0, "bike_id": "ea0336a38b72b5079ab294fc951cc9f2", "fusion_lon": 0.0, "lon": -77.05041633333333}, {"lat": 38.899218166666664, "type": "electric_scooter", "rental_uris": {"android": "https://dc.lft.to/lastmile_qr_scan", "ios": "https://dc.lft.to/lastmile_qr_scan"}, "fusion_lat": 0.0, "name": "725138bf40e6d9ec62a3240a6de496f0", "is_reserved": 0, "is_disabled": 0, "bike_id": "725138bf40e6d9ec62a3240a6de496f0", "fusion_lon": 0.0, "lon": -77.01996083333333}, {"lat": 38.87871116666667, "type": "electric_scooter", "rental_uris": {"android": "https://dc.lft.to/lastmile_qr_scan", "ios": "https://dc.lft.to/lastmile_qr_scan"}, "fusion_lat": 0.0, "name": "4feeb9de6e95a54b6137fc099fea29c5", "is_reserved": 0, "is_disabled": 0, "bike_id": "4feeb9de6e95a54b6137fc099fea29c5", "fusion_lon": 0.0, "lon": -76.99944966666666}, {"lat": 38.924788166666666, "type": "electric_scooter", "rental_uris": {"android": "https://dc.lft.to/lastmile_qr_scan", "ios": "https://dc.lft.to/lastmile_qr_scan"}, "fusion_lat": 0.0, "name": "0413619de24e2f2171b719e9cd9ad789", "is_reserved": 0, "is_disabled": 0, "bike_id": "0413619de24e2f2171b719e9cd9ad789", "fusion_lon": 0.0, "lon": -77.02595616666666}, {"lat": 38.869409833333336, "type": "electric_bike", "rental_uris": {"android": "https://dc.lft.to/lastmile_qr_scan", "ios": "https://dc.lft.to/lastmile_qr_scan"}, "fusion_lat": 0.0, "name": "29f3efef989511e55b92c938716d0b78", "is_reserved": 0, "is_disabled": 0, "bike_id": "29f3efef989511e55b92c938716d0b78", "fusion_lon": 0.0, "lon": -77.011827}, {"lat": 38.83828966666667, "type": "electric_scooter", "rental_uris": {"android": "https://dc.lft.to/lastmile_qr_scan", "ios": "https://dc.lft.to/lastmile_qr_scan"}, "fusion_lat": 0.0, "name": "447a199b87bb3b522a757dcc8e4ecea0", "is_reserved": 0, "is_disabled": 0, "bike_id": "447a199b87bb3b522a757dcc8e4ecea0", "fusion_lon": 0.0, "lon": -76.9968205}, {"lat": 38.924726, "type": "electric_scooter", "rental_uris": {"android": "https://dc.lft.to/lastmile_qr_scan", "ios": "https://dc.lft.to/lastmile_qr_scan"}, "fusion_lat": 0.0, "name": "209e980c63766529b8254cbdb82d34b9", "is_reserved": 0, "is_disabled": 0, "bike_id": "209e980c63766529b8254cbdb82d34b9", "fusion_lon": 0.0, "lon": -77.02659433333334}, {"lat": 38.90256883333333, "type": "electric_scooter", "rental_uris": {"android": "https://dc.lft.to/lastmile_qr_scan", "ios": "https://dc.lft.to/lastmile_qr_scan"}, "fusion_lat": 0.0, "name": "e8ce623ec2a01ebea825e3e96eaea235", "is_reserved": 0, "is_disabled": 0, "bike_id": "e8ce623ec2a01ebea825e3e96eaea235", "fusion_lon": 0.0, "lon": -77.04609883333333}, {"lat": 38.87151316666667, "type": "electric_scooter", "rental_uris": {"android": "https://dc.lft.to/lastmile_qr_scan", "ios": "https://dc.lft.to/lastmile_qr_scan"}, "fusion_lat": 0.0, "name": "99803bb0e03981c718fe0e918ea58251", "is_reserved": 0, "is_disabled": 0, "bike_id": "99803bb0e03981c718fe0e918ea58251", "fusion_lon": 0.0, "lon": -77.01069216666667}, {"lat": 38.918207, "type": "electric_scooter", "rental_uris": {"android": "https://dc.lft.to/lastmile_qr_scan", "ios": "https://dc.lft.to/lastmile_qr_scan"}, "fusion_lat": 0.0, "name": "c62255b32c914bed04f796727495fc63", "is_reserved": 0, "is_disabled": 0, "bike_id": "c62255b32c914bed04f796727495fc63", "fusion_lon": 0.0, "lon": -77.03656033333333}, {"lat": 38.92480883333333, "type": "electric_scooter", "rental_uris": {"android": "https://dc.lft.to/lastmile_qr_scan", "ios": "https://dc.lft.to/lastmile_qr_scan"}, "fusion_lat": 0.0, "name": "47cf7e923ab4f3c51a364637a2d51d43", "is_reserved": 0, "is_disabled": 0, "bike_id": "47cf7e923ab4f3c51a364637a2d51d43", "fusion_lon": 0.0, "lon": -77.05214416666666}, {"lat": 38.920941666666664, "type": "electric_scooter", "rental_uris": {"android": "https://dc.lft.to/lastmile_qr_scan", "ios": "https://dc.lft.to/lastmile_qr_scan"}, "fusion_lat": 0.0, "name": "e2da3f162dbdf5268301127cc8b3c77c", "is_reserved": 0, "is_disabled": 0, "bike_id": "e2da3f162dbdf5268301127cc8b3c77c", "fusion_lon": 0.0, "lon": -77.02517416666667}, {"lat": 38.916598666666665, "type": "electric_scooter", "rental_uris": {"android": "https://dc.lft.to/lastmile_qr_scan", "ios": "https://dc.lft.to/lastmile_qr_scan"}, "fusion_lat": 0.0, "name": "c766ef0b14f7d4c205c8a8b8d6a4367c", "is_reserved": 0, "is_disabled": 0, "bike_id": "c766ef0b14f7d4c205c8a8b8d6a4367c", "fusion_lon": 0.0, "lon": -77.03857633333334}, {"lat": 38.9168625, "type": "electric_scooter", "rental_uris": {"android": "https://dc.lft.to/lastmile_qr_scan", "ios": "https://dc.lft.to/lastmile_qr_scan"}, "fusion_lat": 0.0, "name": "f31cf64534d3acbf5a710236acb53477", "is_reserved": 0, "is_disabled": 0, "bike_id": "f31cf64534d3acbf5a710236acb53477", "fusion_lon": 0.0, "lon": -77.02599066666667}, {"lat": 38.937787166666666, "type": "electric_scooter", "rental_uris": {"android": "https://dc.lft.to/lastmile_qr_scan", "ios": "https://dc.lft.to/lastmile_qr_scan"}, "fusion_lat": 0.0, "name": "91e75e6971ddd5c48b94c8f847a7aad8", "is_reserved": 0, "is_disabled": 0, "bike_id": "91e75e6971ddd5c48b94c8f847a7aad8", "fusion_lon": 0.0, "lon": -77.03280433333333}, {"lat": 38.901111, "type": "electric_scooter", "rental_uris": {"android": "https://dc.lft.to/lastmile_qr_scan", "ios": "https://dc.lft.to/lastmile_qr_scan"}, "fusion_lat": 0.0, "name": "c4627936585fb57280b197dd3940d883", "is_reserved": 0, "is_disabled": 0, "bike_id": "c4627936585fb57280b197dd3940d883", "fusion_lon": 0.0, "lon": -77.00217366666666}, {"lat": 38.93361933333333, "type": "electric_scooter", "rental_uris": {"android": "https://dc.lft.to/lastmile_qr_scan", "ios": "https://dc.lft.to/lastmile_qr_scan"}, "fusion_lat": 0.0, "name": "1e9e1ca323b41e05c4462d9bbf4f988b", "is_reserved": 0, "is_disabled": 0, "bike_id": "1e9e1ca323b41e05c4462d9bbf4f988b", "fusion_lon": 0.0, "lon": -77.05731266666666}, {"lat": 38.913445333333335, "type": "electric_scooter", "rental_uris": {"android": "https://dc.lft.to/lastmile_qr_scan", "ios": "https://dc.lft.to/lastmile_qr_scan"}, "fusion_lat": 0.0, "name": "180378848aff7f037002bfedb9d7d4f3", "is_reserved": 0, "is_disabled": 0, "bike_id": "180378848aff7f037002bfedb9d7d4f3", "fusion_lon": 0.0, "lon": -77.04664533333333}, {"lat": 38.832498, "type": "electric_bike", "rental_uris": {"android": "https://dc.lft.to/lastmile_qr_scan", "ios": "https://dc.lft.to/lastmile_qr_scan"}, "fusion_lat": 0.0, "name": "c4995827dcc8f24e0b97bbd6646f66f3", "is_reserved": 0, "is_disabled": 0, "bike_id": "c4995827dcc8f24e0b97bbd6646f66f3", "fusion_lon": 0.0, "lon": -77.00729083333333}, {"lat": 38.924446833333334, "type": "electric_scooter", "rental_uris": {"android": "https://dc.lft.to/lastmile_qr_scan", "ios": "https://dc.lft.to/lastmile_qr_scan"}, "fusion_lat": 0.0, "name": "5fc784360b36b78b82d29c80d0a79a18", "is_reserved": 0, "is_disabled": 0, "bike_id": "5fc784360b36b78b82d29c80d0a79a18", "fusion_lon": 0.0, "lon": -77.04018566666667}, {"lat": 38.9230985, "type": "electric_scooter", "rental_uris": {"android": "https://dc.lft.to/lastmile_qr_scan", "ios": "https://dc.lft.to/lastmile_qr_scan"}, "fusion_lat": 0.0, "name": "713992c7f185c715205637af5c1f8d6f", "is_reserved": 0, "is_disabled": 0, "bike_id": "713992c7f185c715205637af5c1f8d6f", "fusion_lon": 0.0, "lon": -77.0341705}, {"lat": 38.916601666666665, "type": "electric_scooter", "rental_uris": {"android": "https://dc.lft.to/lastmile_qr_scan", "ios": "https://dc.lft.to/lastmile_qr_scan"}, "fusion_lat": 0.0, "name": "bf988fc6855c0949ccbfe711512232dc", "is_reserved": 0, "is_disabled": 0, "bike_id": "bf988fc6855c0949ccbfe711512232dc", "fusion_lon": 0.0, "lon": -77.04391083333333}, {"lat": 38.89902416666666, "type": "electric_scooter", "rental_uris": {"android": "https://dc.lft.to/lastmile_qr_scan", "ios": "https://dc.lft.to/lastmile_qr_scan"}, "fusion_lat": 0.0, "name": "58a891d018867473eb3bd15492fa8cb3", "is_reserved": 0, "is_disabled": 0, "bike_id": "58a891d018867473eb3bd15492fa8cb3", "fusion_lon": 0.0, "lon": -76.94550333333333}, {"lat": 38.9176625, "type": "electric_scooter", "rental_uris": {"android": "https://dc.lft.to/lastmile_qr_scan", "ios": "https://dc.lft.to/lastmile_qr_scan"}, "fusion_lat": 0.0, "name": "aca99d6003bf81d90132d4cf71104901", "is_reserved": 0, "is_disabled": 0, "bike_id": "aca99d6003bf81d90132d4cf71104901", "fusion_lon": 0.0, "lon": -77.02404266666667}, {"lat": 38.914493666666665, "type": "electric_scooter", "rental_uris": {"android": "https://dc.lft.to/lastmile_qr_scan", "ios": "https://dc.lft.to/lastmile_qr_scan"}, "fusion_lat": 0.0, "name": "6373cb8b03b410400a7f14839d13cdbe", "is_reserved": 0, "is_disabled": 0, "bike_id": "6373cb8b03b410400a7f14839d13cdbe", "fusion_lon": 0.0, "lon": -77.04153466666666}, {"lat": 38.947357833333335, "type": "electric_scooter", "rental_uris": {"android": "https://dc.lft.to/lastmile_qr_scan", "ios": "https://dc.lft.to/lastmile_qr_scan"}, "fusion_lat": 0.0, "name": "9ef3436cc5068a18a7ac8bdff953bb2f", "is_reserved": 0, "is_disabled": 0, "bike_id": "9ef3436cc5068a18a7ac8bdff953bb2f", "fusion_lon": 0.0, "lon": -77.016192}, {"lat": 38.911481333333334, "type": "electric_scooter", "rental_uris": {"android": "https://dc.lft.to/lastmile_qr_scan", "ios": "https://dc.lft.to/lastmile_qr_scan"}, "fusion_lat": 0.0, "name": "f5d825e0bc4da91bd5db3159ff8ca98e", "is_reserved": 0, "is_disabled": 0, "bike_id": "f5d825e0bc4da91bd5db3159ff8ca98e", "fusion_lon": 0.0, "lon": -77.03463633333334}, {"lat": 38.90492316666667, "type": "electric_scooter", "rental_uris": {"android": "https://dc.lft.to/lastmile_qr_scan", "ios": "https://dc.lft.to/lastmile_qr_scan"}, "fusion_lat": 0.0, "name": "e74a56b0f3c4832d4cc4e34adec30698", "is_reserved": 0, "is_disabled": 0, "bike_id": "e74a56b0f3c4832d4cc4e34adec30698", "fusion_lon": 0.0, "lon": -77.00736416666666}, {"lat": 38.91290633333333, "type": "electric_scooter", "rental_uris": {"android": "https://dc.lft.to/lastmile_qr_scan", "ios": "https://dc.lft.to/lastmile_qr_scan"}, "fusion_lat": 0.0, "name": "efb482fd09dbad93022d076e30a49606", "is_reserved": 0, "is_disabled": 0, "bike_id": "efb482fd09dbad93022d076e30a49606", "fusion_lon": 0.0, "lon": -77.02234533333333}, {"lat": 38.90077083333333, "type": "electric_scooter", "rental_uris": {"android": "https://dc.lft.to/lastmile_qr_scan", "ios": "https://dc.lft.to/lastmile_qr_scan"}, "fusion_lat": 0.0, "name": "ae7dd8d4e6c61e221d4b9cc0d8eecb66", "is_reserved": 0, "is_disabled": 0, "bike_id": "ae7dd8d4e6c61e221d4b9cc0d8eecb66", "fusion_lon": 0.0, "lon": -77.033758}, {"lat": 38.903785, "type": "electric_scooter", "rental_uris": {"android": "https://dc.lft.to/lastmile_qr_scan", "ios": "https://dc.lft.to/lastmile_qr_scan"}, "fusion_lat": 0.0, "name": "4efe5447f67338a3e9db73515e4c547c", "is_reserved": 0, "is_disabled": 0, "bike_id": "4efe5447f67338a3e9db73515e4c547c", "fusion_lon": 0.0, "lon": -77.01803233333334}, {"lat": 38.920887666666665, "type": "electric_scooter", "rental_uris": {"android": "https://dc.lft.to/lastmile_qr_scan", "ios": "https://dc.lft.to/lastmile_qr_scan"}, "fusion_lat": 0.0, "name": "354558affa46ebd2c2f6583e64f64e35", "is_reserved": 0, "is_disabled": 0, "bike_id": "354558affa46ebd2c2f6583e64f64e35", "fusion_lon": 0.0, "lon": -77.004258}, {"lat": 38.869605, "type": "electric_scooter", "rental_uris": {"android": "https://dc.lft.to/lastmile_qr_scan", "ios": "https://dc.lft.to/lastmile_qr_scan"}, "fusion_lat": 0.0, "name": "7eb0e1e57d367784fa151b5c4bca0d05", "is_reserved": 0, "is_disabled": 0, "bike_id": "7eb0e1e57d367784fa151b5c4bca0d05", "fusion_lon": 0.0, "lon": -77.013738}, {"lat": 38.921682, "type": "electric_scooter", "rental_uris": {"android": "https://dc.lft.to/lastmile_qr_scan", "ios": "https://dc.lft.to/lastmile_qr_scan"}, "fusion_lat": 0.0, "name": "0509c609cff3dd1ec642679920884b0f", "is_reserved": 0, "is_disabled": 0, "bike_id": "0509c609cff3dd1ec642679920884b0f", "fusion_lon": 0.0, "lon": -77.0383375}, {"lat": 38.93440833333333, "type": "electric_scooter", "rental_uris": {"android": "https://dc.lft.to/lastmile_qr_scan", "ios": "https://dc.lft.to/lastmile_qr_scan"}, "fusion_lat": 0.0, "name": "7545b7616dcc5d3c5f66853e6490c1f7", "is_reserved": 0, "is_disabled": 0, "bike_id": "7545b7616dcc5d3c5f66853e6490c1f7", "fusion_lon": 0.0, "lon": -77.0387375}, {"lat": 38.90548116666667, "type": "electric_scooter", "rental_uris": {"android": "https://dc.lft.to/lastmile_qr_scan", "ios": "https://dc.lft.to/lastmile_qr_scan"}, "fusion_lat": 0.0, "name": "93d7a3cdf790ff209d41299799db7fa4", "is_reserved": 0, "is_disabled": 0, "bike_id": "93d7a3cdf790ff209d41299799db7fa4", "fusion_lon": 0.0, "lon": -77.00592516666667}, {"lat": 38.892252, "type": "electric_scooter", "rental_uris": {"android": "https://dc.lft.to/lastmile_qr_scan", "ios": "https://dc.lft.to/lastmile_qr_scan"}, "fusion_lat": 0.0, "name": "30d208885857f5fa435f457fb1f8ae0a", "is_reserved": 0, "is_disabled": 0, "bike_id": "30d208885857f5fa435f457fb1f8ae0a", "fusion_lon": 0.0, "lon": -77.04504533333333}, {"lat": 38.897251, "type": "electric_scooter", "rental_uris": {"android": "https://dc.lft.to/lastmile_qr_scan", "ios": "https://dc.lft.to/lastmile_qr_scan"}, "fusion_lat": 0.0, "name": "53eb7938d998ff1b4adcaa8d4afe0a21", "is_reserved": 0, "is_disabled": 0, "bike_id": "53eb7938d998ff1b4adcaa8d4afe0a21", "fusion_lon": 0.0, "lon": -77.01869616666667}, {"lat": 38.92846866666667, "type": "electric_scooter", "rental_uris": {"android": "https://dc.lft.to/lastmile_qr_scan", "ios": "https://dc.lft.to/lastmile_qr_scan"}, "fusion_lat": 0.0, "name": "dcb49de065541b96cb99a71107aa572c", "is_reserved": 0, "is_disabled": 0, "bike_id": "dcb49de065541b96cb99a71107aa572c", "fusion_lon": 0.0, "lon": -77.03289266666667}, {"lat": 38.90022466666667, "type": "electric_scooter", "rental_uris": {"android": "https://dc.lft.to/lastmile_qr_scan", "ios": "https://dc.lft.to/lastmile_qr_scan"}, "fusion_lat": 0.0, "name": "983bdbff437ca4159c51f1594f9e1af6", "is_reserved": 0, "is_disabled": 0, "bike_id": "983bdbff437ca4159c51f1594f9e1af6", "fusion_lon": 0.0, "lon": -76.99139516666666}, {"lat": 38.93707216666667, "type": "electric_scooter", "rental_uris": {"android": "https://dc.lft.to/lastmile_qr_scan", "ios": "https://dc.lft.to/lastmile_qr_scan"}, "fusion_lat": 0.0, "name": "e02bf90fcabf9c2dafa15311e048299a", "is_reserved": 0, "is_disabled": 0, "bike_id": "e02bf90fcabf9c2dafa15311e048299a", "fusion_lon": 0.0, "lon": -77.0363635}, {"lat": 38.96230416666667, "type": "electric_bike", "rental_uris": {"android": "https://dc.lft.to/lastmile_qr_scan", "ios": "https://dc.lft.to/lastmile_qr_scan"}, "fusion_lat": 0.0, "name": "951946611519fd06830bc2368abd58da", "is_reserved": 0, "is_disabled": 0, "bike_id": "951946611519fd06830bc2368abd58da", "fusion_lon": 0.0, "lon": -76.927973}, {"lat": 38.94660116666667, "type": "electric_bike", "rental_uris": {"android": "https://dc.lft.to/lastmile_qr_scan", "ios": "https://dc.lft.to/lastmile_qr_scan"}, "fusion_lat": 0.0, "name": "3d47cadcdb6239ca85d258642d1c14ea", "is_reserved": 0, "is_disabled": 0, "bike_id": "3d47cadcdb6239ca85d258642d1c14ea", "fusion_lon": 0.0, "lon": -76.95667383333333}, {"lat": 38.940137666666665, "type": "electric_scooter", "rental_uris": {"android": "https://dc.lft.to/lastmile_qr_scan", "ios": "https://dc.lft.to/lastmile_qr_scan"}, "fusion_lat": 0.0, "name": "042eef85e4b083010c2838cdee7966bc", "is_reserved": 0, "is_disabled": 0, "bike_id": "042eef85e4b083010c2838cdee7966bc", "fusion_lon": 0.0, "lon": -77.02543216666666}, {"lat": 38.915958, "type": "electric_scooter", "rental_uris": {"android": "https://dc.lft.to/lastmile_qr_scan", "ios": "https://dc.lft.to/lastmile_qr_scan"}, "fusion_lat": 0.0, "name": "748817a354245827cac9eb3444249272", "is_reserved": 0, "is_disabled": 0, "bike_id": "748817a354245827cac9eb3444249272", "fusion_lon": 0.0, "lon": -77.04902733333333}, {"lat": 38.935151166666664, "type": "electric_bike", "rental_uris": {"android": "https://dc.lft.to/lastmile_qr_scan", "ios": "https://dc.lft.to/lastmile_qr_scan"}, "fusion_lat": 0.0, "name": "79d90991defc30af0d86b7278da90eba", "is_reserved": 0, "is_disabled": 0, "bike_id": "79d90991defc30af0d86b7278da90eba", "fusion_lon": 0.0, "lon": -76.98348916666667}, {"lat": 38.90724016666667, "type": "electric_scooter", "rental_uris": {"android": "https://dc.lft.to/lastmile_qr_scan", "ios": "https://dc.lft.to/lastmile_qr_scan"}, "fusion_lat": 0.0, "name": "b4f08481c0c5c7d16b01974ba36edc5a", "is_reserved": 0, "is_disabled": 0, "bike_id": "b4f08481c0c5c7d16b01974ba36edc5a", "fusion_lon": 0.0, "lon": -77.01131366666667}, {"lat": 38.9070725, "type": "electric_scooter", "rental_uris": {"android": "https://dc.lft.to/lastmile_qr_scan", "ios": "https://dc.lft.to/lastmile_qr_scan"}, "fusion_lat": 0.0, "name": "f7ab057ad64abe8b9ed034e206ecb429", "is_reserved": 0, "is_disabled": 0, "bike_id": "f7ab057ad64abe8b9ed034e206ecb429", "fusion_lon": 0.0, "lon": -77.03205416666667}, {"lat": 38.917044, "type": "electric_scooter", "rental_uris": {"android": "https://dc.lft.to/lastmile_qr_scan", "ios": "https://dc.lft.to/lastmile_qr_scan"}, "fusion_lat": 0.0, "name": "a4ee2132c518b0f712917a5836bb4b1c", "is_reserved": 0, "is_disabled": 0, "bike_id": "a4ee2132c518b0f712917a5836bb4b1c", "fusion_lon": 0.0, "lon": -77.02738866666667}, {"lat": 38.94744083333333, "type": "electric_scooter", "rental_uris": {"android": "https://dc.lft.to/lastmile_qr_scan", "ios": "https://dc.lft.to/lastmile_qr_scan"}, "fusion_lat": 0.0, "name": "60cb9e6ac96449a3596659215641ea26", "is_reserved": 0, "is_disabled": 0, "bike_id": "60cb9e6ac96449a3596659215641ea26", "fusion_lon": 0.0, "lon": -77.03284983333333}, {"lat": 38.88723483333333, "type": "electric_scooter", "rental_uris": {"android": "https://dc.lft.to/lastmile_qr_scan", "ios": "https://dc.lft.to/lastmile_qr_scan"}, "fusion_lat": 0.0, "name": "b3a07c993f2a4918289abe86681fe042", "is_reserved": 0, "is_disabled": 0, "bike_id": "b3a07c993f2a4918289abe86681fe042", "fusion_lon": 0.0, "lon": -77.0213095}, {"lat": 38.914042, "type": "electric_scooter", "rental_uris": {"android": "https://dc.lft.to/lastmile_qr_scan", "ios": "https://dc.lft.to/lastmile_qr_scan"}, "fusion_lat": 0.0, "name": "df377fe2f1fff9c6d4a63d092db397d8", "is_reserved": 0, "is_disabled": 0, "bike_id": "df377fe2f1fff9c6d4a63d092db397d8", "fusion_lon": 0.0, "lon": -77.02486283333333}, {"lat": 38.915688833333334, "type": "electric_scooter", "rental_uris": {"android": "https://dc.lft.to/lastmile_qr_scan", "ios": "https://dc.lft.to/lastmile_qr_scan"}, "fusion_lat": 0.0, "name": "1fdc5ef506e19dbe8d31d9feb0b2cb96", "is_reserved": 0, "is_disabled": 0, "bike_id": "1fdc5ef506e19dbe8d31d9feb0b2cb96", "fusion_lon": 0.0, "lon": -77.03639816666667}, {"lat": 38.876130833333335, "type": "electric_scooter", "rental_uris": {"android": "https://dc.lft.to/lastmile_qr_scan", "ios": "https://dc.lft.to/lastmile_qr_scan"}, "fusion_lat": 0.0, "name": "e6d8ef10367f8e987e7163377a70cd3b", "is_reserved": 0, "is_disabled": 0, "bike_id": "e6d8ef10367f8e987e7163377a70cd3b", "fusion_lon": 0.0, "lon": -77.0059955}, {"lat": 38.918624666666666, "type": "electric_scooter", "rental_uris": {"android": "https://dc.lft.to/lastmile_qr_scan", "ios": "https://dc.lft.to/lastmile_qr_scan"}, "fusion_lat": 0.0, "name": "4cf5a3974f8b876232b6ded0b95e20dc", "is_reserved": 0, "is_disabled": 0, "bike_id": "4cf5a3974f8b876232b6ded0b95e20dc", "fusion_lon": 0.0, "lon": -77.041696}, {"lat": 38.92107883333333, "type": "electric_scooter", "rental_uris": {"android": "https://dc.lft.to/lastmile_qr_scan", "ios": "https://dc.lft.to/lastmile_qr_scan"}, "fusion_lat": 0.0, "name": "f7ff938e99bdf5f8bc362fb1c824df0c", "is_reserved": 0, "is_disabled": 0, "bike_id": "f7ff938e99bdf5f8bc362fb1c824df0c", "fusion_lon": 0.0, "lon": -77.04384466666667}, {"lat": 38.88741366666667, "type": "electric_scooter", "rental_uris": {"android": "https://dc.lft.to/lastmile_qr_scan", "ios": "https://dc.lft.to/lastmile_qr_scan"}, "fusion_lat": 0.0, "name": "49090d442d7ce541522fdb8dd86e6551", "is_reserved": 0, "is_disabled": 0, "bike_id": "49090d442d7ce541522fdb8dd86e6551", "fusion_lon": 0.0, "lon": -77.014059}, {"lat": 38.92035716666667, "type": "electric_scooter", "rental_uris": {"android": "https://dc.lft.to/lastmile_qr_scan", "ios": "https://dc.lft.to/lastmile_qr_scan"}, "fusion_lat": 0.0, "name": "5ba759d70eae0afcaaa1a721c02ceb97", "is_reserved": 0, "is_disabled": 0, "bike_id": "5ba759d70eae0afcaaa1a721c02ceb97", "fusion_lon": 0.0, "lon": -76.98993083333333}, {"lat": 38.9079585, "type": "electric_scooter", "rental_uris": {"android": "https://dc.lft.to/lastmile_qr_scan", "ios": "https://dc.lft.to/lastmile_qr_scan"}, "fusion_lat": 0.0, "name": "fe60eeb80d1a39cf8cd0b5545898faa4", "is_reserved": 0, "is_disabled": 0, "bike_id": "fe60eeb80d1a39cf8cd0b5545898faa4", "fusion_lon": 0.0, "lon": -77.031946}, {"lat": 38.904917166666664, "type": "electric_scooter", "rental_uris": {"android": "https://dc.lft.to/lastmile_qr_scan", "ios": "https://dc.lft.to/lastmile_qr_scan"}, "fusion_lat": 0.0, "name": "1b5b14a9a0b3d26ad37d917c46ffe0e0", "is_reserved": 0, "is_disabled": 0, "bike_id": "1b5b14a9a0b3d26ad37d917c46ffe0e0", "fusion_lon": 0.0, "lon": -77.0295285}, {"lat": 38.91288383333333, "type": "electric_scooter", "rental_uris": {"android": "https://dc.lft.to/lastmile_qr_scan", "ios": "https://dc.lft.to/lastmile_qr_scan"}, "fusion_lat": 0.0, "name": "91b1ad963f1d428226886438ef8265f7", "is_reserved": 0, "is_disabled": 0, "bike_id": "91b1ad963f1d428226886438ef8265f7", "fusion_lon": 0.0, "lon": -77.0365845}, {"lat": 38.88725983333333, "type": "electric_scooter", "rental_uris": {"android": "https://dc.lft.to/lastmile_qr_scan", "ios": "https://dc.lft.to/lastmile_qr_scan"}, "fusion_lat": 0.0, "name": "1c2ea4fbbb1e8bc5de5a9ae9aa4e8992", "is_reserved": 0, "is_disabled": 0, "bike_id": "1c2ea4fbbb1e8bc5de5a9ae9aa4e8992", "fusion_lon": 0.0, "lon": -76.98357533333333}, {"lat": 38.883836333333335, "type": "electric_scooter", "rental_uris": {"android": "https://dc.lft.to/lastmile_qr_scan", "ios": "https://dc.lft.to/lastmile_qr_scan"}, "fusion_lat": 0.0, "name": "0094df22905019fb2a6b660a2ca7b0a9", "is_reserved": 0, "is_disabled": 0, "bike_id": "0094df22905019fb2a6b660a2ca7b0a9", "fusion_lon": 0.0, "lon": -77.00881716666666}, {"lat": 38.90385916666666, "type": "electric_scooter", "rental_uris": {"android": "https://dc.lft.to/lastmile_qr_scan", "ios": "https://dc.lft.to/lastmile_qr_scan"}, "fusion_lat": 0.0, "name": "464c7a5919709d4832e2839d19e6904d", "is_reserved": 0, "is_disabled": 0, "bike_id": "464c7a5919709d4832e2839d19e6904d", "fusion_lon": 0.0, "lon": -77.050732}, {"lat": 38.9019965, "type": "electric_scooter", "rental_uris": {"android": "https://dc.lft.to/lastmile_qr_scan", "ios": "https://dc.lft.to/lastmile_qr_scan"}, "fusion_lat": 0.0, "name": "4381c92ca7026344eec9c438d54b7c58", "is_reserved": 0, "is_disabled": 0, "bike_id": "4381c92ca7026344eec9c438d54b7c58", "fusion_lon": 0.0, "lon": -77.023746}, {"lat": 38.91772016666667, "type": "electric_scooter", "rental_uris": {"android": "https://dc.lft.to/lastmile_qr_scan", "ios": "https://dc.lft.to/lastmile_qr_scan"}, "fusion_lat": 0.0, "name": "8750d2c0a9b8d1da5d3d7dfef215ada3", "is_reserved": 0, "is_disabled": 0, "bike_id": "8750d2c0a9b8d1da5d3d7dfef215ada3", "fusion_lon": 0.0, "lon": -77.03190833333333}, {"lat": 38.88198283333333, "type": "electric_scooter", "rental_uris": {"android": "https://dc.lft.to/lastmile_qr_scan", "ios": "https://dc.lft.to/lastmile_qr_scan"}, "fusion_lat": 0.0, "name": "c79db84a5d4e5324f8eb628c23c20e14", "is_reserved": 0, "is_disabled": 0, "bike_id": "c79db84a5d4e5324f8eb628c23c20e14", "fusion_lon": 0.0, "lon": -77.00363166666666}, {"lat": 38.923436833333334, "type": "electric_scooter", "rental_uris": {"android": "https://dc.lft.to/lastmile_qr_scan", "ios": "https://dc.lft.to/lastmile_qr_scan"}, "fusion_lat": 0.0, "name": "0ad60c64dbb3d1dbbc69212c797042e7", "is_reserved": 0, "is_disabled": 0, "bike_id": "0ad60c64dbb3d1dbbc69212c797042e7", "fusion_lon": 0.0, "lon": -77.05171033333333}, {"lat": 38.91701283333333, "type": "electric_scooter", "rental_uris": {"android": "https://dc.lft.to/lastmile_qr_scan", "ios": "https://dc.lft.to/lastmile_qr_scan"}, "fusion_lat": 0.0, "name": "cc36f5b68cade75f251e113a2a7b1304", "is_reserved": 0, "is_disabled": 0, "bike_id": "cc36f5b68cade75f251e113a2a7b1304", "fusion_lon": 0.0, "lon": -77.0242245}, {"lat": 38.91033683333333, "type": "electric_scooter", "rental_uris": {"android": "https://dc.lft.to/lastmile_qr_scan", "ios": "https://dc.lft.to/lastmile_qr_scan"}, "fusion_lat": 0.0, "name": "cffdc9ea4e535060798e9a537781aa77", "is_reserved": 0, "is_disabled": 0, "bike_id": "cffdc9ea4e535060798e9a537781aa77", "fusion_lon": 0.0, "lon": -77.06490983333333}, {"lat": 38.923091166666666, "type": "electric_scooter", "rental_uris": {"android": "https://dc.lft.to/lastmile_qr_scan", "ios": "https://dc.lft.to/lastmile_qr_scan"}, "fusion_lat": 0.0, "name": "efbbdfd0232deda0e45e6a7ba4423ad3", "is_reserved": 0, "is_disabled": 0, "bike_id": "efbbdfd0232deda0e45e6a7ba4423ad3", "fusion_lon": 0.0, "lon": -77.04039216666666}, {"lat": 38.909643833333334, "type": "electric_scooter", "rental_uris": {"android": "https://dc.lft.to/lastmile_qr_scan", "ios": "https://dc.lft.to/lastmile_qr_scan"}, "fusion_lat": 0.0, "name": "2156383cd0acf8b8906b677a46ed57ab", "is_reserved": 0, "is_disabled": 0, "bike_id": "2156383cd0acf8b8906b677a46ed57ab", "fusion_lon": 0.0, "lon": -77.04459983333334}, {"lat": 39.01074966666667, "type": "electric_bike", "rental_uris": {"android": "https://dc.lft.to/lastmile_qr_scan", "ios": "https://dc.lft.to/lastmile_qr_scan"}, "fusion_lat": 0.0, "name": "684406d33ee917c2cc8cdc6c46623aac", "is_reserved": 0, "is_disabled": 0, "bike_id": "684406d33ee917c2cc8cdc6c46623aac", "fusion_lon": 0.0, "lon": -76.9106505}, {"lat": 38.97348183333333, "type": "electric_scooter", "rental_uris": {"android": "https://dc.lft.to/lastmile_qr_scan", "ios": "https://dc.lft.to/lastmile_qr_scan"}, "fusion_lat": 0.0, "name": "53e10ff6652fa480112ae3bbf2a8604b", "is_reserved": 0, "is_disabled": 0, "bike_id": "53e10ff6652fa480112ae3bbf2a8604b", "fusion_lon": 0.0, "lon": -77.02786083333334}, {"lat": 38.9307315, "type": "electric_scooter", "rental_uris": {"android": "https://dc.lft.to/lastmile_qr_scan", "ios": "https://dc.lft.to/lastmile_qr_scan"}, "fusion_lat": 0.0, "name": "9f7326769bf9b569ad9d251f14ffb69d", "is_reserved": 0, "is_disabled": 0, "bike_id": "9f7326769bf9b569ad9d251f14ffb69d", "fusion_lon": 0.0, "lon": -77.03407683333333}, {"lat": 38.8922425, "type": "electric_scooter", "rental_uris": {"android": "https://dc.lft.to/lastmile_qr_scan", "ios": "https://dc.lft.to/lastmile_qr_scan"}, "fusion_lat": 0.0, "name": "bfb63c0d6b87cc78dcff979a7936e640", "is_reserved": 0, "is_disabled": 0, "bike_id": "bfb63c0d6b87cc78dcff979a7936e640", "fusion_lon": 0.0, "lon": -77.04505233333333}, {"lat": 38.91799266666666, "type": "electric_scooter", "rental_uris": {"android": "https://dc.lft.to/lastmile_qr_scan", "ios": "https://dc.lft.to/lastmile_qr_scan"}, "fusion_lat": 0.0, "name": "26a3d3367c2a6ca56288c50d79b739df", "is_reserved": 0, "is_disabled": 0, "bike_id": "26a3d3367c2a6ca56288c50d79b739df", "fusion_lon": 0.0, "lon": -77.0142155}, {"lat": 38.869197666666665, "type": "electric_bike", "rental_uris": {"android": "https://dc.lft.to/lastmile_qr_scan", "ios": "https://dc.lft.to/lastmile_qr_scan"}, "fusion_lat": 0.0, "name": "fe6a7b523f90fa80da510a80c0becceb", "is_reserved": 0, "is_disabled": 0, "bike_id": "fe6a7b523f90fa80da510a80c0becceb", "fusion_lon": 0.0, "lon": -77.010751}, {"lat": 38.93276916666667, "type": "electric_scooter", "rental_uris": {"android": "https://dc.lft.to/lastmile_qr_scan", "ios": "https://dc.lft.to/lastmile_qr_scan"}, "fusion_lat": 0.0, "name": "6efa8620604f256cdbb861ef4f15a797", "is_reserved": 0, "is_disabled": 0, "bike_id": "6efa8620604f256cdbb861ef4f15a797", "fusion_lon": 0.0, "lon": -77.028719}, {"lat": 38.919237, "type": "electric_scooter", "rental_uris": {"android": "https://dc.lft.to/lastmile_qr_scan", "ios": "https://dc.lft.to/lastmile_qr_scan"}, "fusion_lat": 0.0, "name": "c8cd46eeafe06c6f0369b68f212fde1d", "is_reserved": 0, "is_disabled": 0, "bike_id": "c8cd46eeafe06c6f0369b68f212fde1d", "fusion_lon": 0.0, "lon": -77.03213083333333}, {"lat": 38.91717833333333, "type": "electric_scooter", "rental_uris": {"android": "https://dc.lft.to/lastmile_qr_scan", "ios": "https://dc.lft.to/lastmile_qr_scan"}, "fusion_lat": 0.0, "name": "c21b2594702b562969fdefcfd5daacf3", "is_reserved": 0, "is_disabled": 0, "bike_id": "c21b2594702b562969fdefcfd5daacf3", "fusion_lon": 0.0, "lon": -77.026981}, {"lat": 38.873673833333335, "type": "electric_scooter", "rental_uris": {"android": "https://dc.lft.to/lastmile_qr_scan", "ios": "https://dc.lft.to/lastmile_qr_scan"}, "fusion_lat": 0.0, "name": "818964725e284286749413d91629d6a9", "is_reserved": 0, "is_disabled": 0, "bike_id": "818964725e284286749413d91629d6a9", "fusion_lon": 0.0, "lon": -77.00124866666667}, {"lat": 38.89221366666666, "type": "electric_scooter", "rental_uris": {"android": "https://dc.lft.to/lastmile_qr_scan", "ios": "https://dc.lft.to/lastmile_qr_scan"}, "fusion_lat": 0.0, "name": "b88c2df847efcad1a3d1a401fbf994cc", "is_reserved": 0, "is_disabled": 0, "bike_id": "b88c2df847efcad1a3d1a401fbf994cc", "fusion_lon": 0.0, "lon": -77.026332}, {"lat": 38.923560333333334, "type": "electric_scooter", "rental_uris": {"android": "https://dc.lft.to/lastmile_qr_scan", "ios": "https://dc.lft.to/lastmile_qr_scan"}, "fusion_lat": 0.0, "name": "220d39c9ca6a6fd0690447e5b63f11b8", "is_reserved": 0, "is_disabled": 0, "bike_id": "220d39c9ca6a6fd0690447e5b63f11b8", "fusion_lon": 0.0, "lon": -77.050768}, {"lat": 38.92231866666667, "type": "electric_scooter", "rental_uris": {"android": "https://dc.lft.to/lastmile_qr_scan", "ios": "https://dc.lft.to/lastmile_qr_scan"}, "fusion_lat": 0.0, "name": "a03bcbbe6c9367c5e51725d82843a064", "is_reserved": 0, "is_disabled": 0, "bike_id": "a03bcbbe6c9367c5e51725d82843a064", "fusion_lon": 0.0, "lon": -77.02332616666666}, {"lat": 38.939665833333336, "type": "electric_scooter", "rental_uris": {"android": "https://dc.lft.to/lastmile_qr_scan", "ios": "https://dc.lft.to/lastmile_qr_scan"}, "fusion_lat": 0.0, "name": "54847218a0260fdffb0862333c426bfa", "is_reserved": 0, "is_disabled": 0, "bike_id": "54847218a0260fdffb0862333c426bfa", "fusion_lon": 0.0, "lon": -77.0325595}, {"lat": 38.91978616666667, "type": "electric_scooter", "rental_uris": {"android": "https://dc.lft.to/lastmile_qr_scan", "ios": "https://dc.lft.to/lastmile_qr_scan"}, "fusion_lat": 0.0, "name": "e0fd560c0e118e09187e9165b28d4d06", "is_reserved": 0, "is_disabled": 0, "bike_id": "e0fd560c0e118e09187e9165b28d4d06", "fusion_lon": 0.0, "lon": -77.03188583333333}, {"lat": 38.9125845, "type": "electric_scooter", "rental_uris": {"android": "https://dc.lft.to/lastmile_qr_scan", "ios": "https://dc.lft.to/lastmile_qr_scan"}, "fusion_lat": 0.0, "name": "25a8ccd8d5f0c4ba52b7dddc7a0f9500", "is_reserved": 0, "is_disabled": 0, "bike_id": "25a8ccd8d5f0c4ba52b7dddc7a0f9500", "fusion_lon": 0.0, "lon": -77.0588155}, {"lat": 38.961798, "type": "electric_bike", "rental_uris": {"android": "https://dc.lft.to/lastmile_qr_scan", "ios": "https://dc.lft.to/lastmile_qr_scan"}, "fusion_lat": 0.0, "name": "8970424859bdb2cd7f78f04ba7399152", "is_reserved": 0, "is_disabled": 0, "bike_id": "8970424859bdb2cd7f78f04ba7399152", "fusion_lon": 0.0, "lon": -77.05265816666666}, {"lat": 38.88488566666667, "type": "electric_scooter", "rental_uris": {"android": "https://dc.lft.to/lastmile_qr_scan", "ios": "https://dc.lft.to/lastmile_qr_scan"}, "fusion_lat": 0.0, "name": "af9c5934657e37f0eca04804f78eaeca", "is_reserved": 0, "is_disabled": 0, "bike_id": "af9c5934657e37f0eca04804f78eaeca", "fusion_lon": 0.0, "lon": -76.9805685}, {"lat": 38.93090683333333, "type": "electric_scooter", "rental_uris": {"android": "https://dc.lft.to/lastmile_qr_scan", "ios": "https://dc.lft.to/lastmile_qr_scan"}, "fusion_lat": 0.0, "name": "2d595b41dee6a31bcf1f85a64018eb24", "is_reserved": 0, "is_disabled": 0, "bike_id": "2d595b41dee6a31bcf1f85a64018eb24", "fusion_lon": 0.0, "lon": -77.03075216666667}, {"lat": 38.965761, "type": "electric_scooter", "rental_uris": {"android": "https://dc.lft.to/lastmile_qr_scan", "ios": "https://dc.lft.to/lastmile_qr_scan"}, "fusion_lat": 0.0, "name": "c258850d56fc7a15cb2cb51b4767cdcf", "is_reserved": 0, "is_disabled": 0, "bike_id": "c258850d56fc7a15cb2cb51b4767cdcf", "fusion_lon": 0.0, "lon": -77.00263933333333}, {"lat": 38.898214333333335, "type": "electric_scooter", "rental_uris": {"android": "https://dc.lft.to/lastmile_qr_scan", "ios": "https://dc.lft.to/lastmile_qr_scan"}, "fusion_lat": 0.0, "name": "375b299ebbf0929361345ff7271d2c21", "is_reserved": 0, "is_disabled": 0, "bike_id": "375b299ebbf0929361345ff7271d2c21", "fusion_lon": 0.0, "lon": -77.03042016666667}, {"lat": 38.89555683333333, "type": "electric_scooter", "rental_uris": {"android": "https://dc.lft.to/lastmile_qr_scan", "ios": "https://dc.lft.to/lastmile_qr_scan"}, "fusion_lat": 0.0, "name": "dfb479dbc78e5b06d4fcb599950d2b65", "is_reserved": 0, "is_disabled": 0, "bike_id": "dfb479dbc78e5b06d4fcb599950d2b65", "fusion_lon": 0.0, "lon": -76.948693}, {"lat": 38.9086125, "type": "electric_scooter", "rental_uris": {"android": "https://dc.lft.to/lastmile_qr_scan", "ios": "https://dc.lft.to/lastmile_qr_scan"}, "fusion_lat": 0.0, "name": "ffaea3eafdd9e50451bf33f68fa4f2d6", "is_reserved": 0, "is_disabled": 0, "bike_id": "ffaea3eafdd9e50451bf33f68fa4f2d6", "fusion_lon": 0.0, "lon": -77.0235775}, {"lat": 38.867292, "type": "electric_scooter", "rental_uris": {"android": "https://dc.lft.to/lastmile_qr_scan", "ios": "https://dc.lft.to/lastmile_qr_scan"}, "fusion_lat": 0.0, "name": "f470a241b1c7a03a799b69cc194c79ef", "is_reserved": 0, "is_disabled": 0, "bike_id": "f470a241b1c7a03a799b69cc194c79ef", "fusion_lon": 0.0, "lon": -76.98789566666666}, {"lat": 38.904602, "type": "electric_scooter", "rental_uris": {"android": "https://dc.lft.to/lastmile_qr_scan", "ios": "https://dc.lft.to/lastmile_qr_scan"}, "fusion_lat": 0.0, "name": "719651e73223137c446ad18dbfa61086", "is_reserved": 0, "is_disabled": 0, "bike_id": "719651e73223137c446ad18dbfa61086", "fusion_lon": 0.0, "lon": -77.021117}, {"lat": 38.910018666666666, "type": "electric_scooter", "rental_uris": {"android": "https://dc.lft.to/lastmile_qr_scan", "ios": "https://dc.lft.to/lastmile_qr_scan"}, "fusion_lat": 0.0, "name": "53333f77034a0f6f92906c80354d6499", "is_reserved": 0, "is_disabled": 0, "bike_id": "53333f77034a0f6f92906c80354d6499", "fusion_lon": 0.0, "lon": -77.03444883333333}, {"lat": 38.92411116666667, "type": "electric_scooter", "rental_uris": {"android": "https://dc.lft.to/lastmile_qr_scan", "ios": "https://dc.lft.to/lastmile_qr_scan"}, "fusion_lat": 0.0, "name": "1ff22e66f12daa9807ab68790aefeac8", "is_reserved": 0, "is_disabled": 0, "bike_id": "1ff22e66f12daa9807ab68790aefeac8", "fusion_lon": 0.0, "lon": -77.05743733333334}, {"lat": 38.9171185, "type": "electric_scooter", "rental_uris": {"android": "https://dc.lft.to/lastmile_qr_scan", "ios": "https://dc.lft.to/lastmile_qr_scan"}, "fusion_lat": 0.0, "name": "1f96011e21552f81ab4d419410db8674", "is_reserved": 0, "is_disabled": 0, "bike_id": "1f96011e21552f81ab4d419410db8674", "fusion_lon": 0.0, "lon": -77.02880483333334}, {"lat": 38.874539666666664, "type": "electric_scooter", "rental_uris": {"android": "https://dc.lft.to/lastmile_qr_scan", "ios": "https://dc.lft.to/lastmile_qr_scan"}, "fusion_lat": 0.0, "name": "55db1e6472bdc91ebb041c13a56f213b", "is_reserved": 0, "is_disabled": 0, "bike_id": "55db1e6472bdc91ebb041c13a56f213b", "fusion_lon": 0.0, "lon": -77.00929533333333}, {"lat": 38.91420566666667, "type": "electric_scooter", "rental_uris": {"android": "https://dc.lft.to/lastmile_qr_scan", "ios": "https://dc.lft.to/lastmile_qr_scan"}, "fusion_lat": 0.0, "name": "4a61bf6093134fd23e5c0d09d59092f2", "is_reserved": 0, "is_disabled": 0, "bike_id": "4a61bf6093134fd23e5c0d09d59092f2", "fusion_lon": 0.0, "lon": -77.01801533333334}, {"lat": 38.89612, "type": "electric_scooter", "rental_uris": {"android": "https://dc.lft.to/lastmile_qr_scan", "ios": "https://dc.lft.to/lastmile_qr_scan"}, "fusion_lat": 0.0, "name": "6f44411a6c9fa60c5e60c0565fe24c5c", "is_reserved": 0, "is_disabled": 0, "bike_id": "6f44411a6c9fa60c5e60c0565fe24c5c", "fusion_lon": 0.0, "lon": -77.02348366666666}, {"lat": 38.972584499999996, "type": "electric_bike", "rental_uris": {"android": "https://dc.lft.to/lastmile_qr_scan", "ios": "https://dc.lft.to/lastmile_qr_scan"}, "fusion_lat": 0.0, "name": "e0bf3842823598634c34b0fc5cdb8f8f", "is_reserved": 0, "is_disabled": 0, "bike_id": "e0bf3842823598634c34b0fc5cdb8f8f", "fusion_lon": 0.0, "lon": -76.9928155}, {"lat": 38.92999666666667, "type": "electric_scooter", "rental_uris": {"android": "https://dc.lft.to/lastmile_qr_scan", "ios": "https://dc.lft.to/lastmile_qr_scan"}, "fusion_lat": 0.0, "name": "623c7ac89d56f98bf87f836e35e0b3ab", "is_reserved": 0, "is_disabled": 0, "bike_id": "623c7ac89d56f98bf87f836e35e0b3ab", "fusion_lon": 0.0, "lon": -77.03255366666667}, {"lat": 38.92463733333334, "type": "electric_scooter", "rental_uris": {"android": "https://dc.lft.to/lastmile_qr_scan", "ios": "https://dc.lft.to/lastmile_qr_scan"}, "fusion_lat": 0.0, "name": "283acc926e7cc4858d05184bc81c126f", "is_reserved": 0, "is_disabled": 0, "bike_id": "283acc926e7cc4858d05184bc81c126f", "fusion_lon": 0.0, "lon": -77.02688516666667}, {"lat": 38.95592633333333, "type": "electric_scooter", "rental_uris": {"android": "https://dc.lft.to/lastmile_qr_scan", "ios": "https://dc.lft.to/lastmile_qr_scan"}, "fusion_lat": 0.0, "name": "b914a6d290ef17f7a78b33f3305d5ae7", "is_reserved": 0, "is_disabled": 0, "bike_id": "b914a6d290ef17f7a78b33f3305d5ae7", "fusion_lon": 0.0, "lon": -77.03361833333334}, {"lat": 38.90110283333333, "type": "electric_scooter", "rental_uris": {"android": "https://dc.lft.to/lastmile_qr_scan", "ios": "https://dc.lft.to/lastmile_qr_scan"}, "fusion_lat": 0.0, "name": "18083cf629a9da39c411a175a60d7614", "is_reserved": 0, "is_disabled": 0, "bike_id": "18083cf629a9da39c411a175a60d7614", "fusion_lon": 0.0, "lon": -76.97429}, {"lat": 38.922982166666664, "type": "electric_scooter", "rental_uris": {"android": "https://dc.lft.to/lastmile_qr_scan", "ios": "https://dc.lft.to/lastmile_qr_scan"}, "fusion_lat": 0.0, "name": "d1e4b01ea57498d2c6a64c13690a86d7", "is_reserved": 0, "is_disabled": 0, "bike_id": "d1e4b01ea57498d2c6a64c13690a86d7", "fusion_lon": 0.0, "lon": -77.023277}, {"lat": 38.92268333333333, "type": "electric_scooter", "rental_uris": {"android": "https://dc.lft.to/lastmile_qr_scan", "ios": "https://dc.lft.to/lastmile_qr_scan"}, "fusion_lat": 0.0, "name": "8fbc8ee8e6e05d4c32816b8d3bf30981", "is_reserved": 0, "is_disabled": 0, "bike_id": "8fbc8ee8e6e05d4c32816b8d3bf30981", "fusion_lon": 0.0, "lon": -77.0187335}, {"lat": 38.908094, "type": "electric_scooter", "rental_uris": {"android": "https://dc.lft.to/lastmile_qr_scan", "ios": "https://dc.lft.to/lastmile_qr_scan"}, "fusion_lat": 0.0, "name": "69a0a2f0a51b4eb7648be9b30cc11255", "is_reserved": 0, "is_disabled": 0, "bike_id": "69a0a2f0a51b4eb7648be9b30cc11255", "fusion_lon": 0.0, "lon": -77.03440883333333}, {"lat": 38.89615333333333, "type": "electric_scooter", "rental_uris": {"android": "https://dc.lft.to/lastmile_qr_scan", "ios": "https://dc.lft.to/lastmile_qr_scan"}, "fusion_lat": 0.0, "name": "c1f9b0d72d326aceed064bfaba154c74", "is_reserved": 0, "is_disabled": 0, "bike_id": "c1f9b0d72d326aceed064bfaba154c74", "fusion_lon": 0.0, "lon": -77.04426383333333}, {"lat": 38.926109833333335, "type": "electric_scooter", "rental_uris": {"android": "https://dc.lft.to/lastmile_qr_scan", "ios": "https://dc.lft.to/lastmile_qr_scan"}, "fusion_lat": 0.0, "name": "6838bc63dab9870978b84228bd02e0da", "is_reserved": 0, "is_disabled": 0, "bike_id": "6838bc63dab9870978b84228bd02e0da", "fusion_lon": 0.0, "lon": -77.07569266666667}, {"lat": 38.91930683333333, "type": "electric_scooter", "rental_uris": {"android": "https://dc.lft.to/lastmile_qr_scan", "ios": "https://dc.lft.to/lastmile_qr_scan"}, "fusion_lat": 0.0, "name": "e89329df6e2b69577bfb67ed5c62ae0c", "is_reserved": 0, "is_disabled": 0, "bike_id": "e89329df6e2b69577bfb67ed5c62ae0c", "fusion_lon": 0.0, "lon": -77.03195216666667}, {"lat": 38.938552333333334, "type": "electric_scooter", "rental_uris": {"android": "https://dc.lft.to/lastmile_qr_scan", "ios": "https://dc.lft.to/lastmile_qr_scan"}, "fusion_lat": 0.0, "name": "f4edc98cd97700f346f40eacfd1afc49", "is_reserved": 0, "is_disabled": 0, "bike_id": "f4edc98cd97700f346f40eacfd1afc49", "fusion_lon": 0.0, "lon": -77.02459883333333}, {"lat": 38.911227833333335, "type": "electric_scooter", "rental_uris": {"android": "https://dc.lft.to/lastmile_qr_scan", "ios": "https://dc.lft.to/lastmile_qr_scan"}, "fusion_lat": 0.0, "name": "0dd50547f2958191b32bda957c2a7378", "is_reserved": 0, "is_disabled": 0, "bike_id": "0dd50547f2958191b32bda957c2a7378", "fusion_lon": 0.0, "lon": -77.03757566666667}, {"lat": 38.90258733333334, "type": "electric_scooter", "rental_uris": {"android": "https://dc.lft.to/lastmile_qr_scan", "ios": "https://dc.lft.to/lastmile_qr_scan"}, "fusion_lat": 0.0, "name": "3e4feb006351951e51b80f77285f5e07", "is_reserved": 0, "is_disabled": 0, "bike_id": "3e4feb006351951e51b80f77285f5e07", "fusion_lon": 0.0, "lon": -77.034616}, {"lat": 38.897235333333334, "type": "electric_scooter", "rental_uris": {"android": "https://dc.lft.to/lastmile_qr_scan", "ios": "https://dc.lft.to/lastmile_qr_scan"}, "fusion_lat": 0.0, "name": "6821476b813a0e98cff613b64afe854d", "is_reserved": 0, "is_disabled": 0, "bike_id": "6821476b813a0e98cff613b64afe854d", "fusion_lon": 0.0, "lon": -77.02543083333333}, {"lat": 38.922967166666666, "type": "electric_scooter", "rental_uris": {"android": "https://dc.lft.to/lastmile_qr_scan", "ios": "https://dc.lft.to/lastmile_qr_scan"}, "fusion_lat": 0.0, "name": "b05afbc160bc05e97de4e57761bf3c65", "is_reserved": 0, "is_disabled": 0, "bike_id": "b05afbc160bc05e97de4e57761bf3c65", "fusion_lon": 0.0, "lon": -77.042942}, {"lat": 38.919064, "type": "electric_scooter", "rental_uris": {"android": "https://dc.lft.to/lastmile_qr_scan", "ios": "https://dc.lft.to/lastmile_qr_scan"}, "fusion_lat": 0.0, "name": "3675087c64dc881296fc4a3f09646328", "is_reserved": 0, "is_disabled": 0, "bike_id": "3675087c64dc881296fc4a3f09646328", "fusion_lon": 0.0, "lon": -77.02511433333333}, {"lat": 38.89523066666667, "type": "electric_scooter", "rental_uris": {"android": "https://dc.lft.to/lastmile_qr_scan", "ios": "https://dc.lft.to/lastmile_qr_scan"}, "fusion_lat": 0.0, "name": "6e7eefbe68cea48c11ec2ead411e4b15", "is_reserved": 0, "is_disabled": 0, "bike_id": "6e7eefbe68cea48c11ec2ead411e4b15", "fusion_lon": 0.0, "lon": -77.044818}, {"lat": 38.90835666666667, "type": "electric_scooter", "rental_uris": {"android": "https://dc.lft.to/lastmile_qr_scan", "ios": "https://dc.lft.to/lastmile_qr_scan"}, "fusion_lat": 0.0, "name": "0cda8ff4bacda5946977deead024d488", "is_reserved": 0, "is_disabled": 0, "bike_id": "0cda8ff4bacda5946977deead024d488", "fusion_lon": 0.0, "lon": -76.9997885}, {"lat": 38.92602733333333, "type": "electric_scooter", "rental_uris": {"android": "https://dc.lft.to/lastmile_qr_scan", "ios": "https://dc.lft.to/lastmile_qr_scan"}, "fusion_lat": 0.0, "name": "699e219891ad6a6cbaaea678de5fa864", "is_reserved": 0, "is_disabled": 0, "bike_id": "699e219891ad6a6cbaaea678de5fa864", "fusion_lon": 0.0, "lon": -77.02157716666666}, {"lat": 38.900367, "type": "electric_scooter", "rental_uris": {"android": "https://dc.lft.to/lastmile_qr_scan", "ios": "https://dc.lft.to/lastmile_qr_scan"}, "fusion_lat": 0.0, "name": "4aaa7afc451abe694fde4fa9e23b4606", "is_reserved": 0, "is_disabled": 0, "bike_id": "4aaa7afc451abe694fde4fa9e23b4606", "fusion_lon": 0.0, "lon": -77.02619483333334}, {"lat": 38.88729583333333, "type": "electric_scooter", "rental_uris": {"android": "https://dc.lft.to/lastmile_qr_scan", "ios": "https://dc.lft.to/lastmile_qr_scan"}, "fusion_lat": 0.0, "name": "8baf234771b0d099d0b168e987a42bd0", "is_reserved": 0, "is_disabled": 0, "bike_id": "8baf234771b0d099d0b168e987a42bd0", "fusion_lon": 0.0, "lon": -76.98355733333334}, {"lat": 38.902636, "type": "electric_scooter", "rental_uris": {"android": "https://dc.lft.to/lastmile_qr_scan", "ios": "https://dc.lft.to/lastmile_qr_scan"}, "fusion_lat": 0.0, "name": "a14f5ca716684b99f927bc257e67677d", "is_reserved": 0, "is_disabled": 0, "bike_id": "a14f5ca716684b99f927bc257e67677d", "fusion_lon": 0.0, "lon": -77.03001}, {"lat": 38.875516833333336, "type": "electric_scooter", "rental_uris": {"android": "https://dc.lft.to/lastmile_qr_scan", "ios": "https://dc.lft.to/lastmile_qr_scan"}, "fusion_lat": 0.0, "name": "db22cf77caa9eb2a5d939707aef4968e", "is_reserved": 0, "is_disabled": 0, "bike_id": "db22cf77caa9eb2a5d939707aef4968e", "fusion_lon": 0.0, "lon": -77.00582983333334}, {"lat": 38.884148833333334, "type": "electric_scooter", "rental_uris": {"android": "https://dc.lft.to/lastmile_qr_scan", "ios": "https://dc.lft.to/lastmile_qr_scan"}, "fusion_lat": 0.0, "name": "5aa76894d39dce5aa0f1788812a38e49", "is_reserved": 0, "is_disabled": 0, "bike_id": "5aa76894d39dce5aa0f1788812a38e49", "fusion_lon": 0.0, "lon": -76.942117}, {"lat": 38.923433833333334, "type": "electric_scooter", "rental_uris": {"android": "https://dc.lft.to/lastmile_qr_scan", "ios": "https://dc.lft.to/lastmile_qr_scan"}, "fusion_lat": 0.0, "name": "8536c7bd26fa2e02a0101052f35c3a88", "is_reserved": 0, "is_disabled": 0, "bike_id": "8536c7bd26fa2e02a0101052f35c3a88", "fusion_lon": 0.0, "lon": -77.05163383333333}, {"lat": 38.8973245, "type": "electric_bike", "rental_uris": {"android": "https://dc.lft.to/lastmile_qr_scan", "ios": "https://dc.lft.to/lastmile_qr_scan"}, "fusion_lat": 0.0, "name": "f3226215e208d5817d8a63eccccb9e6c", "is_reserved": 0, "is_disabled": 0, "bike_id": "f3226215e208d5817d8a63eccccb9e6c", "fusion_lon": 0.0, "lon": -76.9921645}, {"lat": 38.93322366666666, "type": "electric_scooter", "rental_uris": {"android": "https://dc.lft.to/lastmile_qr_scan", "ios": "https://dc.lft.to/lastmile_qr_scan"}, "fusion_lat": 0.0, "name": "d33ed9de4e90e73a8239e95646241a62", "is_reserved": 0, "is_disabled": 0, "bike_id": "d33ed9de4e90e73a8239e95646241a62", "fusion_lon": 0.0, "lon": -77.03270466666666}, {"lat": 38.90422866666667, "type": "electric_scooter", "rental_uris": {"android": "https://dc.lft.to/lastmile_qr_scan", "ios": "https://dc.lft.to/lastmile_qr_scan"}, "fusion_lat": 0.0, "name": "7cc2ab61583ec0b6495b6cfe6af4c68a", "is_reserved": 0, "is_disabled": 0, "bike_id": "7cc2ab61583ec0b6495b6cfe6af4c68a", "fusion_lon": 0.0, "lon": -77.02770733333334}, {"lat": 38.915947833333334, "type": "electric_scooter", "rental_uris": {"android": "https://dc.lft.to/lastmile_qr_scan", "ios": "https://dc.lft.to/lastmile_qr_scan"}, "fusion_lat": 0.0, "name": "dda71a2b723b17c6e9880e3f3f9aba84", "is_reserved": 0, "is_disabled": 0, "bike_id": "dda71a2b723b17c6e9880e3f3f9aba84", "fusion_lon": 0.0, "lon": -77.0318015}, {"lat": 38.92379866666667, "type": "electric_scooter", "rental_uris": {"android": "https://dc.lft.to/lastmile_qr_scan", "ios": "https://dc.lft.to/lastmile_qr_scan"}, "fusion_lat": 0.0, "name": "feba3004ddb048e21da559dd6f56acbb", "is_reserved": 0, "is_disabled": 0, "bike_id": "feba3004ddb048e21da559dd6f56acbb", "fusion_lon": 0.0, "lon": -77.03051333333333}, {"lat": 38.91913316666667, "type": "electric_scooter", "rental_uris": {"android": "https://dc.lft.to/lastmile_qr_scan", "ios": "https://dc.lft.to/lastmile_qr_scan"}, "fusion_lat": 0.0, "name": "88a023670d861dc3d2fe88e1fe7d7fa2", "is_reserved": 0, "is_disabled": 0, "bike_id": "88a023670d861dc3d2fe88e1fe7d7fa2", "fusion_lon": 0.0, "lon": -77.02733633333334}, {"lat": 39.0342825, "type": "electric_bike", "rental_uris": {"android": "https://dc.lft.to/lastmile_qr_scan", "ios": "https://dc.lft.to/lastmile_qr_scan"}, "fusion_lat": 0.0, "name": "d3f26dcb0c2cdb933a86ded9e28a3c0e", "is_reserved": 0, "is_disabled": 0, "bike_id": "d3f26dcb0c2cdb933a86ded9e28a3c0e", "fusion_lon": 0.0, "lon": -77.04310516666666}, {"lat": 38.8977295, "type": "electric_scooter", "rental_uris": {"android": "https://dc.lft.to/lastmile_qr_scan", "ios": "https://dc.lft.to/lastmile_qr_scan"}, "fusion_lat": 0.0, "name": "11b1218f39928c9da7552866e9d6ef4e", "is_reserved": 0, "is_disabled": 0, "bike_id": "11b1218f39928c9da7552866e9d6ef4e", "fusion_lon": 0.0, "lon": -76.98460033333333}, {"lat": 38.909848, "type": "electric_scooter", "rental_uris": {"android": "https://dc.lft.to/lastmile_qr_scan", "ios": "https://dc.lft.to/lastmile_qr_scan"}, "fusion_lat": 0.0, "name": "c1dcaab8862a0636f5990b34c9b3196d", "is_reserved": 0, "is_disabled": 0, "bike_id": "c1dcaab8862a0636f5990b34c9b3196d", "fusion_lon": 0.0, "lon": -77.021929}, {"lat": 38.93454666666667, "type": "electric_scooter", "rental_uris": {"android": "https://dc.lft.to/lastmile_qr_scan", "ios": "https://dc.lft.to/lastmile_qr_scan"}, "fusion_lat": 0.0, "name": "b6b3cd457e0deae8b5f88a7072f003b2", "is_reserved": 0, "is_disabled": 0, "bike_id": "b6b3cd457e0deae8b5f88a7072f003b2", "fusion_lon": 0.0, "lon": -77.02410733333333}, {"lat": 38.91921933333333, "type": "electric_scooter", "rental_uris": {"android": "https://dc.lft.to/lastmile_qr_scan", "ios": "https://dc.lft.to/lastmile_qr_scan"}, "fusion_lat": 0.0, "name": "04fbdb4852c1217f14cc64d660754137", "is_reserved": 0, "is_disabled": 0, "bike_id": "04fbdb4852c1217f14cc64d660754137", "fusion_lon": 0.0, "lon": -77.03212433333333}, {"lat": 38.891778333333335, "type": "electric_scooter", "rental_uris": {"android": "https://dc.lft.to/lastmile_qr_scan", "ios": "https://dc.lft.to/lastmile_qr_scan"}, "fusion_lat": 0.0, "name": "008db93beb05c5d515012f37238867bc", "is_reserved": 0, "is_disabled": 0, "bike_id": "008db93beb05c5d515012f37238867bc", "fusion_lon": 0.0, "lon": -77.01590716666666}, {"lat": 38.9430325, "type": "electric_scooter", "rental_uris": {"android": "https://dc.lft.to/lastmile_qr_scan", "ios": "https://dc.lft.to/lastmile_qr_scan"}, "fusion_lat": 0.0, "name": "6cc1f73939c228cd2f5ade85fa35e3ca", "is_reserved": 0, "is_disabled": 0, "bike_id": "6cc1f73939c228cd2f5ade85fa35e3ca", "fusion_lon": 0.0, "lon": -77.06130766666666}, {"lat": 38.8736515, "type": "electric_scooter", "rental_uris": {"android": "https://dc.lft.to/lastmile_qr_scan", "ios": "https://dc.lft.to/lastmile_qr_scan"}, "fusion_lat": 0.0, "name": "c2bb15985ee50bad7443d7f233741fbb", "is_reserved": 0, "is_disabled": 0, "bike_id": "c2bb15985ee50bad7443d7f233741fbb", "fusion_lon": 0.0, "lon": -77.00041583333334}, {"lat": 38.916937833333336, "type": "electric_scooter", "rental_uris": {"android": "https://dc.lft.to/lastmile_qr_scan", "ios": "https://dc.lft.to/lastmile_qr_scan"}, "fusion_lat": 0.0, "name": "ef2cabb001aa0e67776e9fe72633bc60", "is_reserved": 0, "is_disabled": 0, "bike_id": "ef2cabb001aa0e67776e9fe72633bc60", "fusion_lon": 0.0, "lon": -77.03038333333333}, {"lat": 38.91805016666667, "type": "electric_scooter", "rental_uris": {"android": "https://dc.lft.to/lastmile_qr_scan", "ios": "https://dc.lft.to/lastmile_qr_scan"}, "fusion_lat": 0.0, "name": "c6f2ac2eaf9bcb602aaf8a7be41791fc", "is_reserved": 0, "is_disabled": 0, "bike_id": "c6f2ac2eaf9bcb602aaf8a7be41791fc", "fusion_lon": 0.0, "lon": -77.03178016666666}, {"lat": 38.85336433333333, "type": "electric_bike", "rental_uris": {"android": "https://dc.lft.to/lastmile_qr_scan", "ios": "https://dc.lft.to/lastmile_qr_scan"}, "fusion_lat": 0.0, "name": "7ea530a6484b129b1a63dcb9b253d457", "is_reserved": 0, "is_disabled": 0, "bike_id": "7ea530a6484b129b1a63dcb9b253d457", "fusion_lon": 0.0, "lon": -77.11518516666666}, {"lat": 38.860609833333335, "type": "electric_scooter", "rental_uris": {"android": "https://dc.lft.to/lastmile_qr_scan", "ios": "https://dc.lft.to/lastmile_qr_scan"}, "fusion_lat": 0.0, "name": "b64050cea1e18c5c3d3cdabe079a4cc9", "is_reserved": 0, "is_disabled": 0, "bike_id": "b64050cea1e18c5c3d3cdabe079a4cc9", "fusion_lon": 0.0, "lon": -76.9671635}, {"lat": 38.86887633333333, "type": "electric_scooter", "rental_uris": {"android": "https://dc.lft.to/lastmile_qr_scan", "ios": "https://dc.lft.to/lastmile_qr_scan"}, "fusion_lat": 0.0, "name": "fdc8d86e6aedf0a7795e7de1eacd5f2f", "is_reserved": 0, "is_disabled": 0, "bike_id": "fdc8d86e6aedf0a7795e7de1eacd5f2f", "fusion_lon": 0.0, "lon": -76.98998516666667}, {"lat": 38.926092, "type": "electric_scooter", "rental_uris": {"android": "https://dc.lft.to/lastmile_qr_scan", "ios": "https://dc.lft.to/lastmile_qr_scan"}, "fusion_lat": 0.0, "name": "05f3d369ad3b216c60a021554df13bab", "is_reserved": 0, "is_disabled": 0, "bike_id": "05f3d369ad3b216c60a021554df13bab", "fusion_lon": 0.0, "lon": -77.021664}, {"lat": 38.874847833333334, "type": "electric_scooter", "rental_uris": {"android": "https://dc.lft.to/lastmile_qr_scan", "ios": "https://dc.lft.to/lastmile_qr_scan"}, "fusion_lat": 0.0, "name": "e26e3c4007391619b66a315b63011a53", "is_reserved": 0, "is_disabled": 0, "bike_id": "e26e3c4007391619b66a315b63011a53", "fusion_lon": 0.0, "lon": -77.00609083333333}, {"lat": 38.924447, "type": "electric_scooter", "rental_uris": {"android": "https://dc.lft.to/lastmile_qr_scan", "ios": "https://dc.lft.to/lastmile_qr_scan"}, "fusion_lat": 0.0, "name": "c6a462335544cb4713b890ec14bdf251", "is_reserved": 0, "is_disabled": 0, "bike_id": "c6a462335544cb4713b890ec14bdf251", "fusion_lon": 0.0, "lon": -77.0520095}, {"lat": 38.902484666666666, "type": "electric_scooter", "rental_uris": {"android": "https://dc.lft.to/lastmile_qr_scan", "ios": "https://dc.lft.to/lastmile_qr_scan"}, "fusion_lat": 0.0, "name": "be448337c00811c808984499f8d3c998", "is_reserved": 0, "is_disabled": 0, "bike_id": "be448337c00811c808984499f8d3c998", "fusion_lon": 0.0, "lon": -77.03256183333333}, {"lat": 38.92284266666667, "type": "electric_scooter", "rental_uris": {"android": "https://dc.lft.to/lastmile_qr_scan", "ios": "https://dc.lft.to/lastmile_qr_scan"}, "fusion_lat": 0.0, "name": "1e7cdd52d77141c2da86f63b12b8ca93", "is_reserved": 0, "is_disabled": 0, "bike_id": "1e7cdd52d77141c2da86f63b12b8ca93", "fusion_lon": 0.0, "lon": -77.0365705}, {"lat": 38.91517833333333, "type": "electric_scooter", "rental_uris": {"android": "https://dc.lft.to/lastmile_qr_scan", "ios": "https://dc.lft.to/lastmile_qr_scan"}, "fusion_lat": 0.0, "name": "ef730734265ff54b51254323a3cb0047", "is_reserved": 0, "is_disabled": 0, "bike_id": "ef730734265ff54b51254323a3cb0047", "fusion_lon": 0.0, "lon": -77.01425816666666}, {"lat": 38.918169666666664, "type": "electric_scooter", "rental_uris": {"android": "https://dc.lft.to/lastmile_qr_scan", "ios": "https://dc.lft.to/lastmile_qr_scan"}, "fusion_lat": 0.0, "name": "b090001aa89f233153cf155f97b6bf62", "is_reserved": 0, "is_disabled": 0, "bike_id": "b090001aa89f233153cf155f97b6bf62", "fusion_lon": 0.0, "lon": -77.03167533333334}, {"lat": 38.9095655, "type": "electric_scooter", "rental_uris": {"android": "https://dc.lft.to/lastmile_qr_scan", "ios": "https://dc.lft.to/lastmile_qr_scan"}, "fusion_lat": 0.0, "name": "d384b44094f911d2ba54cfe919ca7239", "is_reserved": 0, "is_disabled": 0, "bike_id": "d384b44094f911d2ba54cfe919ca7239", "fusion_lon": 0.0, "lon": -77.02411883333333}, {"lat": 38.92353416666667, "type": "electric_scooter", "rental_uris": {"android": "https://dc.lft.to/lastmile_qr_scan", "ios": "https://dc.lft.to/lastmile_qr_scan"}, "fusion_lat": 0.0, "name": "42d0766513c74165d33d2c8daac6adeb", "is_reserved": 0, "is_disabled": 0, "bike_id": "42d0766513c74165d33d2c8daac6adeb", "fusion_lon": 0.0, "lon": -77.04408316666667}, {"lat": 38.92835516666667, "type": "electric_scooter", "rental_uris": {"android": "https://dc.lft.to/lastmile_qr_scan", "ios": "https://dc.lft.to/lastmile_qr_scan"}, "fusion_lat": 0.0, "name": "6ce72a88a62500e6c11ee235fa1466cc", "is_reserved": 0, "is_disabled": 0, "bike_id": "6ce72a88a62500e6c11ee235fa1466cc", "fusion_lon": 0.0, "lon": -77.05416033333333}, {"lat": 38.90314816666667, "type": "electric_scooter", "rental_uris": {"android": "https://dc.lft.to/lastmile_qr_scan", "ios": "https://dc.lft.to/lastmile_qr_scan"}, "fusion_lat": 0.0, "name": "361ef222bc6a1ef3a3cdf56a68b3e23a", "is_reserved": 0, "is_disabled": 0, "bike_id": "361ef222bc6a1ef3a3cdf56a68b3e23a", "fusion_lon": 0.0, "lon": -77.01639266666666}, {"lat": 38.916379166666665, "type": "electric_scooter", "rental_uris": {"android": "https://dc.lft.to/lastmile_qr_scan", "ios": "https://dc.lft.to/lastmile_qr_scan"}, "fusion_lat": 0.0, "name": "93fdb4152212bd135d27da2d05c51b66", "is_reserved": 0, "is_disabled": 0, "bike_id": "93fdb4152212bd135d27da2d05c51b66", "fusion_lon": 0.0, "lon": -77.04157366666666}, {"lat": 38.8982805, "type": "electric_scooter", "rental_uris": {"android": "https://dc.lft.to/lastmile_qr_scan", "ios": "https://dc.lft.to/lastmile_qr_scan"}, "fusion_lat": 0.0, "name": "27f507ea3219f1601ed195162645641a", "is_reserved": 0, "is_disabled": 0, "bike_id": "27f507ea3219f1601ed195162645641a", "fusion_lon": 0.0, "lon": -77.05034966666666}, {"lat": 38.91073566666667, "type": "electric_scooter", "rental_uris": {"android": "https://dc.lft.to/lastmile_qr_scan", "ios": "https://dc.lft.to/lastmile_qr_scan"}, "fusion_lat": 0.0, "name": "699f30c08a1373ea274ec85a6fdb5cfd", "is_reserved": 0, "is_disabled": 0, "bike_id": "699f30c08a1373ea274ec85a6fdb5cfd", "fusion_lon": 0.0, "lon": -77.02719966666666}, {"lat": 38.870506, "type": "electric_scooter", "rental_uris": {"android": "https://dc.lft.to/lastmile_qr_scan", "ios": "https://dc.lft.to/lastmile_qr_scan"}, "fusion_lat": 0.0, "name": "57e1a547e96791fab7f809f852b3ce5f", "is_reserved": 0, "is_disabled": 0, "bike_id": "57e1a547e96791fab7f809f852b3ce5f", "fusion_lon": 0.0, "lon": -77.0075245}, {"lat": 38.917065, "type": "electric_scooter", "rental_uris": {"android": "https://dc.lft.to/lastmile_qr_scan", "ios": "https://dc.lft.to/lastmile_qr_scan"}, "fusion_lat": 0.0, "name": "a85cecd86278cef267cae3daa1a516c5", "is_reserved": 0, "is_disabled": 0, "bike_id": "a85cecd86278cef267cae3daa1a516c5", "fusion_lon": 0.0, "lon": -77.02413666666666}, {"lat": 38.912504, "type": "electric_scooter", "rental_uris": {"android": "https://dc.lft.to/lastmile_qr_scan", "ios": "https://dc.lft.to/lastmile_qr_scan"}, "fusion_lat": 0.0, "name": "41dcfa7ad2688e41127127035e9c07a2", "is_reserved": 0, "is_disabled": 0, "bike_id": "41dcfa7ad2688e41127127035e9c07a2", "fusion_lon": 0.0, "lon": -77.04707033333334}, {"lat": 38.904715333333336, "type": "electric_scooter", "rental_uris": {"android": "https://dc.lft.to/lastmile_qr_scan", "ios": "https://dc.lft.to/lastmile_qr_scan"}, "fusion_lat": 0.0, "name": "dfaf41dd6534d1801a5bd21ee6a04879", "is_reserved": 0, "is_disabled": 0, "bike_id": "dfaf41dd6534d1801a5bd21ee6a04879", "fusion_lon": 0.0, "lon": -77.01895483333334}, {"lat": 38.900210333333334, "type": "electric_scooter", "rental_uris": {"android": "https://dc.lft.to/lastmile_qr_scan", "ios": "https://dc.lft.to/lastmile_qr_scan"}, "fusion_lat": 0.0, "name": "95ee55ae8c3e4e81d5ed47123752b64c", "is_reserved": 0, "is_disabled": 0, "bike_id": "95ee55ae8c3e4e81d5ed47123752b64c", "fusion_lon": 0.0, "lon": -77.0468195}, {"lat": 38.94131433333333, "type": "electric_bike", "rental_uris": {"android": "https://dc.lft.to/lastmile_qr_scan", "ios": "https://dc.lft.to/lastmile_qr_scan"}, "fusion_lat": 0.0, "name": "03efcd9a299e87449f42beddeda688ad", "is_reserved": 0, "is_disabled": 0, "bike_id": "03efcd9a299e87449f42beddeda688ad", "fusion_lon": 0.0, "lon": -77.02045683333333}, {"lat": 38.920631, "type": "electric_scooter", "rental_uris": {"android": "https://dc.lft.to/lastmile_qr_scan", "ios": "https://dc.lft.to/lastmile_qr_scan"}, "fusion_lat": 0.0, "name": "e77c1e23f1afada0fce0c50e5fa9e510", "is_reserved": 0, "is_disabled": 0, "bike_id": "e77c1e23f1afada0fce0c50e5fa9e510", "fusion_lon": 0.0, "lon": -77.03181083333334}, {"lat": 38.92844816666667, "type": "electric_scooter", "rental_uris": {"android": "https://dc.lft.to/lastmile_qr_scan", "ios": "https://dc.lft.to/lastmile_qr_scan"}, "fusion_lat": 0.0, "name": "6d78dfcd52d2b915e88ec602c624d361", "is_reserved": 0, "is_disabled": 0, "bike_id": "6d78dfcd52d2b915e88ec602c624d361", "fusion_lon": 0.0, "lon": -77.032789}, {"lat": 38.92343866666667, "type": "electric_scooter", "rental_uris": {"android": "https://dc.lft.to/lastmile_qr_scan", "ios": "https://dc.lft.to/lastmile_qr_scan"}, "fusion_lat": 0.0, "name": "ba89144a1052baa79568add2c4eaa37e", "is_reserved": 0, "is_disabled": 0, "bike_id": "ba89144a1052baa79568add2c4eaa37e", "fusion_lon": 0.0, "lon": -77.051706}, {"lat": 38.910988833333334, "type": "electric_scooter", "rental_uris": {"android": "https://dc.lft.to/lastmile_qr_scan", "ios": "https://dc.lft.to/lastmile_qr_scan"}, "fusion_lat": 0.0, "name": "5887a2e8c3827e8b8f99104ff5f61028", "is_reserved": 0, "is_disabled": 0, "bike_id": "5887a2e8c3827e8b8f99104ff5f61028", "fusion_lon": 0.0, "lon": -77.02969816666666}, {"lat": 38.92580616666667, "type": "electric_scooter", "rental_uris": {"android": "https://dc.lft.to/lastmile_qr_scan", "ios": "https://dc.lft.to/lastmile_qr_scan"}, "fusion_lat": 0.0, "name": "dc9ffd79bdfe341530221c69880678eb", "is_reserved": 0, "is_disabled": 0, "bike_id": "dc9ffd79bdfe341530221c69880678eb", "fusion_lon": 0.0, "lon": -77.03228683333333}, {"lat": 38.8778865, "type": "electric_scooter", "rental_uris": {"android": "https://dc.lft.to/lastmile_qr_scan", "ios": "https://dc.lft.to/lastmile_qr_scan"}, "fusion_lat": 0.0, "name": "991a78af283e873e808478f462752205", "is_reserved": 0, "is_disabled": 0, "bike_id": "991a78af283e873e808478f462752205", "fusion_lon": 0.0, "lon": -76.99943466666667}, {"lat": 38.93079916666667, "type": "electric_scooter", "rental_uris": {"android": "https://dc.lft.to/lastmile_qr_scan", "ios": "https://dc.lft.to/lastmile_qr_scan"}, "fusion_lat": 0.0, "name": "821589a8f4f4550bbaa24763df2a805f", "is_reserved": 0, "is_disabled": 0, "bike_id": "821589a8f4f4550bbaa24763df2a805f", "fusion_lon": 0.0, "lon": -77.0279605}, {"lat": 38.91693683333333, "type": "electric_scooter", "rental_uris": {"android": "https://dc.lft.to/lastmile_qr_scan", "ios": "https://dc.lft.to/lastmile_qr_scan"}, "fusion_lat": 0.0, "name": "5f721d33c61dbc06194804efc2b85625", "is_reserved": 0, "is_disabled": 0, "bike_id": "5f721d33c61dbc06194804efc2b85625", "fusion_lon": 0.0, "lon": -77.02863666666667}, {"lat": 38.97880216666667, "type": "electric_bike", "rental_uris": {"android": "https://dc.lft.to/lastmile_qr_scan", "ios": "https://dc.lft.to/lastmile_qr_scan"}, "fusion_lat": 0.0, "name": "edc00dce730b0fd101036b76e80eab65", "is_reserved": 0, "is_disabled": 0, "bike_id": "edc00dce730b0fd101036b76e80eab65", "fusion_lon": 0.0, "lon": -77.06029716666667}, {"lat": 38.91106533333333, "type": "electric_scooter", "rental_uris": {"android": "https://dc.lft.to/lastmile_qr_scan", "ios": "https://dc.lft.to/lastmile_qr_scan"}, "fusion_lat": 0.0, "name": "14f42338c8f77d6059576f5654e2a598", "is_reserved": 0, "is_disabled": 0, "bike_id": "14f42338c8f77d6059576f5654e2a598", "fusion_lon": 0.0, "lon": -77.044813}, {"lat": 38.8836825, "type": "electric_scooter", "rental_uris": {"android": "https://dc.lft.to/lastmile_qr_scan", "ios": "https://dc.lft.to/lastmile_qr_scan"}, "fusion_lat": 0.0, "name": "5410d9d47466127c6652bdef57622d32", "is_reserved": 0, "is_disabled": 0, "bike_id": "5410d9d47466127c6652bdef57622d32", "fusion_lon": 0.0, "lon": -77.01965116666666}, {"lat": 38.94304483333333, "type": "electric_scooter", "rental_uris": {"android": "https://dc.lft.to/lastmile_qr_scan", "ios": "https://dc.lft.to/lastmile_qr_scan"}, "fusion_lat": 0.0, "name": "ae31c8a5eaacfaab1e5277b9cb2fd884", "is_reserved": 0, "is_disabled": 0, "bike_id": "ae31c8a5eaacfaab1e5277b9cb2fd884", "fusion_lon": 0.0, "lon": -77.02497133333334}, {"lat": 38.87763283333334, "type": "electric_bike", "rental_uris": {"android": "https://dc.lft.to/lastmile_qr_scan", "ios": "https://dc.lft.to/lastmile_qr_scan"}, "fusion_lat": 0.0, "name": "7850e4910e6c6029b831b6dad65e818a", "is_reserved": 0, "is_disabled": 0, "bike_id": "7850e4910e6c6029b831b6dad65e818a", "fusion_lon": 0.0, "lon": -77.01051766666667}, {"lat": 38.90182883333333, "type": "electric_scooter", "rental_uris": {"android": "https://dc.lft.to/lastmile_qr_scan", "ios": "https://dc.lft.to/lastmile_qr_scan"}, "fusion_lat": 0.0, "name": "ad0b2e895f2097c4377e244f9d963c1d", "is_reserved": 0, "is_disabled": 0, "bike_id": "ad0b2e895f2097c4377e244f9d963c1d", "fusion_lon": 0.0, "lon": -77.050581}, {"lat": 38.90971, "type": "electric_scooter", "rental_uris": {"android": "https://dc.lft.to/lastmile_qr_scan", "ios": "https://dc.lft.to/lastmile_qr_scan"}, "fusion_lat": 0.0, "name": "bb19aa7fb6bcc9e240ca8e1a1a9a1021", "is_reserved": 0, "is_disabled": 0, "bike_id": "bb19aa7fb6bcc9e240ca8e1a1a9a1021", "fusion_lon": 0.0, "lon": -77.0384305}, {"lat": 38.927193833333334, "type": "electric_scooter", "rental_uris": {"android": "https://dc.lft.to/lastmile_qr_scan", "ios": "https://dc.lft.to/lastmile_qr_scan"}, "fusion_lat": 0.0, "name": "b22b47d8196106174d1925725455721e", "is_reserved": 0, "is_disabled": 0, "bike_id": "b22b47d8196106174d1925725455721e", "fusion_lon": 0.0, "lon": -77.02262783333333}, {"lat": 38.900969, "type": "electric_scooter", "rental_uris": {"android": "https://dc.lft.to/lastmile_qr_scan", "ios": "https://dc.lft.to/lastmile_qr_scan"}, "fusion_lat": 0.0, "name": "356e14023526b8a98cf77f87a357a6f5", "is_reserved": 0, "is_disabled": 0, "bike_id": "356e14023526b8a98cf77f87a357a6f5", "fusion_lon": 0.0, "lon": -76.93049283333333}, {"lat": 38.911972666666664, "type": "electric_scooter", "rental_uris": {"android": "https://dc.lft.to/lastmile_qr_scan", "ios": "https://dc.lft.to/lastmile_qr_scan"}, "fusion_lat": 0.0, "name": "7d9c6e188f858bb1d3cc1956a73e8f74", "is_reserved": 0, "is_disabled": 0, "bike_id": "7d9c6e188f858bb1d3cc1956a73e8f74", "fusion_lon": 0.0, "lon": -77.0118275}, {"lat": 38.90785266666666, "type": "electric_scooter", "rental_uris": {"android": "https://dc.lft.to/lastmile_qr_scan", "ios": "https://dc.lft.to/lastmile_qr_scan"}, "fusion_lat": 0.0, "name": "e49d22cc98458c1448e229441348e9d6", "is_reserved": 0, "is_disabled": 0, "bike_id": "e49d22cc98458c1448e229441348e9d6", "fusion_lon": 0.0, "lon": -77.04259466666667}, {"lat": 38.860111333333336, "type": "electric_scooter", "rental_uris": {"android": "https://dc.lft.to/lastmile_qr_scan", "ios": "https://dc.lft.to/lastmile_qr_scan"}, "fusion_lat": 0.0, "name": "e46b3e9d049392a1cf26978ffe6dbf77", "is_reserved": 0, "is_disabled": 0, "bike_id": "e46b3e9d049392a1cf26978ffe6dbf77", "fusion_lon": 0.0, "lon": -76.9670765}, {"lat": 38.91106416666667, "type": "electric_scooter", "rental_uris": {"android": "https://dc.lft.to/lastmile_qr_scan", "ios": "https://dc.lft.to/lastmile_qr_scan"}, "fusion_lat": 0.0, "name": "5bd315b9aeb6f03b0c9e51ac019732e6", "is_reserved": 0, "is_disabled": 0, "bike_id": "5bd315b9aeb6f03b0c9e51ac019732e6", "fusion_lon": 0.0, "lon": -77.020943}, {"lat": 38.9257775, "type": "electric_scooter", "rental_uris": {"android": "https://dc.lft.to/lastmile_qr_scan", "ios": "https://dc.lft.to/lastmile_qr_scan"}, "fusion_lat": 0.0, "name": "0f10ad0d86485c735b8c5a8127d579f2", "is_reserved": 0, "is_disabled": 0, "bike_id": "0f10ad0d86485c735b8c5a8127d579f2", "fusion_lon": 0.0, "lon": -77.03230316666667}, {"lat": 38.92338216666667, "type": "electric_scooter", "rental_uris": {"android": "https://dc.lft.to/lastmile_qr_scan", "ios": "https://dc.lft.to/lastmile_qr_scan"}, "fusion_lat": 0.0, "name": "d8d070fdf160f79544d51041765a0d5f", "is_reserved": 0, "is_disabled": 0, "bike_id": "d8d070fdf160f79544d51041765a0d5f", "fusion_lon": 0.0, "lon": -77.0521825}, {"lat": 38.89220233333333, "type": "electric_scooter", "rental_uris": {"android": "https://dc.lft.to/lastmile_qr_scan", "ios": "https://dc.lft.to/lastmile_qr_scan"}, "fusion_lat": 0.0, "name": "af993747119fd861979f65dbc71627c3", "is_reserved": 0, "is_disabled": 0, "bike_id": "af993747119fd861979f65dbc71627c3", "fusion_lon": 0.0, "lon": -77.04327066666667}, {"lat": 38.9165355, "type": "electric_scooter", "rental_uris": {"android": "https://dc.lft.to/lastmile_qr_scan", "ios": "https://dc.lft.to/lastmile_qr_scan"}, "fusion_lat": 0.0, "name": "648d334d672d8efd3ba867e75ddb6b8c", "is_reserved": 0, "is_disabled": 0, "bike_id": "648d334d672d8efd3ba867e75ddb6b8c", "fusion_lon": 0.0, "lon": -77.04172166666666}, {"lat": 38.92643983333333, "type": "electric_scooter", "rental_uris": {"android": "https://dc.lft.to/lastmile_qr_scan", "ios": "https://dc.lft.to/lastmile_qr_scan"}, "fusion_lat": 0.0, "name": "22f5f2e89dd4433b88c3a56c9e7f6d9e", "is_reserved": 0, "is_disabled": 0, "bike_id": "22f5f2e89dd4433b88c3a56c9e7f6d9e", "fusion_lon": 0.0, "lon": -77.0370255}, {"lat": 38.917920333333335, "type": "electric_scooter", "rental_uris": {"android": "https://dc.lft.to/lastmile_qr_scan", "ios": "https://dc.lft.to/lastmile_qr_scan"}, "fusion_lat": 0.0, "name": "6c0709df9ca0d8979d92115c5b227953", "is_reserved": 0, "is_disabled": 0, "bike_id": "6c0709df9ca0d8979d92115c5b227953", "fusion_lon": 0.0, "lon": -77.03191616666666}, {"lat": 38.92312233333333, "type": "electric_scooter", "rental_uris": {"android": "https://dc.lft.to/lastmile_qr_scan", "ios": "https://dc.lft.to/lastmile_qr_scan"}, "fusion_lat": 0.0, "name": "5d230618515c0b3849e73b1aa3a5cab5", "is_reserved": 0, "is_disabled": 0, "bike_id": "5d230618515c0b3849e73b1aa3a5cab5", "fusion_lon": 0.0, "lon": -77.04040466666666}, {"lat": 38.894187333333335, "type": "electric_scooter", "rental_uris": {"android": "https://dc.lft.to/lastmile_qr_scan", "ios": "https://dc.lft.to/lastmile_qr_scan"}, "fusion_lat": 0.0, "name": "0cdd5505301d5806b5c57727d1d5f6e6", "is_reserved": 0, "is_disabled": 0, "bike_id": "0cdd5505301d5806b5c57727d1d5f6e6", "fusion_lon": 0.0, "lon": -77.021962}, {"lat": 38.872000666666665, "type": "electric_scooter", "rental_uris": {"android": "https://dc.lft.to/lastmile_qr_scan", "ios": "https://dc.lft.to/lastmile_qr_scan"}, "fusion_lat": 0.0, "name": "2489c9dfe96d257634cc25f51955fd1b", "is_reserved": 0, "is_disabled": 0, "bike_id": "2489c9dfe96d257634cc25f51955fd1b", "fusion_lon": 0.0, "lon": -77.00928683333333}, {"lat": 38.873954166666664, "type": "electric_scooter", "rental_uris": {"android": "https://dc.lft.to/lastmile_qr_scan", "ios": "https://dc.lft.to/lastmile_qr_scan"}, "fusion_lat": 0.0, "name": "2fab091b5f776ca6c433320edc5ad7fb", "is_reserved": 0, "is_disabled": 0, "bike_id": "2fab091b5f776ca6c433320edc5ad7fb", "fusion_lon": 0.0, "lon": -77.00029283333333}, {"lat": 38.91980683333333, "type": "electric_scooter", "rental_uris": {"android": "https://dc.lft.to/lastmile_qr_scan", "ios": "https://dc.lft.to/lastmile_qr_scan"}, "fusion_lat": 0.0, "name": "1b63717055963a8cc6d5d8ab7204d367", "is_reserved": 0, "is_disabled": 0, "bike_id": "1b63717055963a8cc6d5d8ab7204d367", "fusion_lon": 0.0, "lon": -77.04166416666666}, {"lat": 38.9233345, "type": "electric_scooter", "rental_uris": {"android": "https://dc.lft.to/lastmile_qr_scan", "ios": "https://dc.lft.to/lastmile_qr_scan"}, "fusion_lat": 0.0, "name": "6711cb50a8843c08644848754e2e57bc", "is_reserved": 0, "is_disabled": 0, "bike_id": "6711cb50a8843c08644848754e2e57bc", "fusion_lon": 0.0, "lon": -77.00914666666667}, {"lat": 38.9030455, "type": "electric_scooter", "rental_uris": {"android": "https://dc.lft.to/lastmile_qr_scan", "ios": "https://dc.lft.to/lastmile_qr_scan"}, "fusion_lat": 0.0, "name": "d234adb7d4e946907738444254e1117f", "is_reserved": 0, "is_disabled": 0, "bike_id": "d234adb7d4e946907738444254e1117f", "fusion_lon": 0.0, "lon": -77.06120166666666}, {"lat": 38.921239, "type": "electric_scooter", "rental_uris": {"android": "https://dc.lft.to/lastmile_qr_scan", "ios": "https://dc.lft.to/lastmile_qr_scan"}, "fusion_lat": 0.0, "name": "1cb054f57df9787e685e32816abf08c7", "is_reserved": 0, "is_disabled": 0, "bike_id": "1cb054f57df9787e685e32816abf08c7", "fusion_lon": 0.0, "lon": -77.02515483333333}, {"lat": 38.87832366666667, "type": "electric_scooter", "rental_uris": {"android": "https://dc.lft.to/lastmile_qr_scan", "ios": "https://dc.lft.to/lastmile_qr_scan"}, "fusion_lat": 0.0, "name": "be1a8953469af7b678fb7ce4581b1d91", "is_reserved": 0, "is_disabled": 0, "bike_id": "be1a8953469af7b678fb7ce4581b1d91", "fusion_lon": 0.0, "lon": -77.00574833333333}, {"lat": 38.911789166666665, "type": "electric_scooter", "rental_uris": {"android": "https://dc.lft.to/lastmile_qr_scan", "ios": "https://dc.lft.to/lastmile_qr_scan"}, "fusion_lat": 0.0, "name": "6451ad0f843e52d5c9e34ee3a31dd815", "is_reserved": 0, "is_disabled": 0, "bike_id": "6451ad0f843e52d5c9e34ee3a31dd815", "fusion_lon": 0.0, "lon": -77.0219205}, {"lat": 38.96152133333333, "type": "electric_scooter", "rental_uris": {"android": "https://dc.lft.to/lastmile_qr_scan", "ios": "https://dc.lft.to/lastmile_qr_scan"}, "fusion_lat": 0.0, "name": "71da5eb4c7c60a81f408d9826fa35b15", "is_reserved": 0, "is_disabled": 0, "bike_id": "71da5eb4c7c60a81f408d9826fa35b15", "fusion_lon": 0.0, "lon": -77.02790816666666}, {"lat": 38.99437116666667, "type": "electric_bike", "rental_uris": {"android": "https://dc.lft.to/lastmile_qr_scan", "ios": "https://dc.lft.to/lastmile_qr_scan"}, "fusion_lat": 0.0, "name": "c4cc87d0163a387f35c78cadeb394955", "is_reserved": 0, "is_disabled": 0, "bike_id": "c4cc87d0163a387f35c78cadeb394955", "fusion_lon": 0.0, "lon": -76.99585116666667}, {"lat": 38.899649833333335, "type": "electric_scooter", "rental_uris": {"android": "https://dc.lft.to/lastmile_qr_scan", "ios": "https://dc.lft.to/lastmile_qr_scan"}, "fusion_lat": 0.0, "name": "c2bac4984af9d95a68b3aab789f81ba1", "is_reserved": 0, "is_disabled": 0, "bike_id": "c2bac4984af9d95a68b3aab789f81ba1", "fusion_lon": 0.0, "lon": -77.0273295}, {"lat": 38.90230583333334, "type": "electric_scooter", "rental_uris": {"android": "https://dc.lft.to/lastmile_qr_scan", "ios": "https://dc.lft.to/lastmile_qr_scan"}, "fusion_lat": 0.0, "name": "7cb50c05741167d95b5839c7ae1553f5", "is_reserved": 0, "is_disabled": 0, "bike_id": "7cb50c05741167d95b5839c7ae1553f5", "fusion_lon": 0.0, "lon": -77.04582183333333}, {"lat": 38.917441333333336, "type": "electric_scooter", "rental_uris": {"android": "https://dc.lft.to/lastmile_qr_scan", "ios": "https://dc.lft.to/lastmile_qr_scan"}, "fusion_lat": 0.0, "name": "397c8fbdb93efb8f1d45a186e411bdfe", "is_reserved": 0, "is_disabled": 0, "bike_id": "397c8fbdb93efb8f1d45a186e411bdfe", "fusion_lon": 0.0, "lon": -77.06936616666667}, {"lat": 38.936965666666666, "type": "electric_scooter", "rental_uris": {"android": "https://dc.lft.to/lastmile_qr_scan", "ios": "https://dc.lft.to/lastmile_qr_scan"}, "fusion_lat": 0.0, "name": "669e12f51ace195ecebce682c752bdfe", "is_reserved": 0, "is_disabled": 0, "bike_id": "669e12f51ace195ecebce682c752bdfe", "fusion_lon": 0.0, "lon": -77.02405316666666}, {"lat": 38.9177495, "type": "electric_scooter", "rental_uris": {"android": "https://dc.lft.to/lastmile_qr_scan", "ios": "https://dc.lft.to/lastmile_qr_scan"}, "fusion_lat": 0.0, "name": "1f170013e5e72b2ef7fdf348834cfc87", "is_reserved": 0, "is_disabled": 0, "bike_id": "1f170013e5e72b2ef7fdf348834cfc87", "fusion_lon": 0.0, "lon": -77.03187466666667}, {"lat": 38.92092483333333, "type": "electric_scooter", "rental_uris": {"android": "https://dc.lft.to/lastmile_qr_scan", "ios": "https://dc.lft.to/lastmile_qr_scan"}, "fusion_lat": 0.0, "name": "8fba076d4514bb8688928521a71700c1", "is_reserved": 0, "is_disabled": 0, "bike_id": "8fba076d4514bb8688928521a71700c1", "fusion_lon": 0.0, "lon": -77.0251675}, {"lat": 38.92241933333333, "type": "electric_scooter", "rental_uris": {"android": "https://dc.lft.to/lastmile_qr_scan", "ios": "https://dc.lft.to/lastmile_qr_scan"}, "fusion_lat": 0.0, "name": "9f146511c991f20490da4f0506b31193", "is_reserved": 0, "is_disabled": 0, "bike_id": "9f146511c991f20490da4f0506b31193", "fusion_lon": 0.0, "lon": -77.07314133333334}, {"lat": 38.887506, "type": "electric_scooter", "rental_uris": {"android": "https://dc.lft.to/lastmile_qr_scan", "ios": "https://dc.lft.to/lastmile_qr_scan"}, "fusion_lat": 0.0, "name": "8fa1f1f0f5cdf8c2592c1d0c0a3f85a4", "is_reserved": 0, "is_disabled": 0, "bike_id": "8fa1f1f0f5cdf8c2592c1d0c0a3f85a4", "fusion_lon": 0.0, "lon": -76.99756616666667}, {"lat": 38.9179675, "type": "electric_scooter", "rental_uris": {"android": "https://dc.lft.to/lastmile_qr_scan", "ios": "https://dc.lft.to/lastmile_qr_scan"}, "fusion_lat": 0.0, "name": "f0839b693bec328f76422054442209df", "is_reserved": 0, "is_disabled": 0, "bike_id": "f0839b693bec328f76422054442209df", "fusion_lon": 0.0, "lon": -77.02707133333334}, {"lat": 38.91668583333333, "type": "electric_scooter", "rental_uris": {"android": "https://dc.lft.to/lastmile_qr_scan", "ios": "https://dc.lft.to/lastmile_qr_scan"}, "fusion_lat": 0.0, "name": "6676d73f4072f67ea0862ceaf24a0b67", "is_reserved": 0, "is_disabled": 0, "bike_id": "6676d73f4072f67ea0862ceaf24a0b67", "fusion_lon": 0.0, "lon": -77.0240255}, {"lat": 38.923247333333336, "type": "electric_scooter", "rental_uris": {"android": "https://dc.lft.to/lastmile_qr_scan", "ios": "https://dc.lft.to/lastmile_qr_scan"}, "fusion_lat": 0.0, "name": "c6b24f494f9ec672cb42f495d89f23b4", "is_reserved": 0, "is_disabled": 0, "bike_id": "c6b24f494f9ec672cb42f495d89f23b4", "fusion_lon": 0.0, "lon": -77.02968633333333}, {"lat": 38.88729933333333, "type": "electric_scooter", "rental_uris": {"android": "https://dc.lft.to/lastmile_qr_scan", "ios": "https://dc.lft.to/lastmile_qr_scan"}, "fusion_lat": 0.0, "name": "360ee2710134352c357eed36293617f4", "is_reserved": 0, "is_disabled": 0, "bike_id": "360ee2710134352c357eed36293617f4", "fusion_lon": 0.0, "lon": -77.02380616666666},