{"data": {"bikes": [{"lon": -76.90478533333334, "bike_id": "15e315e5e901f32b311ddd199b71d4e5", "lat": 39.002956, "fusion_lon": 0.0, "fusion_lat": 0.0, "type": "electric_bike", "name": "15e315e5e901f32b311ddd199b71d4e5", "is_disabled": 0, "rental_uris": {"ios": "https://dc.lft.to/lastmile_qr_scan", "android": "https://dc.lft.to/lastmile_qr_scan"}, "is_reserved": 0}, {"lon": -76.94727366666666, "bike_id": "10e521ec300eb3919d7cf7d24fa6d61c", "lat": 38.897395833333334, "fusion_lon": 0.0, "fusion_lat": 0.0, "type": "electric_scooter", "name": "10e521ec300eb3919d7cf7d24fa6d61c", "is_disabled": 0, "rental_uris": {"ios": "https://dc.lft.to/lastmile_qr_scan", "android": "https://dc.lft.to/lastmile_qr_scan"}, "is_reserved": 0}, {"lon": -76.97707966666667, "bike_id": "1a2d84cb4e28073bb7640b92a1037a7c", "lat": 38.94916283333333, "fusion_lon": 0.0, "fusion_lat": 0.0, "type": "electric_bike", "name": "1a2d84cb4e28073bb7640b92a1037a7c", "is_disabled": 0, "rental_uris": {"ios": "https://dc.lft.to/lastmile_qr_scan", "android": "https://dc.lft.to/lastmile_qr_scan"}, "is_reserved": 0}, {"lon": -77.045191, "bike_id": "ca59e8362d519838f611e60764945c2b", "lat": 38.918201, "fusion_lon": 0.0, "fusion_lat": 0.0, "type": "electric_scooter", "name": "ca59e8362d519838f611e60764945c2b", "is_disabled": 0, "rental_uris": {"ios": "https://dc.lft.to/lastmile_qr_scan", "android": "https://dc.lft.to/lastmile_qr_scan"}, "is_reserved": 0}, {"lon": -77.02712483333333, "bike_id": "a5986869b9b801789bca03422cbf48fd", "lat": 38.908683, "fusion_lon": 0.0, "fusion_lat": 0.0, "type": "electric_scooter", "name": "a5986869b9b801789bca03422cbf48fd", "is_disabled": 0, "rental_uris": {"ios": "https://dc.lft.to/lastmile_qr_scan", "android": "https://dc.lft.to/lastmile_qr_scan"}, "is_reserved": 0}, {"lon": -77.01200933333334, "bike_id": "b3b552cdb985498006af6a132d67b1e7", "lat": 38.885555333333336, "fusion_lon": 0.0, "fusion_lat": 0.0, "type": "electric_scooter", "name": "b3b552cdb985498006af6a132d67b1e7", "is_disabled": 0, "rental_uris": {"ios": "https://dc.lft.to/lastmile_qr_scan", "android": "https://dc.lft.to/lastmile_qr_scan"}, "is_reserved": 0}, {"lon": -77.36095316666666, "bike_id": "f21771ef1cf5cadb51e0b873364acb0b", "lat": 38.939627333333334, "fusion_lon": 0.0, "fusion_lat": 0.0, "type": "electric_bike", "name": "f21771ef1cf5cadb51e0b873364acb0b", "is_disabled": 0, "rental_uris": {"ios": "https://dc.lft.to/lastmile_qr_scan", "android": "https://dc.lft.to/lastmile_qr_scan"}, "is_reserved": 0}, {"lon": -77.05298183333333, "bike_id": "b278a43b20f488fa255a0616101304d2", "lat": 38.898853333333335, "fusion_lon": 0.0, "fusion_lat": 0.0, "type": "electric_scooter", "name": "b278a43b20f488fa255a0616101304d2", "is_disabled": 0, "rental_uris": {"ios": "https://dc.lft.to/lastmile_qr_scan", "android": "https://dc.lft.to/lastmile_qr_scan"}, "is_reserved": 0}, {"lon": -77.03220416666667, "bike_id": "ffee478c2c5ced793165d9574ed84249", "lat": 38.920713666666664, "fusion_lon": 0.0, "fusion_lat": 0.0, "type": "electric_scooter", "name": "ffee478c2c5ced793165d9574ed84249", "is_disabled": 0, "rental_uris": {"ios": "https://dc.lft.to/lastmile_qr_scan", "android": "https://dc.lft.to/lastmile_qr_scan"}, "is_reserved": 0}, {"lon": -77.0201355, "bike_id": "6e1cea7b79d4928b66c958fc4cfb7da2", "lat": 38.90171616666667, "fusion_lon": 0.0, "fusion_lat": 0.0, "type": "electric_scooter", "name": "6e1cea7b79d4928b66c958fc4cfb7da2", "is_disabled": 0, "rental_uris": {"ios": "https://dc.lft.to/lastmile_qr_scan", "android": "https://dc.lft.to/lastmile_qr_scan"}, "is_reserved": 0}, {"lon": -77.02505033333334, "bike_id": "6d65f71456bb964e8eb11ac0312714f7", "lat": 38.93101933333333, "fusion_lon": 0.0, "fusion_lat": 0.0, "type": "electric_scooter", "name": "6d65f71456bb964e8eb11ac0312714f7", "is_disabled": 0, "rental_uris": {"ios": "https://dc.lft.to/lastmile_qr_scan", "android": "https://dc.lft.to/lastmile_qr_scan"}, "is_reserved": 0}, {"lon": -77.0329115, "bike_id": "6fadc97f711019db5dbc5acbe849aa80", "lat": 38.939815, "fusion_lon": 0.0, "fusion_lat": 0.0, "type": "electric_scooter", "name": "6fadc97f711019db5dbc5acbe849aa80", "is_disabled": 0, "rental_uris": {"ios": "https://dc.lft.to/lastmile_qr_scan", "android": "https://dc.lft.to/lastmile_qr_scan"}, "is_reserved": 0}, {"lon": -77.02702783333334, "bike_id": "bf60ed2b800eadc71003082e064e7df8", "lat": 38.906678166666666, "fusion_lon": 0.0, "fusion_lat": 0.0, "type": "electric_scooter", "name": "bf60ed2b800eadc71003082e064e7df8", "is_disabled": 0, "rental_uris": {"ios": "https://dc.lft.to/lastmile_qr_scan", "android": "https://dc.lft.to/lastmile_qr_scan"}, "is_reserved": 0}, {"lon": -76.9946925, "bike_id": "daf5faa2c53d6a5bd4ce8c42f0b65544", "lat": 38.88269783333333, "fusion_lon": 0.0, "fusion_lat": 0.0, "type": "electric_scooter", "name": "daf5faa2c53d6a5bd4ce8c42f0b65544", "is_disabled": 0, "rental_uris": {"ios": "https://dc.lft.to/lastmile_qr_scan", "android": "https://dc.lft.to/lastmile_qr_scan"}, "is_reserved": 0}, {"lon": -76.9978165, "bike_id": "da178bcaf600ae8156b6b89615324281", "lat": 38.84428916666667, "fusion_lon": 0.0, "fusion_lat": 0.0, "type": "electric_scooter", "name": "da178bcaf600ae8156b6b89615324281", "is_disabled": 0, "rental_uris": {"ios": "https://dc.lft.to/lastmile_qr_scan", "android": "https://dc.lft.to/lastmile_qr_scan"}, "is_reserved": 0}, {"lon": -77.02005, "bike_id": "854afd8824bcbb68e9d336be2e348ab0", "lat": 38.924162, "fusion_lon": 0.0, "fusion_lat": 0.0, "type": "electric_scooter", "name": "854afd8824bcbb68e9d336be2e348ab0", "is_disabled": 0, "rental_uris": {"ios": "https://dc.lft.to/lastmile_qr_scan", "android": "https://dc.lft.to/lastmile_qr_scan"}, "is_reserved": 0}, {"lon": -77.03237666666666, "bike_id": "deab3d66dd4cbac876071a3314dfd279", "lat": 38.924674, "fusion_lon": 0.0, "fusion_lat": 0.0, "type": "electric_scooter", "name": "deab3d66dd4cbac876071a3314dfd279", "is_disabled": 0, "rental_uris": {"ios": "https://dc.lft.to/lastmile_qr_scan", "android": "https://dc.lft.to/lastmile_qr_scan"}, "is_reserved": 0}, {"lon": -77.022378, "bike_id": "9ae37da1666ff5fde1b8e96beb6a9187", "lat": 38.90865383333333, "fusion_lon": 0.0, "fusion_lat": 0.0, "type": "electric_scooter", "name": "9ae37da1666ff5fde1b8e96beb6a9187", "is_disabled": 0, "rental_uris": {"ios": "https://dc.lft.to/lastmile_qr_scan", "android": "https://dc.lft.to/lastmile_qr_scan"}, "is_reserved": 0}, {"lon": -77.0433835, "bike_id": "66f795d2c224f4ae0d55b07efbac2ca5", "lat": 38.921484, "fusion_lon": 0.0, "fusion_lat": 0.0, "type": "electric_scooter", "name": "66f795d2c224f4ae0d55b07efbac2ca5", "is_disabled": 0, "rental_uris": {"ios": "https://dc.lft.to/lastmile_qr_scan", "android": "https://dc.lft.to/lastmile_qr_scan"}, "is_reserved": 0}, {"lon": -77.0406335, "bike_id": "b89c256c12042ac745f3a69611e6dbb5", "lat": 38.91489966666666, "fusion_lon": 0.0, "fusion_lat": 0.0, "type": "electric_scooter", "name": "b89c256c12042ac745f3a69611e6dbb5", "is_disabled": 0, "rental_uris": {"ios": "https://dc.lft.to/lastmile_qr_scan", "android": "https://dc.lft.to/lastmile_qr_scan"}, "is_reserved": 0}, {"lon": -76.97747033333333, "bike_id": "144adf442b4603a7fbc505822190ea56", "lat": 38.86479716666667, "fusion_lon": 0.0, "fusion_lat": 0.0, "type": "electric_scooter", "name": "144adf442b4603a7fbc505822190ea56", "is_disabled": 0, "rental_uris": {"ios": "https://dc.lft.to/lastmile_qr_scan", "android": "https://dc.lft.to/lastmile_qr_scan"}, "is_reserved": 0}, {"lon": -76.988478, "bike_id": "2b9633bd536a26bd7e51d1f6f27e0481", "lat": 38.90129533333333, "fusion_lon": 0.0, "fusion_lat": 0.0, "type": "electric_scooter", "name": "2b9633bd536a26bd7e51d1f6f27e0481", "is_disabled": 0, "rental_uris": {"ios": "https://dc.lft.to/lastmile_qr_scan", "android": "https://dc.lft.to/lastmile_qr_scan"}, "is_reserved": 0}, {"lon": -77.03325783333334, "bike_id": "c56ea838e20ef76525b77285174bafa2", "lat": 38.896463833333335, "fusion_lon": 0.0, "fusion_lat": 0.0, "type": "electric_scooter", "name": "c56ea838e20ef76525b77285174bafa2", "is_disabled": 0, "rental_uris": {"ios": "https://dc.lft.to/lastmile_qr_scan", "android": "https://dc.lft.to/lastmile_qr_scan"}, "is_reserved": 0}, {"lon": -77.01981883333333, "bike_id": "a7ed90ab37e820014552052ef1d48a65", "lat": 38.915309666666666, "fusion_lon": 0.0, "fusion_lat": 0.0, "type": "electric_scooter", "name": "a7ed90ab37e820014552052ef1d48a65", "is_disabled": 0, "rental_uris": {"ios": "https://dc.lft.to/lastmile_qr_scan", "android": "https://dc.lft.to/lastmile_qr_scan"}, "is_reserved": 0}, {"lon": -77.00073233333333, "bike_id": "c99ec6cd43aac1000f6fd7dead2bd06e", "lat": 38.87373016666667, "fusion_lon": 0.0, "fusion_lat": 0.0, "type": "electric_scooter", "name": "c99ec6cd43aac1000f6fd7dead2bd06e", "is_disabled": 0, "rental_uris": {"ios": "https://dc.lft.to/lastmile_qr_scan", "android": "https://dc.lft.to/lastmile_qr_scan"}, "is_reserved": 0}, {"lon": -77.04257583333333, "bike_id": "0295dbe8e8d4974edddf6b3a3a8630fa", "lat": 38.910404, "fusion_lon": 0.0, "fusion_lat": 0.0, "type": "electric_scooter", "name": "0295dbe8e8d4974edddf6b3a3a8630fa", "is_disabled": 0, "rental_uris": {"ios": "https://dc.lft.to/lastmile_qr_scan", "android": "https://dc.lft.to/lastmile_qr_scan"}, "is_reserved": 0}, {"lon": -77.0364555, "bike_id": "7bbfa2b9d06d02c792bc7ac7a04acade", "lat": 38.912984, "fusion_lon": 0.0, "fusion_lat": 0.0, "type": "electric_scooter", "name": "7bbfa2b9d06d02c792bc7ac7a04acade", "is_disabled": 0, "rental_uris": {"ios": "https://dc.lft.to/lastmile_qr_scan", "android": "https://dc.lft.to/lastmile_qr_scan"}, "is_reserved": 0}, {"lon": -77.1222535, "bike_id": "ee819204f552da423d3cc185221b7de4", "lat": 38.853010833333336, "fusion_lon": 0.0, "fusion_lat": 0.0, "type": "electric_bike", "name": "ee819204f552da423d3cc185221b7de4", "is_disabled": 0, "rental_uris": {"ios": "https://dc.lft.to/lastmile_qr_scan", "android": "https://dc.lft.to/lastmile_qr_scan"}, "is_reserved": 0}, {"lon": -77.0388095, "bike_id": "3b58012a37a11a61e0c67009adade2c1", "lat": 38.94867683333333, "fusion_lon": 0.0, "fusion_lat": 0.0, "type": "electric_scooter", "name": "3b58012a37a11a61e0c67009adade2c1", "is_disabled": 0, "rental_uris": {"ios": "https://dc.lft.to/lastmile_qr_scan", "android": "https://dc.lft.to/lastmile_qr_scan"}, "is_reserved": 0}, {"lon": -77.02755283333333, "bike_id": "a46e729da1213381f14caac01c97ba58", "lat": 38.96571333333333, "fusion_lon": 0.0, "fusion_lat": 0.0, "type": "electric_bike", "name": "a46e729da1213381f14caac01c97ba58", "is_disabled": 0, "rental_uris": {"ios": "https://dc.lft.to/lastmile_qr_scan", "android": "https://dc.lft.to/lastmile_qr_scan"}, "is_reserved": 0}, {"lon": -77.0603525, "bike_id": "0a57e4cbb571cf3959f76ad05e2cd06a", "lat": 38.933573833333334, "fusion_lon": 0.0, "fusion_lat": 0.0, "type": "electric_scooter", "name": "0a57e4cbb571cf3959f76ad05e2cd06a", "is_disabled": 0, "rental_uris": {"ios": "https://dc.lft.to/lastmile_qr_scan", "android": "https://dc.lft.to/lastmile_qr_scan"}, "is_reserved": 0}, {"lon": -77.0433555, "bike_id": "2515617aa70492b01a48a67133559876", "lat": 38.92219816666667, "fusion_lon": 0.0, "fusion_lat": 0.0, "type": "electric_scooter", "name": "2515617aa70492b01a48a67133559876", "is_disabled": 0, "rental_uris": {"ios": "https://dc.lft.to/lastmile_qr_scan", "android": "https://dc.lft.to/lastmile_qr_scan"}, "is_reserved": 0}, {"lon": -77.01767033333333, "bike_id": "1da1f17f2d17171cd49c951c26a42745", "lat": 38.887418833333335, "fusion_lon": 0.0, "fusion_lat": 0.0, "type": "electric_scooter", "name": "1da1f17f2d17171cd49c951c26a42745", "is_disabled": 0, "rental_uris": {"ios": "https://dc.lft.to/lastmile_qr_scan", "android": "https://dc.lft.to/lastmile_qr_scan"}, "is_reserved": 0}, {"lon": -77.04174466666667, "bike_id": "353718cf598367412698d45a8890e6a7", "lat": 38.9173695, "fusion_lon": 0.0, "fusion_lat": 0.0, "type": "electric_scooter", "name": "353718cf598367412698d45a8890e6a7", "is_disabled": 0, "rental_uris": {"ios": "https://dc.lft.to/lastmile_qr_scan", "android": "https://dc.lft.to/lastmile_qr_scan"}, "is_reserved": 0}, {"lon": -77.049089, "bike_id": "9fb842565d9b16ecc9fd4c47df8b6664", "lat": 38.88835533333334, "fusion_lon": 0.0, "fusion_lat": 0.0, "type": "electric_scooter", "name": "9fb842565d9b16ecc9fd4c47df8b6664", "is_disabled": 0, "rental_uris": {"ios": "https://dc.lft.to/lastmile_qr_scan", "android": "https://dc.lft.to/lastmile_qr_scan"}, "is_reserved": 0}, {"lon": -77.05586933333333, "bike_id": "00516c7bbaf286656e35f4ade3ec6da4", "lat": 38.93357866666667, "fusion_lon": 0.0, "fusion_lat": 0.0, "type": "electric_scooter", "name": "00516c7bbaf286656e35f4ade3ec6da4", "is_disabled": 0, "rental_uris": {"ios": "https://dc.lft.to/lastmile_qr_scan", "android": "https://dc.lft.to/lastmile_qr_scan"}, "is_reserved": 0}, {"lon": -76.88401683333333, "bike_id": "de6c266638b408f887e946419f22956b", "lat": 38.9316945, "fusion_lon": 0.0, "fusion_lat": 0.0, "type": "electric_bike", "name": "de6c266638b408f887e946419f22956b", "is_disabled": 0, "rental_uris": {"ios": "https://dc.lft.to/lastmile_qr_scan", "android": "https://dc.lft.to/lastmile_qr_scan"}, "is_reserved": 0}, {"lon": -77.04649966666666, "bike_id": "ca99a394803a7675ed414f971a027acb", "lat": 39.05506283333333, "fusion_lon": 0.0, "fusion_lat": 0.0, "type": "electric_bike", "name": "ca99a394803a7675ed414f971a027acb", "is_disabled": 0, "rental_uris": {"ios": "https://dc.lft.to/lastmile_qr_scan", "android": "https://dc.lft.to/lastmile_qr_scan"}, "is_reserved": 0}, {"lon": -76.95655, "bike_id": "732ec6028405779200d04fb597d9f46f", "lat": 38.896204, "fusion_lon": 0.0, "fusion_lat": 0.0, "type": "electric_scooter", "name": "732ec6028405779200d04fb597d9f46f", "is_disabled": 0, "rental_uris": {"ios": "https://dc.lft.to/lastmile_qr_scan", "android": "https://dc.lft.to/lastmile_qr_scan"}, "is_reserved": 0}, {"lon": -77.01812083333333, "bike_id": "edcd36be7dcc64aa8728612dae4c0b0e", "lat": 38.9648785, "fusion_lon": 0.0, "fusion_lat": 0.0, "type": "electric_scooter", "name": "edcd36be7dcc64aa8728612dae4c0b0e", "is_disabled": 0, "rental_uris": {"ios": "https://dc.lft.to/lastmile_qr_scan", "android": "https://dc.lft.to/lastmile_qr_scan"}, "is_reserved": 0}, {"lon": -77.03867266666667, "bike_id": "24ee7f6b9f22d2bce5a95f38efbbdf6d", "lat": 38.915655666666666, "fusion_lon": 0.0, "fusion_lat": 0.0, "type": "electric_scooter", "name": "24ee7f6b9f22d2bce5a95f38efbbdf6d", "is_disabled": 0, "rental_uris": {"ios": "https://dc.lft.to/lastmile_qr_scan", "android": "https://dc.lft.to/lastmile_qr_scan"}, "is_reserved": 0}, {"lon": -76.974802, "bike_id": "e1f509c1826dac83b85b845b047b6438", "lat": 38.903512666666664, "fusion_lon": 0.0, "fusion_lat": 0.0, "type": "electric_scooter", "name": "e1f509c1826dac83b85b845b047b6438", "is_disabled": 0, "rental_uris": {"ios": "https://dc.lft.to/lastmile_qr_scan", "android": "https://dc.lft.to/lastmile_qr_scan"}, "is_reserved": 0}, {"lon": -77.034067, "bike_id": "d42bb90076aefe6babffe086925676fe", "lat": 38.9055295, "fusion_lon": 0.0, "fusion_lat": 0.0, "type": "electric_scooter", "name": "d42bb90076aefe6babffe086925676fe", "is_disabled": 0, "rental_uris": {"ios": "https://dc.lft.to/lastmile_qr_scan", "android": "https://dc.lft.to/lastmile_qr_scan"}, "is_reserved": 0}, {"lon": -77.0652345, "bike_id": "692a411fe310939d992334d93f6882a5", "lat": 38.90402566666667, "fusion_lon": 0.0, "fusion_lat": 0.0, "type": "electric_scooter", "name": "692a411fe310939d992334d93f6882a5", "is_disabled": 0, "rental_uris": {"ios": "https://dc.lft.to/lastmile_qr_scan", "android": "https://dc.lft.to/lastmile_qr_scan"}, "is_reserved": 0}, {"lon": -76.99017983333333, "bike_id": "4f164b7a8cb5866c513e0342b54990f1", "lat": 38.86643216666667, "fusion_lon": 0.0, "fusion_lat": 0.0, "type": "electric_scooter", "name": "4f164b7a8cb5866c513e0342b54990f1", "is_disabled": 0, "rental_uris": {"ios": "https://dc.lft.to/lastmile_qr_scan", "android": "https://dc.lft.to/lastmile_qr_scan"}, "is_reserved": 0}, {"lon": -77.04867966666667, "bike_id": "a49da770e97a2a1e8ede0d64c5810d9e", "lat": 38.892227166666665, "fusion_lon": 0.0, "fusion_lat": 0.0, "type": "electric_scooter", "name": "a49da770e97a2a1e8ede0d64c5810d9e", "is_disabled": 0, "rental_uris": {"ios": "https://dc.lft.to/lastmile_qr_scan", "android": "https://dc.lft.to/lastmile_qr_scan"}, "is_reserved": 0}, {"lon": -76.9909895, "bike_id": "0465650df3f02cefbda2738b12aaae9b", "lat": 38.862485666666664, "fusion_lon": 0.0, "fusion_lat": 0.0, "type": "electric_bike", "name": "0465650df3f02cefbda2738b12aaae9b", "is_disabled": 0, "rental_uris": {"ios": "https://dc.lft.to/lastmile_qr_scan", "android": "https://dc.lft.to/lastmile_qr_scan"}, "is_reserved": 0}, {"lon": -77.08070466666666, "bike_id": "08a6cf901859b879ac64639817e7d910", "lat": 39.05286733333333, "fusion_lon": 0.0, "fusion_lat": 0.0, "type": "electric_bike", "name": "08a6cf901859b879ac64639817e7d910", "is_disabled": 0, "rental_uris": {"ios": "https://dc.lft.to/lastmile_qr_scan", "android": "https://dc.lft.to/lastmile_qr_scan"}, "is_reserved": 0}, {"lon": -77.01938483333333, "bike_id": "c6f99222b362b77fc3d5ae7e69c7385f", "lat": 38.935267833333334, "fusion_lon": 0.0, "fusion_lat": 0.0, "type": "electric_scooter", "name": "c6f99222b362b77fc3d5ae7e69c7385f", "is_disabled": 0, "rental_uris": {"ios": "https://dc.lft.to/lastmile_qr_scan", "android": "https://dc.lft.to/lastmile_qr_scan"}, "is_reserved": 0}, {"lon": -77.03436366666666, "bike_id": "f8cd3bd1a700e60a9bb2dd5b92533729", "lat": 38.90974166666667, "fusion_lon": 0.0, "fusion_lat": 0.0, "type": "electric_scooter", "name": "f8cd3bd1a700e60a9bb2dd5b92533729", "is_disabled": 0, "rental_uris": {"ios": "https://dc.lft.to/lastmile_qr_scan", "android": "https://dc.lft.to/lastmile_qr_scan"}, "is_reserved": 0}, {"lon": -76.99533783333334, "bike_id": "769843ab45030e897cb555c3437499d5", "lat": 38.883774333333335, "fusion_lon": 0.0, "fusion_lat": 0.0, "type": "electric_scooter", "name": "769843ab45030e897cb555c3437499d5", "is_disabled": 0, "rental_uris": {"ios": "https://dc.lft.to/lastmile_qr_scan", "android": "https://dc.lft.to/lastmile_qr_scan"}, "is_reserved": 0}, {"lon": -77.0418225, "bike_id": "2903124415c226a922a27117055d8dee", "lat": 38.923017, "fusion_lon": 0.0, "fusion_lat": 0.0, "type": "electric_scooter", "name": "2903124415c226a922a27117055d8dee", "is_disabled": 0, "rental_uris": {"ios": "https://dc.lft.to/lastmile_qr_scan", "android": "https://dc.lft.to/lastmile_qr_scan"}, "is_reserved": 0}, {"lon": -77.006493, "bike_id": "5da938641448d60de777bd169be684e2", "lat": 38.92620383333333, "fusion_lon": 0.0, "fusion_lat": 0.0, "type": "electric_scooter", "name": "5da938641448d60de777bd169be684e2", "is_disabled": 0, "rental_uris": {"ios": "https://dc.lft.to/lastmile_qr_scan", "android": "https://dc.lft.to/lastmile_qr_scan"}, "is_reserved": 0}, {"lon": -77.00229083333333, "bike_id": "b3f7f33c2c4de0a0e56f51c51e8045be", "lat": 38.90027533333333, "fusion_lon": 0.0, "fusion_lat": 0.0, "type": "electric_scooter", "name": "b3f7f33c2c4de0a0e56f51c51e8045be", "is_disabled": 0, "rental_uris": {"ios": "https://dc.lft.to/lastmile_qr_scan", "android": "https://dc.lft.to/lastmile_qr_scan"}, "is_reserved": 0}, {"lon": -76.9880315, "bike_id": "71e7ce8255b4401fe55124380da0a31c", "lat": 38.867255666666665, "fusion_lon": 0.0, "fusion_lat": 0.0, "type": "electric_scooter", "name": "71e7ce8255b4401fe55124380da0a31c", "is_disabled": 0, "rental_uris": {"ios": "https://dc.lft.to/lastmile_qr_scan", "android": "https://dc.lft.to/lastmile_qr_scan"}, "is_reserved": 0}, {"lon": -77.04102033333334, "bike_id": "dcae63da1002bfba6c83056a53e10db2", "lat": 38.90877866666666, "fusion_lon": 0.0, "fusion_lat": 0.0, "type": "electric_scooter", "name": "dcae63da1002bfba6c83056a53e10db2", "is_disabled": 0, "rental_uris": {"ios": "https://dc.lft.to/lastmile_qr_scan", "android": "https://dc.lft.to/lastmile_qr_scan"}, "is_reserved": 0}, {"lon": -77.02759283333333, "bike_id": "6c4dc51fdbfe248d49681bde75ca91c2", "lat": 38.91902833333333, "fusion_lon": 0.0, "fusion_lat": 0.0, "type": "electric_scooter", "name": "6c4dc51fdbfe248d49681bde75ca91c2", "is_disabled": 0, "rental_uris": {"ios": "https://dc.lft.to/lastmile_qr_scan", "android": "https://dc.lft.to/lastmile_qr_scan"}, "is_reserved": 0}, {"lon": -77.07111416666666, "bike_id": "668c3fdfafbd256c5dbe3d574ed9719c", "lat": 38.91976783333333, "fusion_lon": 0.0, "fusion_lat": 0.0, "type": "electric_scooter", "name": "668c3fdfafbd256c5dbe3d574ed9719c", "is_disabled": 0, "rental_uris": {"ios": "https://dc.lft.to/lastmile_qr_scan", "android": "https://dc.lft.to/lastmile_qr_scan"}, "is_reserved": 0}, {"lon": -76.9974335, "bike_id": "2c76658643acb6451779e8aea462e823", "lat": 38.9012895, "fusion_lon": 0.0, "fusion_lat": 0.0, "type": "electric_scooter", "name": "2c76658643acb6451779e8aea462e823", "is_disabled": 0, "rental_uris": {"ios": "https://dc.lft.to/lastmile_qr_scan", "android": "https://dc.lft.to/lastmile_qr_scan"}, "is_reserved": 0}, {"lon": -77.02419933333333, "bike_id": "d05dcb8b054d40aacbf00284a8d1f1a1", "lat": 38.892320166666664, "fusion_lon": 0.0, "fusion_lat": 0.0, "type": "electric_scooter", "name": "d05dcb8b054d40aacbf00284a8d1f1a1", "is_disabled": 0, "rental_uris": {"ios": "https://dc.lft.to/lastmile_qr_scan", "android": "https://dc.lft.to/lastmile_qr_scan"}, "is_reserved": 0}, {"lon": -77.0375355, "bike_id": "c226dacf04646be92a6dfcde8c85688a", "lat": 38.9221435, "fusion_lon": 0.0, "fusion_lat": 0.0, "type": "electric_scooter", "name": "c226dacf04646be92a6dfcde8c85688a", "is_disabled": 0, "rental_uris": {"ios": "https://dc.lft.to/lastmile_qr_scan", "android": "https://dc.lft.to/lastmile_qr_scan"}, "is_reserved": 0}, {"lon": -77.03110483333333, "bike_id": "95ed41b395ca6af437234dc13c19e616", "lat": 38.91571883333334, "fusion_lon": 0.0, "fusion_lat": 0.0, "type": "electric_scooter", "name": "95ed41b395ca6af437234dc13c19e616", "is_disabled": 0, "rental_uris": {"ios": "https://dc.lft.to/lastmile_qr_scan", "android": "https://dc.lft.to/lastmile_qr_scan"}, "is_reserved": 0}, {"lon": -77.05525616666667, "bike_id": "c37133902514d0f787ab16d809586a85", "lat": 38.8973195, "fusion_lon": 0.0, "fusion_lat": 0.0, "type": "electric_scooter", "name": "c37133902514d0f787ab16d809586a85", "is_disabled": 0, "rental_uris": {"ios": "https://dc.lft.to/lastmile_qr_scan", "android": "https://dc.lft.to/lastmile_qr_scan"}, "is_reserved": 0}, {"lon": -77.02452916666667, "bike_id": "4db7db74a428f8fd224d8e11aa667519", "lat": 38.924945666666666, "fusion_lon": 0.0, "fusion_lat": 0.0, "type": "electric_scooter", "name": "4db7db74a428f8fd224d8e11aa667519", "is_disabled": 0, "rental_uris": {"ios": "https://dc.lft.to/lastmile_qr_scan", "android": "https://dc.lft.to/lastmile_qr_scan"}, "is_reserved": 0}, {"lon": -77.03355333333333, "bike_id": "1600e9c2aa61281d43294507a99700b5", "lat": 38.923452166666664, "fusion_lon": 0.0, "fusion_lat": 0.0, "type": "electric_scooter", "name": "1600e9c2aa61281d43294507a99700b5", "is_disabled": 0, "rental_uris": {"ios": "https://dc.lft.to/lastmile_qr_scan", "android": "https://dc.lft.to/lastmile_qr_scan"}, "is_reserved": 0}, {"lon": -76.97673666666667, "bike_id": "905c8d4b1501ac99c0ea4b3e5def6c09", "lat": 38.952479, "fusion_lon": 0.0, "fusion_lat": 0.0, "type": "electric_bike", "name": "905c8d4b1501ac99c0ea4b3e5def6c09", "is_disabled": 0, "rental_uris": {"ios": "https://dc.lft.to/lastmile_qr_scan", "android": "https://dc.lft.to/lastmile_qr_scan"}, "is_reserved": 0}, {"lon": -77.04690316666667, "bike_id": "f525a271696dacae741f07cab4e081af", "lat": 38.89227433333333, "fusion_lon": 0.0, "fusion_lat": 0.0, "type": "electric_scooter", "name": "f525a271696dacae741f07cab4e081af", "is_disabled": 0, "rental_uris": {"ios": "https://dc.lft.to/lastmile_qr_scan", "android": "https://dc.lft.to/lastmile_qr_scan"}, "is_reserved": 0}, {"lon": -76.99459533333334, "bike_id": "79318a1bbdc3f6f7def6c3e4f29be43f", "lat": 38.9406795, "fusion_lon": 0.0, "fusion_lat": 0.0, "type": "electric_scooter", "name": "79318a1bbdc3f6f7def6c3e4f29be43f", "is_disabled": 0, "rental_uris": {"ios": "https://dc.lft.to/lastmile_qr_scan", "android": "https://dc.lft.to/lastmile_qr_scan"}, "is_reserved": 0}, {"lon": -76.98143366666666, "bike_id": "020e96c76c3c57c0579d49aeb1c174f4", "lat": 38.903239166666665, "fusion_lon": 0.0, "fusion_lat": 0.0, "type": "electric_scooter", "name": "020e96c76c3c57c0579d49aeb1c174f4", "is_disabled": 0, "rental_uris": {"ios": "https://dc.lft.to/lastmile_qr_scan", "android": "https://dc.lft.to/lastmile_qr_scan"}, "is_reserved": 0}, {"lon": -77.07925433333334, "bike_id": "e5772672427cbd0156b6bca9947b95ba", "lat": 38.93112466666667, "fusion_lon": 0.0, "fusion_lat": 0.0, "type": "electric_scooter", "name": "e5772672427cbd0156b6bca9947b95ba", "is_disabled": 0, "rental_uris": {"ios": "https://dc.lft.to/lastmile_qr_scan", "android": "https://dc.lft.to/lastmile_qr_scan"}, "is_reserved": 0}, {"lon": -77.03830233333333, "bike_id": "96241b5e53c1cf3024aa334162ed416c", "lat": 38.90675983333333, "fusion_lon": 0.0, "fusion_lat": 0.0, "type": "electric_scooter", "name": "96241b5e53c1cf3024aa334162ed416c", "is_disabled": 0, "rental_uris": {"ios": "https://dc.lft.to/lastmile_qr_scan", "android": "https://dc.lft.to/lastmile_qr_scan"}, "is_reserved": 0}, {"lon": -77.052393, "bike_id": "f8b924c5b5bf9537af1b5b02aa6aa6c4", "lat": 38.924653, "fusion_lon": 0.0, "fusion_lat": 0.0, "type": "electric_scooter", "name": "f8b924c5b5bf9537af1b5b02aa6aa6c4", "is_disabled": 0, "rental_uris": {"ios": "https://dc.lft.to/lastmile_qr_scan", "android": "https://dc.lft.to/lastmile_qr_scan"}, "is_reserved": 0}, {"lon": -76.98861233333334, "bike_id": "5f540ad93a873f3e3a3863b873c83978", "lat": 38.89174216666667, "fusion_lon": 0.0, "fusion_lat": 0.0, "type": "electric_scooter", "name": "5f540ad93a873f3e3a3863b873c83978", "is_disabled": 0, "rental_uris": {"ios": "https://dc.lft.to/lastmile_qr_scan", "android": "https://dc.lft.to/lastmile_qr_scan"}, "is_reserved": 0}, {"lon": -77.0230665, "bike_id": "c4b9526d474333d4c6fdef409e2f9eed", "lat": 38.91850516666667, "fusion_lon": 0.0, "fusion_lat": 0.0, "type": "electric_scooter", "name": "c4b9526d474333d4c6fdef409e2f9eed", "is_disabled": 0, "rental_uris": {"ios": "https://dc.lft.to/lastmile_qr_scan", "android": "https://dc.lft.to/lastmile_qr_scan"}, "is_reserved": 0}, {"lon": -76.98715566666667, "bike_id": "9be8e9d7a0adc780ec61299b58891732", "lat": 38.867055, "fusion_lon": 0.0, "fusion_lat": 0.0, "type": "electric_scooter", "name": "9be8e9d7a0adc780ec61299b58891732", "is_disabled": 0, "rental_uris": {"ios": "https://dc.lft.to/lastmile_qr_scan", "android": "https://dc.lft.to/lastmile_qr_scan"}, "is_reserved": 0}, {"lon": -77.036705, "bike_id": "97f6c94f59d18037c1c453dd83e7c6ae", "lat": 38.916763333333336, "fusion_lon": 0.0, "fusion_lat": 0.0, "type": "electric_scooter", "name": "97f6c94f59d18037c1c453dd83e7c6ae", "is_disabled": 0, "rental_uris": {"ios": "https://dc.lft.to/lastmile_qr_scan", "android": "https://dc.lft.to/lastmile_qr_scan"}, "is_reserved": 0}, {"lon": -77.03192283333334, "bike_id": "96c47ea167bde1b5b5092c0f8383f6df", "lat": 38.89773483333333, "fusion_lon": 0.0, "fusion_lat": 0.0, "type": "electric_scooter", "name": "96c47ea167bde1b5b5092c0f8383f6df", "is_disabled": 0, "rental_uris": {"ios": "https://dc.lft.to/lastmile_qr_scan", "android": "https://dc.lft.to/lastmile_qr_scan"}, "is_reserved": 0}, {"lon": -77.04164366666667, "bike_id": "42a7951c3684d020ad0a4c8009de2d10", "lat": 38.91359216666667, "fusion_lon": 0.0, "fusion_lat": 0.0, "type": "electric_scooter", "name": "42a7951c3684d020ad0a4c8009de2d10", "is_disabled": 0, "rental_uris": {"ios": "https://dc.lft.to/lastmile_qr_scan", "android": "https://dc.lft.to/lastmile_qr_scan"}, "is_reserved": 0}, {"lon": -77.04176033333333, "bike_id": "9ac5f50d105d438f85b0fc52a9ef6bd4", "lat": 38.9177045, "fusion_lon": 0.0, "fusion_lat": 0.0, "type": "electric_scooter", "name": "9ac5f50d105d438f85b0fc52a9ef6bd4", "is_disabled": 0, "rental_uris": {"ios": "https://dc.lft.to/lastmile_qr_scan", "android": "https://dc.lft.to/lastmile_qr_scan"}, "is_reserved": 0}, {"lon": -76.98887383333333, "bike_id": "ddbd99b372230bb6fc043367ca983c96", "lat": 38.866584333333336, "fusion_lon": 0.0, "fusion_lat": 0.0, "type": "electric_scooter", "name": "ddbd99b372230bb6fc043367ca983c96", "is_disabled": 0, "rental_uris": {"ios": "https://dc.lft.to/lastmile_qr_scan", "android": "https://dc.lft.to/lastmile_qr_scan"}, "is_reserved": 0}, {"lon": -77.04152466666666, "bike_id": "a2c4c430963e97c02993d14f787da4d1", "lat": 38.91554816666667, "fusion_lon": 0.0, "fusion_lat": 0.0, "type": "electric_scooter", "name": "a2c4c430963e97c02993d14f787da4d1", "is_disabled": 0, "rental_uris": {"ios": "https://dc.lft.to/lastmile_qr_scan", "android": "https://dc.lft.to/lastmile_qr_scan"}, "is_reserved": 0}, {"lon": -76.93734616666667, "bike_id": "41e6ae4f87fae7b74b86dcd7d1ac5edd", "lat": 38.89015416666667, "fusion_lon": 0.0, "fusion_lat": 0.0, "type": "electric_scooter", "name": "41e6ae4f87fae7b74b86dcd7d1ac5edd", "is_disabled": 0, "rental_uris": {"ios": "https://dc.lft.to/lastmile_qr_scan", "android": "https://dc.lft.to/lastmile_qr_scan"}, "is_reserved": 0}, {"lon": -77.0420895, "bike_id": "56776b11d5a55fc81749abfe557f92c3", "lat": 38.92060433333333, "fusion_lon": 0.0, "fusion_lat": 0.0, "type": "electric_scooter", "name": "56776b11d5a55fc81749abfe557f92c3", "is_disabled": 0, "rental_uris": {"ios": "https://dc.lft.to/lastmile_qr_scan", "android": "https://dc.lft.to/lastmile_qr_scan"}, "is_reserved": 0}, {"lon": -76.99490483333334, "bike_id": "8d1d88d3261b6df359f46a5c6cbf18d7", "lat": 38.862439333333334, "fusion_lon": 0.0, "fusion_lat": 0.0, "type": "electric_scooter", "name": "8d1d88d3261b6df359f46a5c6cbf18d7", "is_disabled": 0, "rental_uris": {"ios": "https://dc.lft.to/lastmile_qr_scan", "android": "https://dc.lft.to/lastmile_qr_scan"}, "is_reserved": 0}, {"lon": -77.044852, "bike_id": "691972f8cdb084857b8e889ae688bb31", "lat": 38.91168166666667, "fusion_lon": 0.0, "fusion_lat": 0.0, "type": "electric_scooter", "name": "691972f8cdb084857b8e889ae688bb31", "is_disabled": 0, "rental_uris": {"ios": "https://dc.lft.to/lastmile_qr_scan", "android": "https://dc.lft.to/lastmile_qr_scan"}, "is_reserved": 0}, {"lon": -77.0435605, "bike_id": "0c44ad03fe55fc9a77ad4fec4ab4a761", "lat": 38.90145233333333, "fusion_lon": 0.0, "fusion_lat": 0.0, "type": "electric_scooter", "name": "0c44ad03fe55fc9a77ad4fec4ab4a761", "is_disabled": 0, "rental_uris": {"ios": "https://dc.lft.to/lastmile_qr_scan", "android": "https://dc.lft.to/lastmile_qr_scan"}, "is_reserved": 0}, {"lon": -77.03212566666667, "bike_id": "0fa0bc72df6dba75681ae810698d48a4", "lat": 38.892422833333335, "fusion_lon": 0.0, "fusion_lat": 0.0, "type": "electric_scooter", "name": "0fa0bc72df6dba75681ae810698d48a4", "is_disabled": 0, "rental_uris": {"ios": "https://dc.lft.to/lastmile_qr_scan", "android": "https://dc.lft.to/lastmile_qr_scan"}, "is_reserved": 0}, {"lon": -77.033803, "bike_id": "438a905a62bc7f269b0ade5d9bf1488f", "lat": 38.909766833333336, "fusion_lon": 0.0, "fusion_lat": 0.0, "type": "electric_scooter", "name": "438a905a62bc7f269b0ade5d9bf1488f", "is_disabled": 0, "rental_uris": {"ios": "https://dc.lft.to/lastmile_qr_scan", "android": "https://dc.lft.to/lastmile_qr_scan"}, "is_reserved": 0}, {"lon": -77.04336766666667, "bike_id": "dbf0ee9f17da128ef8bc5894bc12ef7b", "lat": 38.90730883333333, "fusion_lon": 0.0, "fusion_lat": 0.0, "type": "electric_scooter", "name": "dbf0ee9f17da128ef8bc5894bc12ef7b", "is_disabled": 0, "rental_uris": {"ios": "https://dc.lft.to/lastmile_qr_scan", "android": "https://dc.lft.to/lastmile_qr_scan"}, "is_reserved": 0}, {"lon": -77.06355833333333, "bike_id": "4a54fd6316cfd4f52c710e7078afc116", "lat": 38.906035833333334, "fusion_lon": 0.0, "fusion_lat": 0.0, "type": "electric_scooter", "name": "4a54fd6316cfd4f52c710e7078afc116", "is_disabled": 0, "rental_uris": {"ios": "https://dc.lft.to/lastmile_qr_scan", "android": "https://dc.lft.to/lastmile_qr_scan"}, "is_reserved": 0}, {"lon": -77.03257016666667, "bike_id": "b42f4271e352bbbe3890c2bc333a7df2", "lat": 38.930188666666666, "fusion_lon": 0.0, "fusion_lat": 0.0, "type": "electric_scooter", "name": "b42f4271e352bbbe3890c2bc333a7df2", "is_disabled": 0, "rental_uris": {"ios": "https://dc.lft.to/lastmile_qr_scan", "android": "https://dc.lft.to/lastmile_qr_scan"}, "is_reserved": 0}, {"lon": -76.98923333333333, "bike_id": "69f42aec377383f6a00e27e7600857f8", "lat": 38.85811133333333, "fusion_lon": 0.0, "fusion_lat": 0.0, "type": "electric_scooter", "name": "69f42aec377383f6a00e27e7600857f8", "is_disabled": 0, "rental_uris": {"ios": "https://dc.lft.to/lastmile_qr_scan", "android": "https://dc.lft.to/lastmile_qr_scan"}, "is_reserved": 0}, {"lon": -77.022341, "bike_id": "de4891bd5268a8ba2f7f2d3ce75bcb39", "lat": 38.9261655, "fusion_lon": 0.0, "fusion_lat": 0.0, "type": "electric_scooter", "name": "de4891bd5268a8ba2f7f2d3ce75bcb39", "is_disabled": 0, "rental_uris": {"ios": "https://dc.lft.to/lastmile_qr_scan", "android": "https://dc.lft.to/lastmile_qr_scan"}, "is_reserved": 0}, {"lon": -76.95573233333333, "bike_id": "c00d3d24fcd4295515eab3df21a37ec3", "lat": 38.887741166666665, "fusion_lon": 0.0, "fusion_lat": 0.0, "type": "electric_scooter", "name": "c00d3d24fcd4295515eab3df21a37ec3", "is_disabled": 0, "rental_uris": {"ios": "https://dc.lft.to/lastmile_qr_scan", "android": "https://dc.lft.to/lastmile_qr_scan"}, "is_reserved": 0}, {"lon": -77.043908, "bike_id": "ff0fb078cfbe5d21e9a93c228038c741", "lat": 39.047178333333335, "fusion_lon": 0.0, "fusion_lat": 0.0, "type": "electric_bike", "name": "ff0fb078cfbe5d21e9a93c228038c741", "is_disabled": 0, "rental_uris": {"ios": "https://dc.lft.to/lastmile_qr_scan", "android": "https://dc.lft.to/lastmile_qr_scan"}, "is_reserved": 0}, {"lon": -77.02843533333333, "bike_id": "7ec8b3672ea10f8df8b1e62a39e8cf40", "lat": 38.9257165, "fusion_lon": 0.0, "fusion_lat": 0.0, "type": "electric_scooter", "name": "7ec8b3672ea10f8df8b1e62a39e8cf40", "is_disabled": 0, "rental_uris": {"ios": "https://dc.lft.to/lastmile_qr_scan", "android": "https://dc.lft.to/lastmile_qr_scan"}, "is_reserved": 0}, {"lon": -77.04661333333334, "bike_id": "5ba324b8251dfea596e466fb1fc2fa84", "lat": 38.8982835, "fusion_lon": 0.0, "fusion_lat": 0.0, "type": "electric_scooter", "name": "5ba324b8251dfea596e466fb1fc2fa84", "is_disabled": 0, "rental_uris": {"ios": "https://dc.lft.to/lastmile_qr_scan", "android": "https://dc.lft.to/lastmile_qr_scan"}, "is_reserved": 0}, {"lon": -77.02235766666666, "bike_id": "da1b6e7cae88aa3af0b7caae7a22364f", "lat": 38.96212766666667, "fusion_lon": 0.0, "fusion_lat": 0.0, "type": "electric_bike", "name": "da1b6e7cae88aa3af0b7caae7a22364f", "is_disabled": 0, "rental_uris": {"ios": "https://dc.lft.to/lastmile_qr_scan", "android": "https://dc.lft.to/lastmile_qr_scan"}, "is_reserved": 0}, {"lon": -77.02031016666666, "bike_id": "31e16db1b44af2fc57e4962082532a4f", "lat": 38.924201833333335, "fusion_lon": 0.0, "fusion_lat": 0.0, "type": "electric_scooter", "name": "31e16db1b44af2fc57e4962082532a4f", "is_disabled": 0, "rental_uris": {"ios": "https://dc.lft.to/lastmile_qr_scan", "android": "https://dc.lft.to/lastmile_qr_scan"}, "is_reserved": 0}, {"lon": -77.05265933333334, "bike_id": "81526c9ec2f6b65fc019da040943baaf", "lat": 38.900063833333334, "fusion_lon": 0.0, "fusion_lat": 0.0, "type": "electric_scooter", "name": "81526c9ec2f6b65fc019da040943baaf", "is_disabled": 0, "rental_uris": {"ios": "https://dc.lft.to/lastmile_qr_scan", "android": "https://dc.lft.to/lastmile_qr_scan"}, "is_reserved": 0}, {"lon": -77.02524033333333, "bike_id": "4fb0721d62dfa8fded1262cd8236e08e", "lat": 38.91271616666667, "fusion_lon": 0.0, "fusion_lat": 0.0, "type": "electric_scooter", "name": "4fb0721d62dfa8fded1262cd8236e08e", "is_disabled": 0, "rental_uris": {"ios": "https://dc.lft.to/lastmile_qr_scan", "android": "https://dc.lft.to/lastmile_qr_scan"}, "is_reserved": 0}, {"lon": -77.02175183333334, "bike_id": "68d8d4b77c7aa21ec30ef25e85c1dc2d", "lat": 38.9156265, "fusion_lon": 0.0, "fusion_lat": 0.0, "type": "electric_scooter", "name": "68d8d4b77c7aa21ec30ef25e85c1dc2d", "is_disabled": 0, "rental_uris": {"ios": "https://dc.lft.to/lastmile_qr_scan", "android": "https://dc.lft.to/lastmile_qr_scan"}, "is_reserved": 0}, {"lon": -76.99266466666667, "bike_id": "ba922653c40a97dd246e15819567b218", "lat": 38.897711666666666, "fusion_lon": 0.0, "fusion_lat": 0.0, "type": "electric_scooter", "name": "ba922653c40a97dd246e15819567b218", "is_disabled": 0, "rental_uris": {"ios": "https://dc.lft.to/lastmile_qr_scan", "android": "https://dc.lft.to/lastmile_qr_scan"}, "is_reserved": 0}, {"lon": -77.08816633333333, "bike_id": "1aa0cb1f732455c1b735478f69dbcfef", "lat": 38.909742, "fusion_lon": 0.0, "fusion_lat": 0.0, "type": "electric_scooter", "name": "1aa0cb1f732455c1b735478f69dbcfef", "is_disabled": 0, "rental_uris": {"ios": "https://dc.lft.to/lastmile_qr_scan", "android": "https://dc.lft.to/lastmile_qr_scan"}, "is_reserved": 0}, {"lon": -77.01716983333333, "bike_id": "bc62a9d1630f4d94fd7e3461f1481324", "lat": 38.90970383333333, "fusion_lon": 0.0, "fusion_lat": 0.0, "type": "electric_scooter", "name": "bc62a9d1630f4d94fd7e3461f1481324", "is_disabled": 0, "rental_uris": {"ios": "https://dc.lft.to/lastmile_qr_scan", "android": "https://dc.lft.to/lastmile_qr_scan"}, "is_reserved": 0}, {"lon": -76.93731466666667, "bike_id": "3cd8c6c922658f18447604aad27fddee", "lat": 38.8901375, "fusion_lon": 0.0, "fusion_lat": 0.0, "type": "electric_scooter", "name": "3cd8c6c922658f18447604aad27fddee", "is_disabled": 0, "rental_uris": {"ios": "https://dc.lft.to/lastmile_qr_scan", "android": "https://dc.lft.to/lastmile_qr_scan"}, "is_reserved": 0}, {"lon": -77.002004, "bike_id": "d72bc1e624e314e77d940bc98af6c712", "lat": 38.9004045, "fusion_lon": 0.0, "fusion_lat": 0.0, "type": "electric_scooter", "name": "d72bc1e624e314e77d940bc98af6c712", "is_disabled": 0, "rental_uris": {"ios": "https://dc.lft.to/lastmile_qr_scan", "android": "https://dc.lft.to/lastmile_qr_scan"}, "is_reserved": 0}, {"lon": -77.00135633333333, "bike_id": "990080bd96263eb814c16aa8e52b4628", "lat": 38.894726, "fusion_lon": 0.0, "fusion_lat": 0.0, "type": "electric_scooter", "name": "990080bd96263eb814c16aa8e52b4628", "is_disabled": 0, "rental_uris": {"ios": "https://dc.lft.to/lastmile_qr_scan", "android": "https://dc.lft.to/lastmile_qr_scan"}, "is_reserved": 0}, {"lon": -77.03461716666666, "bike_id": "7fc281a542f499ccb07f5157547df6c8", "lat": 38.92064883333333, "fusion_lon": 0.0, "fusion_lat": 0.0, "type": "electric_scooter", "name": "7fc281a542f499ccb07f5157547df6c8", "is_disabled": 0, "rental_uris": {"ios": "https://dc.lft.to/lastmile_qr_scan", "android": "https://dc.lft.to/lastmile_qr_scan"}, "is_reserved": 0}, {"lon": -76.93758316666667, "bike_id": "9bbe75188b74cc74f9ca9860ae43d064", "lat": 38.890473666666665, "fusion_lon": 0.0, "fusion_lat": 0.0, "type": "electric_scooter", "name": "9bbe75188b74cc74f9ca9860ae43d064", "is_disabled": 0, "rental_uris": {"ios": "https://dc.lft.to/lastmile_qr_scan", "android": "https://dc.lft.to/lastmile_qr_scan"}, "is_reserved": 0}, {"lon": -77.02694833333334, "bike_id": "6e2784a42f94c02d3c3e6a71dee1208d", "lat": 38.9117235, "fusion_lon": 0.0, "fusion_lat": 0.0, "type": "electric_scooter", "name": "6e2784a42f94c02d3c3e6a71dee1208d", "is_disabled": 0, "rental_uris": {"ios": "https://dc.lft.to/lastmile_qr_scan", "android": "https://dc.lft.to/lastmile_qr_scan"}, "is_reserved": 0}, {"lon": -77.0366065, "bike_id": "88a3b12f7da7855291f41262d5a94e14", "lat": 38.939175666666664, "fusion_lon": 0.0, "fusion_lat": 0.0, "type": "electric_bike", "name": "88a3b12f7da7855291f41262d5a94e14", "is_disabled": 0, "rental_uris": {"ios": "https://dc.lft.to/lastmile_qr_scan", "android": "https://dc.lft.to/lastmile_qr_scan"}, "is_reserved": 0}, {"lon": -77.01962433333334, "bike_id": "f3f1d17d2527ed722e65c5aca9a1f12b", "lat": 38.922039833333336, "fusion_lon": 0.0, "fusion_lat": 0.0, "type": "electric_scooter", "name": "f3f1d17d2527ed722e65c5aca9a1f12b", "is_disabled": 0, "rental_uris": {"ios": "https://dc.lft.to/lastmile_qr_scan", "android": "https://dc.lft.to/lastmile_qr_scan"}, "is_reserved": 0}, {"lon": -76.951882, "bike_id": "0f206a412a7f432a7447800c5bb9c2a2", "lat": 38.90739333333333, "fusion_lon": 0.0, "fusion_lat": 0.0, "type": "electric_scooter", "name": "0f206a412a7f432a7447800c5bb9c2a2", "is_disabled": 0, "rental_uris": {"ios": "https://dc.lft.to/lastmile_qr_scan", "android": "https://dc.lft.to/lastmile_qr_scan"}, "is_reserved": 0}, {"lon": -76.981983, "bike_id": "8a3a0c1240f3c7a22f10514810763fd1", "lat": 38.899479, "fusion_lon": 0.0, "fusion_lat": 0.0, "type": "electric_scooter", "name": "8a3a0c1240f3c7a22f10514810763fd1", "is_disabled": 0, "rental_uris": {"ios": "https://dc.lft.to/lastmile_qr_scan", "android": "https://dc.lft.to/lastmile_qr_scan"}, "is_reserved": 0}, {"lon": -77.04045533333333, "bike_id": "57d80b1e31533f0fc466c3e7adbb0538", "lat": 38.923170166666665, "fusion_lon": 0.0, "fusion_lat": 0.0, "type": "electric_scooter", "name": "57d80b1e31533f0fc466c3e7adbb0538", "is_disabled": 0, "rental_uris": {"ios": "https://dc.lft.to/lastmile_qr_scan", "android": "https://dc.lft.to/lastmile_qr_scan"}, "is_reserved": 0}, {"lon": -77.01950783333334, "bike_id": "305353962081d48b192cc512708a2985", "lat": 38.9226405, "fusion_lon": 0.0, "fusion_lat": 0.0, "type": "electric_scooter", "name": "305353962081d48b192cc512708a2985", "is_disabled": 0, "rental_uris": {"ios": "https://dc.lft.to/lastmile_qr_scan", "android": "https://dc.lft.to/lastmile_qr_scan"}, "is_reserved": 0}, {"lon": -77.01787083333333, "bike_id": "1d1d83ddf9851c3eaf9350a95dbdc228", "lat": 38.877136666666665, "fusion_lon": 0.0, "fusion_lat": 0.0, "type": "electric_scooter", "name": "1d1d83ddf9851c3eaf9350a95dbdc228", "is_disabled": 0, "rental_uris": {"ios": "https://dc.lft.to/lastmile_qr_scan", "android": "https://dc.lft.to/lastmile_qr_scan"}, "is_reserved": 0}, {"lon": -77.02798916666667, "bike_id": "6872b139362b57176f9c79bcf5950604", "lat": 38.929640666666664, "fusion_lon": 0.0, "fusion_lat": 0.0, "type": "electric_scooter", "name": "6872b139362b57176f9c79bcf5950604", "is_disabled": 0, "rental_uris": {"ios": "https://dc.lft.to/lastmile_qr_scan", "android": "https://dc.lft.to/lastmile_qr_scan"}, "is_reserved": 0}, {"lon": -77.0045655, "bike_id": "502aa4cb643989711d88d757f417895a", "lat": 38.91440566666667, "fusion_lon": 0.0, "fusion_lat": 0.0, "type": "electric_scooter", "name": "502aa4cb643989711d88d757f417895a", "is_disabled": 0, "rental_uris": {"ios": "https://dc.lft.to/lastmile_qr_scan", "android": "https://dc.lft.to/lastmile_qr_scan"}, "is_reserved": 0}, {"lon": -76.98259516666667, "bike_id": "23586c6b2339022a50e3ccba2db68951", "lat": 38.908631, "fusion_lon": 0.0, "fusion_lat": 0.0, "type": "electric_scooter", "name": "23586c6b2339022a50e3ccba2db68951", "is_disabled": 0, "rental_uris": {"ios": "https://dc.lft.to/lastmile_qr_scan", "android": "https://dc.lft.to/lastmile_qr_scan"}, "is_reserved": 0}, {"lon": -76.98719033333333, "bike_id": "3684bff69dcc8063445884dafad9e299", "lat": 38.8663075, "fusion_lon": 0.0, "fusion_lat": 0.0, "type": "electric_scooter", "name": "3684bff69dcc8063445884dafad9e299", "is_disabled": 0, "rental_uris": {"ios": "https://dc.lft.to/lastmile_qr_scan", "android": "https://dc.lft.to/lastmile_qr_scan"}, "is_reserved": 0}, {"lon": -77.0398915, "bike_id": "bcf309580418b069b0abf73b108619c1", "lat": 38.933301666666665, "fusion_lon": 0.0, "fusion_lat": 0.0, "type": "electric_bike", "name": "bcf309580418b069b0abf73b108619c1", "is_disabled": 0, "rental_uris": {"ios": "https://dc.lft.to/lastmile_qr_scan", "android": "https://dc.lft.to/lastmile_qr_scan"}, "is_reserved": 0}, {"lon": -77.033026, "bike_id": "2e87b71484ed78ba1e88185900c07e36", "lat": 38.930316166666664, "fusion_lon": 0.0, "fusion_lat": 0.0, "type": "electric_scooter", "name": "2e87b71484ed78ba1e88185900c07e36", "is_disabled": 0, "rental_uris": {"ios": "https://dc.lft.to/lastmile_qr_scan", "android": "https://dc.lft.to/lastmile_qr_scan"}, "is_reserved": 0}, {"lon": -77.02604333333333, "bike_id": "e7e948b8cde714cb306daf709ca9ff9f", "lat": 38.905059, "fusion_lon": 0.0, "fusion_lat": 0.0, "type": "electric_scooter", "name": "e7e948b8cde714cb306daf709ca9ff9f", "is_disabled": 0, "rental_uris": {"ios": "https://dc.lft.to/lastmile_qr_scan", "android": "https://dc.lft.to/lastmile_qr_scan"}, "is_reserved": 0}, {"lon": -77.0217225, "bike_id": "999c209c1da75f7c9a782dbeedd7fb4d", "lat": 38.89729916666667, "fusion_lon": 0.0, "fusion_lat": 0.0, "type": "electric_scooter", "name": "999c209c1da75f7c9a782dbeedd7fb4d", "is_disabled": 0, "rental_uris": {"ios": "https://dc.lft.to/lastmile_qr_scan", "android": "https://dc.lft.to/lastmile_qr_scan"}, "is_reserved": 0}, {"lon": -76.994837, "bike_id": "eff417b739eefacb053b4068796e7d59", "lat": 38.89740966666667, "fusion_lon": 0.0, "fusion_lat": 0.0, "type": "electric_scooter", "name": "eff417b739eefacb053b4068796e7d59", "is_disabled": 0, "rental_uris": {"ios": "https://dc.lft.to/lastmile_qr_scan", "android": "https://dc.lft.to/lastmile_qr_scan"}, "is_reserved": 0}, {"lon": -77.01783416666666, "bike_id": "1026316eca363afde64889e75a650998", "lat": 38.887369166666666, "fusion_lon": 0.0, "fusion_lat": 0.0, "type": "electric_scooter", "name": "1026316eca363afde64889e75a650998", "is_disabled": 0, "rental_uris": {"ios": "https://dc.lft.to/lastmile_qr_scan", "android": "https://dc.lft.to/lastmile_qr_scan"}, "is_reserved": 0}, {"lon": -77.0523465, "bike_id": "eb06fc53d4308692aaff782f076d6bcb", "lat": 38.9246695, "fusion_lon": 0.0, "fusion_lat": 0.0, "type": "electric_scooter", "name": "eb06fc53d4308692aaff782f076d6bcb", "is_disabled": 0, "rental_uris": {"ios": "https://dc.lft.to/lastmile_qr_scan", "android": "https://dc.lft.to/lastmile_qr_scan"}, "is_reserved": 0}, {"lon": -77.04542516666666, "bike_id": "7f9914874029f489569f905c5ec1eaf3", "lat": 38.91335133333333, "fusion_lon": 0.0, "fusion_lat": 0.0, "type": "electric_scooter", "name": "7f9914874029f489569f905c5ec1eaf3", "is_disabled": 0, "rental_uris": {"ios": "https://dc.lft.to/lastmile_qr_scan", "android": "https://dc.lft.to/lastmile_qr_scan"}, "is_reserved": 0}, {"lon": -77.02899483333333, "bike_id": "658b8bcd87ef4ce3fdc9463795f7cc83", "lat": 38.928200333333336, "fusion_lon": 0.0, "fusion_lat": 0.0, "type": "electric_scooter", "name": "658b8bcd87ef4ce3fdc9463795f7cc83", "is_disabled": 0, "rental_uris": {"ios": "https://dc.lft.to/lastmile_qr_scan", "android": "https://dc.lft.to/lastmile_qr_scan"}, "is_reserved": 0}, {"lon": -77.056998, "bike_id": "2b468463e3e7c73255c0f004e377ef53", "lat": 38.9371935, "fusion_lon": 0.0, "fusion_lat": 0.0, "type": "electric_scooter", "name": "2b468463e3e7c73255c0f004e377ef53", "is_disabled": 0, "rental_uris": {"ios": "https://dc.lft.to/lastmile_qr_scan", "android": "https://dc.lft.to/lastmile_qr_scan"}, "is_reserved": 0}, {"lon": -76.99532666666667, "bike_id": "20b6adaba63c7b3c6a4fc47660179999", "lat": 38.883773833333336, "fusion_lon": 0.0, "fusion_lat": 0.0, "type": "electric_scooter", "name": "20b6adaba63c7b3c6a4fc47660179999", "is_disabled": 0, "rental_uris": {"ios": "https://dc.lft.to/lastmile_qr_scan", "android": "https://dc.lft.to/lastmile_qr_scan"}, "is_reserved": 0}, {"lon": -77.05723366666666, "bike_id": "8b3dc918be994aeeb928b0c1828972b0", "lat": 38.933733, "fusion_lon": 0.0, "fusion_lat": 0.0, "type": "electric_scooter", "name": "8b3dc918be994aeeb928b0c1828972b0", "is_disabled": 0, "rental_uris": {"ios": "https://dc.lft.to/lastmile_qr_scan", "android": "https://dc.lft.to/lastmile_qr_scan"}, "is_reserved": 0}, {"lon": -77.01870583333333, "bike_id": "b7d034f424f9bb63c7f467a6eabe9741", "lat": 38.918272333333334, "fusion_lon": 0.0, "fusion_lat": 0.0, "type": "electric_scooter", "name": "b7d034f424f9bb63c7f467a6eabe9741", "is_disabled": 0, "rental_uris": {"ios": "https://dc.lft.to/lastmile_qr_scan", "android": "https://dc.lft.to/lastmile_qr_scan"}, "is_reserved": 0}, {"lon": -77.00067733333333, "bike_id": "9614dcf7c09d3b5e17030b0052fe04b2", "lat": 38.8950415, "fusion_lon": 0.0, "fusion_lat": 0.0, "type": "electric_scooter", "name": "9614dcf7c09d3b5e17030b0052fe04b2", "is_disabled": 0, "rental_uris": {"ios": "https://dc.lft.to/lastmile_qr_scan", "android": "https://dc.lft.to/lastmile_qr_scan"}, "is_reserved": 0}, {"lon": -77.04337483333333, "bike_id": "7d609133167e79c2f646483bb91da16e", "lat": 38.92221633333333, "fusion_lon": 0.0, "fusion_lat": 0.0, "type": "electric_scooter", "name": "7d609133167e79c2f646483bb91da16e", "is_disabled": 0, "rental_uris": {"ios": "https://dc.lft.to/lastmile_qr_scan", "android": "https://dc.lft.to/lastmile_qr_scan"}, "is_reserved": 0}, {"lon": -76.98230366666667, "bike_id": "71c2b7ad8636e3c1297a4be669d8a19d", "lat": 38.886486, "fusion_lon": 0.0, "fusion_lat": 0.0, "type": "electric_scooter", "name": "71c2b7ad8636e3c1297a4be669d8a19d", "is_disabled": 0, "rental_uris": {"ios": "https://dc.lft.to/lastmile_qr_scan", "android": "https://dc.lft.to/lastmile_qr_scan"}, "is_reserved": 0}, {"lon": -77.104905, "bike_id": "2dd475ac722c755fd5fd6f6bd2788b6b", "lat": 38.85609866666667, "fusion_lon": 0.0, "fusion_lat": 0.0, "type": "electric_bike", "name": "2dd475ac722c755fd5fd6f6bd2788b6b", "is_disabled": 0, "rental_uris": {"ios": "https://dc.lft.to/lastmile_qr_scan", "android": "https://dc.lft.to/lastmile_qr_scan"}, "is_reserved": 0}, {"lon": -77.04412433333333, "bike_id": "4b204b468d5c1e487ffae7fd5a367026", "lat": 38.921155666666664, "fusion_lon": 0.0, "fusion_lat": 0.0, "type": "electric_scooter", "name": "4b204b468d5c1e487ffae7fd5a367026", "is_disabled": 0, "rental_uris": {"ios": "https://dc.lft.to/lastmile_qr_scan", "android": "https://dc.lft.to/lastmile_qr_scan"}, "is_reserved": 0}, {"lon": -77.04276266666666, "bike_id": "c41c3ee4f57bdefbd372b94f785c3e51", "lat": 38.907233166666664, "fusion_lon": 0.0, "fusion_lat": 0.0, "type": "electric_scooter", "name": "c41c3ee4f57bdefbd372b94f785c3e51", "is_disabled": 0, "rental_uris": {"ios": "https://dc.lft.to/lastmile_qr_scan", "android": "https://dc.lft.to/lastmile_qr_scan"}, "is_reserved": 0}, {"lon": -77.0416125, "bike_id": "1a9b78b7962529cbfab2b3db01685e3f", "lat": 38.914237666666665, "fusion_lon": 0.0, "fusion_lat": 0.0, "type": "electric_scooter", "name": "1a9b78b7962529cbfab2b3db01685e3f", "is_disabled": 0, "rental_uris": {"ios": "https://dc.lft.to/lastmile_qr_scan", "android": "https://dc.lft.to/lastmile_qr_scan"}, "is_reserved": 0}, {"lon": -77.03185383333333, "bike_id": "26d244f857bff4338dd1c15c0a5f35b9", "lat": 38.936943, "fusion_lon": 0.0, "fusion_lat": 0.0, "type": "electric_scooter", "name": "26d244f857bff4338dd1c15c0a5f35b9", "is_disabled": 0, "rental_uris": {"ios": "https://dc.lft.to/lastmile_qr_scan", "android": "https://dc.lft.to/lastmile_qr_scan"}, "is_reserved": 0}, {"lon": -77.05161933333333, "bike_id": "6e5e74f2458854470dc74133d931b044", "lat": 39.0431145, "fusion_lon": 0.0, "fusion_lat": 0.0, "type": "electric_bike", "name": "6e5e74f2458854470dc74133d931b044", "is_disabled": 0, "rental_uris": {"ios": "https://dc.lft.to/lastmile_qr_scan", "android": "https://dc.lft.to/lastmile_qr_scan"}, "is_reserved": 0}, {"lon": -77.03342833333333, "bike_id": "a30bcb123351c7a1547c23c5fac02a86", "lat": 38.892493333333334, "fusion_lon": 0.0, "fusion_lat": 0.0, "type": "electric_scooter", "name": "a30bcb123351c7a1547c23c5fac02a86", "is_disabled": 0, "rental_uris": {"ios": "https://dc.lft.to/lastmile_qr_scan", "android": "https://dc.lft.to/lastmile_qr_scan"}, "is_reserved": 0}, {"lon": -77.012094, "bike_id": "1079fb1e1f0cdba19e7ee7f8c985064f", "lat": 38.921192833333336, "fusion_lon": 0.0, "fusion_lat": 0.0, "type": "electric_scooter", "name": "1079fb1e1f0cdba19e7ee7f8c985064f", "is_disabled": 0, "rental_uris": {"ios": "https://dc.lft.to/lastmile_qr_scan", "android": "https://dc.lft.to/lastmile_qr_scan"}, "is_reserved": 0}, {"lon": -76.930076, "bike_id": "f86b7a9d70d3ef0c23df6c45920654cd", "lat": 38.89195316666667, "fusion_lon": 0.0, "fusion_lat": 0.0, "type": "electric_scooter", "name": "f86b7a9d70d3ef0c23df6c45920654cd", "is_disabled": 0, "rental_uris": {"ios": "https://dc.lft.to/lastmile_qr_scan", "android": "https://dc.lft.to/lastmile_qr_scan"}, "is_reserved": 0}, {"lon": -76.97537416666667, "bike_id": "9267f6a18be3412fce15d85849f03adf", "lat": 38.864233666666664, "fusion_lon": 0.0, "fusion_lat": 0.0, "type": "electric_scooter", "name": "9267f6a18be3412fce15d85849f03adf", "is_disabled": 0, "rental_uris": {"ios": "https://dc.lft.to/lastmile_qr_scan", "android": "https://dc.lft.to/lastmile_qr_scan"}, "is_reserved": 0}, {"lon": -77.00626266666667, "bike_id": "3395c20e3dd1ebfd179b1943a5f02214", "lat": 38.912559333333334, "fusion_lon": 0.0, "fusion_lat": 0.0, "type": "electric_scooter", "name": "3395c20e3dd1ebfd179b1943a5f02214", "is_disabled": 0, "rental_uris": {"ios": "https://dc.lft.to/lastmile_qr_scan", "android": "https://dc.lft.to/lastmile_qr_scan"}, "is_reserved": 0}, {"lon": -77.04186116666666, "bike_id": "3539ec93ee8eacba741846b3fd9986a8", "lat": 38.919858166666664, "fusion_lon": 0.0, "fusion_lat": 0.0, "type": "electric_scooter", "name": "3539ec93ee8eacba741846b3fd9986a8", "is_disabled": 0, "rental_uris": {"ios": "https://dc.lft.to/lastmile_qr_scan", "android": "https://dc.lft.to/lastmile_qr_scan"}, "is_reserved": 0}, {"lon": -77.00077033333334, "bike_id": "5f56f6a6a8ccaaf124339a8b58ca31d0", "lat": 38.873771833333336, "fusion_lon": 0.0, "fusion_lat": 0.0, "type": "electric_scooter", "name": "5f56f6a6a8ccaaf124339a8b58ca31d0", "is_disabled": 0, "rental_uris": {"ios": "https://dc.lft.to/lastmile_qr_scan", "android": "https://dc.lft.to/lastmile_qr_scan"}, "is_reserved": 0}, {"lon": -76.98583316666667, "bike_id": "71349e2008f0b68496039e8b87f92222", "lat": 38.86683166666667, "fusion_lon": 0.0, "fusion_lat": 0.0, "type": "electric_scooter", "name": "71349e2008f0b68496039e8b87f92222", "is_disabled": 0, "rental_uris": {"ios": "https://dc.lft.to/lastmile_qr_scan", "android": "https://dc.lft.to/lastmile_qr_scan"}, "is_reserved": 0}, {"lon": -77.04735433333333, "bike_id": "929aaee4ff2b36f16e5e786c06c390df", "lat": 38.90164433333333, "fusion_lon": 0.0, "fusion_lat": 0.0, "type": "electric_scooter", "name": "929aaee4ff2b36f16e5e786c06c390df", "is_disabled": 0, "rental_uris": {"ios": "https://dc.lft.to/lastmile_qr_scan", "android": "https://dc.lft.to/lastmile_qr_scan"}, "is_reserved": 0}, {"lon": -77.05126533333333, "bike_id": "2d73ad34060b438afa53f660230d2743", "lat": 38.89867783333333, "fusion_lon": 0.0, "fusion_lat": 0.0, "type": "electric_scooter", "name": "2d73ad34060b438afa53f660230d2743", "is_disabled": 0, "rental_uris": {"ios": "https://dc.lft.to/lastmile_qr_scan", "android": "https://dc.lft.to/lastmile_qr_scan"}, "is_reserved": 0}, {"lon": -77.07660283333334, "bike_id": "ea2c0d6906a6c426060727b508037b1c", "lat": 38.862711166666664, "fusion_lon": 0.0, "fusion_lat": 0.0, "type": "electric_bike", "name": "ea2c0d6906a6c426060727b508037b1c", "is_disabled": 0, "rental_uris": {"ios": "https://dc.lft.to/lastmile_qr_scan", "android": "https://dc.lft.to/lastmile_qr_scan"}, "is_reserved": 0}, {"lon": -76.99595633333334, "bike_id": "80a11cbd0abf4dd5fe5c8609a3a0bc13", "lat": 38.884346666666666, "fusion_lon": 0.0, "fusion_lat": 0.0, "type": "electric_scooter", "name": "80a11cbd0abf4dd5fe5c8609a3a0bc13", "is_disabled": 0, "rental_uris": {"ios": "https://dc.lft.to/lastmile_qr_scan", "android": "https://dc.lft.to/lastmile_qr_scan"}, "is_reserved": 0}, {"lon": -76.9786795, "bike_id": "7e72e158d197d908d1945196b1b2927d", "lat": 38.883022, "fusion_lon": 0.0, "fusion_lat": 0.0, "type": "electric_scooter", "name": "7e72e158d197d908d1945196b1b2927d", "is_disabled": 0, "rental_uris": {"ios": "https://dc.lft.to/lastmile_qr_scan", "android": "https://dc.lft.to/lastmile_qr_scan"}, "is_reserved": 0}, {"lon": -77.049819, "bike_id": "bfa2489d4050ce02ac000fb22e5985e9", "lat": 39.0629645, "fusion_lon": 0.0, "fusion_lat": 0.0, "type": "electric_bike", "name": "bfa2489d4050ce02ac000fb22e5985e9", "is_disabled": 0, "rental_uris": {"ios": "https://dc.lft.to/lastmile_qr_scan", "android": "https://dc.lft.to/lastmile_qr_scan"}, "is_reserved": 0}, {"lon": -76.99370733333333, "bike_id": "71cf46312ecd6da3e759407e8ee1544e", "lat": 38.94028933333333, "fusion_lon": 0.0, "fusion_lat": 0.0, "type": "electric_scooter", "name": "71cf46312ecd6da3e759407e8ee1544e", "is_disabled": 0, "rental_uris": {"ios": "https://dc.lft.to/lastmile_qr_scan", "android": "https://dc.lft.to/lastmile_qr_scan"}, "is_reserved": 0}, {"lon": -77.0382295, "bike_id": "7285b3f2bca299fd25eb6f1c9b99fbda", "lat": 38.9097305, "fusion_lon": 0.0, "fusion_lat": 0.0, "type": "electric_scooter", "name": "7285b3f2bca299fd25eb6f1c9b99fbda", "is_disabled": 0, "rental_uris": {"ios": "https://dc.lft.to/lastmile_qr_scan", "android": "https://dc.lft.to/lastmile_qr_scan"}, "is_reserved": 0}, {"lon": -77.02967816666667, "bike_id": "bf87bc2dd94486d832d7bfdd31d0b152", "lat": 38.9127535, "fusion_lon": 0.0, "fusion_lat": 0.0, "type": "electric_scooter", "name": "bf87bc2dd94486d832d7bfdd31d0b152", "is_disabled": 0, "rental_uris": {"ios": "https://dc.lft.to/lastmile_qr_scan", "android": "https://dc.lft.to/lastmile_qr_scan"}, "is_reserved": 0}, {"lon": -76.99013533333333, "bike_id": "d54fcbbea66d79ce32afbbf9311a796a", "lat": 38.946014166666664, "fusion_lon": 0.0, "fusion_lat": 0.0, "type": "electric_scooter", "name": "d54fcbbea66d79ce32afbbf9311a796a", "is_disabled": 0, "rental_uris": {"ios": "https://dc.lft.to/lastmile_qr_scan", "android": "https://dc.lft.to/lastmile_qr_scan"}, "is_reserved": 0}, {"lon": -76.9615335, "bike_id": "28bd94c24f52291b1667a8275fb1d15e", "lat": 38.88358483333333, "fusion_lon": 0.0, "fusion_lat": 0.0, "type": "electric_scooter", "name": "28bd94c24f52291b1667a8275fb1d15e", "is_disabled": 0, "rental_uris": {"ios": "https://dc.lft.to/lastmile_qr_scan", "android": "https://dc.lft.to/lastmile_qr_scan"}, "is_reserved": 0}, {"lon": -77.0080265, "bike_id": "904cb9d76e709a811e482c546028190c", "lat": 38.9056985, "fusion_lon": 0.0, "fusion_lat": 0.0, "type": "electric_scooter", "name": "904cb9d76e709a811e482c546028190c", "is_disabled": 0, "rental_uris": {"ios": "https://dc.lft.to/lastmile_qr_scan", "android": "https://dc.lft.to/lastmile_qr_scan"}, "is_reserved": 0}, {"lon": -77.00744283333333, "bike_id": "3e7598d68a9bb852e0223e9e101090a4", "lat": 38.89843116666667, "fusion_lon": 0.0, "fusion_lat": 0.0, "type": "electric_bike", "name": "3e7598d68a9bb852e0223e9e101090a4", "is_disabled": 0, "rental_uris": {"ios": "https://dc.lft.to/lastmile_qr_scan", "android": "https://dc.lft.to/lastmile_qr_scan"}, "is_reserved": 0}, {"lon": -77.02883933333334, "bike_id": "96ef4fa439acbe57f892d3f92da278ee", "lat": 38.89844866666667, "fusion_lon": 0.0, "fusion_lat": 0.0, "type": "electric_scooter", "name": "96ef4fa439acbe57f892d3f92da278ee", "is_disabled": 0, "rental_uris": {"ios": "https://dc.lft.to/lastmile_qr_scan", "android": "https://dc.lft.to/lastmile_qr_scan"}, "is_reserved": 0}, {"lon": -77.02628266666666, "bike_id": "fb6de54ae2d9ce1ec51cd746badcaddf", "lat": 38.917105, "fusion_lon": 0.0, "fusion_lat": 0.0, "type": "electric_scooter", "name": "fb6de54ae2d9ce1ec51cd746badcaddf", "is_disabled": 0, "rental_uris": {"ios": "https://dc.lft.to/lastmile_qr_scan", "android": "https://dc.lft.to/lastmile_qr_scan"}, "is_reserved": 0}, {"lon": -77.03428, "bike_id": "a4e3cb1b988b53571f94ed82856c125f", "lat": 38.902520333333335, "fusion_lon": 0.0, "fusion_lat": 0.0, "type": "electric_scooter", "name": "a4e3cb1b988b53571f94ed82856c125f", "is_disabled": 0, "rental_uris": {"ios": "https://dc.lft.to/lastmile_qr_scan", "android": "https://dc.lft.to/lastmile_qr_scan"}, "is_reserved": 0}, {"lon": -76.967892, "bike_id": "f161993171f5c72bd6f1f1141da601d9", "lat": 38.868481, "fusion_lon": 0.0, "fusion_lat": 0.0, "type": "electric_scooter", "name": "f161993171f5c72bd6f1f1141da601d9", "is_disabled": 0, "rental_uris": {"ios": "https://dc.lft.to/lastmile_qr_scan", "android": "https://dc.lft.to/lastmile_qr_scan"}, "is_reserved": 0}, {"lon": -77.03942133333334, "bike_id": "98fac4fd41fa55d9b0537436c3672a3e", "lat": 38.917154, "fusion_lon": 0.0, "fusion_lat": 0.0, "type": "electric_scooter", "name": "98fac4fd41fa55d9b0537436c3672a3e", "is_disabled": 0, "rental_uris": {"ios": "https://dc.lft.to/lastmile_qr_scan", "android": "https://dc.lft.to/lastmile_qr_scan"}, "is_reserved": 0}, {"lon": -76.980952, "bike_id": "7bdd20f1ca61ae4446aee79fbcfdaaf0", "lat": 38.895545, "fusion_lon": 0.0, "fusion_lat": 0.0, "type": "electric_scooter", "name": "7bdd20f1ca61ae4446aee79fbcfdaaf0", "is_disabled": 0, "rental_uris": {"ios": "https://dc.lft.to/lastmile_qr_scan", "android": "https://dc.lft.to/lastmile_qr_scan"}, "is_reserved": 0}, {"lon": -76.99048816666667, "bike_id": "b0e0e865c5bcf015927f9ea8c2ff5347", "lat": 38.88762933333334, "fusion_lon": 0.0, "fusion_lat": 0.0, "type": "electric_scooter", "name": "b0e0e865c5bcf015927f9ea8c2ff5347", "is_disabled": 0, "rental_uris": {"ios": "https://dc.lft.to/lastmile_qr_scan", "android": "https://dc.lft.to/lastmile_qr_scan"}, "is_reserved": 0}, {"lon": -77.05233083333333, "bike_id": "43523d8c75f303b5441722d6ace5f391", "lat": 38.9245415, "fusion_lon": 0.0, "fusion_lat": 0.0, "type": "electric_scooter", "name": "43523d8c75f303b5441722d6ace5f391", "is_disabled": 0, "rental_uris": {"ios": "https://dc.lft.to/lastmile_qr_scan", "android": "https://dc.lft.to/lastmile_qr_scan"}, "is_reserved": 0}, {"lon": -77.03109433333333, "bike_id": "bd07335e5d593a6444623ce962343499", "lat": 38.9156275, "fusion_lon": 0.0, "fusion_lat": 0.0, "type": "electric_scooter", "name": "bd07335e5d593a6444623ce962343499", "is_disabled": 0, "rental_uris": {"ios": "https://dc.lft.to/lastmile_qr_scan", "android": "https://dc.lft.to/lastmile_qr_scan"}, "is_reserved": 0}, {"lon": -77.010581, "bike_id": "631bc750083ac8448397914c488695fa", "lat": 38.8786985, "fusion_lon": 0.0, "fusion_lat": 0.0, "type": "electric_scooter", "name": "631bc750083ac8448397914c488695fa", "is_disabled": 0, "rental_uris": {"ios": "https://dc.lft.to/lastmile_qr_scan", "android": "https://dc.lft.to/lastmile_qr_scan"}, "is_reserved": 0}, {"lon": -77.02285116666667, "bike_id": "1899d316fa09df1ef8de2b1b9c014ba8", "lat": 38.91220416666667, "fusion_lon": 0.0, "fusion_lat": 0.0, "type": "electric_scooter", "name": "1899d316fa09df1ef8de2b1b9c014ba8", "is_disabled": 0, "rental_uris": {"ios": "https://dc.lft.to/lastmile_qr_scan", "android": "https://dc.lft.to/lastmile_qr_scan"}, "is_reserved": 0}, {"lon": -76.97299183333334, "bike_id": "f6621a3af877e4e7521135c1ac506707", "lat": 38.9164615, "fusion_lon": 0.0, "fusion_lat": 0.0, "type": "electric_scooter", "name": "f6621a3af877e4e7521135c1ac506707", "is_disabled": 0, "rental_uris": {"ios": "https://dc.lft.to/lastmile_qr_scan", "android": "https://dc.lft.to/lastmile_qr_scan"}, "is_reserved": 0}, {"lon": -77.0137885, "bike_id": "a8787063b9858c77fdb319603c4dd83d", "lat": 38.88707316666667, "fusion_lon": 0.0, "fusion_lat": 0.0, "type": "electric_scooter", "name": "a8787063b9858c77fdb319603c4dd83d", "is_disabled": 0, "rental_uris": {"ios": "https://dc.lft.to/lastmile_qr_scan", "android": "https://dc.lft.to/lastmile_qr_scan"}, "is_reserved": 0}, {"lon": -77.02689116666667, "bike_id": "47a46ba5c7497aec611ed15bef6f8d29", "lat": 38.909599, "fusion_lon": 0.0, "fusion_lat": 0.0, "type": "electric_bike", "name": "47a46ba5c7497aec611ed15bef6f8d29", "is_disabled": 0, "rental_uris": {"ios": "https://dc.lft.to/lastmile_qr_scan", "android": "https://dc.lft.to/lastmile_qr_scan"}, "is_reserved": 0}, {"lon": -77.040226, "bike_id": "2816b4bcf21a670539c5b4b6aa6b5148", "lat": 38.917955666666664, "fusion_lon": 0.0, "fusion_lat": 0.0, "type": "electric_scooter", "name": "2816b4bcf21a670539c5b4b6aa6b5148", "is_disabled": 0, "rental_uris": {"ios": "https://dc.lft.to/lastmile_qr_scan", "android": "https://dc.lft.to/lastmile_qr_scan"}, "is_reserved": 0}, {"lon": -76.9988505, "bike_id": "4624047f2d52f0502d6f11720c24be4f", "lat": 38.920562833333335, "fusion_lon": 0.0, "fusion_lat": 0.0, "type": "electric_scooter", "name": "4624047f2d52f0502d6f11720c24be4f", "is_disabled": 0, "rental_uris": {"ios": "https://dc.lft.to/lastmile_qr_scan", "android": "https://dc.lft.to/lastmile_qr_scan"}, "is_reserved": 0}, {"lon": -76.99955166666666, "bike_id": "1256862d34283d4726876cacccee56aa", "lat": 38.908533166666665, "fusion_lon": 0.0, "fusion_lat": 0.0, "type": "electric_scooter", "name": "1256862d34283d4726876cacccee56aa", "is_disabled": 0, "rental_uris": {"ios": "https://dc.lft.to/lastmile_qr_scan", "android": "https://dc.lft.to/lastmile_qr_scan"}, "is_reserved": 0}, {"lon": -76.99357266666667, "bike_id": "78eb9ea0aef74de0742c934daefea0a2", "lat": 38.845063, "fusion_lon": 0.0, "fusion_lat": 0.0, "type": "electric_bike", "name": "78eb9ea0aef74de0742c934daefea0a2", "is_disabled": 0, "rental_uris": {"ios": "https://dc.lft.to/lastmile_qr_scan", "android": "https://dc.lft.to/lastmile_qr_scan"}, "is_reserved": 0}, {"lon": -77.03651383333333, "bike_id": "fcd465b963112a50aa7a6789aad9a71a", "lat": 38.93652566666667, "fusion_lon": 0.0, "fusion_lat": 0.0, "type": "electric_scooter", "name": "fcd465b963112a50aa7a6789aad9a71a", "is_disabled": 0, "rental_uris": {"ios": "https://dc.lft.to/lastmile_qr_scan", "android": "https://dc.lft.to/lastmile_qr_scan"}, "is_reserved": 0}, {"lon": -77.02344583333333, "bike_id": "2037c210dadd686a5f4ae3a2f95a7b3d", "lat": 38.922492166666665, "fusion_lon": 0.0, "fusion_lat": 0.0, "type": "electric_scooter", "name": "2037c210dadd686a5f4ae3a2f95a7b3d", "is_disabled": 0, "rental_uris": {"ios": "https://dc.lft.to/lastmile_qr_scan", "android": "https://dc.lft.to/lastmile_qr_scan"}, "is_reserved": 0}, {"lon": -76.98693066666667, "bike_id": "dfd84114f364ff0eba4abd512df6b0ce", "lat": 38.91223266666667, "fusion_lon": 0.0, "fusion_lat": 0.0, "type": "electric_scooter", "name": "dfd84114f364ff0eba4abd512df6b0ce", "is_disabled": 0, "rental_uris": {"ios": "https://dc.lft.to/lastmile_qr_scan", "android": "https://dc.lft.to/lastmile_qr_scan"}, "is_reserved": 0}, {"lon": -77.03665316666667, "bike_id": "54e0f5de30e4276a31e0b2eb427ae921", "lat": 38.932113333333334, "fusion_lon": 0.0, "fusion_lat": 0.0, "type": "electric_scooter", "name": "54e0f5de30e4276a31e0b2eb427ae921", "is_disabled": 0, "rental_uris": {"ios": "https://dc.lft.to/lastmile_qr_scan", "android": "https://dc.lft.to/lastmile_qr_scan"}, "is_reserved": 0}, {"lon": -77.00500383333333, "bike_id": "159d1f3a18199ab25f18dcce256e375e", "lat": 38.905652333333336, "fusion_lon": 0.0, "fusion_lat": 0.0, "type": "electric_scooter", "name": "159d1f3a18199ab25f18dcce256e375e", "is_disabled": 0, "rental_uris": {"ios": "https://dc.lft.to/lastmile_qr_scan", "android": "https://dc.lft.to/lastmile_qr_scan"}, "is_reserved": 0}, {"lon": -77.03703633333333, "bike_id": "b84b17b577c3a54b46415a3e55d64d66", "lat": 38.92643666666667, "fusion_lon": 0.0, "fusion_lat": 0.0, "type": "electric_scooter", "name": "b84b17b577c3a54b46415a3e55d64d66", "is_disabled": 0, "rental_uris": {"ios": "https://dc.lft.to/lastmile_qr_scan", "android": "https://dc.lft.to/lastmile_qr_scan"}, "is_reserved": 0}, {"lon": -77.01502883333333, "bike_id": "c490c4828fc00145aa095a6fdee96a60", "lat": 38.900323, "fusion_lon": 0.0, "fusion_lat": 0.0, "type": "electric_scooter", "name": "c490c4828fc00145aa095a6fdee96a60", "is_disabled": 0, "rental_uris": {"ios": "https://dc.lft.to/lastmile_qr_scan", "android": "https://dc.lft.to/lastmile_qr_scan"}, "is_reserved": 0}, {"lon": -77.04099533333333, "bike_id": "9e82e67a21cdb645b779505edd97514f", "lat": 38.90868566666666, "fusion_lon": 0.0, "fusion_lat": 0.0, "type": "electric_scooter", "name": "9e82e67a21cdb645b779505edd97514f", "is_disabled": 0, "rental_uris": {"ios": "https://dc.lft.to/lastmile_qr_scan", "android": "https://dc.lft.to/lastmile_qr_scan"}, "is_reserved": 0}, {"lon": -77.02117566666666, "bike_id": "4b99ae24de75514e4293ebcb1a8f369f", "lat": 38.9370005, "fusion_lon": 0.0, "fusion_lat": 0.0, "type": "electric_scooter", "name": "4b99ae24de75514e4293ebcb1a8f369f", "is_disabled": 0, "rental_uris": {"ios": "https://dc.lft.to/lastmile_qr_scan", "android": "https://dc.lft.to/lastmile_qr_scan"}, "is_reserved": 0}, {"lon": -77.04878316666667, "bike_id": "d2602a8ac86d624673de0c5a75737785", "lat": 38.89848416666667, "fusion_lon": 0.0, "fusion_lat": 0.0, "type": "electric_scooter", "name": "d2602a8ac86d624673de0c5a75737785", "is_disabled": 0, "rental_uris": {"ios": "https://dc.lft.to/lastmile_qr_scan", "android": "https://dc.lft.to/lastmile_qr_scan"}, "is_reserved": 0}, {"lon": -77.023816, "bike_id": "bb686c63487c304fee0ef0e536ff7929", "lat": 38.919977833333334, "fusion_lon": 0.0, "fusion_lat": 0.0, "type": "electric_scooter", "name": "bb686c63487c304fee0ef0e536ff7929", "is_disabled": 0, "rental_uris": {"ios": "https://dc.lft.to/lastmile_qr_scan", "android": "https://dc.lft.to/lastmile_qr_scan"}, "is_reserved": 0}, {"lon": -76.996108, "bike_id": "34f5048c81baa41f54a789c679bcfe79", "lat": 38.887012166666665, "fusion_lon": 0.0, "fusion_lat": 0.0, "type": "electric_scooter", "name": "34f5048c81baa41f54a789c679bcfe79", "is_disabled": 0, "rental_uris": {"ios": "https://dc.lft.to/lastmile_qr_scan", "android": "https://dc.lft.to/lastmile_qr_scan"}, "is_reserved": 0}, {"lon": -77.02447866666667, "bike_id": "6dd793a2e5a897a2596f030663bc4cc5", "lat": 38.914167, "fusion_lon": 0.0, "fusion_lat": 0.0, "type": "electric_scooter", "name": "6dd793a2e5a897a2596f030663bc4cc5", "is_disabled": 0, "rental_uris": {"ios": "https://dc.lft.to/lastmile_qr_scan", "android": "https://dc.lft.to/lastmile_qr_scan"}, "is_reserved": 0}, {"lon": -77.05991783333333, "bike_id": "6870b9fa1fc18e6c2c52f39603cd4345", "lat": 38.9022905, "fusion_lon": 0.0, "fusion_lat": 0.0, "type": "electric_scooter", "name": "6870b9fa1fc18e6c2c52f39603cd4345", "is_disabled": 0, "rental_uris": {"ios": "https://dc.lft.to/lastmile_qr_scan", "android": "https://dc.lft.to/lastmile_qr_scan"}, "is_reserved": 0}, {"lon": -77.04601166666667, "bike_id": "9baeea4665444d6b7520b30d08dec00c", "lat": 38.915721, "fusion_lon": 0.0, "fusion_lat": 0.0, "type": "electric_scooter", "name": "9baeea4665444d6b7520b30d08dec00c", "is_disabled": 0, "rental_uris": {"ios": "https://dc.lft.to/lastmile_qr_scan", "android": "https://dc.lft.to/lastmile_qr_scan"}, "is_reserved": 0}, {"lon": -77.011065, "bike_id": "197cd2464211a486ef503fc1ff587d15", "lat": 38.899938166666665, "fusion_lon": 0.0, "fusion_lat": 0.0, "type": "electric_scooter", "name": "197cd2464211a486ef503fc1ff587d15", "is_disabled": 0, "rental_uris": {"ios": "https://dc.lft.to/lastmile_qr_scan", "android": "https://dc.lft.to/lastmile_qr_scan"}, "is_reserved": 0}, {"lon": -77.01604366666666, "bike_id": "19de9f575d923f449197790b7fdc1cf3", "lat": 38.90179, "fusion_lon": 0.0, "fusion_lat": 0.0, "type": "electric_scooter", "name": "19de9f575d923f449197790b7fdc1cf3", "is_disabled": 0, "rental_uris": {"ios": "https://dc.lft.to/lastmile_qr_scan", "android": "https://dc.lft.to/lastmile_qr_scan"}, "is_reserved": 0}, {"lon": -77.02962183333334, "bike_id": "a7a00450b536194062b4b237a3ad595d", "lat": 38.923905, "fusion_lon": 0.0, "fusion_lat": 0.0, "type": "electric_scooter", "name": "a7a00450b536194062b4b237a3ad595d", "is_disabled": 0, "rental_uris": {"ios": "https://dc.lft.to/lastmile_qr_scan", "android": "https://dc.lft.to/lastmile_qr_scan"}, "is_reserved": 0}, {"lon": -77.0251245, "bike_id": "342077fbfbfde3aeb4bff7983674596d", "lat": 38.93090983333333, "fusion_lon": 0.0, "fusion_lat": 0.0, "type": "electric_scooter", "name": "342077fbfbfde3aeb4bff7983674596d", "is_disabled": 0, "rental_uris": {"ios": "https://dc.lft.to/lastmile_qr_scan", "android": "https://dc.lft.to/lastmile_qr_scan"}, "is_reserved": 0}, {"lon": -77.031724, "bike_id": "10f2e20754a181419b63cea41441788f", "lat": 38.914156, "fusion_lon": 0.0, "fusion_lat": 0.0, "type": "electric_scooter", "name": "10f2e20754a181419b63cea41441788f", "is_disabled": 0, "rental_uris": {"ios": "https://dc.lft.to/lastmile_qr_scan", "android": "https://dc.lft.to/lastmile_qr_scan"}, "is_reserved": 0}, {"lon": -77.01786316666667, "bike_id": "538c4e579c6dd6252cb5b731ef2c7e86", "lat": 38.87710533333333, "fusion_lon": 0.0, "fusion_lat": 0.0, "type": "electric_scooter", "name": "538c4e579c6dd6252cb5b731ef2c7e86", "is_disabled": 0, "rental_uris": {"ios": "https://dc.lft.to/lastmile_qr_scan", "android": "https://dc.lft.to/lastmile_qr_scan"}, "is_reserved": 0}, {"lon": -77.03986633333334, "bike_id": "b209aa3ad2c12be079508f5ac7ffb3eb", "lat": 38.89223066666667, "fusion_lon": 0.0, "fusion_lat": 0.0, "type": "electric_scooter", "name": "b209aa3ad2c12be079508f5ac7ffb3eb", "is_disabled": 0, "rental_uris": {"ios": "https://dc.lft.to/lastmile_qr_scan", "android": "https://dc.lft.to/lastmile_qr_scan"}, "is_reserved": 0}, {"lon": -77.0294815, "bike_id": "87ae5f0186dcad4f5ac4670ef82f23b1", "lat": 38.923715, "fusion_lon": 0.0, "fusion_lat": 0.0, "type": "electric_scooter", "name": "87ae5f0186dcad4f5ac4670ef82f23b1", "is_disabled": 0, "rental_uris": {"ios": "https://dc.lft.to/lastmile_qr_scan", "android": "https://dc.lft.to/lastmile_qr_scan"}, "is_reserved": 0}, {"lon": -76.93363283333333, "bike_id": "ff8840ee1dcdd2eeb2a17ff942902ade", "lat": 38.88795483333333, "fusion_lon": 0.0, "fusion_lat": 0.0, "type": "electric_scooter", "name": "ff8840ee1dcdd2eeb2a17ff942902ade", "is_disabled": 0, "rental_uris": {"ios": "https://dc.lft.to/lastmile_qr_scan", "android": "https://dc.lft.to/lastmile_qr_scan"}, "is_reserved": 0}, {"lon": -77.04791266666666, "bike_id": "fe4946b22d51be002a7d3e4b82ce8695", "lat": 38.909708333333334, "fusion_lon": 0.0, "fusion_lat": 0.0, "type": "electric_scooter", "name": "fe4946b22d51be002a7d3e4b82ce8695", "is_disabled": 0, "rental_uris": {"ios": "https://dc.lft.to/lastmile_qr_scan", "android": "https://dc.lft.to/lastmile_qr_scan"}, "is_reserved": 0}, {"lon": -77.01000816666667, "bike_id": "b6845ef6cfa7f85c4fd885ace2b0702f", "lat": 38.91924816666667, "fusion_lon": 0.0, "fusion_lat": 0.0, "type": "electric_scooter", "name": "b6845ef6cfa7f85c4fd885ace2b0702f", "is_disabled": 0, "rental_uris": {"ios": "https://dc.lft.to/lastmile_qr_scan", "android": "https://dc.lft.to/lastmile_qr_scan"}, "is_reserved": 0}, {"lon": -77.04256383333333, "bike_id": "95740405ab153ece21c9ae32b30e6291", "lat": 38.90735266666667, "fusion_lon": 0.0, "fusion_lat": 0.0, "type": "electric_scooter", "name": "95740405ab153ece21c9ae32b30e6291", "is_disabled": 0, "rental_uris": {"ios": "https://dc.lft.to/lastmile_qr_scan", "android": "https://dc.lft.to/lastmile_qr_scan"}, "is_reserved": 0}, {"lon": -76.94635516666666, "bike_id": "e71f0f1988071d30e4719d6be92e6d45", "lat": 38.898337166666664, "fusion_lon": 0.0, "fusion_lat": 0.0, "type": "electric_scooter", "name": "e71f0f1988071d30e4719d6be92e6d45", "is_disabled": 0, "rental_uris": {"ios": "https://dc.lft.to/lastmile_qr_scan", "android": "https://dc.lft.to/lastmile_qr_scan"}, "is_reserved": 0}, {"lon": -77.02118666666667, "bike_id": "c588515650e9beb580ed7e36dfb572df", "lat": 38.90969883333333, "fusion_lon": 0.0, "fusion_lat": 0.0, "type": "electric_scooter", "name": "c588515650e9beb580ed7e36dfb572df", "is_disabled": 0, "rental_uris": {"ios": "https://dc.lft.to/lastmile_qr_scan", "android": "https://dc.lft.to/lastmile_qr_scan"}, "is_reserved": 0}, {"lon": -77.02141833333333, "bike_id": "ac946acb9b94f10fa7a4eb167d164e4f", "lat": 38.9008645, "fusion_lon": 0.0, "fusion_lat": 0.0, "type": "electric_scooter", "name": "ac946acb9b94f10fa7a4eb167d164e4f", "is_disabled": 0, "rental_uris": {"ios": "https://dc.lft.to/lastmile_qr_scan", "android": "https://dc.lft.to/lastmile_qr_scan"}, "is_reserved": 0}, {"lon": -77.058598, "bike_id": "cea6e205d680978e7672cc95bd4a32e7", "lat": 38.936071, "fusion_lon": 0.0, "fusion_lat": 0.0, "type": "electric_scooter", "name": "cea6e205d680978e7672cc95bd4a32e7", "is_disabled": 0, "rental_uris": {"ios": "https://dc.lft.to/lastmile_qr_scan", "android": "https://dc.lft.to/lastmile_qr_scan"}, "is_reserved": 0}, {"lon": -77.027579, "bike_id": "aaeffcdf28e0fbed88d05a2d36dd221e", "lat": 38.944004166666666, "fusion_lon": 0.0, "fusion_lat": 0.0, "type": "electric_scooter", "name": "aaeffcdf28e0fbed88d05a2d36dd221e", "is_disabled": 0, "rental_uris": {"ios": "https://dc.lft.to/lastmile_qr_scan", "android": "https://dc.lft.to/lastmile_qr_scan"}, "is_reserved": 0}, {"lon": -77.02468933333333, "bike_id": "d204f6fa647157869d9014ceed8baf7e", "lat": 38.9010115, "fusion_lon": 0.0, "fusion_lat": 0.0, "type": "electric_scooter", "name": "d204f6fa647157869d9014ceed8baf7e", "is_disabled": 0, "rental_uris": {"ios": "https://dc.lft.to/lastmile_qr_scan", "android": "https://dc.lft.to/lastmile_qr_scan"}, "is_reserved": 0}, {"lon": -77.0395695, "bike_id": "5a916f3b6a2bc6285d91396c80c1ac33", "lat": 38.89906883333333, "fusion_lon": 0.0, "fusion_lat": 0.0, "type": "electric_scooter", "name": "5a916f3b6a2bc6285d91396c80c1ac33", "is_disabled": 0, "rental_uris": {"ios": "https://dc.lft.to/lastmile_qr_scan", "android": "https://dc.lft.to/lastmile_qr_scan"}, "is_reserved": 0}, {"lon": -77.0307005, "bike_id": "66c9f79eb86ebe287a44f236fe5781ec", "lat": 38.90262033333333, "fusion_lon": 0.0, "fusion_lat": 0.0, "type": "electric_scooter", "name": "66c9f79eb86ebe287a44f236fe5781ec", "is_disabled": 0, "rental_uris": {"ios": "https://dc.lft.to/lastmile_qr_scan", "android": "https://dc.lft.to/lastmile_qr_scan"}, "is_reserved": 0}, {"lon": -77.03241383333334, "bike_id": "9f50b3268ab460d5971eac929243651d", "lat": 38.915617833333336, "fusion_lon": 0.0, "fusion_lat": 0.0, "type": "electric_scooter", "name": "9f50b3268ab460d5971eac929243651d", "is_disabled": 0, "rental_uris": {"ios": "https://dc.lft.to/lastmile_qr_scan", "android": "https://dc.lft.to/lastmile_qr_scan"}, "is_reserved": 0}, {"lon": -77.03411983333334, "bike_id": "7e6a74729bf9f12ca177b147d4cc6e8d", "lat": 38.92324283333333, "fusion_lon": 0.0, "fusion_lat": 0.0, "type": "electric_scooter", "name": "7e6a74729bf9f12ca177b147d4cc6e8d", "is_disabled": 0, "rental_uris": {"ios": "https://dc.lft.to/lastmile_qr_scan", "android": "https://dc.lft.to/lastmile_qr_scan"}, "is_reserved": 0}, {"lon": -77.03827216666667, "bike_id": "da0590b30d5e83fadc3f6b6b303da49a", "lat": 38.90672466666667, "fusion_lon": 0.0, "fusion_lat": 0.0, "type": "electric_scooter", "name": "da0590b30d5e83fadc3f6b6b303da49a", "is_disabled": 0, "rental_uris": {"ios": "https://dc.lft.to/lastmile_qr_scan", "android": "https://dc.lft.to/lastmile_qr_scan"}, "is_reserved": 0}, {"lon": -77.02389433333333, "bike_id": "b19da66fb831ed447117ebc1fe6ff9e1", "lat": 38.91995983333333, "fusion_lon": 0.0, "fusion_lat": 0.0, "type": "electric_scooter", "name": "b19da66fb831ed447117ebc1fe6ff9e1", "is_disabled": 0, "rental_uris": {"ios": "https://dc.lft.to/lastmile_qr_scan", "android": "https://dc.lft.to/lastmile_qr_scan"}, "is_reserved": 0}, {"lon": -77.05268183333334, "bike_id": "6158d0de95eb1f9412c075b0c9cc5db3", "lat": 38.9277815, "fusion_lon": 0.0, "fusion_lat": 0.0, "type": "electric_scooter", "name": "6158d0de95eb1f9412c075b0c9cc5db3", "is_disabled": 0, "rental_uris": {"ios": "https://dc.lft.to/lastmile_qr_scan", "android": "https://dc.lft.to/lastmile_qr_scan"}, "is_reserved": 0}, {"lon": -76.9753535, "bike_id": "de938cb8e9465eb11e3f17a0b494ad86", "lat": 38.903324166666664, "fusion_lon": 0.0, "fusion_lat": 0.0, "type": "electric_bike", "name": "de938cb8e9465eb11e3f17a0b494ad86", "is_disabled": 0, "rental_uris": {"ios": "https://dc.lft.to/lastmile_qr_scan", "android": "https://dc.lft.to/lastmile_qr_scan"}, "is_reserved": 0}, {"lon": -77.017535, "bike_id": "371a22db46a759f7f292f3d19eec1745", "lat": 38.9027115, "fusion_lon": 0.0, "fusion_lat": 0.0, "type": "electric_scooter", "name": "371a22db46a759f7f292f3d19eec1745", "is_disabled": 0, "rental_uris": {"ios": "https://dc.lft.to/lastmile_qr_scan", "android": "https://dc.lft.to/lastmile_qr_scan"}, "is_reserved": 0}, {"lon": -77.03142633333333, "bike_id": "6df2b345b5a87cdb312bb57c32782297", "lat": 38.91563683333333, "fusion_lon": 0.0, "fusion_lat": 0.0, "type": "electric_scooter", "name": "6df2b345b5a87cdb312bb57c32782297", "is_disabled": 0, "rental_uris": {"ios": "https://dc.lft.to/lastmile_qr_scan", "android": "https://dc.lft.to/lastmile_qr_scan"}, "is_reserved": 0}, {"lon": -77.04241133333333, "bike_id": "11427a30cc396dbc23f311163b7150e5", "lat": 38.909590666666666, "fusion_lon": 0.0, "fusion_lat": 0.0, "type": "electric_scooter", "name": "11427a30cc396dbc23f311163b7150e5", "is_disabled": 0, "rental_uris": {"ios": "https://dc.lft.to/lastmile_qr_scan", "android": "https://dc.lft.to/lastmile_qr_scan"}, "is_reserved": 0}, {"lon": -77.03916616666666, "bike_id": "c12512b2164d189a0b7dbb5d546698e4", "lat": 38.918485, "fusion_lon": 0.0, "fusion_lat": 0.0, "type": "electric_scooter", "name": "c12512b2164d189a0b7dbb5d546698e4", "is_disabled": 0, "rental_uris": {"ios": "https://dc.lft.to/lastmile_qr_scan", "android": "https://dc.lft.to/lastmile_qr_scan"}, "is_reserved": 0}, {"lon": -77.00131966666666, "bike_id": "84a3fcf69c795558380edb72489c40ef", "lat": 38.885255, "fusion_lon": 0.0, "fusion_lat": 0.0, "type": "electric_scooter", "name": "84a3fcf69c795558380edb72489c40ef", "is_disabled": 0, "rental_uris": {"ios": "https://dc.lft.to/lastmile_qr_scan", "android": "https://dc.lft.to/lastmile_qr_scan"}, "is_reserved": 0}, {"lon": -77.03593233333334, "bike_id": "53eb61ae1615fc7443b7e5ed3022be81", "lat": 38.90971233333333, "fusion_lon": 0.0, "fusion_lat": 0.0, "type": "electric_scooter", "name": "53eb61ae1615fc7443b7e5ed3022be81", "is_disabled": 0, "rental_uris": {"ios": "https://dc.lft.to/lastmile_qr_scan", "android": "https://dc.lft.to/lastmile_qr_scan"}, "is_reserved": 0}, {"lon": -77.04991, "bike_id": "88a254fca33afc0e1bd6f5c2f601c071", "lat": 38.900101666666664, "fusion_lon": 0.0, "fusion_lat": 0.0, "type": "electric_scooter", "name": "88a254fca33afc0e1bd6f5c2f601c071", "is_disabled": 0, "rental_uris": {"ios": "https://dc.lft.to/lastmile_qr_scan", "android": "https://dc.lft.to/lastmile_qr_scan"}, "is_reserved": 0}, {"lon": -76.969988, "bike_id": "1b0029f82b47107d222670a2ea71dd82", "lat": 38.873732833333335, "fusion_lon": 0.0, "fusion_lat": 0.0, "type": "electric_scooter", "name": "1b0029f82b47107d222670a2ea71dd82", "is_disabled": 0, "rental_uris": {"ios": "https://dc.lft.to/lastmile_qr_scan", "android": "https://dc.lft.to/lastmile_qr_scan"}, "is_reserved": 0}, {"lon": -77.07794216666667, "bike_id": "df3e82ba33f49a7503c346cc7e04df26", "lat": 38.9960385, "fusion_lon": 0.0, "fusion_lat": 0.0, "type": "electric_bike", "name": "df3e82ba33f49a7503c346cc7e04df26", "is_disabled": 0, "rental_uris": {"ios": "https://dc.lft.to/lastmile_qr_scan", "android": "https://dc.lft.to/lastmile_qr_scan"}, "is_reserved": 0}, {"lon": -77.00598583333333, "bike_id": "1b039143784d6685707bb3d2b6361325", "lat": 38.87182583333333, "fusion_lon": 0.0, "fusion_lat": 0.0, "type": "electric_bike", "name": "1b039143784d6685707bb3d2b6361325", "is_disabled": 0, "rental_uris": {"ios": "https://dc.lft.to/lastmile_qr_scan", "android": "https://dc.lft.to/lastmile_qr_scan"}, "is_reserved": 0}, {"lon": -76.97748, "bike_id": "ba007823d85a0a43c7f853168ccdddcd", "lat": 38.898985, "fusion_lon": 0.0, "fusion_lat": 0.0, "type": "electric_scooter", "name": "ba007823d85a0a43c7f853168ccdddcd", "is_disabled": 0, "rental_uris": {"ios": "https://dc.lft.to/lastmile_qr_scan", "android": "https://dc.lft.to/lastmile_qr_scan"}, "is_reserved": 0}, {"lon": -77.061287, "bike_id": "90a07088d5dc757fccc38e36742fb46b", "lat": 38.94360316666667, "fusion_lon": 0.0, "fusion_lat": 0.0, "type": "electric_scooter", "name": "90a07088d5dc757fccc38e36742fb46b", "is_disabled": 0, "rental_uris": {"ios": "https://dc.lft.to/lastmile_qr_scan", "android": "https://dc.lft.to/lastmile_qr_scan"}, "is_reserved": 0}, {"lon": -77.03474683333333, "bike_id": "903e21d6376c7cb5b143dbe3dae029b1", "lat": 38.92742333333333, "fusion_lon": 0.0, "fusion_lat": 0.0, "type": "electric_scooter", "name": "903e21d6376c7cb5b143dbe3dae029b1", "is_disabled": 0, "rental_uris": {"ios": "https://dc.lft.to/lastmile_qr_scan", "android": "https://dc.lft.to/lastmile_qr_scan"}, "is_reserved": 0}, {"lon": -77.024286, "bike_id": "b4f409c89f3c5fef436fc14e1d94c926", "lat": 38.93753066666667, "fusion_lon": 0.0, "fusion_lat": 0.0, "type": "electric_scooter", "name": "b4f409c89f3c5fef436fc14e1d94c926", "is_disabled": 0, "rental_uris": {"ios": "https://dc.lft.to/lastmile_qr_scan", "android": "https://dc.lft.to/lastmile_qr_scan"}, "is_reserved": 0}, {"lon": -77.02010233333333, "bike_id": "9c96102aebe40d96045103e0e0cf27d4", "lat": 38.88611216666666, "fusion_lon": 0.0, "fusion_lat": 0.0, "type": "electric_scooter", "name": "9c96102aebe40d96045103e0e0cf27d4", "is_disabled": 0, "rental_uris": {"ios": "https://dc.lft.to/lastmile_qr_scan", "android": "https://dc.lft.to/lastmile_qr_scan"}, "is_reserved": 0}, {"lon": -77.044645, "bike_id": "cbf60de57847d9a9b72f6351d11af3a7", "lat": 38.908671166666664, "fusion_lon": 0.0, "fusion_lat": 0.0, "type": "electric_scooter", "name": "cbf60de57847d9a9b72f6351d11af3a7", "is_disabled": 0, "rental_uris": {"ios": "https://dc.lft.to/lastmile_qr_scan", "android": "https://dc.lft.to/lastmile_qr_scan"}, "is_reserved": 0}, {"lon": -77.0243055, "bike_id": "8ad55532d76f9980579b489b05477c01", "lat": 38.922896, "fusion_lon": 0.0, "fusion_lat": 0.0, "type": "electric_scooter", "name": "8ad55532d76f9980579b489b05477c01", "is_disabled": 0, "rental_uris": {"ios": "https://dc.lft.to/lastmile_qr_scan", "android": "https://dc.lft.to/lastmile_qr_scan"}, "is_reserved": 0}, {"lon": -77.02858266666667, "bike_id": "0c428cb41508ee0a7de959805f94e080", "lat": 38.933261, "fusion_lon": 0.0, "fusion_lat": 0.0, "type": "electric_scooter", "name": "0c428cb41508ee0a7de959805f94e080", "is_disabled": 0, "rental_uris": {"ios": "https://dc.lft.to/lastmile_qr_scan", "android": "https://dc.lft.to/lastmile_qr_scan"}, "is_reserved": 0}, {"lon": -76.987156, "bike_id": "0d60340d122159e5f79fd73ba379dd93", "lat": 38.866284666666665, "fusion_lon": 0.0, "fusion_lat": 0.0, "type": "electric_scooter", "name": "0d60340d122159e5f79fd73ba379dd93", "is_disabled": 0, "rental_uris": {"ios": "https://dc.lft.to/lastmile_qr_scan", "android": "https://dc.lft.to/lastmile_qr_scan"}, "is_reserved": 0}, {"lon": -77.02212233333333, "bike_id": "e7c69b348002afe2c0eb4b86002d6d56", "lat": 38.90037183333333, "fusion_lon": 0.0, "fusion_lat": 0.0, "type": "electric_scooter", "name": "e7c69b348002afe2c0eb4b86002d6d56", "is_disabled": 0, "rental_uris": {"ios": "https://dc.lft.to/lastmile_qr_scan", "android": "https://dc.lft.to/lastmile_qr_scan"}, "is_reserved": 0}, {"lon": -77.00020833333333, "bike_id": "ef7a834402dd2c44de648c245f2b99ad", "lat": 38.919761, "fusion_lon": 0.0, "fusion_lat": 0.0, "type": "electric_scooter", "name": "ef7a834402dd2c44de648c245f2b99ad", "is_disabled": 0, "rental_uris": {"ios": "https://dc.lft.to/lastmile_qr_scan", "android": "https://dc.lft.to/lastmile_qr_scan"}, "is_reserved": 0}, {"lon": -77.0743255, "bike_id": "6806322068697c78c819dcfda0aa3bae", "lat": 38.999471166666666, "fusion_lon": 0.0, "fusion_lat": 0.0, "type": "electric_bike", "name": "6806322068697c78c819dcfda0aa3bae", "is_disabled": 0, "rental_uris": {"ios": "https://dc.lft.to/lastmile_qr_scan", "android": "https://dc.lft.to/lastmile_qr_scan"}, "is_reserved": 0}, {"lon": -76.949259, "bike_id": "4a1f8446f698d3c5bf83f0f556e04ac7", "lat": 38.89355833333333, "fusion_lon": 0.0, "fusion_lat": 0.0, "type": "electric_scooter", "name": "4a1f8446f698d3c5bf83f0f556e04ac7", "is_disabled": 0, "rental_uris": {"ios": "https://dc.lft.to/lastmile_qr_scan", "android": "https://dc.lft.to/lastmile_qr_scan"}, "is_reserved": 0}, {"lon": -77.020061, "bike_id": "4dc36774c048055a8ee6068aa2fd2d30", "lat": 38.924180666666665, "fusion_lon": 0.0, "fusion_lat": 0.0, "type": "electric_scooter", "name": "4dc36774c048055a8ee6068aa2fd2d30", "is_disabled": 0, "rental_uris": {"ios": "https://dc.lft.to/lastmile_qr_scan", "android": "https://dc.lft.to/lastmile_qr_scan"}, "is_reserved": 0}, {"lon": -77.00974266666667, "bike_id": "4cdced1de5b2578f3a862fefe1471494", "lat": 38.894845833333335, "fusion_lon": 0.0, "fusion_lat": 0.0, "type": "electric_scooter", "name": "4cdced1de5b2578f3a862fefe1471494", "is_disabled": 0, "rental_uris": {"ios": "https://dc.lft.to/lastmile_qr_scan", "android": "https://dc.lft.to/lastmile_qr_scan"}, "is_reserved": 0}, {"lon": -77.01381766666667, "bike_id": "574f81b6a1e7067bec12c728490c5fe2", "lat": 38.886744, "fusion_lon": 0.0, "fusion_lat": 0.0, "type": "electric_scooter", "name": "574f81b6a1e7067bec12c728490c5fe2", "is_disabled": 0, "rental_uris": {"ios": "https://dc.lft.to/lastmile_qr_scan", "android": "https://dc.lft.to/lastmile_qr_scan"}, "is_reserved": 0}, {"lon": -77.05862316666666, "bike_id": "d369079dd66c82eb33605adc04387248", "lat": 38.93606483333333, "fusion_lon": 0.0, "fusion_lat": 0.0, "type": "electric_scooter", "name": "d369079dd66c82eb33605adc04387248", "is_disabled": 0, "rental_uris": {"ios": "https://dc.lft.to/lastmile_qr_scan", "android": "https://dc.lft.to/lastmile_qr_scan"}, "is_reserved": 0}, {"lon": -77.03327633333333, "bike_id": "d92417c074adaac67fea78cbe9e4bea0", "lat": 38.91975983333333, "fusion_lon": 0.0, "fusion_lat": 0.0, "type": "electric_scooter", "name": "d92417c074adaac67fea78cbe9e4bea0", "is_disabled": 0, "rental_uris": {"ios": "https://dc.lft.to/lastmile_qr_scan", "android": "https://dc.lft.to/lastmile_qr_scan"}, "is_reserved": 0}, {"lon": -77.06406, "bike_id": "4eea75c6d3577c29700bd2e94a1b7c51", "lat": 38.907829166666666, "fusion_lon": 0.0, "fusion_lat": 0.0, "type": "electric_scooter", "name": "4eea75c6d3577c29700bd2e94a1b7c51", "is_disabled": 0, "rental_uris": {"ios": "https://dc.lft.to/lastmile_qr_scan", "android": "https://dc.lft.to/lastmile_qr_scan"}, "is_reserved": 0}, {"lon": -77.05809616666667, "bike_id": "e886a7ac3f447afe192d00dd60de9918", "lat": 38.82393283333333, "fusion_lon": 0.0, "fusion_lat": 0.0, "type": "electric_bike", "name": "e886a7ac3f447afe192d00dd60de9918", "is_disabled": 0, "rental_uris": {"ios": "https://dc.lft.to/lastmile_qr_scan", "android": "https://dc.lft.to/lastmile_qr_scan"}, "is_reserved": 0}, {"lon": -77.029729, "bike_id": "a7a586064dc793242aee706c99f6f39c", "lat": 38.91670416666667, "fusion_lon": 0.0, "fusion_lat": 0.0, "type": "electric_scooter", "name": "a7a586064dc793242aee706c99f6f39c", "is_disabled": 0, "rental_uris": {"ios": "https://dc.lft.to/lastmile_qr_scan", "android": "https://dc.lft.to/lastmile_qr_scan"}, "is_reserved": 0}, {"lon": -77.041602, "bike_id": "fd2a70243decd21b668e1bf9815e08d3", "lat": 38.91815883333334, "fusion_lon": 0.0, "fusion_lat": 0.0, "type": "electric_scooter", "name": "fd2a70243decd21b668e1bf9815e08d3", "is_disabled": 0, "rental_uris": {"ios": "https://dc.lft.to/lastmile_qr_scan", "android": "https://dc.lft.to/lastmile_qr_scan"}, "is_reserved": 0}, {"lon": -77.04495416666667, "bike_id": "4aa7c0d33571ce7976c60f24952fabce", "lat": 38.913705, "fusion_lon": 0.0, "fusion_lat": 0.0, "type": "electric_scooter", "name": "4aa7c0d33571ce7976c60f24952fabce", "is_disabled": 0, "rental_uris": {"ios": "https://dc.lft.to/lastmile_qr_scan", "android": "https://dc.lft.to/lastmile_qr_scan"}, "is_reserved": 0}, {"lon": -77.03880533333333, "bike_id": "adff42aea268f5c79c7d2c475c6e2819", "lat": 38.93186716666666, "fusion_lon": 0.0, "fusion_lat": 0.0, "type": "electric_scooter", "name": "adff42aea268f5c79c7d2c475c6e2819", "is_disabled": 0, "rental_uris": {"ios": "https://dc.lft.to/lastmile_qr_scan", "android": "https://dc.lft.to/lastmile_qr_scan"}, "is_reserved": 0}, {"lon": -76.94192966666667, "bike_id": "1fc199d26d788b9c0f712b11520c8106", "lat": 38.893132666666666, "fusion_lon": 0.0, "fusion_lat": 0.0, "type": "electric_bike", "name": "1fc199d26d788b9c0f712b11520c8106", "is_disabled": 0, "rental_uris": {"ios": "https://dc.lft.to/lastmile_qr_scan", "android": "https://dc.lft.to/lastmile_qr_scan"}, "is_reserved": 0}, {"lon": -77.013281, "bike_id": "63c0d0876ad93386b6cd13053e3409e8", "lat": 38.900341833333336, "fusion_lon": 0.0, "fusion_lat": 0.0, "type": "electric_scooter", "name": "63c0d0876ad93386b6cd13053e3409e8", "is_disabled": 0, "rental_uris": {"ios": "https://dc.lft.to/lastmile_qr_scan", "android": "https://dc.lft.to/lastmile_qr_scan"}, "is_reserved": 0}, {"lon": -77.00210583333333, "bike_id": "a4f561d55578a0f86e9ce9db4c4fa5f8", "lat": 38.914650333333334, "fusion_lon": 0.0, "fusion_lat": 0.0, "type": "electric_scooter", "name": "a4f561d55578a0f86e9ce9db4c4fa5f8", "is_disabled": 0, "rental_uris": {"ios": "https://dc.lft.to/lastmile_qr_scan", "android": "https://dc.lft.to/lastmile_qr_scan"}, "is_reserved": 0}, {"lon": -76.99920316666666, "bike_id": "8b4f32f1d9016d4234d5c55b4c33e6e8", "lat": 38.889764666666665, "fusion_lon": 0.0, "fusion_lat": 0.0, "type": "electric_scooter", "name": "8b4f32f1d9016d4234d5c55b4c33e6e8", "is_disabled": 0, "rental_uris": {"ios": "https://dc.lft.to/lastmile_qr_scan", "android": "https://dc.lft.to/lastmile_qr_scan"}, "is_reserved": 0}, {"lon": -77.00071933333334, "bike_id": "939d498add8ed35918c3b60855a0cf17", "lat": 38.901394333333336, "fusion_lon": 0.0, "fusion_lat": 0.0, "type": "electric_scooter", "name": "939d498add8ed35918c3b60855a0cf17", "is_disabled": 0, "rental_uris": {"ios": "https://dc.lft.to/lastmile_qr_scan", "android": "https://dc.lft.to/lastmile_qr_scan"}, "is_reserved": 0}, {"lon": -76.98248383333333, "bike_id": "a3809e56cac2c1c7d237d5414852d6f9", "lat": 38.8645915, "fusion_lon": 0.0, "fusion_lat": 0.0, "type": "electric_scooter", "name": "a3809e56cac2c1c7d237d5414852d6f9", "is_disabled": 0, "rental_uris": {"ios": "https://dc.lft.to/lastmile_qr_scan", "android": "https://dc.lft.to/lastmile_qr_scan"}, "is_reserved": 0}, {"lon": -77.03666983333333, "bike_id": "2d5517e40ff45b2306e0190d44649a27", "lat": 38.933437833333336, "fusion_lon": 0.0, "fusion_lat": 0.0, "type": "electric_scooter", "name": "2d5517e40ff45b2306e0190d44649a27", "is_disabled": 0, "rental_uris": {"ios": "https://dc.lft.to/lastmile_qr_scan", "android": "https://dc.lft.to/lastmile_qr_scan"}, "is_reserved": 0}, {"lon": -77.0233815, "bike_id": "ae1697358df26e105368425746ecf209", "lat": 38.908544, "fusion_lon": 0.0, "fusion_lat": 0.0, "type": "electric_scooter", "name": "ae1697358df26e105368425746ecf209", "is_disabled": 0, "rental_uris": {"ios": "https://dc.lft.to/lastmile_qr_scan", "android": "https://dc.lft.to/lastmile_qr_scan"}, "is_reserved": 0}, {"lon": -77.032697, "bike_id": "53d2c6ef7bae529f9c23b50b19f1246d", "lat": 38.92910766666667, "fusion_lon": 0.0, "fusion_lat": 0.0, "type": "electric_scooter", "name": "53d2c6ef7bae529f9c23b50b19f1246d", "is_disabled": 0, "rental_uris": {"ios": "https://dc.lft.to/lastmile_qr_scan", "android": "https://dc.lft.to/lastmile_qr_scan"}, "is_reserved": 0}, {"lon": -77.00359183333333, "bike_id": "cab8bb379e00604b7647b70ecb2f95ec", "lat": 38.895399, "fusion_lon": 0.0, "fusion_lat": 0.0, "type": "electric_scooter", "name": "cab8bb379e00604b7647b70ecb2f95ec", "is_disabled": 0, "rental_uris": {"ios": "https://dc.lft.to/lastmile_qr_scan", "android": "https://dc.lft.to/lastmile_qr_scan"}, "is_reserved": 0}, {"lon": -77.0293535, "bike_id": "d1a82cbbe1f1d4bbd0ab7ff1eb0f86ed", "lat": 38.916966, "fusion_lon": 0.0, "fusion_lat": 0.0, "type": "electric_scooter", "name": "d1a82cbbe1f1d4bbd0ab7ff1eb0f86ed", "is_disabled": 0, "rental_uris": {"ios": "https://dc.lft.to/lastmile_qr_scan", "android": "https://dc.lft.to/lastmile_qr_scan"}, "is_reserved": 0}, {"lon": -77.009575, "bike_id": "7f202f0d46f70e17aaed97e8c4693c2c", "lat": 38.9213995, "fusion_lon": 0.0, "fusion_lat": 0.0, "type": "electric_scooter", "name": "7f202f0d46f70e17aaed97e8c4693c2c", "is_disabled": 0, "rental_uris": {"ios": "https://dc.lft.to/lastmile_qr_scan", "android": "https://dc.lft.to/lastmile_qr_scan"}, "is_reserved": 0}, {"lon": -76.99785416666667, "bike_id": "91dff7b1c52c448030f5f5fd20b25129", "lat": 38.890891833333335, "fusion_lon": 0.0, "fusion_lat": 0.0, "type": "electric_scooter", "name": "91dff7b1c52c448030f5f5fd20b25129", "is_disabled": 0, "rental_uris": {"ios": "https://dc.lft.to/lastmile_qr_scan", "android": "https://dc.lft.to/lastmile_qr_scan"}, "is_reserved": 0}, {"lon": -76.99919016666666, "bike_id": "a3603d1e4dbcc43a4666f983b1bc14f9", "lat": 38.90772283333333, "fusion_lon": 0.0, "fusion_lat": 0.0, "type": "electric_scooter", "name": "a3603d1e4dbcc43a4666f983b1bc14f9", "is_disabled": 0, "rental_uris": {"ios": "https://dc.lft.to/lastmile_qr_scan", "android": "https://dc.lft.to/lastmile_qr_scan"}, "is_reserved": 0}, {"lon": -76.9811015, "bike_id": "3b6577a610fe494dcaf6a7c3f8228d82", "lat": 38.87730083333334, "fusion_lon": 0.0, "fusion_lat": 0.0, "type": "electric_bike", "name": "3b6577a610fe494dcaf6a7c3f8228d82", "is_disabled": 0, "rental_uris": {"ios": "https://dc.lft.to/lastmile_qr_scan", "android": "https://dc.lft.to/lastmile_qr_scan"}, "is_reserved": 0}, {"lon": -77.03341716666667, "bike_id": "41e9599d5da66bd433ff81a9d94b1b04", "lat": 38.9351895, "fusion_lon": 0.0, "fusion_lat": 0.0, "type": "electric_scooter", "name": "41e9599d5da66bd433ff81a9d94b1b04", "is_disabled": 0, "rental_uris": {"ios": "https://dc.lft.to/lastmile_qr_scan", "android": "https://dc.lft.to/lastmile_qr_scan"}, "is_reserved": 0}, {"lon": -77.0067995, "bike_id": "d9579e19dad7156b356a1ee994864acf", "lat": 38.945151333333335, "fusion_lon": 0.0, "fusion_lat": 0.0, "type": "electric_bike", "name": "d9579e19dad7156b356a1ee994864acf", "is_disabled": 0, "rental_uris": {"ios": "https://dc.lft.to/lastmile_qr_scan", "android": "https://dc.lft.to/lastmile_qr_scan"}, "is_reserved": 0}, {"lon": -77.01768366666667, "bike_id": "80222cb794d4d4b5a154540decd66c77", "lat": 38.88596533333333, "fusion_lon": 0.0, "fusion_lat": 0.0, "type": "electric_scooter", "name": "80222cb794d4d4b5a154540decd66c77", "is_disabled": 0, "rental_uris": {"ios": "https://dc.lft.to/lastmile_qr_scan", "android": "https://dc.lft.to/lastmile_qr_scan"}, "is_reserved": 0}, {"lon": -77.04156716666667, "bike_id": "42ce157946e197768f4f97fc74d0c110", "lat": 38.9193025, "fusion_lon": 0.0, "fusion_lat": 0.0, "type": "electric_scooter", "name": "42ce157946e197768f4f97fc74d0c110", "is_disabled": 0, "rental_uris": {"ios": "https://dc.lft.to/lastmile_qr_scan", "android": "https://dc.lft.to/lastmile_qr_scan"}, "is_reserved": 0}, {"lon": -77.02260166666667, "bike_id": "031fc41d84c9e8ee19203be297e295e8", "lat": 38.912752166666664, "fusion_lon": 0.0, "fusion_lat": 0.0, "type": "electric_scooter", "name": "031fc41d84c9e8ee19203be297e295e8", "is_disabled": 0, "rental_uris": {"ios": "https://dc.lft.to/lastmile_qr_scan", "android": "https://dc.lft.to/lastmile_qr_scan"}, "is_reserved": 0}, {"lon": -77.042257, "bike_id": "4d124fb1c6c120bb2abd4d17fa6beafa", "lat": 38.92129883333333, "fusion_lon": 0.0, "fusion_lat": 0.0, "type": "electric_scooter", "name": "4d124fb1c6c120bb2abd4d17fa6beafa", "is_disabled": 0, "rental_uris": {"ios": "https://dc.lft.to/lastmile_qr_scan", "android": "https://dc.lft.to/lastmile_qr_scan"}, "is_reserved": 0}, {"lon": -76.99749316666667, "bike_id": "390962ace76bfcdd63a1bad0d2c5dcbe", "lat": 38.900243333333336, "fusion_lon": 0.0, "fusion_lat": 0.0, "type": "electric_scooter", "name": "390962ace76bfcdd63a1bad0d2c5dcbe", "is_disabled": 0, "rental_uris": {"ios": "https://dc.lft.to/lastmile_qr_scan", "android": "https://dc.lft.to/lastmile_qr_scan"}, "is_reserved": 0}, {"lon": -77.03678183333334, "bike_id": "e8664d9436797e1c430c387c946e664e", "lat": 38.90579566666667, "fusion_lon": 0.0, "fusion_lat": 0.0, "type": "electric_scooter", "name": "e8664d9436797e1c430c387c946e664e", "is_disabled": 0, "rental_uris": {"ios": "https://dc.lft.to/lastmile_qr_scan", "android": "https://dc.lft.to/lastmile_qr_scan"}, "is_reserved": 0}, {"lon": -77.03843416666666, "bike_id": "72c605aa8bb3a58bf722e8f6fab49e1f", "lat": 38.910103, "fusion_lon": 0.0, "fusion_lat": 0.0, "type": "electric_scooter", "name": "72c605aa8bb3a58bf722e8f6fab49e1f", "is_disabled": 0, "rental_uris": {"ios": "https://dc.lft.to/lastmile_qr_scan", "android": "https://dc.lft.to/lastmile_qr_scan"}, "is_reserved": 0},