{"data": {"bikes": [{"fusion_lat": 0.0, "name": "f4340cba5e1773e6040e06a114187f3c", "is_disabled": 0, "rental_uris": {"android": "https://dc.lft.to/lastmile_qr_scan", "ios": "https://dc.lft.to/lastmile_qr_scan"}, "fusion_lon": 0.0, "lat": 38.9071165, "bike_id": "f4340cba5e1773e6040e06a114187f3c", "type": "electric_scooter", "is_reserved": 0, "lon": -77.03448333333333}, {"fusion_lat": 0.0, "name": "2f192abafea3cbe980c11644ce44de58", "is_disabled": 0, "rental_uris": {"android": "https://dc.lft.to/lastmile_qr_scan", "ios": "https://dc.lft.to/lastmile_qr_scan"}, "fusion_lon": 0.0, "lat": 38.917170166666665, "bike_id": "2f192abafea3cbe980c11644ce44de58", "type": "electric_scooter", "is_reserved": 0, "lon": -76.96870116666666}, {"fusion_lat": 0.0, "name": "8693f0e10d0c157dca16b165b0a2cb5f", "is_disabled": 0, "rental_uris": {"android": "https://dc.lft.to/lastmile_qr_scan", "ios": "https://dc.lft.to/lastmile_qr_scan"}, "fusion_lon": 0.0, "lat": 38.905828666666665, "bike_id": "8693f0e10d0c157dca16b165b0a2cb5f", "type": "electric_scooter", "is_reserved": 0, "lon": -77.06615}, {"fusion_lat": 0.0, "name": "48b31d8317feada8ad7528c6d0e0c27d", "is_disabled": 0, "rental_uris": {"android": "https://dc.lft.to/lastmile_qr_scan", "ios": "https://dc.lft.to/lastmile_qr_scan"}, "fusion_lon": 0.0, "lat": 38.9050275, "bike_id": "48b31d8317feada8ad7528c6d0e0c27d", "type": "electric_scooter", "is_reserved": 0, "lon": -77.02946783333333}, {"fusion_lat": 0.0, "name": "702b2d7ef88be4d22bac6558d076aa91", "is_disabled": 0, "rental_uris": {"android": "https://dc.lft.to/lastmile_qr_scan", "ios": "https://dc.lft.to/lastmile_qr_scan"}, "fusion_lon": 0.0, "lat": 38.920556833333336, "bike_id": "702b2d7ef88be4d22bac6558d076aa91", "type": "electric_scooter", "is_reserved": 0, "lon": -77.02372016666666}, {"fusion_lat": 0.0, "name": "9a51d03d6f89361237205ec83e0e61a0", "is_disabled": 0, "rental_uris": {"android": "https://dc.lft.to/lastmile_qr_scan", "ios": "https://dc.lft.to/lastmile_qr_scan"}, "fusion_lon": 0.0, "lat": 38.918327, "bike_id": "9a51d03d6f89361237205ec83e0e61a0", "type": "electric_scooter", "is_reserved": 0, "lon": -77.02299766666667}, {"fusion_lat": 0.0, "name": "868c50382ce68947717bb9d26d0b331c", "is_disabled": 0, "rental_uris": {"android": "https://dc.lft.to/lastmile_qr_scan", "ios": "https://dc.lft.to/lastmile_qr_scan"}, "fusion_lon": 0.0, "lat": 38.90420316666667, "bike_id": "868c50382ce68947717bb9d26d0b331c", "type": "electric_scooter", "is_reserved": 0, "lon": -77.02681733333333}, {"fusion_lat": 0.0, "name": "2e1c474afe1ce4a56687e2b3cb3fd36a", "is_disabled": 0, "rental_uris": {"android": "https://dc.lft.to/lastmile_qr_scan", "ios": "https://dc.lft.to/lastmile_qr_scan"}, "fusion_lon": 0.0, "lat": 38.90711433333333, "bike_id": "2e1c474afe1ce4a56687e2b3cb3fd36a", "type": "electric_scooter", "is_reserved": 0, "lon": -77.04160066666667}, {"fusion_lat": 0.0, "name": "ab2bbfc174b3c9187949c2cadba55abb", "is_disabled": 0, "rental_uris": {"android": "https://dc.lft.to/lastmile_qr_scan", "ios": "https://dc.lft.to/lastmile_qr_scan"}, "fusion_lon": 0.0, "lat": 38.9156245, "bike_id": "ab2bbfc174b3c9187949c2cadba55abb", "type": "electric_scooter", "is_reserved": 0, "lon": -77.02232366666667}, {"fusion_lat": 0.0, "name": "cdd41041b5ee72410e24334a035aaa4b", "is_disabled": 0, "rental_uris": {"android": "https://dc.lft.to/lastmile_qr_scan", "ios": "https://dc.lft.to/lastmile_qr_scan"}, "fusion_lon": 0.0, "lat": 38.91850266666667, "bike_id": "cdd41041b5ee72410e24334a035aaa4b", "type": "electric_scooter", "is_reserved": 0, "lon": -77.0449705}, {"fusion_lat": 0.0, "name": "eef71abe4b52661d0c3e0747c88274a1", "is_disabled": 0, "rental_uris": {"android": "https://dc.lft.to/lastmile_qr_scan", "ios": "https://dc.lft.to/lastmile_qr_scan"}, "fusion_lon": 0.0, "lat": 38.90710883333333, "bike_id": "eef71abe4b52661d0c3e0747c88274a1", "type": "electric_scooter", "is_reserved": 0, "lon": -77.03442816666667}, {"fusion_lat": 0.0, "name": "1dec65264a9ec528aec806909fd57ca8", "is_disabled": 0, "rental_uris": {"android": "https://dc.lft.to/lastmile_qr_scan", "ios": "https://dc.lft.to/lastmile_qr_scan"}, "fusion_lon": 0.0, "lat": 38.8194685, "bike_id": "1dec65264a9ec528aec806909fd57ca8", "type": "electric_bike", "is_reserved": 0, "lon": -77.12720433333334}, {"fusion_lat": 0.0, "name": "a49263607d800c6970d435d2b2bce529", "is_disabled": 0, "rental_uris": {"android": "https://dc.lft.to/lastmile_qr_scan", "ios": "https://dc.lft.to/lastmile_qr_scan"}, "fusion_lon": 0.0, "lat": 38.8783125, "bike_id": "a49263607d800c6970d435d2b2bce529", "type": "electric_scooter", "is_reserved": 0, "lon": -76.96320116666666}, {"fusion_lat": 0.0, "name": "812b79c69ba54693129ee2ea6ff9b370", "is_disabled": 0, "rental_uris": {"android": "https://dc.lft.to/lastmile_qr_scan", "ios": "https://dc.lft.to/lastmile_qr_scan"}, "fusion_lon": 0.0, "lat": 38.907807166666665, "bike_id": "812b79c69ba54693129ee2ea6ff9b370", "type": "electric_scooter", "is_reserved": 0, "lon": -77.03862333333333}, {"fusion_lat": 0.0, "name": "a51e0e15cfd61644d4581ad9f6d108f0", "is_disabled": 0, "rental_uris": {"android": "https://dc.lft.to/lastmile_qr_scan", "ios": "https://dc.lft.to/lastmile_qr_scan"}, "fusion_lon": 0.0, "lat": 38.92553383333333, "bike_id": "a51e0e15cfd61644d4581ad9f6d108f0", "type": "electric_scooter", "is_reserved": 0, "lon": -77.07762666666666}, {"fusion_lat": 0.0, "name": "f8fee7b7c4df53f46276e001f5c3bba7", "is_disabled": 0, "rental_uris": {"android": "https://dc.lft.to/lastmile_qr_scan", "ios": "https://dc.lft.to/lastmile_qr_scan"}, "fusion_lon": 0.0, "lat": 38.920554833333334, "bike_id": "f8fee7b7c4df53f46276e001f5c3bba7", "type": "electric_scooter", "is_reserved": 0, "lon": -77.03392666666667}, {"fusion_lat": 0.0, "name": "9bd58dbaab44fa8b9fc78299fda144aa", "is_disabled": 0, "rental_uris": {"android": "https://dc.lft.to/lastmile_qr_scan", "ios": "https://dc.lft.to/lastmile_qr_scan"}, "fusion_lon": 0.0, "lat": 38.915427666666666, "bike_id": "9bd58dbaab44fa8b9fc78299fda144aa", "type": "electric_scooter", "is_reserved": 0, "lon": -77.01273416666666}, {"fusion_lat": 0.0, "name": "6c72e9e403a4f400fe3bc89a0f9a94f9", "is_disabled": 0, "rental_uris": {"android": "https://dc.lft.to/lastmile_qr_scan", "ios": "https://dc.lft.to/lastmile_qr_scan"}, "fusion_lon": 0.0, "lat": 38.91766766666667, "bike_id": "6c72e9e403a4f400fe3bc89a0f9a94f9", "type": "electric_scooter", "is_reserved": 0, "lon": -77.03570616666667}, {"fusion_lat": 0.0, "name": "651375f2d0b8460e0aaa1cec75d9915b", "is_disabled": 0, "rental_uris": {"android": "https://dc.lft.to/lastmile_qr_scan", "ios": "https://dc.lft.to/lastmile_qr_scan"}, "fusion_lon": 0.0, "lat": 38.91252933333333, "bike_id": "651375f2d0b8460e0aaa1cec75d9915b", "type": "electric_scooter", "is_reserved": 0, "lon": -77.010335}, {"fusion_lat": 0.0, "name": "618d4616fed967d1c38876730b44b2bf", "is_disabled": 0, "rental_uris": {"android": "https://dc.lft.to/lastmile_qr_scan", "ios": "https://dc.lft.to/lastmile_qr_scan"}, "fusion_lon": 0.0, "lat": 38.8739375, "bike_id": "618d4616fed967d1c38876730b44b2bf", "type": "electric_scooter", "is_reserved": 0, "lon": -77.0003895}, {"fusion_lat": 0.0, "name": "e710dccb0fd18e71989dbb5c47325e6a", "is_disabled": 0, "rental_uris": {"android": "https://dc.lft.to/lastmile_qr_scan", "ios": "https://dc.lft.to/lastmile_qr_scan"}, "fusion_lon": 0.0, "lat": 38.9058215, "bike_id": "e710dccb0fd18e71989dbb5c47325e6a", "type": "electric_scooter", "is_reserved": 0, "lon": -77.03480466666667}, {"fusion_lat": 0.0, "name": "46781e401aa46bbecfd4201d853014bd", "is_disabled": 0, "rental_uris": {"android": "https://dc.lft.to/lastmile_qr_scan", "ios": "https://dc.lft.to/lastmile_qr_scan"}, "fusion_lon": 0.0, "lat": 38.91298183333333, "bike_id": "46781e401aa46bbecfd4201d853014bd", "type": "electric_scooter", "is_reserved": 0, "lon": -77.0486635}, {"fusion_lat": 0.0, "name": "d8bad90cb34935a6febbe532d43d2b78", "is_disabled": 0, "rental_uris": {"android": "https://dc.lft.to/lastmile_qr_scan", "ios": "https://dc.lft.to/lastmile_qr_scan"}, "fusion_lon": 0.0, "lat": 38.9117135, "bike_id": "d8bad90cb34935a6febbe532d43d2b78", "type": "electric_bike", "is_reserved": 0, "lon": -77.00455866666667}, {"fusion_lat": 0.0, "name": "d3330d9b9229e7043c0bea81dd33e594", "is_disabled": 0, "rental_uris": {"android": "https://dc.lft.to/lastmile_qr_scan", "ios": "https://dc.lft.to/lastmile_qr_scan"}, "fusion_lon": 0.0, "lat": 38.9659775, "bike_id": "d3330d9b9229e7043c0bea81dd33e594", "type": "electric_bike", "is_reserved": 0, "lon": -77.028029}, {"fusion_lat": 0.0, "name": "aad16ec78bb52ca9e684c912b4b442bc", "is_disabled": 0, "rental_uris": {"android": "https://dc.lft.to/lastmile_qr_scan", "ios": "https://dc.lft.to/lastmile_qr_scan"}, "fusion_lon": 0.0, "lat": 38.888325, "bike_id": "aad16ec78bb52ca9e684c912b4b442bc", "type": "electric_scooter", "is_reserved": 0, "lon": -77.04909866666667}, {"fusion_lat": 0.0, "name": "5f9bed8e00811be9f1f6ec2dbdd61d0c", "is_disabled": 0, "rental_uris": {"android": "https://dc.lft.to/lastmile_qr_scan", "ios": "https://dc.lft.to/lastmile_qr_scan"}, "fusion_lon": 0.0, "lat": 38.9224375, "bike_id": "5f9bed8e00811be9f1f6ec2dbdd61d0c", "type": "electric_scooter", "is_reserved": 0, "lon": -77.022393}, {"fusion_lat": 0.0, "name": "bcfac924a45577dbc0564348274b927b", "is_disabled": 0, "rental_uris": {"android": "https://dc.lft.to/lastmile_qr_scan", "ios": "https://dc.lft.to/lastmile_qr_scan"}, "fusion_lon": 0.0, "lat": 38.914098333333335, "bike_id": "bcfac924a45577dbc0564348274b927b", "type": "electric_scooter", "is_reserved": 0, "lon": -77.04246566666667}, {"fusion_lat": 0.0, "name": "0eda1012c1de302b7fc552f47cca89a1", "is_disabled": 0, "rental_uris": {"android": "https://dc.lft.to/lastmile_qr_scan", "ios": "https://dc.lft.to/lastmile_qr_scan"}, "fusion_lon": 0.0, "lat": 38.90389566666666, "bike_id": "0eda1012c1de302b7fc552f47cca89a1", "type": "electric_scooter", "is_reserved": 0, "lon": -77.01763466666667}, {"fusion_lat": 0.0, "name": "cfa54d8d0aef8159da006427ddf164d7", "is_disabled": 0, "rental_uris": {"android": "https://dc.lft.to/lastmile_qr_scan", "ios": "https://dc.lft.to/lastmile_qr_scan"}, "fusion_lon": 0.0, "lat": 38.901382, "bike_id": "cfa54d8d0aef8159da006427ddf164d7", "type": "electric_scooter", "is_reserved": 0, "lon": -77.02318166666667}, {"fusion_lat": 0.0, "name": "cdd0e1c26c1c3664b8c424916cead6c1", "is_disabled": 0, "rental_uris": {"android": "https://dc.lft.to/lastmile_qr_scan", "ios": "https://dc.lft.to/lastmile_qr_scan"}, "fusion_lon": 0.0, "lat": 38.878200166666666, "bike_id": "cdd0e1c26c1c3664b8c424916cead6c1", "type": "electric_scooter", "is_reserved": 0, "lon": -77.0176845}, {"fusion_lat": 0.0, "name": "70141e50d47129abc6bc6607d01e7bfe", "is_disabled": 0, "rental_uris": {"android": "https://dc.lft.to/lastmile_qr_scan", "ios": "https://dc.lft.to/lastmile_qr_scan"}, "fusion_lon": 0.0, "lat": 38.916519, "bike_id": "70141e50d47129abc6bc6607d01e7bfe", "type": "electric_scooter", "is_reserved": 0, "lon": -77.00956383333333}, {"fusion_lat": 0.0, "name": "66015474fd72e98d4094344a24e98a35", "is_disabled": 0, "rental_uris": {"android": "https://dc.lft.to/lastmile_qr_scan", "ios": "https://dc.lft.to/lastmile_qr_scan"}, "fusion_lon": 0.0, "lat": 38.9053785, "bike_id": "66015474fd72e98d4094344a24e98a35", "type": "electric_scooter", "is_reserved": 0, "lon": -76.98197866666666}, {"fusion_lat": 0.0, "name": "2adaac469e1f69b6fd69d2a6ef13e472", "is_disabled": 0, "rental_uris": {"android": "https://dc.lft.to/lastmile_qr_scan", "ios": "https://dc.lft.to/lastmile_qr_scan"}, "fusion_lon": 0.0, "lat": 38.90782016666667, "bike_id": "2adaac469e1f69b6fd69d2a6ef13e472", "type": "electric_scooter", "is_reserved": 0, "lon": -77.03866566666666}, {"fusion_lat": 0.0, "name": "87a08887be6252635cebdf856da0d91d", "is_disabled": 0, "rental_uris": {"android": "https://dc.lft.to/lastmile_qr_scan", "ios": "https://dc.lft.to/lastmile_qr_scan"}, "fusion_lon": 0.0, "lat": 38.917749666666666, "bike_id": "87a08887be6252635cebdf856da0d91d", "type": "electric_scooter", "is_reserved": 0, "lon": -77.02310116666666}, {"fusion_lat": 0.0, "name": "c04ec852f4dbc88a5e818cb9be6ed924", "is_disabled": 0, "rental_uris": {"android": "https://dc.lft.to/lastmile_qr_scan", "ios": "https://dc.lft.to/lastmile_qr_scan"}, "fusion_lon": 0.0, "lat": 38.865139666666664, "bike_id": "c04ec852f4dbc88a5e818cb9be6ed924", "type": "electric_bike", "is_reserved": 0, "lon": -77.129359}, {"fusion_lat": 0.0, "name": "292c3a57a0ef8ac93abb0ef1baf48b3c", "is_disabled": 0, "rental_uris": {"android": "https://dc.lft.to/lastmile_qr_scan", "ios": "https://dc.lft.to/lastmile_qr_scan"}, "fusion_lon": 0.0, "lat": 38.916985, "bike_id": "292c3a57a0ef8ac93abb0ef1baf48b3c", "type": "electric_scooter", "is_reserved": 0, "lon": -77.03073166666667}, {"fusion_lat": 0.0, "name": "280f2a7590bb69665c93a7e07ac92d16", "is_disabled": 0, "rental_uris": {"android": "https://dc.lft.to/lastmile_qr_scan", "ios": "https://dc.lft.to/lastmile_qr_scan"}, "fusion_lon": 0.0, "lat": 38.91268216666667, "bike_id": "280f2a7590bb69665c93a7e07ac92d16", "type": "electric_scooter", "is_reserved": 0, "lon": -77.03872933333334}, {"fusion_lat": 0.0, "name": "0c2ab576ada316fbe36e2ff737d557c6", "is_disabled": 0, "rental_uris": {"android": "https://dc.lft.to/lastmile_qr_scan", "ios": "https://dc.lft.to/lastmile_qr_scan"}, "fusion_lon": 0.0, "lat": 38.902548, "bike_id": "0c2ab576ada316fbe36e2ff737d557c6", "type": "electric_scooter", "is_reserved": 0, "lon": -77.01762516666666}, {"fusion_lat": 0.0, "name": "aa0fe39045675c4c746c16cb02e4f035", "is_disabled": 0, "rental_uris": {"android": "https://dc.lft.to/lastmile_qr_scan", "ios": "https://dc.lft.to/lastmile_qr_scan"}, "fusion_lon": 0.0, "lat": 38.922063666666666, "bike_id": "aa0fe39045675c4c746c16cb02e4f035", "type": "electric_scooter", "is_reserved": 0, "lon": -77.02346166666666}, {"fusion_lat": 0.0, "name": "2d94fd29cf7ff95e2821789e1b3db9f2", "is_disabled": 0, "rental_uris": {"android": "https://dc.lft.to/lastmile_qr_scan", "ios": "https://dc.lft.to/lastmile_qr_scan"}, "fusion_lon": 0.0, "lat": 38.904983666666666, "bike_id": "2d94fd29cf7ff95e2821789e1b3db9f2", "type": "electric_scooter", "is_reserved": 0, "lon": -77.02706133333334}, {"fusion_lat": 0.0, "name": "25d8ac377326681fd6b9ee098c5c1107", "is_disabled": 0, "rental_uris": {"android": "https://dc.lft.to/lastmile_qr_scan", "ios": "https://dc.lft.to/lastmile_qr_scan"}, "fusion_lon": 0.0, "lat": 38.91710116666667, "bike_id": "25d8ac377326681fd6b9ee098c5c1107", "type": "electric_scooter", "is_reserved": 0, "lon": -76.97665133333334}, {"fusion_lat": 0.0, "name": "0cea6414e5f42227f282a8b260c716ad", "is_disabled": 0, "rental_uris": {"android": "https://dc.lft.to/lastmile_qr_scan", "ios": "https://dc.lft.to/lastmile_qr_scan"}, "fusion_lon": 0.0, "lat": 38.91975166666667, "bike_id": "0cea6414e5f42227f282a8b260c716ad", "type": "electric_scooter", "is_reserved": 0, "lon": -77.02176733333333}, {"fusion_lat": 0.0, "name": "46b7444bdd586e4d0cfd3e9655c939fb", "is_disabled": 0, "rental_uris": {"android": "https://dc.lft.to/lastmile_qr_scan", "ios": "https://dc.lft.to/lastmile_qr_scan"}, "fusion_lon": 0.0, "lat": 38.9009255, "bike_id": "46b7444bdd586e4d0cfd3e9655c939fb", "type": "electric_scooter", "is_reserved": 0, "lon": -76.98328416666666}, {"fusion_lat": 0.0, "name": "d8789b5793473e23f3400c3307ec26c4", "is_disabled": 0, "rental_uris": {"android": "https://dc.lft.to/lastmile_qr_scan", "ios": "https://dc.lft.to/lastmile_qr_scan"}, "fusion_lon": 0.0, "lat": 38.940761, "bike_id": "d8789b5793473e23f3400c3307ec26c4", "type": "electric_scooter", "is_reserved": 0, "lon": -77.02997466666666}, {"fusion_lat": 0.0, "name": "449038b989b3212a0bbbb48943523d97", "is_disabled": 0, "rental_uris": {"android": "https://dc.lft.to/lastmile_qr_scan", "ios": "https://dc.lft.to/lastmile_qr_scan"}, "fusion_lon": 0.0, "lat": 38.91806716666667, "bike_id": "449038b989b3212a0bbbb48943523d97", "type": "electric_scooter", "is_reserved": 0, "lon": -77.03306383333333}, {"fusion_lat": 0.0, "name": "c0157406a719ef1bc52cd1c9c3861ebb", "is_disabled": 0, "rental_uris": {"android": "https://dc.lft.to/lastmile_qr_scan", "ios": "https://dc.lft.to/lastmile_qr_scan"}, "fusion_lon": 0.0, "lat": 38.913229, "bike_id": "c0157406a719ef1bc52cd1c9c3861ebb", "type": "electric_scooter", "is_reserved": 0, "lon": -77.02156}, {"fusion_lat": 0.0, "name": "02b55e686d42768866be03ed3a67980b", "is_disabled": 0, "rental_uris": {"android": "https://dc.lft.to/lastmile_qr_scan", "ios": "https://dc.lft.to/lastmile_qr_scan"}, "fusion_lon": 0.0, "lat": 38.879666, "bike_id": "02b55e686d42768866be03ed3a67980b", "type": "electric_bike", "is_reserved": 0, "lon": -76.91613483333333}, {"fusion_lat": 0.0, "name": "b77d2234f21a6b0a2457aa0b8651baa0", "is_disabled": 0, "rental_uris": {"android": "https://dc.lft.to/lastmile_qr_scan", "ios": "https://dc.lft.to/lastmile_qr_scan"}, "fusion_lon": 0.0, "lat": 38.946279833333335, "bike_id": "b77d2234f21a6b0a2457aa0b8651baa0", "type": "electric_scooter", "is_reserved": 0, "lon": -77.01844166666666}, {"fusion_lat": 0.0, "name": "09c416d90a69b79e47486052b717242a", "is_disabled": 0, "rental_uris": {"android": "https://dc.lft.to/lastmile_qr_scan", "ios": "https://dc.lft.to/lastmile_qr_scan"}, "fusion_lon": 0.0, "lat": 38.90064066666667, "bike_id": "09c416d90a69b79e47486052b717242a", "type": "electric_scooter", "is_reserved": 0, "lon": -77.0023475}, {"fusion_lat": 0.0, "name": "9df6ff5ed248ede3cdab2f022316daf5", "is_disabled": 0, "rental_uris": {"android": "https://dc.lft.to/lastmile_qr_scan", "ios": "https://dc.lft.to/lastmile_qr_scan"}, "fusion_lon": 0.0, "lat": 38.911074666666664, "bike_id": "9df6ff5ed248ede3cdab2f022316daf5", "type": "electric_scooter", "is_reserved": 0, "lon": -77.0114855}, {"fusion_lat": 0.0, "name": "38af7dc890320ec720a8526fe95c85f9", "is_disabled": 0, "rental_uris": {"android": "https://dc.lft.to/lastmile_qr_scan", "ios": "https://dc.lft.to/lastmile_qr_scan"}, "fusion_lon": 0.0, "lat": 38.898429, "bike_id": "38af7dc890320ec720a8526fe95c85f9", "type": "electric_scooter", "is_reserved": 0, "lon": -77.02967733333334}, {"fusion_lat": 0.0, "name": "271d8a2d1a18ff70448c6d337216e594", "is_disabled": 0, "rental_uris": {"android": "https://dc.lft.to/lastmile_qr_scan", "ios": "https://dc.lft.to/lastmile_qr_scan"}, "fusion_lon": 0.0, "lat": 38.87181116666667, "bike_id": "271d8a2d1a18ff70448c6d337216e594", "type": "electric_scooter", "is_reserved": 0, "lon": -77.00926233333334}, {"fusion_lat": 0.0, "name": "601c4184b24562b4c3291e0045d7b77c", "is_disabled": 0, "rental_uris": {"android": "https://dc.lft.to/lastmile_qr_scan", "ios": "https://dc.lft.to/lastmile_qr_scan"}, "fusion_lon": 0.0, "lat": 38.918883, "bike_id": "601c4184b24562b4c3291e0045d7b77c", "type": "electric_scooter", "is_reserved": 0, "lon": -77.03491566666666}, {"fusion_lat": 0.0, "name": "a70fce5e9279e6f04f1e04e90a16a56e", "is_disabled": 0, "rental_uris": {"android": "https://dc.lft.to/lastmile_qr_scan", "ios": "https://dc.lft.to/lastmile_qr_scan"}, "fusion_lon": 0.0, "lat": 38.904543333333336, "bike_id": "a70fce5e9279e6f04f1e04e90a16a56e", "type": "electric_scooter", "is_reserved": 0, "lon": -77.05334683333334}, {"fusion_lat": 0.0, "name": "f5c573eab649068b2866570580670068", "is_disabled": 0, "rental_uris": {"android": "https://dc.lft.to/lastmile_qr_scan", "ios": "https://dc.lft.to/lastmile_qr_scan"}, "fusion_lon": 0.0, "lat": 38.92863633333333, "bike_id": "f5c573eab649068b2866570580670068", "type": "electric_scooter", "is_reserved": 0, "lon": -77.02727983333334}, {"fusion_lat": 0.0, "name": "248b654610df5bc84da38171ea37ab83", "is_disabled": 0, "rental_uris": {"android": "https://dc.lft.to/lastmile_qr_scan", "ios": "https://dc.lft.to/lastmile_qr_scan"}, "fusion_lon": 0.0, "lat": 38.96675316666666, "bike_id": "248b654610df5bc84da38171ea37ab83", "type": "electric_bike", "is_reserved": 0, "lon": -77.02168583333334}, {"fusion_lat": 0.0, "name": "94dd0b577f6c89c82f93322e602a4ca1", "is_disabled": 0, "rental_uris": {"android": "https://dc.lft.to/lastmile_qr_scan", "ios": "https://dc.lft.to/lastmile_qr_scan"}, "fusion_lon": 0.0, "lat": 38.882435666666666, "bike_id": "94dd0b577f6c89c82f93322e602a4ca1", "type": "electric_scooter", "is_reserved": 0, "lon": -77.00360583333334}, {"fusion_lat": 0.0, "name": "e29c4eb4ee6430ec626cdb7720f04145", "is_disabled": 0, "rental_uris": {"android": "https://dc.lft.to/lastmile_qr_scan", "ios": "https://dc.lft.to/lastmile_qr_scan"}, "fusion_lon": 0.0, "lat": 38.8947695, "bike_id": "e29c4eb4ee6430ec626cdb7720f04145", "type": "electric_scooter", "is_reserved": 0, "lon": -77.0110985}, {"fusion_lat": 0.0, "name": "08e4c5aedbbc6e44708f44706e2b7dde", "is_disabled": 0, "rental_uris": {"android": "https://dc.lft.to/lastmile_qr_scan", "ios": "https://dc.lft.to/lastmile_qr_scan"}, "fusion_lon": 0.0, "lat": 38.92210583333333, "bike_id": "08e4c5aedbbc6e44708f44706e2b7dde", "type": "electric_scooter", "is_reserved": 0, "lon": -77.020189}, {"fusion_lat": 0.0, "name": "2ad53cc42a3cb0cdb13855806d79d70a", "is_disabled": 0, "rental_uris": {"android": "https://dc.lft.to/lastmile_qr_scan", "ios": "https://dc.lft.to/lastmile_qr_scan"}, "fusion_lon": 0.0, "lat": 38.920716666666664, "bike_id": "2ad53cc42a3cb0cdb13855806d79d70a", "type": "electric_scooter", "is_reserved": 0, "lon": -77.02279383333334}, {"fusion_lat": 0.0, "name": "64039662a94cd0983e255042812fadfa", "is_disabled": 0, "rental_uris": {"android": "https://dc.lft.to/lastmile_qr_scan", "ios": "https://dc.lft.to/lastmile_qr_scan"}, "fusion_lon": 0.0, "lat": 38.93186716666666, "bike_id": "64039662a94cd0983e255042812fadfa", "type": "electric_scooter", "is_reserved": 0, "lon": -77.042958}, {"fusion_lat": 0.0, "name": "4b290024938fa019d87ec2cb215b5bc3", "is_disabled": 0, "rental_uris": {"android": "https://dc.lft.to/lastmile_qr_scan", "ios": "https://dc.lft.to/lastmile_qr_scan"}, "fusion_lon": 0.0, "lat": 38.8872635, "bike_id": "4b290024938fa019d87ec2cb215b5bc3", "type": "electric_scooter", "is_reserved": 0, "lon": -77.02580233333333}, {"fusion_lat": 0.0, "name": "2269e0ae2c9b46fb7a9adc0c4baf8ebf", "is_disabled": 0, "rental_uris": {"android": "https://dc.lft.to/lastmile_qr_scan", "ios": "https://dc.lft.to/lastmile_qr_scan"}, "fusion_lon": 0.0, "lat": 38.890125, "bike_id": "2269e0ae2c9b46fb7a9adc0c4baf8ebf", "type": "electric_scooter", "is_reserved": 0, "lon": -76.93735233333334}, {"fusion_lat": 0.0, "name": "ae9db5de122403bc0665a5af616ba866", "is_disabled": 0, "rental_uris": {"android": "https://dc.lft.to/lastmile_qr_scan", "ios": "https://dc.lft.to/lastmile_qr_scan"}, "fusion_lon": 0.0, "lat": 38.905454666666664, "bike_id": "ae9db5de122403bc0665a5af616ba866", "type": "electric_scooter", "is_reserved": 0, "lon": -77.0465295}, {"fusion_lat": 0.0, "name": "173afb75f1134bc3298099fd1e39092e", "is_disabled": 0, "rental_uris": {"android": "https://dc.lft.to/lastmile_qr_scan", "ios": "https://dc.lft.to/lastmile_qr_scan"}, "fusion_lon": 0.0, "lat": 38.898890333333334, "bike_id": "173afb75f1134bc3298099fd1e39092e", "type": "electric_scooter", "is_reserved": 0, "lon": -77.001483}, {"fusion_lat": 0.0, "name": "050aacc8caba1476634f4ed2a7674003", "is_disabled": 0, "rental_uris": {"android": "https://dc.lft.to/lastmile_qr_scan", "ios": "https://dc.lft.to/lastmile_qr_scan"}, "fusion_lon": 0.0, "lat": 38.893561, "bike_id": "050aacc8caba1476634f4ed2a7674003", "type": "electric_scooter", "is_reserved": 0, "lon": -76.98658783333333}, {"fusion_lat": 0.0, "name": "724be3fe64178921e7429bb88a92f81b", "is_disabled": 0, "rental_uris": {"android": "https://dc.lft.to/lastmile_qr_scan", "ios": "https://dc.lft.to/lastmile_qr_scan"}, "fusion_lon": 0.0, "lat": 38.920227, "bike_id": "724be3fe64178921e7429bb88a92f81b", "type": "electric_scooter", "is_reserved": 0, "lon": -77.02718716666666}, {"fusion_lat": 0.0, "name": "504e4e837cc5bb408b81a1d545c2a790", "is_disabled": 0, "rental_uris": {"android": "https://dc.lft.to/lastmile_qr_scan", "ios": "https://dc.lft.to/lastmile_qr_scan"}, "fusion_lon": 0.0, "lat": 38.931857, "bike_id": "504e4e837cc5bb408b81a1d545c2a790", "type": "electric_scooter", "is_reserved": 0, "lon": -77.03303283333334}, {"fusion_lat": 0.0, "name": "0ead0cff4a7c8170b6b01ba7861d0a61", "is_disabled": 0, "rental_uris": {"android": "https://dc.lft.to/lastmile_qr_scan", "ios": "https://dc.lft.to/lastmile_qr_scan"}, "fusion_lon": 0.0, "lat": 38.9306145, "bike_id": "0ead0cff4a7c8170b6b01ba7861d0a61", "type": "electric_scooter", "is_reserved": 0, "lon": -77.03946816666667}, {"fusion_lat": 0.0, "name": "f6032b7b1259036a3ead1aef78796133", "is_disabled": 0, "rental_uris": {"android": "https://dc.lft.to/lastmile_qr_scan", "ios": "https://dc.lft.to/lastmile_qr_scan"}, "fusion_lon": 0.0, "lat": 38.9089015, "bike_id": "f6032b7b1259036a3ead1aef78796133", "type": "electric_scooter", "is_reserved": 0, "lon": -77.04385766666667}, {"fusion_lat": 0.0, "name": "63cd4d779c275d68ec1c85998a84e7f7", "is_disabled": 0, "rental_uris": {"android": "https://dc.lft.to/lastmile_qr_scan", "ios": "https://dc.lft.to/lastmile_qr_scan"}, "fusion_lon": 0.0, "lat": 38.90905883333333, "bike_id": "63cd4d779c275d68ec1c85998a84e7f7", "type": "electric_scooter", "is_reserved": 0, "lon": -77.02613633333333}, {"fusion_lat": 0.0, "name": "bb0f36fffc3b2716526e98686a402f04", "is_disabled": 0, "rental_uris": {"android": "https://dc.lft.to/lastmile_qr_scan", "ios": "https://dc.lft.to/lastmile_qr_scan"}, "fusion_lon": 0.0, "lat": 38.934081666666664, "bike_id": "bb0f36fffc3b2716526e98686a402f04", "type": "electric_scooter", "is_reserved": 0, "lon": -77.02206}, {"fusion_lat": 0.0, "name": "44979411d10b25fce6e961c269dda722", "is_disabled": 0, "rental_uris": {"android": "https://dc.lft.to/lastmile_qr_scan", "ios": "https://dc.lft.to/lastmile_qr_scan"}, "fusion_lon": 0.0, "lat": 38.9012805, "bike_id": "44979411d10b25fce6e961c269dda722", "type": "electric_scooter", "is_reserved": 0, "lon": -77.0181895}, {"fusion_lat": 0.0, "name": "35087538f6e827d78187724147a581bc", "is_disabled": 0, "rental_uris": {"android": "https://dc.lft.to/lastmile_qr_scan", "ios": "https://dc.lft.to/lastmile_qr_scan"}, "fusion_lon": 0.0, "lat": 38.905264833333334, "bike_id": "35087538f6e827d78187724147a581bc", "type": "electric_scooter", "is_reserved": 0, "lon": -77.0483385}, {"fusion_lat": 0.0, "name": "b9b9caa8efed488b08c1e87c12cb1290", "is_disabled": 0, "rental_uris": {"android": "https://dc.lft.to/lastmile_qr_scan", "ios": "https://dc.lft.to/lastmile_qr_scan"}, "fusion_lon": 0.0, "lat": 38.91160416666666, "bike_id": "b9b9caa8efed488b08c1e87c12cb1290", "type": "electric_scooter", "is_reserved": 0, "lon": -77.04352966666667}, {"fusion_lat": 0.0, "name": "71d21d98cadbca35f5535cb0e9e0aa1a", "is_disabled": 0, "rental_uris": {"android": "https://dc.lft.to/lastmile_qr_scan", "ios": "https://dc.lft.to/lastmile_qr_scan"}, "fusion_lon": 0.0, "lat": 38.90484416666666, "bike_id": "71d21d98cadbca35f5535cb0e9e0aa1a", "type": "electric_scooter", "is_reserved": 0, "lon": -76.94965966666666}, {"fusion_lat": 0.0, "name": "1764cfb94d578760f0d1df07711b1fbc", "is_disabled": 0, "rental_uris": {"android": "https://dc.lft.to/lastmile_qr_scan", "ios": "https://dc.lft.to/lastmile_qr_scan"}, "fusion_lon": 0.0, "lat": 38.90493133333333, "bike_id": "1764cfb94d578760f0d1df07711b1fbc", "type": "electric_scooter", "is_reserved": 0, "lon": -76.99496233333333}, {"fusion_lat": 0.0, "name": "dab6138527ff1fcca1a302aef068ec32", "is_disabled": 0, "rental_uris": {"android": "https://dc.lft.to/lastmile_qr_scan", "ios": "https://dc.lft.to/lastmile_qr_scan"}, "fusion_lon": 0.0, "lat": 38.93051033333333, "bike_id": "dab6138527ff1fcca1a302aef068ec32", "type": "electric_scooter", "is_reserved": 0, "lon": -77.03791633333333}, {"fusion_lat": 0.0, "name": "21f953d0978508e0bfd360bf0946e149", "is_disabled": 0, "rental_uris": {"android": "https://dc.lft.to/lastmile_qr_scan", "ios": "https://dc.lft.to/lastmile_qr_scan"}, "fusion_lon": 0.0, "lat": 38.92285566666666, "bike_id": "21f953d0978508e0bfd360bf0946e149", "type": "electric_scooter", "is_reserved": 0, "lon": -76.99761483333333}, {"fusion_lat": 0.0, "name": "fafe5f8bb584ce30c2dd6d9fb6c92f14", "is_disabled": 0, "rental_uris": {"android": "https://dc.lft.to/lastmile_qr_scan", "ios": "https://dc.lft.to/lastmile_qr_scan"}, "fusion_lon": 0.0, "lat": 38.88491416666667, "bike_id": "fafe5f8bb584ce30c2dd6d9fb6c92f14", "type": "electric_scooter", "is_reserved": 0, "lon": -77.010844}, {"fusion_lat": 0.0, "name": "593dffe2dc2e12caa42585f57506d61d", "is_disabled": 0, "rental_uris": {"android": "https://dc.lft.to/lastmile_qr_scan", "ios": "https://dc.lft.to/lastmile_qr_scan"}, "fusion_lon": 0.0, "lat": 38.9094695, "bike_id": "593dffe2dc2e12caa42585f57506d61d", "type": "electric_scooter", "is_reserved": 0, "lon": -76.98767333333333}, {"fusion_lat": 0.0, "name": "bb9d8bde5be9e4f3da25fabc79980492", "is_disabled": 0, "rental_uris": {"android": "https://dc.lft.to/lastmile_qr_scan", "ios": "https://dc.lft.to/lastmile_qr_scan"}, "fusion_lon": 0.0, "lat": 38.912555, "bike_id": "bb9d8bde5be9e4f3da25fabc79980492", "type": "electric_scooter", "is_reserved": 0, "lon": -77.0387125}, {"fusion_lat": 0.0, "name": "5c81c3310f166fc4ea9e651da8b0bb3b", "is_disabled": 0, "rental_uris": {"android": "https://dc.lft.to/lastmile_qr_scan", "ios": "https://dc.lft.to/lastmile_qr_scan"}, "fusion_lon": 0.0, "lat": 38.906697, "bike_id": "5c81c3310f166fc4ea9e651da8b0bb3b", "type": "electric_scooter", "is_reserved": 0, "lon": -76.99964433333334}, {"fusion_lat": 0.0, "name": "3e2b99fe941770e8dd06c1f7f885f4c7", "is_disabled": 0, "rental_uris": {"android": "https://dc.lft.to/lastmile_qr_scan", "ios": "https://dc.lft.to/lastmile_qr_scan"}, "fusion_lon": 0.0, "lat": 38.897262833333336, "bike_id": "3e2b99fe941770e8dd06c1f7f885f4c7", "type": "electric_scooter", "is_reserved": 0, "lon": -77.00934316666667}, {"fusion_lat": 0.0, "name": "56c514ccb38bed51b904c4975eb5205c", "is_disabled": 0, "rental_uris": {"android": "https://dc.lft.to/lastmile_qr_scan", "ios": "https://dc.lft.to/lastmile_qr_scan"}, "fusion_lon": 0.0, "lat": 38.904746833333334, "bike_id": "56c514ccb38bed51b904c4975eb5205c", "type": "electric_bike", "is_reserved": 0, "lon": -77.01896666666667}, {"fusion_lat": 0.0, "name": "1a5902553cb34144a5cbf2e5addc602c", "is_disabled": 0, "rental_uris": {"android": "https://dc.lft.to/lastmile_qr_scan", "ios": "https://dc.lft.to/lastmile_qr_scan"}, "fusion_lon": 0.0, "lat": 38.902375, "bike_id": "1a5902553cb34144a5cbf2e5addc602c", "type": "electric_scooter", "is_reserved": 0, "lon": -77.0020195}, {"fusion_lat": 0.0, "name": "6929a870da489f51d7f5b373f46e502c", "is_disabled": 0, "rental_uris": {"android": "https://dc.lft.to/lastmile_qr_scan", "ios": "https://dc.lft.to/lastmile_qr_scan"}, "fusion_lon": 0.0, "lat": 38.8752425, "bike_id": "6929a870da489f51d7f5b373f46e502c", "type": "electric_bike", "is_reserved": 0, "lon": -77.00763283333333}, {"fusion_lat": 0.0, "name": "598d197ba43a7a649c40324d7882e1ea", "is_disabled": 0, "rental_uris": {"android": "https://dc.lft.to/lastmile_qr_scan", "ios": "https://dc.lft.to/lastmile_qr_scan"}, "fusion_lon": 0.0, "lat": 38.92567833333333, "bike_id": "598d197ba43a7a649c40324d7882e1ea", "type": "electric_scooter", "is_reserved": 0, "lon": -77.026886}, {"fusion_lat": 0.0, "name": "939d3a9eb5978074f399d82c27f70a5f", "is_disabled": 0, "rental_uris": {"android": "https://dc.lft.to/lastmile_qr_scan", "ios": "https://dc.lft.to/lastmile_qr_scan"}, "fusion_lon": 0.0, "lat": 38.906256, "bike_id": "939d3a9eb5978074f399d82c27f70a5f", "type": "electric_scooter", "is_reserved": 0, "lon": -77.02602133333333}, {"fusion_lat": 0.0, "name": "0abbf6353b70169d3f47b9f33805d383", "is_disabled": 0, "rental_uris": {"android": "https://dc.lft.to/lastmile_qr_scan", "ios": "https://dc.lft.to/lastmile_qr_scan"}, "fusion_lon": 0.0, "lat": 38.904336666666666, "bike_id": "0abbf6353b70169d3f47b9f33805d383", "type": "electric_scooter", "is_reserved": 0, "lon": -77.025894}, {"fusion_lat": 0.0, "name": "bb685167b3baee62dcf3a4faa471e52d", "is_disabled": 0, "rental_uris": {"android": "https://dc.lft.to/lastmile_qr_scan", "ios": "https://dc.lft.to/lastmile_qr_scan"}, "fusion_lon": 0.0, "lat": 38.931118833333336, "bike_id": "bb685167b3baee62dcf3a4faa471e52d", "type": "electric_scooter", "is_reserved": 0, "lon": -76.9961905}, {"fusion_lat": 0.0, "name": "f638d7df5e65a88ff0f2116546f0cab5", "is_disabled": 0, "rental_uris": {"android": "https://dc.lft.to/lastmile_qr_scan", "ios": "https://dc.lft.to/lastmile_qr_scan"}, "fusion_lon": 0.0, "lat": 38.906855666666665, "bike_id": "f638d7df5e65a88ff0f2116546f0cab5", "type": "electric_scooter", "is_reserved": 0, "lon": -77.022097}, {"fusion_lat": 0.0, "name": "d16bcf4bae93f511e35abd99cb63ff47", "is_disabled": 0, "rental_uris": {"android": "https://dc.lft.to/lastmile_qr_scan", "ios": "https://dc.lft.to/lastmile_qr_scan"}, "fusion_lon": 0.0, "lat": 38.88014183333333, "bike_id": "d16bcf4bae93f511e35abd99cb63ff47", "type": "electric_scooter", "is_reserved": 0, "lon": -76.98067}, {"fusion_lat": 0.0, "name": "3de1318198e18a4caabb12b05c4f6542", "is_disabled": 0, "rental_uris": {"android": "https://dc.lft.to/lastmile_qr_scan", "ios": "https://dc.lft.to/lastmile_qr_scan"}, "fusion_lon": 0.0, "lat": 38.92876166666667, "bike_id": "3de1318198e18a4caabb12b05c4f6542", "type": "electric_scooter", "is_reserved": 0, "lon": -76.99564783333334}, {"fusion_lat": 0.0, "name": "e99886e9d461ca8fb0c7215724789c98", "is_disabled": 0, "rental_uris": {"android": "https://dc.lft.to/lastmile_qr_scan", "ios": "https://dc.lft.to/lastmile_qr_scan"}, "fusion_lon": 0.0, "lat": 38.902139, "bike_id": "e99886e9d461ca8fb0c7215724789c98", "type": "electric_scooter", "is_reserved": 0, "lon": -76.9861105}, {"fusion_lat": 0.0, "name": "9c552a18cf108b0ec62d98cc052312fc", "is_disabled": 0, "rental_uris": {"android": "https://dc.lft.to/lastmile_qr_scan", "ios": "https://dc.lft.to/lastmile_qr_scan"}, "fusion_lon": 0.0, "lat": 38.905017, "bike_id": "9c552a18cf108b0ec62d98cc052312fc", "type": "electric_scooter", "is_reserved": 0, "lon": -77.02948216666667}, {"fusion_lat": 0.0, "name": "8cf8f6a0864e581772cb4828ffab2fbe", "is_disabled": 0, "rental_uris": {"android": "https://dc.lft.to/lastmile_qr_scan", "ios": "https://dc.lft.to/lastmile_qr_scan"}, "fusion_lon": 0.0, "lat": 38.92915833333333, "bike_id": "8cf8f6a0864e581772cb4828ffab2fbe", "type": "electric_bike", "is_reserved": 0, "lon": -77.0375265}, {"fusion_lat": 0.0, "name": "3ed9225c92ce4f9a270f51314c33802e", "is_disabled": 0, "rental_uris": {"android": "https://dc.lft.to/lastmile_qr_scan", "ios": "https://dc.lft.to/lastmile_qr_scan"}, "fusion_lon": 0.0, "lat": 38.885091833333334, "bike_id": "3ed9225c92ce4f9a270f51314c33802e", "type": "electric_scooter", "is_reserved": 0, "lon": -77.01115166666666}, {"fusion_lat": 0.0, "name": "7fff398b0e728a14b30cbc8241bdf3cf", "is_disabled": 0, "rental_uris": {"android": "https://dc.lft.to/lastmile_qr_scan", "ios": "https://dc.lft.to/lastmile_qr_scan"}, "fusion_lon": 0.0, "lat": 38.923206, "bike_id": "7fff398b0e728a14b30cbc8241bdf3cf", "type": "electric_scooter", "is_reserved": 0, "lon": -77.038103}, {"fusion_lat": 0.0, "name": "30e1c6971c306e6ad8ee3baac7f9c54d", "is_disabled": 0, "rental_uris": {"android": "https://dc.lft.to/lastmile_qr_scan", "ios": "https://dc.lft.to/lastmile_qr_scan"}, "fusion_lon": 0.0, "lat": 38.90841233333333, "bike_id": "30e1c6971c306e6ad8ee3baac7f9c54d", "type": "electric_scooter", "is_reserved": 0, "lon": -77.00216166666667}, {"fusion_lat": 0.0, "name": "d0e57504ad620900e1c770894faf2b51", "is_disabled": 0, "rental_uris": {"android": "https://dc.lft.to/lastmile_qr_scan", "ios": "https://dc.lft.to/lastmile_qr_scan"}, "fusion_lon": 0.0, "lat": 38.914361666666665, "bike_id": "d0e57504ad620900e1c770894faf2b51", "type": "electric_scooter", "is_reserved": 0, "lon": -76.9935445}, {"fusion_lat": 0.0, "name": "a980e953d29a7184e9774a9ddc1525d8", "is_disabled": 0, "rental_uris": {"android": "https://dc.lft.to/lastmile_qr_scan", "ios": "https://dc.lft.to/lastmile_qr_scan"}, "fusion_lon": 0.0, "lat": 38.939609833333336, "bike_id": "a980e953d29a7184e9774a9ddc1525d8", "type": "electric_scooter", "is_reserved": 0, "lon": -77.03280866666667}, {"fusion_lat": 0.0, "name": "746d32fab89125930350905cb52d9bde", "is_disabled": 0, "rental_uris": {"android": "https://dc.lft.to/lastmile_qr_scan", "ios": "https://dc.lft.to/lastmile_qr_scan"}, "fusion_lon": 0.0, "lat": 38.929071, "bike_id": "746d32fab89125930350905cb52d9bde", "type": "electric_scooter", "is_reserved": 0, "lon": -77.02144716666666}, {"fusion_lat": 0.0, "name": "522a3849962ec7580f2146afc58fe942", "is_disabled": 0, "rental_uris": {"android": "https://dc.lft.to/lastmile_qr_scan", "ios": "https://dc.lft.to/lastmile_qr_scan"}, "fusion_lon": 0.0, "lat": 38.831046, "bike_id": "522a3849962ec7580f2146afc58fe942", "type": "electric_bike", "is_reserved": 0, "lon": -76.994448}, {"fusion_lat": 0.0, "name": "5ff648daa6c594e8fa7d3887a838790c", "is_disabled": 0, "rental_uris": {"android": "https://dc.lft.to/lastmile_qr_scan", "ios": "https://dc.lft.to/lastmile_qr_scan"}, "fusion_lon": 0.0, "lat": 38.87886266666667, "bike_id": "5ff648daa6c594e8fa7d3887a838790c", "type": "electric_scooter", "is_reserved": 0, "lon": -77.00583066666667}, {"fusion_lat": 0.0, "name": "7e34176530ae85ce6ec2c1d74c8ab669", "is_disabled": 0, "rental_uris": {"android": "https://dc.lft.to/lastmile_qr_scan", "ios": "https://dc.lft.to/lastmile_qr_scan"}, "fusion_lon": 0.0, "lat": 38.90388216666667, "bike_id": "7e34176530ae85ce6ec2c1d74c8ab669", "type": "electric_scooter", "is_reserved": 0, "lon": -77.05146033333334}, {"fusion_lat": 0.0, "name": "fe197c73670d16b4aaab11fbf1b145bb", "is_disabled": 0, "rental_uris": {"android": "https://dc.lft.to/lastmile_qr_scan", "ios": "https://dc.lft.to/lastmile_qr_scan"}, "fusion_lon": 0.0, "lat": 38.935339666666664, "bike_id": "fe197c73670d16b4aaab11fbf1b145bb", "type": "electric_scooter", "is_reserved": 0, "lon": -77.02353183333334}, {"fusion_lat": 0.0, "name": "7f68c0c6335fbde18397d8bb12fa33ec", "is_disabled": 0, "rental_uris": {"android": "https://dc.lft.to/lastmile_qr_scan", "ios": "https://dc.lft.to/lastmile_qr_scan"}, "fusion_lon": 0.0, "lat": 38.87373383333333, "bike_id": "7f68c0c6335fbde18397d8bb12fa33ec", "type": "electric_scooter", "is_reserved": 0, "lon": -77.00065933333333}, {"fusion_lat": 0.0, "name": "42b6c7cf347be3fdddef020f36f64fbc", "is_disabled": 0, "rental_uris": {"android": "https://dc.lft.to/lastmile_qr_scan", "ios": "https://dc.lft.to/lastmile_qr_scan"}, "fusion_lon": 0.0, "lat": 38.92059016666666, "bike_id": "42b6c7cf347be3fdddef020f36f64fbc", "type": "electric_scooter", "is_reserved": 0, "lon": -77.0456675}, {"fusion_lat": 0.0, "name": "bb7a0821cfe78c0353eecd89b1ea1297", "is_disabled": 0, "rental_uris": {"android": "https://dc.lft.to/lastmile_qr_scan", "ios": "https://dc.lft.to/lastmile_qr_scan"}, "fusion_lon": 0.0, "lat": 38.913424, "bike_id": "bb7a0821cfe78c0353eecd89b1ea1297", "type": "electric_scooter", "is_reserved": 0, "lon": -77.04872233333333}, {"fusion_lat": 0.0, "name": "75898f9b747cbfbf814cee237fd2932c", "is_disabled": 0, "rental_uris": {"android": "https://dc.lft.to/lastmile_qr_scan", "ios": "https://dc.lft.to/lastmile_qr_scan"}, "fusion_lon": 0.0, "lat": 38.923397333333334, "bike_id": "75898f9b747cbfbf814cee237fd2932c", "type": "electric_scooter", "is_reserved": 0, "lon": -77.03617033333333}, {"fusion_lat": 0.0, "name": "fecf1939a458d803396c65a4ca19d3d5", "is_disabled": 0, "rental_uris": {"android": "https://dc.lft.to/lastmile_qr_scan", "ios": "https://dc.lft.to/lastmile_qr_scan"}, "fusion_lon": 0.0, "lat": 38.89469166666667, "bike_id": "fecf1939a458d803396c65a4ca19d3d5", "type": "electric_scooter", "is_reserved": 0, "lon": -77.01761916666666}, {"fusion_lat": 0.0, "name": "b45490c8542b0285d48e2d1e6846cc34", "is_disabled": 0, "rental_uris": {"android": "https://dc.lft.to/lastmile_qr_scan", "ios": "https://dc.lft.to/lastmile_qr_scan"}, "fusion_lon": 0.0, "lat": 38.912542, "bike_id": "b45490c8542b0285d48e2d1e6846cc34", "type": "electric_scooter", "is_reserved": 0, "lon": -77.049221}, {"fusion_lat": 0.0, "name": "b365d7ac924d5c0d6c8a6f29ab2214e4", "is_disabled": 0, "rental_uris": {"android": "https://dc.lft.to/lastmile_qr_scan", "ios": "https://dc.lft.to/lastmile_qr_scan"}, "fusion_lon": 0.0, "lat": 38.90759116666667, "bike_id": "b365d7ac924d5c0d6c8a6f29ab2214e4", "type": "electric_scooter", "is_reserved": 0, "lon": -77.03571866666667}, {"fusion_lat": 0.0, "name": "a086e734f7504d217495f0b145e1a88b", "is_disabled": 0, "rental_uris": {"android": "https://dc.lft.to/lastmile_qr_scan", "ios": "https://dc.lft.to/lastmile_qr_scan"}, "fusion_lon": 0.0, "lat": 38.93147066666667, "bike_id": "a086e734f7504d217495f0b145e1a88b", "type": "electric_scooter", "is_reserved": 0, "lon": -77.0214245}, {"fusion_lat": 0.0, "name": "ebb2929f831f5d416728c6a92cf832d2", "is_disabled": 0, "rental_uris": {"android": "https://dc.lft.to/lastmile_qr_scan", "ios": "https://dc.lft.to/lastmile_qr_scan"}, "fusion_lon": 0.0, "lat": 38.92645233333333, "bike_id": "ebb2929f831f5d416728c6a92cf832d2", "type": "electric_scooter", "is_reserved": 0, "lon": -77.04143866666666}, {"fusion_lat": 0.0, "name": "9003943f9650e05beafd1a53f1c3bc41", "is_disabled": 0, "rental_uris": {"android": "https://dc.lft.to/lastmile_qr_scan", "ios": "https://dc.lft.to/lastmile_qr_scan"}, "fusion_lon": 0.0, "lat": 38.902390833333335, "bike_id": "9003943f9650e05beafd1a53f1c3bc41", "type": "electric_scooter", "is_reserved": 0, "lon": -77.00202616666667}, {"fusion_lat": 0.0, "name": "d242706681430ff64e2fb4215c05953a", "is_disabled": 0, "rental_uris": {"android": "https://dc.lft.to/lastmile_qr_scan", "ios": "https://dc.lft.to/lastmile_qr_scan"}, "fusion_lon": 0.0, "lat": 38.9229515, "bike_id": "d242706681430ff64e2fb4215c05953a", "type": "electric_scooter", "is_reserved": 0, "lon": -77.04205966666666}, {"fusion_lat": 0.0, "name": "c8eb65bbb883413c498ad45a6af080d3", "is_disabled": 0, "rental_uris": {"android": "https://dc.lft.to/lastmile_qr_scan", "ios": "https://dc.lft.to/lastmile_qr_scan"}, "fusion_lon": 0.0, "lat": 38.922377166666664, "bike_id": "c8eb65bbb883413c498ad45a6af080d3", "type": "electric_scooter", "is_reserved": 0, "lon": -77.02912216666667}, {"fusion_lat": 0.0, "name": "cf1babd71a46e605d1548cfe14d2e4a4", "is_disabled": 0, "rental_uris": {"android": "https://dc.lft.to/lastmile_qr_scan", "ios": "https://dc.lft.to/lastmile_qr_scan"}, "fusion_lon": 0.0, "lat": 38.892343833333335, "bike_id": "cf1babd71a46e605d1548cfe14d2e4a4", "type": "electric_scooter", "is_reserved": 0, "lon": -76.98816716666667}, {"fusion_lat": 0.0, "name": "2619caebb5b4bd6e89afa636874ec267", "is_disabled": 0, "rental_uris": {"android": "https://dc.lft.to/lastmile_qr_scan", "ios": "https://dc.lft.to/lastmile_qr_scan"}, "fusion_lon": 0.0, "lat": 38.89629166666667, "bike_id": "2619caebb5b4bd6e89afa636874ec267", "type": "electric_scooter", "is_reserved": 0, "lon": -77.0449145}, {"fusion_lat": 0.0, "name": "7aecd2c2d7dc2b59808f1ff5ef9b0e17", "is_disabled": 0, "rental_uris": {"android": "https://dc.lft.to/lastmile_qr_scan", "ios": "https://dc.lft.to/lastmile_qr_scan"}, "fusion_lon": 0.0, "lat": 38.92165816666667, "bike_id": "7aecd2c2d7dc2b59808f1ff5ef9b0e17", "type": "electric_scooter", "is_reserved": 0, "lon": -77.04019283333334}, {"fusion_lat": 0.0, "name": "7dbf11b8fa04f15549ca4f1ca385d36f", "is_disabled": 0, "rental_uris": {"android": "https://dc.lft.to/lastmile_qr_scan", "ios": "https://dc.lft.to/lastmile_qr_scan"}, "fusion_lon": 0.0, "lat": 38.806787666666665, "bike_id": "7dbf11b8fa04f15549ca4f1ca385d36f", "type": "electric_bike", "is_reserved": 0, "lon": -77.069201}, {"fusion_lat": 0.0, "name": "15e7f9042eb2e96bd024633662630bcd", "is_disabled": 0, "rental_uris": {"android": "https://dc.lft.to/lastmile_qr_scan", "ios": "https://dc.lft.to/lastmile_qr_scan"}, "fusion_lon": 0.0, "lat": 38.87109366666667, "bike_id": "15e7f9042eb2e96bd024633662630bcd", "type": "electric_scooter", "is_reserved": 0, "lon": -77.00564483333333}, {"fusion_lat": 0.0, "name": "1084f00b6d67277948890f8977a54bd1", "is_disabled": 0, "rental_uris": {"android": "https://dc.lft.to/lastmile_qr_scan", "ios": "https://dc.lft.to/lastmile_qr_scan"}, "fusion_lon": 0.0, "lat": 38.884509, "bike_id": "1084f00b6d67277948890f8977a54bd1", "type": "electric_scooter", "is_reserved": 0, "lon": -76.99391366666667}, {"fusion_lat": 0.0, "name": "af80564a460954241eeb18546d63cc73", "is_disabled": 0, "rental_uris": {"android": "https://dc.lft.to/lastmile_qr_scan", "ios": "https://dc.lft.to/lastmile_qr_scan"}, "fusion_lon": 0.0, "lat": 38.92841516666667, "bike_id": "af80564a460954241eeb18546d63cc73", "type": "electric_bike", "is_reserved": 0, "lon": -77.0206255}, {"fusion_lat": 0.0, "name": "96afb34427c5ce2a8712b7738f9339b1", "is_disabled": 0, "rental_uris": {"android": "https://dc.lft.to/lastmile_qr_scan", "ios": "https://dc.lft.to/lastmile_qr_scan"}, "fusion_lon": 0.0, "lat": 38.905041833333335, "bike_id": "96afb34427c5ce2a8712b7738f9339b1", "type": "electric_scooter", "is_reserved": 0, "lon": -77.00927433333334}, {"fusion_lat": 0.0, "name": "300591f35ef5cbc6fd636c82edb9854c", "is_disabled": 0, "rental_uris": {"android": "https://dc.lft.to/lastmile_qr_scan", "ios": "https://dc.lft.to/lastmile_qr_scan"}, "fusion_lon": 0.0, "lat": 38.93741583333333, "bike_id": "300591f35ef5cbc6fd636c82edb9854c", "type": "electric_scooter", "is_reserved": 0, "lon": -77.035906}, {"fusion_lat": 0.0, "name": "a31eac88776ea3c851f762994695e0c9", "is_disabled": 0, "rental_uris": {"android": "https://dc.lft.to/lastmile_qr_scan", "ios": "https://dc.lft.to/lastmile_qr_scan"}, "fusion_lon": 0.0, "lat": 38.90729133333333, "bike_id": "a31eac88776ea3c851f762994695e0c9", "type": "electric_scooter", "is_reserved": 0, "lon": -77.05051666666667}, {"fusion_lat": 0.0, "name": "db9a365f9d8c4099229ef1fe4adf82de", "is_disabled": 0, "rental_uris": {"android": "https://dc.lft.to/lastmile_qr_scan", "ios": "https://dc.lft.to/lastmile_qr_scan"}, "fusion_lon": 0.0, "lat": 38.93200933333333, "bike_id": "db9a365f9d8c4099229ef1fe4adf82de", "type": "electric_scooter", "is_reserved": 0, "lon": -77.0366145}, {"fusion_lat": 0.0, "name": "d43487c7dc5ce0ddd22b5187185870e7", "is_disabled": 0, "rental_uris": {"android": "https://dc.lft.to/lastmile_qr_scan", "ios": "https://dc.lft.to/lastmile_qr_scan"}, "fusion_lon": 0.0, "lat": 38.901696666666666, "bike_id": "d43487c7dc5ce0ddd22b5187185870e7", "type": "electric_scooter", "is_reserved": 0, "lon": -76.99255316666667}, {"fusion_lat": 0.0, "name": "9634613d17f5250ce988a2195220da2b", "is_disabled": 0, "rental_uris": {"android": "https://dc.lft.to/lastmile_qr_scan", "ios": "https://dc.lft.to/lastmile_qr_scan"}, "fusion_lon": 0.0, "lat": 38.90238166666666, "bike_id": "9634613d17f5250ce988a2195220da2b", "type": "electric_scooter", "is_reserved": 0, "lon": -77.00201716666666}, {"fusion_lat": 0.0, "name": "fa8cb20eb8960688192e3e2d211aac8b", "is_disabled": 0, "rental_uris": {"android": "https://dc.lft.to/lastmile_qr_scan", "ios": "https://dc.lft.to/lastmile_qr_scan"}, "fusion_lon": 0.0, "lat": 38.954608666666665, "bike_id": "fa8cb20eb8960688192e3e2d211aac8b", "type": "electric_scooter", "is_reserved": 0, "lon": -77.007856}, {"fusion_lat": 0.0, "name": "587a23f36a24a6815281c10401c09de6", "is_disabled": 0, "rental_uris": {"android": "https://dc.lft.to/lastmile_qr_scan", "ios": "https://dc.lft.to/lastmile_qr_scan"}, "fusion_lon": 0.0, "lat": 38.904996, "bike_id": "587a23f36a24a6815281c10401c09de6", "type": "electric_scooter", "is_reserved": 0, "lon": -77.0294935}, {"fusion_lat": 0.0, "name": "985a5d8866a1ba714fb80c77ac6cc5ce", "is_disabled": 0, "rental_uris": {"android": "https://dc.lft.to/lastmile_qr_scan", "ios": "https://dc.lft.to/lastmile_qr_scan"}, "fusion_lon": 0.0, "lat": 38.89228083333333, "bike_id": "985a5d8866a1ba714fb80c77ac6cc5ce", "type": "electric_scooter", "is_reserved": 0, "lon": -77.02790583333334}, {"fusion_lat": 0.0, "name": "333171deb5e59dad0f689f04df31a4f0", "is_disabled": 0, "rental_uris": {"android": "https://dc.lft.to/lastmile_qr_scan", "ios": "https://dc.lft.to/lastmile_qr_scan"}, "fusion_lon": 0.0, "lat": 38.93632866666667, "bike_id": "333171deb5e59dad0f689f04df31a4f0", "type": "electric_scooter", "is_reserved": 0, "lon": -77.03261333333333}, {"fusion_lat": 0.0, "name": "a7d0ad7ed02b753a86ae7c5cd193cceb", "is_disabled": 0, "rental_uris": {"android": "https://dc.lft.to/lastmile_qr_scan", "ios": "https://dc.lft.to/lastmile_qr_scan"}, "fusion_lon": 0.0, "lat": 38.9267015, "bike_id": "a7d0ad7ed02b753a86ae7c5cd193cceb", "type": "electric_scooter", "is_reserved": 0, "lon": -77.030477}, {"fusion_lat": 0.0, "name": "244e0ea3e708766505c5e89357dda806", "is_disabled": 0, "rental_uris": {"android": "https://dc.lft.to/lastmile_qr_scan", "ios": "https://dc.lft.to/lastmile_qr_scan"}, "fusion_lon": 0.0, "lat": 38.92068833333333, "bike_id": "244e0ea3e708766505c5e89357dda806", "type": "electric_scooter", "is_reserved": 0, "lon": -76.99168333333333}, {"fusion_lat": 0.0, "name": "cf83978246507ab38cb9b3914548064d", "is_disabled": 0, "rental_uris": {"android": "https://dc.lft.to/lastmile_qr_scan", "ios": "https://dc.lft.to/lastmile_qr_scan"}, "fusion_lon": 0.0, "lat": 38.890911333333335, "bike_id": "cf83978246507ab38cb9b3914548064d", "type": "electric_scooter", "is_reserved": 0, "lon": -76.91927166666666}, {"fusion_lat": 0.0, "name": "a046168fe48df57c7b7fb35a1a4b73e7", "is_disabled": 0, "rental_uris": {"android": "https://dc.lft.to/lastmile_qr_scan", "ios": "https://dc.lft.to/lastmile_qr_scan"}, "fusion_lon": 0.0, "lat": 38.9050925, "bike_id": "a046168fe48df57c7b7fb35a1a4b73e7", "type": "electric_scooter", "is_reserved": 0, "lon": -76.98485166666667}, {"fusion_lat": 0.0, "name": "cc57a6a7a1896712f1c4acfcf0c766e4", "is_disabled": 0, "rental_uris": {"android": "https://dc.lft.to/lastmile_qr_scan", "ios": "https://dc.lft.to/lastmile_qr_scan"}, "fusion_lon": 0.0, "lat": 38.944299666666666, "bike_id": "cc57a6a7a1896712f1c4acfcf0c766e4", "type": "electric_bike", "is_reserved": 0, "lon": -77.02602916666666}, {"fusion_lat": 0.0, "name": "e7a54fb8a374b6151e4246c430aefc17", "is_disabled": 0, "rental_uris": {"android": "https://dc.lft.to/lastmile_qr_scan", "ios": "https://dc.lft.to/lastmile_qr_scan"}, "fusion_lon": 0.0, "lat": 38.90734116666667, "bike_id": "e7a54fb8a374b6151e4246c430aefc17", "type": "electric_scooter", "is_reserved": 0, "lon": -77.02978233333333}, {"fusion_lat": 0.0, "name": "ad68eb11961549561e54b85702d6758b", "is_disabled": 0, "rental_uris": {"android": "https://dc.lft.to/lastmile_qr_scan", "ios": "https://dc.lft.to/lastmile_qr_scan"}, "fusion_lon": 0.0, "lat": 38.88736166666666, "bike_id": "ad68eb11961549561e54b85702d6758b", "type": "electric_scooter", "is_reserved": 0, "lon": -77.0032105}, {"fusion_lat": 0.0, "name": "cc65c5187dd6acd75247ebaed47cdb7e", "is_disabled": 0, "rental_uris": {"android": "https://dc.lft.to/lastmile_qr_scan", "ios": "https://dc.lft.to/lastmile_qr_scan"}, "fusion_lon": 0.0, "lat": 38.924365, "bike_id": "cc65c5187dd6acd75247ebaed47cdb7e", "type": "electric_scooter", "is_reserved": 0, "lon": -77.00066883333334}, {"fusion_lat": 0.0, "name": "6fce783965f8e4d1712c3bc88583d16c", "is_disabled": 0, "rental_uris": {"android": "https://dc.lft.to/lastmile_qr_scan", "ios": "https://dc.lft.to/lastmile_qr_scan"}, "fusion_lon": 0.0, "lat": 38.9446385, "bike_id": "6fce783965f8e4d1712c3bc88583d16c", "type": "electric_scooter", "is_reserved": 0, "lon": -77.00660816666667}, {"fusion_lat": 0.0, "name": "0e55e3e717e6adb1e73e071d12b4e105", "is_disabled": 0, "rental_uris": {"android": "https://dc.lft.to/lastmile_qr_scan", "ios": "https://dc.lft.to/lastmile_qr_scan"}, "fusion_lon": 0.0, "lat": 38.902852833333334, "bike_id": "0e55e3e717e6adb1e73e071d12b4e105", "type": "electric_scooter", "is_reserved": 0, "lon": -77.03939583333333}, {"fusion_lat": 0.0, "name": "b688fe7d1d5bdee016ee611d238d7569", "is_disabled": 0, "rental_uris": {"android": "https://dc.lft.to/lastmile_qr_scan", "ios": "https://dc.lft.to/lastmile_qr_scan"}, "fusion_lon": 0.0, "lat": 38.9422865, "bike_id": "b688fe7d1d5bdee016ee611d238d7569", "type": "electric_scooter", "is_reserved": 0, "lon": -77.01384466666667}, {"fusion_lat": 0.0, "name": "c15b4d3f2e2be8f4b391ddb428590d78", "is_disabled": 0, "rental_uris": {"android": "https://dc.lft.to/lastmile_qr_scan", "ios": "https://dc.lft.to/lastmile_qr_scan"}, "fusion_lon": 0.0, "lat": 38.8872425, "bike_id": "c15b4d3f2e2be8f4b391ddb428590d78", "type": "electric_scooter", "is_reserved": 0, "lon": -76.98354183333333}, {"fusion_lat": 0.0, "name": "edc46dc8ef397d8c26c525faea1c1a8a", "is_disabled": 0, "rental_uris": {"android": "https://dc.lft.to/lastmile_qr_scan", "ios": "https://dc.lft.to/lastmile_qr_scan"}, "fusion_lon": 0.0, "lat": 38.89966583333333, "bike_id": "edc46dc8ef397d8c26c525faea1c1a8a", "type": "electric_scooter", "is_reserved": 0, "lon": -76.98709}, {"fusion_lat": 0.0, "name": "03aa8f82a298b20eca6b4336d939cc4b", "is_disabled": 0, "rental_uris": {"android": "https://dc.lft.to/lastmile_qr_scan", "ios": "https://dc.lft.to/lastmile_qr_scan"}, "fusion_lon": 0.0, "lat": 38.920759, "bike_id": "03aa8f82a298b20eca6b4336d939cc4b", "type": "electric_bike", "is_reserved": 0, "lon": -76.989476}, {"fusion_lat": 0.0, "name": "dd3518f24a14d643adfe62add666c3eb", "is_disabled": 0, "rental_uris": {"android": "https://dc.lft.to/lastmile_qr_scan", "ios": "https://dc.lft.to/lastmile_qr_scan"}, "fusion_lon": 0.0, "lat": 38.918118166666666, "bike_id": "dd3518f24a14d643adfe62add666c3eb", "type": "electric_scooter", "is_reserved": 0, "lon": -77.0367935}, {"fusion_lat": 0.0, "name": "b3ffbb75b272e42dbe38bea3ae369979", "is_disabled": 0, "rental_uris": {"android": "https://dc.lft.to/lastmile_qr_scan", "ios": "https://dc.lft.to/lastmile_qr_scan"}, "fusion_lon": 0.0, "lat": 38.8872895, "bike_id": "b3ffbb75b272e42dbe38bea3ae369979", "type": "electric_scooter", "is_reserved": 0, "lon": -77.03180266666666}, {"fusion_lat": 0.0, "name": "b2b5bf04f428f501548b88a4a63132c4", "is_disabled": 0, "rental_uris": {"android": "https://dc.lft.to/lastmile_qr_scan", "ios": "https://dc.lft.to/lastmile_qr_scan"}, "fusion_lon": 0.0, "lat": 38.90379733333333, "bike_id": "b2b5bf04f428f501548b88a4a63132c4", "type": "electric_scooter", "is_reserved": 0, "lon": -77.0381525}, {"fusion_lat": 0.0, "name": "bc1ee5d4dbb6da8beaa9db32331cb114", "is_disabled": 0, "rental_uris": {"android": "https://dc.lft.to/lastmile_qr_scan", "ios": "https://dc.lft.to/lastmile_qr_scan"}, "fusion_lon": 0.0, "lat": 38.90384, "bike_id": "bc1ee5d4dbb6da8beaa9db32331cb114", "type": "electric_scooter", "is_reserved": 0, "lon": -77.06143333333333}, {"fusion_lat": 0.0, "name": "5ea13d17c14f05d3105b6bb005429cd1", "is_disabled": 0, "rental_uris": {"android": "https://dc.lft.to/lastmile_qr_scan", "ios": "https://dc.lft.to/lastmile_qr_scan"}, "fusion_lon": 0.0, "lat": 38.920519166666665, "bike_id": "5ea13d17c14f05d3105b6bb005429cd1", "type": "electric_scooter", "is_reserved": 0, "lon": -77.0347125}, {"fusion_lat": 0.0, "name": "8f4cd6891ae9b895f176517456868884", "is_disabled": 0, "rental_uris": {"android": "https://dc.lft.to/lastmile_qr_scan", "ios": "https://dc.lft.to/lastmile_qr_scan"}, "fusion_lon": 0.0, "lat": 38.92426616666667, "bike_id": "8f4cd6891ae9b895f176517456868884", "type": "electric_scooter", "is_reserved": 0, "lon": -77.035563}, {"fusion_lat": 0.0, "name": "5bd3191b1170acf75f5427717863f968", "is_disabled": 0, "rental_uris": {"android": "https://dc.lft.to/lastmile_qr_scan", "ios": "https://dc.lft.to/lastmile_qr_scan"}, "fusion_lon": 0.0, "lat": 38.97368266666667, "bike_id": "5bd3191b1170acf75f5427717863f968", "type": "electric_scooter", "is_reserved": 0, "lon": -77.02433483333333}, {"fusion_lat": 0.0, "name": "bd609041b2044deb73b833aa151fc3cf", "is_disabled": 0, "rental_uris": {"android": "https://dc.lft.to/lastmile_qr_scan", "ios": "https://dc.lft.to/lastmile_qr_scan"}, "fusion_lon": 0.0, "lat": 38.906253166666666, "bike_id": "bd609041b2044deb73b833aa151fc3cf", "type": "electric_scooter", "is_reserved": 0, "lon": -77.02610783333333}, {"fusion_lat": 0.0, "name": "0216dfc3eae478b3f8b7e8383b0e1616", "is_disabled": 0, "rental_uris": {"android": "https://dc.lft.to/lastmile_qr_scan", "ios": "https://dc.lft.to/lastmile_qr_scan"}, "fusion_lon": 0.0, "lat": 38.905017, "bike_id": "0216dfc3eae478b3f8b7e8383b0e1616", "type": "electric_scooter", "is_reserved": 0, "lon": -77.047685}, {"fusion_lat": 0.0, "name": "5c1c7da7560d509d5ec7f16fdbba6db0", "is_disabled": 0, "rental_uris": {"android": "https://dc.lft.to/lastmile_qr_scan", "ios": "https://dc.lft.to/lastmile_qr_scan"}, "fusion_lon": 0.0, "lat": 38.9006005, "bike_id": "5c1c7da7560d509d5ec7f16fdbba6db0", "type": "electric_scooter", "is_reserved": 0, "lon": -76.93383566666667}, {"fusion_lat": 0.0, "name": "7961e61ba7e9db67d73a43a029bc7c34", "is_disabled": 0, "rental_uris": {"android": "https://dc.lft.to/lastmile_qr_scan", "ios": "https://dc.lft.to/lastmile_qr_scan"}, "fusion_lon": 0.0, "lat": 38.923670333333334, "bike_id": "7961e61ba7e9db67d73a43a029bc7c34", "type": "electric_scooter", "is_reserved": 0, "lon": -77.052514}, {"fusion_lat": 0.0, "name": "ba45a605eeb069bc9dd48a00f24e0296", "is_disabled": 0, "rental_uris": {"android": "https://dc.lft.to/lastmile_qr_scan", "ios": "https://dc.lft.to/lastmile_qr_scan"}, "fusion_lon": 0.0, "lat": 38.898322, "bike_id": "ba45a605eeb069bc9dd48a00f24e0296", "type": "electric_scooter", "is_reserved": 0, "lon": -76.94637533333334}, {"fusion_lat": 0.0, "name": "574b33d8addfe0b09a4574eb44db3825", "is_disabled": 0, "rental_uris": {"android": "https://dc.lft.to/lastmile_qr_scan", "ios": "https://dc.lft.to/lastmile_qr_scan"}, "fusion_lon": 0.0, "lat": 38.905505833333336, "bike_id": "574b33d8addfe0b09a4574eb44db3825", "type": "electric_scooter", "is_reserved": 0, "lon": -77.00555283333334}, {"fusion_lat": 0.0, "name": "d11b59097b1bb8a7cb94a14bb2a1d699", "is_disabled": 0, "rental_uris": {"android": "https://dc.lft.to/lastmile_qr_scan", "ios": "https://dc.lft.to/lastmile_qr_scan"}, "fusion_lon": 0.0, "lat": 38.911618, "bike_id": "d11b59097b1bb8a7cb94a14bb2a1d699", "type": "electric_scooter", "is_reserved": 0, "lon": -76.98726566666667}, {"fusion_lat": 0.0, "name": "983081f7bcd93619d85024d91ada227d", "is_disabled": 0, "rental_uris": {"android": "https://dc.lft.to/lastmile_qr_scan", "ios": "https://dc.lft.to/lastmile_qr_scan"}, "fusion_lon": 0.0, "lat": 38.90954966666666, "bike_id": "983081f7bcd93619d85024d91ada227d", "type": "electric_scooter", "is_reserved": 0, "lon": -77.02379533333334}, {"fusion_lat": 0.0, "name": "dedb7e63afed737f605fec8894a0d67f", "is_disabled": 0, "rental_uris": {"android": "https://dc.lft.to/lastmile_qr_scan", "ios": "https://dc.lft.to/lastmile_qr_scan"}, "fusion_lon": 0.0, "lat": 38.89855583333333, "bike_id": "dedb7e63afed737f605fec8894a0d67f", "type": "electric_scooter", "is_reserved": 0, "lon": -77.02217016666667}, {"fusion_lat": 0.0, "name": "9a697009320602629e6d95baf6c663b1", "is_disabled": 0, "rental_uris": {"android": "https://dc.lft.to/lastmile_qr_scan", "ios": "https://dc.lft.to/lastmile_qr_scan"}, "fusion_lon": 0.0, "lat": 38.87886016666667, "bike_id": "9a697009320602629e6d95baf6c663b1", "type": "electric_scooter", "is_reserved": 0, "lon": -76.9654245}, {"fusion_lat": 0.0, "name": "3bd06ad4df615f20c6df2826796913e1", "is_disabled": 0, "rental_uris": {"android": "https://dc.lft.to/lastmile_qr_scan", "ios": "https://dc.lft.to/lastmile_qr_scan"}, "fusion_lon": 0.0, "lat": 38.90642016666666, "bike_id": "3bd06ad4df615f20c6df2826796913e1", "type": "electric_scooter", "is_reserved": 0, "lon": -77.04884466666667}, {"fusion_lat": 0.0, "name": "2e710b82b083d23bd5f3753881a7d45f", "is_disabled": 0, "rental_uris": {"android": "https://dc.lft.to/lastmile_qr_scan", "ios": "https://dc.lft.to/lastmile_qr_scan"}, "fusion_lon": 0.0, "lat": 38.90398833333333, "bike_id": "2e710b82b083d23bd5f3753881a7d45f", "type": "electric_scooter", "is_reserved": 0, "lon": -77.0365615}, {"fusion_lat": 0.0, "name": "c559e5d1405fa081b1710230964c2fcb", "is_disabled": 0, "rental_uris": {"android": "https://dc.lft.to/lastmile_qr_scan", "ios": "https://dc.lft.to/lastmile_qr_scan"}, "fusion_lon": 0.0, "lat": 38.895198, "bike_id": "c559e5d1405fa081b1710230964c2fcb", "type": "electric_scooter", "is_reserved": 0, "lon": -77.00924383333333}, {"fusion_lat": 0.0, "name": "ec6199c32b425027c7d3e5aad6f1e694", "is_disabled": 0, "rental_uris": {"android": "https://dc.lft.to/lastmile_qr_scan", "ios": "https://dc.lft.to/lastmile_qr_scan"}, "fusion_lon": 0.0, "lat": 38.922592333333334, "bike_id": "ec6199c32b425027c7d3e5aad6f1e694", "type": "electric_scooter", "is_reserved": 0, "lon": -77.03663183333333}, {"fusion_lat": 0.0, "name": "e07f41f06a792a56f2e75359aea410b5", "is_disabled": 0, "rental_uris": {"android": "https://dc.lft.to/lastmile_qr_scan", "ios": "https://dc.lft.to/lastmile_qr_scan"}, "fusion_lon": 0.0, "lat": 38.90160366666667, "bike_id": "e07f41f06a792a56f2e75359aea410b5", "type": "electric_scooter", "is_reserved": 0, "lon": -77.0317835}, {"fusion_lat": 0.0, "name": "c4831b6120581eed7b12c9e974ed8e87", "is_disabled": 0, "rental_uris": {"android": "https://dc.lft.to/lastmile_qr_scan", "ios": "https://dc.lft.to/lastmile_qr_scan"}, "fusion_lon": 0.0, "lat": 38.9237885, "bike_id": "c4831b6120581eed7b12c9e974ed8e87", "type": "electric_scooter", "is_reserved": 0, "lon": -77.02741566666667}, {"fusion_lat": 0.0, "name": "0f72e5f144712f397456f56323a7325c", "is_disabled": 0, "rental_uris": {"android": "https://dc.lft.to/lastmile_qr_scan", "ios": "https://dc.lft.to/lastmile_qr_scan"}, "fusion_lon": 0.0, "lat": 38.907339, "bike_id": "0f72e5f144712f397456f56323a7325c", "type": "electric_scooter", "is_reserved": 0, "lon": -77.03446766666667}, {"fusion_lat": 0.0, "name": "bc0db5dad406702c6f285f364d977b96", "is_disabled": 0, "rental_uris": {"android": "https://dc.lft.to/lastmile_qr_scan", "ios": "https://dc.lft.to/lastmile_qr_scan"}, "fusion_lon": 0.0, "lat": 38.922559, "bike_id": "bc0db5dad406702c6f285f364d977b96", "type": "electric_scooter", "is_reserved": 0, "lon": -77.01955316666667}, {"fusion_lat": 0.0, "name": "174dbd6944b2ec196e9f1afaff60fb7d", "is_disabled": 0, "rental_uris": {"android": "https://dc.lft.to/lastmile_qr_scan", "ios": "https://dc.lft.to/lastmile_qr_scan"}, "fusion_lon": 0.0, "lat": 38.9190445, "bike_id": "174dbd6944b2ec196e9f1afaff60fb7d", "type": "electric_scooter", "is_reserved": 0, "lon": -77.01357883333333}, {"fusion_lat": 0.0, "name": "5e63d3a2092edcfab956da32afb76242", "is_disabled": 0, "rental_uris": {"android": "https://dc.lft.to/lastmile_qr_scan", "ios": "https://dc.lft.to/lastmile_qr_scan"}, "fusion_lon": 0.0, "lat": 38.917983666666665, "bike_id": "5e63d3a2092edcfab956da32afb76242", "type": "electric_scooter", "is_reserved": 0, "lon": -77.03438616666666}, {"fusion_lat": 0.0, "name": "49d573e29d0b02133a8668a22943c569", "is_disabled": 0, "rental_uris": {"android": "https://dc.lft.to/lastmile_qr_scan", "ios": "https://dc.lft.to/lastmile_qr_scan"}, "fusion_lon": 0.0, "lat": 38.9133855, "bike_id": "49d573e29d0b02133a8668a22943c569", "type": "electric_scooter", "is_reserved": 0, "lon": -77.04786266666666}, {"fusion_lat": 0.0, "name": "457f95d8555e29bce1257a6a8fad988a", "is_disabled": 0, "rental_uris": {"android": "https://dc.lft.to/lastmile_qr_scan", "ios": "https://dc.lft.to/lastmile_qr_scan"}, "fusion_lon": 0.0, "lat": 38.925493333333335, "bike_id": "457f95d8555e29bce1257a6a8fad988a", "type": "electric_scooter", "is_reserved": 0, "lon": -77.04296166666667}, {"fusion_lat": 0.0, "name": "513c73921b1ba0d0a4da1164d2d73f25", "is_disabled": 0, "rental_uris": {"android": "https://dc.lft.to/lastmile_qr_scan", "ios": "https://dc.lft.to/lastmile_qr_scan"}, "fusion_lon": 0.0, "lat": 38.920018166666665, "bike_id": "513c73921b1ba0d0a4da1164d2d73f25", "type": "electric_scooter", "is_reserved": 0, "lon": -77.0713275}, {"fusion_lat": 0.0, "name": "2c4341f03093899b9f1868eb8731642a", "is_disabled": 0, "rental_uris": {"android": "https://dc.lft.to/lastmile_qr_scan", "ios": "https://dc.lft.to/lastmile_qr_scan"}, "fusion_lon": 0.0, "lat": 38.95380183333333, "bike_id": "2c4341f03093899b9f1868eb8731642a", "type": "electric_bike", "is_reserved": 0, "lon": -76.97957166666667}, {"fusion_lat": 0.0, "name": "2bb3d50ae52d5f997206bbbeabc8f0dd", "is_disabled": 0, "rental_uris": {"android": "https://dc.lft.to/lastmile_qr_scan", "ios": "https://dc.lft.to/lastmile_qr_scan"}, "fusion_lon": 0.0, "lat": 38.92615833333333, "bike_id": "2bb3d50ae52d5f997206bbbeabc8f0dd", "type": "electric_scooter", "is_reserved": 0, "lon": -77.04331583333334}, {"fusion_lat": 0.0, "name": "7fc5778ded2701a0e7d584696564a26f", "is_disabled": 0, "rental_uris": {"android": "https://dc.lft.to/lastmile_qr_scan", "ios": "https://dc.lft.to/lastmile_qr_scan"}, "fusion_lon": 0.0, "lat": 38.92009983333333, "bike_id": "7fc5778ded2701a0e7d584696564a26f", "type": "electric_bike", "is_reserved": 0, "lon": -76.99069283333333}, {"fusion_lat": 0.0, "name": "13f686b0718e6e02d2fdda2b0a0be9db", "is_disabled": 0, "rental_uris": {"android": "https://dc.lft.to/lastmile_qr_scan", "ios": "https://dc.lft.to/lastmile_qr_scan"}, "fusion_lon": 0.0, "lat": 38.911104, "bike_id": "13f686b0718e6e02d2fdda2b0a0be9db", "type": "electric_scooter", "is_reserved": 0, "lon": -77.010017}, {"fusion_lat": 0.0, "name": "ccd42bfa408e2f6006825dff9ac79bea", "is_disabled": 0, "rental_uris": {"android": "https://dc.lft.to/lastmile_qr_scan", "ios": "https://dc.lft.to/lastmile_qr_scan"}, "fusion_lon": 0.0, "lat": 38.9432955, "bike_id": "ccd42bfa408e2f6006825dff9ac79bea", "type": "electric_scooter", "is_reserved": 0, "lon": -77.01550916666666}, {"fusion_lat": 0.0, "name": "2cd611d7ea55284b087a2618dffa286a", "is_disabled": 0, "rental_uris": {"android": "https://dc.lft.to/lastmile_qr_scan", "ios": "https://dc.lft.to/lastmile_qr_scan"}, "fusion_lon": 0.0, "lat": 38.899707, "bike_id": "2cd611d7ea55284b087a2618dffa286a", "type": "electric_scooter", "is_reserved": 0, "lon": -77.05258833333333}, {"fusion_lat": 0.0, "name": "11893af1b407bb4e5c6b590061cb0722", "is_disabled": 0, "rental_uris": {"android": "https://dc.lft.to/lastmile_qr_scan", "ios": "https://dc.lft.to/lastmile_qr_scan"}, "fusion_lon": 0.0, "lat": 38.8960685, "bike_id": "11893af1b407bb4e5c6b590061cb0722", "type": "electric_scooter", "is_reserved": 0, "lon": -76.981091}, {"fusion_lat": 0.0, "name": "c96d0fce49b7ffd8bb54c4cd549a1dee", "is_disabled": 0, "rental_uris": {"android": "https://dc.lft.to/lastmile_qr_scan", "ios": "https://dc.lft.to/lastmile_qr_scan"}, "fusion_lon": 0.0, "lat": 38.9247355, "bike_id": "c96d0fce49b7ffd8bb54c4cd549a1dee", "type": "electric_scooter", "is_reserved": 0, "lon": -77.02665733333333}, {"fusion_lat": 0.0, "name": "82f4ef639ac453f68e8d07496d103729", "is_disabled": 0, "rental_uris": {"android": "https://dc.lft.to/lastmile_qr_scan", "ios": "https://dc.lft.to/lastmile_qr_scan"}, "fusion_lon": 0.0, "lat": 38.890128833333335, "bike_id": "82f4ef639ac453f68e8d07496d103729", "type": "electric_scooter", "is_reserved": 0, "lon": -76.9373695}, {"fusion_lat": 0.0, "name": "6fe79c6338a030bbea0750583b2602d9", "is_disabled": 0, "rental_uris": {"android": "https://dc.lft.to/lastmile_qr_scan", "ios": "https://dc.lft.to/lastmile_qr_scan"}, "fusion_lon": 0.0, "lat": 38.901926, "bike_id": "6fe79c6338a030bbea0750583b2602d9", "type": "electric_scooter", "is_reserved": 0, "lon": -77.05049966666667}, {"fusion_lat": 0.0, "name": "9b6479c3efd47e09d54b6e51ce415de2", "is_disabled": 0, "rental_uris": {"android": "https://dc.lft.to/lastmile_qr_scan", "ios": "https://dc.lft.to/lastmile_qr_scan"}, "fusion_lon": 0.0, "lat": 38.8799435, "bike_id": "9b6479c3efd47e09d54b6e51ce415de2", "type": "electric_bike", "is_reserved": 0, "lon": -76.984112}, {"fusion_lat": 0.0, "name": "073eee139e470f918ceeeeb6098e0464", "is_disabled": 0, "rental_uris": {"android": "https://dc.lft.to/lastmile_qr_scan", "ios": "https://dc.lft.to/lastmile_qr_scan"}, "fusion_lon": 0.0, "lat": 38.930749666666664, "bike_id": "073eee139e470f918ceeeeb6098e0464", "type": "electric_scooter", "is_reserved": 0, "lon": -77.02269716666666}, {"fusion_lat": 0.0, "name": "4198d18eb49f5b86e22fc62b21e7b5d2", "is_disabled": 0, "rental_uris": {"android": "https://dc.lft.to/lastmile_qr_scan", "ios": "https://dc.lft.to/lastmile_qr_scan"}, "fusion_lon": 0.0, "lat": 38.921733333333336, "bike_id": "4198d18eb49f5b86e22fc62b21e7b5d2", "type": "electric_scooter", "is_reserved": 0, "lon": -77.04245916666666}, {"fusion_lat": 0.0, "name": "f4d072cc6472b1ffbfdc7c2890323e28", "is_disabled": 0, "rental_uris": {"android": "https://dc.lft.to/lastmile_qr_scan", "ios": "https://dc.lft.to/lastmile_qr_scan"}, "fusion_lon": 0.0, "lat": 38.89012866666667, "bike_id": "f4d072cc6472b1ffbfdc7c2890323e28", "type": "electric_scooter", "is_reserved": 0, "lon": -76.937334}, {"fusion_lat": 0.0, "name": "69c495bdb0fbd56af34767c52e5b44c9", "is_disabled": 0, "rental_uris": {"android": "https://dc.lft.to/lastmile_qr_scan", "ios": "https://dc.lft.to/lastmile_qr_scan"}, "fusion_lon": 0.0, "lat": 38.91556466666667, "bike_id": "69c495bdb0fbd56af34767c52e5b44c9", "type": "electric_scooter", "is_reserved": 0, "lon": -77.02048533333334}, {"fusion_lat": 0.0, "name": "a001ffd04f377193e20b5d4ad2e78d4e", "is_disabled": 0, "rental_uris": {"android": "https://dc.lft.to/lastmile_qr_scan", "ios": "https://dc.lft.to/lastmile_qr_scan"}, "fusion_lon": 0.0, "lat": 38.87930433333333, "bike_id": "a001ffd04f377193e20b5d4ad2e78d4e", "type": "electric_scooter", "is_reserved": 0, "lon": -77.0041585}, {"fusion_lat": 0.0, "name": "e824baa91174e972c1b4094afc134978", "is_disabled": 0, "rental_uris": {"android": "https://dc.lft.to/lastmile_qr_scan", "ios": "https://dc.lft.to/lastmile_qr_scan"}, "fusion_lon": 0.0, "lat": 38.93190333333333, "bike_id": "e824baa91174e972c1b4094afc134978", "type": "electric_scooter", "is_reserved": 0, "lon": -77.01969233333334}, {"fusion_lat": 0.0, "name": "922102d6b8e024809f5eba089b49240b", "is_disabled": 0, "rental_uris": {"android": "https://dc.lft.to/lastmile_qr_scan", "ios": "https://dc.lft.to/lastmile_qr_scan"}, "fusion_lon": 0.0, "lat": 38.913800333333334, "bike_id": "922102d6b8e024809f5eba089b49240b", "type": "electric_scooter", "is_reserved": 0, "lon": -77.01800316666667}, {"fusion_lat": 0.0, "name": "eb00d15d76891065ce6499294142b398", "is_disabled": 0, "rental_uris": {"android": "https://dc.lft.to/lastmile_qr_scan", "ios": "https://dc.lft.to/lastmile_qr_scan"}, "fusion_lon": 0.0, "lat": 38.9524415, "bike_id": "eb00d15d76891065ce6499294142b398", "type": "electric_scooter", "is_reserved": 0, "lon": -77.02378633333333}, {"fusion_lat": 0.0, "name": "1279dc8e12fbbbd0696b56333b3bf479", "is_disabled": 0, "rental_uris": {"android": "https://dc.lft.to/lastmile_qr_scan", "ios": "https://dc.lft.to/lastmile_qr_scan"}, "fusion_lon": 0.0, "lat": 38.92125466666667, "bike_id": "1279dc8e12fbbbd0696b56333b3bf479", "type": "electric_scooter", "is_reserved": 0, "lon": -77.043854}, {"fusion_lat": 0.0, "name": "992057767587fa6abbd0cdd8e93cecbe", "is_disabled": 0, "rental_uris": {"android": "https://dc.lft.to/lastmile_qr_scan", "ios": "https://dc.lft.to/lastmile_qr_scan"}, "fusion_lon": 0.0, "lat": 38.92975583333333, "bike_id": "992057767587fa6abbd0cdd8e93cecbe", "type": "electric_scooter", "is_reserved": 0, "lon": -77.04183783333333}, {"fusion_lat": 0.0, "name": "fa8cf63adf1ce839cc262326e586eb0a", "is_disabled": 0, "rental_uris": {"android": "https://dc.lft.to/lastmile_qr_scan", "ios": "https://dc.lft.to/lastmile_qr_scan"}, "fusion_lon": 0.0, "lat": 38.905966, "bike_id": "fa8cf63adf1ce839cc262326e586eb0a", "type": "electric_scooter", "is_reserved": 0, "lon": -77.00693116666666}, {"fusion_lat": 0.0, "name": "e95fa306331ef1e0ef29f3bbbc83ad84", "is_disabled": 0, "rental_uris": {"android": "https://dc.lft.to/lastmile_qr_scan", "ios": "https://dc.lft.to/lastmile_qr_scan"}, "fusion_lon": 0.0, "lat": 38.9267975, "bike_id": "e95fa306331ef1e0ef29f3bbbc83ad84", "type": "electric_scooter", "is_reserved": 0, "lon": -77.03097633333333}, {"fusion_lat": 0.0, "name": "c730dd9c179c3a437c1ad564651a1977", "is_disabled": 0, "rental_uris": {"android": "https://dc.lft.to/lastmile_qr_scan", "ios": "https://dc.lft.to/lastmile_qr_scan"}, "fusion_lon": 0.0, "lat": 38.87286616666667, "bike_id": "c730dd9c179c3a437c1ad564651a1977", "type": "electric_scooter", "is_reserved": 0, "lon": -77.00984566666666}, {"fusion_lat": 0.0, "name": "17bf5a4e6ebe557e92cbd35d95f18d3e", "is_disabled": 0, "rental_uris": {"android": "https://dc.lft.to/lastmile_qr_scan", "ios": "https://dc.lft.to/lastmile_qr_scan"}, "fusion_lon": 0.0, "lat": 38.92628766666667, "bike_id": "17bf5a4e6ebe557e92cbd35d95f18d3e", "type": "electric_scooter", "is_reserved": 0, "lon": -77.04188566666667}, {"fusion_lat": 0.0, "name": "ed4d0099d26e42f9917f468c0cc72b17", "is_disabled": 0, "rental_uris": {"android": "https://dc.lft.to/lastmile_qr_scan", "ios": "https://dc.lft.to/lastmile_qr_scan"}, "fusion_lon": 0.0, "lat": 38.909633166666666, "bike_id": "ed4d0099d26e42f9917f468c0cc72b17", "type": "electric_scooter", "is_reserved": 0, "lon": -77.00905566666667}, {"fusion_lat": 0.0, "name": "1973d31c89fcd2bd5f2c50824ce806f5", "is_disabled": 0, "rental_uris": {"android": "https://dc.lft.to/lastmile_qr_scan", "ios": "https://dc.lft.to/lastmile_qr_scan"}, "fusion_lon": 0.0, "lat": 38.839329, "bike_id": "1973d31c89fcd2bd5f2c50824ce806f5", "type": "electric_bike", "is_reserved": 0, "lon": -77.079}, {"fusion_lat": 0.0, "name": "3071fc32dbb2d6aadd4cecb9a814fd17", "is_disabled": 0, "rental_uris": {"android": "https://dc.lft.to/lastmile_qr_scan", "ios": "https://dc.lft.to/lastmile_qr_scan"}, "fusion_lon": 0.0, "lat": 38.933649333333335, "bike_id": "3071fc32dbb2d6aadd4cecb9a814fd17", "type": "electric_scooter", "is_reserved": 0, "lon": -77.038856}, {"fusion_lat": 0.0, "name": "dee70c7346d2fe946510ab2a1d9d0866", "is_disabled": 0, "rental_uris": {"android": "https://dc.lft.to/lastmile_qr_scan", "ios": "https://dc.lft.to/lastmile_qr_scan"}, "fusion_lon": 0.0, "lat": 38.92592966666667, "bike_id": "dee70c7346d2fe946510ab2a1d9d0866", "type": "electric_scooter", "is_reserved": 0, "lon": -77.02373766666666}, {"fusion_lat": 0.0, "name": "bc4213fadf6a71fff51decf1029dd0ab", "is_disabled": 0, "rental_uris": {"android": "https://dc.lft.to/lastmile_qr_scan", "ios": "https://dc.lft.to/lastmile_qr_scan"}, "fusion_lon": 0.0, "lat": 38.90341516666667, "bike_id": "bc4213fadf6a71fff51decf1029dd0ab", "type": "electric_scooter", "is_reserved": 0, "lon": -76.9725475}, {"fusion_lat": 0.0, "name": "d920c40cdac682fd828620007733c121", "is_disabled": 0, "rental_uris": {"android": "https://dc.lft.to/lastmile_qr_scan", "ios": "https://dc.lft.to/lastmile_qr_scan"}, "fusion_lon": 0.0, "lat": 38.95687866666667, "bike_id": "d920c40cdac682fd828620007733c121", "type": "electric_bike", "is_reserved": 0, "lon": -77.02225583333333}, {"fusion_lat": 0.0, "name": "3121dbbd9fe7bd2f663760cd92ac17b6", "is_disabled": 0, "rental_uris": {"android": "https://dc.lft.to/lastmile_qr_scan", "ios": "https://dc.lft.to/lastmile_qr_scan"}, "fusion_lon": 0.0, "lat": 38.936274, "bike_id": "3121dbbd9fe7bd2f663760cd92ac17b6", "type": "electric_scooter", "is_reserved": 0, "lon": -77.03656783333334}, {"fusion_lat": 0.0, "name": "a7ae1eb7874816b9b26bf3d7963025f1", "is_disabled": 0, "rental_uris": {"android": "https://dc.lft.to/lastmile_qr_scan", "ios": "https://dc.lft.to/lastmile_qr_scan"}, "fusion_lon": 0.0, "lat": 38.903451, "bike_id": "a7ae1eb7874816b9b26bf3d7963025f1", "type": "electric_scooter", "is_reserved": 0, "lon": -77.03872283333334}, {"fusion_lat": 0.0, "name": "1d939b7ca3f1692b31556de86aad3dc8", "is_disabled": 0, "rental_uris": {"android": "https://dc.lft.to/lastmile_qr_scan", "ios": "https://dc.lft.to/lastmile_qr_scan"}, "fusion_lon": 0.0, "lat": 38.941322, "bike_id": "1d939b7ca3f1692b31556de86aad3dc8", "type": "electric_scooter", "is_reserved": 0, "lon": -77.00612116666667}, {"fusion_lat": 0.0, "name": "8cc39691be574299e0b4d283164ce0da", "is_disabled": 0, "rental_uris": {"android": "https://dc.lft.to/lastmile_qr_scan", "ios": "https://dc.lft.to/lastmile_qr_scan"}, "fusion_lon": 0.0, "lat": 38.90695016666667, "bike_id": "8cc39691be574299e0b4d283164ce0da", "type": "electric_scooter", "is_reserved": 0, "lon": -77.01546683333333}, {"fusion_lat": 0.0, "name": "abf72502222b7301d437b21ded7ba27d", "is_disabled": 0, "rental_uris": {"android": "https://dc.lft.to/lastmile_qr_scan", "ios": "https://dc.lft.to/lastmile_qr_scan"}, "fusion_lon": 0.0, "lat": 38.92016183333333, "bike_id": "abf72502222b7301d437b21ded7ba27d", "type": "electric_scooter", "is_reserved": 0, "lon": -77.02502883333334}, {"fusion_lat": 0.0, "name": "3296687f17557e01e4c896e606854bb1", "is_disabled": 0, "rental_uris": {"android": "https://dc.lft.to/lastmile_qr_scan", "ios": "https://dc.lft.to/lastmile_qr_scan"}, "fusion_lon": 0.0, "lat": 38.8745485, "bike_id": "3296687f17557e01e4c896e606854bb1", "type": "electric_scooter", "is_reserved": 0, "lon": -77.00291433333334}, {"fusion_lat": 0.0, "name": "a41326f6344da38d19e65d545c022660", "is_disabled": 0, "rental_uris": {"android": "https://dc.lft.to/lastmile_qr_scan", "ios": "https://dc.lft.to/lastmile_qr_scan"}, "fusion_lon": 0.0, "lat": 38.9326565, "bike_id": "a41326f6344da38d19e65d545c022660", "type": "electric_scooter", "is_reserved": 0, "lon": -77.01923916666667}, {"fusion_lat": 0.0, "name": "49fe6c2209ddcbe16c1b891896d6e88a", "is_disabled": 0, "rental_uris": {"android": "https://dc.lft.to/lastmile_qr_scan", "ios": "https://dc.lft.to/lastmile_qr_scan"}, "fusion_lon": 0.0, "lat": 38.901379166666665, "bike_id": "49fe6c2209ddcbe16c1b891896d6e88a", "type": "electric_scooter", "is_reserved": 0, "lon": -77.02289766666667}, {"fusion_lat": 0.0, "name": "1a1f3262af14e2274c8c39698d2e8ffb", "is_disabled": 0, "rental_uris": {"android": "https://dc.lft.to/lastmile_qr_scan", "ios": "https://dc.lft.to/lastmile_qr_scan"}, "fusion_lon": 0.0, "lat": 38.90601483333333, "bike_id": "1a1f3262af14e2274c8c39698d2e8ffb", "type": "electric_scooter", "is_reserved": 0, "lon": -77.02602916666666}, {"fusion_lat": 0.0, "name": "132410e173c9dfab5a01fbcdfa870437", "is_disabled": 0, "rental_uris": {"android": "https://dc.lft.to/lastmile_qr_scan", "ios": "https://dc.lft.to/lastmile_qr_scan"}, "fusion_lon": 0.0, "lat": 38.940931, "bike_id": "132410e173c9dfab5a01fbcdfa870437", "type": "electric_scooter", "is_reserved": 0, "lon": -77.03280633333334}, {"fusion_lat": 0.0, "name": "c6a6bb94913ae21ebbecbd5c560810ae", "is_disabled": 0, "rental_uris": {"android": "https://dc.lft.to/lastmile_qr_scan", "ios": "https://dc.lft.to/lastmile_qr_scan"}, "fusion_lon": 0.0, "lat": 38.9168255, "bike_id": "c6a6bb94913ae21ebbecbd5c560810ae", "type": "electric_scooter", "is_reserved": 0, "lon": -77.015822}, {"fusion_lat": 0.0, "name": "43c94d3223752adbe26f1435888791d6", "is_disabled": 0, "rental_uris": {"android": "https://dc.lft.to/lastmile_qr_scan", "ios": "https://dc.lft.to/lastmile_qr_scan"}, "fusion_lon": 0.0, "lat": 38.957574, "bike_id": "43c94d3223752adbe26f1435888791d6", "type": "electric_bike", "is_reserved": 0, "lon": -77.02051383333334}, {"fusion_lat": 0.0, "name": "8a97fb6ff88eac87167d47cbc5ef9c47", "is_disabled": 0, "rental_uris": {"android": "https://dc.lft.to/lastmile_qr_scan", "ios": "https://dc.lft.to/lastmile_qr_scan"}, "fusion_lon": 0.0, "lat": 38.930819166666666, "bike_id": "8a97fb6ff88eac87167d47cbc5ef9c47", "type": "electric_scooter", "is_reserved": 0, "lon": -77.02003983333333}, {"fusion_lat": 0.0, "name": "a243a5be50e9087ca2d77825d960276a", "is_disabled": 0, "rental_uris": {"android": "https://dc.lft.to/lastmile_qr_scan", "ios": "https://dc.lft.to/lastmile_qr_scan"}, "fusion_lon": 0.0, "lat": 38.930771166666666, "bike_id": "a243a5be50e9087ca2d77825d960276a", "type": "electric_scooter", "is_reserved": 0, "lon": -77.07762416666667}, {"fusion_lat": 0.0, "name": "ee83049b1ee33bf114016546a55e7766", "is_disabled": 0, "rental_uris": {"android": "https://dc.lft.to/lastmile_qr_scan", "ios": "https://dc.lft.to/lastmile_qr_scan"}, "fusion_lon": 0.0, "lat": 38.91330983333334, "bike_id": "ee83049b1ee33bf114016546a55e7766", "type": "electric_scooter", "is_reserved": 0, "lon": -77.03176233333333}, {"fusion_lat": 0.0, "name": "bc9c8852754763de14b750596f4752eb", "is_disabled": 0, "rental_uris": {"android": "https://dc.lft.to/lastmile_qr_scan", "ios": "https://dc.lft.to/lastmile_qr_scan"}, "fusion_lon": 0.0, "lat": 38.860158, "bike_id": "bc9c8852754763de14b750596f4752eb", "type": "electric_bike", "is_reserved": 0, "lon": -77.12804966666667}, {"fusion_lat": 0.0, "name": "827135d79766bc9cd7e275aed3acc343", "is_disabled": 0, "rental_uris": {"android": "https://dc.lft.to/lastmile_qr_scan", "ios": "https://dc.lft.to/lastmile_qr_scan"}, "fusion_lon": 0.0, "lat": 38.923801166666664, "bike_id": "827135d79766bc9cd7e275aed3acc343", "type": "electric_scooter", "is_reserved": 0, "lon": -77.03182733333334}, {"fusion_lat": 0.0, "name": "1547628707a0df29494d34f934af251c", "is_disabled": 0, "rental_uris": {"android": "https://dc.lft.to/lastmile_qr_scan", "ios": "https://dc.lft.to/lastmile_qr_scan"}, "fusion_lon": 0.0, "lat": 38.92283616666667, "bike_id": "1547628707a0df29494d34f934af251c", "type": "electric_scooter", "is_reserved": 0, "lon": -77.0366105}, {"fusion_lat": 0.0, "name": "dcafb74a73479f75c942f04da6347fe0", "is_disabled": 0, "rental_uris": {"android": "https://dc.lft.to/lastmile_qr_scan", "ios": "https://dc.lft.to/lastmile_qr_scan"}, "fusion_lon": 0.0, "lat": 38.900650166666665, "bike_id": "dcafb74a73479f75c942f04da6347fe0", "type": "electric_scooter", "is_reserved": 0, "lon": -77.01627116666667}, {"fusion_lat": 0.0, "name": "5e66304105ab82d53feb040c9c57b7fc", "is_disabled": 0, "rental_uris": {"android": "https://dc.lft.to/lastmile_qr_scan", "ios": "https://dc.lft.to/lastmile_qr_scan"}, "fusion_lon": 0.0, "lat": 38.89306583333333, "bike_id": "5e66304105ab82d53feb040c9c57b7fc", "type": "electric_scooter", "is_reserved": 0, "lon": -77.05586166666667}, {"fusion_lat": 0.0, "name": "70eef728066906e378b51dc43025ef28", "is_disabled": 0, "rental_uris": {"android": "https://dc.lft.to/lastmile_qr_scan", "ios": "https://dc.lft.to/lastmile_qr_scan"}, "fusion_lon": 0.0, "lat": 38.93621566666667, "bike_id": "70eef728066906e378b51dc43025ef28", "type": "electric_scooter", "is_reserved": 0, "lon": -77.0365085}, {"fusion_lat": 0.0, "name": "2f23842e30a6ef720df5602d0b7bcd32", "is_disabled": 0, "rental_uris": {"android": "https://dc.lft.to/lastmile_qr_scan", "ios": "https://dc.lft.to/lastmile_qr_scan"}, "fusion_lon": 0.0, "lat": 38.9056915, "bike_id": "2f23842e30a6ef720df5602d0b7bcd32", "type": "electric_scooter", "is_reserved": 0, "lon": -77.02200666666667}, {"fusion_lat": 0.0, "name": "39e422d293e2e87f49b8432715a91b09", "is_disabled": 0, "rental_uris": {"android": "https://dc.lft.to/lastmile_qr_scan", "ios": "https://dc.lft.to/lastmile_qr_scan"}, "fusion_lon": 0.0, "lat": 38.87840833333333, "bike_id": "39e422d293e2e87f49b8432715a91b09", "type": "electric_scooter", "is_reserved": 0, "lon": -77.00579083333334}, {"fusion_lat": 0.0, "name": "3ba61762a4d934172c20f7f1dfe5963a", "is_disabled": 0, "rental_uris": {"android": "https://dc.lft.to/lastmile_qr_scan", "ios": "https://dc.lft.to/lastmile_qr_scan"}, "fusion_lon": 0.0, "lat": 38.8613745, "bike_id": "3ba61762a4d934172c20f7f1dfe5963a", "type": "electric_bike", "is_reserved": 0, "lon": -76.9717115}, {"fusion_lat": 0.0, "name": "db1bbfabd68328ab07a480493bba9282", "is_disabled": 0, "rental_uris": {"android": "https://dc.lft.to/lastmile_qr_scan", "ios": "https://dc.lft.to/lastmile_qr_scan"}, "fusion_lon": 0.0, "lat": 38.91549066666666, "bike_id": "db1bbfabd68328ab07a480493bba9282", "type": "electric_scooter", "is_reserved": 0, "lon": -77.03171316666666}, {"fusion_lat": 0.0, "name": "f9ea0aa569f04f8a316f4fad38d1f536", "is_disabled": 0, "rental_uris": {"android": "https://dc.lft.to/lastmile_qr_scan", "ios": "https://dc.lft.to/lastmile_qr_scan"}, "fusion_lon": 0.0, "lat": 38.949798666666666, "bike_id": "f9ea0aa569f04f8a316f4fad38d1f536", "type": "electric_scooter", "is_reserved": 0, "lon": -77.02698266666667}, {"fusion_lat": 0.0, "name": "762496ef452854fb0d97e03c182eb6e6", "is_disabled": 0, "rental_uris": {"android": "https://dc.lft.to/lastmile_qr_scan", "ios": "https://dc.lft.to/lastmile_qr_scan"}, "fusion_lon": 0.0, "lat": 38.92468483333333, "bike_id": "762496ef452854fb0d97e03c182eb6e6", "type": "electric_scooter", "is_reserved": 0, "lon": -77.03534016666667}, {"fusion_lat": 0.0, "name": "06c366deae7b514570c9c9c132d07ee5", "is_disabled": 0, "rental_uris": {"android": "https://dc.lft.to/lastmile_qr_scan", "ios": "https://dc.lft.to/lastmile_qr_scan"}, "fusion_lon": 0.0, "lat": 38.91858766666667, "bike_id": "06c366deae7b514570c9c9c132d07ee5", "type": "electric_scooter", "is_reserved": 0, "lon": -77.04596666666667}, {"fusion_lat": 0.0, "name": "7d52bd8043617d02915b206b34e06e29", "is_disabled": 0, "rental_uris": {"android": "https://dc.lft.to/lastmile_qr_scan", "ios": "https://dc.lft.to/lastmile_qr_scan"}, "fusion_lon": 0.0, "lat": 38.90972566666667, "bike_id": "7d52bd8043617d02915b206b34e06e29", "type": "electric_scooter", "is_reserved": 0, "lon": -77.03866833333333}, {"fusion_lat": 0.0, "name": "11073c04da8a9c602ff0271bc7eb215b", "is_disabled": 0, "rental_uris": {"android": "https://dc.lft.to/lastmile_qr_scan", "ios": "https://dc.lft.to/lastmile_qr_scan"}, "fusion_lon": 0.0, "lat": 38.909696, "bike_id": "11073c04da8a9c602ff0271bc7eb215b", "type": "electric_scooter", "is_reserved": 0, "lon": -77.03863666666666}, {"fusion_lat": 0.0, "name": "2e9bba9cbaeb355fef994b6bb80406b7", "is_disabled": 0, "rental_uris": {"android": "https://dc.lft.to/lastmile_qr_scan", "ios": "https://dc.lft.to/lastmile_qr_scan"}, "fusion_lon": 0.0, "lat": 38.88145633333333, "bike_id": "2e9bba9cbaeb355fef994b6bb80406b7", "type": "electric_scooter", "is_reserved": 0, "lon": -76.99510916666667}, {"fusion_lat": 0.0, "name": "0d6c4bf47e03d581a914f5639277f260", "is_disabled": 0, "rental_uris": {"android": "https://dc.lft.to/lastmile_qr_scan", "ios": "https://dc.lft.to/lastmile_qr_scan"}, "fusion_lon": 0.0, "lat": 38.905475333333335, "bike_id": "0d6c4bf47e03d581a914f5639277f260", "type": "electric_scooter", "is_reserved": 0, "lon": -77.04650683333334}, {"fusion_lat": 0.0, "name": "111e8bd9c8eb716caa49d72d938616ab", "is_disabled": 0, "rental_uris": {"android": "https://dc.lft.to/lastmile_qr_scan", "ios": "https://dc.lft.to/lastmile_qr_scan"}, "fusion_lon": 0.0, "lat": 38.9026145, "bike_id": "111e8bd9c8eb716caa49d72d938616ab", "type": "electric_scooter", "is_reserved": 0, "lon": -77.06318733333333}, {"fusion_lat": 0.0, "name": "d77241f635d8a30c6a9ead78e37ec0d6", "is_disabled": 0, "rental_uris": {"android": "https://dc.lft.to/lastmile_qr_scan", "ios": "https://dc.lft.to/lastmile_qr_scan"}, "fusion_lon": 0.0, "lat": 38.918995, "bike_id": "d77241f635d8a30c6a9ead78e37ec0d6", "type": "electric_scooter", "is_reserved": 0, "lon": -77.00046683333333}, {"fusion_lat": 0.0, "name": "953462488e9243ea789e03bf95fbc6a5", "is_disabled": 0, "rental_uris": {"android": "https://dc.lft.to/lastmile_qr_scan", "ios": "https://dc.lft.to/lastmile_qr_scan"}, "fusion_lon": 0.0, "lat": 38.966624333333336, "bike_id": "953462488e9243ea789e03bf95fbc6a5", "type": "electric_scooter", "is_reserved": 0, "lon": -77.02547066666666}, {"fusion_lat": 0.0, "name": "2157db302b0ac0e888c7869ce0e9ebaa", "is_disabled": 0, "rental_uris": {"android": "https://dc.lft.to/lastmile_qr_scan", "ios": "https://dc.lft.to/lastmile_qr_scan"}, "fusion_lon": 0.0, "lat": 38.88987433333333, "bike_id": "2157db302b0ac0e888c7869ce0e9ebaa", "type": "electric_scooter", "is_reserved": 0, "lon": -76.99252233333333}, {"fusion_lat": 0.0, "name": "8094724d6f702e536bd43ab972337994", "is_disabled": 0, "rental_uris": {"android": "https://dc.lft.to/lastmile_qr_scan", "ios": "https://dc.lft.to/lastmile_qr_scan"}, "fusion_lon": 0.0, "lat": 38.95662766666667, "bike_id": "8094724d6f702e536bd43ab972337994", "type": "electric_bike", "is_reserved": 0, "lon": -77.011274}, {"fusion_lat": 0.0, "name": "f47b0984ab57629e0d7d474fec7a7162", "is_disabled": 0, "rental_uris": {"android": "https://dc.lft.to/lastmile_qr_scan", "ios": "https://dc.lft.to/lastmile_qr_scan"}, "fusion_lon": 0.0, "lat": 38.907089666666664, "bike_id": "f47b0984ab57629e0d7d474fec7a7162", "type": "electric_scooter", "is_reserved": 0, "lon": -77.04504566666667}, {"fusion_lat": 0.0, "name": "77b162cbe4e5b3b713396cae58fcdf11", "is_disabled": 0, "rental_uris": {"android": "https://dc.lft.to/lastmile_qr_scan", "ios": "https://dc.lft.to/lastmile_qr_scan"}, "fusion_lon": 0.0, "lat": 38.89230233333333, "bike_id": "77b162cbe4e5b3b713396cae58fcdf11", "type": "electric_scooter", "is_reserved": 0, "lon": -77.04999283333333}, {"fusion_lat": 0.0, "name": "65f0f5216b7a509a25c196cbcdbe2c62", "is_disabled": 0, "rental_uris": {"android": "https://dc.lft.to/lastmile_qr_scan", "ios": "https://dc.lft.to/lastmile_qr_scan"}, "fusion_lon": 0.0, "lat": 38.934522666666666, "bike_id": "65f0f5216b7a509a25c196cbcdbe2c62", "type": "electric_scooter", "is_reserved": 0, "lon": -77.0387}, {"fusion_lat": 0.0, "name": "486c9e33b96a1e79b58977c0e056a36a", "is_disabled": 0, "rental_uris": {"android": "https://dc.lft.to/lastmile_qr_scan", "ios": "https://dc.lft.to/lastmile_qr_scan"}, "fusion_lon": 0.0, "lat": 38.949773, "bike_id": "486c9e33b96a1e79b58977c0e056a36a", "type": "electric_scooter", "is_reserved": 0, "lon": -77.024456}, {"fusion_lat": 0.0, "name": "fe5e654915556f9770bab2e51301cf85", "is_disabled": 0, "rental_uris": {"android": "https://dc.lft.to/lastmile_qr_scan", "ios": "https://dc.lft.to/lastmile_qr_scan"}, "fusion_lon": 0.0, "lat": 38.918223, "bike_id": "fe5e654915556f9770bab2e51301cf85", "type": "electric_scooter", "is_reserved": 0, "lon": -77.02712183333334}, {"fusion_lat": 0.0, "name": "c43ee990ed26a67ac226bc96c90fe434", "is_disabled": 0, "rental_uris": {"android": "https://dc.lft.to/lastmile_qr_scan", "ios": "https://dc.lft.to/lastmile_qr_scan"}, "fusion_lon": 0.0, "lat": 38.94835583333333, "bike_id": "c43ee990ed26a67ac226bc96c90fe434", "type": "electric_scooter", "is_reserved": 0, "lon": -77.02569616666666}, {"fusion_lat": 0.0, "name": "c012718a1dc77bdd284e53f1db9808a3", "is_disabled": 0, "rental_uris": {"android": "https://dc.lft.to/lastmile_qr_scan", "ios": "https://dc.lft.to/lastmile_qr_scan"}, "fusion_lon": 0.0, "lat": 38.91914766666667, "bike_id": "c012718a1dc77bdd284e53f1db9808a3", "type": "electric_scooter", "is_reserved": 0, "lon": -77.03360316666667}, {"fusion_lat": 0.0, "name": "37813deaa47805c7a5d86a1975592f98", "is_disabled": 0, "rental_uris": {"android": "https://dc.lft.to/lastmile_qr_scan", "ios": "https://dc.lft.to/lastmile_qr_scan"}, "fusion_lon": 0.0, "lat": 38.9112, "bike_id": "37813deaa47805c7a5d86a1975592f98", "type": "electric_scooter", "is_reserved": 0, "lon": -77.038309}, {"fusion_lat": 0.0, "name": "e3ff125bb6795beec60c900eb0fda085", "is_disabled": 0, "rental_uris": {"android": "https://dc.lft.to/lastmile_qr_scan", "ios": "https://dc.lft.to/lastmile_qr_scan"}, "fusion_lon": 0.0, "lat": 38.879516833333334, "bike_id": "e3ff125bb6795beec60c900eb0fda085", "type": "electric_scooter", "is_reserved": 0, "lon": -77.008359}, {"fusion_lat": 0.0, "name": "0bd71242b05f670861671109720e2a08", "is_disabled": 0, "rental_uris": {"android": "https://dc.lft.to/lastmile_qr_scan", "ios": "https://dc.lft.to/lastmile_qr_scan"}, "fusion_lon": 0.0, "lat": 38.962348166666665, "bike_id": "0bd71242b05f670861671109720e2a08", "type": "electric_bike", "is_reserved": 0, "lon": -76.92799466666666}, {"fusion_lat": 0.0, "name": "20025ccda7a80fcbc7956b7e4a58844e", "is_disabled": 0, "rental_uris": {"android": "https://dc.lft.to/lastmile_qr_scan", "ios": "https://dc.lft.to/lastmile_qr_scan"}, "fusion_lon": 0.0, "lat": 38.90375083333333, "bike_id": "20025ccda7a80fcbc7956b7e4a58844e", "type": "electric_scooter", "is_reserved": 0, "lon": -77.03791183333334}, {"fusion_lat": 0.0, "name": "5a089aa54212bb750b15f8c0e2b56d84", "is_disabled": 0, "rental_uris": {"android": "https://dc.lft.to/lastmile_qr_scan", "ios": "https://dc.lft.to/lastmile_qr_scan"}, "fusion_lon": 0.0, "lat": 38.9011865, "bike_id": "5a089aa54212bb750b15f8c0e2b56d84", "type": "electric_scooter", "is_reserved": 0, "lon": -77.041774}, {"fusion_lat": 0.0, "name": "44eb9122d527f5b87f99d2c90897ff70", "is_disabled": 0, "rental_uris": {"android": "https://dc.lft.to/lastmile_qr_scan", "ios": "https://dc.lft.to/lastmile_qr_scan"}, "fusion_lon": 0.0, "lat": 38.899940666666666, "bike_id": "44eb9122d527f5b87f99d2c90897ff70", "type": "electric_scooter", "is_reserved": 0, "lon": -77.02290383333333}, {"fusion_lat": 0.0, "name": "0c86cdd6d2c767d105341054f93461f1", "is_disabled": 0, "rental_uris": {"android": "https://dc.lft.to/lastmile_qr_scan", "ios": "https://dc.lft.to/lastmile_qr_scan"}, "fusion_lon": 0.0, "lat": 38.959568, "bike_id": "0c86cdd6d2c767d105341054f93461f1", "type": "electric_bike", "is_reserved": 0, "lon": -77.03058833333333}, {"fusion_lat": 0.0, "name": "7a6ca3a883e168af2b3895f4b97bc3b0", "is_disabled": 0, "rental_uris": {"android": "https://dc.lft.to/lastmile_qr_scan", "ios": "https://dc.lft.to/lastmile_qr_scan"}, "fusion_lon": 0.0, "lat": 38.9059755, "bike_id": "7a6ca3a883e168af2b3895f4b97bc3b0", "type": "electric_scooter", "is_reserved": 0, "lon": -77.071419}, {"fusion_lat": 0.0, "name": "4a0b4c078be8dcf3ef791473127c891b", "is_disabled": 0, "rental_uris": {"android": "https://dc.lft.to/lastmile_qr_scan", "ios": "https://dc.lft.to/lastmile_qr_scan"}, "fusion_lon": 0.0, "lat": 38.920393833333335, "bike_id": "4a0b4c078be8dcf3ef791473127c891b", "type": "electric_scooter", "is_reserved": 0, "lon": -77.0340965}, {"fusion_lat": 0.0, "name": "6fac29bb0b9553648f588b02481f64a1", "is_disabled": 0, "rental_uris": {"android": "https://dc.lft.to/lastmile_qr_scan", "ios": "https://dc.lft.to/lastmile_qr_scan"}, "fusion_lon": 0.0, "lat": 38.927364833333336, "bike_id": "6fac29bb0b9553648f588b02481f64a1", "type": "electric_scooter", "is_reserved": 0, "lon": -77.02278516666667}, {"fusion_lat": 0.0, "name": "0253f34ae32628bb59878844fb6bcff7", "is_disabled": 0, "rental_uris": {"android": "https://dc.lft.to/lastmile_qr_scan", "ios": "https://dc.lft.to/lastmile_qr_scan"}, "fusion_lon": 0.0, "lat": 38.938748333333336, "bike_id": "0253f34ae32628bb59878844fb6bcff7", "type": "electric_scooter", "is_reserved": 0, "lon": -77.02919116666666}, {"fusion_lat": 0.0, "name": "09d4ab5c941f6ed2f4c56332d5bb6625", "is_disabled": 0, "rental_uris": {"android": "https://dc.lft.to/lastmile_qr_scan", "ios": "https://dc.lft.to/lastmile_qr_scan"}, "fusion_lon": 0.0, "lat": 38.920342166666664, "bike_id": "09d4ab5c941f6ed2f4c56332d5bb6625", "type": "electric_scooter", "is_reserved": 0, "lon": -76.98993983333334}, {"fusion_lat": 0.0, "name": "eedc2daeffba4b3b0889a879ce8fa3c4", "is_disabled": 0, "rental_uris": {"android": "https://dc.lft.to/lastmile_qr_scan", "ios": "https://dc.lft.to/lastmile_qr_scan"}, "fusion_lon": 0.0, "lat": 38.89613283333333, "bike_id": "eedc2daeffba4b3b0889a879ce8fa3c4", "type": "electric_scooter", "is_reserved": 0, "lon": -77.02136133333333}, {"fusion_lat": 0.0, "name": "93e75aaa3a05d2001cb9b53b262c2fc0", "is_disabled": 0, "rental_uris": {"android": "https://dc.lft.to/lastmile_qr_scan", "ios": "https://dc.lft.to/lastmile_qr_scan"}, "fusion_lon": 0.0, "lat": 38.92773966666667, "bike_id": "93e75aaa3a05d2001cb9b53b262c2fc0", "type": "electric_scooter", "is_reserved": 0, "lon": -77.02750133333333}, {"fusion_lat": 0.0, "name": "9400f9f9f3a05341ff9f68a711a03c6b", "is_disabled": 0, "rental_uris": {"android": "https://dc.lft.to/lastmile_qr_scan", "ios": "https://dc.lft.to/lastmile_qr_scan"}, "fusion_lon": 0.0, "lat": 38.912522833333334, "bike_id": "9400f9f9f3a05341ff9f68a711a03c6b", "type": "electric_scooter", "is_reserved": 0, "lon": -77.03865416666666}, {"fusion_lat": 0.0, "name": "d00401b65ecca6e698c9541c59a68896", "is_disabled": 0, "rental_uris": {"android": "https://dc.lft.to/lastmile_qr_scan", "ios": "https://dc.lft.to/lastmile_qr_scan"}, "fusion_lon": 0.0, "lat": 38.925514, "bike_id": "d00401b65ecca6e698c9541c59a68896", "type": "electric_scooter", "is_reserved": 0, "lon": -77.03336933333334}, {"fusion_lat": 0.0, "name": "b237626c9ba14556e0a90547c80d572e", "is_disabled": 0, "rental_uris": {"android": "https://dc.lft.to/lastmile_qr_scan", "ios": "https://dc.lft.to/lastmile_qr_scan"}, "fusion_lon": 0.0, "lat": 38.91440383333333, "bike_id": "b237626c9ba14556e0a90547c80d572e", "type": "electric_scooter", "is_reserved": 0, "lon": -77.01224266666667}, {"fusion_lat": 0.0, "name": "96213a52053bc29146437176508e48de", "is_disabled": 0, "rental_uris": {"android": "https://dc.lft.to/lastmile_qr_scan", "ios": "https://dc.lft.to/lastmile_qr_scan"}, "fusion_lon": 0.0, "lat": 38.85355666666667, "bike_id": "96213a52053bc29146437176508e48de", "type": "electric_bike", "is_reserved": 0, "lon": -77.13466883333334}, {"fusion_lat": 0.0, "name": "e579c0ea351a072d050eb7d24b920697", "is_disabled": 0, "rental_uris": {"android": "https://dc.lft.to/lastmile_qr_scan", "ios": "https://dc.lft.to/lastmile_qr_scan"}, "fusion_lon": 0.0, "lat": 38.8475545, "bike_id": "e579c0ea351a072d050eb7d24b920697", "type": "electric_scooter", "is_reserved": 0, "lon": -76.99502283333334}, {"fusion_lat": 0.0, "name": "a7b6b6f3055e336df4c71d4603914a90", "is_disabled": 0, "rental_uris": {"android": "https://dc.lft.to/lastmile_qr_scan", "ios": "https://dc.lft.to/lastmile_qr_scan"}, "fusion_lon": 0.0, "lat": 38.92467466666667, "bike_id": "a7b6b6f3055e336df4c71d4603914a90", "type": "electric_scooter", "is_reserved": 0, "lon": -77.035329}, {"fusion_lat": 0.0, "name": "cd0c04919ddd9a6f9b73f93c6bbf0427", "is_disabled": 0, "rental_uris": {"android": "https://dc.lft.to/lastmile_qr_scan", "ios": "https://dc.lft.to/lastmile_qr_scan"}, "fusion_lon": 0.0, "lat": 38.87493933333333, "bike_id": "cd0c04919ddd9a6f9b73f93c6bbf0427", "type": "electric_scooter", "is_reserved": 0, "lon": -77.00030866666667}, {"fusion_lat": 0.0, "name": "67394efe7839aed357ef9cb3d13d540d", "is_disabled": 0, "rental_uris": {"android": "https://dc.lft.to/lastmile_qr_scan", "ios": "https://dc.lft.to/lastmile_qr_scan"}, "fusion_lon": 0.0, "lat": 38.920519166666665, "bike_id": "67394efe7839aed357ef9cb3d13d540d", "type": "electric_scooter", "is_reserved": 0, "lon": -76.9988135}, {"fusion_lat": 0.0, "name": "0a53d4e5db9f66366a7930564607fab6", "is_disabled": 0, "rental_uris": {"android": "https://dc.lft.to/lastmile_qr_scan", "ios": "https://dc.lft.to/lastmile_qr_scan"}, "fusion_lon": 0.0, "lat": 38.925942, "bike_id": "0a53d4e5db9f66366a7930564607fab6", "type": "electric_scooter", "is_reserved": 0, "lon": -77.037445}, {"fusion_lat": 0.0, "name": "3fe7198673a536c4a003792356c514a5", "is_disabled": 0, "rental_uris": {"android": "https://dc.lft.to/lastmile_qr_scan", "ios": "https://dc.lft.to/lastmile_qr_scan"}, "fusion_lon": 0.0, "lat": 38.91140083333333, "bike_id": "3fe7198673a536c4a003792356c514a5", "type": "electric_scooter", "is_reserved": 0, "lon": -77.02390066666666}, {"fusion_lat": 0.0, "name": "40640acc2db673e259bde55db1f55172", "is_disabled": 0, "rental_uris": {"android": "https://dc.lft.to/lastmile_qr_scan", "ios": "https://dc.lft.to/lastmile_qr_scan"}, "fusion_lon": 0.0, "lat": 38.913252166666666, "bike_id": "40640acc2db673e259bde55db1f55172", "type": "electric_scooter", "is_reserved": 0, "lon": -77.03191533333333}, {"fusion_lat": 0.0, "name": "b23cbb9089c65456ab996875ac75980b", "is_disabled": 0, "rental_uris": {"android": "https://dc.lft.to/lastmile_qr_scan", "ios": "https://dc.lft.to/lastmile_qr_scan"}, "fusion_lon": 0.0, "lat": 38.891109666666665, "bike_id": "b23cbb9089c65456ab996875ac75980b", "type": "electric_scooter", "is_reserved": 0, "lon": -76.943787}, {"fusion_lat": 0.0, "name": "eb4255867193769b00aebcc073f0224b", "is_disabled": 0, "rental_uris": {"android": "https://dc.lft.to/lastmile_qr_scan", "ios": "https://dc.lft.to/lastmile_qr_scan"}, "fusion_lon": 0.0, "lat": 38.78272833333333, "bike_id": "eb4255867193769b00aebcc073f0224b", "type": "electric_bike", "is_reserved": 0, "lon": -77.016107},