{"data": {"bikes": [{"lon": -77.0635755, "name": "689ce7acbd0531e04babd936474974c7", "is_disabled": 0, "type": "electric_scooter", "is_reserved": 0, "fusion_lon": 0.0, "lat": 38.906786833333335, "rental_uris": {"ios": "https://dc.lft.to/lastmile_qr_scan", "android": "https://dc.lft.to/lastmile_qr_scan"}, "bike_id": "689ce7acbd0531e04babd936474974c7", "fusion_lat": 0.0}, {"lon": -77.02195333333333, "name": "7ab861305af2992e01f24c63db9490d1", "is_disabled": 0, "type": "electric_scooter", "is_reserved": 0, "fusion_lon": 0.0, "lat": 38.877854, "rental_uris": {"ios": "https://dc.lft.to/lastmile_qr_scan", "android": "https://dc.lft.to/lastmile_qr_scan"}, "bike_id": "7ab861305af2992e01f24c63db9490d1", "fusion_lat": 0.0}, {"lon": -77.04575916666667, "name": "378e4bd3dd510f65763b1f6bf336ab49", "is_disabled": 0, "type": "electric_scooter", "is_reserved": 0, "fusion_lon": 0.0, "lat": 38.921257833333335, "rental_uris": {"ios": "https://dc.lft.to/lastmile_qr_scan", "android": "https://dc.lft.to/lastmile_qr_scan"}, "bike_id": "378e4bd3dd510f65763b1f6bf336ab49", "fusion_lat": 0.0}, {"lon": -77.02680166666667, "name": "551c754ca92f31a948cc529393b408b7", "is_disabled": 0, "type": "electric_scooter", "is_reserved": 0, "fusion_lon": 0.0, "lat": 38.92492166666667, "rental_uris": {"ios": "https://dc.lft.to/lastmile_qr_scan", "android": "https://dc.lft.to/lastmile_qr_scan"}, "bike_id": "551c754ca92f31a948cc529393b408b7", "fusion_lat": 0.0}, {"lon": -77.02973333333334, "name": "b9dc84894df12779d34dfaf2d45c47f9", "is_disabled": 0, "type": "electric_scooter", "is_reserved": 0, "fusion_lon": 0.0, "lat": 38.91093016666667, "rental_uris": {"ios": "https://dc.lft.to/lastmile_qr_scan", "android": "https://dc.lft.to/lastmile_qr_scan"}, "bike_id": "b9dc84894df12779d34dfaf2d45c47f9", "fusion_lat": 0.0}, {"lon": -77.016137, "name": "243fcdbb955eca47008e4e6d32207afe", "is_disabled": 0, "type": "electric_scooter", "is_reserved": 0, "fusion_lon": 0.0, "lat": 38.905889, "rental_uris": {"ios": "https://dc.lft.to/lastmile_qr_scan", "android": "https://dc.lft.to/lastmile_qr_scan"}, "bike_id": "243fcdbb955eca47008e4e6d32207afe", "fusion_lat": 0.0}, {"lon": -77.02610116666666, "name": "b4035520eb62ca9a65ef211faf96f275", "is_disabled": 0, "type": "electric_scooter", "is_reserved": 0, "fusion_lon": 0.0, "lat": 38.920257166666666, "rental_uris": {"ios": "https://dc.lft.to/lastmile_qr_scan", "android": "https://dc.lft.to/lastmile_qr_scan"}, "bike_id": "b4035520eb62ca9a65ef211faf96f275", "fusion_lat": 0.0}, {"lon": -77.02192133333334, "name": "cf6af957a1d5db6b1868269c0f05fce6", "is_disabled": 0, "type": "electric_scooter", "is_reserved": 0, "fusion_lon": 0.0, "lat": 38.910442333333336, "rental_uris": {"ios": "https://dc.lft.to/lastmile_qr_scan", "android": "https://dc.lft.to/lastmile_qr_scan"}, "bike_id": "cf6af957a1d5db6b1868269c0f05fce6", "fusion_lat": 0.0}, {"lon": -77.0217425, "name": "b8792f69999118ace7bbf31b687fc886", "is_disabled": 0, "type": "electric_scooter", "is_reserved": 0, "fusion_lon": 0.0, "lat": 38.92635533333333, "rental_uris": {"ios": "https://dc.lft.to/lastmile_qr_scan", "android": "https://dc.lft.to/lastmile_qr_scan"}, "bike_id": "b8792f69999118ace7bbf31b687fc886", "fusion_lat": 0.0}, {"lon": -77.04660966666667, "name": "3376bb77a469eec92a2d113ec9f10317", "is_disabled": 0, "type": "electric_scooter", "is_reserved": 0, "fusion_lon": 0.0, "lat": 38.89255683333333, "rental_uris": {"ios": "https://dc.lft.to/lastmile_qr_scan", "android": "https://dc.lft.to/lastmile_qr_scan"}, "bike_id": "3376bb77a469eec92a2d113ec9f10317", "fusion_lat": 0.0}, {"lon": -77.03196666666666, "name": "714aa9b4ae57b1f8669d535a314fda37", "is_disabled": 0, "type": "electric_scooter", "is_reserved": 0, "fusion_lon": 0.0, "lat": 38.9194455, "rental_uris": {"ios": "https://dc.lft.to/lastmile_qr_scan", "android": "https://dc.lft.to/lastmile_qr_scan"}, "bike_id": "714aa9b4ae57b1f8669d535a314fda37", "fusion_lat": 0.0}, {"lon": -76.90291316666666, "name": "6b9ea2733dadf6337387e91063e1663d", "is_disabled": 0, "type": "electric_bike", "is_reserved": 0, "fusion_lon": 0.0, "lat": 39.00300933333333, "rental_uris": {"ios": "https://dc.lft.to/lastmile_qr_scan", "android": "https://dc.lft.to/lastmile_qr_scan"}, "bike_id": "6b9ea2733dadf6337387e91063e1663d", "fusion_lat": 0.0}, {"lon": -76.937154, "name": "fc7b029e9bbab9192027d51b1f19294d", "is_disabled": 0, "type": "electric_scooter", "is_reserved": 0, "fusion_lon": 0.0, "lat": 38.888578, "rental_uris": {"ios": "https://dc.lft.to/lastmile_qr_scan", "android": "https://dc.lft.to/lastmile_qr_scan"}, "bike_id": "fc7b029e9bbab9192027d51b1f19294d", "fusion_lat": 0.0}, {"lon": -77.03469116666666, "name": "dd59686b0b260d75bae0b84010a51687", "is_disabled": 0, "type": "electric_scooter", "is_reserved": 0, "fusion_lon": 0.0, "lat": 38.90866, "rental_uris": {"ios": "https://dc.lft.to/lastmile_qr_scan", "android": "https://dc.lft.to/lastmile_qr_scan"}, "bike_id": "dd59686b0b260d75bae0b84010a51687", "fusion_lat": 0.0}, {"lon": -76.99627283333334, "name": "18b4e86dce78d23f9ab499924688c2f2", "is_disabled": 0, "type": "electric_scooter", "is_reserved": 0, "fusion_lon": 0.0, "lat": 38.921874, "rental_uris": {"ios": "https://dc.lft.to/lastmile_qr_scan", "android": "https://dc.lft.to/lastmile_qr_scan"}, "bike_id": "18b4e86dce78d23f9ab499924688c2f2", "fusion_lat": 0.0}, {"lon": -77.003824, "name": "0349a493189591793c0c1f9d3f949dd4", "is_disabled": 0, "type": "electric_scooter", "is_reserved": 0, "fusion_lon": 0.0, "lat": 38.876369, "rental_uris": {"ios": "https://dc.lft.to/lastmile_qr_scan", "android": "https://dc.lft.to/lastmile_qr_scan"}, "bike_id": "0349a493189591793c0c1f9d3f949dd4", "fusion_lat": 0.0}, {"lon": -77.04722083333333, "name": "658d5874c881e9078ba207a7a735ce48", "is_disabled": 0, "type": "electric_scooter", "is_reserved": 0, "fusion_lon": 0.0, "lat": 38.8997395, "rental_uris": {"ios": "https://dc.lft.to/lastmile_qr_scan", "android": "https://dc.lft.to/lastmile_qr_scan"}, "bike_id": "658d5874c881e9078ba207a7a735ce48", "fusion_lat": 0.0}, {"lon": -77.01951233333334, "name": "c54813d77ba7f195327ed8b7d66601db", "is_disabled": 0, "type": "electric_scooter", "is_reserved": 0, "fusion_lon": 0.0, "lat": 38.92370866666667, "rental_uris": {"ios": "https://dc.lft.to/lastmile_qr_scan", "android": "https://dc.lft.to/lastmile_qr_scan"}, "bike_id": "c54813d77ba7f195327ed8b7d66601db", "fusion_lat": 0.0}, {"lon": -77.06942283333333, "name": "2fea27cbc5186eb093a4ee6e7830828b", "is_disabled": 0, "type": "electric_bike", "is_reserved": 0, "fusion_lon": 0.0, "lat": 38.847626166666664, "rental_uris": {"ios": "https://dc.lft.to/lastmile_qr_scan", "android": "https://dc.lft.to/lastmile_qr_scan"}, "bike_id": "2fea27cbc5186eb093a4ee6e7830828b", "fusion_lat": 0.0}, {"lon": -77.020266, "name": "c8c202b898d15317272d39c0b77905e4", "is_disabled": 0, "type": "electric_scooter", "is_reserved": 0, "fusion_lon": 0.0, "lat": 38.924041, "rental_uris": {"ios": "https://dc.lft.to/lastmile_qr_scan", "android": "https://dc.lft.to/lastmile_qr_scan"}, "bike_id": "c8c202b898d15317272d39c0b77905e4", "fusion_lat": 0.0}, {"lon": -76.98791766666666, "name": "5620fdcd4573846a787549eea8bc241b", "is_disabled": 0, "type": "electric_scooter", "is_reserved": 0, "fusion_lon": 0.0, "lat": 38.87836466666667, "rental_uris": {"ios": "https://dc.lft.to/lastmile_qr_scan", "android": "https://dc.lft.to/lastmile_qr_scan"}, "bike_id": "5620fdcd4573846a787549eea8bc241b", "fusion_lat": 0.0}, {"lon": -76.9735375, "name": "ba635ab7eaa7b59eaa64fc1946046b10", "is_disabled": 0, "type": "electric_bike", "is_reserved": 0, "fusion_lon": 0.0, "lat": 38.86551766666667, "rental_uris": {"ios": "https://dc.lft.to/lastmile_qr_scan", "android": "https://dc.lft.to/lastmile_qr_scan"}, "bike_id": "ba635ab7eaa7b59eaa64fc1946046b10", "fusion_lat": 0.0}, {"lon": -77.03520183333333, "name": "d4b55b75a88128c560d8c59da6887831", "is_disabled": 0, "type": "electric_scooter", "is_reserved": 0, "fusion_lon": 0.0, "lat": 38.922344, "rental_uris": {"ios": "https://dc.lft.to/lastmile_qr_scan", "android": "https://dc.lft.to/lastmile_qr_scan"}, "bike_id": "d4b55b75a88128c560d8c59da6887831", "fusion_lat": 0.0}, {"lon": -77.0252575, "name": "dc2cd533e424b74ace811490cc2490e7", "is_disabled": 0, "type": "electric_scooter", "is_reserved": 0, "fusion_lon": 0.0, "lat": 38.9208175, "rental_uris": {"ios": "https://dc.lft.to/lastmile_qr_scan", "android": "https://dc.lft.to/lastmile_qr_scan"}, "bike_id": "dc2cd533e424b74ace811490cc2490e7", "fusion_lat": 0.0}, {"lon": -77.027465, "name": "1ca7593b070ee3809ea0b8661a12c281", "is_disabled": 0, "type": "electric_scooter", "is_reserved": 0, "fusion_lon": 0.0, "lat": 38.92411833333333, "rental_uris": {"ios": "https://dc.lft.to/lastmile_qr_scan", "android": "https://dc.lft.to/lastmile_qr_scan"}, "bike_id": "1ca7593b070ee3809ea0b8661a12c281", "fusion_lat": 0.0}, {"lon": -77.024937, "name": "c0d5fda40345f17bd81b9c8548199bcf", "is_disabled": 0, "type": "electric_scooter", "is_reserved": 0, "fusion_lon": 0.0, "lat": 38.884661, "rental_uris": {"ios": "https://dc.lft.to/lastmile_qr_scan", "android": "https://dc.lft.to/lastmile_qr_scan"}, "bike_id": "c0d5fda40345f17bd81b9c8548199bcf", "fusion_lat": 0.0}, {"lon": -77.03417883333333, "name": "98416949e18c165405cd2d5fa4257fe9", "is_disabled": 0, "type": "electric_scooter", "is_reserved": 0, "fusion_lon": 0.0, "lat": 38.93532283333333, "rental_uris": {"ios": "https://dc.lft.to/lastmile_qr_scan", "android": "https://dc.lft.to/lastmile_qr_scan"}, "bike_id": "98416949e18c165405cd2d5fa4257fe9", "fusion_lat": 0.0}, {"lon": -77.04014333333333, "name": "bfa6f3a3ac661f71106a7979a81fc017", "is_disabled": 0, "type": "electric_scooter", "is_reserved": 0, "fusion_lon": 0.0, "lat": 38.90276633333333, "rental_uris": {"ios": "https://dc.lft.to/lastmile_qr_scan", "android": "https://dc.lft.to/lastmile_qr_scan"}, "bike_id": "bfa6f3a3ac661f71106a7979a81fc017", "fusion_lat": 0.0}, {"lon": -77.03435866666666, "name": "1583f19ad89d21425f39366525dbaca1", "is_disabled": 0, "type": "electric_scooter", "is_reserved": 0, "fusion_lon": 0.0, "lat": 38.917839, "rental_uris": {"ios": "https://dc.lft.to/lastmile_qr_scan", "android": "https://dc.lft.to/lastmile_qr_scan"}, "bike_id": "1583f19ad89d21425f39366525dbaca1", "fusion_lat": 0.0}, {"lon": -77.03454516666666, "name": "e42ef0ca6d33ae679c0aae59b5c71218", "is_disabled": 0, "type": "electric_scooter", "is_reserved": 0, "fusion_lon": 0.0, "lat": 38.916698333333336, "rental_uris": {"ios": "https://dc.lft.to/lastmile_qr_scan", "android": "https://dc.lft.to/lastmile_qr_scan"}, "bike_id": "e42ef0ca6d33ae679c0aae59b5c71218", "fusion_lat": 0.0}, {"lon": -77.053871, "name": "94249ff1453d97fb3259fe32c2ec2dc1", "is_disabled": 0, "type": "electric_scooter", "is_reserved": 0, "fusion_lon": 0.0, "lat": 38.928059, "rental_uris": {"ios": "https://dc.lft.to/lastmile_qr_scan", "android": "https://dc.lft.to/lastmile_qr_scan"}, "bike_id": "94249ff1453d97fb3259fe32c2ec2dc1", "fusion_lat": 0.0}, {"lon": -77.05764166666667, "name": "15a61bb3735292d92a0e17ed93dc1991", "is_disabled": 0, "type": "electric_scooter", "is_reserved": 0, "fusion_lon": 0.0, "lat": 38.933775833333335, "rental_uris": {"ios": "https://dc.lft.to/lastmile_qr_scan", "android": "https://dc.lft.to/lastmile_qr_scan"}, "bike_id": "15a61bb3735292d92a0e17ed93dc1991", "fusion_lat": 0.0}, {"lon": -77.030242, "name": "c8aa4fbc7762792fd5fed641bb3e0a16", "is_disabled": 0, "type": "electric_scooter", "is_reserved": 0, "fusion_lon": 0.0, "lat": 38.922398666666666, "rental_uris": {"ios": "https://dc.lft.to/lastmile_qr_scan", "android": "https://dc.lft.to/lastmile_qr_scan"}, "bike_id": "c8aa4fbc7762792fd5fed641bb3e0a16", "fusion_lat": 0.0}, {"lon": -77.03349433333334, "name": "deff47af375760679ab7a69e107a7651", "is_disabled": 0, "type": "electric_scooter", "is_reserved": 0, "fusion_lon": 0.0, "lat": 38.89253016666667, "rental_uris": {"ios": "https://dc.lft.to/lastmile_qr_scan", "android": "https://dc.lft.to/lastmile_qr_scan"}, "bike_id": "deff47af375760679ab7a69e107a7651", "fusion_lat": 0.0}, {"lon": -77.0380455, "name": "aae099b3b666ecc23537d2a04826fd42", "is_disabled": 0, "type": "electric_scooter", "is_reserved": 0, "fusion_lon": 0.0, "lat": 38.92313466666667, "rental_uris": {"ios": "https://dc.lft.to/lastmile_qr_scan", "android": "https://dc.lft.to/lastmile_qr_scan"}, "bike_id": "aae099b3b666ecc23537d2a04826fd42", "fusion_lat": 0.0}, {"lon": -77.0113715, "name": "b3b71070e41ffb803a55f791b91e3dd8", "is_disabled": 0, "type": "electric_scooter", "is_reserved": 0, "fusion_lon": 0.0, "lat": 38.90726983333333, "rental_uris": {"ios": "https://dc.lft.to/lastmile_qr_scan", "android": "https://dc.lft.to/lastmile_qr_scan"}, "bike_id": "b3b71070e41ffb803a55f791b91e3dd8", "fusion_lat": 0.0}, {"lon": -77.0214115, "name": "7d894551065b2f381586f9b0862ebf29", "is_disabled": 0, "type": "electric_scooter", "is_reserved": 0, "fusion_lon": 0.0, "lat": 38.9211765, "rental_uris": {"ios": "https://dc.lft.to/lastmile_qr_scan", "android": "https://dc.lft.to/lastmile_qr_scan"}, "bike_id": "7d894551065b2f381586f9b0862ebf29", "fusion_lat": 0.0}, {"lon": -76.99238816666667, "name": "553cfcb2f26176acc6292305676e6bf0", "is_disabled": 0, "type": "electric_scooter", "is_reserved": 0, "fusion_lon": 0.0, "lat": 38.90206366666666, "rental_uris": {"ios": "https://dc.lft.to/lastmile_qr_scan", "android": "https://dc.lft.to/lastmile_qr_scan"}, "bike_id": "553cfcb2f26176acc6292305676e6bf0", "fusion_lat": 0.0}, {"lon": -77.01907466666667, "name": "9c2086ef963aeb66ecc83494ba1160a8", "is_disabled": 0, "type": "electric_scooter", "is_reserved": 0, "fusion_lon": 0.0, "lat": 38.91389016666667, "rental_uris": {"ios": "https://dc.lft.to/lastmile_qr_scan", "android": "https://dc.lft.to/lastmile_qr_scan"}, "bike_id": "9c2086ef963aeb66ecc83494ba1160a8", "fusion_lat": 0.0}, {"lon": -77.0252025, "name": "80a493508bb570a13c0cc81a839d155b", "is_disabled": 0, "type": "electric_scooter", "is_reserved": 0, "fusion_lon": 0.0, "lat": 38.94567983333334, "rental_uris": {"ios": "https://dc.lft.to/lastmile_qr_scan", "android": "https://dc.lft.to/lastmile_qr_scan"}, "bike_id": "80a493508bb570a13c0cc81a839d155b", "fusion_lat": 0.0}, {"lon": -77.04172533333333, "name": "74294d51e9d3f77a9d3bc53839db7109", "is_disabled": 0, "type": "electric_scooter", "is_reserved": 0, "fusion_lon": 0.0, "lat": 38.9073515, "rental_uris": {"ios": "https://dc.lft.to/lastmile_qr_scan", "android": "https://dc.lft.to/lastmile_qr_scan"}, "bike_id": "74294d51e9d3f77a9d3bc53839db7109", "fusion_lat": 0.0}, {"lon": -77.03668033333334, "name": "f4ab87d623576952cb47e4ef535b8082", "is_disabled": 0, "type": "electric_scooter", "is_reserved": 0, "fusion_lon": 0.0, "lat": 38.9362595, "rental_uris": {"ios": "https://dc.lft.to/lastmile_qr_scan", "android": "https://dc.lft.to/lastmile_qr_scan"}, "bike_id": "f4ab87d623576952cb47e4ef535b8082", "fusion_lat": 0.0}, {"lon": -77.09402216666666, "name": "3b31df92d9d258e68528fd750d44d65c", "is_disabled": 0, "type": "electric_bike", "is_reserved": 0, "fusion_lon": 0.0, "lat": 38.978154833333335, "rental_uris": {"ios": "https://dc.lft.to/lastmile_qr_scan", "android": "https://dc.lft.to/lastmile_qr_scan"}, "bike_id": "3b31df92d9d258e68528fd750d44d65c", "fusion_lat": 0.0}, {"lon": -76.94884116666667, "name": "162cc90260aaba6034c56bfea0e6726e", "is_disabled": 0, "type": "electric_scooter", "is_reserved": 0, "fusion_lon": 0.0, "lat": 38.895096333333335, "rental_uris": {"ios": "https://dc.lft.to/lastmile_qr_scan", "android": "https://dc.lft.to/lastmile_qr_scan"}, "bike_id": "162cc90260aaba6034c56bfea0e6726e", "fusion_lat": 0.0}, {"lon": -77.23393983333334, "name": "775b7a49e90367808c6e7076c59d8ee0", "is_disabled": 0, "type": "electric_bike", "is_reserved": 0, "fusion_lon": 0.0, "lat": 38.8717315, "rental_uris": {"ios": "https://dc.lft.to/lastmile_qr_scan", "android": "https://dc.lft.to/lastmile_qr_scan"}, "bike_id": "775b7a49e90367808c6e7076c59d8ee0", "fusion_lat": 0.0}, {"lon": -77.09687883333334, "name": "e01d14765521fec1cbcbb0fd3177a794", "is_disabled": 0, "type": "electric_bike", "is_reserved": 0, "fusion_lon": 0.0, "lat": 38.807412166666666, "rental_uris": {"ios": "https://dc.lft.to/lastmile_qr_scan", "android": "https://dc.lft.to/lastmile_qr_scan"}, "bike_id": "e01d14765521fec1cbcbb0fd3177a794", "fusion_lat": 0.0}, {"lon": -77.01983316666667, "name": "b27b87444448632f1db508f698dccc8c", "is_disabled": 0, "type": "electric_scooter", "is_reserved": 0, "fusion_lon": 0.0, "lat": 38.902013, "rental_uris": {"ios": "https://dc.lft.to/lastmile_qr_scan", "android": "https://dc.lft.to/lastmile_qr_scan"}, "bike_id": "b27b87444448632f1db508f698dccc8c", "fusion_lat": 0.0}, {"lon": -77.03199833333333, "name": "9c00173db76b5e7f8f281dbd21f63610", "is_disabled": 0, "type": "electric_scooter", "is_reserved": 0, "fusion_lon": 0.0, "lat": 38.91614466666667, "rental_uris": {"ios": "https://dc.lft.to/lastmile_qr_scan", "android": "https://dc.lft.to/lastmile_qr_scan"}, "bike_id": "9c00173db76b5e7f8f281dbd21f63610", "fusion_lat": 0.0}, {"lon": -76.999129, "name": "0f8ef16e11de3de24a2d122913de7103", "is_disabled": 0, "type": "electric_scooter", "is_reserved": 0, "fusion_lon": 0.0, "lat": 38.924563166666665, "rental_uris": {"ios": "https://dc.lft.to/lastmile_qr_scan", "android": "https://dc.lft.to/lastmile_qr_scan"}, "bike_id": "0f8ef16e11de3de24a2d122913de7103", "fusion_lat": 0.0}, {"lon": -76.99278533333333, "name": "be6ef96a843702af234160513acbfb4b", "is_disabled": 0, "type": "electric_scooter", "is_reserved": 0, "fusion_lon": 0.0, "lat": 38.90310433333333, "rental_uris": {"ios": "https://dc.lft.to/lastmile_qr_scan", "android": "https://dc.lft.to/lastmile_qr_scan"}, "bike_id": "be6ef96a843702af234160513acbfb4b", "fusion_lat": 0.0}, {"lon": -77.01522766666666, "name": "d7c9171aef8e556c30c613359230fd1c", "is_disabled": 0, "type": "electric_scooter", "is_reserved": 0, "fusion_lon": 0.0, "lat": 38.872862, "rental_uris": {"ios": "https://dc.lft.to/lastmile_qr_scan", "android": "https://dc.lft.to/lastmile_qr_scan"}, "bike_id": "d7c9171aef8e556c30c613359230fd1c", "fusion_lat": 0.0}, {"lon": -77.02393933333333, "name": "d6d7a8d8f81aba4b4cc88c1c915de605", "is_disabled": 0, "type": "electric_scooter", "is_reserved": 0, "fusion_lon": 0.0, "lat": 38.92088616666667, "rental_uris": {"ios": "https://dc.lft.to/lastmile_qr_scan", "android": "https://dc.lft.to/lastmile_qr_scan"}, "bike_id": "d6d7a8d8f81aba4b4cc88c1c915de605", "fusion_lat": 0.0}, {"lon": -77.01808516666667, "name": "843d84ab711e83ce60f552215a298408", "is_disabled": 0, "type": "electric_scooter", "is_reserved": 0, "fusion_lon": 0.0, "lat": 38.92140833333333, "rental_uris": {"ios": "https://dc.lft.to/lastmile_qr_scan", "android": "https://dc.lft.to/lastmile_qr_scan"}, "bike_id": "843d84ab711e83ce60f552215a298408", "fusion_lat": 0.0}, {"lon": -77.011504, "name": "3fb24fcbc27f37181f01b16f94bd4cc8", "is_disabled": 0, "type": "electric_scooter", "is_reserved": 0, "fusion_lon": 0.0, "lat": 38.91104383333333, "rental_uris": {"ios": "https://dc.lft.to/lastmile_qr_scan", "android": "https://dc.lft.to/lastmile_qr_scan"}, "bike_id": "3fb24fcbc27f37181f01b16f94bd4cc8", "fusion_lat": 0.0}, {"lon": -77.01989516666667, "name": "8f89a8c34c04f94a037319ba631aba3a", "is_disabled": 0, "type": "electric_scooter", "is_reserved": 0, "fusion_lon": 0.0, "lat": 38.915658666666666, "rental_uris": {"ios": "https://dc.lft.to/lastmile_qr_scan", "android": "https://dc.lft.to/lastmile_qr_scan"}, "bike_id": "8f89a8c34c04f94a037319ba631aba3a", "fusion_lat": 0.0}, {"lon": -77.0212615, "name": "62098646cce5c715897de27a076ab0d5", "is_disabled": 0, "type": "electric_scooter", "is_reserved": 0, "fusion_lon": 0.0, "lat": 38.931065833333335, "rental_uris": {"ios": "https://dc.lft.to/lastmile_qr_scan", "android": "https://dc.lft.to/lastmile_qr_scan"}, "bike_id": "62098646cce5c715897de27a076ab0d5", "fusion_lat": 0.0}, {"lon": -76.99310333333334, "name": "c22c8993135367d3c11012bbf0c7f0fa", "is_disabled": 0, "type": "electric_bike", "is_reserved": 0, "fusion_lon": 0.0, "lat": 38.946332, "rental_uris": {"ios": "https://dc.lft.to/lastmile_qr_scan", "android": "https://dc.lft.to/lastmile_qr_scan"}, "bike_id": "c22c8993135367d3c11012bbf0c7f0fa", "fusion_lat": 0.0}, {"lon": -77.04183183333333, "name": "e78f7d35313fabc89046d0dbf7629d42", "is_disabled": 0, "type": "electric_scooter", "is_reserved": 0, "fusion_lon": 0.0, "lat": 38.920467, "rental_uris": {"ios": "https://dc.lft.to/lastmile_qr_scan", "android": "https://dc.lft.to/lastmile_qr_scan"}, "bike_id": "e78f7d35313fabc89046d0dbf7629d42", "fusion_lat": 0.0}, {"lon": -77.05525966666667, "name": "45313395678bbc2be92d908bcf7f24be", "is_disabled": 0, "type": "electric_scooter", "is_reserved": 0, "fusion_lon": 0.0, "lat": 38.8972745, "rental_uris": {"ios": "https://dc.lft.to/lastmile_qr_scan", "android": "https://dc.lft.to/lastmile_qr_scan"}, "bike_id": "45313395678bbc2be92d908bcf7f24be", "fusion_lat": 0.0}, {"lon": -76.94468016666667, "name": "999d7d7258c8dce4f20754d08cfa3470", "is_disabled": 0, "type": "electric_scooter", "is_reserved": 0, "fusion_lon": 0.0, "lat": 38.890299, "rental_uris": {"ios": "https://dc.lft.to/lastmile_qr_scan", "android": "https://dc.lft.to/lastmile_qr_scan"}, "bike_id": "999d7d7258c8dce4f20754d08cfa3470", "fusion_lat": 0.0}, {"lon": -77.0319935, "name": "a41ae69f5a6196ac7d87165e0ecb6fe2", "is_disabled": 0, "type": "electric_scooter", "is_reserved": 0, "fusion_lon": 0.0, "lat": 38.907403333333335, "rental_uris": {"ios": "https://dc.lft.to/lastmile_qr_scan", "android": "https://dc.lft.to/lastmile_qr_scan"}, "bike_id": "a41ae69f5a6196ac7d87165e0ecb6fe2", "fusion_lat": 0.0}, {"lon": -77.02160066666667, "name": "3520e01a96096e00556767d4248866c9", "is_disabled": 0, "type": "electric_scooter", "is_reserved": 0, "fusion_lon": 0.0, "lat": 38.92607916666667, "rental_uris": {"ios": "https://dc.lft.to/lastmile_qr_scan", "android": "https://dc.lft.to/lastmile_qr_scan"}, "bike_id": "3520e01a96096e00556767d4248866c9", "fusion_lat": 0.0}, {"lon": -77.03400533333334, "name": "9c6ec1a245b298dd6cf4b5a0de163510", "is_disabled": 0, "type": "electric_scooter", "is_reserved": 0, "fusion_lon": 0.0, "lat": 38.92397116666667, "rental_uris": {"ios": "https://dc.lft.to/lastmile_qr_scan", "android": "https://dc.lft.to/lastmile_qr_scan"}, "bike_id": "9c6ec1a245b298dd6cf4b5a0de163510", "fusion_lat": 0.0}, {"lon": -77.0033985, "name": "a1bf764bfb57316f3be612f7c9556716", "is_disabled": 0, "type": "electric_scooter", "is_reserved": 0, "fusion_lon": 0.0, "lat": 38.92264633333333, "rental_uris": {"ios": "https://dc.lft.to/lastmile_qr_scan", "android": "https://dc.lft.to/lastmile_qr_scan"}, "bike_id": "a1bf764bfb57316f3be612f7c9556716", "fusion_lat": 0.0}, {"lon": -77.04792916666666, "name": "ac486ccfeab037e286fc1268eb3789a7", "is_disabled": 0, "type": "electric_scooter", "is_reserved": 0, "fusion_lon": 0.0, "lat": 38.9021155, "rental_uris": {"ios": "https://dc.lft.to/lastmile_qr_scan", "android": "https://dc.lft.to/lastmile_qr_scan"}, "bike_id": "ac486ccfeab037e286fc1268eb3789a7", "fusion_lat": 0.0}, {"lon": -77.01558066666666, "name": "a174302109b4d2fee67e3e3ae23ddbc1", "is_disabled": 0, "type": "electric_scooter", "is_reserved": 0, "fusion_lon": 0.0, "lat": 38.892211833333334, "rental_uris": {"ios": "https://dc.lft.to/lastmile_qr_scan", "android": "https://dc.lft.to/lastmile_qr_scan"}, "bike_id": "a174302109b4d2fee67e3e3ae23ddbc1", "fusion_lat": 0.0}, {"lon": -77.02716166666667, "name": "9f91bd04e18dbe503c43311fa525383e", "is_disabled": 0, "type": "electric_scooter", "is_reserved": 0, "fusion_lon": 0.0, "lat": 38.916850833333335, "rental_uris": {"ios": "https://dc.lft.to/lastmile_qr_scan", "android": "https://dc.lft.to/lastmile_qr_scan"}, "bike_id": "9f91bd04e18dbe503c43311fa525383e", "fusion_lat": 0.0}, {"lon": -77.0248375, "name": "8dea752d7036ab22981a7e70d48f4ddb", "is_disabled": 0, "type": "electric_scooter", "is_reserved": 0, "fusion_lon": 0.0, "lat": 38.93619983333333, "rental_uris": {"ios": "https://dc.lft.to/lastmile_qr_scan", "android": "https://dc.lft.to/lastmile_qr_scan"}, "bike_id": "8dea752d7036ab22981a7e70d48f4ddb", "fusion_lat": 0.0}, {"lon": -77.027074, "name": "37b3ad730a850e00cd5fa14b119564ec", "is_disabled": 0, "type": "electric_scooter", "is_reserved": 0, "fusion_lon": 0.0, "lat": 38.928708, "rental_uris": {"ios": "https://dc.lft.to/lastmile_qr_scan", "android": "https://dc.lft.to/lastmile_qr_scan"}, "bike_id": "37b3ad730a850e00cd5fa14b119564ec", "fusion_lat": 0.0}, {"lon": -77.02597183333333, "name": "b1529541c7627266c3324f74c5a6d637", "is_disabled": 0, "type": "electric_scooter", "is_reserved": 0, "fusion_lon": 0.0, "lat": 38.89737266666667, "rental_uris": {"ios": "https://dc.lft.to/lastmile_qr_scan", "android": "https://dc.lft.to/lastmile_qr_scan"}, "bike_id": "b1529541c7627266c3324f74c5a6d637", "fusion_lat": 0.0}, {"lon": -77.0187465, "name": "687e1ffaed4e6c52f52f651d2feace67", "is_disabled": 0, "type": "electric_scooter", "is_reserved": 0, "fusion_lon": 0.0, "lat": 38.93201, "rental_uris": {"ios": "https://dc.lft.to/lastmile_qr_scan", "android": "https://dc.lft.to/lastmile_qr_scan"}, "bike_id": "687e1ffaed4e6c52f52f651d2feace67", "fusion_lat": 0.0}, {"lon": -76.98025766666666, "name": "67c47b844a5fa2304480158cc44027e7", "is_disabled": 0, "type": "electric_bike", "is_reserved": 0, "fusion_lon": 0.0, "lat": 38.8681715, "rental_uris": {"ios": "https://dc.lft.to/lastmile_qr_scan", "android": "https://dc.lft.to/lastmile_qr_scan"}, "bike_id": "67c47b844a5fa2304480158cc44027e7", "fusion_lat": 0.0}, {"lon": -77.0199255, "name": "66d583c4d64f445572b00ae2d5d7951f", "is_disabled": 0, "type": "electric_scooter", "is_reserved": 0, "fusion_lon": 0.0, "lat": 38.8858995, "rental_uris": {"ios": "https://dc.lft.to/lastmile_qr_scan", "android": "https://dc.lft.to/lastmile_qr_scan"}, "bike_id": "66d583c4d64f445572b00ae2d5d7951f", "fusion_lat": 0.0}, {"lon": -76.948533, "name": "6558dc559a94a0fb82bf847e29b2c813", "is_disabled": 0, "type": "electric_scooter", "is_reserved": 0, "fusion_lon": 0.0, "lat": 38.89610533333333, "rental_uris": {"ios": "https://dc.lft.to/lastmile_qr_scan", "android": "https://dc.lft.to/lastmile_qr_scan"}, "bike_id": "6558dc559a94a0fb82bf847e29b2c813", "fusion_lat": 0.0}, {"lon": -77.03142033333333, "name": "949d3b94e2a65d4f426aae15e7753099", "is_disabled": 0, "type": "electric_scooter", "is_reserved": 0, "fusion_lon": 0.0, "lat": 38.941941166666666, "rental_uris": {"ios": "https://dc.lft.to/lastmile_qr_scan", "android": "https://dc.lft.to/lastmile_qr_scan"}, "bike_id": "949d3b94e2a65d4f426aae15e7753099", "fusion_lat": 0.0}, {"lon": -77.01750466666667, "name": "83920adcf86e7bcbe35c7ee933d17ef3", "is_disabled": 0, "type": "electric_bike", "is_reserved": 0, "fusion_lon": 0.0, "lat": 38.975182, "rental_uris": {"ios": "https://dc.lft.to/lastmile_qr_scan", "android": "https://dc.lft.to/lastmile_qr_scan"}, "bike_id": "83920adcf86e7bcbe35c7ee933d17ef3", "fusion_lat": 0.0}, {"lon": -77.0013775, "name": "026eb7f1821cc467718974a9b66e03c2", "is_disabled": 0, "type": "electric_bike", "is_reserved": 0, "fusion_lon": 0.0, "lat": 38.99497316666667, "rental_uris": {"ios": "https://dc.lft.to/lastmile_qr_scan", "android": "https://dc.lft.to/lastmile_qr_scan"}, "bike_id": "026eb7f1821cc467718974a9b66e03c2", "fusion_lat": 0.0}, {"lon": -76.96263, "name": "f5de20d9dfaf8daa8a45194c1d779be2", "is_disabled": 0, "type": "electric_bike", "is_reserved": 0, "fusion_lon": 0.0, "lat": 38.882478166666665, "rental_uris": {"ios": "https://dc.lft.to/lastmile_qr_scan", "android": "https://dc.lft.to/lastmile_qr_scan"}, "bike_id": "f5de20d9dfaf8daa8a45194c1d779be2", "fusion_lat": 0.0}, {"lon": -76.989412, "name": "f652aae440f07ba486600eb646e14ec8", "is_disabled": 0, "type": "electric_scooter", "is_reserved": 0, "fusion_lon": 0.0, "lat": 38.9000775, "rental_uris": {"ios": "https://dc.lft.to/lastmile_qr_scan", "android": "https://dc.lft.to/lastmile_qr_scan"}, "bike_id": "f652aae440f07ba486600eb646e14ec8", "fusion_lat": 0.0}, {"lon": -77.00537083333333, "name": "7c2a3afc233dd884043e7e41a87fe645", "is_disabled": 0, "type": "electric_scooter", "is_reserved": 0, "fusion_lon": 0.0, "lat": 38.875461, "rental_uris": {"ios": "https://dc.lft.to/lastmile_qr_scan", "android": "https://dc.lft.to/lastmile_qr_scan"}, "bike_id": "7c2a3afc233dd884043e7e41a87fe645", "fusion_lat": 0.0}, {"lon": -77.0173445, "name": "738cceb90bae68d760c921d2903bbd41", "is_disabled": 0, "type": "electric_scooter", "is_reserved": 0, "fusion_lon": 0.0, "lat": 38.877031333333335, "rental_uris": {"ios": "https://dc.lft.to/lastmile_qr_scan", "android": "https://dc.lft.to/lastmile_qr_scan"}, "bike_id": "738cceb90bae68d760c921d2903bbd41", "fusion_lat": 0.0}, {"lon": -76.92933916666667, "name": "7eb4da3e864ccf37754480c0429e9474", "is_disabled": 0, "type": "electric_scooter", "is_reserved": 0, "fusion_lon": 0.0, "lat": 38.90099, "rental_uris": {"ios": "https://dc.lft.to/lastmile_qr_scan", "android": "https://dc.lft.to/lastmile_qr_scan"}, "bike_id": "7eb4da3e864ccf37754480c0429e9474", "fusion_lat": 0.0}, {"lon": -77.002206, "name": "e2ce59dac36014fad0d37d05a8b104bc", "is_disabled": 0, "type": "electric_scooter", "is_reserved": 0, "fusion_lon": 0.0, "lat": 38.9018695, "rental_uris": {"ios": "https://dc.lft.to/lastmile_qr_scan", "android": "https://dc.lft.to/lastmile_qr_scan"}, "bike_id": "e2ce59dac36014fad0d37d05a8b104bc", "fusion_lat": 0.0}, {"lon": -77.03183666666666, "name": "c49d9b8f5b9f65bc2b561bcb83bdec1c", "is_disabled": 0, "type": "electric_scooter", "is_reserved": 0, "fusion_lon": 0.0, "lat": 38.911945333333335, "rental_uris": {"ios": "https://dc.lft.to/lastmile_qr_scan", "android": "https://dc.lft.to/lastmile_qr_scan"}, "bike_id": "c49d9b8f5b9f65bc2b561bcb83bdec1c", "fusion_lat": 0.0}, {"lon": -77.03896466666667, "name": "afb1f79015d4076d1ba7ee985d418b4a", "is_disabled": 0, "type": "electric_scooter", "is_reserved": 0, "fusion_lon": 0.0, "lat": 38.922479333333335, "rental_uris": {"ios": "https://dc.lft.to/lastmile_qr_scan", "android": "https://dc.lft.to/lastmile_qr_scan"}, "bike_id": "afb1f79015d4076d1ba7ee985d418b4a", "fusion_lat": 0.0}, {"lon": -77.03215816666666, "name": "89b5d673446dc0b572d231f4814c43c9", "is_disabled": 0, "type": "electric_scooter", "is_reserved": 0, "fusion_lon": 0.0, "lat": 38.917078, "rental_uris": {"ios": "https://dc.lft.to/lastmile_qr_scan", "android": "https://dc.lft.to/lastmile_qr_scan"}, "bike_id": "89b5d673446dc0b572d231f4814c43c9", "fusion_lat": 0.0}, {"lon": -77.02372433333333, "name": "ffa54164d9870f496152ee191b33ae88", "is_disabled": 0, "type": "electric_scooter", "is_reserved": 0, "fusion_lon": 0.0, "lat": 38.90198183333333, "rental_uris": {"ios": "https://dc.lft.to/lastmile_qr_scan", "android": "https://dc.lft.to/lastmile_qr_scan"}, "bike_id": "ffa54164d9870f496152ee191b33ae88", "fusion_lat": 0.0}, {"lon": -77.06085666666667, "name": "5989feb8f06b3750f5514f25580c3e9b", "is_disabled": 0, "type": "electric_scooter", "is_reserved": 0, "fusion_lon": 0.0, "lat": 38.9119095, "rental_uris": {"ios": "https://dc.lft.to/lastmile_qr_scan", "android": "https://dc.lft.to/lastmile_qr_scan"}, "bike_id": "5989feb8f06b3750f5514f25580c3e9b", "fusion_lat": 0.0}, {"lon": -77.01888133333334, "name": "6e35162d3d888bf30f0b68302af28e0a", "is_disabled": 0, "type": "electric_scooter", "is_reserved": 0, "fusion_lon": 0.0, "lat": 38.909122833333335, "rental_uris": {"ios": "https://dc.lft.to/lastmile_qr_scan", "android": "https://dc.lft.to/lastmile_qr_scan"}, "bike_id": "6e35162d3d888bf30f0b68302af28e0a", "fusion_lat": 0.0}, {"lon": -77.02069166666666, "name": "eb3600663c1d78fa44657d0fc91f9010", "is_disabled": 0, "type": "electric_scooter", "is_reserved": 0, "fusion_lon": 0.0, "lat": 38.9225475, "rental_uris": {"ios": "https://dc.lft.to/lastmile_qr_scan", "android": "https://dc.lft.to/lastmile_qr_scan"}, "bike_id": "eb3600663c1d78fa44657d0fc91f9010", "fusion_lat": 0.0}, {"lon": -77.023811, "name": "0e92a954439f08f2071580021a3a723f", "is_disabled": 0, "type": "electric_scooter", "is_reserved": 0, "fusion_lon": 0.0, "lat": 38.921311833333334, "rental_uris": {"ios": "https://dc.lft.to/lastmile_qr_scan", "android": "https://dc.lft.to/lastmile_qr_scan"}, "bike_id": "0e92a954439f08f2071580021a3a723f", "fusion_lat": 0.0}, {"lon": -77.02182733333333, "name": "43c3e1f89ee181e4270fee6c7ac695ef", "is_disabled": 0, "type": "electric_scooter", "is_reserved": 0, "fusion_lon": 0.0, "lat": 38.902024, "rental_uris": {"ios": "https://dc.lft.to/lastmile_qr_scan", "android": "https://dc.lft.to/lastmile_qr_scan"}, "bike_id": "43c3e1f89ee181e4270fee6c7ac695ef", "fusion_lat": 0.0}, {"lon": -77.06220116666667, "name": "08508b0bd84c59450eda07317ca6eba6", "is_disabled": 0, "type": "electric_scooter", "is_reserved": 0, "fusion_lon": 0.0, "lat": 38.9131155, "rental_uris": {"ios": "https://dc.lft.to/lastmile_qr_scan", "android": "https://dc.lft.to/lastmile_qr_scan"}, "bike_id": "08508b0bd84c59450eda07317ca6eba6", "fusion_lat": 0.0}, {"lon": -77.03467566666667, "name": "e6334112b6ff90762156a6bbbaaf4c94", "is_disabled": 0, "type": "electric_scooter", "is_reserved": 0, "fusion_lon": 0.0, "lat": 38.92148916666667, "rental_uris": {"ios": "https://dc.lft.to/lastmile_qr_scan", "android": "https://dc.lft.to/lastmile_qr_scan"}, "bike_id": "e6334112b6ff90762156a6bbbaaf4c94", "fusion_lat": 0.0}, {"lon": -77.03212883333333, "name": "8ee1d6558534efd54a6a615ec9f10c8e", "is_disabled": 0, "type": "electric_scooter", "is_reserved": 0, "fusion_lon": 0.0, "lat": 38.91908016666667, "rental_uris": {"ios": "https://dc.lft.to/lastmile_qr_scan", "android": "https://dc.lft.to/lastmile_qr_scan"}, "bike_id": "8ee1d6558534efd54a6a615ec9f10c8e", "fusion_lat": 0.0}, {"lon": -77.0234465, "name": "a0c2c045eb5183b9dea6b1a854c1c65a", "is_disabled": 0, "type": "electric_scooter", "is_reserved": 0, "fusion_lon": 0.0, "lat": 38.94303466666667, "rental_uris": {"ios": "https://dc.lft.to/lastmile_qr_scan", "android": "https://dc.lft.to/lastmile_qr_scan"}, "bike_id": "a0c2c045eb5183b9dea6b1a854c1c65a", "fusion_lat": 0.0}, {"lon": -77.03096883333333, "name": "53274b81ab33c496014e3460831b5c00", "is_disabled": 0, "type": "electric_scooter", "is_reserved": 0, "fusion_lon": 0.0, "lat": 38.93531633333333, "rental_uris": {"ios": "https://dc.lft.to/lastmile_qr_scan", "android": "https://dc.lft.to/lastmile_qr_scan"}, "bike_id": "53274b81ab33c496014e3460831b5c00", "fusion_lat": 0.0}, {"lon": -77.03277466666667, "name": "6498c43af4225fea846edca5aaeb11ab", "is_disabled": 0, "type": "electric_scooter", "is_reserved": 0, "fusion_lon": 0.0, "lat": 38.931960833333335, "rental_uris": {"ios": "https://dc.lft.to/lastmile_qr_scan", "android": "https://dc.lft.to/lastmile_qr_scan"}, "bike_id": "6498c43af4225fea846edca5aaeb11ab", "fusion_lat": 0.0}, {"lon": -77.07360166666666, "name": "536f6211dbce5030addf612c2c5ce316", "is_disabled": 0, "type": "electric_scooter", "is_reserved": 0, "fusion_lon": 0.0, "lat": 38.9334405, "rental_uris": {"ios": "https://dc.lft.to/lastmile_qr_scan", "android": "https://dc.lft.to/lastmile_qr_scan"}, "bike_id": "536f6211dbce5030addf612c2c5ce316", "fusion_lat": 0.0}, {"lon": -77.019573, "name": "941ce7c6db4a15f2104751117f49e6b2", "is_disabled": 0, "type": "electric_scooter", "is_reserved": 0, "fusion_lon": 0.0, "lat": 38.92365733333333, "rental_uris": {"ios": "https://dc.lft.to/lastmile_qr_scan", "android": "https://dc.lft.to/lastmile_qr_scan"}, "bike_id": "941ce7c6db4a15f2104751117f49e6b2", "fusion_lat": 0.0}, {"lon": -77.05986316666667, "name": "43a1821a10e6fd776212ec07c3ad712a", "is_disabled": 0, "type": "electric_scooter", "is_reserved": 0, "fusion_lon": 0.0, "lat": 38.927153833333335, "rental_uris": {"ios": "https://dc.lft.to/lastmile_qr_scan", "android": "https://dc.lft.to/lastmile_qr_scan"}, "bike_id": "43a1821a10e6fd776212ec07c3ad712a", "fusion_lat": 0.0}, {"lon": -77.05291616666666, "name": "ea76dd03c5da3495f1a6b7bca8eae00e", "is_disabled": 0, "type": "electric_scooter", "is_reserved": 0, "fusion_lon": 0.0, "lat": 38.904315833333335, "rental_uris": {"ios": "https://dc.lft.to/lastmile_qr_scan", "android": "https://dc.lft.to/lastmile_qr_scan"}, "bike_id": "ea76dd03c5da3495f1a6b7bca8eae00e", "fusion_lat": 0.0}, {"lon": -76.99832549999999, "name": "ce5d540487c79e502c58e34bcf9c049e", "is_disabled": 0, "type": "electric_scooter", "is_reserved": 0, "fusion_lon": 0.0, "lat": 38.90053366666667, "rental_uris": {"ios": "https://dc.lft.to/lastmile_qr_scan", "android": "https://dc.lft.to/lastmile_qr_scan"}, "bike_id": "ce5d540487c79e502c58e34bcf9c049e", "fusion_lat": 0.0}, {"lon": -77.0158595, "name": "74d28d3637c5cbcda3d47c92b8cded13", "is_disabled": 0, "type": "electric_scooter", "is_reserved": 0, "fusion_lon": 0.0, "lat": 38.91687616666667, "rental_uris": {"ios": "https://dc.lft.to/lastmile_qr_scan", "android": "https://dc.lft.to/lastmile_qr_scan"}, "bike_id": "74d28d3637c5cbcda3d47c92b8cded13", "fusion_lat": 0.0}, {"lon": -77.05475516666667, "name": "94b483e5923310b882009c966a9750e1", "is_disabled": 0, "type": "electric_scooter", "is_reserved": 0, "fusion_lon": 0.0, "lat": 38.90306733333333, "rental_uris": {"ios": "https://dc.lft.to/lastmile_qr_scan", "android": "https://dc.lft.to/lastmile_qr_scan"}, "bike_id": "94b483e5923310b882009c966a9750e1", "fusion_lat": 0.0}, {"lon": -77.0768525, "name": "7d6ea5880139ec79e847b58bc911785d", "is_disabled": 0, "type": "electric_bike", "is_reserved": 0, "fusion_lon": 0.0, "lat": 38.897833, "rental_uris": {"ios": "https://dc.lft.to/lastmile_qr_scan", "android": "https://dc.lft.to/lastmile_qr_scan"}, "bike_id": "7d6ea5880139ec79e847b58bc911785d", "fusion_lat": 0.0}, {"lon": -77.0000065, "name": "8e8158af8288cf7dd1211e5b570cd62e", "is_disabled": 0, "type": "electric_bike", "is_reserved": 0, "fusion_lon": 0.0, "lat": 38.9238915, "rental_uris": {"ios": "https://dc.lft.to/lastmile_qr_scan", "android": "https://dc.lft.to/lastmile_qr_scan"}, "bike_id": "8e8158af8288cf7dd1211e5b570cd62e", "fusion_lat": 0.0}, {"lon": -77.06621883333334, "name": "ea9c5cd2bf0ceaa42224e7993fac462a", "is_disabled": 0, "type": "electric_scooter", "is_reserved": 0, "fusion_lon": 0.0, "lat": 38.936829, "rental_uris": {"ios": "https://dc.lft.to/lastmile_qr_scan", "android": "https://dc.lft.to/lastmile_qr_scan"}, "bike_id": "ea9c5cd2bf0ceaa42224e7993fac462a", "fusion_lat": 0.0}, {"lon": -77.01952366666667, "name": "a08dabd6316913b03630bfc119a82b92", "is_disabled": 0, "type": "electric_scooter", "is_reserved": 0, "fusion_lon": 0.0, "lat": 38.922512166666664, "rental_uris": {"ios": "https://dc.lft.to/lastmile_qr_scan", "android": "https://dc.lft.to/lastmile_qr_scan"}, "bike_id": "a08dabd6316913b03630bfc119a82b92", "fusion_lat": 0.0}, {"lon": -77.03190516666666, "name": "f93885de5511799650df9b87fe740fac", "is_disabled": 0, "type": "electric_scooter", "is_reserved": 0, "fusion_lon": 0.0, "lat": 38.918, "rental_uris": {"ios": "https://dc.lft.to/lastmile_qr_scan", "android": "https://dc.lft.to/lastmile_qr_scan"}, "bike_id": "f93885de5511799650df9b87fe740fac", "fusion_lat": 0.0}, {"lon": -77.0060075, "name": "873b4456f9100abe19e5868c955af1ee", "is_disabled": 0, "type": "electric_bike", "is_reserved": 0, "fusion_lon": 0.0, "lat": 38.898016, "rental_uris": {"ios": "https://dc.lft.to/lastmile_qr_scan", "android": "https://dc.lft.to/lastmile_qr_scan"}, "bike_id": "873b4456f9100abe19e5868c955af1ee", "fusion_lat": 0.0}, {"lon": -76.97268566666666, "name": "3ac30b8d59eb3b15fd6c5a5801917e2e", "is_disabled": 0, "type": "electric_bike", "is_reserved": 0, "fusion_lon": 0.0, "lat": 38.9145195, "rental_uris": {"ios": "https://dc.lft.to/lastmile_qr_scan", "android": "https://dc.lft.to/lastmile_qr_scan"}, "bike_id": "3ac30b8d59eb3b15fd6c5a5801917e2e", "fusion_lat": 0.0}, {"lon": -76.9902355, "name": "624259c5e17ec6c570eec3f81ae42bc5", "is_disabled": 0, "type": "electric_bike", "is_reserved": 0, "fusion_lon": 0.0, "lat": 38.835867, "rental_uris": {"ios": "https://dc.lft.to/lastmile_qr_scan", "android": "https://dc.lft.to/lastmile_qr_scan"}, "bike_id": "624259c5e17ec6c570eec3f81ae42bc5", "fusion_lat": 0.0}, {"lon": -77.02342766666666, "name": "a5c5a0942d654c4cb6bc9a3778024119", "is_disabled": 0, "type": "electric_scooter", "is_reserved": 0, "fusion_lon": 0.0, "lat": 38.925187666666666, "rental_uris": {"ios": "https://dc.lft.to/lastmile_qr_scan", "android": "https://dc.lft.to/lastmile_qr_scan"}, "bike_id": "a5c5a0942d654c4cb6bc9a3778024119", "fusion_lat": 0.0}, {"lon": -77.000476, "name": "bc5cd3651008b62f263c5c912b1af80f", "is_disabled": 0, "type": "electric_scooter", "is_reserved": 0, "fusion_lon": 0.0, "lat": 38.88765033333333, "rental_uris": {"ios": "https://dc.lft.to/lastmile_qr_scan", "android": "https://dc.lft.to/lastmile_qr_scan"}, "bike_id": "bc5cd3651008b62f263c5c912b1af80f", "fusion_lat": 0.0}, {"lon": -77.01555283333333, "name": "b4aac5351c67717da5430bb70507e263", "is_disabled": 0, "type": "electric_scooter", "is_reserved": 0, "fusion_lon": 0.0, "lat": 38.92792266666667, "rental_uris": {"ios": "https://dc.lft.to/lastmile_qr_scan", "android": "https://dc.lft.to/lastmile_qr_scan"}, "bike_id": "b4aac5351c67717da5430bb70507e263", "fusion_lat": 0.0}, {"lon": -77.04193416666666, "name": "9dd1cdc3b2e82c1f4e9a687a128e22d9", "is_disabled": 0, "type": "electric_scooter", "is_reserved": 0, "fusion_lon": 0.0, "lat": 38.926193833333336, "rental_uris": {"ios": "https://dc.lft.to/lastmile_qr_scan", "android": "https://dc.lft.to/lastmile_qr_scan"}, "bike_id": "9dd1cdc3b2e82c1f4e9a687a128e22d9", "fusion_lat": 0.0}, {"lon": -77.08914566666667, "name": "6bcb449660611d980f3d84b6caf7451d", "is_disabled": 0, "type": "electric_bike", "is_reserved": 0, "fusion_lon": 0.0, "lat": 38.96729533333333, "rental_uris": {"ios": "https://dc.lft.to/lastmile_qr_scan", "android": "https://dc.lft.to/lastmile_qr_scan"}, "bike_id": "6bcb449660611d980f3d84b6caf7451d", "fusion_lat": 0.0}, {"lon": -77.02822466666667, "name": "ce02498f2c40c1726755b4cb8445f89e", "is_disabled": 0, "type": "electric_bike", "is_reserved": 0, "fusion_lon": 0.0, "lat": 38.965595, "rental_uris": {"ios": "https://dc.lft.to/lastmile_qr_scan", "android": "https://dc.lft.to/lastmile_qr_scan"}, "bike_id": "ce02498f2c40c1726755b4cb8445f89e", "fusion_lat": 0.0}, {"lon": -77.02831416666666, "name": "c4fa6daf753219989b0b3a334599ac93", "is_disabled": 0, "type": "electric_scooter", "is_reserved": 0, "fusion_lon": 0.0, "lat": 38.886604166666665, "rental_uris": {"ios": "https://dc.lft.to/lastmile_qr_scan", "android": "https://dc.lft.to/lastmile_qr_scan"}, "bike_id": "c4fa6daf753219989b0b3a334599ac93", "fusion_lat": 0.0}, {"lon": -77.03457033333333, "name": "8dafdb538ea2a57b5e332bcbc6b22fb3", "is_disabled": 0, "type": "electric_scooter", "is_reserved": 0, "fusion_lon": 0.0, "lat": 38.937411166666664, "rental_uris": {"ios": "https://dc.lft.to/lastmile_qr_scan", "android": "https://dc.lft.to/lastmile_qr_scan"}, "bike_id": "8dafdb538ea2a57b5e332bcbc6b22fb3", "fusion_lat": 0.0}, {"lon": -77.12738083333333, "name": "b63642587ca24ba4c88b5b998f5f26d3", "is_disabled": 0, "type": "electric_bike", "is_reserved": 0, "fusion_lon": 0.0, "lat": 38.89566216666667, "rental_uris": {"ios": "https://dc.lft.to/lastmile_qr_scan", "android": "https://dc.lft.to/lastmile_qr_scan"}, "bike_id": "b63642587ca24ba4c88b5b998f5f26d3", "fusion_lat": 0.0}, {"lon": -77.01307616666666, "name": "35db9c4ee03ca1fcd158de329e6e3fe8", "is_disabled": 0, "type": "electric_scooter", "is_reserved": 0, "fusion_lon": 0.0, "lat": 38.90060733333333, "rental_uris": {"ios": "https://dc.lft.to/lastmile_qr_scan", "android": "https://dc.lft.to/lastmile_qr_scan"}, "bike_id": "35db9c4ee03ca1fcd158de329e6e3fe8", "fusion_lat": 0.0}, {"lon": -77.03075266666667, "name": "5d3253a8c57a06ca81a5e17a540bc44f", "is_disabled": 0, "type": "electric_scooter", "is_reserved": 0, "fusion_lon": 0.0, "lat": 38.90570683333333, "rental_uris": {"ios": "https://dc.lft.to/lastmile_qr_scan", "android": "https://dc.lft.to/lastmile_qr_scan"}, "bike_id": "5d3253a8c57a06ca81a5e17a540bc44f", "fusion_lat": 0.0}, {"lon": -76.9361595, "name": "009eab279a6239f71a4c27c88d3cc459", "is_disabled": 0, "type": "electric_bike", "is_reserved": 0, "fusion_lon": 0.0, "lat": 38.97049766666667, "rental_uris": {"ios": "https://dc.lft.to/lastmile_qr_scan", "android": "https://dc.lft.to/lastmile_qr_scan"}, "bike_id": "009eab279a6239f71a4c27c88d3cc459", "fusion_lat": 0.0}, {"lon": -77.0388125, "name": "aa772157f638e9b93637dcd989380531", "is_disabled": 0, "type": "electric_bike", "is_reserved": 0, "fusion_lon": 0.0, "lat": 39.02623666666667, "rental_uris": {"ios": "https://dc.lft.to/lastmile_qr_scan", "android": "https://dc.lft.to/lastmile_qr_scan"}, "bike_id": "aa772157f638e9b93637dcd989380531", "fusion_lat": 0.0}, {"lon": -77.05089, "name": "1659aeeb3a27a798b70de495558ba41d", "is_disabled": 0, "type": "electric_bike", "is_reserved": 0, "fusion_lon": 0.0, "lat": 38.813296666666666, "rental_uris": {"ios": "https://dc.lft.to/lastmile_qr_scan", "android": "https://dc.lft.to/lastmile_qr_scan"}, "bike_id": "1659aeeb3a27a798b70de495558ba41d", "fusion_lat": 0.0}, {"lon": -77.05372066666666, "name": "d33e6e9e76123419ffccdda3378bf21e", "is_disabled": 0, "type": "electric_scooter", "is_reserved": 0, "fusion_lon": 0.0, "lat": 38.9025295, "rental_uris": {"ios": "https://dc.lft.to/lastmile_qr_scan", "android": "https://dc.lft.to/lastmile_qr_scan"}, "bike_id": "d33e6e9e76123419ffccdda3378bf21e", "fusion_lat": 0.0}, {"lon": -77.00216233333333, "name": "31dd466c713b724be39573a4980bf585", "is_disabled": 0, "type": "electric_scooter", "is_reserved": 0, "fusion_lon": 0.0, "lat": 38.900211, "rental_uris": {"ios": "https://dc.lft.to/lastmile_qr_scan", "android": "https://dc.lft.to/lastmile_qr_scan"}, "bike_id": "31dd466c713b724be39573a4980bf585", "fusion_lat": 0.0}, {"lon": -77.04467916666667, "name": "654fab65a0931cb6a9f1369c2f922484", "is_disabled": 0, "type": "electric_scooter", "is_reserved": 0, "fusion_lon": 0.0, "lat": 38.91532333333333, "rental_uris": {"ios": "https://dc.lft.to/lastmile_qr_scan", "android": "https://dc.lft.to/lastmile_qr_scan"}, "bike_id": "654fab65a0931cb6a9f1369c2f922484", "fusion_lat": 0.0}, {"lon": -77.03394183333333, "name": "0a6d0954154af4f066123375d58343cf", "is_disabled": 0, "type": "electric_scooter", "is_reserved": 0, "fusion_lon": 0.0, "lat": 38.90128416666667, "rental_uris": {"ios": "https://dc.lft.to/lastmile_qr_scan", "android": "https://dc.lft.to/lastmile_qr_scan"}, "bike_id": "0a6d0954154af4f066123375d58343cf", "fusion_lat": 0.0}, {"lon": -76.9457955, "name": "b968bd199f975f756d14fb0450bd49a8", "is_disabled": 0, "type": "electric_scooter", "is_reserved": 0, "fusion_lon": 0.0, "lat": 38.89926066666666, "rental_uris": {"ios": "https://dc.lft.to/lastmile_qr_scan", "android": "https://dc.lft.to/lastmile_qr_scan"}, "bike_id": "b968bd199f975f756d14fb0450bd49a8", "fusion_lat": 0.0}, {"lon": -77.02173816666667, "name": "7ff557968a692bfdbe3f37222abd01e3", "is_disabled": 0, "type": "electric_scooter", "is_reserved": 0, "fusion_lon": 0.0, "lat": 38.902139, "rental_uris": {"ios": "https://dc.lft.to/lastmile_qr_scan", "android": "https://dc.lft.to/lastmile_qr_scan"}, "bike_id": "7ff557968a692bfdbe3f37222abd01e3", "fusion_lat": 0.0}, {"lon": -76.97330466666666, "name": "1842962eefaf2daf05bbaaa59d5713a6", "is_disabled": 0, "type": "electric_scooter", "is_reserved": 0, "fusion_lon": 0.0, "lat": 38.904102, "rental_uris": {"ios": "https://dc.lft.to/lastmile_qr_scan", "android": "https://dc.lft.to/lastmile_qr_scan"}, "bike_id": "1842962eefaf2daf05bbaaa59d5713a6", "fusion_lat": 0.0}, {"lon": -76.98382683333334, "name": "3fbe033a0976640cdf9ebcf45f67005d", "is_disabled": 0, "type": "electric_scooter", "is_reserved": 0, "fusion_lon": 0.0, "lat": 38.860346166666666, "rental_uris": {"ios": "https://dc.lft.to/lastmile_qr_scan", "android": "https://dc.lft.to/lastmile_qr_scan"}, "bike_id": "3fbe033a0976640cdf9ebcf45f67005d", "fusion_lat": 0.0}, {"lon": -77.02154083333333, "name": "e7fec4d7703daae69eaf3016b61e88de", "is_disabled": 0, "type": "electric_scooter", "is_reserved": 0, "fusion_lon": 0.0, "lat": 38.92600216666666, "rental_uris": {"ios": "https://dc.lft.to/lastmile_qr_scan", "android": "https://dc.lft.to/lastmile_qr_scan"}, "bike_id": "e7fec4d7703daae69eaf3016b61e88de", "fusion_lat": 0.0}, {"lon": -77.00536583333333, "name": "e8833e8e75dc898260c27dbd250decae", "is_disabled": 0, "type": "electric_scooter", "is_reserved": 0, "fusion_lon": 0.0, "lat": 38.87545716666666, "rental_uris": {"ios": "https://dc.lft.to/lastmile_qr_scan", "android": "https://dc.lft.to/lastmile_qr_scan"}, "bike_id": "e8833e8e75dc898260c27dbd250decae", "fusion_lat": 0.0}, {"lon": -76.99705716666666, "name": "c043a1d7c06bb1d5fc404b1e3daece03", "is_disabled": 0, "type": "electric_scooter", "is_reserved": 0, "fusion_lon": 0.0, "lat": 38.90798383333333, "rental_uris": {"ios": "https://dc.lft.to/lastmile_qr_scan", "android": "https://dc.lft.to/lastmile_qr_scan"}, "bike_id": "c043a1d7c06bb1d5fc404b1e3daece03", "fusion_lat": 0.0}, {"lon": -76.98237116666667, "name": "a327acacec85fd1c069a953b8e2b6324", "is_disabled": 0, "type": "electric_scooter", "is_reserved": 0, "fusion_lon": 0.0, "lat": 38.9047585, "rental_uris": {"ios": "https://dc.lft.to/lastmile_qr_scan", "android": "https://dc.lft.to/lastmile_qr_scan"}, "bike_id": "a327acacec85fd1c069a953b8e2b6324", "fusion_lat": 0.0}, {"lon": -77.02416283333334, "name": "f92e2457defee35d1ef16b59c0ac408c", "is_disabled": 0, "type": "electric_scooter", "is_reserved": 0, "fusion_lon": 0.0, "lat": 38.898888666666664, "rental_uris": {"ios": "https://dc.lft.to/lastmile_qr_scan", "android": "https://dc.lft.to/lastmile_qr_scan"}, "bike_id": "f92e2457defee35d1ef16b59c0ac408c", "fusion_lat": 0.0}, {"lon": -77.01993033333333, "name": "855461af5bb75250c0265a57a07b40ce", "is_disabled": 0, "type": "electric_scooter", "is_reserved": 0, "fusion_lon": 0.0, "lat": 38.9378165, "rental_uris": {"ios": "https://dc.lft.to/lastmile_qr_scan", "android": "https://dc.lft.to/lastmile_qr_scan"}, "bike_id": "855461af5bb75250c0265a57a07b40ce", "fusion_lat": 0.0}, {"lon": -77.02320033333334, "name": "2c77b38880557ae3bbc5035533c184e9", "is_disabled": 0, "type": "electric_scooter", "is_reserved": 0, "fusion_lon": 0.0, "lat": 38.92075233333333, "rental_uris": {"ios": "https://dc.lft.to/lastmile_qr_scan", "android": "https://dc.lft.to/lastmile_qr_scan"}, "bike_id": "2c77b38880557ae3bbc5035533c184e9", "fusion_lat": 0.0}, {"lon": -77.0723575, "name": "088064e2cf31eb950df0c4241e567cb4", "is_disabled": 0, "type": "electric_scooter", "is_reserved": 0, "fusion_lon": 0.0, "lat": 38.941087833333334, "rental_uris": {"ios": "https://dc.lft.to/lastmile_qr_scan", "android": "https://dc.lft.to/lastmile_qr_scan"}, "bike_id": "088064e2cf31eb950df0c4241e567cb4", "fusion_lat": 0.0}, {"lon": -77.0004115, "name": "21f03182142b42b1ca0988c141eda3e2", "is_disabled": 0, "type": "electric_scooter", "is_reserved": 0, "fusion_lon": 0.0, "lat": 38.908047333333336, "rental_uris": {"ios": "https://dc.lft.to/lastmile_qr_scan", "android": "https://dc.lft.to/lastmile_qr_scan"}, "bike_id": "21f03182142b42b1ca0988c141eda3e2", "fusion_lat": 0.0}, {"lon": -77.01497733333333, "name": "905ff6f495076f06aaf8abdf0d8e30f0", "is_disabled": 0, "type": "electric_scooter", "is_reserved": 0, "fusion_lon": 0.0, "lat": 38.896673, "rental_uris": {"ios": "https://dc.lft.to/lastmile_qr_scan", "android": "https://dc.lft.to/lastmile_qr_scan"}, "bike_id": "905ff6f495076f06aaf8abdf0d8e30f0", "fusion_lat": 0.0}, {"lon": -77.02988133333334, "name": "9c7c193df6ec887fc18e041448644f46", "is_disabled": 0, "type": "electric_scooter", "is_reserved": 0, "fusion_lon": 0.0, "lat": 38.89569016666667, "rental_uris": {"ios": "https://dc.lft.to/lastmile_qr_scan", "android": "https://dc.lft.to/lastmile_qr_scan"}, "bike_id": "9c7c193df6ec887fc18e041448644f46", "fusion_lat": 0.0}, {"lon": -76.976903, "name": "e6d321ec6674d8fc51b4d3ef54bb33c5", "is_disabled": 0, "type": "electric_scooter", "is_reserved": 0, "fusion_lon": 0.0, "lat": 38.89193383333333, "rental_uris": {"ios": "https://dc.lft.to/lastmile_qr_scan", "android": "https://dc.lft.to/lastmile_qr_scan"}, "bike_id": "e6d321ec6674d8fc51b4d3ef54bb33c5", "fusion_lat": 0.0}, {"lon": -77.022607, "name": "030b824e44e35bad4604619d5325eb7e", "is_disabled": 0, "type": "electric_scooter", "is_reserved": 0, "fusion_lon": 0.0, "lat": 38.9282405, "rental_uris": {"ios": "https://dc.lft.to/lastmile_qr_scan", "android": "https://dc.lft.to/lastmile_qr_scan"}, "bike_id": "030b824e44e35bad4604619d5325eb7e", "fusion_lat": 0.0}, {"lon": -77.0191455, "name": "7d41678a1b018dc5a9757d8ee116e2d2", "is_disabled": 0, "type": "electric_scooter", "is_reserved": 0, "fusion_lon": 0.0, "lat": 38.89726916666667, "rental_uris": {"ios": "https://dc.lft.to/lastmile_qr_scan", "android": "https://dc.lft.to/lastmile_qr_scan"}, "bike_id": "7d41678a1b018dc5a9757d8ee116e2d2", "fusion_lat": 0.0}, {"lon": -76.99655983333334, "name": "06145e503d7db9b7b51f25bc4f54b37e", "is_disabled": 0, "type": "electric_bike", "is_reserved": 0, "fusion_lon": 0.0, "lat": 38.967756666666666, "rental_uris": {"ios": "https://dc.lft.to/lastmile_qr_scan", "android": "https://dc.lft.to/lastmile_qr_scan"}, "bike_id": "06145e503d7db9b7b51f25bc4f54b37e", "fusion_lat": 0.0}, {"lon": -77.03250966666667, "name": "4160562935bc8d7e3b4afd16082df65a", "is_disabled": 0, "type": "electric_scooter", "is_reserved": 0, "fusion_lon": 0.0, "lat": 38.939673, "rental_uris": {"ios": "https://dc.lft.to/lastmile_qr_scan", "android": "https://dc.lft.to/lastmile_qr_scan"}, "bike_id": "4160562935bc8d7e3b4afd16082df65a", "fusion_lat": 0.0}, {"lon": -77.03659533333334, "name": "c4891e4ba5aa7bab16108eda8ff76471", "is_disabled": 0, "type": "electric_scooter", "is_reserved": 0, "fusion_lon": 0.0, "lat": 38.91564366666667, "rental_uris": {"ios": "https://dc.lft.to/lastmile_qr_scan", "android": "https://dc.lft.to/lastmile_qr_scan"}, "bike_id": "c4891e4ba5aa7bab16108eda8ff76471", "fusion_lat": 0.0}, {"lon": -76.99510783333334, "name": "04ebfa084b15c57acd70ad9e90395e53", "is_disabled": 0, "type": "electric_scooter", "is_reserved": 0, "fusion_lon": 0.0, "lat": 38.890798833333335, "rental_uris": {"ios": "https://dc.lft.to/lastmile_qr_scan", "android": "https://dc.lft.to/lastmile_qr_scan"}, "bike_id": "04ebfa084b15c57acd70ad9e90395e53", "fusion_lat": 0.0}, {"lon": -77.03867, "name": "10ec67ce90f4e3d808b69f89822fe145", "is_disabled": 0, "type": "electric_scooter", "is_reserved": 0, "fusion_lon": 0.0, "lat": 38.91707916666667, "rental_uris": {"ios": "https://dc.lft.to/lastmile_qr_scan", "android": "https://dc.lft.to/lastmile_qr_scan"}, "bike_id": "10ec67ce90f4e3d808b69f89822fe145", "fusion_lat": 0.0}, {"lon": -77.038125, "name": "2a8ccfb3870b5c2d4de18a51ac2fe406", "is_disabled": 0, "type": "electric_scooter", "is_reserved": 0, "fusion_lon": 0.0, "lat": 38.925445, "rental_uris": {"ios": "https://dc.lft.to/lastmile_qr_scan", "android": "https://dc.lft.to/lastmile_qr_scan"}, "bike_id": "2a8ccfb3870b5c2d4de18a51ac2fe406", "fusion_lat": 0.0}, {"lon": -76.99850966666666, "name": "4151b36a8dbf47f7f4efa7f48e11e945", "is_disabled": 0, "type": "electric_scooter", "is_reserved": 0, "fusion_lon": 0.0, "lat": 38.901228333333336, "rental_uris": {"ios": "https://dc.lft.to/lastmile_qr_scan", "android": "https://dc.lft.to/lastmile_qr_scan"}, "bike_id": "4151b36a8dbf47f7f4efa7f48e11e945", "fusion_lat": 0.0}, {"lon": -77.02511016666666, "name": "9a4910342300cbc7924607ab23d60b3c", "is_disabled": 0, "type": "electric_scooter", "is_reserved": 0, "fusion_lon": 0.0, "lat": 38.917100166666664, "rental_uris": {"ios": "https://dc.lft.to/lastmile_qr_scan", "android": "https://dc.lft.to/lastmile_qr_scan"}, "bike_id": "9a4910342300cbc7924607ab23d60b3c", "fusion_lat": 0.0}, {"lon": -76.99563816666667, "name": "598595c6523c8cc4faf42b3cb3047718", "is_disabled": 0, "type": "electric_scooter", "is_reserved": 0, "fusion_lon": 0.0, "lat": 38.95066116666667, "rental_uris": {"ios": "https://dc.lft.to/lastmile_qr_scan", "android": "https://dc.lft.to/lastmile_qr_scan"}, "bike_id": "598595c6523c8cc4faf42b3cb3047718", "fusion_lat": 0.0}, {"lon": -77.03246466666667, "name": "62b453ad9499a7470987e80fb30e5ada", "is_disabled": 0, "type": "electric_scooter", "is_reserved": 0, "fusion_lon": 0.0, "lat": 38.902793833333334, "rental_uris": {"ios": "https://dc.lft.to/lastmile_qr_scan", "android": "https://dc.lft.to/lastmile_qr_scan"}, "bike_id": "62b453ad9499a7470987e80fb30e5ada", "fusion_lat": 0.0}, {"lon": -77.05065366666666, "name": "100fbfc354313f4935d483dd691bfa9e", "is_disabled": 0, "type": "electric_scooter", "is_reserved": 0, "fusion_lon": 0.0, "lat": 38.9008535, "rental_uris": {"ios": "https://dc.lft.to/lastmile_qr_scan", "android": "https://dc.lft.to/lastmile_qr_scan"}, "bike_id": "100fbfc354313f4935d483dd691bfa9e", "fusion_lat": 0.0}, {"lon": -76.92634666666666, "name": "5af6d6c4f039f975941d3c25a73d55b3", "is_disabled": 0, "type": "electric_scooter", "is_reserved": 0, "fusion_lon": 0.0, "lat": 38.8861785, "rental_uris": {"ios": "https://dc.lft.to/lastmile_qr_scan", "android": "https://dc.lft.to/lastmile_qr_scan"}, "bike_id": "5af6d6c4f039f975941d3c25a73d55b3", "fusion_lat": 0.0}, {"lon": -77.008954, "name": "2f7c2ab76130eb472faa9064c1be5f55", "is_disabled": 0, "type": "electric_scooter", "is_reserved": 0, "fusion_lon": 0.0, "lat": 38.90980583333333, "rental_uris": {"ios": "https://dc.lft.to/lastmile_qr_scan", "android": "https://dc.lft.to/lastmile_qr_scan"}, "bike_id": "2f7c2ab76130eb472faa9064c1be5f55", "fusion_lat": 0.0}, {"lon": -77.00982516666667, "name": "fec8fdd5b1aab4eddfc609e9b08a9a00", "is_disabled": 0, "type": "electric_scooter", "is_reserved": 0, "fusion_lon": 0.0, "lat": 38.914036333333335, "rental_uris": {"ios": "https://dc.lft.to/lastmile_qr_scan", "android": "https://dc.lft.to/lastmile_qr_scan"}, "bike_id": "fec8fdd5b1aab4eddfc609e9b08a9a00", "fusion_lat": 0.0}, {"lon": -77.03183766666666, "name": "b36b3cee1f75a841c1f0f4d6a2248a77", "is_disabled": 0, "type": "electric_scooter", "is_reserved": 0, "fusion_lon": 0.0, "lat": 38.883867, "rental_uris": {"ios": "https://dc.lft.to/lastmile_qr_scan", "android": "https://dc.lft.to/lastmile_qr_scan"}, "bike_id": "b36b3cee1f75a841c1f0f4d6a2248a77", "fusion_lat": 0.0}, {"lon": -77.02321316666666, "name": "3e7a981fdbe5a8f64edc14e4daa6c3d7", "is_disabled": 0, "type": "electric_scooter", "is_reserved": 0, "fusion_lon": 0.0, "lat": 38.939866333333335, "rental_uris": {"ios": "https://dc.lft.to/lastmile_qr_scan", "android": "https://dc.lft.to/lastmile_qr_scan"}, "bike_id": "3e7a981fdbe5a8f64edc14e4daa6c3d7", "fusion_lat": 0.0}, {"lon": -76.955634, "name": "bcc478edbe9d6a029fdd08387b24c4c5", "is_disabled": 0, "type": "electric_bike", "is_reserved": 0, "fusion_lon": 0.0, "lat": 38.985028, "rental_uris": {"ios": "https://dc.lft.to/lastmile_qr_scan", "android": "https://dc.lft.to/lastmile_qr_scan"}, "bike_id": "bcc478edbe9d6a029fdd08387b24c4c5", "fusion_lat": 0.0}, {"lon": -77.03440083333334, "name": "62a85cdb0f702f631038d5bb984e53a9", "is_disabled": 0, "type": "electric_scooter", "is_reserved": 0, "fusion_lon": 0.0, "lat": 38.91787866666667, "rental_uris": {"ios": "https://dc.lft.to/lastmile_qr_scan", "android": "https://dc.lft.to/lastmile_qr_scan"}, "bike_id": "62a85cdb0f702f631038d5bb984e53a9", "fusion_lat": 0.0}, {"lon": -77.0222555, "name": "828e919110792700df25263006a62118", "is_disabled": 0, "type": "electric_scooter", "is_reserved": 0, "fusion_lon": 0.0, "lat": 38.920896166666665, "rental_uris": {"ios": "https://dc.lft.to/lastmile_qr_scan", "android": "https://dc.lft.to/lastmile_qr_scan"}, "bike_id": "828e919110792700df25263006a62118", "fusion_lat": 0.0}, {"lon": -77.022146, "name": "eda6761e15702e51c6e4af8cd38d4218", "is_disabled": 0, "type": "electric_scooter", "is_reserved": 0, "fusion_lon": 0.0, "lat": 38.912677, "rental_uris": {"ios": "https://dc.lft.to/lastmile_qr_scan", "android": "https://dc.lft.to/lastmile_qr_scan"}, "bike_id": "eda6761e15702e51c6e4af8cd38d4218", "fusion_lat": 0.0}, {"lon": -77.015937, "name": "61f74e515a047878d5dc207fe3043fbe", "is_disabled": 0, "type": "electric_scooter", "is_reserved": 0, "fusion_lon": 0.0, "lat": 38.87457233333333, "rental_uris": {"ios": "https://dc.lft.to/lastmile_qr_scan", "android": "https://dc.lft.to/lastmile_qr_scan"}, "bike_id": "61f74e515a047878d5dc207fe3043fbe", "fusion_lat": 0.0}, {"lon": -77.025934, "name": "13711e47ad3d2aee7d13faf40003c540", "is_disabled": 0, "type": "electric_scooter", "is_reserved": 0, "fusion_lon": 0.0, "lat": 38.896254166666665, "rental_uris": {"ios": "https://dc.lft.to/lastmile_qr_scan", "android": "https://dc.lft.to/lastmile_qr_scan"}, "bike_id": "13711e47ad3d2aee7d13faf40003c540", "fusion_lat": 0.0}, {"lon": -77.08334216666667, "name": "a7fe84770e5185aa10dfb86c64b5c69d", "is_disabled": 0, "type": "electric_scooter", "is_reserved": 0, "fusion_lon": 0.0, "lat": 38.9298525, "rental_uris": {"ios": "https://dc.lft.to/lastmile_qr_scan", "android": "https://dc.lft.to/lastmile_qr_scan"}, "bike_id": "a7fe84770e5185aa10dfb86c64b5c69d", "fusion_lat": 0.0}, {"lon": -77.02981766666667, "name": "4b2077818b16a804b7bfacb1188df154", "is_disabled": 0, "type": "electric_scooter", "is_reserved": 0, "fusion_lon": 0.0, "lat": 38.942671833333335, "rental_uris": {"ios": "https://dc.lft.to/lastmile_qr_scan", "android": "https://dc.lft.to/lastmile_qr_scan"}, "bike_id": "4b2077818b16a804b7bfacb1188df154", "fusion_lat": 0.0}, {"lon": -77.01745, "name": "7ce312bacb9fe43a53681ef5bdc1f9aa", "is_disabled": 0, "type": "electric_scooter", "is_reserved": 0, "fusion_lon": 0.0, "lat": 38.88202533333333, "rental_uris": {"ios": "https://dc.lft.to/lastmile_qr_scan", "android": "https://dc.lft.to/lastmile_qr_scan"}, "bike_id": "7ce312bacb9fe43a53681ef5bdc1f9aa", "fusion_lat": 0.0}, {"lon": -77.04997683333333, "name": "fab4f49fdd41e575475c6c12efe2dbaa", "is_disabled": 0, "type": "electric_scooter", "is_reserved": 0, "fusion_lon": 0.0, "lat": 38.892292833333336, "rental_uris": {"ios": "https://dc.lft.to/lastmile_qr_scan", "android": "https://dc.lft.to/lastmile_qr_scan"}, "bike_id": "fab4f49fdd41e575475c6c12efe2dbaa", "fusion_lat": 0.0}, {"lon": -77.02127783333333, "name": "3713a899de5737b29e91b90982d1303c", "is_disabled": 0, "type": "electric_scooter", "is_reserved": 0, "fusion_lon": 0.0, "lat": 38.924116833333336, "rental_uris": {"ios": "https://dc.lft.to/lastmile_qr_scan", "android": "https://dc.lft.to/lastmile_qr_scan"}, "bike_id": "3713a899de5737b29e91b90982d1303c", "fusion_lat": 0.0}, {"lon": -77.03471333333333, "name": "58ceda54944714aa4ee89db6c120af85", "is_disabled": 0, "type": "electric_scooter", "is_reserved": 0, "fusion_lon": 0.0, "lat": 38.929809166666665, "rental_uris": {"ios": "https://dc.lft.to/lastmile_qr_scan", "android": "https://dc.lft.to/lastmile_qr_scan"}, "bike_id": "58ceda54944714aa4ee89db6c120af85", "fusion_lat": 0.0}, {"lon": -77.03441816666667, "name": "fe3760de0c6b8cfce3e3d0adeb22f794", "is_disabled": 0, "type": "electric_scooter", "is_reserved": 0, "fusion_lon": 0.0, "lat": 38.92157683333333, "rental_uris": {"ios": "https://dc.lft.to/lastmile_qr_scan", "android": "https://dc.lft.to/lastmile_qr_scan"}, "bike_id": "fe3760de0c6b8cfce3e3d0adeb22f794", "fusion_lat": 0.0}, {"lon": -77.034115, "name": "6d6806afa2e62221561a542cef826406", "is_disabled": 0, "type": "electric_scooter", "is_reserved": 0, "fusion_lon": 0.0, "lat": 38.92344883333333, "rental_uris": {"ios": "https://dc.lft.to/lastmile_qr_scan", "android": "https://dc.lft.to/lastmile_qr_scan"}, "bike_id": "6d6806afa2e62221561a542cef826406", "fusion_lat": 0.0}, {"lon": -77.032012, "name": "5ba81d5a8510b20a2ce6070919f088c2", "is_disabled": 0, "type": "electric_scooter", "is_reserved": 0, "fusion_lon": 0.0, "lat": 38.91618183333333, "rental_uris": {"ios": "https://dc.lft.to/lastmile_qr_scan", "android": "https://dc.lft.to/lastmile_qr_scan"}, "bike_id": "5ba81d5a8510b20a2ce6070919f088c2", "fusion_lat": 0.0}, {"lon": -77.12906366666667, "name": "a33d770408a9dd65e9c79f98eb8c78ec", "is_disabled": 0, "type": "electric_bike", "is_reserved": 0, "fusion_lon": 0.0, "lat": 38.906193333333334, "rental_uris": {"ios": "https://dc.lft.to/lastmile_qr_scan", "android": "https://dc.lft.to/lastmile_qr_scan"}, "bike_id": "a33d770408a9dd65e9c79f98eb8c78ec", "fusion_lat": 0.0}, {"lon": -77.00574766666666, "name": "3ce293c37bcb2225422ffd3986860248", "is_disabled": 0, "type": "electric_scooter", "is_reserved": 0, "fusion_lon": 0.0, "lat": 38.906439166666665, "rental_uris": {"ios": "https://dc.lft.to/lastmile_qr_scan", "android": "https://dc.lft.to/lastmile_qr_scan"}, "bike_id": "3ce293c37bcb2225422ffd3986860248", "fusion_lat": 0.0}, {"lon": -77.00925883333333, "name": "6dd3146aa07497ce5b03b06cff4b672e", "is_disabled": 0, "type": "electric_scooter", "is_reserved": 0, "fusion_lon": 0.0, "lat": 38.89547983333333, "rental_uris": {"ios": "https://dc.lft.to/lastmile_qr_scan", "android": "https://dc.lft.to/lastmile_qr_scan"}, "bike_id": "6dd3146aa07497ce5b03b06cff4b672e", "fusion_lat": 0.0}, {"lon": -76.97684266666667, "name": "793e9a047fb3d42b6c6dacc4b0846297", "is_disabled": 0, "type": "electric_scooter", "is_reserved": 0, "fusion_lon": 0.0, "lat": 38.900978333333335, "rental_uris": {"ios": "https://dc.lft.to/lastmile_qr_scan", "android": "https://dc.lft.to/lastmile_qr_scan"}, "bike_id": "793e9a047fb3d42b6c6dacc4b0846297", "fusion_lat": 0.0}, {"lon": -77.00131683333333, "name": "67a583c6b3191ee6b4b5213c001d86de", "is_disabled": 0, "type": "electric_scooter", "is_reserved": 0, "fusion_lon": 0.0, "lat": 38.8737105, "rental_uris": {"ios": "https://dc.lft.to/lastmile_qr_scan", "android": "https://dc.lft.to/lastmile_qr_scan"}, "bike_id": "67a583c6b3191ee6b4b5213c001d86de", "fusion_lat": 0.0}, {"lon": -77.03246783333333, "name": "305e5fe6dce26401ff20b7a88ed90a6f", "is_disabled": 0, "type": "electric_scooter", "is_reserved": 0, "fusion_lon": 0.0, "lat": 38.920933, "rental_uris": {"ios": "https://dc.lft.to/lastmile_qr_scan", "android": "https://dc.lft.to/lastmile_qr_scan"}, "bike_id": "305e5fe6dce26401ff20b7a88ed90a6f", "fusion_lat": 0.0}, {"lon": -77.02795083333334, "name": "7a346ad8b37aaec16d4d1674d5de00e9", "is_disabled": 0, "type": "electric_scooter", "is_reserved": 0, "fusion_lon": 0.0, "lat": 38.938242333333335, "rental_uris": {"ios": "https://dc.lft.to/lastmile_qr_scan", "android": "https://dc.lft.to/lastmile_qr_scan"}, "bike_id": "7a346ad8b37aaec16d4d1674d5de00e9", "fusion_lat": 0.0}, {"lon": -77.01193916666666, "name": "c57428a9e367377f94f00efea414a860", "is_disabled": 0, "type": "electric_scooter", "is_reserved": 0, "fusion_lon": 0.0, "lat": 38.870892833333336, "rental_uris": {"ios": "https://dc.lft.to/lastmile_qr_scan", "android": "https://dc.lft.to/lastmile_qr_scan"}, "bike_id": "c57428a9e367377f94f00efea414a860", "fusion_lat": 0.0}, {"lon": -76.98519566666667, "name": "51f50e50f58b93404e137938490a99b4", "is_disabled": 0, "type": "electric_scooter", "is_reserved": 0, "fusion_lon": 0.0, "lat": 38.86004483333333, "rental_uris": {"ios": "https://dc.lft.to/lastmile_qr_scan", "android": "https://dc.lft.to/lastmile_qr_scan"}, "bike_id": "51f50e50f58b93404e137938490a99b4", "fusion_lat": 0.0}, {"lon": -77.04995083333333, "name": "40bae218883b891516983c5d0400dfcd", "is_disabled": 0, "type": "electric_scooter", "is_reserved": 0, "fusion_lon": 0.0, "lat": 38.892289, "rental_uris": {"ios": "https://dc.lft.to/lastmile_qr_scan", "android": "https://dc.lft.to/lastmile_qr_scan"}, "bike_id": "40bae218883b891516983c5d0400dfcd", "fusion_lat": 0.0}, {"lon": -77.0221005, "name": "90d3b820b243f86600b9fe8e096d1e73", "is_disabled": 0, "type": "electric_scooter", "is_reserved": 0, "fusion_lon": 0.0, "lat": 38.92463983333333, "rental_uris": {"ios": "https://dc.lft.to/lastmile_qr_scan", "android": "https://dc.lft.to/lastmile_qr_scan"}, "bike_id": "90d3b820b243f86600b9fe8e096d1e73", "fusion_lat": 0.0}, {"lon": -76.979588, "name": "c1979fe3433d84924b7ae2bcb2dfa333", "is_disabled": 0, "type": "electric_bike", "is_reserved": 0, "fusion_lon": 0.0, "lat": 38.920398, "rental_uris": {"ios": "https://dc.lft.to/lastmile_qr_scan", "android": "https://dc.lft.to/lastmile_qr_scan"}, "bike_id": "c1979fe3433d84924b7ae2bcb2dfa333", "fusion_lat": 0.0}, {"lon": -77.033883, "name": "7a8cad8ca3534509c65a1906e941dfcb", "is_disabled": 0, "type": "electric_scooter", "is_reserved": 0, "fusion_lon": 0.0, "lat": 38.900012833333335, "rental_uris": {"ios": "https://dc.lft.to/lastmile_qr_scan", "android": "https://dc.lft.to/lastmile_qr_scan"}, "bike_id": "7a8cad8ca3534509c65a1906e941dfcb", "fusion_lat": 0.0}, {"lon": -77.0220335, "name": "34fa6ac81bdccae1908962ee09096275", "is_disabled": 0, "type": "electric_scooter", "is_reserved": 0, "fusion_lon": 0.0, "lat": 38.92098033333333, "rental_uris": {"ios": "https://dc.lft.to/lastmile_qr_scan", "android": "https://dc.lft.to/lastmile_qr_scan"}, "bike_id": "34fa6ac81bdccae1908962ee09096275", "fusion_lat": 0.0}, {"lon": -77.03450816666667, "name": "340acebd9d50692f929d35c8b460fba5", "is_disabled": 0, "type": "electric_scooter", "is_reserved": 0, "fusion_lon": 0.0, "lat": 38.90361983333333, "rental_uris": {"ios": "https://dc.lft.to/lastmile_qr_scan", "android": "https://dc.lft.to/lastmile_qr_scan"}, "bike_id": "340acebd9d50692f929d35c8b460fba5", "fusion_lat": 0.0}, {"lon": -76.98455633333333, "name": "d50a80f96492cda0920f9b70e650af08", "is_disabled": 0, "type": "electric_scooter", "is_reserved": 0, "fusion_lon": 0.0, "lat": 38.89236833333333, "rental_uris": {"ios": "https://dc.lft.to/lastmile_qr_scan", "android": "https://dc.lft.to/lastmile_qr_scan"}, "bike_id": "d50a80f96492cda0920f9b70e650af08", "fusion_lat": 0.0}, {"lon": -77.02081533333333, "name": "113da30709a7d8e4704934bf72284b17", "is_disabled": 0, "type": "electric_scooter", "is_reserved": 0, "fusion_lon": 0.0, "lat": 38.92285116666667, "rental_uris": {"ios": "https://dc.lft.to/lastmile_qr_scan", "android": "https://dc.lft.to/lastmile_qr_scan"}, "bike_id": "113da30709a7d8e4704934bf72284b17", "fusion_lat": 0.0}, {"lon": -76.9981565, "name": "a844e480bdaa5d546acfb26b82e98185", "is_disabled": 0, "type": "electric_scooter", "is_reserved": 0, "fusion_lon": 0.0, "lat": 38.90604733333333, "rental_uris": {"ios": "https://dc.lft.to/lastmile_qr_scan", "android": "https://dc.lft.to/lastmile_qr_scan"}, "bike_id": "a844e480bdaa5d546acfb26b82e98185", "fusion_lat": 0.0}, {"lon": -77.03661933333333, "name": "517c8cab173e60da716030ee34618877", "is_disabled": 0, "type": "electric_scooter", "is_reserved": 0, "fusion_lon": 0.0, "lat": 38.923342, "rental_uris": {"ios": "https://dc.lft.to/lastmile_qr_scan", "android": "https://dc.lft.to/lastmile_qr_scan"}, "bike_id": "517c8cab173e60da716030ee34618877", "fusion_lat": 0.0}, {"lon": -77.020452, "name": "8b3c40629a260cbf807dbfeb9be23019", "is_disabled": 0, "type": "electric_scooter", "is_reserved": 0, "fusion_lon": 0.0, "lat": 38.89868766666667, "rental_uris": {"ios": "https://dc.lft.to/lastmile_qr_scan", "android": "https://dc.lft.to/lastmile_qr_scan"}, "bike_id": "8b3c40629a260cbf807dbfeb9be23019", "fusion_lat": 0.0}, {"lon": -77.04361933333334, "name": "e200f998a8fa21f52dec9e8916f0b1ab", "is_disabled": 0, "type": "electric_scooter", "is_reserved": 0, "fusion_lon": 0.0, "lat": 38.92060816666667, "rental_uris": {"ios": "https://dc.lft.to/lastmile_qr_scan", "android": "https://dc.lft.to/lastmile_qr_scan"}, "bike_id": "e200f998a8fa21f52dec9e8916f0b1ab", "fusion_lat": 0.0}, {"lon": -77.01952233333333, "name": "104d2949a6e4a0ede9ef75e022d189a6", "is_disabled": 0, "type": "electric_scooter", "is_reserved": 0, "fusion_lon": 0.0, "lat": 38.9225395, "rental_uris": {"ios": "https://dc.lft.to/lastmile_qr_scan", "android": "https://dc.lft.to/lastmile_qr_scan"}, "bike_id": "104d2949a6e4a0ede9ef75e022d189a6", "fusion_lat": 0.0}, {"lon": -77.025078, "name": "4cf0ccc4deaae63c339a54c3a56b1161", "is_disabled": 0, "type": "electric_scooter", "is_reserved": 0, "fusion_lon": 0.0, "lat": 38.90388866666667, "rental_uris": {"ios": "https://dc.lft.to/lastmile_qr_scan", "android": "https://dc.lft.to/lastmile_qr_scan"}, "bike_id": "4cf0ccc4deaae63c339a54c3a56b1161", "fusion_lat": 0.0}, {"lon": -77.0279645, "name": "a45bcaf94b3a6a48dd6a42d98d10eff4", "is_disabled": 0, "type": "electric_scooter", "is_reserved": 0, "fusion_lon": 0.0, "lat": 38.941781, "rental_uris": {"ios": "https://dc.lft.to/lastmile_qr_scan", "android": "https://dc.lft.to/lastmile_qr_scan"}, "bike_id": "a45bcaf94b3a6a48dd6a42d98d10eff4", "fusion_lat": 0.0}, {"lon": -77.03537883333334, "name": "890cd63c3364e45b09fe3d2598cbc2d6", "is_disabled": 0, "type": "electric_scooter", "is_reserved": 0, "fusion_lon": 0.0, "lat": 38.91825433333333, "rental_uris": {"ios": "https://dc.lft.to/lastmile_qr_scan", "android": "https://dc.lft.to/lastmile_qr_scan"}, "bike_id": "890cd63c3364e45b09fe3d2598cbc2d6", "fusion_lat": 0.0}, {"lon": -77.0317425, "name": "f6e88e7d822d63341aa4bc76e12e194f", "is_disabled": 0, "type": "electric_scooter", "is_reserved": 0, "fusion_lon": 0.0, "lat": 38.8923035, "rental_uris": {"ios": "https://dc.lft.to/lastmile_qr_scan", "android": "https://dc.lft.to/lastmile_qr_scan"}, "bike_id": "f6e88e7d822d63341aa4bc76e12e194f", "fusion_lat": 0.0}, {"lon": -76.95767016666667, "name": "328ffc526cd471b29fa3f5dfa474c244", "is_disabled": 0, "type": "electric_scooter", "is_reserved": 0, "fusion_lon": 0.0, "lat": 38.8835245, "rental_uris": {"ios": "https://dc.lft.to/lastmile_qr_scan", "android": "https://dc.lft.to/lastmile_qr_scan"}, "bike_id": "328ffc526cd471b29fa3f5dfa474c244", "fusion_lat": 0.0}, {"lon": -77.007928, "name": "409f361cacdfc5eb931f6d9414a01800", "is_disabled": 0, "type": "electric_scooter", "is_reserved": 0, "fusion_lon": 0.0, "lat": 38.92669866666667, "rental_uris": {"ios": "https://dc.lft.to/lastmile_qr_scan", "android": "https://dc.lft.to/lastmile_qr_scan"}, "bike_id": "409f361cacdfc5eb931f6d9414a01800", "fusion_lat": 0.0}, {"lon": -77.0230615, "name": "5276a543f6ec006d35f6cbe555804278", "is_disabled": 0, "type": "electric_scooter", "is_reserved": 0, "fusion_lon": 0.0, "lat": 38.918004, "rental_uris": {"ios": "https://dc.lft.to/lastmile_qr_scan", "android": "https://dc.lft.to/lastmile_qr_scan"}, "bike_id": "5276a543f6ec006d35f6cbe555804278", "fusion_lat": 0.0}, {"lon": -77.04379383333334, "name": "0dc8d20d4742797f40b1dfc0356a9d71", "is_disabled": 0, "type": "electric_scooter", "is_reserved": 0, "fusion_lon": 0.0, "lat": 38.9206725, "rental_uris": {"ios": "https://dc.lft.to/lastmile_qr_scan", "android": "https://dc.lft.to/lastmile_qr_scan"}, "bike_id": "0dc8d20d4742797f40b1dfc0356a9d71", "fusion_lat": 0.0}, {"lon": -77.04004066666667, "name": "9ad8c6644b0589545297c108cb4a7f89", "is_disabled": 0, "type": "electric_scooter", "is_reserved": 0, "fusion_lon": 0.0, "lat": 38.934206833333334, "rental_uris": {"ios": "https://dc.lft.to/lastmile_qr_scan", "android": "https://dc.lft.to/lastmile_qr_scan"}, "bike_id": "9ad8c6644b0589545297c108cb4a7f89", "fusion_lat": 0.0}, {"lon": -76.99700133333333, "name": "60f363ab7f002493b5dca67307113592", "is_disabled": 0, "type": "electric_scooter", "is_reserved": 0, "fusion_lon": 0.0, "lat": 38.908301333333334, "rental_uris": {"ios": "https://dc.lft.to/lastmile_qr_scan", "android": "https://dc.lft.to/lastmile_qr_scan"}, "bike_id": "60f363ab7f002493b5dca67307113592", "fusion_lat": 0.0}, {"lon": -77.021268, "name": "507a2f3319b5d938a9fec635f9d5c437", "is_disabled": 0, "type": "electric_scooter", "is_reserved": 0, "fusion_lon": 0.0, "lat": 38.92796583333333, "rental_uris": {"ios": "https://dc.lft.to/lastmile_qr_scan", "android": "https://dc.lft.to/lastmile_qr_scan"}, "bike_id": "507a2f3319b5d938a9fec635f9d5c437", "fusion_lat": 0.0}, {"lon": -77.004539, "name": "db1b697e18da2b57df365090ab5f8535", "is_disabled": 0, "type": "electric_scooter", "is_reserved": 0, "fusion_lon": 0.0, "lat": 38.87752666666667, "rental_uris": {"ios": "https://dc.lft.to/lastmile_qr_scan", "android": "https://dc.lft.to/lastmile_qr_scan"}, "bike_id": "db1b697e18da2b57df365090ab5f8535", "fusion_lat": 0.0}, {"lon": -76.99419016666667, "name": "d4878bea93425d4d0a4bdeb10eb9baa0", "is_disabled": 0, "type": "electric_scooter", "is_reserved": 0, "fusion_lon": 0.0, "lat": 38.877852, "rental_uris": {"ios": "https://dc.lft.to/lastmile_qr_scan", "android": "https://dc.lft.to/lastmile_qr_scan"}, "bike_id": "d4878bea93425d4d0a4bdeb10eb9baa0", "fusion_lat": 0.0}, {"lon": -77.01230733333334, "name": "035d19f862c5afb1377c51dc9c72a191", "is_disabled": 0, "type": "electric_scooter", "is_reserved": 0, "fusion_lon": 0.0, "lat": 38.91597633333333, "rental_uris": {"ios": "https://dc.lft.to/lastmile_qr_scan", "android": "https://dc.lft.to/lastmile_qr_scan"}, "bike_id": "035d19f862c5afb1377c51dc9c72a191", "fusion_lat": 0.0}, {"lon": -77.02587, "name": "4bf5c8199a94f51d19165c71dc569613", "is_disabled": 0, "type": "electric_scooter", "is_reserved": 0, "fusion_lon": 0.0, "lat": 38.90350016666667, "rental_uris": {"ios": "https://dc.lft.to/lastmile_qr_scan", "android": "https://dc.lft.to/lastmile_qr_scan"}, "bike_id": "4bf5c8199a94f51d19165c71dc569613", "fusion_lat": 0.0}, {"lon": -77.04223383333333, "name": "f76c000f79244ed06d6f49798f40ed2d", "is_disabled": 0, "type": "electric_scooter", "is_reserved": 0, "fusion_lon": 0.0, "lat": 38.92285566666666, "rental_uris": {"ios": "https://dc.lft.to/lastmile_qr_scan", "android": "https://dc.lft.to/lastmile_qr_scan"}, "bike_id": "f76c000f79244ed06d6f49798f40ed2d", "fusion_lat": 0.0}, {"lon": -77.03897583333334, "name": "1067e450c9894fb884c9f80896c51291", "is_disabled": 0, "type": "electric_scooter", "is_reserved": 0, "fusion_lon": 0.0, "lat": 38.918353833333335, "rental_uris": {"ios": "https://dc.lft.to/lastmile_qr_scan", "android": "https://dc.lft.to/lastmile_qr_scan"}, "bike_id": "1067e450c9894fb884c9f80896c51291", "fusion_lat": 0.0}, {"lon": -76.98317666666667, "name": "5b5216908dc4ebacca2b867023e54e65", "is_disabled": 0, "type": "electric_scooter", "is_reserved": 0, "fusion_lon": 0.0, "lat": 38.922508, "rental_uris": {"ios": "https://dc.lft.to/lastmile_qr_scan", "android": "https://dc.lft.to/lastmile_qr_scan"}, "bike_id": "5b5216908dc4ebacca2b867023e54e65", "fusion_lat": 0.0}, {"lon": -77.04392633333333, "name": "5f20cae295ce4716e77bfa342fd2a881", "is_disabled": 0, "type": "electric_scooter", "is_reserved": 0, "fusion_lon": 0.0, "lat": 38.922365166666665, "rental_uris": {"ios": "https://dc.lft.to/lastmile_qr_scan", "android": "https://dc.lft.to/lastmile_qr_scan"}, "bike_id": "5f20cae295ce4716e77bfa342fd2a881", "fusion_lat": 0.0}, {"lon": -77.03892583333334, "name": "c69da7f8a34c0bd401c14025bd192768", "is_disabled": 0, "type": "electric_scooter", "is_reserved": 0, "fusion_lon": 0.0, "lat": 38.918504666666664, "rental_uris": {"ios": "https://dc.lft.to/lastmile_qr_scan", "android": "https://dc.lft.to/lastmile_qr_scan"}, "bike_id": "c69da7f8a34c0bd401c14025bd192768", "fusion_lat": 0.0}, {"lon": -76.99958083333334, "name": "f082b622cacc74f364f4b0b2abb00c89", "is_disabled": 0, "type": "electric_scooter", "is_reserved": 0, "fusion_lon": 0.0, "lat": 38.903798, "rental_uris": {"ios": "https://dc.lft.to/lastmile_qr_scan", "android": "https://dc.lft.to/lastmile_qr_scan"}, "bike_id": "f082b622cacc74f364f4b0b2abb00c89", "fusion_lat": 0.0}, {"lon": -77.04460216666666, "name": "ac3530fd7c296523e74f1f4db49ac639", "is_disabled": 0, "type": "electric_scooter", "is_reserved": 0, "fusion_lon": 0.0, "lat": 38.91919933333333, "rental_uris": {"ios": "https://dc.lft.to/lastmile_qr_scan", "android": "https://dc.lft.to/lastmile_qr_scan"}, "bike_id": "ac3530fd7c296523e74f1f4db49ac639", "fusion_lat": 0.0}, {"lon": -76.9959535, "name": "2d7caa0d1b983155bd671a21b0bfc25c", "is_disabled": 0, "type": "electric_scooter", "is_reserved": 0, "fusion_lon": 0.0, "lat": 38.884326, "rental_uris": {"ios": "https://dc.lft.to/lastmile_qr_scan", "android": "https://dc.lft.to/lastmile_qr_scan"}, "bike_id": "2d7caa0d1b983155bd671a21b0bfc25c", "fusion_lat": 0.0}, {"lon": -77.04998866666666, "name": "19b0237135cacef3edaa33a39681b833", "is_disabled": 0, "type": "electric_scooter", "is_reserved": 0, "fusion_lon": 0.0, "lat": 38.892279, "rental_uris": {"ios": "https://dc.lft.to/lastmile_qr_scan", "android": "https://dc.lft.to/lastmile_qr_scan"}, "bike_id": "19b0237135cacef3edaa33a39681b833", "fusion_lat": 0.0}, {"lon": -77.032535, "name": "af6ef350a7498772cd3c6ae58f383227", "is_disabled": 0, "type": "electric_scooter", "is_reserved": 0, "fusion_lon": 0.0, "lat": 38.93967216666667, "rental_uris": {"ios": "https://dc.lft.to/lastmile_qr_scan", "android": "https://dc.lft.to/lastmile_qr_scan"}, "bike_id": "af6ef350a7498772cd3c6ae58f383227", "fusion_lat": 0.0}, {"lon": -77.03868116666666, "name": "d1434b21dab392c53e3b4308b4c004b1", "is_disabled": 0, "type": "electric_scooter", "is_reserved": 0, "fusion_lon": 0.0, "lat": 38.91251716666667, "rental_uris": {"ios": "https://dc.lft.to/lastmile_qr_scan", "android": "https://dc.lft.to/lastmile_qr_scan"}, "bike_id": "d1434b21dab392c53e3b4308b4c004b1", "fusion_lat": 0.0}, {"lon": -77.02525983333334, "name": "03f83a72483c19381e0b379774dccb2a", "is_disabled": 0, "type": "electric_scooter", "is_reserved": 0, "fusion_lon": 0.0, "lat": 38.92232833333333, "rental_uris": {"ios": "https://dc.lft.to/lastmile_qr_scan", "android": "https://dc.lft.to/lastmile_qr_scan"}, "bike_id": "03f83a72483c19381e0b379774dccb2a", "fusion_lat": 0.0}, {"lon": -77.09523816666666, "name": "d52712fa469409d0a23dd4e36966582b", "is_disabled": 0, "type": "electric_bike", "is_reserved": 0, "fusion_lon": 0.0, "lat": 38.83811766666667, "rental_uris": {"ios": "https://dc.lft.to/lastmile_qr_scan", "android": "https://dc.lft.to/lastmile_qr_scan"}, "bike_id": "d52712fa469409d0a23dd4e36966582b", "fusion_lat": 0.0}, {"lon": -77.0450615, "name": "08389d5b5d14bb39ad3f4aa59083ab1f", "is_disabled": 0, "type": "electric_scooter", "is_reserved": 0, "fusion_lon": 0.0, "lat": 38.912695166666666, "rental_uris": {"ios": "https://dc.lft.to/lastmile_qr_scan", "android": "https://dc.lft.to/lastmile_qr_scan"}, "bike_id": "08389d5b5d14bb39ad3f4aa59083ab1f", "fusion_lat": 0.0}, {"lon": -76.9363355, "name": "bdcd9a37beb3dd1e5847fbc980b209c6", "is_disabled": 0, "type": "electric_scooter", "is_reserved": 0, "fusion_lon": 0.0, "lat": 38.8834705, "rental_uris": {"ios": "https://dc.lft.to/lastmile_qr_scan", "android": "https://dc.lft.to/lastmile_qr_scan"}, "bike_id": "bdcd9a37beb3dd1e5847fbc980b209c6", "fusion_lat": 0.0}, {"lon": -76.99372283333334, "name": "296cae13e8ffd1faf713524b3cc56866", "is_disabled": 0, "type": "electric_bike", "is_reserved": 0, "fusion_lon": 0.0, "lat": 38.99096333333333, "rental_uris": {"ios": "https://dc.lft.to/lastmile_qr_scan", "android": "https://dc.lft.to/lastmile_qr_scan"}, "bike_id": "296cae13e8ffd1faf713524b3cc56866", "fusion_lat": 0.0}, {"lon": -76.94292333333334, "name": "6becabfb6f92ed9a195537d86fb754f1", "is_disabled": 0, "type": "electric_scooter", "is_reserved": 0, "fusion_lon": 0.0, "lat": 38.89844033333333, "rental_uris": {"ios": "https://dc.lft.to/lastmile_qr_scan", "android": "https://dc.lft.to/lastmile_qr_scan"}, "bike_id": "6becabfb6f92ed9a195537d86fb754f1", "fusion_lat": 0.0}, {"lon": -76.99836433333333, "name": "af3a93c74c392d8c556459d9d1b59ecd", "is_disabled": 0, "type": "electric_scooter", "is_reserved": 0, "fusion_lon": 0.0, "lat": 38.92550133333334, "rental_uris": {"ios": "https://dc.lft.to/lastmile_qr_scan", "android": "https://dc.lft.to/lastmile_qr_scan"}, "bike_id": "af3a93c74c392d8c556459d9d1b59ecd", "fusion_lat": 0.0}, {"lon": -77.06432233333334, "name": "e64ea7df2d130b52b6551488013f293f", "is_disabled": 0, "type": "electric_scooter", "is_reserved": 0, "fusion_lon": 0.0, "lat": 38.905171, "rental_uris": {"ios": "https://dc.lft.to/lastmile_qr_scan", "android": "https://dc.lft.to/lastmile_qr_scan"}, "bike_id": "e64ea7df2d130b52b6551488013f293f", "fusion_lat": 0.0}, {"lon": -77.021302, "name": "319fed533a3ad34c5a6be1e32f110f42", "is_disabled": 0, "type": "electric_scooter", "is_reserved": 0, "fusion_lon": 0.0, "lat": 38.924097833333335, "rental_uris": {"ios": "https://dc.lft.to/lastmile_qr_scan", "android": "https://dc.lft.to/lastmile_qr_scan"}, "bike_id": "319fed533a3ad34c5a6be1e32f110f42", "fusion_lat": 0.0}, {"lon": -77.0456955, "name": "b8d258573f774050627ded6d4b317367", "is_disabled": 0, "type": "electric_scooter", "is_reserved": 0, "fusion_lon": 0.0, "lat": 38.9105545, "rental_uris": {"ios": "https://dc.lft.to/lastmile_qr_scan", "android": "https://dc.lft.to/lastmile_qr_scan"}, "bike_id": "b8d258573f774050627ded6d4b317367", "fusion_lat": 0.0}, {"lon": -77.031781, "name": "015afa4d5b03d2a958ba24611cd1639d", "is_disabled": 0, "type": "electric_scooter", "is_reserved": 0, "fusion_lon": 0.0, "lat": 38.893535666666665, "rental_uris": {"ios": "https://dc.lft.to/lastmile_qr_scan", "android": "https://dc.lft.to/lastmile_qr_scan"}, "bike_id": "015afa4d5b03d2a958ba24611cd1639d", "fusion_lat": 0.0}, {"lon": -77.026093, "name": "a545993b7e469fbfebe6dea01b90362d", "is_disabled": 0, "type": "electric_scooter", "is_reserved": 0, "fusion_lon": 0.0, "lat": 38.900477, "rental_uris": {"ios": "https://dc.lft.to/lastmile_qr_scan", "android": "https://dc.lft.to/lastmile_qr_scan"}, "bike_id": "a545993b7e469fbfebe6dea01b90362d", "fusion_lat": 0.0}, {"lon": -77.039344, "name": "d4e44fea3ba2a1019792c26d583f398c", "is_disabled": 0, "type": "electric_scooter", "is_reserved": 0, "fusion_lon": 0.0, "lat": 38.92490566666667, "rental_uris": {"ios": "https://dc.lft.to/lastmile_qr_scan", "android": "https://dc.lft.to/lastmile_qr_scan"}, "bike_id": "d4e44fea3ba2a1019792c26d583f398c", "fusion_lat": 0.0}, {"lon": -77.07798566666666, "name": "3a3b344768e5a195bdfa97998514016d", "is_disabled": 0, "type": "electric_scooter", "is_reserved": 0, "fusion_lon": 0.0, "lat": 38.938476, "rental_uris": {"ios": "https://dc.lft.to/lastmile_qr_scan", "android": "https://dc.lft.to/lastmile_qr_scan"}, "bike_id": "3a3b344768e5a195bdfa97998514016d", "fusion_lat": 0.0}, {"lon": -76.930085, "name": "c07e2d04a05b76cbcde06629e096e907", "is_disabled": 0, "type": "electric_scooter", "is_reserved": 0, "fusion_lon": 0.0, "lat": 38.90714833333333, "rental_uris": {"ios": "https://dc.lft.to/lastmile_qr_scan", "android": "https://dc.lft.to/lastmile_qr_scan"}, "bike_id": "c07e2d04a05b76cbcde06629e096e907", "fusion_lat": 0.0}, {"lon": -77.0499415, "name": "18a1453249aaa6f3e9e68f48008d3132", "is_disabled": 0, "type": "electric_scooter", "is_reserved": 0, "fusion_lon": 0.0, "lat": 38.892283166666665, "rental_uris": {"ios": "https://dc.lft.to/lastmile_qr_scan", "android": "https://dc.lft.to/lastmile_qr_scan"}, "bike_id": "18a1453249aaa6f3e9e68f48008d3132", "fusion_lat": 0.0}, {"lon": -77.03562066666667, "name": "aa0d0488fe2251e48c4b74111c4c2323", "is_disabled": 0, "type": "electric_scooter", "is_reserved": 0, "fusion_lon": 0.0, "lat": 38.90469183333333, "rental_uris": {"ios": "https://dc.lft.to/lastmile_qr_scan", "android": "https://dc.lft.to/lastmile_qr_scan"}, "bike_id": "aa0d0488fe2251e48c4b74111c4c2323", "fusion_lat": 0.0}, {"lon": -77.03207216666667, "name": "de593d8baf98df78157e60d6c786e862", "is_disabled": 0, "type": "electric_scooter", "is_reserved": 0, "fusion_lon": 0.0, "lat": 38.91910566666667, "rental_uris": {"ios": "https://dc.lft.to/lastmile_qr_scan", "android": "https://dc.lft.to/lastmile_qr_scan"}, "bike_id": "de593d8baf98df78157e60d6c786e862", "fusion_lat": 0.0}, {"lon": -77.00575733333334, "name": "03bf2829c0e3b508ccd47085b1434aa7", "is_disabled": 0, "type": "electric_scooter", "is_reserved": 0, "fusion_lon": 0.0, "lat": 38.8722075, "rental_uris": {"ios": "https://dc.lft.to/lastmile_qr_scan", "android": "https://dc.lft.to/lastmile_qr_scan"}, "bike_id": "03bf2829c0e3b508ccd47085b1434aa7", "fusion_lat": 0.0}, {"lon": -77.00607616666667, "name": "6f6bc4d37584369902e4edabbc1481e3", "is_disabled": 0, "type": "electric_scooter", "is_reserved": 0, "fusion_lon": 0.0, "lat": 38.9055955, "rental_uris": {"ios": "https://dc.lft.to/lastmile_qr_scan", "android": "https://dc.lft.to/lastmile_qr_scan"}, "bike_id": "6f6bc4d37584369902e4edabbc1481e3", "fusion_lat": 0.0}, {"lon": -77.01223283333333, "name": "c9f17a8a81a278496328edafcfc57601", "is_disabled": 0, "type": "electric_scooter", "is_reserved": 0, "fusion_lon": 0.0, "lat": 38.915219, "rental_uris": {"ios": "https://dc.lft.to/lastmile_qr_scan", "android": "https://dc.lft.to/lastmile_qr_scan"}, "bike_id": "c9f17a8a81a278496328edafcfc57601", "fusion_lat": 0.0}, {"lon": -77.09565883333333, "name": "a13700e586b265bc8a9e6699f0150d91", "is_disabled": 0, "type": "electric_bike", "is_reserved": 0, "fusion_lon": 0.0, "lat": 38.991877833333334, "rental_uris": {"ios": "https://dc.lft.to/lastmile_qr_scan", "android": "https://dc.lft.to/lastmile_qr_scan"}, "bike_id": "a13700e586b265bc8a9e6699f0150d91", "fusion_lat": 0.0}, {"lon": -77.05944083333333, "name": "7a3ae06251c3aa2362b71742c1027fb9", "is_disabled": 0, "type": "electric_scooter", "is_reserved": 0, "fusion_lon": 0.0, "lat": 38.93694266666667, "rental_uris": {"ios": "https://dc.lft.to/lastmile_qr_scan", "android": "https://dc.lft.to/lastmile_qr_scan"}, "bike_id": "7a3ae06251c3aa2362b71742c1027fb9", "fusion_lat": 0.0}, {"lon": -77.03219466666667, "name": "4125c823b939931e46ce8b0eb649d2eb", "is_disabled": 0, "type": "electric_scooter", "is_reserved": 0, "fusion_lon": 0.0, "lat": 38.892156666666665, "rental_uris": {"ios": "https://dc.lft.to/lastmile_qr_scan", "android": "https://dc.lft.to/lastmile_qr_scan"}, "bike_id": "4125c823b939931e46ce8b0eb649d2eb", "fusion_lat": 0.0}, {"lon": -77.03288316666666, "name": "c06146ac380570ea8c2604b8f5debb20", "is_disabled": 0, "type": "electric_scooter", "is_reserved": 0, "fusion_lon": 0.0, "lat": 38.956495333333336, "rental_uris": {"ios": "https://dc.lft.to/lastmile_qr_scan", "android": "https://dc.lft.to/lastmile_qr_scan"}, "bike_id": "c06146ac380570ea8c2604b8f5debb20", "fusion_lat": 0.0}, {"lon": -77.089974, "name": "2818bd31cdb74f5730b212cf8f868c9c", "is_disabled": 0, "type": "electric_bike", "is_reserved": 0, "fusion_lon": 0.0, "lat": 38.90904533333333, "rental_uris": {"ios": "https://dc.lft.to/lastmile_qr_scan", "android": "https://dc.lft.to/lastmile_qr_scan"}, "bike_id": "2818bd31cdb74f5730b212cf8f868c9c", "fusion_lat": 0.0}, {"lon": -77.01685833333333, "name": "20034b42c77d2966f5d6fc0933bb2f7b", "is_disabled": 0, "type": "electric_scooter", "is_reserved": 0, "fusion_lon": 0.0, "lat": 38.910856833333334, "rental_uris": {"ios": "https://dc.lft.to/lastmile_qr_scan", "android": "https://dc.lft.to/lastmile_qr_scan"}, "bike_id": "20034b42c77d2966f5d6fc0933bb2f7b", "fusion_lat": 0.0}, {"lon": -77.07146116666667, "name": "07d4c67b45d46f4521912fcc8692ebb4", "is_disabled": 0, "type": "electric_scooter", "is_reserved": 0, "fusion_lon": 0.0, "lat": 38.920216333333336, "rental_uris": {"ios": "https://dc.lft.to/lastmile_qr_scan", "android": "https://dc.lft.to/lastmile_qr_scan"}, "bike_id": "07d4c67b45d46f4521912fcc8692ebb4", "fusion_lat": 0.0}, {"lon": -77.04469666666667, "name": "5580afda5f773d5968d4a2729504c8fd", "is_disabled": 0, "type": "electric_scooter", "is_reserved": 0, "fusion_lon": 0.0, "lat": 38.918852, "rental_uris": {"ios": "https://dc.lft.to/lastmile_qr_scan", "android": "https://dc.lft.to/lastmile_qr_scan"}, "bike_id": "5580afda5f773d5968d4a2729504c8fd", "fusion_lat": 0.0}, {"lon": -77.04154233333334, "name": "550cd9859bc5697f6107e5e72bd89e42", "is_disabled": 0, "type": "electric_scooter", "is_reserved": 0, "fusion_lon": 0.0, "lat": 38.9159695, "rental_uris": {"ios": "https://dc.lft.to/lastmile_qr_scan", "android": "https://dc.lft.to/lastmile_qr_scan"}, "bike_id": "550cd9859bc5697f6107e5e72bd89e42", "fusion_lat": 0.0}, {"lon": -77.04376116666667, "name": "cce8e2e3b96b4e199acbc6987fcb23cb", "is_disabled": 0, "type": "electric_scooter", "is_reserved": 0, "fusion_lon": 0.0, "lat": 38.92068066666667, "rental_uris": {"ios": "https://dc.lft.to/lastmile_qr_scan", "android": "https://dc.lft.to/lastmile_qr_scan"}, "bike_id": "cce8e2e3b96b4e199acbc6987fcb23cb", "fusion_lat": 0.0}, {"lon": -77.02622483333333, "name": "5eb57adbb07412d608b7c2e2e601bc61", "is_disabled": 0, "type": "electric_scooter", "is_reserved": 0, "fusion_lon": 0.0, "lat": 38.88368333333333, "rental_uris": {"ios": "https://dc.lft.to/lastmile_qr_scan", "android": "https://dc.lft.to/lastmile_qr_scan"}, "bike_id": "5eb57adbb07412d608b7c2e2e601bc61", "fusion_lat": 0.0}, {"lon": -77.02780683333333, "name": "b31e8cfb503963428255197b1310c35b", "is_disabled": 0, "type": "electric_scooter", "is_reserved": 0, "fusion_lon": 0.0, "lat": 38.92762916666667, "rental_uris": {"ios": "https://dc.lft.to/lastmile_qr_scan", "android": "https://dc.lft.to/lastmile_qr_scan"}, "bike_id": "b31e8cfb503963428255197b1310c35b", "fusion_lat": 0.0}, {"lon": -77.05876333333333, "name": "ee15aeafe161ee2b5845e2a1a4efb04d", "is_disabled": 0, "type": "electric_bike", "is_reserved": 0, "fusion_lon": 0.0, "lat": 38.82707966666667, "rental_uris": {"ios": "https://dc.lft.to/lastmile_qr_scan", "android": "https://dc.lft.to/lastmile_qr_scan"}, "bike_id": "ee15aeafe161ee2b5845e2a1a4efb04d", "fusion_lat": 0.0}, {"lon": -77.03743466666667, "name": "4b403e7ae5e2d0e11e38fe162df698af", "is_disabled": 0, "type": "electric_scooter", "is_reserved": 0, "fusion_lon": 0.0, "lat": 38.928577, "rental_uris": {"ios": "https://dc.lft.to/lastmile_qr_scan", "android": "https://dc.lft.to/lastmile_qr_scan"}, "bike_id": "4b403e7ae5e2d0e11e38fe162df698af", "fusion_lat": 0.0}, {"lon": -76.9922185, "name": "62d6d07df1efa14b3c90336c9dd97095", "is_disabled": 0, "type": "electric_scooter", "is_reserved": 0, "fusion_lon": 0.0, "lat": 38.89741516666667, "rental_uris": {"ios": "https://dc.lft.to/lastmile_qr_scan", "android": "https://dc.lft.to/lastmile_qr_scan"}, "bike_id": "62d6d07df1efa14b3c90336c9dd97095", "fusion_lat": 0.0}, {"lon": -77.02262883333333, "name": "5d3820c4f07b6809f9a8a0be864d8f85", "is_disabled": 0, "type": "electric_scooter", "is_reserved": 0, "fusion_lon": 0.0, "lat": 38.92732916666667, "rental_uris": {"ios": "https://dc.lft.to/lastmile_qr_scan", "android": "https://dc.lft.to/lastmile_qr_scan"}, "bike_id": "5d3820c4f07b6809f9a8a0be864d8f85", "fusion_lat": 0.0}, {"lon": -77.00147216666667, "name": "c71be2a955a8716476f61ad36ae9d873", "is_disabled": 0, "type": "electric_scooter", "is_reserved": 0, "fusion_lon": 0.0, "lat": 38.894739, "rental_uris": {"ios": "https://dc.lft.to/lastmile_qr_scan", "android": "https://dc.lft.to/lastmile_qr_scan"}, "bike_id": "c71be2a955a8716476f61ad36ae9d873", "fusion_lat": 0.0}, {"lon": -77.02200466666666, "name": "d6b0b65272a7a5dabdd11fe5cf4895a1", "is_disabled": 0, "type": "electric_scooter", "is_reserved": 0, "fusion_lon": 0.0, "lat": 38.905844, "rental_uris": {"ios": "https://dc.lft.to/lastmile_qr_scan", "android": "https://dc.lft.to/lastmile_qr_scan"}, "bike_id": "d6b0b65272a7a5dabdd11fe5cf4895a1", "fusion_lat": 0.0}, {"lon": -76.945716, "name": "ae576d47dcbe48decdd16f804d9226d2", "is_disabled": 0, "type": "electric_bike", "is_reserved": 0, "fusion_lon": 0.0, "lat": 38.86620333333333, "rental_uris": {"ios": "https://dc.lft.to/lastmile_qr_scan", "android": "https://dc.lft.to/lastmile_qr_scan"}, "bike_id": "ae576d47dcbe48decdd16f804d9226d2", "fusion_lat": 0.0}, {"lon": -77.09623616666667, "name": "ed5801794c9d361149e0bda75db64101", "is_disabled": 0, "type": "electric_bike", "is_reserved": 0, "fusion_lon": 0.0, "lat": 38.952491, "rental_uris": {"ios": "https://dc.lft.to/lastmile_qr_scan", "android": "https://dc.lft.to/lastmile_qr_scan"}, "bike_id": "ed5801794c9d361149e0bda75db64101", "fusion_lat": 0.0}, {"lon": -77.0136005, "name": "25f6f02c39d79947f0b301915a4d410a", "is_disabled": 0, "type": "electric_scooter", "is_reserved": 0, "fusion_lon": 0.0, "lat": 38.91255966666667, "rental_uris": {"ios": "https://dc.lft.to/lastmile_qr_scan", "android": "https://dc.lft.to/lastmile_qr_scan"}, "bike_id": "25f6f02c39d79947f0b301915a4d410a", "fusion_lat": 0.0}, {"lon": -77.00220116666667, "name": "44d11a65a34fd3efa3b22bafd3332832", "is_disabled": 0, "type": "electric_bike", "is_reserved": 0, "fusion_lon": 0.0, "lat": 38.9360765, "rental_uris": {"ios": "https://dc.lft.to/lastmile_qr_scan", "android": "https://dc.lft.to/lastmile_qr_scan"}, "bike_id": "44d11a65a34fd3efa3b22bafd3332832", "fusion_lat": 0.0}, {"lon": -77.02689583333333, "name": "e6a5fa2b888dfafcf9b39e347d675275", "is_disabled": 0, "type": "electric_scooter", "is_reserved": 0, "fusion_lon": 0.0, "lat": 38.92577166666667, "rental_uris": {"ios": "https://dc.lft.to/lastmile_qr_scan", "android": "https://dc.lft.to/lastmile_qr_scan"}, "bike_id": "e6a5fa2b888dfafcf9b39e347d675275", "fusion_lat": 0.0}, {"lon": -77.032022, "name": "b78334e9007b55e59414a09a3cc3ffc7", "is_disabled": 0, "type": "electric_scooter", "is_reserved": 0, "fusion_lon": 0.0, "lat": 38.89637183333333, "rental_uris": {"ios": "https://dc.lft.to/lastmile_qr_scan", "android": "https://dc.lft.to/lastmile_qr_scan"}, "bike_id": "b78334e9007b55e59414a09a3cc3ffc7", "fusion_lat": 0.0}, {"lon": -77.01451016666667, "name": "3fc67c0c818d4638afacfa89642b5d53", "is_disabled": 0, "type": "electric_bike", "is_reserved": 0, "fusion_lon": 0.0, "lat": 38.876672666666664, "rental_uris": {"ios": "https://dc.lft.to/lastmile_qr_scan", "android": "https://dc.lft.to/lastmile_qr_scan"}, "bike_id": "3fc67c0c818d4638afacfa89642b5d53", "fusion_lat": 0.0}, {"lon": -77.00763216666667, "name": "ab9b4d0394a987b7cf523a3a7dfee149", "is_disabled": 0, "type": "electric_bike", "is_reserved": 0, "fusion_lon": 0.0, "lat": 38.997888833333334, "rental_uris": {"ios": "https://dc.lft.to/lastmile_qr_scan", "android": "https://dc.lft.to/lastmile_qr_scan"}, "bike_id": "ab9b4d0394a987b7cf523a3a7dfee149", "fusion_lat": 0.0}, {"lon": -77.03878966666667, "name": "31d672f5e8eac21b4e9ae31f1bc7399e", "is_disabled": 0, "type": "electric_scooter", "is_reserved": 0, "fusion_lon": 0.0, "lat": 38.921427666666666, "rental_uris": {"ios": "https://dc.lft.to/lastmile_qr_scan", "android": "https://dc.lft.to/lastmile_qr_scan"}, "bike_id": "31d672f5e8eac21b4e9ae31f1bc7399e", "fusion_lat": 0.0}, {"lon": -77.020927, "name": "283872a934d8d80563244fdab8dbc535", "is_disabled": 0, "type": "electric_scooter", "is_reserved": 0, "fusion_lon": 0.0, "lat": 38.9300995, "rental_uris": {"ios": "https://dc.lft.to/lastmile_qr_scan", "android": "https://dc.lft.to/lastmile_qr_scan"}, "bike_id": "283872a934d8d80563244fdab8dbc535", "fusion_lat": 0.0}, {"lon": -77.03277366666667, "name": "2a7ac22c31000964fe3517774156874f", "is_disabled": 0, "type": "electric_bike", "is_reserved": 0, "fusion_lon": 0.0, "lat": 38.96121816666667, "rental_uris": {"ios": "https://dc.lft.to/lastmile_qr_scan", "android": "https://dc.lft.to/lastmile_qr_scan"}, "bike_id": "2a7ac22c31000964fe3517774156874f", "fusion_lat": 0.0}, {"lon": -77.0298185, "name": "18de3f418f8687975038910e45fb439a", "is_disabled": 0, "type": "electric_scooter", "is_reserved": 0, "fusion_lon": 0.0, "lat": 38.92402033333333, "rental_uris": {"ios": "https://dc.lft.to/lastmile_qr_scan", "android": "https://dc.lft.to/lastmile_qr_scan"}, "bike_id": "18de3f418f8687975038910e45fb439a", "fusion_lat": 0.0}, {"lon": -77.04016516666667, "name": "ec8d3445a526f668140f3c99d266b626", "is_disabled": 0, "type": "electric_scooter", "is_reserved": 0, "fusion_lon": 0.0, "lat": 38.92173616666667, "rental_uris": {"ios": "https://dc.lft.to/lastmile_qr_scan", "android": "https://dc.lft.to/lastmile_qr_scan"}, "bike_id": "ec8d3445a526f668140f3c99d266b626", "fusion_lat": 0.0}, {"lon": -77.04181433333333, "name": "1e0559c501cbd1ab94dd956516090a22", "is_disabled": 0, "type": "electric_scooter", "is_reserved": 0, "fusion_lon": 0.0, "lat": 38.90073983333333, "rental_uris": {"ios": "https://dc.lft.to/lastmile_qr_scan", "android": "https://dc.lft.to/lastmile_qr_scan"}, "bike_id": "1e0559c501cbd1ab94dd956516090a22", "fusion_lat": 0.0}, {"lon": -76.99021483333334, "name": "f26a084695534efc9ab333d6c9a770cf", "is_disabled": 0, "type": "electric_scooter", "is_reserved": 0, "fusion_lon": 0.0, "lat": 38.8651815, "rental_uris": {"ios": "https://dc.lft.to/lastmile_qr_scan", "android": "https://dc.lft.to/lastmile_qr_scan"}, "bike_id": "f26a084695534efc9ab333d6c9a770cf", "fusion_lat": 0.0},