{"data": {"bikes": [{"rental_uris": {"android": "https://dc.lft.to/lastmile_qr_scan", "ios": "https://dc.lft.to/lastmile_qr_scan"}, "is_reserved": 0, "is_disabled": 0, "name": "730127e58d004ebbe20779cbcb004f8a", "bike_id": "730127e58d004ebbe20779cbcb004f8a", "fusion_lat": 0.0, "lon": -77.00113033333334, "type": "electric_scooter", "fusion_lon": 0.0, "lat": 38.9074345}, {"rental_uris": {"android": "https://dc.lft.to/lastmile_qr_scan", "ios": "https://dc.lft.to/lastmile_qr_scan"}, "is_reserved": 0, "is_disabled": 0, "name": "9ec0aab16240a0393922ce21268c12f5", "bike_id": "9ec0aab16240a0393922ce21268c12f5", "fusion_lat": 0.0, "lon": -77.04654666666667, "type": "electric_scooter", "fusion_lon": 0.0, "lat": 38.900031}, {"rental_uris": {"android": "https://dc.lft.to/lastmile_qr_scan", "ios": "https://dc.lft.to/lastmile_qr_scan"}, "is_reserved": 0, "is_disabled": 0, "name": "d4d03e838106358fe5ed1e7869438799", "bike_id": "d4d03e838106358fe5ed1e7869438799", "fusion_lat": 0.0, "lon": -77.00665783333334, "type": "electric_scooter", "fusion_lon": 0.0, "lat": 38.90568783333333}, {"rental_uris": {"android": "https://dc.lft.to/lastmile_qr_scan", "ios": "https://dc.lft.to/lastmile_qr_scan"}, "is_reserved": 0, "is_disabled": 0, "name": "1b6b157a31a864f15e2866320356e9e1", "bike_id": "1b6b157a31a864f15e2866320356e9e1", "fusion_lat": 0.0, "lon": -77.03454616666667, "type": "electric_scooter", "fusion_lon": 0.0, "lat": 38.901339666666665}, {"rental_uris": {"android": "https://dc.lft.to/lastmile_qr_scan", "ios": "https://dc.lft.to/lastmile_qr_scan"}, "is_reserved": 0, "is_disabled": 0, "name": "47b12b7f98c58ad5461f126b8194f232", "bike_id": "47b12b7f98c58ad5461f126b8194f232", "fusion_lat": 0.0, "lon": -77.0241625, "type": "electric_scooter", "fusion_lon": 0.0, "lat": 38.892159166666666}, {"rental_uris": {"android": "https://dc.lft.to/lastmile_qr_scan", "ios": "https://dc.lft.to/lastmile_qr_scan"}, "is_reserved": 0, "is_disabled": 0, "name": "4c2f1e07693395ce689649622f1c2a0b", "bike_id": "4c2f1e07693395ce689649622f1c2a0b", "fusion_lat": 0.0, "lon": -77.04479066666667, "type": "electric_scooter", "fusion_lon": 0.0, "lat": 38.902938166666665}, {"rental_uris": {"android": "https://dc.lft.to/lastmile_qr_scan", "ios": "https://dc.lft.to/lastmile_qr_scan"}, "is_reserved": 0, "is_disabled": 0, "name": "9999147f548a5c05e88f1d45a8cda869", "bike_id": "9999147f548a5c05e88f1d45a8cda869", "fusion_lat": 0.0, "lon": -77.02973283333333, "type": "electric_scooter", "fusion_lon": 0.0, "lat": 38.8832265}, {"rental_uris": {"android": "https://dc.lft.to/lastmile_qr_scan", "ios": "https://dc.lft.to/lastmile_qr_scan"}, "is_reserved": 0, "is_disabled": 0, "name": "f2f0fa6463d481786e67124b13576820", "bike_id": "f2f0fa6463d481786e67124b13576820", "fusion_lat": 0.0, "lon": -77.04493716666667, "type": "electric_scooter", "fusion_lon": 0.0, "lat": 38.897395}, {"rental_uris": {"android": "https://dc.lft.to/lastmile_qr_scan", "ios": "https://dc.lft.to/lastmile_qr_scan"}, "is_reserved": 0, "is_disabled": 0, "name": "bcf76fb3aaf1836713913c76d42416a9", "bike_id": "bcf76fb3aaf1836713913c76d42416a9", "fusion_lat": 0.0, "lon": -77.01730766666667, "type": "electric_scooter", "fusion_lon": 0.0, "lat": 38.914202}, {"rental_uris": {"android": "https://dc.lft.to/lastmile_qr_scan", "ios": "https://dc.lft.to/lastmile_qr_scan"}, "is_reserved": 0, "is_disabled": 0, "name": "ba88253ffb326fffc79e88dff005e68b", "bike_id": "ba88253ffb326fffc79e88dff005e68b", "fusion_lat": 0.0, "lon": -77.04420366666666, "type": "electric_scooter", "fusion_lon": 0.0, "lat": 38.925739166666666}, {"rental_uris": {"android": "https://dc.lft.to/lastmile_qr_scan", "ios": "https://dc.lft.to/lastmile_qr_scan"}, "is_reserved": 0, "is_disabled": 0, "name": "3a22eb972e4f405695eb3f8c50a81b40", "bike_id": "3a22eb972e4f405695eb3f8c50a81b40", "fusion_lat": 0.0, "lon": -77.012318, "type": "electric_scooter", "fusion_lon": 0.0, "lat": 38.91537966666667}, {"rental_uris": {"android": "https://dc.lft.to/lastmile_qr_scan", "ios": "https://dc.lft.to/lastmile_qr_scan"}, "is_reserved": 0, "is_disabled": 0, "name": "1f2c0e66903c53362d1340f02c2e94bd", "bike_id": "1f2c0e66903c53362d1340f02c2e94bd", "fusion_lat": 0.0, "lon": -77.04184116666667, "type": "electric_scooter", "fusion_lon": 0.0, "lat": 38.9200825}, {"rental_uris": {"android": "https://dc.lft.to/lastmile_qr_scan", "ios": "https://dc.lft.to/lastmile_qr_scan"}, "is_reserved": 0, "is_disabled": 0, "name": "67703e207347d000440cb6804c1c773c", "bike_id": "67703e207347d000440cb6804c1c773c", "fusion_lat": 0.0, "lon": -77.08024433333334, "type": "electric_scooter", "fusion_lon": 0.0, "lat": 38.9458725}, {"rental_uris": {"android": "https://dc.lft.to/lastmile_qr_scan", "ios": "https://dc.lft.to/lastmile_qr_scan"}, "is_reserved": 0, "is_disabled": 0, "name": "6965f089cc69ca4316a9b7da327b8cba", "bike_id": "6965f089cc69ca4316a9b7da327b8cba", "fusion_lat": 0.0, "lon": -77.03560633333333, "type": "electric_scooter", "fusion_lon": 0.0, "lat": 38.90460783333333}, {"rental_uris": {"android": "https://dc.lft.to/lastmile_qr_scan", "ios": "https://dc.lft.to/lastmile_qr_scan"}, "is_reserved": 0, "is_disabled": 0, "name": "dcab08768677de4746788900868434ac", "bike_id": "dcab08768677de4746788900868434ac", "fusion_lat": 0.0, "lon": -77.02570483333334, "type": "electric_scooter", "fusion_lon": 0.0, "lat": 38.887442}, {"rental_uris": {"android": "https://dc.lft.to/lastmile_qr_scan", "ios": "https://dc.lft.to/lastmile_qr_scan"}, "is_reserved": 0, "is_disabled": 0, "name": "a8b39c7c00ec41112800e7239251236f", "bike_id": "a8b39c7c00ec41112800e7239251236f", "fusion_lat": 0.0, "lon": -77.04574683333334, "type": "electric_scooter", "fusion_lon": 0.0, "lat": 38.899008333333335}, {"rental_uris": {"android": "https://dc.lft.to/lastmile_qr_scan", "ios": "https://dc.lft.to/lastmile_qr_scan"}, "is_reserved": 0, "is_disabled": 0, "name": "f022acbfaffab97c376ae69f68c78c05", "bike_id": "f022acbfaffab97c376ae69f68c78c05", "fusion_lat": 0.0, "lon": -77.01499616666666, "type": "electric_scooter", "fusion_lon": 0.0, "lat": 38.89294666666667}, {"rental_uris": {"android": "https://dc.lft.to/lastmile_qr_scan", "ios": "https://dc.lft.to/lastmile_qr_scan"}, "is_reserved": 0, "is_disabled": 0, "name": "319e1f83f006d04e3035955b11c92f21", "bike_id": "319e1f83f006d04e3035955b11c92f21", "fusion_lat": 0.0, "lon": -77.035267, "type": "electric_scooter", "fusion_lon": 0.0, "lat": 38.92231816666666}, {"rental_uris": {"android": "https://dc.lft.to/lastmile_qr_scan", "ios": "https://dc.lft.to/lastmile_qr_scan"}, "is_reserved": 0, "is_disabled": 0, "name": "6699cc9ace687ab4d89be7ffc3f6da8e", "bike_id": "6699cc9ace687ab4d89be7ffc3f6da8e", "fusion_lat": 0.0, "lon": -76.93225333333334, "type": "electric_scooter", "fusion_lon": 0.0, "lat": 38.880418666666664}, {"rental_uris": {"android": "https://dc.lft.to/lastmile_qr_scan", "ios": "https://dc.lft.to/lastmile_qr_scan"}, "is_reserved": 0, "is_disabled": 0, "name": "c91ad1ee75d07418ddf60ad89236c6f5", "bike_id": "c91ad1ee75d07418ddf60ad89236c6f5", "fusion_lat": 0.0, "lon": -77.01645016666667, "type": "electric_bike", "fusion_lon": 0.0, "lat": 38.88127033333333}, {"rental_uris": {"android": "https://dc.lft.to/lastmile_qr_scan", "ios": "https://dc.lft.to/lastmile_qr_scan"}, "is_reserved": 0, "is_disabled": 0, "name": "8871096daf125700f98fee64089c525f", "bike_id": "8871096daf125700f98fee64089c525f", "fusion_lat": 0.0, "lon": -76.990147, "type": "electric_scooter", "fusion_lon": 0.0, "lat": 38.89206983333333}, {"rental_uris": {"android": "https://dc.lft.to/lastmile_qr_scan", "ios": "https://dc.lft.to/lastmile_qr_scan"}, "is_reserved": 0, "is_disabled": 0, "name": "7bf90cedfe54b6fda017a5c9f7023ff5", "bike_id": "7bf90cedfe54b6fda017a5c9f7023ff5", "fusion_lat": 0.0, "lon": -77.04507933333333, "type": "electric_scooter", "fusion_lon": 0.0, "lat": 38.914045333333334}, {"rental_uris": {"android": "https://dc.lft.to/lastmile_qr_scan", "ios": "https://dc.lft.to/lastmile_qr_scan"}, "is_reserved": 0, "is_disabled": 0, "name": "d540f1a6fd45bf3fefa783106fdb1ade", "bike_id": "d540f1a6fd45bf3fefa783106fdb1ade", "fusion_lat": 0.0, "lon": -77.04995066666666, "type": "electric_scooter", "fusion_lon": 0.0, "lat": 38.89732716666666}, {"rental_uris": {"android": "https://dc.lft.to/lastmile_qr_scan", "ios": "https://dc.lft.to/lastmile_qr_scan"}, "is_reserved": 0, "is_disabled": 0, "name": "3af8cb5d2af01c4cc8773c72086619d6", "bike_id": "3af8cb5d2af01c4cc8773c72086619d6", "fusion_lat": 0.0, "lon": -77.0270165, "type": "electric_scooter", "fusion_lon": 0.0, "lat": 38.908961}, {"rental_uris": {"android": "https://dc.lft.to/lastmile_qr_scan", "ios": "https://dc.lft.to/lastmile_qr_scan"}, "is_reserved": 0, "is_disabled": 0, "name": "f9e7eb99cdb89ee20dd1b6aca93eb767", "bike_id": "f9e7eb99cdb89ee20dd1b6aca93eb767", "fusion_lat": 0.0, "lon": -77.040172, "type": "electric_scooter", "fusion_lon": 0.0, "lat": 38.91802216666667}, {"rental_uris": {"android": "https://dc.lft.to/lastmile_qr_scan", "ios": "https://dc.lft.to/lastmile_qr_scan"}, "is_reserved": 0, "is_disabled": 0, "name": "716a72de7db9470f21fd167f51dd1751", "bike_id": "716a72de7db9470f21fd167f51dd1751", "fusion_lat": 0.0, "lon": -76.982411, "type": "electric_scooter", "fusion_lon": 0.0, "lat": 38.90888416666667}, {"rental_uris": {"android": "https://dc.lft.to/lastmile_qr_scan", "ios": "https://dc.lft.to/lastmile_qr_scan"}, "is_reserved": 0, "is_disabled": 0, "name": "f8d3a008fa24fa9d70c4e141bfe79d8c", "bike_id": "f8d3a008fa24fa9d70c4e141bfe79d8c", "fusion_lat": 0.0, "lon": -77.0383015, "type": "electric_scooter", "fusion_lon": 0.0, "lat": 38.90377266666667}, {"rental_uris": {"android": "https://dc.lft.to/lastmile_qr_scan", "ios": "https://dc.lft.to/lastmile_qr_scan"}, "is_reserved": 0, "is_disabled": 0, "name": "1f11e4d6b1f13692dc8e76c2199e5cf8", "bike_id": "1f11e4d6b1f13692dc8e76c2199e5cf8", "fusion_lat": 0.0, "lon": -77.18317316666666, "type": "electric_bike", "fusion_lon": 0.0, "lat": 38.890780666666664}, {"rental_uris": {"android": "https://dc.lft.to/lastmile_qr_scan", "ios": "https://dc.lft.to/lastmile_qr_scan"}, "is_reserved": 0, "is_disabled": 0, "name": "12a8f3d8a7569784dbe480ccea6524fe", "bike_id": "12a8f3d8a7569784dbe480ccea6524fe", "fusion_lat": 0.0, "lon": -77.04337216666667, "type": "electric_scooter", "fusion_lon": 0.0, "lat": 38.90430766666667}, {"rental_uris": {"android": "https://dc.lft.to/lastmile_qr_scan", "ios": "https://dc.lft.to/lastmile_qr_scan"}, "is_reserved": 0, "is_disabled": 0, "name": "be548d8cc38df18f391c1eb3e974e060", "bike_id": "be548d8cc38df18f391c1eb3e974e060", "fusion_lat": 0.0, "lon": -77.034884, "type": "electric_scooter", "fusion_lon": 0.0, "lat": 38.901491}, {"rental_uris": {"android": "https://dc.lft.to/lastmile_qr_scan", "ios": "https://dc.lft.to/lastmile_qr_scan"}, "is_reserved": 0, "is_disabled": 0, "name": "27b3b94534efbbb28bec8d2b30727ed8", "bike_id": "27b3b94534efbbb28bec8d2b30727ed8", "fusion_lat": 0.0, "lon": -77.01776233333334, "type": "electric_scooter", "fusion_lon": 0.0, "lat": 38.92106733333333}, {"rental_uris": {"android": "https://dc.lft.to/lastmile_qr_scan", "ios": "https://dc.lft.to/lastmile_qr_scan"}, "is_reserved": 0, "is_disabled": 0, "name": "fa28e1d6423da1d652f65d0314330e04", "bike_id": "fa28e1d6423da1d652f65d0314330e04", "fusion_lat": 0.0, "lon": -77.03468883333333, "type": "electric_scooter", "fusion_lon": 0.0, "lat": 38.904180333333336}, {"rental_uris": {"android": "https://dc.lft.to/lastmile_qr_scan", "ios": "https://dc.lft.to/lastmile_qr_scan"}, "is_reserved": 0, "is_disabled": 0, "name": "42c3ea27bbc58368d6cf8d2d17622b56", "bike_id": "42c3ea27bbc58368d6cf8d2d17622b56", "fusion_lat": 0.0, "lon": -77.04677516666666, "type": "electric_scooter", "fusion_lon": 0.0, "lat": 38.89559416666667}, {"rental_uris": {"android": "https://dc.lft.to/lastmile_qr_scan", "ios": "https://dc.lft.to/lastmile_qr_scan"}, "is_reserved": 0, "is_disabled": 0, "name": "c48cd423a6686e24a2859b24b8c20c2a", "bike_id": "c48cd423a6686e24a2859b24b8c20c2a", "fusion_lat": 0.0, "lon": -77.03343333333333, "type": "electric_scooter", "fusion_lon": 0.0, "lat": 38.917019333333336}, {"rental_uris": {"android": "https://dc.lft.to/lastmile_qr_scan", "ios": "https://dc.lft.to/lastmile_qr_scan"}, "is_reserved": 0, "is_disabled": 0, "name": "5daaacde625759cc1c6e602b74bcc597", "bike_id": "5daaacde625759cc1c6e602b74bcc597", "fusion_lat": 0.0, "lon": -77.0956345, "type": "electric_bike", "fusion_lon": 0.0, "lat": 38.85896266666666}, {"rental_uris": {"android": "https://dc.lft.to/lastmile_qr_scan", "ios": "https://dc.lft.to/lastmile_qr_scan"}, "is_reserved": 0, "is_disabled": 0, "name": "9a373f5ad55ebb68a2507766b39a637b", "bike_id": "9a373f5ad55ebb68a2507766b39a637b", "fusion_lat": 0.0, "lon": -77.00761066666666, "type": "electric_scooter", "fusion_lon": 0.0, "lat": 38.876581333333334}, {"rental_uris": {"android": "https://dc.lft.to/lastmile_qr_scan", "ios": "https://dc.lft.to/lastmile_qr_scan"}, "is_reserved": 0, "is_disabled": 0, "name": "fbc83abd2a35285a56278a49e97b196d", "bike_id": "fbc83abd2a35285a56278a49e97b196d", "fusion_lat": 0.0, "lon": -76.9734825, "type": "electric_bike", "fusion_lon": 0.0, "lat": 38.865668}, {"rental_uris": {"android": "https://dc.lft.to/lastmile_qr_scan", "ios": "https://dc.lft.to/lastmile_qr_scan"}, "is_reserved": 0, "is_disabled": 0, "name": "d9c5ec080d1fba9728604521b43df3cb", "bike_id": "d9c5ec080d1fba9728604521b43df3cb", "fusion_lat": 0.0, "lon": -77.0280315, "type": "electric_scooter", "fusion_lon": 0.0, "lat": 38.8922935}, {"rental_uris": {"android": "https://dc.lft.to/lastmile_qr_scan", "ios": "https://dc.lft.to/lastmile_qr_scan"}, "is_reserved": 0, "is_disabled": 0, "name": "8588542add55923c404cb1e668db64be", "bike_id": "8588542add55923c404cb1e668db64be", "fusion_lat": 0.0, "lon": -77.04202766666667, "type": "electric_scooter", "fusion_lon": 0.0, "lat": 38.923140833333335}, {"rental_uris": {"android": "https://dc.lft.to/lastmile_qr_scan", "ios": "https://dc.lft.to/lastmile_qr_scan"}, "is_reserved": 0, "is_disabled": 0, "name": "7831f7b098fc14dfefad8ddbfbff7ae5", "bike_id": "7831f7b098fc14dfefad8ddbfbff7ae5", "fusion_lat": 0.0, "lon": -76.9963785, "type": "electric_scooter", "fusion_lon": 0.0, "lat": 38.9052645}, {"rental_uris": {"android": "https://dc.lft.to/lastmile_qr_scan", "ios": "https://dc.lft.to/lastmile_qr_scan"}, "is_reserved": 0, "is_disabled": 0, "name": "d9887e7f5255d4edce22f2790d85a93f", "bike_id": "d9887e7f5255d4edce22f2790d85a93f", "fusion_lat": 0.0, "lon": -77.0220515, "type": "electric_scooter", "fusion_lon": 0.0, "lat": 38.90360833333333}, {"rental_uris": {"android": "https://dc.lft.to/lastmile_qr_scan", "ios": "https://dc.lft.to/lastmile_qr_scan"}, "is_reserved": 0, "is_disabled": 0, "name": "42f59f0e5b68310b9d3f07387aec0f76", "bike_id": "42f59f0e5b68310b9d3f07387aec0f76", "fusion_lat": 0.0, "lon": -77.062861, "type": "electric_scooter", "fusion_lon": 0.0, "lat": 38.9649825}, {"rental_uris": {"android": "https://dc.lft.to/lastmile_qr_scan", "ios": "https://dc.lft.to/lastmile_qr_scan"}, "is_reserved": 0, "is_disabled": 0, "name": "e6385144a0b9393fd3dce7f37a1b34a5", "bike_id": "e6385144a0b9393fd3dce7f37a1b34a5", "fusion_lat": 0.0, "lon": -77.0437505, "type": "electric_scooter", "fusion_lon": 0.0, "lat": 38.8999785}, {"rental_uris": {"android": "https://dc.lft.to/lastmile_qr_scan", "ios": "https://dc.lft.to/lastmile_qr_scan"}, "is_reserved": 0, "is_disabled": 0, "name": "dfcafec0930216e3bf5f235b45c27e9a", "bike_id": "dfcafec0930216e3bf5f235b45c27e9a", "fusion_lat": 0.0, "lon": -76.93191233333333, "type": "electric_scooter", "fusion_lon": 0.0, "lat": 38.8985335}, {"rental_uris": {"android": "https://dc.lft.to/lastmile_qr_scan", "ios": "https://dc.lft.to/lastmile_qr_scan"}, "is_reserved": 0, "is_disabled": 0, "name": "1f304550eaedd941c1a2d0a5fd68e348", "bike_id": "1f304550eaedd941c1a2d0a5fd68e348", "fusion_lat": 0.0, "lon": -77.06826966666667, "type": "electric_scooter", "fusion_lon": 0.0, "lat": 38.917923}, {"rental_uris": {"android": "https://dc.lft.to/lastmile_qr_scan", "ios": "https://dc.lft.to/lastmile_qr_scan"}, "is_reserved": 0, "is_disabled": 0, "name": "382f7122c020e913150f013b50e44049", "bike_id": "382f7122c020e913150f013b50e44049", "fusion_lat": 0.0, "lon": -76.9911735, "type": "electric_scooter", "fusion_lon": 0.0, "lat": 38.9002655}, {"rental_uris": {"android": "https://dc.lft.to/lastmile_qr_scan", "ios": "https://dc.lft.to/lastmile_qr_scan"}, "is_reserved": 0, "is_disabled": 0, "name": "12784d88b627a1375aae03fca187b34a", "bike_id": "12784d88b627a1375aae03fca187b34a", "fusion_lat": 0.0, "lon": -77.023109, "type": "electric_scooter", "fusion_lon": 0.0, "lat": 38.91775483333333}, {"rental_uris": {"android": "https://dc.lft.to/lastmile_qr_scan", "ios": "https://dc.lft.to/lastmile_qr_scan"}, "is_reserved": 0, "is_disabled": 0, "name": "603f28ee379574dd362ee31c612171a5", "bike_id": "603f28ee379574dd362ee31c612171a5", "fusion_lat": 0.0, "lon": -77.03443583333333, "type": "electric_scooter", "fusion_lon": 0.0, "lat": 38.9176425}, {"rental_uris": {"android": "https://dc.lft.to/lastmile_qr_scan", "ios": "https://dc.lft.to/lastmile_qr_scan"}, "is_reserved": 0, "is_disabled": 0, "name": "a78c231e02205adc36b92645714ec1a2", "bike_id": "a78c231e02205adc36b92645714ec1a2", "fusion_lat": 0.0, "lon": -77.05947266666666, "type": "electric_scooter", "fusion_lon": 0.0, "lat": 38.943108333333335}, {"rental_uris": {"android": "https://dc.lft.to/lastmile_qr_scan", "ios": "https://dc.lft.to/lastmile_qr_scan"}, "is_reserved": 0, "is_disabled": 0, "name": "03e239ef1a233d0796e0dfdd4ca71dfa", "bike_id": "03e239ef1a233d0796e0dfdd4ca71dfa", "fusion_lat": 0.0, "lon": -77.0290625, "type": "electric_scooter", "fusion_lon": 0.0, "lat": 38.917003666666666}, {"rental_uris": {"android": "https://dc.lft.to/lastmile_qr_scan", "ios": "https://dc.lft.to/lastmile_qr_scan"}, "is_reserved": 0, "is_disabled": 0, "name": "55f6765bc0ce39a18f49724b3abdd2ed", "bike_id": "55f6765bc0ce39a18f49724b3abdd2ed", "fusion_lat": 0.0, "lon": -77.02654283333334, "type": "electric_scooter", "fusion_lon": 0.0, "lat": 38.881108}, {"rental_uris": {"android": "https://dc.lft.to/lastmile_qr_scan", "ios": "https://dc.lft.to/lastmile_qr_scan"}, "is_reserved": 0, "is_disabled": 0, "name": "c728109d3b4ca3e314b3fbf2f65a6435", "bike_id": "c728109d3b4ca3e314b3fbf2f65a6435", "fusion_lat": 0.0, "lon": -77.02795583333334, "type": "electric_scooter", "fusion_lon": 0.0, "lat": 38.902393000000004}, {"rental_uris": {"android": "https://dc.lft.to/lastmile_qr_scan", "ios": "https://dc.lft.to/lastmile_qr_scan"}, "is_reserved": 0, "is_disabled": 0, "name": "722e7bfe6616a69b7391cafbb4092da6", "bike_id": "722e7bfe6616a69b7391cafbb4092da6", "fusion_lat": 0.0, "lon": -77.02095516666667, "type": "electric_scooter", "fusion_lon": 0.0, "lat": 38.93259666666667}, {"rental_uris": {"android": "https://dc.lft.to/lastmile_qr_scan", "ios": "https://dc.lft.to/lastmile_qr_scan"}, "is_reserved": 0, "is_disabled": 0, "name": "a09fb734ef318186ecdd1d500ce369cc", "bike_id": "a09fb734ef318186ecdd1d500ce369cc", "fusion_lat": 0.0, "lon": -77.04236416666667, "type": "electric_scooter", "fusion_lon": 0.0, "lat": 38.90554783333333}, {"rental_uris": {"android": "https://dc.lft.to/lastmile_qr_scan", "ios": "https://dc.lft.to/lastmile_qr_scan"}, "is_reserved": 0, "is_disabled": 0, "name": "2b1ead71a56bfe4aace6a80bb462546c", "bike_id": "2b1ead71a56bfe4aace6a80bb462546c", "fusion_lat": 0.0, "lon": -77.034381, "type": "electric_scooter", "fusion_lon": 0.0, "lat": 38.90399083333333}, {"rental_uris": {"android": "https://dc.lft.to/lastmile_qr_scan", "ios": "https://dc.lft.to/lastmile_qr_scan"}, "is_reserved": 0, "is_disabled": 0, "name": "cf3a2984d44d4ebc5b7e02116ea0d1e3", "bike_id": "cf3a2984d44d4ebc5b7e02116ea0d1e3", "fusion_lat": 0.0, "lon": -76.97645633333333, "type": "electric_scooter", "fusion_lon": 0.0, "lat": 38.886862666666666}, {"rental_uris": {"android": "https://dc.lft.to/lastmile_qr_scan", "ios": "https://dc.lft.to/lastmile_qr_scan"}, "is_reserved": 0, "is_disabled": 0, "name": "eef714a9da88ca9f29fa9e77656ab9a2", "bike_id": "eef714a9da88ca9f29fa9e77656ab9a2", "fusion_lat": 0.0, "lon": -77.04453033333333, "type": "electric_scooter", "fusion_lon": 0.0, "lat": 38.918681166666666}, {"rental_uris": {"android": "https://dc.lft.to/lastmile_qr_scan", "ios": "https://dc.lft.to/lastmile_qr_scan"}, "is_reserved": 0, "is_disabled": 0, "name": "b3e619ccece3ee51b46267cc695cd590", "bike_id": "b3e619ccece3ee51b46267cc695cd590", "fusion_lat": 0.0, "lon": -76.98863483333334, "type": "electric_scooter", "fusion_lon": 0.0, "lat": 38.934716333333334}, {"rental_uris": {"android": "https://dc.lft.to/lastmile_qr_scan", "ios": "https://dc.lft.to/lastmile_qr_scan"}, "is_reserved": 0, "is_disabled": 0, "name": "cdbcc2b24c978f4babf89b4f4485d4d3", "bike_id": "cdbcc2b24c978f4babf89b4f4485d4d3", "fusion_lat": 0.0, "lon": -77.01736683333333, "type": "electric_scooter", "fusion_lon": 0.0, "lat": 38.902431166666666}, {"rental_uris": {"android": "https://dc.lft.to/lastmile_qr_scan", "ios": "https://dc.lft.to/lastmile_qr_scan"}, "is_reserved": 0, "is_disabled": 0, "name": "62c239149d46298601116ab9ec629143", "bike_id": "62c239149d46298601116ab9ec629143", "fusion_lat": 0.0, "lon": -77.02258433333333, "type": "electric_scooter", "fusion_lon": 0.0, "lat": 38.89588166666667}, {"rental_uris": {"android": "https://dc.lft.to/lastmile_qr_scan", "ios": "https://dc.lft.to/lastmile_qr_scan"}, "is_reserved": 0, "is_disabled": 0, "name": "3166bbe65c208e401a199805b0fee043", "bike_id": "3166bbe65c208e401a199805b0fee043", "fusion_lat": 0.0, "lon": -77.03793533333334, "type": "electric_scooter", "fusion_lon": 0.0, "lat": 38.92579033333333}, {"rental_uris": {"android": "https://dc.lft.to/lastmile_qr_scan", "ios": "https://dc.lft.to/lastmile_qr_scan"}, "is_reserved": 0, "is_disabled": 0, "name": "99ece8956017dcbf1884103767b2262e", "bike_id": "99ece8956017dcbf1884103767b2262e", "fusion_lat": 0.0, "lon": -76.9782685, "type": "electric_scooter", "fusion_lon": 0.0, "lat": 38.89392983333333}, {"rental_uris": {"android": "https://dc.lft.to/lastmile_qr_scan", "ios": "https://dc.lft.to/lastmile_qr_scan"}, "is_reserved": 0, "is_disabled": 0, "name": "a38f233ca381b8a9d556ef710503c612", "bike_id": "a38f233ca381b8a9d556ef710503c612", "fusion_lat": 0.0, "lon": -77.01664233333334, "type": "electric_scooter", "fusion_lon": 0.0, "lat": 38.8813325}, {"rental_uris": {"android": "https://dc.lft.to/lastmile_qr_scan", "ios": "https://dc.lft.to/lastmile_qr_scan"}, "is_reserved": 0, "is_disabled": 0, "name": "6fd6939334217a819cac4c5915af467c", "bike_id": "6fd6939334217a819cac4c5915af467c", "fusion_lat": 0.0, "lon": -77.034276, "type": "electric_scooter", "fusion_lon": 0.0, "lat": 38.91924016666667}, {"rental_uris": {"android": "https://dc.lft.to/lastmile_qr_scan", "ios": "https://dc.lft.to/lastmile_qr_scan"}, "is_reserved": 0, "is_disabled": 0, "name": "cee9c007b05d0ae2da282e32a3d2e655", "bike_id": "cee9c007b05d0ae2da282e32a3d2e655", "fusion_lat": 0.0, "lon": -77.04089066666667, "type": "electric_scooter", "fusion_lon": 0.0, "lat": 38.896394666666666}, {"rental_uris": {"android": "https://dc.lft.to/lastmile_qr_scan", "ios": "https://dc.lft.to/lastmile_qr_scan"}, "is_reserved": 0, "is_disabled": 0, "name": "5683b91f7d2b404168be2ab9cd2a325c", "bike_id": "5683b91f7d2b404168be2ab9cd2a325c", "fusion_lat": 0.0, "lon": -77.04881383333333, "type": "electric_scooter", "fusion_lon": 0.0, "lat": 38.89787416666667}, {"rental_uris": {"android": "https://dc.lft.to/lastmile_qr_scan", "ios": "https://dc.lft.to/lastmile_qr_scan"}, "is_reserved": 0, "is_disabled": 0, "name": "2b2c90dbb99d2e2d863ac85519257f6a", "bike_id": "2b2c90dbb99d2e2d863ac85519257f6a", "fusion_lat": 0.0, "lon": -77.03706683333333, "type": "electric_scooter", "fusion_lon": 0.0, "lat": 38.926285666666665}, {"rental_uris": {"android": "https://dc.lft.to/lastmile_qr_scan", "ios": "https://dc.lft.to/lastmile_qr_scan"}, "is_reserved": 0, "is_disabled": 0, "name": "8c49312010fb9f7f5b6c42e18dcf2a35", "bike_id": "8c49312010fb9f7f5b6c42e18dcf2a35", "fusion_lat": 0.0, "lon": -77.00123716666667, "type": "electric_scooter", "fusion_lon": 0.0, "lat": 38.87645666666667}, {"rental_uris": {"android": "https://dc.lft.to/lastmile_qr_scan", "ios": "https://dc.lft.to/lastmile_qr_scan"}, "is_reserved": 0, "is_disabled": 0, "name": "90632d609925478dd455744d462c3f8d", "bike_id": "90632d609925478dd455744d462c3f8d", "fusion_lat": 0.0, "lon": -77.02956883333333, "type": "electric_scooter", "fusion_lon": 0.0, "lat": 38.917042}, {"rental_uris": {"android": "https://dc.lft.to/lastmile_qr_scan", "ios": "https://dc.lft.to/lastmile_qr_scan"}, "is_reserved": 0, "is_disabled": 0, "name": "bcf2ee02c05b8cbc32472cdd13021d1a", "bike_id": "bcf2ee02c05b8cbc32472cdd13021d1a", "fusion_lat": 0.0, "lon": -77.03561733333333, "type": "electric_scooter", "fusion_lon": 0.0, "lat": 38.92477383333333}, {"rental_uris": {"android": "https://dc.lft.to/lastmile_qr_scan", "ios": "https://dc.lft.to/lastmile_qr_scan"}, "is_reserved": 0, "is_disabled": 0, "name": "8d6f05e806711aca8599d6241a6ae095", "bike_id": "8d6f05e806711aca8599d6241a6ae095", "fusion_lat": 0.0, "lon": -77.076669, "type": "electric_bike", "fusion_lon": 0.0, "lat": 38.809740833333336}, {"rental_uris": {"android": "https://dc.lft.to/lastmile_qr_scan", "ios": "https://dc.lft.to/lastmile_qr_scan"}, "is_reserved": 0, "is_disabled": 0, "name": "192edbea227442a9dd8f7915cac67adc", "bike_id": "192edbea227442a9dd8f7915cac67adc", "fusion_lat": 0.0, "lon": -77.02993783333334, "type": "electric_scooter", "fusion_lon": 0.0, "lat": 38.92468383333333}, {"rental_uris": {"android": "https://dc.lft.to/lastmile_qr_scan", "ios": "https://dc.lft.to/lastmile_qr_scan"}, "is_reserved": 0, "is_disabled": 0, "name": "e20bce21c0e8440d066c1e41b4ce2f84", "bike_id": "e20bce21c0e8440d066c1e41b4ce2f84", "fusion_lat": 0.0, "lon": -77.0230115, "type": "electric_scooter", "fusion_lon": 0.0, "lat": 38.924206}, {"rental_uris": {"android": "https://dc.lft.to/lastmile_qr_scan", "ios": "https://dc.lft.to/lastmile_qr_scan"}, "is_reserved": 0, "is_disabled": 0, "name": "5dedeb3166170b147583dd005211c37c", "bike_id": "5dedeb3166170b147583dd005211c37c", "fusion_lat": 0.0, "lon": -77.10102333333333, "type": "electric_bike", "fusion_lon": 0.0, "lat": 38.98938033333334}, {"rental_uris": {"android": "https://dc.lft.to/lastmile_qr_scan", "ios": "https://dc.lft.to/lastmile_qr_scan"}, "is_reserved": 0, "is_disabled": 0, "name": "33b12ee681bb0dcb72d9dfd2a43b1465", "bike_id": "33b12ee681bb0dcb72d9dfd2a43b1465", "fusion_lat": 0.0, "lon": -77.0299715, "type": "electric_scooter", "fusion_lon": 0.0, "lat": 38.89752983333333}, {"rental_uris": {"android": "https://dc.lft.to/lastmile_qr_scan", "ios": "https://dc.lft.to/lastmile_qr_scan"}, "is_reserved": 0, "is_disabled": 0, "name": "8207af0fe399a2899e67049c9c17430a", "bike_id": "8207af0fe399a2899e67049c9c17430a", "fusion_lat": 0.0, "lon": -77.02690916666667, "type": "electric_scooter", "fusion_lon": 0.0, "lat": 38.91275533333334}, {"rental_uris": {"android": "https://dc.lft.to/lastmile_qr_scan", "ios": "https://dc.lft.to/lastmile_qr_scan"}, "is_reserved": 0, "is_disabled": 0, "name": "4f7bd9fa882aacde5001a5a4b1f3665d", "bike_id": "4f7bd9fa882aacde5001a5a4b1f3665d", "fusion_lat": 0.0, "lon": -77.000584, "type": "electric_scooter", "fusion_lon": 0.0, "lat": 38.878804}, {"rental_uris": {"android": "https://dc.lft.to/lastmile_qr_scan", "ios": "https://dc.lft.to/lastmile_qr_scan"}, "is_reserved": 0, "is_disabled": 0, "name": "39234b4ee05994994d4eb1bfffe573b4", "bike_id": "39234b4ee05994994d4eb1bfffe573b4", "fusion_lat": 0.0, "lon": -77.01966216666666, "type": "electric_scooter", "fusion_lon": 0.0, "lat": 38.91928733333334}, {"rental_uris": {"android": "https://dc.lft.to/lastmile_qr_scan", "ios": "https://dc.lft.to/lastmile_qr_scan"}, "is_reserved": 0, "is_disabled": 0, "name": "34d648e4c142e55369d7b134a8facbcb", "bike_id": "34d648e4c142e55369d7b134a8facbcb", "fusion_lat": 0.0, "lon": -77.03386483333334, "type": "electric_scooter", "fusion_lon": 0.0, "lat": 38.90143283333333}, {"rental_uris": {"android": "https://dc.lft.to/lastmile_qr_scan", "ios": "https://dc.lft.to/lastmile_qr_scan"}, "is_reserved": 0, "is_disabled": 0, "name": "5f9f321d57391df508e9ceb25ce6f17d", "bike_id": "5f9f321d57391df508e9ceb25ce6f17d", "fusion_lat": 0.0, "lon": -77.02183983333333, "type": "electric_scooter", "fusion_lon": 0.0, "lat": 38.92490733333333}, {"rental_uris": {"android": "https://dc.lft.to/lastmile_qr_scan", "ios": "https://dc.lft.to/lastmile_qr_scan"}, "is_reserved": 0, "is_disabled": 0, "name": "8be63db201e77d830bd3797e25c55884", "bike_id": "8be63db201e77d830bd3797e25c55884", "fusion_lat": 0.0, "lon": -76.94187466666666, "type": "electric_scooter", "fusion_lon": 0.0, "lat": 38.897546}, {"rental_uris": {"android": "https://dc.lft.to/lastmile_qr_scan", "ios": "https://dc.lft.to/lastmile_qr_scan"}, "is_reserved": 0, "is_disabled": 0, "name": "303085f81a61ad91b9a0a0d00c0d61c5", "bike_id": "303085f81a61ad91b9a0a0d00c0d61c5", "fusion_lat": 0.0, "lon": -77.031507, "type": "electric_scooter", "fusion_lon": 0.0, "lat": 38.899465166666666}, {"rental_uris": {"android": "https://dc.lft.to/lastmile_qr_scan", "ios": "https://dc.lft.to/lastmile_qr_scan"}, "is_reserved": 0, "is_disabled": 0, "name": "dc458d4ce2d808b3256987db362a6395", "bike_id": "dc458d4ce2d808b3256987db362a6395", "fusion_lat": 0.0, "lon": -77.00887933333334, "type": "electric_scooter", "fusion_lon": 0.0, "lat": 38.906306}, {"rental_uris": {"android": "https://dc.lft.to/lastmile_qr_scan", "ios": "https://dc.lft.to/lastmile_qr_scan"}, "is_reserved": 0, "is_disabled": 0, "name": "fcb226cf0b53a2126d510b5d22045538", "bike_id": "fcb226cf0b53a2126d510b5d22045538", "fusion_lat": 0.0, "lon": -77.01294916666667, "type": "electric_scooter", "fusion_lon": 0.0, "lat": 38.898346}, {"rental_uris": {"android": "https://dc.lft.to/lastmile_qr_scan", "ios": "https://dc.lft.to/lastmile_qr_scan"}, "is_reserved": 0, "is_disabled": 0, "name": "cc5d8af9712371528a81df73779a8d09", "bike_id": "cc5d8af9712371528a81df73779a8d09", "fusion_lat": 0.0, "lon": -77.02964733333333, "type": "electric_scooter", "fusion_lon": 0.0, "lat": 38.892233166666664}, {"rental_uris": {"android": "https://dc.lft.to/lastmile_qr_scan", "ios": "https://dc.lft.to/lastmile_qr_scan"}, "is_reserved": 0, "is_disabled": 0, "name": "f0859ceff246dda5634149c0e693cd42", "bike_id": "f0859ceff246dda5634149c0e693cd42", "fusion_lat": 0.0, "lon": -77.03295316666667, "type": "electric_scooter", "fusion_lon": 0.0, "lat": 38.9234425}, {"rental_uris": {"android": "https://dc.lft.to/lastmile_qr_scan", "ios": "https://dc.lft.to/lastmile_qr_scan"}, "is_reserved": 0, "is_disabled": 0, "name": "f6aa1af1863facc32a483db0332ce8be", "bike_id": "f6aa1af1863facc32a483db0332ce8be", "fusion_lat": 0.0, "lon": -77.0290295, "type": "electric_bike", "fusion_lon": 0.0, "lat": 38.995013}, {"rental_uris": {"android": "https://dc.lft.to/lastmile_qr_scan", "ios": "https://dc.lft.to/lastmile_qr_scan"}, "is_reserved": 0, "is_disabled": 0, "name": "c4696bc65de909c5d4dc86184aacb14f", "bike_id": "c4696bc65de909c5d4dc86184aacb14f", "fusion_lat": 0.0, "lon": -77.0724065, "type": "electric_scooter", "fusion_lon": 0.0, "lat": 38.939461}, {"rental_uris": {"android": "https://dc.lft.to/lastmile_qr_scan", "ios": "https://dc.lft.to/lastmile_qr_scan"}, "is_reserved": 0, "is_disabled": 0, "name": "de9ecb5ab91f5b3864387244c36b3845", "bike_id": "de9ecb5ab91f5b3864387244c36b3845", "fusion_lat": 0.0, "lon": -77.00211766666666, "type": "electric_scooter", "fusion_lon": 0.0, "lat": 38.900222166666666}, {"rental_uris": {"android": "https://dc.lft.to/lastmile_qr_scan", "ios": "https://dc.lft.to/lastmile_qr_scan"}, "is_reserved": 0, "is_disabled": 0, "name": "f102657827de08f107f4e98319abbc2d", "bike_id": "f102657827de08f107f4e98319abbc2d", "fusion_lat": 0.0, "lon": -77.05160616666667, "type": "electric_scooter", "fusion_lon": 0.0, "lat": 38.923703}, {"rental_uris": {"android": "https://dc.lft.to/lastmile_qr_scan", "ios": "https://dc.lft.to/lastmile_qr_scan"}, "is_reserved": 0, "is_disabled": 0, "name": "62404acef0521d2855214510ce0db638", "bike_id": "62404acef0521d2855214510ce0db638", "fusion_lat": 0.0, "lon": -77.01009133333334, "type": "electric_bike", "fusion_lon": 0.0, "lat": 38.95591116666667}, {"rental_uris": {"android": "https://dc.lft.to/lastmile_qr_scan", "ios": "https://dc.lft.to/lastmile_qr_scan"}, "is_reserved": 0, "is_disabled": 0, "name": "e67c49a5225565b5b057ed2fd52d0ec3", "bike_id": "e67c49a5225565b5b057ed2fd52d0ec3", "fusion_lat": 0.0, "lon": -77.0172705, "type": "electric_scooter", "fusion_lon": 0.0, "lat": 38.917308}, {"rental_uris": {"android": "https://dc.lft.to/lastmile_qr_scan", "ios": "https://dc.lft.to/lastmile_qr_scan"}, "is_reserved": 0, "is_disabled": 0, "name": "7336cf2ccf659ba67d16ba8e426982c3", "bike_id": "7336cf2ccf659ba67d16ba8e426982c3", "fusion_lat": 0.0, "lon": -77.03372266666666, "type": "electric_scooter", "fusion_lon": 0.0, "lat": 38.899586666666664}, {"rental_uris": {"android": "https://dc.lft.to/lastmile_qr_scan", "ios": "https://dc.lft.to/lastmile_qr_scan"}, "is_reserved": 0, "is_disabled": 0, "name": "72093f1a326f01d15f5bc45106f3ac73", "bike_id": "72093f1a326f01d15f5bc45106f3ac73", "fusion_lat": 0.0, "lon": -77.04177733333333, "type": "electric_scooter", "fusion_lon": 0.0, "lat": 38.91720433333333}, {"rental_uris": {"android": "https://dc.lft.to/lastmile_qr_scan", "ios": "https://dc.lft.to/lastmile_qr_scan"}, "is_reserved": 0, "is_disabled": 0, "name": "f48173d9881579d158c026c0b39d1161", "bike_id": "f48173d9881579d158c026c0b39d1161", "fusion_lat": 0.0, "lon": -76.98747966666667, "type": "electric_scooter", "fusion_lon": 0.0, "lat": 38.87962916666667}, {"rental_uris": {"android": "https://dc.lft.to/lastmile_qr_scan", "ios": "https://dc.lft.to/lastmile_qr_scan"}, "is_reserved": 0, "is_disabled": 0, "name": "501fac65c423c03fdce293a1ccb3851e", "bike_id": "501fac65c423c03fdce293a1ccb3851e", "fusion_lat": 0.0, "lon": -77.00141266666667, "type": "electric_scooter", "fusion_lon": 0.0, "lat": 38.884287666666665}, {"rental_uris": {"android": "https://dc.lft.to/lastmile_qr_scan", "ios": "https://dc.lft.to/lastmile_qr_scan"}, "is_reserved": 0, "is_disabled": 0, "name": "89ce3aca5826a91dcd54ee533cbc0a26", "bike_id": "89ce3aca5826a91dcd54ee533cbc0a26", "fusion_lat": 0.0, "lon": -77.02092083333334, "type": "electric_scooter", "fusion_lon": 0.0, "lat": 38.87600233333333}, {"rental_uris": {"android": "https://dc.lft.to/lastmile_qr_scan", "ios": "https://dc.lft.to/lastmile_qr_scan"}, "is_reserved": 0, "is_disabled": 0, "name": "bca8bff11433b34787c3cdffe0575cbe", "bike_id": "bca8bff11433b34787c3cdffe0575cbe", "fusion_lat": 0.0, "lon": -77.01391466666666, "type": "electric_scooter", "fusion_lon": 0.0, "lat": 38.878902833333335}, {"rental_uris": {"android": "https://dc.lft.to/lastmile_qr_scan", "ios": "https://dc.lft.to/lastmile_qr_scan"}, "is_reserved": 0, "is_disabled": 0, "name": "cbec37867f798b223c6b2d17f047fb18", "bike_id": "cbec37867f798b223c6b2d17f047fb18", "fusion_lat": 0.0, "lon": -76.99521583333333, "type": "electric_scooter", "fusion_lon": 0.0, "lat": 38.883688666666664}, {"rental_uris": {"android": "https://dc.lft.to/lastmile_qr_scan", "ios": "https://dc.lft.to/lastmile_qr_scan"}, "is_reserved": 0, "is_disabled": 0, "name": "e693f4df63ce706e4caf44a767fe1bac", "bike_id": "e693f4df63ce706e4caf44a767fe1bac", "fusion_lat": 0.0, "lon": -77.0400865, "type": "electric_scooter", "fusion_lon": 0.0, "lat": 38.9100375}, {"rental_uris": {"android": "https://dc.lft.to/lastmile_qr_scan", "ios": "https://dc.lft.to/lastmile_qr_scan"}, "is_reserved": 0, "is_disabled": 0, "name": "e3e799fd4eeca04684927b63d5f3b944", "bike_id": "e3e799fd4eeca04684927b63d5f3b944", "fusion_lat": 0.0, "lon": -77.03379166666667, "type": "electric_scooter", "fusion_lon": 0.0, "lat": 38.89730133333333}, {"rental_uris": {"android": "https://dc.lft.to/lastmile_qr_scan", "ios": "https://dc.lft.to/lastmile_qr_scan"}, "is_reserved": 0, "is_disabled": 0, "name": "7e867845e0c4e5e6eee008c9b65233b1", "bike_id": "7e867845e0c4e5e6eee008c9b65233b1", "fusion_lat": 0.0, "lon": -77.0433885, "type": "electric_scooter", "fusion_lon": 0.0, "lat": 38.905135}, {"rental_uris": {"android": "https://dc.lft.to/lastmile_qr_scan", "ios": "https://dc.lft.to/lastmile_qr_scan"}, "is_reserved": 0, "is_disabled": 0, "name": "6cecf62c8144d7165313f827942ea56b", "bike_id": "6cecf62c8144d7165313f827942ea56b", "fusion_lat": 0.0, "lon": -77.016553, "type": "electric_scooter", "fusion_lon": 0.0, "lat": 38.881047833333334}, {"rental_uris": {"android": "https://dc.lft.to/lastmile_qr_scan", "ios": "https://dc.lft.to/lastmile_qr_scan"}, "is_reserved": 0, "is_disabled": 0, "name": "2904bf3db29d9b8d59eded1fdd10b685", "bike_id": "2904bf3db29d9b8d59eded1fdd10b685", "fusion_lat": 0.0, "lon": -76.995204, "type": "electric_scooter", "fusion_lon": 0.0, "lat": 38.883699666666665}, {"rental_uris": {"android": "https://dc.lft.to/lastmile_qr_scan", "ios": "https://dc.lft.to/lastmile_qr_scan"}, "is_reserved": 0, "is_disabled": 0, "name": "2c02eaf69edd20b8cd78e14d7e12e129", "bike_id": "2c02eaf69edd20b8cd78e14d7e12e129", "fusion_lat": 0.0, "lon": -76.98619716666667, "type": "electric_scooter", "fusion_lon": 0.0, "lat": 38.9382335}, {"rental_uris": {"android": "https://dc.lft.to/lastmile_qr_scan", "ios": "https://dc.lft.to/lastmile_qr_scan"}, "is_reserved": 0, "is_disabled": 0, "name": "0cbd7d7b5e8af1b90d8dbd0afc414738", "bike_id": "0cbd7d7b5e8af1b90d8dbd0afc414738", "fusion_lat": 0.0, "lon": -77.0280655, "type": "electric_scooter", "fusion_lon": 0.0, "lat": 38.92311216666667}, {"rental_uris": {"android": "https://dc.lft.to/lastmile_qr_scan", "ios": "https://dc.lft.to/lastmile_qr_scan"}, "is_reserved": 0, "is_disabled": 0, "name": "d6dbeaa2ba289c0ea2c96f274e3d887c", "bike_id": "d6dbeaa2ba289c0ea2c96f274e3d887c", "fusion_lat": 0.0, "lon": -77.0279355, "type": "electric_scooter", "fusion_lon": 0.0, "lat": 38.9296255}, {"rental_uris": {"android": "https://dc.lft.to/lastmile_qr_scan", "ios": "https://dc.lft.to/lastmile_qr_scan"}, "is_reserved": 0, "is_disabled": 0, "name": "600a94850bce24cd3684dcb4e3409428", "bike_id": "600a94850bce24cd3684dcb4e3409428", "fusion_lat": 0.0, "lon": -77.0294205, "type": "electric_scooter", "fusion_lon": 0.0, "lat": 38.899712}, {"rental_uris": {"android": "https://dc.lft.to/lastmile_qr_scan", "ios": "https://dc.lft.to/lastmile_qr_scan"}, "is_reserved": 0, "is_disabled": 0, "name": "8da6fbce3a219c9c0b7d8ee92d44228d", "bike_id": "8da6fbce3a219c9c0b7d8ee92d44228d", "fusion_lat": 0.0, "lon": -77.04465816666666, "type": "electric_scooter", "fusion_lon": 0.0, "lat": 38.90283866666667}, {"rental_uris": {"android": "https://dc.lft.to/lastmile_qr_scan", "ios": "https://dc.lft.to/lastmile_qr_scan"}, "is_reserved": 0, "is_disabled": 0, "name": "d663fb4fab04e4741a996ed445db70dc", "bike_id": "d663fb4fab04e4741a996ed445db70dc", "fusion_lat": 0.0, "lon": -77.03454733333334, "type": "electric_scooter", "fusion_lon": 0.0, "lat": 38.918356}, {"rental_uris": {"android": "https://dc.lft.to/lastmile_qr_scan", "ios": "https://dc.lft.to/lastmile_qr_scan"}, "is_reserved": 0, "is_disabled": 0, "name": "84b3d932060195242ca4c43fb8e09233", "bike_id": "84b3d932060195242ca4c43fb8e09233", "fusion_lat": 0.0, "lon": -77.01955266666667, "type": "electric_scooter", "fusion_lon": 0.0, "lat": 38.923633}, {"rental_uris": {"android": "https://dc.lft.to/lastmile_qr_scan", "ios": "https://dc.lft.to/lastmile_qr_scan"}, "is_reserved": 0, "is_disabled": 0, "name": "3afe16467fd0716b807ea0295f6df62d", "bike_id": "3afe16467fd0716b807ea0295f6df62d", "fusion_lat": 0.0, "lon": -76.99485483333333, "type": "electric_scooter", "fusion_lon": 0.0, "lat": 38.86222433333333}, {"rental_uris": {"android": "https://dc.lft.to/lastmile_qr_scan", "ios": "https://dc.lft.to/lastmile_qr_scan"}, "is_reserved": 0, "is_disabled": 0, "name": "24ef62c0adfc8ec3b43af6811a0bcce9", "bike_id": "24ef62c0adfc8ec3b43af6811a0bcce9", "fusion_lat": 0.0, "lon": -77.12946233333334, "type": "electric_bike", "fusion_lon": 0.0, "lat": 38.86586166666667}, {"rental_uris": {"android": "https://dc.lft.to/lastmile_qr_scan", "ios": "https://dc.lft.to/lastmile_qr_scan"}, "is_reserved": 0, "is_disabled": 0, "name": "812cd221534d75091830037a71c264eb", "bike_id": "812cd221534d75091830037a71c264eb", "fusion_lat": 0.0, "lon": -77.03347966666666, "type": "electric_scooter", "fusion_lon": 0.0, "lat": 38.902625666666665}, {"rental_uris": {"android": "https://dc.lft.to/lastmile_qr_scan", "ios": "https://dc.lft.to/lastmile_qr_scan"}, "is_reserved": 0, "is_disabled": 0, "name": "96bcd876022a6d739fe51a5272bf27df", "bike_id": "96bcd876022a6d739fe51a5272bf27df", "fusion_lat": 0.0, "lon": -77.027333, "type": "electric_scooter", "fusion_lon": 0.0, "lat": 38.8984035}, {"rental_uris": {"android": "https://dc.lft.to/lastmile_qr_scan", "ios": "https://dc.lft.to/lastmile_qr_scan"}, "is_reserved": 0, "is_disabled": 0, "name": "52b5fcf65a62c51b55c095003b04cfd3", "bike_id": "52b5fcf65a62c51b55c095003b04cfd3", "fusion_lat": 0.0, "lon": -77.0223725, "type": "electric_scooter", "fusion_lon": 0.0, "lat": 38.9141035}, {"rental_uris": {"android": "https://dc.lft.to/lastmile_qr_scan", "ios": "https://dc.lft.to/lastmile_qr_scan"}, "is_reserved": 0, "is_disabled": 0, "name": "e766cd8a534b5d8ce516cf24aa12718a", "bike_id": "e766cd8a534b5d8ce516cf24aa12718a", "fusion_lat": 0.0, "lon": -77.0462555, "type": "electric_scooter", "fusion_lon": 0.0, "lat": 38.893486}, {"rental_uris": {"android": "https://dc.lft.to/lastmile_qr_scan", "ios": "https://dc.lft.to/lastmile_qr_scan"}, "is_reserved": 0, "is_disabled": 0, "name": "bb4a9781e143041406f8e4eca18dcd42", "bike_id": "bb4a9781e143041406f8e4eca18dcd42", "fusion_lat": 0.0, "lon": -76.92965283333334, "type": "electric_scooter", "fusion_lon": 0.0, "lat": 38.896308166666664}, {"rental_uris": {"android": "https://dc.lft.to/lastmile_qr_scan", "ios": "https://dc.lft.to/lastmile_qr_scan"}, "is_reserved": 0, "is_disabled": 0, "name": "4203bfdc3ef01e8d0cc835d575fbe172", "bike_id": "4203bfdc3ef01e8d0cc835d575fbe172", "fusion_lat": 0.0, "lon": -77.00305133333333, "type": "electric_scooter", "fusion_lon": 0.0, "lat": 38.878536833333335}, {"rental_uris": {"android": "https://dc.lft.to/lastmile_qr_scan", "ios": "https://dc.lft.to/lastmile_qr_scan"}, "is_reserved": 0, "is_disabled": 0, "name": "29876817239863284074ffa19da8fe34", "bike_id": "29876817239863284074ffa19da8fe34", "fusion_lat": 0.0, "lon": -77.02312083333334, "type": "electric_scooter", "fusion_lon": 0.0, "lat": 38.91782083333333}, {"rental_uris": {"android": "https://dc.lft.to/lastmile_qr_scan", "ios": "https://dc.lft.to/lastmile_qr_scan"}, "is_reserved": 0, "is_disabled": 0, "name": "79585348f8b4ad08fd63a5e1e46f3091", "bike_id": "79585348f8b4ad08fd63a5e1e46f3091", "fusion_lat": 0.0, "lon": -76.99009666666667, "type": "electric_scooter", "fusion_lon": 0.0, "lat": 38.86438733333333}, {"rental_uris": {"android": "https://dc.lft.to/lastmile_qr_scan", "ios": "https://dc.lft.to/lastmile_qr_scan"}, "is_reserved": 0, "is_disabled": 0, "name": "7987e9eec8455f00928c74beb76f5845", "bike_id": "7987e9eec8455f00928c74beb76f5845", "fusion_lat": 0.0, "lon": -77.048779, "type": "electric_scooter", "fusion_lon": 0.0, "lat": 38.8995075}, {"rental_uris": {"android": "https://dc.lft.to/lastmile_qr_scan", "ios": "https://dc.lft.to/lastmile_qr_scan"}, "is_reserved": 0, "is_disabled": 0, "name": "b116522e7d09e4e2ea23ca1a20dbffe4", "bike_id": "b116522e7d09e4e2ea23ca1a20dbffe4", "fusion_lat": 0.0, "lon": -76.982346, "type": "electric_scooter", "fusion_lon": 0.0, "lat": 38.8688355}, {"rental_uris": {"android": "https://dc.lft.to/lastmile_qr_scan", "ios": "https://dc.lft.to/lastmile_qr_scan"}, "is_reserved": 0, "is_disabled": 0, "name": "f51557a7678d46f9d2f3bd43556bb43e", "bike_id": "f51557a7678d46f9d2f3bd43556bb43e", "fusion_lat": 0.0, "lon": -77.02473366666666, "type": "electric_scooter", "fusion_lon": 0.0, "lat": 38.91924266666667}, {"rental_uris": {"android": "https://dc.lft.to/lastmile_qr_scan", "ios": "https://dc.lft.to/lastmile_qr_scan"}, "is_reserved": 0, "is_disabled": 0, "name": "7d96d07608ce5d83d93cd9d081b3f1d1", "bike_id": "7d96d07608ce5d83d93cd9d081b3f1d1", "fusion_lat": 0.0, "lon": -77.041188, "type": "electric_scooter", "fusion_lon": 0.0, "lat": 38.901592666666666}, {"rental_uris": {"android": "https://dc.lft.to/lastmile_qr_scan", "ios": "https://dc.lft.to/lastmile_qr_scan"}, "is_reserved": 0, "is_disabled": 0, "name": "37d5d7467e6743b1d1d078b8b189bf73", "bike_id": "37d5d7467e6743b1d1d078b8b189bf73", "fusion_lat": 0.0, "lon": -76.9466675, "type": "electric_scooter", "fusion_lon": 0.0, "lat": 38.8986545}, {"rental_uris": {"android": "https://dc.lft.to/lastmile_qr_scan", "ios": "https://dc.lft.to/lastmile_qr_scan"}, "is_reserved": 0, "is_disabled": 0, "name": "cd45bbdc6b492c24efa1f025b1f3f835", "bike_id": "cd45bbdc6b492c24efa1f025b1f3f835", "fusion_lat": 0.0, "lon": -77.03840533333333, "type": "electric_scooter", "fusion_lon": 0.0, "lat": 38.902520833333334}, {"rental_uris": {"android": "https://dc.lft.to/lastmile_qr_scan", "ios": "https://dc.lft.to/lastmile_qr_scan"}, "is_reserved": 0, "is_disabled": 0, "name": "3ad03b01d8ba8d0c834759c9fd441265", "bike_id": "3ad03b01d8ba8d0c834759c9fd441265", "fusion_lat": 0.0, "lon": -77.03528116666666, "type": "electric_scooter", "fusion_lon": 0.0, "lat": 38.922606}, {"rental_uris": {"android": "https://dc.lft.to/lastmile_qr_scan", "ios": "https://dc.lft.to/lastmile_qr_scan"}, "is_reserved": 0, "is_disabled": 0, "name": "3d72a5201f9eec713ef5f2ff220589e6", "bike_id": "3d72a5201f9eec713ef5f2ff220589e6", "fusion_lat": 0.0, "lon": -77.02220566666666, "type": "electric_scooter", "fusion_lon": 0.0, "lat": 38.91409916666667}, {"rental_uris": {"android": "https://dc.lft.to/lastmile_qr_scan", "ios": "https://dc.lft.to/lastmile_qr_scan"}, "is_reserved": 0, "is_disabled": 0, "name": "8ef710d4186d99dc75f5a47ca1fcabe0", "bike_id": "8ef710d4186d99dc75f5a47ca1fcabe0", "fusion_lat": 0.0, "lon": -76.9906415, "type": "electric_bike", "fusion_lon": 0.0, "lat": 38.937541}, {"rental_uris": {"android": "https://dc.lft.to/lastmile_qr_scan", "ios": "https://dc.lft.to/lastmile_qr_scan"}, "is_reserved": 0, "is_disabled": 0, "name": "96e63a6346470ed7edd81cd6ca3335ae", "bike_id": "96e63a6346470ed7edd81cd6ca3335ae", "fusion_lat": 0.0, "lon": -77.0482315, "type": "electric_scooter", "fusion_lon": 0.0, "lat": 38.901987}, {"rental_uris": {"android": "https://dc.lft.to/lastmile_qr_scan", "ios": "https://dc.lft.to/lastmile_qr_scan"}, "is_reserved": 0, "is_disabled": 0, "name": "d788419c55acf0637f8cd32cd074b9c6", "bike_id": "d788419c55acf0637f8cd32cd074b9c6", "fusion_lat": 0.0, "lon": -77.0343795, "type": "electric_scooter", "fusion_lon": 0.0, "lat": 38.903706166666666}, {"rental_uris": {"android": "https://dc.lft.to/lastmile_qr_scan", "ios": "https://dc.lft.to/lastmile_qr_scan"}, "is_reserved": 0, "is_disabled": 0, "name": "69a09855192761806b49bba72e4644d9", "bike_id": "69a09855192761806b49bba72e4644d9", "fusion_lat": 0.0, "lon": -76.99516166666666, "type": "electric_scooter", "fusion_lon": 0.0, "lat": 38.883736166666665}, {"rental_uris": {"android": "https://dc.lft.to/lastmile_qr_scan", "ios": "https://dc.lft.to/lastmile_qr_scan"}, "is_reserved": 0, "is_disabled": 0, "name": "ac72e5d6d7305fb0c76215ff4ef6505d", "bike_id": "ac72e5d6d7305fb0c76215ff4ef6505d", "fusion_lat": 0.0, "lon": -77.032104, "type": "electric_scooter", "fusion_lon": 0.0, "lat": 38.89228766666667}, {"rental_uris": {"android": "https://dc.lft.to/lastmile_qr_scan", "ios": "https://dc.lft.to/lastmile_qr_scan"}, "is_reserved": 0, "is_disabled": 0, "name": "157a186823a1babebf13ab99bc2d2485", "bike_id": "157a186823a1babebf13ab99bc2d2485", "fusion_lat": 0.0, "lon": -77.03296183333333, "type": "electric_scooter", "fusion_lon": 0.0, "lat": 38.95615683333333}, {"rental_uris": {"android": "https://dc.lft.to/lastmile_qr_scan", "ios": "https://dc.lft.to/lastmile_qr_scan"}, "is_reserved": 0, "is_disabled": 0, "name": "bb6c1f223e7b6c3af70d1ed8f6ac0826", "bike_id": "bb6c1f223e7b6c3af70d1ed8f6ac0826", "fusion_lat": 0.0, "lon": -77.01959266666667, "type": "electric_scooter", "fusion_lon": 0.0, "lat": 38.9232235}, {"rental_uris": {"android": "https://dc.lft.to/lastmile_qr_scan", "ios": "https://dc.lft.to/lastmile_qr_scan"}, "is_reserved": 0, "is_disabled": 0, "name": "3931d077f4df6b230b7ac6a858b39164", "bike_id": "3931d077f4df6b230b7ac6a858b39164", "fusion_lat": 0.0, "lon": -77.02581933333333, "type": "electric_scooter", "fusion_lon": 0.0, "lat": 38.9392075}, {"rental_uris": {"android": "https://dc.lft.to/lastmile_qr_scan", "ios": "https://dc.lft.to/lastmile_qr_scan"}, "is_reserved": 0, "is_disabled": 0, "name": "e44a61b8219d0efe0591757866a46261", "bike_id": "e44a61b8219d0efe0591757866a46261", "fusion_lat": 0.0, "lon": -76.94471183333333, "type": "electric_scooter", "fusion_lon": 0.0, "lat": 38.89025866666667}, {"rental_uris": {"android": "https://dc.lft.to/lastmile_qr_scan", "ios": "https://dc.lft.to/lastmile_qr_scan"}, "is_reserved": 0, "is_disabled": 0, "name": "65c404474f30dc70b765bf60e2e94477", "bike_id": "65c404474f30dc70b765bf60e2e94477", "fusion_lat": 0.0, "lon": -77.06910616666667, "type": "electric_scooter", "fusion_lon": 0.0, "lat": 38.90742483333333}, {"rental_uris": {"android": "https://dc.lft.to/lastmile_qr_scan", "ios": "https://dc.lft.to/lastmile_qr_scan"}, "is_reserved": 0, "is_disabled": 0, "name": "73fc0bf529545e9cddf1741aa0caa720", "bike_id": "73fc0bf529545e9cddf1741aa0caa720", "fusion_lat": 0.0, "lon": -77.021133, "type": "electric_scooter", "fusion_lon": 0.0, "lat": 38.91796033333333}, {"rental_uris": {"android": "https://dc.lft.to/lastmile_qr_scan", "ios": "https://dc.lft.to/lastmile_qr_scan"}, "is_reserved": 0, "is_disabled": 0, "name": "b0d75d564814d2a55cd9f2bcd68ced41", "bike_id": "b0d75d564814d2a55cd9f2bcd68ced41", "fusion_lat": 0.0, "lon": -76.98841516666667, "type": "electric_scooter", "fusion_lon": 0.0, "lat": 38.90164933333333}, {"rental_uris": {"android": "https://dc.lft.to/lastmile_qr_scan", "ios": "https://dc.lft.to/lastmile_qr_scan"}, "is_reserved": 0, "is_disabled": 0, "name": "be25a743c2b18833e963a6d4d71605be", "bike_id": "be25a743c2b18833e963a6d4d71605be", "fusion_lat": 0.0, "lon": -77.02250333333333, "type": "electric_scooter", "fusion_lon": 0.0, "lat": 38.924065}, {"rental_uris": {"android": "https://dc.lft.to/lastmile_qr_scan", "ios": "https://dc.lft.to/lastmile_qr_scan"}, "is_reserved": 0, "is_disabled": 0, "name": "d93294d0c3839b36f645caf2f336ee04", "bike_id": "d93294d0c3839b36f645caf2f336ee04", "fusion_lat": 0.0, "lon": -77.01989766666667, "type": "electric_scooter", "fusion_lon": 0.0, "lat": 38.885854}, {"rental_uris": {"android": "https://dc.lft.to/lastmile_qr_scan", "ios": "https://dc.lft.to/lastmile_qr_scan"}, "is_reserved": 0, "is_disabled": 0, "name": "ea97912042acbf74c1ef0cdef4bdd644", "bike_id": "ea97912042acbf74c1ef0cdef4bdd644", "fusion_lat": 0.0, "lon": -77.034338, "type": "electric_scooter", "fusion_lon": 0.0, "lat": 38.9192835}, {"rental_uris": {"android": "https://dc.lft.to/lastmile_qr_scan", "ios": "https://dc.lft.to/lastmile_qr_scan"}, "is_reserved": 0, "is_disabled": 0, "name": "05b1c0938824f41af06870fdd55fbed5", "bike_id": "05b1c0938824f41af06870fdd55fbed5", "fusion_lat": 0.0, "lon": -77.00892266666666, "type": "electric_scooter", "fusion_lon": 0.0, "lat": 38.92475316666667}, {"rental_uris": {"android": "https://dc.lft.to/lastmile_qr_scan", "ios": "https://dc.lft.to/lastmile_qr_scan"}, "is_reserved": 0, "is_disabled": 0, "name": "b6bce593ee97df9ab3d2aabd69892ff2", "bike_id": "b6bce593ee97df9ab3d2aabd69892ff2", "fusion_lat": 0.0, "lon": -77.04641483333333, "type": "electric_scooter", "fusion_lon": 0.0, "lat": 38.9062485}, {"rental_uris": {"android": "https://dc.lft.to/lastmile_qr_scan", "ios": "https://dc.lft.to/lastmile_qr_scan"}, "is_reserved": 0, "is_disabled": 0, "name": "90b993a8227caa1fc95fe0e7e4896bc4", "bike_id": "90b993a8227caa1fc95fe0e7e4896bc4", "fusion_lat": 0.0, "lon": -77.0259165, "type": "electric_scooter", "fusion_lon": 0.0, "lat": 38.9033975}, {"rental_uris": {"android": "https://dc.lft.to/lastmile_qr_scan", "ios": "https://dc.lft.to/lastmile_qr_scan"}, "is_reserved": 0, "is_disabled": 0, "name": "7fc8f9208e5e1b3fb58334fcc997baaa", "bike_id": "7fc8f9208e5e1b3fb58334fcc997baaa", "fusion_lat": 0.0, "lon": -77.0347925, "type": "electric_scooter", "fusion_lon": 0.0, "lat": 38.92877333333333}, {"rental_uris": {"android": "https://dc.lft.to/lastmile_qr_scan", "ios": "https://dc.lft.to/lastmile_qr_scan"}, "is_reserved": 0, "is_disabled": 0, "name": "ea7cc61497c2927a6d4e278b44bcc93d", "bike_id": "ea7cc61497c2927a6d4e278b44bcc93d", "fusion_lat": 0.0, "lon": -76.954535, "type": "electric_scooter", "fusion_lon": 0.0, "lat": 38.883942833333336}, {"rental_uris": {"android": "https://dc.lft.to/lastmile_qr_scan", "ios": "https://dc.lft.to/lastmile_qr_scan"}, "is_reserved": 0, "is_disabled": 0, "name": "b014f2f3073308697d3a6a5e54ed0d82", "bike_id": "b014f2f3073308697d3a6a5e54ed0d82", "fusion_lat": 0.0, "lon": -77.031325, "type": "electric_scooter", "fusion_lon": 0.0, "lat": 38.903828}, {"rental_uris": {"android": "https://dc.lft.to/lastmile_qr_scan", "ios": "https://dc.lft.to/lastmile_qr_scan"}, "is_reserved": 0, "is_disabled": 0, "name": "e3964978e6de5528fcd0b6a4a3b1fd74", "bike_id": "e3964978e6de5528fcd0b6a4a3b1fd74", "fusion_lat": 0.0, "lon": -76.98705416666667, "type": "electric_scooter", "fusion_lon": 0.0, "lat": 38.85958}, {"rental_uris": {"android": "https://dc.lft.to/lastmile_qr_scan", "ios": "https://dc.lft.to/lastmile_qr_scan"}, "is_reserved": 0, "is_disabled": 0, "name": "9461bb02e386f5d54078348681679130", "bike_id": "9461bb02e386f5d54078348681679130", "fusion_lat": 0.0, "lon": -77.00349916666667, "type": "electric_scooter", "fusion_lon": 0.0, "lat": 38.876615666666666}, {"rental_uris": {"android": "https://dc.lft.to/lastmile_qr_scan", "ios": "https://dc.lft.to/lastmile_qr_scan"}, "is_reserved": 0, "is_disabled": 0, "name": "d4a43024115198547ccda4e650ede209", "bike_id": "d4a43024115198547ccda4e650ede209", "fusion_lat": 0.0, "lon": -77.0341175, "type": "electric_bike", "fusion_lon": 0.0, "lat": 38.90072033333333}, {"rental_uris": {"android": "https://dc.lft.to/lastmile_qr_scan", "ios": "https://dc.lft.to/lastmile_qr_scan"}, "is_reserved": 0, "is_disabled": 0, "name": "4668c49b3d92d3bff6daecfee40d12c1", "bike_id": "4668c49b3d92d3bff6daecfee40d12c1", "fusion_lat": 0.0, "lon": -77.03164116666666, "type": "electric_scooter", "fusion_lon": 0.0, "lat": 38.89221466666667}, {"rental_uris": {"android": "https://dc.lft.to/lastmile_qr_scan", "ios": "https://dc.lft.to/lastmile_qr_scan"}, "is_reserved": 0, "is_disabled": 0, "name": "c37ddb48705f7c01dc53493189808f48", "bike_id": "c37ddb48705f7c01dc53493189808f48", "fusion_lat": 0.0, "lon": -76.9922465, "type": "electric_bike", "fusion_lon": 0.0, "lat": 38.89743716666667}, {"rental_uris": {"android": "https://dc.lft.to/lastmile_qr_scan", "ios": "https://dc.lft.to/lastmile_qr_scan"}, "is_reserved": 0, "is_disabled": 0, "name": "7ac43061bf5140af889a0c301437ce9a", "bike_id": "7ac43061bf5140af889a0c301437ce9a", "fusion_lat": 0.0, "lon": -77.04857316666667, "type": "electric_scooter", "fusion_lon": 0.0, "lat": 38.904085}, {"rental_uris": {"android": "https://dc.lft.to/lastmile_qr_scan", "ios": "https://dc.lft.to/lastmile_qr_scan"}, "is_reserved": 0, "is_disabled": 0, "name": "50029847db43dfdc3d64ad6a937baa0a", "bike_id": "50029847db43dfdc3d64ad6a937baa0a", "fusion_lat": 0.0, "lon": -77.04680133333333, "type": "electric_scooter", "fusion_lon": 0.0, "lat": 38.89737783333333}, {"rental_uris": {"android": "https://dc.lft.to/lastmile_qr_scan", "ios": "https://dc.lft.to/lastmile_qr_scan"}, "is_reserved": 0, "is_disabled": 0, "name": "3e7046e12359f1ea6fbdc34ed08a5373", "bike_id": "3e7046e12359f1ea6fbdc34ed08a5373", "fusion_lat": 0.0, "lon": -77.03016233333334, "type": "electric_scooter", "fusion_lon": 0.0, "lat": 38.895439333333336}, {"rental_uris": {"android": "https://dc.lft.to/lastmile_qr_scan", "ios": "https://dc.lft.to/lastmile_qr_scan"}, "is_reserved": 0, "is_disabled": 0, "name": "f3b5eac534d8514b3641b9b2bb0b3560", "bike_id": "f3b5eac534d8514b3641b9b2bb0b3560", "fusion_lat": 0.0, "lon": -76.983738, "type": "electric_scooter", "fusion_lon": 0.0, "lat": 38.92220966666667}, {"rental_uris": {"android": "https://dc.lft.to/lastmile_qr_scan", "ios": "https://dc.lft.to/lastmile_qr_scan"}, "is_reserved": 0, "is_disabled": 0, "name": "1d2a55de5af2851b2d7aff37f278c247", "bike_id": "1d2a55de5af2851b2d7aff37f278c247", "fusion_lat": 0.0, "lon": -76.91726116666666, "type": "electric_bike", "fusion_lon": 0.0, "lat": 38.880235}, {"rental_uris": {"android": "https://dc.lft.to/lastmile_qr_scan", "ios": "https://dc.lft.to/lastmile_qr_scan"}, "is_reserved": 0, "is_disabled": 0, "name": "a81a99b95798fc74b5eb5bcad3ff06aa", "bike_id": "a81a99b95798fc74b5eb5bcad3ff06aa", "fusion_lat": 0.0, "lon": -77.01684816666666, "type": "electric_scooter", "fusion_lon": 0.0, "lat": 38.894678166666665}, {"rental_uris": {"android": "https://dc.lft.to/lastmile_qr_scan", "ios": "https://dc.lft.to/lastmile_qr_scan"}, "is_reserved": 0, "is_disabled": 0, "name": "32c9ef9673ef032b31611d30cd9ef238", "bike_id": "32c9ef9673ef032b31611d30cd9ef238", "fusion_lat": 0.0, "lon": -77.02489266666667, "type": "electric_scooter", "fusion_lon": 0.0, "lat": 38.923981833333336}, {"rental_uris": {"android": "https://dc.lft.to/lastmile_qr_scan", "ios": "https://dc.lft.to/lastmile_qr_scan"}, "is_reserved": 0, "is_disabled": 0, "name": "a32c30b06a287cf654ea56aefc72a280", "bike_id": "a32c30b06a287cf654ea56aefc72a280", "fusion_lat": 0.0, "lon": -77.03299866666667, "type": "electric_scooter", "fusion_lon": 0.0, "lat": 38.95614916666667}, {"rental_uris": {"android": "https://dc.lft.to/lastmile_qr_scan", "ios": "https://dc.lft.to/lastmile_qr_scan"}, "is_reserved": 0, "is_disabled": 0, "name": "5af21f98c79961276027153e4f63d4e1", "bike_id": "5af21f98c79961276027153e4f63d4e1", "fusion_lat": 0.0, "lon": -77.04240266666666, "type": "electric_scooter", "fusion_lon": 0.0, "lat": 38.921661666666665}, {"rental_uris": {"android": "https://dc.lft.to/lastmile_qr_scan", "ios": "https://dc.lft.to/lastmile_qr_scan"}, "is_reserved": 0, "is_disabled": 0, "name": "8bbc8761a5bf4089909b3c4c963f9c44", "bike_id": "8bbc8761a5bf4089909b3c4c963f9c44", "fusion_lat": 0.0, "lon": -77.04991166666667, "type": "electric_scooter", "fusion_lon": 0.0, "lat": 38.8983505}, {"rental_uris": {"android": "https://dc.lft.to/lastmile_qr_scan", "ios": "https://dc.lft.to/lastmile_qr_scan"}, "is_reserved": 0, "is_disabled": 0, "name": "67114b6cf6a12f9faeb28e5dec9493b8", "bike_id": "67114b6cf6a12f9faeb28e5dec9493b8", "fusion_lat": 0.0, "lon": -77.05067316666667, "type": "electric_scooter", "fusion_lon": 0.0, "lat": 38.90074833333333}, {"rental_uris": {"android": "https://dc.lft.to/lastmile_qr_scan", "ios": "https://dc.lft.to/lastmile_qr_scan"}, "is_reserved": 0, "is_disabled": 0, "name": "0a33966995f02f3e28de6b14c62af49a", "bike_id": "0a33966995f02f3e28de6b14c62af49a", "fusion_lat": 0.0, "lon": -77.01357383333334, "type": "electric_scooter", "fusion_lon": 0.0, "lat": 38.887389}, {"rental_uris": {"android": "https://dc.lft.to/lastmile_qr_scan", "ios": "https://dc.lft.to/lastmile_qr_scan"}, "is_reserved": 0, "is_disabled": 0, "name": "7bcb9c0319f5e7b8cd94772a7fdceaa2", "bike_id": "7bcb9c0319f5e7b8cd94772a7fdceaa2", "fusion_lat": 0.0, "lon": -76.98852066666667, "type": "electric_scooter", "fusion_lon": 0.0, "lat": 38.90021933333333}, {"rental_uris": {"android": "https://dc.lft.to/lastmile_qr_scan", "ios": "https://dc.lft.to/lastmile_qr_scan"}, "is_reserved": 0, "is_disabled": 0, "name": "79ec82c3a3b3d493cd7e1ee0ac3809ba", "bike_id": "79ec82c3a3b3d493cd7e1ee0ac3809ba", "fusion_lat": 0.0, "lon": -76.9796555, "type": "electric_bike", "fusion_lon": 0.0, "lat": 38.9203205}, {"rental_uris": {"android": "https://dc.lft.to/lastmile_qr_scan", "ios": "https://dc.lft.to/lastmile_qr_scan"}, "is_reserved": 0, "is_disabled": 0, "name": "19257fdd414d7d92a417c5de6d291a02", "bike_id": "19257fdd414d7d92a417c5de6d291a02", "fusion_lat": 0.0, "lon": -77.0518575, "type": "electric_scooter", "fusion_lon": 0.0, "lat": 38.924194666666665}, {"rental_uris": {"android": "https://dc.lft.to/lastmile_qr_scan", "ios": "https://dc.lft.to/lastmile_qr_scan"}, "is_reserved": 0, "is_disabled": 0, "name": "51cd5a8631d61fd0954a56daee1244e8", "bike_id": "51cd5a8631d61fd0954a56daee1244e8", "fusion_lat": 0.0, "lon": -76.94727016666667, "type": "electric_bike", "fusion_lon": 0.0, "lat": 38.9837415}, {"rental_uris": {"android": "https://dc.lft.to/lastmile_qr_scan", "ios": "https://dc.lft.to/lastmile_qr_scan"}, "is_reserved": 0, "is_disabled": 0, "name": "a62a2bd0a42e386e349a3d09d25663ca", "bike_id": "a62a2bd0a42e386e349a3d09d25663ca", "fusion_lat": 0.0, "lon": -77.02591283333334, "type": "electric_scooter", "fusion_lon": 0.0, "lat": 38.920293}, {"rental_uris": {"android": "https://dc.lft.to/lastmile_qr_scan", "ios": "https://dc.lft.to/lastmile_qr_scan"}, "is_reserved": 0, "is_disabled": 0, "name": "fa951e4b1c86609ae1893049e3eb7661", "bike_id": "fa951e4b1c86609ae1893049e3eb7661", "fusion_lat": 0.0, "lon": -77.02415366666666, "type": "electric_scooter", "fusion_lon": 0.0, "lat": 38.8943785}, {"rental_uris": {"android": "https://dc.lft.to/lastmile_qr_scan", "ios": "https://dc.lft.to/lastmile_qr_scan"}, "is_reserved": 0, "is_disabled": 0, "name": "8f0d49da4b9b688d18c99af8b62c063b", "bike_id": "8f0d49da4b9b688d18c99af8b62c063b", "fusion_lat": 0.0, "lon": -77.04588433333333, "type": "electric_scooter", "fusion_lon": 0.0, "lat": 38.91355083333333}, {"rental_uris": {"android": "https://dc.lft.to/lastmile_qr_scan", "ios": "https://dc.lft.to/lastmile_qr_scan"}, "is_reserved": 0, "is_disabled": 0, "name": "699ea6cd0e00871a611050f10b6aaa7f", "bike_id": "699ea6cd0e00871a611050f10b6aaa7f", "fusion_lat": 0.0, "lon": -77.01677266666667, "type": "electric_scooter", "fusion_lon": 0.0, "lat": 38.91747083333333}, {"rental_uris": {"android": "https://dc.lft.to/lastmile_qr_scan", "ios": "https://dc.lft.to/lastmile_qr_scan"}, "is_reserved": 0, "is_disabled": 0, "name": "eaae0fec6313eadecefafb9d901aa07a", "bike_id": "eaae0fec6313eadecefafb9d901aa07a", "fusion_lat": 0.0, "lon": -77.0452315, "type": "electric_scooter", "fusion_lon": 0.0, "lat": 38.921473166666665}, {"rental_uris": {"android": "https://dc.lft.to/lastmile_qr_scan", "ios": "https://dc.lft.to/lastmile_qr_scan"}, "is_reserved": 0, "is_disabled": 0, "name": "c6173306cdc50a32b67db4dde0d6c650", "bike_id": "c6173306cdc50a32b67db4dde0d6c650", "fusion_lat": 0.0, "lon": -77.05047966666666, "type": "electric_scooter", "fusion_lon": 0.0, "lat": 38.9235455}, {"rental_uris": {"android": "https://dc.lft.to/lastmile_qr_scan", "ios": "https://dc.lft.to/lastmile_qr_scan"}, "is_reserved": 0, "is_disabled": 0, "name": "2962e291b3363c1dd1aece1050521b97", "bike_id": "2962e291b3363c1dd1aece1050521b97", "fusion_lat": 0.0, "lon": -77.06327083333333, "type": "electric_scooter", "fusion_lon": 0.0, "lat": 38.94359}, {"rental_uris": {"android": "https://dc.lft.to/lastmile_qr_scan", "ios": "https://dc.lft.to/lastmile_qr_scan"}, "is_reserved": 0, "is_disabled": 0, "name": "b8968876e202d41320dfc055e3311a05", "bike_id": "b8968876e202d41320dfc055e3311a05", "fusion_lat": 0.0, "lon": -77.02693366666666, "type": "electric_scooter", "fusion_lon": 0.0, "lat": 38.902324666666665}, {"rental_uris": {"android": "https://dc.lft.to/lastmile_qr_scan", "ios": "https://dc.lft.to/lastmile_qr_scan"}, "is_reserved": 0, "is_disabled": 0, "name": "667444211d7ce5131725ca0fe4cff889", "bike_id": "667444211d7ce5131725ca0fe4cff889", "fusion_lat": 0.0, "lon": -77.01828583333334, "type": "electric_scooter", "fusion_lon": 0.0, "lat": 38.9029195}, {"rental_uris": {"android": "https://dc.lft.to/lastmile_qr_scan", "ios": "https://dc.lft.to/lastmile_qr_scan"}, "is_reserved": 0, "is_disabled": 0, "name": "27664da4974d792f768a27c07ceae32d", "bike_id": "27664da4974d792f768a27c07ceae32d", "fusion_lat": 0.0, "lon": -76.94086166666666, "type": "electric_scooter", "fusion_lon": 0.0, "lat": 38.89121733333333}, {"rental_uris": {"android": "https://dc.lft.to/lastmile_qr_scan", "ios": "https://dc.lft.to/lastmile_qr_scan"}, "is_reserved": 0, "is_disabled": 0, "name": "3a244aafb4181de7f3a9c6491ce46b14", "bike_id": "3a244aafb4181de7f3a9c6491ce46b14", "fusion_lat": 0.0, "lon": -77.04052, "type": "electric_scooter", "fusion_lon": 0.0, "lat": 38.90854133333333}, {"rental_uris": {"android": "https://dc.lft.to/lastmile_qr_scan", "ios": "https://dc.lft.to/lastmile_qr_scan"}, "is_reserved": 0, "is_disabled": 0, "name": "0200338bf75f2e57e91934bd33305c15", "bike_id": "0200338bf75f2e57e91934bd33305c15", "fusion_lat": 0.0, "lon": -77.023832, "type": "electric_scooter", "fusion_lon": 0.0, "lat": 38.9527105}, {"rental_uris": {"android": "https://dc.lft.to/lastmile_qr_scan", "ios": "https://dc.lft.to/lastmile_qr_scan"}, "is_reserved": 0, "is_disabled": 0, "name": "431dcf981789a050895824983390a549", "bike_id": "431dcf981789a050895824983390a549", "fusion_lat": 0.0, "lon": -77.04075983333334, "type": "electric_scooter", "fusion_lon": 0.0, "lat": 38.90369966666667}, {"rental_uris": {"android": "https://dc.lft.to/lastmile_qr_scan", "ios": "https://dc.lft.to/lastmile_qr_scan"}, "is_reserved": 0, "is_disabled": 0, "name": "eff12a7c6363b8367c4088dd6d165f3a", "bike_id": "eff12a7c6363b8367c4088dd6d165f3a", "fusion_lat": 0.0, "lon": -77.009123, "type": "electric_scooter", "fusion_lon": 0.0, "lat": 38.898948833333336}, {"rental_uris": {"android": "https://dc.lft.to/lastmile_qr_scan", "ios": "https://dc.lft.to/lastmile_qr_scan"}, "is_reserved": 0, "is_disabled": 0, "name": "0d97caa6aed3585daa9d8263d4449d75", "bike_id": "0d97caa6aed3585daa9d8263d4449d75", "fusion_lat": 0.0, "lon": -77.045412, "type": "electric_scooter", "fusion_lon": 0.0, "lat": 38.902728833333335}, {"rental_uris": {"android": "https://dc.lft.to/lastmile_qr_scan", "ios": "https://dc.lft.to/lastmile_qr_scan"}, "is_reserved": 0, "is_disabled": 0, "name": "fa39b1b188ee7f530e38e01c340b0531", "bike_id": "fa39b1b188ee7f530e38e01c340b0531", "fusion_lat": 0.0, "lon": -77.01518866666666, "type": "electric_scooter", "fusion_lon": 0.0, "lat": 38.8954685}, {"rental_uris": {"android": "https://dc.lft.to/lastmile_qr_scan", "ios": "https://dc.lft.to/lastmile_qr_scan"}, "is_reserved": 0, "is_disabled": 0, "name": "e75af2030faf2fdf04cd056945fee541", "bike_id": "e75af2030faf2fdf04cd056945fee541", "fusion_lat": 0.0, "lon": -77.0260765, "type": "electric_scooter", "fusion_lon": 0.0, "lat": 38.90047216666667}, {"rental_uris": {"android": "https://dc.lft.to/lastmile_qr_scan", "ios": "https://dc.lft.to/lastmile_qr_scan"}, "is_reserved": 0, "is_disabled": 0, "name": "3ca0332fd363066d2e375e3c50886e74", "bike_id": "3ca0332fd363066d2e375e3c50886e74", "fusion_lat": 0.0, "lon": -77.034425, "type": "electric_scooter", "fusion_lon": 0.0, "lat": 38.9026045}, {"rental_uris": {"android": "https://dc.lft.to/lastmile_qr_scan", "ios": "https://dc.lft.to/lastmile_qr_scan"}, "is_reserved": 0, "is_disabled": 0, "name": "cbea82d9f3659998e07005f6e728393b", "bike_id": "cbea82d9f3659998e07005f6e728393b", "fusion_lat": 0.0, "lon": -77.05325633333334, "type": "electric_scooter", "fusion_lon": 0.0, "lat": 38.9052825}, {"rental_uris": {"android": "https://dc.lft.to/lastmile_qr_scan", "ios": "https://dc.lft.to/lastmile_qr_scan"}, "is_reserved": 0, "is_disabled": 0, "name": "3f17ca321e6b6300f9c01c49b0da2fb1", "bike_id": "3f17ca321e6b6300f9c01c49b0da2fb1", "fusion_lat": 0.0, "lon": -77.03354633333333, "type": "electric_scooter", "fusion_lon": 0.0, "lat": 38.935702666666664}, {"rental_uris": {"android": "https://dc.lft.to/lastmile_qr_scan", "ios": "https://dc.lft.to/lastmile_qr_scan"}, "is_reserved": 0, "is_disabled": 0, "name": "98e3c21f1999ef037ddf87946ee25a67", "bike_id": "98e3c21f1999ef037ddf87946ee25a67", "fusion_lat": 0.0, "lon": -77.02579116666666, "type": "electric_scooter", "fusion_lon": 0.0, "lat": 38.899889}, {"rental_uris": {"android": "https://dc.lft.to/lastmile_qr_scan", "ios": "https://dc.lft.to/lastmile_qr_scan"}, "is_reserved": 0, "is_disabled": 0, "name": "fb9f77fde151de250c710846c2c1ad39", "bike_id": "fb9f77fde151de250c710846c2c1ad39", "fusion_lat": 0.0, "lon": -77.04517133333333, "type": "electric_scooter", "fusion_lon": 0.0, "lat": 38.912785166666666}, {"rental_uris": {"android": "https://dc.lft.to/lastmile_qr_scan", "ios": "https://dc.lft.to/lastmile_qr_scan"}, "is_reserved": 0, "is_disabled": 0, "name": "62bc176c0d7d1b29dab227e0630a1eac", "bike_id": "62bc176c0d7d1b29dab227e0630a1eac", "fusion_lat": 0.0, "lon": -77.04017016666667, "type": "electric_scooter", "fusion_lon": 0.0, "lat": 38.9184235}, {"rental_uris": {"android": "https://dc.lft.to/lastmile_qr_scan", "ios": "https://dc.lft.to/lastmile_qr_scan"}, "is_reserved": 0, "is_disabled": 0, "name": "9b15abc306e800a59602c3b4cb7a1860", "bike_id": "9b15abc306e800a59602c3b4cb7a1860", "fusion_lat": 0.0, "lon": -77.0338175, "type": "electric_scooter", "fusion_lon": 0.0, "lat": 38.90116066666667}, {"rental_uris": {"android": "https://dc.lft.to/lastmile_qr_scan", "ios": "https://dc.lft.to/lastmile_qr_scan"}, "is_reserved": 0, "is_disabled": 0, "name": "c1658020d541f422ef6cfa2a4dc18b59", "bike_id": "c1658020d541f422ef6cfa2a4dc18b59", "fusion_lat": 0.0, "lon": -77.06796266666667, "type": "electric_scooter", "fusion_lon": 0.0, "lat": 38.9156005}, {"rental_uris": {"android": "https://dc.lft.to/lastmile_qr_scan", "ios": "https://dc.lft.to/lastmile_qr_scan"}, "is_reserved": 0, "is_disabled": 0, "name": "39ddab42f5a1363b0f9a2f124f6dbcc3", "bike_id": "39ddab42f5a1363b0f9a2f124f6dbcc3", "fusion_lat": 0.0, "lon": -77.03175333333333, "type": "electric_scooter", "fusion_lon": 0.0, "lat": 38.914138333333334}, {"rental_uris": {"android": "https://dc.lft.to/lastmile_qr_scan", "ios": "https://dc.lft.to/lastmile_qr_scan"}, "is_reserved": 0, "is_disabled": 0, "name": "4663b5a5f1ce71a3f40399c86cbdeb08", "bike_id": "4663b5a5f1ce71a3f40399c86cbdeb08", "fusion_lat": 0.0, "lon": -77.085294, "type": "electric_bike", "fusion_lon": 0.0, "lat": 38.85645783333333}, {"rental_uris": {"android": "https://dc.lft.to/lastmile_qr_scan", "ios": "https://dc.lft.to/lastmile_qr_scan"}, "is_reserved": 0, "is_disabled": 0, "name": "b0370151da87ecf3d1f5c64d47fd028f", "bike_id": "b0370151da87ecf3d1f5c64d47fd028f", "fusion_lat": 0.0, "lon": -77.006087, "type": "electric_scooter", "fusion_lon": 0.0, "lat": 38.90597833333333}, {"rental_uris": {"android": "https://dc.lft.to/lastmile_qr_scan", "ios": "https://dc.lft.to/lastmile_qr_scan"}, "is_reserved": 0, "is_disabled": 0, "name": "3b205adef499904779496193806b84d6", "bike_id": "3b205adef499904779496193806b84d6", "fusion_lat": 0.0, "lon": -77.02010733333333, "type": "electric_scooter", "fusion_lon": 0.0, "lat": 38.89477183333333}, {"rental_uris": {"android": "https://dc.lft.to/lastmile_qr_scan", "ios": "https://dc.lft.to/lastmile_qr_scan"}, "is_reserved": 0, "is_disabled": 0, "name": "31a78dc3afb3bda97101b5e2a524645a", "bike_id": "31a78dc3afb3bda97101b5e2a524645a", "fusion_lat": 0.0, "lon": -77.042407, "type": "electric_scooter", "fusion_lon": 0.0, "lat": 38.9221}, {"rental_uris": {"android": "https://dc.lft.to/lastmile_qr_scan", "ios": "https://dc.lft.to/lastmile_qr_scan"}, "is_reserved": 0, "is_disabled": 0, "name": "c78fa4b61cb1a33a94a364ac4592e983", "bike_id": "c78fa4b61cb1a33a94a364ac4592e983", "fusion_lat": 0.0, "lon": -77.04631066666667, "type": "electric_scooter", "fusion_lon": 0.0, "lat": 38.90954083333333}, {"rental_uris": {"android": "https://dc.lft.to/lastmile_qr_scan", "ios": "https://dc.lft.to/lastmile_qr_scan"}, "is_reserved": 0, "is_disabled": 0, "name": "72a275b210eaa037f865883e4093651e", "bike_id": "72a275b210eaa037f865883e4093651e", "fusion_lat": 0.0, "lon": -77.027772, "type": "electric_scooter", "fusion_lon": 0.0, "lat": 38.953028833333335}, {"rental_uris": {"android": "https://dc.lft.to/lastmile_qr_scan", "ios": "https://dc.lft.to/lastmile_qr_scan"}, "is_reserved": 0, "is_disabled": 0, "name": "4122c04f335e936520ff6f345ce45fb7", "bike_id": "4122c04f335e936520ff6f345ce45fb7", "fusion_lat": 0.0, "lon": -77.01784566666667, "type": "electric_scooter", "fusion_lon": 0.0, "lat": 38.898609666666665}, {"rental_uris": {"android": "https://dc.lft.to/lastmile_qr_scan", "ios": "https://dc.lft.to/lastmile_qr_scan"}, "is_reserved": 0, "is_disabled": 0, "name": "c4f1ca3751711ce73352a2fa2b3ec737", "bike_id": "c4f1ca3751711ce73352a2fa2b3ec737", "fusion_lat": 0.0, "lon": -77.02134633333333, "type": "electric_scooter", "fusion_lon": 0.0, "lat": 38.9240845}, {"rental_uris": {"android": "https://dc.lft.to/lastmile_qr_scan", "ios": "https://dc.lft.to/lastmile_qr_scan"}, "is_reserved": 0, "is_disabled": 0, "name": "9111c6cdf86a07e870f3e02447dae21e", "bike_id": "9111c6cdf86a07e870f3e02447dae21e", "fusion_lat": 0.0, "lon": -77.0237665, "type": "electric_scooter", "fusion_lon": 0.0, "lat": 38.89225833333333}, {"rental_uris": {"android": "https://dc.lft.to/lastmile_qr_scan", "ios": "https://dc.lft.to/lastmile_qr_scan"}, "is_reserved": 0, "is_disabled": 0, "name": "71109111955fe72969ab30cd86c1e457", "bike_id": "71109111955fe72969ab30cd86c1e457", "fusion_lat": 0.0, "lon": -77.03982916666666, "type": "electric_scooter", "fusion_lon": 0.0, "lat": 38.9014405}, {"rental_uris": {"android": "https://dc.lft.to/lastmile_qr_scan", "ios": "https://dc.lft.to/lastmile_qr_scan"}, "is_reserved": 0, "is_disabled": 0, "name": "98fa89d476456aa483e97d8991afadba", "bike_id": "98fa89d476456aa483e97d8991afadba", "fusion_lat": 0.0, "lon": -77.03283533333334, "type": "electric_scooter", "fusion_lon": 0.0, "lat": 38.89830366666666}, {"rental_uris": {"android": "https://dc.lft.to/lastmile_qr_scan", "ios": "https://dc.lft.to/lastmile_qr_scan"}, "is_reserved": 0, "is_disabled": 0, "name": "a90c65bfe1c0b6dc623e3f2ff5c452b0", "bike_id": "a90c65bfe1c0b6dc623e3f2ff5c452b0", "fusion_lat": 0.0, "lon": -77.00973883333333, "type": "electric_scooter", "fusion_lon": 0.0, "lat": 38.917024833333336}, {"rental_uris": {"android": "https://dc.lft.to/lastmile_qr_scan", "ios": "https://dc.lft.to/lastmile_qr_scan"}, "is_reserved": 0, "is_disabled": 0, "name": "70e3f160579ef2692d63cf445b840228", "bike_id": "70e3f160579ef2692d63cf445b840228", "fusion_lat": 0.0, "lon": -77.04220183333334, "type": "electric_scooter", "fusion_lon": 0.0, "lat": 38.90762816666667}, {"rental_uris": {"android": "https://dc.lft.to/lastmile_qr_scan", "ios": "https://dc.lft.to/lastmile_qr_scan"}, "is_reserved": 0, "is_disabled": 0, "name": "e8222b8a66a35e58cd3db35311abe149", "bike_id": "e8222b8a66a35e58cd3db35311abe149", "fusion_lat": 0.0, "lon": -77.02483033333333, "type": "electric_scooter", "fusion_lon": 0.0, "lat": 38.91810433333333}, {"rental_uris": {"android": "https://dc.lft.to/lastmile_qr_scan", "ios": "https://dc.lft.to/lastmile_qr_scan"}, "is_reserved": 0, "is_disabled": 0, "name": "9493a011ab958bd62f0c3897f25d8ce7", "bike_id": "9493a011ab958bd62f0c3897f25d8ce7", "fusion_lat": 0.0, "lon": -77.02037566666667, "type": "electric_scooter", "fusion_lon": 0.0, "lat": 38.922071333333335}, {"rental_uris": {"android": "https://dc.lft.to/lastmile_qr_scan", "ios": "https://dc.lft.to/lastmile_qr_scan"}, "is_reserved": 0, "is_disabled": 0, "name": "d8ea484e6731a023eb74fa7515df7d23", "bike_id": "d8ea484e6731a023eb74fa7515df7d23", "fusion_lat": 0.0, "lon": -77.02410866666666, "type": "electric_scooter", "fusion_lon": 0.0, "lat": 38.90179766666667}, {"rental_uris": {"android": "https://dc.lft.to/lastmile_qr_scan", "ios": "https://dc.lft.to/lastmile_qr_scan"}, "is_reserved": 0, "is_disabled": 0, "name": "756dd6aca295c7d33bda806947df0a59", "bike_id": "756dd6aca295c7d33bda806947df0a59", "fusion_lat": 0.0, "lon": -76.98845016666667, "type": "electric_scooter", "fusion_lon": 0.0, "lat": 38.900393}, {"rental_uris": {"android": "https://dc.lft.to/lastmile_qr_scan", "ios": "https://dc.lft.to/lastmile_qr_scan"}, "is_reserved": 0, "is_disabled": 0, "name": "ee1b48de696799f43d6202f0be11ff57", "bike_id": "ee1b48de696799f43d6202f0be11ff57", "fusion_lat": 0.0, "lon": -77.03211983333334, "type": "electric_scooter", "fusion_lon": 0.0, "lat": 38.892229666666665}, {"rental_uris": {"android": "https://dc.lft.to/lastmile_qr_scan", "ios": "https://dc.lft.to/lastmile_qr_scan"}, "is_reserved": 0, "is_disabled": 0, "name": "a17aba513cda88bf9df0c612dd234204", "bike_id": "a17aba513cda88bf9df0c612dd234204", "fusion_lat": 0.0, "lon": -77.0387305, "type": "electric_scooter", "fusion_lon": 0.0, "lat": 38.90813816666667}, {"rental_uris": {"android": "https://dc.lft.to/lastmile_qr_scan", "ios": "https://dc.lft.to/lastmile_qr_scan"}, "is_reserved": 0, "is_disabled": 0, "name": "592eabfb0eab0d73432f6727852c78cc", "bike_id": "592eabfb0eab0d73432f6727852c78cc", "fusion_lat": 0.0, "lon": -77.06537033333333, "type": "electric_bike", "fusion_lon": 0.0, "lat": 38.99226316666667}, {"rental_uris": {"android": "https://dc.lft.to/lastmile_qr_scan", "ios": "https://dc.lft.to/lastmile_qr_scan"}, "is_reserved": 0, "is_disabled": 0, "name": "8169c7a63c00df5c9c372ff3bbe6d81c", "bike_id": "8169c7a63c00df5c9c372ff3bbe6d81c", "fusion_lat": 0.0, "lon": -77.025008, "type": "electric_scooter", "fusion_lon": 0.0, "lat": 38.92587016666667}, {"rental_uris": {"android": "https://dc.lft.to/lastmile_qr_scan", "ios": "https://dc.lft.to/lastmile_qr_scan"}, "is_reserved": 0, "is_disabled": 0, "name": "971842803621f7f8f00738490dfd780a", "bike_id": "971842803621f7f8f00738490dfd780a", "fusion_lat": 0.0, "lon": -77.0273125, "type": "electric_scooter", "fusion_lon": 0.0, "lat": 38.898563}, {"rental_uris": {"android": "https://dc.lft.to/lastmile_qr_scan", "ios": "https://dc.lft.to/lastmile_qr_scan"}, "is_reserved": 0, "is_disabled": 0, "name": "32f628f13ad844de72c56e9bb905c0e5", "bike_id": "32f628f13ad844de72c56e9bb905c0e5", "fusion_lat": 0.0, "lon": -77.03655066666667, "type": "electric_scooter", "fusion_lon": 0.0, "lat": 38.93602583333333}, {"rental_uris": {"android": "https://dc.lft.to/lastmile_qr_scan", "ios": "https://dc.lft.to/lastmile_qr_scan"}, "is_reserved": 0, "is_disabled": 0, "name": "fda62c3a82ff25c29ccfbe0ad3da5b34", "bike_id": "fda62c3a82ff25c29ccfbe0ad3da5b34", "fusion_lat": 0.0, "lon": -76.97723466666666, "type": "electric_scooter", "fusion_lon": 0.0, "lat": 38.88820883333333}, {"rental_uris": {"android": "https://dc.lft.to/lastmile_qr_scan", "ios": "https://dc.lft.to/lastmile_qr_scan"}, "is_reserved": 0, "is_disabled": 0, "name": "2df9a85e1dd7246f2b1224e6040e7ff8", "bike_id": "2df9a85e1dd7246f2b1224e6040e7ff8", "fusion_lat": 0.0, "lon": -77.0422945, "type": "electric_scooter", "fusion_lon": 0.0, "lat": 38.899977666666665}, {"rental_uris": {"android": "https://dc.lft.to/lastmile_qr_scan", "ios": "https://dc.lft.to/lastmile_qr_scan"}, "is_reserved": 0, "is_disabled": 0, "name": "2c76c3c2284e63af354a044a2ce08bfa", "bike_id": "2c76c3c2284e63af354a044a2ce08bfa", "fusion_lat": 0.0, "lon": -77.043365, "type": "electric_scooter", "fusion_lon": 0.0, "lat": 38.898680666666664}, {"rental_uris": {"android": "https://dc.lft.to/lastmile_qr_scan", "ios": "https://dc.lft.to/lastmile_qr_scan"}, "is_reserved": 0, "is_disabled": 0, "name": "822e596f13c148bdbc97544804df930b", "bike_id": "822e596f13c148bdbc97544804df930b", "fusion_lat": 0.0, "lon": -77.0589555, "type": "electric_scooter", "fusion_lon": 0.0, "lat": 38.936023666666664}, {"rental_uris": {"android": "https://dc.lft.to/lastmile_qr_scan", "ios": "https://dc.lft.to/lastmile_qr_scan"}, "is_reserved": 0, "is_disabled": 0, "name": "d30fd9b639cbd902a659c5ba82103270", "bike_id": "d30fd9b639cbd902a659c5ba82103270", "fusion_lat": 0.0, "lon": -77.02351833333333, "type": "electric_scooter", "fusion_lon": 0.0, "lat": 38.88132733333333}, {"rental_uris": {"android": "https://dc.lft.to/lastmile_qr_scan", "ios": "https://dc.lft.to/lastmile_qr_scan"}, "is_reserved": 0, "is_disabled": 0, "name": "f2e0665b240aad9337c2be6abb61d5bd", "bike_id": "f2e0665b240aad9337c2be6abb61d5bd", "fusion_lat": 0.0, "lon": -77.04406283333333, "type": "electric_scooter", "fusion_lon": 0.0, "lat": 38.929499666666665}, {"rental_uris": {"android": "https://dc.lft.to/lastmile_qr_scan", "ios": "https://dc.lft.to/lastmile_qr_scan"}, "is_reserved": 0, "is_disabled": 0, "name": "cf66acf8145195db1305e388c0ec889d", "bike_id": "cf66acf8145195db1305e388c0ec889d", "fusion_lat": 0.0, "lon": -77.0457065, "type": "electric_scooter", "fusion_lon": 0.0, "lat": 38.900384333333335}, {"rental_uris": {"android": "https://dc.lft.to/lastmile_qr_scan", "ios": "https://dc.lft.to/lastmile_qr_scan"}, "is_reserved": 0, "is_disabled": 0, "name": "dfc448aad5d76e89da9cc80a6fc4ecf1", "bike_id": "dfc448aad5d76e89da9cc80a6fc4ecf1", "fusion_lat": 0.0, "lon": -76.98359883333333, "type": "electric_scooter", "fusion_lon": 0.0, "lat": 38.88730566666667}, {"rental_uris": {"android": "https://dc.lft.to/lastmile_qr_scan", "ios": "https://dc.lft.to/lastmile_qr_scan"}, "is_reserved": 0, "is_disabled": 0, "name": "74738fc69062a481335c205573ff7299", "bike_id": "74738fc69062a481335c205573ff7299", "fusion_lat": 0.0, "lon": -77.01918083333334, "type": "electric_scooter", "fusion_lon": 0.0, "lat": 38.921693833333336}, {"rental_uris": {"android": "https://dc.lft.to/lastmile_qr_scan", "ios": "https://dc.lft.to/lastmile_qr_scan"}, "is_reserved": 0, "is_disabled": 0, "name": "20b4b1ed2f2c08add722265197a16659", "bike_id": "20b4b1ed2f2c08add722265197a16659", "fusion_lat": 0.0, "lon": -77.0140475, "type": "electric_scooter", "fusion_lon": 0.0, "lat": 38.92818116666667}, {"rental_uris": {"android": "https://dc.lft.to/lastmile_qr_scan", "ios": "https://dc.lft.to/lastmile_qr_scan"}, "is_reserved": 0, "is_disabled": 0, "name": "2ab88d343be6ad769ad7429cf1cccc2e", "bike_id": "2ab88d343be6ad769ad7429cf1cccc2e", "fusion_lat": 0.0, "lon": -77.043299, "type": "electric_bike", "fusion_lon": 0.0, "lat": 38.89508433333334}, {"rental_uris": {"android": "https://dc.lft.to/lastmile_qr_scan", "ios": "https://dc.lft.to/lastmile_qr_scan"}, "is_reserved": 0, "is_disabled": 0, "name": "a72af76bade89fdce62ee070ea6cccaf", "bike_id": "a72af76bade89fdce62ee070ea6cccaf", "fusion_lat": 0.0, "lon": -77.0305615, "type": "electric_scooter", "fusion_lon": 0.0, "lat": 38.91257683333333}, {"rental_uris": {"android": "https://dc.lft.to/lastmile_qr_scan", "ios": "https://dc.lft.to/lastmile_qr_scan"}, "is_reserved": 0, "is_disabled": 0, "name": "2ec4f9104e1f17de34085d108b307a9c", "bike_id": "2ec4f9104e1f17de34085d108b307a9c", "fusion_lat": 0.0, "lon": -77.04999566666666, "type": "electric_scooter", "fusion_lon": 0.0, "lat": 38.8982995}, {"rental_uris": {"android": "https://dc.lft.to/lastmile_qr_scan", "ios": "https://dc.lft.to/lastmile_qr_scan"}, "is_reserved": 0, "is_disabled": 0, "name": "d6bfb535164a804e217dd2a661657c3e", "bike_id": "d6bfb535164a804e217dd2a661657c3e", "fusion_lat": 0.0, "lon": -77.03955533333334, "type": "electric_scooter", "fusion_lon": 0.0, "lat": 38.908196}, {"rental_uris": {"android": "https://dc.lft.to/lastmile_qr_scan", "ios": "https://dc.lft.to/lastmile_qr_scan"}, "is_reserved": 0, "is_disabled": 0, "name": "fa4b52c4ea343a97cb87fcccbbef2fe1", "bike_id": "fa4b52c4ea343a97cb87fcccbbef2fe1", "fusion_lat": 0.0, "lon": -77.0048535, "type": "electric_scooter", "fusion_lon": 0.0, "lat": 38.87457216666667}, {"rental_uris": {"android": "https://dc.lft.to/lastmile_qr_scan", "ios": "https://dc.lft.to/lastmile_qr_scan"}, "is_reserved": 0, "is_disabled": 0, "name": "b719e2510ed244368792a5ba0d34da05", "bike_id": "b719e2510ed244368792a5ba0d34da05", "fusion_lat": 0.0, "lon": -77.02711666666667, "type": "electric_scooter", "fusion_lon": 0.0, "lat": 38.906797833333336}, {"rental_uris": {"android": "https://dc.lft.to/lastmile_qr_scan", "ios": "https://dc.lft.to/lastmile_qr_scan"}, "is_reserved": 0, "is_disabled": 0, "name": "8c52d76a52d012f131e48651846ddaec", "bike_id": "8c52d76a52d012f131e48651846ddaec", "fusion_lat": 0.0, "lon": -76.98694433333333, "type": "electric_bike", "fusion_lon": 0.0, "lat": 38.944636333333335}, {"rental_uris": {"android": "https://dc.lft.to/lastmile_qr_scan", "ios": "https://dc.lft.to/lastmile_qr_scan"}, "is_reserved": 0, "is_disabled": 0, "name": "74d54c51d7a77d1f23723f9a81c2e57a", "bike_id": "74d54c51d7a77d1f23723f9a81c2e57a", "fusion_lat": 0.0, "lon": -77.03466033333333, "type": "electric_scooter", "fusion_lon": 0.0, "lat": 38.92885316666667}, {"rental_uris": {"android": "https://dc.lft.to/lastmile_qr_scan", "ios": "https://dc.lft.to/lastmile_qr_scan"}, "is_reserved": 0, "is_disabled": 0, "name": "034ee3ae25d6bb1c03f95bdbddfacbcc", "bike_id": "034ee3ae25d6bb1c03f95bdbddfacbcc", "fusion_lat": 0.0, "lon": -77.03385733333333, "type": "electric_scooter", "fusion_lon": 0.0, "lat": 38.921645}, {"rental_uris": {"android": "https://dc.lft.to/lastmile_qr_scan", "ios": "https://dc.lft.to/lastmile_qr_scan"}, "is_reserved": 0, "is_disabled": 0, "name": "c309ad8a8c77c8d41631dd2400238816", "bike_id": "c309ad8a8c77c8d41631dd2400238816", "fusion_lat": 0.0, "lon": -77.04681833333333, "type": "electric_bike", "fusion_lon": 0.0, "lat": 38.901177}, {"rental_uris": {"android": "https://dc.lft.to/lastmile_qr_scan", "ios": "https://dc.lft.to/lastmile_qr_scan"}, "is_reserved": 0, "is_disabled": 0, "name": "42d42adb43b2719dafb9b69dedde0bef", "bike_id": "42d42adb43b2719dafb9b69dedde0bef", "fusion_lat": 0.0, "lon": -77.0331, "type": "electric_scooter", "fusion_lon": 0.0, "lat": 38.9215435}, {"rental_uris": {"android": "https://dc.lft.to/lastmile_qr_scan", "ios": "https://dc.lft.to/lastmile_qr_scan"}, "is_reserved": 0, "is_disabled": 0, "name": "5ad0263c01a5d46478e90202c8846773", "bike_id": "5ad0263c01a5d46478e90202c8846773", "fusion_lat": 0.0, "lon": -76.9321775, "type": "electric_scooter", "fusion_lon": 0.0, "lat": 38.8966515}, {"rental_uris": {"android": "https://dc.lft.to/lastmile_qr_scan", "ios": "https://dc.lft.to/lastmile_qr_scan"}, "is_reserved": 0, "is_disabled": 0, "name": "0a8b63bc19f674c754ec82993fef952c", "bike_id": "0a8b63bc19f674c754ec82993fef952c", "fusion_lat": 0.0, "lon": -77.02259466666666, "type": "electric_scooter", "fusion_lon": 0.0, "lat": 38.8959175}, {"rental_uris": {"android": "https://dc.lft.to/lastmile_qr_scan", "ios": "https://dc.lft.to/lastmile_qr_scan"}, "is_reserved": 0, "is_disabled": 0, "name": "49b3a8583c8beca8f0e4fe523f6ca365", "bike_id": "49b3a8583c8beca8f0e4fe523f6ca365", "fusion_lat": 0.0, "lon": -77.04277116666667, "type": "electric_scooter", "fusion_lon": 0.0, "lat": 38.91785}, {"rental_uris": {"android": "https://dc.lft.to/lastmile_qr_scan", "ios": "https://dc.lft.to/lastmile_qr_scan"}, "is_reserved": 0, "is_disabled": 0, "name": "3beb01d29379566cd4f65dc752b2fb64", "bike_id": "3beb01d29379566cd4f65dc752b2fb64", "fusion_lat": 0.0, "lon": -77.044871, "type": "electric_scooter", "fusion_lon": 0.0, "lat": 38.91057566666667}, {"rental_uris": {"android": "https://dc.lft.to/lastmile_qr_scan", "ios": "https://dc.lft.to/lastmile_qr_scan"}, "is_reserved": 0, "is_disabled": 0, "name": "985e6caeb060656dfa0c872f5902f8a5", "bike_id": "985e6caeb060656dfa0c872f5902f8a5", "fusion_lat": 0.0, "lon": -76.986414, "type": "electric_scooter", "fusion_lon": 0.0, "lat": 38.880380833333334}, {"rental_uris": {"android": "https://dc.lft.to/lastmile_qr_scan", "ios": "https://dc.lft.to/lastmile_qr_scan"}, "is_reserved": 0, "is_disabled": 0, "name": "555d1ec8b38eda05858ec9e8e92b791f", "bike_id": "555d1ec8b38eda05858ec9e8e92b791f", "fusion_lat": 0.0, "lon": -77.0279335, "type": "electric_scooter", "fusion_lon": 0.0, "lat": 38.962156666666665}, {"rental_uris": {"android": "https://dc.lft.to/lastmile_qr_scan", "ios": "https://dc.lft.to/lastmile_qr_scan"}, "is_reserved": 0, "is_disabled": 0, "name": "7ab87c7fc793d3cb8e6b221eb858829f", "bike_id": "7ab87c7fc793d3cb8e6b221eb858829f", "fusion_lat": 0.0, "lon": -77.05120566666666, "type": "electric_scooter", "fusion_lon": 0.0, "lat": 38.923444}, {"rental_uris": {"android": "https://dc.lft.to/lastmile_qr_scan", "ios": "https://dc.lft.to/lastmile_qr_scan"}, "is_reserved": 0, "is_disabled": 0, "name": "f5f5906881c4731d230651d3d55a2327", "bike_id": "f5f5906881c4731d230651d3d55a2327", "fusion_lat": 0.0, "lon": -77.0454035, "type": "electric_scooter", "fusion_lon": 0.0, "lat": 38.89955033333333}, {"rental_uris": {"android": "https://dc.lft.to/lastmile_qr_scan", "ios": "https://dc.lft.to/lastmile_qr_scan"}, "is_reserved": 0, "is_disabled": 0, "name": "87eb3d23733661952c084215ad761824", "bike_id": "87eb3d23733661952c084215ad761824", "fusion_lat": 0.0, "lon": -76.9909665, "type": "electric_bike", "fusion_lon": 0.0, "lat": 38.80472816666666}, {"rental_uris": {"android": "https://dc.lft.to/lastmile_qr_scan", "ios": "https://dc.lft.to/lastmile_qr_scan"}, "is_reserved": 0, "is_disabled": 0, "name": "ce8830d0c9ddfa5965a367b327f3ee03", "bike_id": "ce8830d0c9ddfa5965a367b327f3ee03", "fusion_lat": 0.0, "lon": -77.08024416666666, "type": "electric_bike", "fusion_lon": 0.0, "lat": 38.95768616666667}, {"rental_uris": {"android": "https://dc.lft.to/lastmile_qr_scan", "ios": "https://dc.lft.to/lastmile_qr_scan"}, "is_reserved": 0, "is_disabled": 0, "name": "08f5d8573b4a0ecddab99baff37fda42", "bike_id": "08f5d8573b4a0ecddab99baff37fda42", "fusion_lat": 0.0, "lon": -77.0982405, "type": "electric_bike", "fusion_lon": 0.0, "lat": 38.85014783333333}, {"rental_uris": {"android": "https://dc.lft.to/lastmile_qr_scan", "ios": "https://dc.lft.to/lastmile_qr_scan"}, "is_reserved": 0, "is_disabled": 0, "name": "02a05ea49e6c9ab0f571bea755a9098a", "bike_id": "02a05ea49e6c9ab0f571bea755a9098a", "fusion_lat": 0.0, "lon": -77.01960533333333, "type": "electric_scooter", "fusion_lon": 0.0, "lat": 38.92323483333333}, {"rental_uris": {"android": "https://dc.lft.to/lastmile_qr_scan", "ios": "https://dc.lft.to/lastmile_qr_scan"}, "is_reserved": 0, "is_disabled": 0, "name": "ff7c37e582e401ff14a41f0adba4897a", "bike_id": "ff7c37e582e401ff14a41f0adba4897a", "fusion_lat": 0.0, "lon": -77.049301, "type": "electric_scooter", "fusion_lon": 0.0, "lat": 38.89540366666667}, {"rental_uris": {"android": "https://dc.lft.to/lastmile_qr_scan", "ios": "https://dc.lft.to/lastmile_qr_scan"}, "is_reserved": 0, "is_disabled": 0, "name": "e1b9767b7431cfe0f94d4bd1945e7f44", "bike_id": "e1b9767b7431cfe0f94d4bd1945e7f44", "fusion_lat": 0.0, "lon": -77.065863, "type": "electric_scooter", "fusion_lon": 0.0, "lat": 38.90389016666666}, {"rental_uris": {"android": "https://dc.lft.to/lastmile_qr_scan", "ios": "https://dc.lft.to/lastmile_qr_scan"}, "is_reserved": 0, "is_disabled": 0, "name": "7fef1151d603d029e08fb02f153b5372", "bike_id": "7fef1151d603d029e08fb02f153b5372", "fusion_lat": 0.0, "lon": -77.050204, "type": "electric_scooter", "fusion_lon": 0.0, "lat": 38.897467666666664}, {"rental_uris": {"android": "https://dc.lft.to/lastmile_qr_scan", "ios": "https://dc.lft.to/lastmile_qr_scan"}, "is_reserved": 0, "is_disabled": 0, "name": "f4d5ccdc19e6f4ada56e3c4a0e553697", "bike_id": "f4d5ccdc19e6f4ada56e3c4a0e553697", "fusion_lat": 0.0, "lon": -77.01493733333334, "type": "electric_scooter", "fusion_lon": 0.0, "lat": 38.899654}, {"rental_uris": {"android": "https://dc.lft.to/lastmile_qr_scan", "ios": "https://dc.lft.to/lastmile_qr_scan"}, "is_reserved": 0, "is_disabled": 0, "name": "4c4b8aa82a827ce91419fe026b543901", "bike_id": "4c4b8aa82a827ce91419fe026b543901", "fusion_lat": 0.0, "lon": -77.0216285, "type": "electric_scooter", "fusion_lon": 0.0, "lat": 38.92607983333333}, {"rental_uris": {"android": "https://dc.lft.to/lastmile_qr_scan", "ios": "https://dc.lft.to/lastmile_qr_scan"}, "is_reserved": 0, "is_disabled": 0, "name": "605db4ddd89f797e7c4351ab3807e343", "bike_id": "605db4ddd89f797e7c4351ab3807e343", "fusion_lat": 0.0, "lon": -77.00195733333334, "type": "electric_scooter", "fusion_lon": 0.0, "lat": 38.902701}, {"rental_uris": {"android": "https://dc.lft.to/lastmile_qr_scan", "ios": "https://dc.lft.to/lastmile_qr_scan"}, "is_reserved": 0, "is_disabled": 0, "name": "bd5d2239eb9d2b1ca4d522e155006dab", "bike_id": "bd5d2239eb9d2b1ca4d522e155006dab", "fusion_lat": 0.0, "lon": -76.9834115, "type": "electric_scooter", "fusion_lon": 0.0, "lat": 38.900925}, {"rental_uris": {"android": "https://dc.lft.to/lastmile_qr_scan", "ios": "https://dc.lft.to/lastmile_qr_scan"}, "is_reserved": 0, "is_disabled": 0, "name": "68e5727d3fe253a08e4ca9e45aa8ea5d", "bike_id": "68e5727d3fe253a08e4ca9e45aa8ea5d", "fusion_lat": 0.0, "lon": -77.04843, "type": "electric_scooter", "fusion_lon": 0.0, "lat": 38.903755333333336}, {"rental_uris": {"android": "https://dc.lft.to/lastmile_qr_scan", "ios": "https://dc.lft.to/lastmile_qr_scan"}, "is_reserved": 0, "is_disabled": 0, "name": "2da1fdc69a90dbf490994f1ef0752df3", "bike_id": "2da1fdc69a90dbf490994f1ef0752df3", "fusion_lat": 0.0, "lon": -77.05518483333333, "type": "electric_scooter", "fusion_lon": 0.0, "lat": 38.9441425}, {"rental_uris": {"android": "https://dc.lft.to/lastmile_qr_scan", "ios": "https://dc.lft.to/lastmile_qr_scan"}, "is_reserved": 0, "is_disabled": 0, "name": "c422b31a22caaa800ba864c5c83a3fb0", "bike_id": "c422b31a22caaa800ba864c5c83a3fb0", "fusion_lat": 0.0, "lon": -77.00605416666667, "type": "electric_scooter", "fusion_lon": 0.0, "lat": 38.90648}, {"rental_uris": {"android": "https://dc.lft.to/lastmile_qr_scan", "ios": "https://dc.lft.to/lastmile_qr_scan"}, "is_reserved": 0, "is_disabled": 0, "name": "e1bad3f9d0b959a7917a8915ed4b9af3", "bike_id": "e1bad3f9d0b959a7917a8915ed4b9af3", "fusion_lat": 0.0, "lon": -77.01756516666667, "type": "electric_scooter", "fusion_lon": 0.0, "lat": 38.876878166666664}, {"rental_uris": {"android": "https://dc.lft.to/lastmile_qr_scan", "ios": "https://dc.lft.to/lastmile_qr_scan"}, "is_reserved": 0, "is_disabled": 0, "name": "76c6445ef050e2f13736ffdf7ad7b7f2", "bike_id": "76c6445ef050e2f13736ffdf7ad7b7f2", "fusion_lat": 0.0, "lon": -77.03190583333334, "type": "electric_scooter", "fusion_lon": 0.0, "lat": 38.9155985}, {"rental_uris": {"android": "https://dc.lft.to/lastmile_qr_scan", "ios": "https://dc.lft.to/lastmile_qr_scan"}, "is_reserved": 0, "is_disabled": 0, "name": "f9c82a16fd5702289c62556d09769d4e", "bike_id": "f9c82a16fd5702289c62556d09769d4e", "fusion_lat": 0.0, "lon": -77.0060875, "type": "electric_scooter", "fusion_lon": 0.0, "lat": 38.8717945}, {"rental_uris": {"android": "https://dc.lft.to/lastmile_qr_scan", "ios": "https://dc.lft.to/lastmile_qr_scan"}, "is_reserved": 0, "is_disabled": 0, "name": "496932b93b3c9183bff5b30189402444", "bike_id": "496932b93b3c9183bff5b30189402444", "fusion_lat": 0.0, "lon": -77.04517083333333, "type": "electric_scooter", "fusion_lon": 0.0, "lat": 38.904008833333336}, {"rental_uris": {"android": "https://dc.lft.to/lastmile_qr_scan", "ios": "https://dc.lft.to/lastmile_qr_scan"}, "is_reserved": 0, "is_disabled": 0, "name": "9f43a3dae88de31e88b8f9fdccdd6849", "bike_id": "9f43a3dae88de31e88b8f9fdccdd6849", "fusion_lat": 0.0, "lon": -77.04175233333333, "type": "electric_scooter", "fusion_lon": 0.0, "lat": 38.9051385}, {"rental_uris": {"android": "https://dc.lft.to/lastmile_qr_scan", "ios": "https://dc.lft.to/lastmile_qr_scan"}, "is_reserved": 0, "is_disabled": 0, "name": "ba52b442146e6248cf86fa987e870383", "bike_id": "ba52b442146e6248cf86fa987e870383", "fusion_lat": 0.0, "lon": -77.0331865, "type": "electric_scooter", "fusion_lon": 0.0, "lat": 38.9288615}, {"rental_uris": {"android": "https://dc.lft.to/lastmile_qr_scan", "ios": "https://dc.lft.to/lastmile_qr_scan"}, "is_reserved": 0, "is_disabled": 0, "name": "77fd870e10d844aa0dca56c66099ca97", "bike_id": "77fd870e10d844aa0dca56c66099ca97", "fusion_lat": 0.0, "lon": -77.04754733333333, "type": "electric_scooter", "fusion_lon": 0.0, "lat": 38.90047883333333}, {"rental_uris": {"android": "https://dc.lft.to/lastmile_qr_scan", "ios": "https://dc.lft.to/lastmile_qr_scan"}, "is_reserved": 0, "is_disabled": 0, "name": "76d546996e7729e0298619cad2afb277", "bike_id": "76d546996e7729e0298619cad2afb277", "fusion_lat": 0.0, "lon": -77.0213045, "type": "electric_scooter", "fusion_lon": 0.0, "lat": 38.88727216666667}, {"rental_uris": {"android": "https://dc.lft.to/lastmile_qr_scan", "ios": "https://dc.lft.to/lastmile_qr_scan"}, "is_reserved": 0, "is_disabled": 0, "name": "2995a17bd98448c6882dd6ba584540f5", "bike_id": "2995a17bd98448c6882dd6ba584540f5", "fusion_lat": 0.0, "lon": -77.02116083333334, "type": "electric_scooter", "fusion_lon": 0.0, "lat": 38.90600283333333}, {"rental_uris": {"android": "https://dc.lft.to/lastmile_qr_scan", "ios": "https://dc.lft.to/lastmile_qr_scan"}, "is_reserved": 0, "is_disabled": 0, "name": "2f203dd74d2125ccd9d7a24f3a43ff15", "bike_id": "2f203dd74d2125ccd9d7a24f3a43ff15", "fusion_lat": 0.0, "lon": -77.02784833333334, "type": "electric_scooter", "fusion_lon": 0.0, "lat": 38.962127333333335}, {"rental_uris": {"android": "https://dc.lft.to/lastmile_qr_scan", "ios": "https://dc.lft.to/lastmile_qr_scan"}, "is_reserved": 0, "is_disabled": 0, "name": "e9095b38daa6209ef348afd16aaa0f85", "bike_id": "e9095b38daa6209ef348afd16aaa0f85", "fusion_lat": 0.0, "lon": -77.04346733333334, "type": "electric_scooter", "fusion_lon": 0.0, "lat": 38.90383716666667}, {"rental_uris": {"android": "https://dc.lft.to/lastmile_qr_scan", "ios": "https://dc.lft.to/lastmile_qr_scan"}, "is_reserved": 0, "is_disabled": 0, "name": "4c11bcaf008789f1cd4fd1f2af5d5bbf", "bike_id": "4c11bcaf008789f1cd4fd1f2af5d5bbf", "fusion_lat": 0.0, "lon": -77.04488416666666, "type": "electric_scooter", "fusion_lon": 0.0, "lat": 38.899759833333334}, {"rental_uris": {"android": "https://dc.lft.to/lastmile_qr_scan", "ios": "https://dc.lft.to/lastmile_qr_scan"}, "is_reserved": 0, "is_disabled": 0, "name": "c6f3f6bb52da4b374983a51f446fa2b8", "bike_id": "c6f3f6bb52da4b374983a51f446fa2b8", "fusion_lat": 0.0, "lon": -77.0440225, "type": "electric_scooter", "fusion_lon": 0.0, "lat": 38.901442333333335}, {"rental_uris": {"android": "https://dc.lft.to/lastmile_qr_scan", "ios": "https://dc.lft.to/lastmile_qr_scan"}, "is_reserved": 0, "is_disabled": 0, "name": "d4e9e9e2cb4165fa04b255f8316d48ff", "bike_id": "d4e9e9e2cb4165fa04b255f8316d48ff", "fusion_lat": 0.0, "lon": -77.01815783333333, "type": "electric_scooter", "fusion_lon": 0.0, "lat": 38.913708}, {"rental_uris": {"android": "https://dc.lft.to/lastmile_qr_scan", "ios": "https://dc.lft.to/lastmile_qr_scan"}, "is_reserved": 0, "is_disabled": 0, "name": "5d1cec5335e7ed057b4af0f2607d576c", "bike_id": "5d1cec5335e7ed057b4af0f2607d576c", "fusion_lat": 0.0, "lon": -77.0229135, "type": "electric_scooter", "fusion_lon": 0.0, "lat": 38.8948315}, {"rental_uris": {"android": "https://dc.lft.to/lastmile_qr_scan", "ios": "https://dc.lft.to/lastmile_qr_scan"}, "is_reserved": 0, "is_disabled": 0, "name": "4477f3c0c53395b2cb43ff277d96aa31", "bike_id": "4477f3c0c53395b2cb43ff277d96aa31", "fusion_lat": 0.0, "lon": -77.02235183333333, "type": "electric_scooter", "fusion_lon": 0.0, "lat": 38.92477983333333}, {"rental_uris": {"android": "https://dc.lft.to/lastmile_qr_scan", "ios": "https://dc.lft.to/lastmile_qr_scan"}, "is_reserved": 0, "is_disabled": 0, "name": "000690cc58111282f989bef4ac7ae978", "bike_id": "000690cc58111282f989bef4ac7ae978", "fusion_lat": 0.0, "lon": -77.0309345, "type": "electric_scooter", "fusion_lon": 0.0, "lat": 38.895233}, {"rental_uris": {"android": "https://dc.lft.to/lastmile_qr_scan", "ios": "https://dc.lft.to/lastmile_qr_scan"}, "is_reserved": 0, "is_disabled": 0, "name": "aa9de2140ee1853539fda73ddf036f03", "bike_id": "aa9de2140ee1853539fda73ddf036f03", "fusion_lat": 0.0, "lon": -77.09667433333334, "type": "electric_bike", "fusion_lon": 0.0, "lat": 38.95216166666667}, {"rental_uris": {"android": "https://dc.lft.to/lastmile_qr_scan", "ios": "https://dc.lft.to/lastmile_qr_scan"}, "is_reserved": 0, "is_disabled": 0, "name": "9f986aba7f5a8b4bef9a98c6ebaaecc7", "bike_id": "9f986aba7f5a8b4bef9a98c6ebaaecc7", "fusion_lat": 0.0, "lon": -77.02350233333334, "type": "electric_scooter", "fusion_lon": 0.0, "lat": 38.935376833333336}, {"rental_uris": {"android": "https://dc.lft.to/lastmile_qr_scan", "ios": "https://dc.lft.to/lastmile_qr_scan"},