{"data": {"bikes": [{"type": "electric_scooter", "rental_uris": {"android": "https://dc.lft.to/lastmile_qr_scan", "ios": "https://dc.lft.to/lastmile_qr_scan"}, "fusion_lat": 0.0, "name": "d4c33376942d1d53d9df1c3378c97e45", "lon": -76.99897, "is_disabled": 0, "is_reserved": 0, "fusion_lon": 0.0, "bike_id": "d4c33376942d1d53d9df1c3378c97e45", "lat": 38.94819733333333}, {"type": "electric_scooter", "rental_uris": {"android": "https://dc.lft.to/lastmile_qr_scan", "ios": "https://dc.lft.to/lastmile_qr_scan"}, "fusion_lat": 0.0, "name": "07aedd451884938abbff0a7d5e9c3843", "lon": -77.04243916666667, "is_disabled": 0, "is_reserved": 0, "fusion_lon": 0.0, "bike_id": "07aedd451884938abbff0a7d5e9c3843", "lat": 38.921868333333336}, {"type": "electric_bike", "rental_uris": {"android": "https://dc.lft.to/lastmile_qr_scan", "ios": "https://dc.lft.to/lastmile_qr_scan"}, "fusion_lat": 0.0, "name": "cd5d70f7af0701da90998084df24486a", "lon": -77.13923833333334, "is_disabled": 0, "is_reserved": 0, "fusion_lon": 0.0, "bike_id": "cd5d70f7af0701da90998084df24486a", "lat": 38.8730215}, {"type": "electric_scooter", "rental_uris": {"android": "https://dc.lft.to/lastmile_qr_scan", "ios": "https://dc.lft.to/lastmile_qr_scan"}, "fusion_lat": 0.0, "name": "f1b8f589e62facb1e9215e6c0a55527a", "lon": -77.01902533333333, "is_disabled": 0, "is_reserved": 0, "fusion_lon": 0.0, "bike_id": "f1b8f589e62facb1e9215e6c0a55527a", "lat": 38.87854183333334}, {"type": "electric_scooter", "rental_uris": {"android": "https://dc.lft.to/lastmile_qr_scan", "ios": "https://dc.lft.to/lastmile_qr_scan"}, "fusion_lat": 0.0, "name": "4b2061bedd0b299dba68dd911e2131ff", "lon": -77.02086483333333, "is_disabled": 0, "is_reserved": 0, "fusion_lon": 0.0, "bike_id": "4b2061bedd0b299dba68dd911e2131ff", "lat": 38.88184733333333}, {"type": "electric_scooter", "rental_uris": {"android": "https://dc.lft.to/lastmile_qr_scan", "ios": "https://dc.lft.to/lastmile_qr_scan"}, "fusion_lat": 0.0, "name": "ba22c8872b6c1abfd1c9da47bcf7ad5a", "lon": -76.9308025, "is_disabled": 0, "is_reserved": 0, "fusion_lon": 0.0, "bike_id": "ba22c8872b6c1abfd1c9da47bcf7ad5a", "lat": 38.901670833333334}, {"type": "electric_scooter", "rental_uris": {"android": "https://dc.lft.to/lastmile_qr_scan", "ios": "https://dc.lft.to/lastmile_qr_scan"}, "fusion_lat": 0.0, "name": "5474a9675ff013a45649119df6b06609", "lon": -77.034604, "is_disabled": 0, "is_reserved": 0, "fusion_lon": 0.0, "bike_id": "5474a9675ff013a45649119df6b06609", "lat": 38.9056195}, {"type": "electric_bike", "rental_uris": {"android": "https://dc.lft.to/lastmile_qr_scan", "ios": "https://dc.lft.to/lastmile_qr_scan"}, "fusion_lat": 0.0, "name": "e9ab05d92496b8e77d78e440bbe0631d", "lon": -76.97206433333334, "is_disabled": 0, "is_reserved": 0, "fusion_lon": 0.0, "bike_id": "e9ab05d92496b8e77d78e440bbe0631d", "lat": 38.89292316666667}, {"type": "electric_scooter", "rental_uris": {"android": "https://dc.lft.to/lastmile_qr_scan", "ios": "https://dc.lft.to/lastmile_qr_scan"}, "fusion_lat": 0.0, "name": "2b86c17698eaa940d23780ceb4bcde8f", "lon": -77.04671666666667, "is_disabled": 0, "is_reserved": 0, "fusion_lon": 0.0, "bike_id": "2b86c17698eaa940d23780ceb4bcde8f", "lat": 38.89738833333333}, {"type": "electric_scooter", "rental_uris": {"android": "https://dc.lft.to/lastmile_qr_scan", "ios": "https://dc.lft.to/lastmile_qr_scan"}, "fusion_lat": 0.0, "name": "239fbf68bbb0659b3cd619483b122aff", "lon": -77.03643366666667, "is_disabled": 0, "is_reserved": 0, "fusion_lon": 0.0, "bike_id": "239fbf68bbb0659b3cd619483b122aff", "lat": 38.917398666666664}, {"type": "electric_scooter", "rental_uris": {"android": "https://dc.lft.to/lastmile_qr_scan", "ios": "https://dc.lft.to/lastmile_qr_scan"}, "fusion_lat": 0.0, "name": "795e695c9862eafc7bbcf6e63b034ad7", "lon": -76.999366, "is_disabled": 0, "is_reserved": 0, "fusion_lon": 0.0, "bike_id": "795e695c9862eafc7bbcf6e63b034ad7", "lat": 38.84301333333333}, {"type": "electric_scooter", "rental_uris": {"android": "https://dc.lft.to/lastmile_qr_scan", "ios": "https://dc.lft.to/lastmile_qr_scan"}, "fusion_lat": 0.0, "name": "c90bc032422615a35fc92e8f17400fc3", "lon": -76.99478683333334, "is_disabled": 0, "is_reserved": 0, "fusion_lon": 0.0, "bike_id": "c90bc032422615a35fc92e8f17400fc3", "lat": 38.86216533333333}, {"type": "electric_scooter", "rental_uris": {"android": "https://dc.lft.to/lastmile_qr_scan", "ios": "https://dc.lft.to/lastmile_qr_scan"}, "fusion_lat": 0.0, "name": "30a06e1f304cc7afe23512a291d024c1", "lon": -77.01786333333334, "is_disabled": 0, "is_reserved": 0, "fusion_lon": 0.0, "bike_id": "30a06e1f304cc7afe23512a291d024c1", "lat": 38.902464333333334}, {"type": "electric_scooter", "rental_uris": {"android": "https://dc.lft.to/lastmile_qr_scan", "ios": "https://dc.lft.to/lastmile_qr_scan"}, "fusion_lat": 0.0, "name": "30fbfcb14b571bec236c2a6e7adda483", "lon": -77.021637, "is_disabled": 0, "is_reserved": 0, "fusion_lon": 0.0, "bike_id": "30fbfcb14b571bec236c2a6e7adda483", "lat": 38.926129}, {"type": "electric_scooter", "rental_uris": {"android": "https://dc.lft.to/lastmile_qr_scan", "ios": "https://dc.lft.to/lastmile_qr_scan"}, "fusion_lat": 0.0, "name": "19d10317a5a2680861e8d58adb8c7da9", "lon": -77.027821, "is_disabled": 0, "is_reserved": 0, "fusion_lon": 0.0, "bike_id": "19d10317a5a2680861e8d58adb8c7da9", "lat": 38.897554166666666}, {"type": "electric_scooter", "rental_uris": {"android": "https://dc.lft.to/lastmile_qr_scan", "ios": "https://dc.lft.to/lastmile_qr_scan"}, "fusion_lat": 0.0, "name": "5201ed0e2776e917837ddb8d216e67dc", "lon": -77.04409716666666, "is_disabled": 0, "is_reserved": 0, "fusion_lon": 0.0, "bike_id": "5201ed0e2776e917837ddb8d216e67dc", "lat": 38.8952485}, {"type": "electric_scooter", "rental_uris": {"android": "https://dc.lft.to/lastmile_qr_scan", "ios": "https://dc.lft.to/lastmile_qr_scan"}, "fusion_lat": 0.0, "name": "30b9ca0014d0c2d9a1d179044dbf0142", "lon": -77.03846766666666, "is_disabled": 0, "is_reserved": 0, "fusion_lon": 0.0, "bike_id": "30b9ca0014d0c2d9a1d179044dbf0142", "lat": 38.9038055}, {"type": "electric_scooter", "rental_uris": {"android": "https://dc.lft.to/lastmile_qr_scan", "ios": "https://dc.lft.to/lastmile_qr_scan"}, "fusion_lat": 0.0, "name": "aa9f34a18e0ca9a12010894c7bffb8f7", "lon": -77.04559683333333, "is_disabled": 0, "is_reserved": 0, "fusion_lon": 0.0, "bike_id": "aa9f34a18e0ca9a12010894c7bffb8f7", "lat": 38.896095833333334}, {"type": "electric_scooter", "rental_uris": {"android": "https://dc.lft.to/lastmile_qr_scan", "ios": "https://dc.lft.to/lastmile_qr_scan"}, "fusion_lat": 0.0, "name": "1456cc948db2f478a1dd3718a23081c0", "lon": -77.028541, "is_disabled": 0, "is_reserved": 0, "fusion_lon": 0.0, "bike_id": "1456cc948db2f478a1dd3718a23081c0", "lat": 38.93344966666667}, {"type": "electric_scooter", "rental_uris": {"android": "https://dc.lft.to/lastmile_qr_scan", "ios": "https://dc.lft.to/lastmile_qr_scan"}, "fusion_lat": 0.0, "name": "276f8348db821d7a612f0a814f6cdcca", "lon": -76.99529083333333, "is_disabled": 0, "is_reserved": 0, "fusion_lon": 0.0, "bike_id": "276f8348db821d7a612f0a814f6cdcca", "lat": 38.88372116666667}, {"type": "electric_scooter", "rental_uris": {"android": "https://dc.lft.to/lastmile_qr_scan", "ios": "https://dc.lft.to/lastmile_qr_scan"}, "fusion_lat": 0.0, "name": "62637cd942b63e0232d3175058fbf73e", "lon": -77.01109733333334, "is_disabled": 0, "is_reserved": 0, "fusion_lon": 0.0, "bike_id": "62637cd942b63e0232d3175058fbf73e", "lat": 38.9035595}, {"type": "electric_scooter", "rental_uris": {"android": "https://dc.lft.to/lastmile_qr_scan", "ios": "https://dc.lft.to/lastmile_qr_scan"}, "fusion_lat": 0.0, "name": "53c43e090a0f64d20b771ee28d8a55db", "lon": -77.0130215, "is_disabled": 0, "is_reserved": 0, "fusion_lon": 0.0, "bike_id": "53c43e090a0f64d20b771ee28d8a55db", "lat": 38.93005983333333}, {"type": "electric_scooter", "rental_uris": {"android": "https://dc.lft.to/lastmile_qr_scan", "ios": "https://dc.lft.to/lastmile_qr_scan"}, "fusion_lat": 0.0, "name": "07fd456f47cd152b1b410f403d2e4f56", "lon": -77.02244483333334, "is_disabled": 0, "is_reserved": 0, "fusion_lon": 0.0, "bike_id": "07fd456f47cd152b1b410f403d2e4f56", "lat": 38.912737}, {"type": "electric_scooter", "rental_uris": {"android": "https://dc.lft.to/lastmile_qr_scan", "ios": "https://dc.lft.to/lastmile_qr_scan"}, "fusion_lat": 0.0, "name": "0b50cefba13949072fcf2f64655a8715", "lon": -77.03587566666667, "is_disabled": 0, "is_reserved": 0, "fusion_lon": 0.0, "bike_id": "0b50cefba13949072fcf2f64655a8715", "lat": 38.917047}, {"type": "electric_scooter", "rental_uris": {"android": "https://dc.lft.to/lastmile_qr_scan", "ios": "https://dc.lft.to/lastmile_qr_scan"}, "fusion_lat": 0.0, "name": "c81ae5ae05446758014c46ce1efbe150", "lon": -77.04664216666667, "is_disabled": 0, "is_reserved": 0, "fusion_lon": 0.0, "bike_id": "c81ae5ae05446758014c46ce1efbe150", "lat": 38.90434366666667}, {"type": "electric_scooter", "rental_uris": {"android": "https://dc.lft.to/lastmile_qr_scan", "ios": "https://dc.lft.to/lastmile_qr_scan"}, "fusion_lat": 0.0, "name": "3d3d61e216458e265d63970827c22a42", "lon": -77.00637516666667, "is_disabled": 0, "is_reserved": 0, "fusion_lon": 0.0, "bike_id": "3d3d61e216458e265d63970827c22a42", "lat": 38.956004}, {"type": "electric_bike", "rental_uris": {"android": "https://dc.lft.to/lastmile_qr_scan", "ios": "https://dc.lft.to/lastmile_qr_scan"}, "fusion_lat": 0.0, "name": "d3401c7bf7584f3a0b790e658ee06b6a", "lon": -76.968342, "is_disabled": 0, "is_reserved": 0, "fusion_lon": 0.0, "bike_id": "d3401c7bf7584f3a0b790e658ee06b6a", "lat": 38.943232}, {"type": "electric_scooter", "rental_uris": {"android": "https://dc.lft.to/lastmile_qr_scan", "ios": "https://dc.lft.to/lastmile_qr_scan"}, "fusion_lat": 0.0, "name": "90ec44b2965773c29eef246faaf4ce79", "lon": -77.02704983333334, "is_disabled": 0, "is_reserved": 0, "fusion_lon": 0.0, "bike_id": "90ec44b2965773c29eef246faaf4ce79", "lat": 38.92474333333333}, {"type": "electric_scooter", "rental_uris": {"android": "https://dc.lft.to/lastmile_qr_scan", "ios": "https://dc.lft.to/lastmile_qr_scan"}, "fusion_lat": 0.0, "name": "cbab1d7dcff654b74538b56a8b2c920b", "lon": -77.01806966666666, "is_disabled": 0, "is_reserved": 0, "fusion_lon": 0.0, "bike_id": "cbab1d7dcff654b74538b56a8b2c920b", "lat": 38.964828833333335}, {"type": "electric_scooter", "rental_uris": {"android": "https://dc.lft.to/lastmile_qr_scan", "ios": "https://dc.lft.to/lastmile_qr_scan"}, "fusion_lat": 0.0, "name": "56c864248d8218eb733ccc0be8c295dc", "lon": -76.98822216666667, "is_disabled": 0, "is_reserved": 0, "fusion_lon": 0.0, "bike_id": "56c864248d8218eb733ccc0be8c295dc", "lat": 38.890786}, {"type": "electric_scooter", "rental_uris": {"android": "https://dc.lft.to/lastmile_qr_scan", "ios": "https://dc.lft.to/lastmile_qr_scan"}, "fusion_lat": 0.0, "name": "c8b46092b2ca0f45532a0e4317ebd915", "lon": -77.04476166666667, "is_disabled": 0, "is_reserved": 0, "fusion_lon": 0.0, "bike_id": "c8b46092b2ca0f45532a0e4317ebd915", "lat": 38.910805833333335}, {"type": "electric_scooter", "rental_uris": {"android": "https://dc.lft.to/lastmile_qr_scan", "ios": "https://dc.lft.to/lastmile_qr_scan"}, "fusion_lat": 0.0, "name": "5de703e2a54088df3113e8f35b212b70", "lon": -77.04670416666667, "is_disabled": 0, "is_reserved": 0, "fusion_lon": 0.0, "bike_id": "5de703e2a54088df3113e8f35b212b70", "lat": 38.90379933333333}, {"type": "electric_scooter", "rental_uris": {"android": "https://dc.lft.to/lastmile_qr_scan", "ios": "https://dc.lft.to/lastmile_qr_scan"}, "fusion_lat": 0.0, "name": "974a77fba62a1cb2c24c834d13d304b4", "lon": -77.02307233333333, "is_disabled": 0, "is_reserved": 0, "fusion_lon": 0.0, "bike_id": "974a77fba62a1cb2c24c834d13d304b4", "lat": 38.90876316666667}, {"type": "electric_scooter", "rental_uris": {"android": "https://dc.lft.to/lastmile_qr_scan", "ios": "https://dc.lft.to/lastmile_qr_scan"}, "fusion_lat": 0.0, "name": "ec8369ffdd2b2a9e40efe616f8541b16", "lon": -77.01855516666667, "is_disabled": 0, "is_reserved": 0, "fusion_lon": 0.0, "bike_id": "ec8369ffdd2b2a9e40efe616f8541b16", "lat": 38.87339133333333}, {"type": "electric_scooter", "rental_uris": {"android": "https://dc.lft.to/lastmile_qr_scan", "ios": "https://dc.lft.to/lastmile_qr_scan"}, "fusion_lat": 0.0, "name": "942d83c9cf4fc16f79706c86c378c243", "lon": -77.034634, "is_disabled": 0, "is_reserved": 0, "fusion_lon": 0.0, "bike_id": "942d83c9cf4fc16f79706c86c378c243", "lat": 38.9170035}, {"type": "electric_bike", "rental_uris": {"android": "https://dc.lft.to/lastmile_qr_scan", "ios": "https://dc.lft.to/lastmile_qr_scan"}, "fusion_lat": 0.0, "name": "2423f5f18b85d6341d119651269f6279", "lon": -76.8840615, "is_disabled": 0, "is_reserved": 0, "fusion_lon": 0.0, "bike_id": "2423f5f18b85d6341d119651269f6279", "lat": 38.931703666666664}, {"type": "electric_bike", "rental_uris": {"android": "https://dc.lft.to/lastmile_qr_scan", "ios": "https://dc.lft.to/lastmile_qr_scan"}, "fusion_lat": 0.0, "name": "cedd321b041c348a650e2c788807de08", "lon": -77.04648216666666, "is_disabled": 0, "is_reserved": 0, "fusion_lon": 0.0, "bike_id": "cedd321b041c348a650e2c788807de08", "lat": 39.05500983333334}, {"type": "electric_scooter", "rental_uris": {"android": "https://dc.lft.to/lastmile_qr_scan", "ios": "https://dc.lft.to/lastmile_qr_scan"}, "fusion_lat": 0.0, "name": "490a912e3413927d5912c83569e038d1", "lon": -77.00474233333334, "is_disabled": 0, "is_reserved": 0, "fusion_lon": 0.0, "bike_id": "490a912e3413927d5912c83569e038d1", "lat": 38.89588083333334}, {"type": "electric_bike", "rental_uris": {"android": "https://dc.lft.to/lastmile_qr_scan", "ios": "https://dc.lft.to/lastmile_qr_scan"}, "fusion_lat": 0.0, "name": "588c8a92ed703618350ab50fc980f8c1", "lon": -77.16229816666667, "is_disabled": 0, "is_reserved": 0, "fusion_lon": 0.0, "bike_id": "588c8a92ed703618350ab50fc980f8c1", "lat": 38.886624}, {"type": "electric_scooter", "rental_uris": {"android": "https://dc.lft.to/lastmile_qr_scan", "ios": "https://dc.lft.to/lastmile_qr_scan"}, "fusion_lat": 0.0, "name": "a06cfe8ce7a204b5e0b21f14d4b22c1e", "lon": -76.956532, "is_disabled": 0, "is_reserved": 0, "fusion_lon": 0.0, "bike_id": "a06cfe8ce7a204b5e0b21f14d4b22c1e", "lat": 38.896118666666666}, {"type": "electric_scooter", "rental_uris": {"android": "https://dc.lft.to/lastmile_qr_scan", "ios": "https://dc.lft.to/lastmile_qr_scan"}, "fusion_lat": 0.0, "name": "629fc710b0d5457495ef4629a1457555", "lon": -77.01530916666667, "is_disabled": 0, "is_reserved": 0, "fusion_lon": 0.0, "bike_id": "629fc710b0d5457495ef4629a1457555", "lat": 38.926663833333336}, {"type": "electric_scooter", "rental_uris": {"android": "https://dc.lft.to/lastmile_qr_scan", "ios": "https://dc.lft.to/lastmile_qr_scan"}, "fusion_lat": 0.0, "name": "fcc724cad5cca2687f33525f76b60501", "lon": -77.05413316666667, "is_disabled": 0, "is_reserved": 0, "fusion_lon": 0.0, "bike_id": "fcc724cad5cca2687f33525f76b60501", "lat": 38.905213333333336}, {"type": "electric_scooter", "rental_uris": {"android": "https://dc.lft.to/lastmile_qr_scan", "ios": "https://dc.lft.to/lastmile_qr_scan"}, "fusion_lat": 0.0, "name": "4cb4ce18c3f4ddc62f6e2ac6a240dad6", "lon": -77.02712416666667, "is_disabled": 0, "is_reserved": 0, "fusion_lon": 0.0, "bike_id": "4cb4ce18c3f4ddc62f6e2ac6a240dad6", "lat": 38.90670333333333}, {"type": "electric_scooter", "rental_uris": {"android": "https://dc.lft.to/lastmile_qr_scan", "ios": "https://dc.lft.to/lastmile_qr_scan"}, "fusion_lat": 0.0, "name": "e49e9441f2c46530174c2e8aeac7482e", "lon": -77.03192716666666, "is_disabled": 0, "is_reserved": 0, "fusion_lon": 0.0, "bike_id": "e49e9441f2c46530174c2e8aeac7482e", "lat": 38.884160333333334}, {"type": "electric_scooter", "rental_uris": {"android": "https://dc.lft.to/lastmile_qr_scan", "ios": "https://dc.lft.to/lastmile_qr_scan"}, "fusion_lat": 0.0, "name": "a1385c60d577d8da593ba343a0efbde9", "lon": -77.018637, "is_disabled": 0, "is_reserved": 0, "fusion_lon": 0.0, "bike_id": "a1385c60d577d8da593ba343a0efbde9", "lat": 38.922646666666665}, {"type": "electric_scooter", "rental_uris": {"android": "https://dc.lft.to/lastmile_qr_scan", "ios": "https://dc.lft.to/lastmile_qr_scan"}, "fusion_lat": 0.0, "name": "0c6479fed5eb6f6a242ff9985fb0c0da", "lon": -77.026905, "is_disabled": 0, "is_reserved": 0, "fusion_lon": 0.0, "bike_id": "0c6479fed5eb6f6a242ff9985fb0c0da", "lat": 38.948915}, {"type": "electric_scooter", "rental_uris": {"android": "https://dc.lft.to/lastmile_qr_scan", "ios": "https://dc.lft.to/lastmile_qr_scan"}, "fusion_lat": 0.0, "name": "bd216590501b00fb1e62db574a17f0d7", "lon": -76.98617166666666, "is_disabled": 0, "is_reserved": 0, "fusion_lon": 0.0, "bike_id": "bd216590501b00fb1e62db574a17f0d7", "lat": 38.905875}, {"type": "electric_scooter", "rental_uris": {"android": "https://dc.lft.to/lastmile_qr_scan", "ios": "https://dc.lft.to/lastmile_qr_scan"}, "fusion_lat": 0.0, "name": "82642743b1a2dcc66996f8403d935505", "lon": -77.00139183333333, "is_disabled": 0, "is_reserved": 0, "fusion_lon": 0.0, "bike_id": "82642743b1a2dcc66996f8403d935505", "lat": 38.842854833333334}, {"type": "electric_scooter", "rental_uris": {"android": "https://dc.lft.to/lastmile_qr_scan", "ios": "https://dc.lft.to/lastmile_qr_scan"}, "fusion_lat": 0.0, "name": "70fe79d27b3e48efc9c7808203c75c9a", "lon": -77.01541283333333, "is_disabled": 0, "is_reserved": 0, "fusion_lon": 0.0, "bike_id": "70fe79d27b3e48efc9c7808203c75c9a", "lat": 38.88332583333333}, {"type": "electric_scooter", "rental_uris": {"android": "https://dc.lft.to/lastmile_qr_scan", "ios": "https://dc.lft.to/lastmile_qr_scan"}, "fusion_lat": 0.0, "name": "a0c0698f68ea39dffe8c37b89d389a17", "lon": -77.06363916666666, "is_disabled": 0, "is_reserved": 0, "fusion_lon": 0.0, "bike_id": "a0c0698f68ea39dffe8c37b89d389a17", "lat": 38.9082285}, {"type": "electric_scooter", "rental_uris": {"android": "https://dc.lft.to/lastmile_qr_scan", "ios": "https://dc.lft.to/lastmile_qr_scan"}, "fusion_lat": 0.0, "name": "24e5744fc55949545fc4a4a292e02e89", "lon": -76.95017266666666, "is_disabled": 0, "is_reserved": 0, "fusion_lon": 0.0, "bike_id": "24e5744fc55949545fc4a4a292e02e89", "lat": 38.8938725}, {"type": "electric_scooter", "rental_uris": {"android": "https://dc.lft.to/lastmile_qr_scan", "ios": "https://dc.lft.to/lastmile_qr_scan"}, "fusion_lat": 0.0, "name": "108374f391b0272a02a70ffbabfe68d5", "lon": -77.0375975, "is_disabled": 0, "is_reserved": 0, "fusion_lon": 0.0, "bike_id": "108374f391b0272a02a70ffbabfe68d5", "lat": 38.915597}, {"type": "electric_scooter", "rental_uris": {"android": "https://dc.lft.to/lastmile_qr_scan", "ios": "https://dc.lft.to/lastmile_qr_scan"}, "fusion_lat": 0.0, "name": "a374f8663c4fcc86c2b8b7219713abfd", "lon": -76.98541433333334, "is_disabled": 0, "is_reserved": 0, "fusion_lon": 0.0, "bike_id": "a374f8663c4fcc86c2b8b7219713abfd", "lat": 38.910219}, {"type": "electric_scooter", "rental_uris": {"android": "https://dc.lft.to/lastmile_qr_scan", "ios": "https://dc.lft.to/lastmile_qr_scan"}, "fusion_lat": 0.0, "name": "67220545fbe9fc83e3beec92a794c10d", "lon": -76.9646715, "is_disabled": 0, "is_reserved": 0, "fusion_lon": 0.0, "bike_id": "67220545fbe9fc83e3beec92a794c10d", "lat": 38.934465}, {"type": "electric_scooter", "rental_uris": {"android": "https://dc.lft.to/lastmile_qr_scan", "ios": "https://dc.lft.to/lastmile_qr_scan"}, "fusion_lat": 0.0, "name": "bfc92e654e03ffc24c4103dad2211e55", "lon": -77.02374133333333, "is_disabled": 0, "is_reserved": 0, "fusion_lon": 0.0, "bike_id": "bfc92e654e03ffc24c4103dad2211e55", "lat": 38.879284}, {"type": "electric_scooter", "rental_uris": {"android": "https://dc.lft.to/lastmile_qr_scan", "ios": "https://dc.lft.to/lastmile_qr_scan"}, "fusion_lat": 0.0, "name": "b0200bc4a2d3a90a78afc2def976dbfe", "lon": -77.0268245, "is_disabled": 0, "is_reserved": 0, "fusion_lon": 0.0, "bike_id": "b0200bc4a2d3a90a78afc2def976dbfe", "lat": 38.984869333333336}, {"type": "electric_scooter", "rental_uris": {"android": "https://dc.lft.to/lastmile_qr_scan", "ios": "https://dc.lft.to/lastmile_qr_scan"}, "fusion_lat": 0.0, "name": "272703e6d75ebdb8b6f7f7bdf5243bd8", "lon": -77.0362105, "is_disabled": 0, "is_reserved": 0, "fusion_lon": 0.0, "bike_id": "272703e6d75ebdb8b6f7f7bdf5243bd8", "lat": 38.917265}, {"type": "electric_scooter", "rental_uris": {"android": "https://dc.lft.to/lastmile_qr_scan", "ios": "https://dc.lft.to/lastmile_qr_scan"}, "fusion_lat": 0.0, "name": "9b039815f6e69ee8abaf1215bb4cf906", "lon": -77.00221733333333, "is_disabled": 0, "is_reserved": 0, "fusion_lon": 0.0, "bike_id": "9b039815f6e69ee8abaf1215bb4cf906", "lat": 38.891989833333334}, {"type": "electric_scooter", "rental_uris": {"android": "https://dc.lft.to/lastmile_qr_scan", "ios": "https://dc.lft.to/lastmile_qr_scan"}, "fusion_lat": 0.0, "name": "921a6e3d547167ec386b224e2d4391e6", "lon": -76.99946316666667, "is_disabled": 0, "is_reserved": 0, "fusion_lon": 0.0, "bike_id": "921a6e3d547167ec386b224e2d4391e6", "lat": 38.8964855}, {"type": "electric_scooter", "rental_uris": {"android": "https://dc.lft.to/lastmile_qr_scan", "ios": "https://dc.lft.to/lastmile_qr_scan"}, "fusion_lat": 0.0, "name": "733a9fd0c7305ecb426b9cd03babb524", "lon": -77.021214, "is_disabled": 0, "is_reserved": 0, "fusion_lon": 0.0, "bike_id": "733a9fd0c7305ecb426b9cd03babb524", "lat": 38.90247566666667}, {"type": "electric_scooter", "rental_uris": {"android": "https://dc.lft.to/lastmile_qr_scan", "ios": "https://dc.lft.to/lastmile_qr_scan"}, "fusion_lat": 0.0, "name": "02dcc38469a9dbfc264dfa962f489b8e", "lon": -77.03782016666666, "is_disabled": 0, "is_reserved": 0, "fusion_lon": 0.0, "bike_id": "02dcc38469a9dbfc264dfa962f489b8e", "lat": 38.925714166666666}, {"type": "electric_scooter", "rental_uris": {"android": "https://dc.lft.to/lastmile_qr_scan", "ios": "https://dc.lft.to/lastmile_qr_scan"}, "fusion_lat": 0.0, "name": "663fd33a8d19a7063f76abc6e971fd59", "lon": -77.050413, "is_disabled": 0, "is_reserved": 0, "fusion_lon": 0.0, "bike_id": "663fd33a8d19a7063f76abc6e971fd59", "lat": 38.923777666666666}, {"type": "electric_scooter", "rental_uris": {"android": "https://dc.lft.to/lastmile_qr_scan", "ios": "https://dc.lft.to/lastmile_qr_scan"}, "fusion_lat": 0.0, "name": "b74ffd0ea37f159aa21a5fd075676842", "lon": -76.98242266666666, "is_disabled": 0, "is_reserved": 0, "fusion_lon": 0.0, "bike_id": "b74ffd0ea37f159aa21a5fd075676842", "lat": 38.9164275}, {"type": "electric_scooter", "rental_uris": {"android": "https://dc.lft.to/lastmile_qr_scan", "ios": "https://dc.lft.to/lastmile_qr_scan"}, "fusion_lat": 0.0, "name": "85462ddace1a4f1ab8062fd2740bac32", "lon": -77.04314183333334, "is_disabled": 0, "is_reserved": 0, "fusion_lon": 0.0, "bike_id": "85462ddace1a4f1ab8062fd2740bac32", "lat": 38.92659066666667}, {"type": "electric_scooter", "rental_uris": {"android": "https://dc.lft.to/lastmile_qr_scan", "ios": "https://dc.lft.to/lastmile_qr_scan"}, "fusion_lat": 0.0, "name": "8ff142cacc01b098988c616d1f026b69", "lon": -77.02821466666667, "is_disabled": 0, "is_reserved": 0, "fusion_lon": 0.0, "bike_id": "8ff142cacc01b098988c616d1f026b69", "lat": 38.92973833333333}, {"type": "electric_scooter", "rental_uris": {"android": "https://dc.lft.to/lastmile_qr_scan", "ios": "https://dc.lft.to/lastmile_qr_scan"}, "fusion_lat": 0.0, "name": "9add29e89e764d870693cc36622751a7", "lon": -76.98881733333333, "is_disabled": 0, "is_reserved": 0, "fusion_lon": 0.0, "bike_id": "9add29e89e764d870693cc36622751a7", "lat": 38.866603166666664}, {"type": "electric_scooter", "rental_uris": {"android": "https://dc.lft.to/lastmile_qr_scan", "ios": "https://dc.lft.to/lastmile_qr_scan"}, "fusion_lat": 0.0, "name": "bd41abebc1e14bbcbb5c73a8dfa0304f", "lon": -76.9299225, "is_disabled": 0, "is_reserved": 0, "fusion_lon": 0.0, "bike_id": "bd41abebc1e14bbcbb5c73a8dfa0304f", "lat": 38.89330483333333}, {"type": "electric_scooter", "rental_uris": {"android": "https://dc.lft.to/lastmile_qr_scan", "ios": "https://dc.lft.to/lastmile_qr_scan"}, "fusion_lat": 0.0, "name": "c0e2a98d2b32155a5958f260d2b0abdd", "lon": -76.998881, "is_disabled": 0, "is_reserved": 0, "fusion_lon": 0.0, "bike_id": "c0e2a98d2b32155a5958f260d2b0abdd", "lat": 38.90951833333333}, {"type": "electric_scooter", "rental_uris": {"android": "https://dc.lft.to/lastmile_qr_scan", "ios": "https://dc.lft.to/lastmile_qr_scan"}, "fusion_lat": 0.0, "name": "5088b95dbec759441f3b4cf8156f1815", "lon": -76.99746483333334, "is_disabled": 0, "is_reserved": 0, "fusion_lon": 0.0, "bike_id": "5088b95dbec759441f3b4cf8156f1815", "lat": 38.900443}, {"type": "electric_scooter", "rental_uris": {"android": "https://dc.lft.to/lastmile_qr_scan", "ios": "https://dc.lft.to/lastmile_qr_scan"}, "fusion_lat": 0.0, "name": "8376849e7c505aa23821296d3bd28afe", "lon": -77.02777733333333, "is_disabled": 0, "is_reserved": 0, "fusion_lon": 0.0, "bike_id": "8376849e7c505aa23821296d3bd28afe", "lat": 38.954260166666664}, {"type": "electric_scooter", "rental_uris": {"android": "https://dc.lft.to/lastmile_qr_scan", "ios": "https://dc.lft.to/lastmile_qr_scan"}, "fusion_lat": 0.0, "name": "3138f468843d5f561a0f5a3414bb89a8", "lon": -77.0248465, "is_disabled": 0, "is_reserved": 0, "fusion_lon": 0.0, "bike_id": "3138f468843d5f561a0f5a3414bb89a8", "lat": 38.88013266666667}, {"type": "electric_scooter", "rental_uris": {"android": "https://dc.lft.to/lastmile_qr_scan", "ios": "https://dc.lft.to/lastmile_qr_scan"}, "fusion_lat": 0.0, "name": "82cf92709a9e24ee0a8ff8f034037fef", "lon": -77.005511, "is_disabled": 0, "is_reserved": 0, "fusion_lon": 0.0, "bike_id": "82cf92709a9e24ee0a8ff8f034037fef", "lat": 38.90038666666667}, {"type": "electric_scooter", "rental_uris": {"android": "https://dc.lft.to/lastmile_qr_scan", "ios": "https://dc.lft.to/lastmile_qr_scan"}, "fusion_lat": 0.0, "name": "4eef2052de6896500c1325a29e93c62e", "lon": -77.0328975, "is_disabled": 0, "is_reserved": 0, "fusion_lon": 0.0, "bike_id": "4eef2052de6896500c1325a29e93c62e", "lat": 38.92844}, {"type": "electric_scooter", "rental_uris": {"android": "https://dc.lft.to/lastmile_qr_scan", "ios": "https://dc.lft.to/lastmile_qr_scan"}, "fusion_lat": 0.0, "name": "444b1074edeb3fab2ef0ed139969078c", "lon": -77.02837316666667, "is_disabled": 0, "is_reserved": 0, "fusion_lon": 0.0, "bike_id": "444b1074edeb3fab2ef0ed139969078c", "lat": 38.90854516666667}, {"type": "electric_scooter", "rental_uris": {"android": "https://dc.lft.to/lastmile_qr_scan", "ios": "https://dc.lft.to/lastmile_qr_scan"}, "fusion_lat": 0.0, "name": "d7dcab3f6703b28059f0f073fe5c83da", "lon": -77.02810616666666, "is_disabled": 0, "is_reserved": 0, "fusion_lon": 0.0, "bike_id": "d7dcab3f6703b28059f0f073fe5c83da", "lat": 38.881816666666666}, {"type": "electric_scooter", "rental_uris": {"android": "https://dc.lft.to/lastmile_qr_scan", "ios": "https://dc.lft.to/lastmile_qr_scan"}, "fusion_lat": 0.0, "name": "d96f76205f577de261935807e6370089", "lon": -77.02000583333333, "is_disabled": 0, "is_reserved": 0, "fusion_lon": 0.0, "bike_id": "d96f76205f577de261935807e6370089", "lat": 38.9663045}, {"type": "electric_scooter", "rental_uris": {"android": "https://dc.lft.to/lastmile_qr_scan", "ios": "https://dc.lft.to/lastmile_qr_scan"}, "fusion_lat": 0.0, "name": "b06025c8246b4d9b83b0501757a0e4dd", "lon": -77.02222766666667, "is_disabled": 0, "is_reserved": 0, "fusion_lon": 0.0, "bike_id": "b06025c8246b4d9b83b0501757a0e4dd", "lat": 38.8922035}, {"type": "electric_scooter", "rental_uris": {"android": "https://dc.lft.to/lastmile_qr_scan", "ios": "https://dc.lft.to/lastmile_qr_scan"}, "fusion_lat": 0.0, "name": "d0e899edf3903d2f8a2dd0af3c161d58", "lon": -76.99369583333333, "is_disabled": 0, "is_reserved": 0, "fusion_lon": 0.0, "bike_id": "d0e899edf3903d2f8a2dd0af3c161d58", "lat": 38.883083166666665}, {"type": "electric_scooter", "rental_uris": {"android": "https://dc.lft.to/lastmile_qr_scan", "ios": "https://dc.lft.to/lastmile_qr_scan"}, "fusion_lat": 0.0, "name": "27c512ecc2a7e3bfd00bd01b2fd159a6", "lon": -76.9791385, "is_disabled": 0, "is_reserved": 0, "fusion_lon": 0.0, "bike_id": "27c512ecc2a7e3bfd00bd01b2fd159a6", "lat": 38.863477333333336}, {"type": "electric_bike", "rental_uris": {"android": "https://dc.lft.to/lastmile_qr_scan", "ios": "https://dc.lft.to/lastmile_qr_scan"}, "fusion_lat": 0.0, "name": "70d3a498323966e7a975f21a0681a718", "lon": -77.01219916666666, "is_disabled": 0, "is_reserved": 0, "fusion_lon": 0.0, "bike_id": "70d3a498323966e7a975f21a0681a718", "lat": 38.912790333333334}, {"type": "electric_scooter", "rental_uris": {"android": "https://dc.lft.to/lastmile_qr_scan", "ios": "https://dc.lft.to/lastmile_qr_scan"}, "fusion_lat": 0.0, "name": "86354876be409ce88e4a0a30e87f2079", "lon": -76.9981405, "is_disabled": 0, "is_reserved": 0, "fusion_lon": 0.0, "bike_id": "86354876be409ce88e4a0a30e87f2079", "lat": 38.90725833333333}, {"type": "electric_scooter", "rental_uris": {"android": "https://dc.lft.to/lastmile_qr_scan", "ios": "https://dc.lft.to/lastmile_qr_scan"}, "fusion_lat": 0.0, "name": "e28e26621f5ac2d5427397c6c882b1d1", "lon": -77.04866433333333, "is_disabled": 0, "is_reserved": 0, "fusion_lon": 0.0, "bike_id": "e28e26621f5ac2d5427397c6c882b1d1", "lat": 38.892243666666666}, {"type": "electric_scooter", "rental_uris": {"android": "https://dc.lft.to/lastmile_qr_scan", "ios": "https://dc.lft.to/lastmile_qr_scan"}, "fusion_lat": 0.0, "name": "27c30b957c584ba9234b6c84ddf20635", "lon": -76.991192, "is_disabled": 0, "is_reserved": 0, "fusion_lon": 0.0, "bike_id": "27c30b957c584ba9234b6c84ddf20635", "lat": 38.93360083333334}, {"type": "electric_scooter", "rental_uris": {"android": "https://dc.lft.to/lastmile_qr_scan", "ios": "https://dc.lft.to/lastmile_qr_scan"}, "fusion_lat": 0.0, "name": "6fed622049dfcb8d67923ff530dd7082", "lon": -77.043926, "is_disabled": 0, "is_reserved": 0, "fusion_lon": 0.0, "bike_id": "6fed622049dfcb8d67923ff530dd7082", "lat": 38.90924116666667}, {"type": "electric_scooter", "rental_uris": {"android": "https://dc.lft.to/lastmile_qr_scan", "ios": "https://dc.lft.to/lastmile_qr_scan"}, "fusion_lat": 0.0, "name": "58d719d5bac0fcf50e3f139132dd53a2", "lon": -77.02311416666667, "is_disabled": 0, "is_reserved": 0, "fusion_lon": 0.0, "bike_id": "58d719d5bac0fcf50e3f139132dd53a2", "lat": 38.908445666666665}, {"type": "electric_scooter", "rental_uris": {"android": "https://dc.lft.to/lastmile_qr_scan", "ios": "https://dc.lft.to/lastmile_qr_scan"}, "fusion_lat": 0.0, "name": "800549b7d62e379d422fee387f322849", "lon": -77.05017966666666, "is_disabled": 0, "is_reserved": 0, "fusion_lon": 0.0, "bike_id": "800549b7d62e379d422fee387f322849", "lat": 38.90119216666667}, {"type": "electric_bike", "rental_uris": {"android": "https://dc.lft.to/lastmile_qr_scan", "ios": "https://dc.lft.to/lastmile_qr_scan"}, "fusion_lat": 0.0, "name": "4c4f890107ebfb14bcd1ed1df79aab25", "lon": -77.0510865, "is_disabled": 0, "is_reserved": 0, "fusion_lon": 0.0, "bike_id": "4c4f890107ebfb14bcd1ed1df79aab25", "lat": 39.036718}, {"type": "electric_scooter", "rental_uris": {"android": "https://dc.lft.to/lastmile_qr_scan", "ios": "https://dc.lft.to/lastmile_qr_scan"}, "fusion_lat": 0.0, "name": "3d45ab53935e710c3a5290a2b9abface", "lon": -77.03812166666667, "is_disabled": 0, "is_reserved": 0, "fusion_lon": 0.0, "bike_id": "3d45ab53935e710c3a5290a2b9abface", "lat": 38.930946666666664}, {"type": "electric_scooter", "rental_uris": {"android": "https://dc.lft.to/lastmile_qr_scan", "ios": "https://dc.lft.to/lastmile_qr_scan"}, "fusion_lat": 0.0, "name": "89f5e55783c2a95e56bd0581a2bfbd96", "lon": -76.96785566666667, "is_disabled": 0, "is_reserved": 0, "fusion_lon": 0.0, "bike_id": "89f5e55783c2a95e56bd0581a2bfbd96", "lat": 38.8734315}, {"type": "electric_scooter", "rental_uris": {"android": "https://dc.lft.to/lastmile_qr_scan", "ios": "https://dc.lft.to/lastmile_qr_scan"}, "fusion_lat": 0.0, "name": "f7d9411e87d3568611f54d7f6e4ba7fe", "lon": -76.998629, "is_disabled": 0, "is_reserved": 0, "fusion_lon": 0.0, "bike_id": "f7d9411e87d3568611f54d7f6e4ba7fe", "lat": 38.886405}, {"type": "electric_scooter", "rental_uris": {"android": "https://dc.lft.to/lastmile_qr_scan", "ios": "https://dc.lft.to/lastmile_qr_scan"}, "fusion_lat": 0.0, "name": "54120e0526246d688304108844c6e034", "lon": -77.0239185, "is_disabled": 0, "is_reserved": 0, "fusion_lon": 0.0, "bike_id": "54120e0526246d688304108844c6e034", "lat": 38.90582466666667}, {"type": "electric_scooter", "rental_uris": {"android": "https://dc.lft.to/lastmile_qr_scan", "ios": "https://dc.lft.to/lastmile_qr_scan"}, "fusion_lat": 0.0, "name": "36aecaac65837f698db8cc0f8d16b58a", "lon": -77.03881716666666, "is_disabled": 0, "is_reserved": 0, "fusion_lon": 0.0, "bike_id": "36aecaac65837f698db8cc0f8d16b58a", "lat": 38.892003}, {"type": "electric_scooter", "rental_uris": {"android": "https://dc.lft.to/lastmile_qr_scan", "ios": "https://dc.lft.to/lastmile_qr_scan"}, "fusion_lat": 0.0, "name": "e516f9599b3afa09ad84b96f8763df81", "lon": -77.03046683333334, "is_disabled": 0, "is_reserved": 0, "fusion_lon": 0.0, "bike_id": "e516f9599b3afa09ad84b96f8763df81", "lat": 38.9133525}, {"type": "electric_scooter", "rental_uris": {"android": "https://dc.lft.to/lastmile_qr_scan", "ios": "https://dc.lft.to/lastmile_qr_scan"}, "fusion_lat": 0.0, "name": "d1c0b7f3bb7a40e598a26a251c3c13d8", "lon": -77.056128, "is_disabled": 0, "is_reserved": 0, "fusion_lon": 0.0, "bike_id": "d1c0b7f3bb7a40e598a26a251c3c13d8", "lat": 38.923267833333334}, {"type": "electric_scooter", "rental_uris": {"android": "https://dc.lft.to/lastmile_qr_scan", "ios": "https://dc.lft.to/lastmile_qr_scan"}, "fusion_lat": 0.0, "name": "ae74f289eccde516061b8f5502228af5", "lon": -76.99854433333333, "is_disabled": 0, "is_reserved": 0, "fusion_lon": 0.0, "bike_id": "ae74f289eccde516061b8f5502228af5", "lat": 38.907691166666666}, {"type": "electric_scooter", "rental_uris": {"android": "https://dc.lft.to/lastmile_qr_scan", "ios": "https://dc.lft.to/lastmile_qr_scan"}, "fusion_lat": 0.0, "name": "27fed44fff3a77bd25663d01979910d3", "lon": -77.0288885, "is_disabled": 0, "is_reserved": 0, "fusion_lon": 0.0, "bike_id": "27fed44fff3a77bd25663d01979910d3", "lat": 38.9032625}, {"type": "electric_scooter", "rental_uris": {"android": "https://dc.lft.to/lastmile_qr_scan", "ios": "https://dc.lft.to/lastmile_qr_scan"}, "fusion_lat": 0.0, "name": "08582e66ed1fed8125f2ffd5c299e852", "lon": -77.01508733333333, "is_disabled": 0, "is_reserved": 0, "fusion_lon": 0.0, "bike_id": "08582e66ed1fed8125f2ffd5c299e852", "lat": 38.92682383333333}, {"type": "electric_bike", "rental_uris": {"android": "https://dc.lft.to/lastmile_qr_scan", "ios": "https://dc.lft.to/lastmile_qr_scan"}, "fusion_lat": 0.0, "name": "89510a7cc7e3f9eb640ec6d4ab241adf", "lon": -76.998511, "is_disabled": 0, "is_reserved": 0, "fusion_lon": 0.0, "bike_id": "89510a7cc7e3f9eb640ec6d4ab241adf", "lat": 38.88678766666666}, {"type": "electric_scooter", "rental_uris": {"android": "https://dc.lft.to/lastmile_qr_scan", "ios": "https://dc.lft.to/lastmile_qr_scan"}, "fusion_lat": 0.0, "name": "1c02e7b71e6cc8ab75349989c9efbf7c", "lon": -77.019066, "is_disabled": 0, "is_reserved": 0, "fusion_lon": 0.0, "bike_id": "1c02e7b71e6cc8ab75349989c9efbf7c", "lat": 38.9412625}, {"type": "electric_scooter", "rental_uris": {"android": "https://dc.lft.to/lastmile_qr_scan", "ios": "https://dc.lft.to/lastmile_qr_scan"}, "fusion_lat": 0.0, "name": "df8962faac3a18c9074c4107012fb62e", "lon": -77.0318345, "is_disabled": 0, "is_reserved": 0, "fusion_lon": 0.0, "bike_id": "df8962faac3a18c9074c4107012fb62e", "lat": 38.918011}, {"type": "electric_scooter", "rental_uris": {"android": "https://dc.lft.to/lastmile_qr_scan", "ios": "https://dc.lft.to/lastmile_qr_scan"}, "fusion_lat": 0.0, "name": "486dad458505a3bc5cb1e05e343f4802", "lon": -77.04667183333333, "is_disabled": 0, "is_reserved": 0, "fusion_lon": 0.0, "bike_id": "486dad458505a3bc5cb1e05e343f4802", "lat": 38.91344816666667}, {"type": "electric_scooter", "rental_uris": {"android": "https://dc.lft.to/lastmile_qr_scan", "ios": "https://dc.lft.to/lastmile_qr_scan"}, "fusion_lat": 0.0, "name": "0c1bb377f2f30504905d7a4b18feb346", "lon": -77.01071983333334, "is_disabled": 0, "is_reserved": 0, "fusion_lon": 0.0, "bike_id": "0c1bb377f2f30504905d7a4b18feb346", "lat": 38.9170765}, {"type": "electric_scooter", "rental_uris": {"android": "https://dc.lft.to/lastmile_qr_scan", "ios": "https://dc.lft.to/lastmile_qr_scan"}, "fusion_lat": 0.0, "name": "6b41a5ad2d1675a55b13eeb12bfacd87", "lon": -77.03220516666667, "is_disabled": 0, "is_reserved": 0, "fusion_lon": 0.0, "bike_id": "6b41a5ad2d1675a55b13eeb12bfacd87", "lat": 38.928826}, {"type": "electric_scooter", "rental_uris": {"android": "https://dc.lft.to/lastmile_qr_scan", "ios": "https://dc.lft.to/lastmile_qr_scan"}, "fusion_lat": 0.0, "name": "d412ce432a13114acfbc88d1f2867240", "lon": -77.04269383333333, "is_disabled": 0, "is_reserved": 0, "fusion_lon": 0.0, "bike_id": "d412ce432a13114acfbc88d1f2867240", "lat": 38.92296833333333}, {"type": "electric_scooter", "rental_uris": {"android": "https://dc.lft.to/lastmile_qr_scan", "ios": "https://dc.lft.to/lastmile_qr_scan"}, "fusion_lat": 0.0, "name": "b341775bd99ad2e61428997ed0bfea88", "lon": -77.0430205, "is_disabled": 0, "is_reserved": 0, "fusion_lon": 0.0, "bike_id": "b341775bd99ad2e61428997ed0bfea88", "lat": 38.923350666666664}, {"type": "electric_scooter", "rental_uris": {"android": "https://dc.lft.to/lastmile_qr_scan", "ios": "https://dc.lft.to/lastmile_qr_scan"}, "fusion_lat": 0.0, "name": "b535401cab646be4b76f1b3789536fad", "lon": -77.02350833333334, "is_disabled": 0, "is_reserved": 0, "fusion_lon": 0.0, "bike_id": "b535401cab646be4b76f1b3789536fad", "lat": 38.922524833333334}, {"type": "electric_scooter", "rental_uris": {"android": "https://dc.lft.to/lastmile_qr_scan", "ios": "https://dc.lft.to/lastmile_qr_scan"}, "fusion_lat": 0.0, "name": "508cf05e713f47c9a11c7c2b6b3427d3", "lon": -77.04241766666667, "is_disabled": 0, "is_reserved": 0, "fusion_lon": 0.0, "bike_id": "508cf05e713f47c9a11c7c2b6b3427d3", "lat": 38.90661216666667}, {"type": "electric_scooter", "rental_uris": {"android": "https://dc.lft.to/lastmile_qr_scan", "ios": "https://dc.lft.to/lastmile_qr_scan"}, "fusion_lat": 0.0, "name": "df1754e545f299885a4b2748698e32ed", "lon": -77.00572733333334, "is_disabled": 0, "is_reserved": 0, "fusion_lon": 0.0, "bike_id": "df1754e545f299885a4b2748698e32ed", "lat": 38.905417666666665}, {"type": "electric_scooter", "rental_uris": {"android": "https://dc.lft.to/lastmile_qr_scan", "ios": "https://dc.lft.to/lastmile_qr_scan"}, "fusion_lat": 0.0, "name": "e94fce09678756cefacae1ea33be4b6a", "lon": -77.00946066666667, "is_disabled": 0, "is_reserved": 0, "fusion_lon": 0.0, "bike_id": "e94fce09678756cefacae1ea33be4b6a", "lat": 38.89642766666667}, {"type": "electric_scooter", "rental_uris": {"android": "https://dc.lft.to/lastmile_qr_scan", "ios": "https://dc.lft.to/lastmile_qr_scan"}, "fusion_lat": 0.0, "name": "fce2ea5c856d20a3e933d31580bb83ca", "lon": -77.02026566666666, "is_disabled": 0, "is_reserved": 0, "fusion_lon": 0.0, "bike_id": "fce2ea5c856d20a3e933d31580bb83ca", "lat": 38.90194533333333}, {"type": "electric_scooter", "rental_uris": {"android": "https://dc.lft.to/lastmile_qr_scan", "ios": "https://dc.lft.to/lastmile_qr_scan"}, "fusion_lat": 0.0, "name": "b0c9bbe4b56c5ad834c977f8f70511a4", "lon": -77.06183433333334, "is_disabled": 0, "is_reserved": 0, "fusion_lon": 0.0, "bike_id": "b0c9bbe4b56c5ad834c977f8f70511a4", "lat": 38.94316166666667}, {"type": "electric_scooter", "rental_uris": {"android": "https://dc.lft.to/lastmile_qr_scan", "ios": "https://dc.lft.to/lastmile_qr_scan"}, "fusion_lat": 0.0, "name": "fe53a87511d9407982d6fa5b472df437", "lon": -77.0326605, "is_disabled": 0, "is_reserved": 0, "fusion_lon": 0.0, "bike_id": "fe53a87511d9407982d6fa5b472df437", "lat": 38.9284215}, {"type": "electric_scooter", "rental_uris": {"android": "https://dc.lft.to/lastmile_qr_scan", "ios": "https://dc.lft.to/lastmile_qr_scan"}, "fusion_lat": 0.0, "name": "b6f317509b5ec46c86dbe2f59985d375", "lon": -76.98843633333334, "is_disabled": 0, "is_reserved": 0, "fusion_lon": 0.0, "bike_id": "b6f317509b5ec46c86dbe2f59985d375", "lat": 38.90042616666667}, {"type": "electric_scooter", "rental_uris": {"android": "https://dc.lft.to/lastmile_qr_scan", "ios": "https://dc.lft.to/lastmile_qr_scan"}, "fusion_lat": 0.0, "name": "0069ecca64358c9591d96a3f8fa4df13", "lon": -77.01764016666667, "is_disabled": 0, "is_reserved": 0, "fusion_lon": 0.0, "bike_id": "0069ecca64358c9591d96a3f8fa4df13", "lat": 38.876915}, {"type": "electric_bike", "rental_uris": {"android": "https://dc.lft.to/lastmile_qr_scan", "ios": "https://dc.lft.to/lastmile_qr_scan"}, "fusion_lat": 0.0, "name": "f3dfc3471154124ea302bfb2907014b4", "lon": -76.98519116666667, "is_disabled": 0, "is_reserved": 0, "fusion_lon": 0.0, "bike_id": "f3dfc3471154124ea302bfb2907014b4", "lat": 38.879507833333335}, {"type": "electric_scooter", "rental_uris": {"android": "https://dc.lft.to/lastmile_qr_scan", "ios": "https://dc.lft.to/lastmile_qr_scan"}, "fusion_lat": 0.0, "name": "4921ba84f301765df177c0296e05df86", "lon": -77.04010383333333, "is_disabled": 0, "is_reserved": 0, "fusion_lon": 0.0, "bike_id": "4921ba84f301765df177c0296e05df86", "lat": 38.918367833333335}, {"type": "electric_bike", "rental_uris": {"android": "https://dc.lft.to/lastmile_qr_scan", "ios": "https://dc.lft.to/lastmile_qr_scan"}, "fusion_lat": 0.0, "name": "1dd489d0160bb3629621a320f142d6f0", "lon": -77.1170625, "is_disabled": 0, "is_reserved": 0, "fusion_lon": 0.0, "bike_id": "1dd489d0160bb3629621a320f142d6f0", "lat": 38.867480666666665}, {"type": "electric_scooter", "rental_uris": {"android": "https://dc.lft.to/lastmile_qr_scan", "ios": "https://dc.lft.to/lastmile_qr_scan"}, "fusion_lat": 0.0, "name": "c17455b4f4dd9ab9dfd142adac64ec3b", "lon": -77.02416516666666, "is_disabled": 0, "is_reserved": 0, "fusion_lon": 0.0, "bike_id": "c17455b4f4dd9ab9dfd142adac64ec3b", "lat": 38.917081333333336}, {"type": "electric_scooter", "rental_uris": {"android": "https://dc.lft.to/lastmile_qr_scan", "ios": "https://dc.lft.to/lastmile_qr_scan"}, "fusion_lat": 0.0, "name": "1b403f51ac49658c847cba73a4695def", "lon": -77.007487, "is_disabled": 0, "is_reserved": 0, "fusion_lon": 0.0, "bike_id": "1b403f51ac49658c847cba73a4695def", "lat": 38.898205}, {"type": "electric_scooter", "rental_uris": {"android": "https://dc.lft.to/lastmile_qr_scan", "ios": "https://dc.lft.to/lastmile_qr_scan"}, "fusion_lat": 0.0, "name": "bf797f6980c0ca40ad536e47657fb50b", "lon": -77.0261445, "is_disabled": 0, "is_reserved": 0, "fusion_lon": 0.0, "bike_id": "bf797f6980c0ca40ad536e47657fb50b", "lat": 38.898676}, {"type": "electric_scooter", "rental_uris": {"android": "https://dc.lft.to/lastmile_qr_scan", "ios": "https://dc.lft.to/lastmile_qr_scan"}, "fusion_lat": 0.0, "name": "230438beb19b9c9617531b847d95336c", "lon": -77.02002983333334, "is_disabled": 0, "is_reserved": 0, "fusion_lon": 0.0, "bike_id": "230438beb19b9c9617531b847d95336c", "lat": 38.894377166666665}, {"type": "electric_scooter", "rental_uris": {"android": "https://dc.lft.to/lastmile_qr_scan", "ios": "https://dc.lft.to/lastmile_qr_scan"}, "fusion_lat": 0.0, "name": "b6c66863e42793d3de632e5f5df8b701", "lon": -77.03864216666666, "is_disabled": 0, "is_reserved": 0, "fusion_lon": 0.0, "bike_id": "b6c66863e42793d3de632e5f5df8b701", "lat": 38.90374633333333}, {"type": "electric_scooter", "rental_uris": {"android": "https://dc.lft.to/lastmile_qr_scan", "ios": "https://dc.lft.to/lastmile_qr_scan"}, "fusion_lat": 0.0, "name": "a0083c569b9056ccf9ff8b65df0de603", "lon": -77.044914, "is_disabled": 0, "is_reserved": 0, "fusion_lon": 0.0, "bike_id": "a0083c569b9056ccf9ff8b65df0de603", "lat": 38.9131475}, {"type": "electric_scooter", "rental_uris": {"android": "https://dc.lft.to/lastmile_qr_scan", "ios": "https://dc.lft.to/lastmile_qr_scan"}, "fusion_lat": 0.0, "name": "77d031f57b2a94d434a1e19bc0a1443d", "lon": -77.0011185, "is_disabled": 0, "is_reserved": 0, "fusion_lon": 0.0, "bike_id": "77d031f57b2a94d434a1e19bc0a1443d", "lat": 38.87493633333333}, {"type": "electric_scooter", "rental_uris": {"android": "https://dc.lft.to/lastmile_qr_scan", "ios": "https://dc.lft.to/lastmile_qr_scan"}, "fusion_lat": 0.0, "name": "4861acc396fa7d4596cccf9c2bdb27d8", "lon": -77.06167266666667, "is_disabled": 0, "is_reserved": 0, "fusion_lon": 0.0, "bike_id": "4861acc396fa7d4596cccf9c2bdb27d8", "lat": 38.902577666666666}, {"type": "electric_bike", "rental_uris": {"android": "https://dc.lft.to/lastmile_qr_scan", "ios": "https://dc.lft.to/lastmile_qr_scan"}, "fusion_lat": 0.0, "name": "90be29f8c4f1cfcab41b931070e2aefc", "lon": -77.0153515, "is_disabled": 0, "is_reserved": 0, "fusion_lon": 0.0, "bike_id": "90be29f8c4f1cfcab41b931070e2aefc", "lat": 38.884865833333336}, {"type": "electric_bike", "rental_uris": {"android": "https://dc.lft.to/lastmile_qr_scan", "ios": "https://dc.lft.to/lastmile_qr_scan"}, "fusion_lat": 0.0, "name": "38f44e51c7272ba6a0b6cea652a0ccc5", "lon": -77.112614, "is_disabled": 0, "is_reserved": 0, "fusion_lon": 0.0, "bike_id": "38f44e51c7272ba6a0b6cea652a0ccc5", "lat": 38.85651383333333}, {"type": "electric_scooter", "rental_uris": {"android": "https://dc.lft.to/lastmile_qr_scan", "ios": "https://dc.lft.to/lastmile_qr_scan"}, "fusion_lat": 0.0, "name": "1a18e6b71e33bd36a477a01f974b6d09", "lon": -77.03279383333333, "is_disabled": 0, "is_reserved": 0, "fusion_lon": 0.0, "bike_id": "1a18e6b71e33bd36a477a01f974b6d09", "lat": 38.9284285}, {"type": "electric_scooter", "rental_uris": {"android": "https://dc.lft.to/lastmile_qr_scan", "ios": "https://dc.lft.to/lastmile_qr_scan"}, "fusion_lat": 0.0, "name": "b286a207bf5fa49d59f24d43cd812111", "lon": -77.03273416666667, "is_disabled": 0, "is_reserved": 0, "fusion_lon": 0.0, "bike_id": "b286a207bf5fa49d59f24d43cd812111", "lat": 38.932508}, {"type": "electric_bike", "rental_uris": {"android": "https://dc.lft.to/lastmile_qr_scan", "ios": "https://dc.lft.to/lastmile_qr_scan"}, "fusion_lat": 0.0, "name": "b2db56dcedeea0d6409c6022bc70fee2", "lon": -77.1191305, "is_disabled": 0, "is_reserved": 0, "fusion_lon": 0.0, "bike_id": "b2db56dcedeea0d6409c6022bc70fee2", "lat": 38.87635783333333}, {"type": "electric_scooter", "rental_uris": {"android": "https://dc.lft.to/lastmile_qr_scan", "ios": "https://dc.lft.to/lastmile_qr_scan"}, "fusion_lat": 0.0, "name": "b35c44405b4c4b0cb8d6d7e287c5f7c6", "lon": -77.03435933333333, "is_disabled": 0, "is_reserved": 0, "fusion_lon": 0.0, "bike_id": "b35c44405b4c4b0cb8d6d7e287c5f7c6", "lat": 38.918096166666665}, {"type": "electric_scooter", "rental_uris": {"android": "https://dc.lft.to/lastmile_qr_scan", "ios": "https://dc.lft.to/lastmile_qr_scan"}, "fusion_lat": 0.0, "name": "0d78a67675fd356274254ec694daced3", "lon": -77.01766783333333, "is_disabled": 0, "is_reserved": 0, "fusion_lon": 0.0, "bike_id": "0d78a67675fd356274254ec694daced3", "lat": 38.87216266666667}, {"type": "electric_scooter", "rental_uris": {"android": "https://dc.lft.to/lastmile_qr_scan", "ios": "https://dc.lft.to/lastmile_qr_scan"}, "fusion_lat": 0.0, "name": "7e9b61fb4d8aa4008a3f81f594b6a677", "lon": -77.01574416666666, "is_disabled": 0, "is_reserved": 0, "fusion_lon": 0.0, "bike_id": "7e9b61fb4d8aa4008a3f81f594b6a677", "lat": 38.87633}, {"type": "electric_scooter", "rental_uris": {"android": "https://dc.lft.to/lastmile_qr_scan", "ios": "https://dc.lft.to/lastmile_qr_scan"}, "fusion_lat": 0.0, "name": "a0fda639ddce5bfac15b2afeb34e2182", "lon": -77.00759183333334, "is_disabled": 0, "is_reserved": 0, "fusion_lon": 0.0, "bike_id": "a0fda639ddce5bfac15b2afeb34e2182", "lat": 38.92673383333333}, {"type": "electric_scooter", "rental_uris": {"android": "https://dc.lft.to/lastmile_qr_scan", "ios": "https://dc.lft.to/lastmile_qr_scan"}, "fusion_lat": 0.0, "name": "9a20432255afefc15c8ae5bbc07fdf39", "lon": -77.01950766666667, "is_disabled": 0, "is_reserved": 0, "fusion_lon": 0.0, "bike_id": "9a20432255afefc15c8ae5bbc07fdf39", "lat": 38.924486}, {"type": "electric_scooter", "rental_uris": {"android": "https://dc.lft.to/lastmile_qr_scan", "ios": "https://dc.lft.to/lastmile_qr_scan"}, "fusion_lat": 0.0, "name": "53d9392c53cd9008a51d733c18808659", "lon": -77.0105405, "is_disabled": 0, "is_reserved": 0, "fusion_lon": 0.0, "bike_id": "53d9392c53cd9008a51d733c18808659", "lat": 38.963558666666664}, {"type": "electric_scooter", "rental_uris": {"android": "https://dc.lft.to/lastmile_qr_scan", "ios": "https://dc.lft.to/lastmile_qr_scan"}, "fusion_lat": 0.0, "name": "5ed5cb1a54c1aca379648996927c2449", "lon": -77.03962166666666, "is_disabled": 0, "is_reserved": 0, "fusion_lon": 0.0, "bike_id": "5ed5cb1a54c1aca379648996927c2449", "lat": 38.911957666666666}, {"type": "electric_scooter", "rental_uris": {"android": "https://dc.lft.to/lastmile_qr_scan", "ios": "https://dc.lft.to/lastmile_qr_scan"}, "fusion_lat": 0.0, "name": "cb86629db4d6258e79e9733707d4164f", "lon": -77.03191416666667, "is_disabled": 0, "is_reserved": 0, "fusion_lon": 0.0, "bike_id": "cb86629db4d6258e79e9733707d4164f", "lat": 38.897648333333336}, {"type": "electric_scooter", "rental_uris": {"android": "https://dc.lft.to/lastmile_qr_scan", "ios": "https://dc.lft.to/lastmile_qr_scan"}, "fusion_lat": 0.0, "name": "be052b315b49fe422ebc0c2103327ab3", "lon": -77.0288605, "is_disabled": 0, "is_reserved": 0, "fusion_lon": 0.0, "bike_id": "be052b315b49fe422ebc0c2103327ab3", "lat": 38.897300666666666}, {"type": "electric_scooter", "rental_uris": {"android": "https://dc.lft.to/lastmile_qr_scan", "ios": "https://dc.lft.to/lastmile_qr_scan"}, "fusion_lat": 0.0, "name": "b858c10858560ef5b8ec0f21ca1b4a70", "lon": -76.9851705, "is_disabled": 0, "is_reserved": 0, "fusion_lon": 0.0, "bike_id": "b858c10858560ef5b8ec0f21ca1b4a70", "lat": 38.8664875}, {"type": "electric_scooter", "rental_uris": {"android": "https://dc.lft.to/lastmile_qr_scan", "ios": "https://dc.lft.to/lastmile_qr_scan"}, "fusion_lat": 0.0, "name": "91d3a0dfc4aa526a5090a4b826d2dee6", "lon": -76.985549, "is_disabled": 0, "is_reserved": 0, "fusion_lon": 0.0, "bike_id": "91d3a0dfc4aa526a5090a4b826d2dee6", "lat": 38.910363333333336}, {"type": "electric_scooter", "rental_uris": {"android": "https://dc.lft.to/lastmile_qr_scan", "ios": "https://dc.lft.to/lastmile_qr_scan"}, "fusion_lat": 0.0, "name": "c8ab5b89068f3760504930411b4b9332", "lon": -76.9302335, "is_disabled": 0, "is_reserved": 0, "fusion_lon": 0.0, "bike_id": "c8ab5b89068f3760504930411b4b9332", "lat": 38.90166216666667}, {"type": "electric_scooter", "rental_uris": {"android": "https://dc.lft.to/lastmile_qr_scan", "ios": "https://dc.lft.to/lastmile_qr_scan"}, "fusion_lat": 0.0, "name": "76c330a5f7cc3caeb0336293b9825fbb", "lon": -77.0396405, "is_disabled": 0, "is_reserved": 0, "fusion_lon": 0.0, "bike_id": "76c330a5f7cc3caeb0336293b9825fbb", "lat": 38.89728816666667}, {"type": "electric_scooter", "rental_uris": {"android": "https://dc.lft.to/lastmile_qr_scan", "ios": "https://dc.lft.to/lastmile_qr_scan"}, "fusion_lat": 0.0, "name": "fc94182e71ebc598ed74f3400d0a54ed", "lon": -77.050503, "is_disabled": 0, "is_reserved": 0, "fusion_lon": 0.0, "bike_id": "fc94182e71ebc598ed74f3400d0a54ed", "lat": 38.92390366666667}, {"type": "electric_scooter", "rental_uris": {"android": "https://dc.lft.to/lastmile_qr_scan", "ios": "https://dc.lft.to/lastmile_qr_scan"}, "fusion_lat": 0.0, "name": "16c77e1af75ad367283c0bc84fd4cee3", "lon": -77.03454133333334, "is_disabled": 0, "is_reserved": 0, "fusion_lon": 0.0, "bike_id": "16c77e1af75ad367283c0bc84fd4cee3", "lat": 38.90807866666667}, {"type": "electric_bike", "rental_uris": {"android": "https://dc.lft.to/lastmile_qr_scan", "ios": "https://dc.lft.to/lastmile_qr_scan"}, "fusion_lat": 0.0, "name": "06fcd4511d5b41a2f76d98ef270093f2", "lon": -76.93535083333333, "is_disabled": 0, "is_reserved": 0, "fusion_lon": 0.0, "bike_id": "06fcd4511d5b41a2f76d98ef270093f2", "lat": 38.955466333333334}, {"type": "electric_bike", "rental_uris": {"android": "https://dc.lft.to/lastmile_qr_scan", "ios": "https://dc.lft.to/lastmile_qr_scan"}, "fusion_lat": 0.0, "name": "6104cfd844892f5868851798aa50bf89", "lon": -76.97020133333334, "is_disabled": 0, "is_reserved": 0, "fusion_lon": 0.0, "bike_id": "6104cfd844892f5868851798aa50bf89", "lat": 38.86366983333333}, {"type": "electric_scooter", "rental_uris": {"android": "https://dc.lft.to/lastmile_qr_scan", "ios": "https://dc.lft.to/lastmile_qr_scan"}, "fusion_lat": 0.0, "name": "3f514ceb2c578d26f0499ebf175fc95c", "lon": -77.02365266666666, "is_disabled": 0, "is_reserved": 0, "fusion_lon": 0.0, "bike_id": "3f514ceb2c578d26f0499ebf175fc95c", "lat": 38.920753166666664}, {"type": "electric_scooter", "rental_uris": {"android": "https://dc.lft.to/lastmile_qr_scan", "ios": "https://dc.lft.to/lastmile_qr_scan"}, "fusion_lat": 0.0, "name": "0c6b29b38505d571fcbe55e37495ed1d", "lon": -77.01879283333334, "is_disabled": 0, "is_reserved": 0, "fusion_lon": 0.0, "bike_id": "0c6b29b38505d571fcbe55e37495ed1d", "lat": 38.91414116666667}, {"type": "electric_scooter", "rental_uris": {"android": "https://dc.lft.to/lastmile_qr_scan", "ios": "https://dc.lft.to/lastmile_qr_scan"}, "fusion_lat": 0.0, "name": "6a52ef39ce865ff133ebc52ae187400c", "lon": -77.03170816666666, "is_disabled": 0, "is_reserved": 0, "fusion_lon": 0.0, "bike_id": "6a52ef39ce865ff133ebc52ae187400c", "lat": 38.93604966666667}, {"type": "electric_scooter", "rental_uris": {"android": "https://dc.lft.to/lastmile_qr_scan", "ios": "https://dc.lft.to/lastmile_qr_scan"}, "fusion_lat": 0.0, "name": "1463f576b6fcbd92f12408d275cd03a6", "lon": -77.0318915, "is_disabled": 0, "is_reserved": 0, "fusion_lon": 0.0, "bike_id": "1463f576b6fcbd92f12408d275cd03a6", "lat": 38.91537533333333}, {"type": "electric_scooter", "rental_uris": {"android": "https://dc.lft.to/lastmile_qr_scan", "ios": "https://dc.lft.to/lastmile_qr_scan"}, "fusion_lat": 0.0, "name": "c8adefeda96ae603a341acb46d9bc3b9", "lon": -77.0318205, "is_disabled": 0, "is_reserved": 0, "fusion_lon": 0.0, "bike_id": "c8adefeda96ae603a341acb46d9bc3b9", "lat": 38.911190833333336}, {"type": "electric_scooter", "rental_uris": {"android": "https://dc.lft.to/lastmile_qr_scan", "ios": "https://dc.lft.to/lastmile_qr_scan"}, "fusion_lat": 0.0, "name": "7efbee7434c3cfded1d9e00896e17de0", "lon": -77.07593783333333, "is_disabled": 0, "is_reserved": 0, "fusion_lon": 0.0, "bike_id": "7efbee7434c3cfded1d9e00896e17de0", "lat": 38.912191}, {"type": "electric_scooter", "rental_uris": {"android": "https://dc.lft.to/lastmile_qr_scan", "ios": "https://dc.lft.to/lastmile_qr_scan"}, "fusion_lat": 0.0, "name": "0f53d197d48ec4868c1d8dab81666049", "lon": -77.00462983333334, "is_disabled": 0, "is_reserved": 0, "fusion_lon": 0.0, "bike_id": "0f53d197d48ec4868c1d8dab81666049", "lat": 38.87771266666667}, {"type": "electric_scooter", "rental_uris": {"android": "https://dc.lft.to/lastmile_qr_scan", "ios": "https://dc.lft.to/lastmile_qr_scan"}, "fusion_lat": 0.0, "name": "757d7c057825ce73c5ab9854a6070908", "lon": -77.02682483333334, "is_disabled": 0, "is_reserved": 0, "fusion_lon": 0.0, "bike_id": "757d7c057825ce73c5ab9854a6070908", "lat": 38.907261}, {"type": "electric_bike", "rental_uris": {"android": "https://dc.lft.to/lastmile_qr_scan", "ios": "https://dc.lft.to/lastmile_qr_scan"}, "fusion_lat": 0.0, "name": "c0d50789066e2a2170d5715b1a8ca57a", "lon": -77.03165966666667, "is_disabled": 0, "is_reserved": 0, "fusion_lon": 0.0, "bike_id": "c0d50789066e2a2170d5715b1a8ca57a", "lat": 38.92104}, {"type": "electric_scooter", "rental_uris": {"android": "https://dc.lft.to/lastmile_qr_scan", "ios": "https://dc.lft.to/lastmile_qr_scan"}, "fusion_lat": 0.0, "name": "2d7dbc1d41ba4c4bf013e4a4db1087d1", "lon": -77.03502566666667, "is_disabled": 0, "is_reserved": 0, "fusion_lon": 0.0, "bike_id": "2d7dbc1d41ba4c4bf013e4a4db1087d1", "lat": 38.921533333333336}, {"type": "electric_scooter", "rental_uris": {"android": "https://dc.lft.to/lastmile_qr_scan", "ios": "https://dc.lft.to/lastmile_qr_scan"}, "fusion_lat": 0.0, "name": "e8a26b2ab1083dc487100ec0ad17aa2e", "lon": -77.02149016666667, "is_disabled": 0, "is_reserved": 0, "fusion_lon": 0.0, "bike_id": "e8a26b2ab1083dc487100ec0ad17aa2e", "lat": 38.92606333333333}, {"type": "electric_bike", "rental_uris": {"android": "https://dc.lft.to/lastmile_qr_scan", "ios": "https://dc.lft.to/lastmile_qr_scan"}, "fusion_lat": 0.0, "name": "87c75536ea5ea83e9d93408d93ac8dba", "lon": -76.96061133333333, "is_disabled": 0, "is_reserved": 0, "fusion_lon": 0.0, "bike_id": "87c75536ea5ea83e9d93408d93ac8dba", "lat": 38.884023166666665}, {"type": "electric_scooter", "rental_uris": {"android": "https://dc.lft.to/lastmile_qr_scan", "ios": "https://dc.lft.to/lastmile_qr_scan"}, "fusion_lat": 0.0, "name": "913dc9d37ee97fbc1df67d2578e0e7b3", "lon": -77.0220835, "is_disabled": 0, "is_reserved": 0, "fusion_lon": 0.0, "bike_id": "913dc9d37ee97fbc1df67d2578e0e7b3", "lat": 38.9015955}, {"type": "electric_scooter", "rental_uris": {"android": "https://dc.lft.to/lastmile_qr_scan", "ios": "https://dc.lft.to/lastmile_qr_scan"}, "fusion_lat": 0.0, "name": "31be2927acad7e8fd52970f800e36a99", "lon": -76.98828016666667, "is_disabled": 0, "is_reserved": 0, "fusion_lon": 0.0, "bike_id": "31be2927acad7e8fd52970f800e36a99", "lat": 38.89076633333333}, {"type": "electric_scooter", "rental_uris": {"android": "https://dc.lft.to/lastmile_qr_scan", "ios": "https://dc.lft.to/lastmile_qr_scan"}, "fusion_lat": 0.0, "name": "333cad1ab641f8deb3d47b39fcc25c27", "lon": -77.01736516666666, "is_disabled": 0, "is_reserved": 0, "fusion_lon": 0.0, "bike_id": "333cad1ab641f8deb3d47b39fcc25c27", "lat": 38.97519716666667}, {"type": "electric_scooter", "rental_uris": {"android": "https://dc.lft.to/lastmile_qr_scan", "ios": "https://dc.lft.to/lastmile_qr_scan"}, "fusion_lat": 0.0, "name": "44d165c3aedcd1c2a44f1d5dc8a4b528", "lon": -77.00243433333333, "is_disabled": 0, "is_reserved": 0, "fusion_lon": 0.0, "bike_id": "44d165c3aedcd1c2a44f1d5dc8a4b528", "lat": 38.957214666666665}, {"type": "electric_scooter", "rental_uris": {"android": "https://dc.lft.to/lastmile_qr_scan", "ios": "https://dc.lft.to/lastmile_qr_scan"}, "fusion_lat": 0.0, "name": "8cd65d5532ccfdea5fe23b4ad14a1f18", "lon": -77.02688566666667, "is_disabled": 0, "is_reserved": 0, "fusion_lon": 0.0, "bike_id": "8cd65d5532ccfdea5fe23b4ad14a1f18", "lat": 38.8982215}, {"type": "electric_scooter", "rental_uris": {"android": "https://dc.lft.to/lastmile_qr_scan", "ios": "https://dc.lft.to/lastmile_qr_scan"}, "fusion_lat": 0.0, "name": "e121e3d2d1c85d39dc617353a19d7903", "lon": -77.017725, "is_disabled": 0, "is_reserved": 0, "fusion_lon": 0.0, "bike_id": "e121e3d2d1c85d39dc617353a19d7903", "lat": 38.904064}, {"type": "electric_scooter", "rental_uris": {"android": "https://dc.lft.to/lastmile_qr_scan", "ios": "https://dc.lft.to/lastmile_qr_scan"}, "fusion_lat": 0.0, "name": "c336b921e81be3aa692b11d7daf5de64", "lon": -76.995452, "is_disabled": 0, "is_reserved": 0, "fusion_lon": 0.0, "bike_id": "c336b921e81be3aa692b11d7daf5de64", "lat": 38.862594666666666}, {"type": "electric_scooter", "rental_uris": {"android": "https://dc.lft.to/lastmile_qr_scan", "ios": "https://dc.lft.to/lastmile_qr_scan"}, "fusion_lat": 0.0, "name": "9e85e058fc1a2db17af785485faa53e8", "lon": -77.03190033333334, "is_disabled": 0, "is_reserved": 0, "fusion_lon": 0.0, "bike_id": "9e85e058fc1a2db17af785485faa53e8", "lat": 38.91791966666667}, {"type": "electric_scooter", "rental_uris": {"android": "https://dc.lft.to/lastmile_qr_scan", "ios": "https://dc.lft.to/lastmile_qr_scan"}, "fusion_lat": 0.0, "name": "11d631283e3625c6eef71659c4599ddb", "lon": -77.02976933333333, "is_disabled": 0, "is_reserved": 0, "fusion_lon": 0.0, "bike_id": "11d631283e3625c6eef71659c4599ddb", "lat": 38.921962666666666}, {"type": "electric_scooter", "rental_uris": {"android": "https://dc.lft.to/lastmile_qr_scan", "ios": "https://dc.lft.to/lastmile_qr_scan"}, "fusion_lat": 0.0, "name": "04fc97c11ec44aea83fea210cfc76d01", "lon": -77.024809, "is_disabled": 0, "is_reserved": 0, "fusion_lon": 0.0, "bike_id": "04fc97c11ec44aea83fea210cfc76d01", "lat": 38.938654}, {"type": "electric_scooter", "rental_uris": {"android": "https://dc.lft.to/lastmile_qr_scan", "ios": "https://dc.lft.to/lastmile_qr_scan"}, "fusion_lat": 0.0, "name": "d5c3e46037799fb34a7e57180129c51d", "lon": -77.0335825, "is_disabled": 0, "is_reserved": 0, "fusion_lon": 0.0, "bike_id": "d5c3e46037799fb34a7e57180129c51d", "lat": 38.89999516666666}, {"type": "electric_bike", "rental_uris": {"android": "https://dc.lft.to/lastmile_qr_scan", "ios": "https://dc.lft.to/lastmile_qr_scan"}, "fusion_lat": 0.0, "name": "46c87728e80e7f4c9956edf1b6382b64", "lon": -76.96100583333333, "is_disabled": 0, "is_reserved": 0, "fusion_lon": 0.0, "bike_id": "46c87728e80e7f4c9956edf1b6382b64", "lat": 38.949679833333334}, {"type": "electric_scooter", "rental_uris": {"android": "https://dc.lft.to/lastmile_qr_scan", "ios": "https://dc.lft.to/lastmile_qr_scan"}, "fusion_lat": 0.0, "name": "2ecda83f32a1ae12ee6818e6a57124cb", "lon": -77.00751033333333, "is_disabled": 0, "is_reserved": 0, "fusion_lon": 0.0, "bike_id": "2ecda83f32a1ae12ee6818e6a57124cb", "lat": 38.897348}, {"type": "electric_scooter", "rental_uris": {"android": "https://dc.lft.to/lastmile_qr_scan", "ios": "https://dc.lft.to/lastmile_qr_scan"}, "fusion_lat": 0.0, "name": "50c742ae9ba01d0776d4f4ff55227b01", "lon": -77.01742366666667, "is_disabled": 0, "is_reserved": 0, "fusion_lon": 0.0, "bike_id": "50c742ae9ba01d0776d4f4ff55227b01", "lat": 38.902445166666666}, {"type": "electric_scooter", "rental_uris": {"android": "https://dc.lft.to/lastmile_qr_scan", "ios": "https://dc.lft.to/lastmile_qr_scan"}, "fusion_lat": 0.0, "name": "b8bf732473dab537b5a09ff14ffd0aed", "lon": -77.01876983333334, "is_disabled": 0, "is_reserved": 0, "fusion_lon": 0.0, "bike_id": "b8bf732473dab537b5a09ff14ffd0aed", "lat": 38.914181}, {"type": "electric_scooter", "rental_uris": {"android": "https://dc.lft.to/lastmile_qr_scan", "ios": "https://dc.lft.to/lastmile_qr_scan"}, "fusion_lat": 0.0, "name": "b8a084dd7dc0171fc9fa7a41f11e14ec", "lon": -77.03188866666666, "is_disabled": 0, "is_reserved": 0, "fusion_lon": 0.0, "bike_id": "b8a084dd7dc0171fc9fa7a41f11e14ec", "lat": 38.930624}, {"type": "electric_scooter", "rental_uris": {"android": "https://dc.lft.to/lastmile_qr_scan", "ios": "https://dc.lft.to/lastmile_qr_scan"}, "fusion_lat": 0.0, "name": "ce8465f5602389e025114c730224d194", "lon": -77.0318965, "is_disabled": 0, "is_reserved": 0, "fusion_lon": 0.0, "bike_id": "ce8465f5602389e025114c730224d194", "lat": 38.918161}, {"type": "electric_scooter", "rental_uris": {"android": "https://dc.lft.to/lastmile_qr_scan", "ios": "https://dc.lft.to/lastmile_qr_scan"}, "fusion_lat": 0.0, "name": "b55347277bf5d7b2c913284d5d67f4da", "lon": -77.00336166666666, "is_disabled": 0, "is_reserved": 0, "fusion_lon": 0.0, "bike_id": "b55347277bf5d7b2c913284d5d67f4da", "lat": 38.893568}, {"type": "electric_scooter", "rental_uris": {"android": "https://dc.lft.to/lastmile_qr_scan", "ios": "https://dc.lft.to/lastmile_qr_scan"}, "fusion_lat": 0.0, "name": "eea3281c1a0ddf41302bb73046aac25b", "lon": -77.01816083333334, "is_disabled": 0, "is_reserved": 0, "fusion_lon": 0.0, "bike_id": "eea3281c1a0ddf41302bb73046aac25b", "lat": 38.9304265}, {"type": "electric_scooter", "rental_uris": {"android": "https://dc.lft.to/lastmile_qr_scan", "ios": "https://dc.lft.to/lastmile_qr_scan"}, "fusion_lat": 0.0, "name": "9aa89e8be9d2cc426a9afa6cc739a30b", "lon": -76.97398366666667, "is_disabled": 0, "is_reserved": 0, "fusion_lon": 0.0, "bike_id": "9aa89e8be9d2cc426a9afa6cc739a30b", "lat": 38.90299816666667}, {"type": "electric_scooter", "rental_uris": {"android": "https://dc.lft.to/lastmile_qr_scan", "ios": "https://dc.lft.to/lastmile_qr_scan"}, "fusion_lat": 0.0, "name": "d2a13a97305f6693a31d9afa866b6d75", "lon": -77.0244135, "is_disabled": 0, "is_reserved": 0, "fusion_lon": 0.0, "bike_id": "d2a13a97305f6693a31d9afa866b6d75", "lat": 38.937161833333334}, {"type": "electric_scooter", "rental_uris": {"android": "https://dc.lft.to/lastmile_qr_scan", "ios": "https://dc.lft.to/lastmile_qr_scan"}, "fusion_lat": 0.0, "name": "c741f55b5694223b747dae0a5c8afd94", "lon": -77.03902583333333, "is_disabled": 0, "is_reserved": 0, "fusion_lon": 0.0, "bike_id": "c741f55b5694223b747dae0a5c8afd94", "lat": 38.91873433333333}, {"type": "electric_scooter", "rental_uris": {"android": "https://dc.lft.to/lastmile_qr_scan", "ios": "https://dc.lft.to/lastmile_qr_scan"}, "fusion_lat": 0.0, "name": "5dc4b5ee147570414f5764419f62bd89", "lon": -77.022808, "is_disabled": 0, "is_reserved": 0, "fusion_lon": 0.0, "bike_id": "5dc4b5ee147570414f5764419f62bd89", "lat": 38.916258666666664}, {"type": "electric_scooter", "rental_uris": {"android": "https://dc.lft.to/lastmile_qr_scan", "ios": "https://dc.lft.to/lastmile_qr_scan"}, "fusion_lat": 0.0, "name": "cecd947831834e8d791f09955506de72", "lon": -77.055596, "is_disabled": 0, "is_reserved": 0, "fusion_lon": 0.0, "bike_id": "cecd947831834e8d791f09955506de72", "lat": 38.908528}, {"type": "electric_scooter", "rental_uris": {"android": "https://dc.lft.to/lastmile_qr_scan", "ios": "https://dc.lft.to/lastmile_qr_scan"}, "fusion_lat": 0.0, "name": "a8e97ff62e16b769e56e2f3ec11513f3", "lon": -77.01835333333334, "is_disabled": 0, "is_reserved": 0, "fusion_lon": 0.0, "bike_id": "a8e97ff62e16b769e56e2f3ec11513f3", "lat": 38.91521566666667}, {"type": "electric_scooter", "rental_uris": {"android": "https://dc.lft.to/lastmile_qr_scan", "ios": "https://dc.lft.to/lastmile_qr_scan"}, "fusion_lat": 0.0, "name": "187becfd5a433f21d8cce51a87d3b9a6", "lon": -77.0004975, "is_disabled": 0, "is_reserved": 0, "fusion_lon": 0.0, "bike_id": "187becfd5a433f21d8cce51a87d3b9a6", "lat": 38.900102}, {"type": "electric_scooter", "rental_uris": {"android": "https://dc.lft.to/lastmile_qr_scan", "ios": "https://dc.lft.to/lastmile_qr_scan"}, "fusion_lat": 0.0, "name": "6a3607214141282fc86871729cfff558", "lon": -77.07413433333333, "is_disabled": 0, "is_reserved": 0, "fusion_lon": 0.0, "bike_id": "6a3607214141282fc86871729cfff558", "lat": 38.928941}, {"type": "electric_scooter", "rental_uris": {"android": "https://dc.lft.to/lastmile_qr_scan", "ios": "https://dc.lft.to/lastmile_qr_scan"}, "fusion_lat": 0.0, "name": "5922fe13746b3e2161593244deb28376", "lon": -76.98602166666667, "is_disabled": 0, "is_reserved": 0, "fusion_lon": 0.0, "bike_id": "5922fe13746b3e2161593244deb28376", "lat": 38.900175}, {"type": "electric_scooter", "rental_uris": {"android": "https://dc.lft.to/lastmile_qr_scan", "ios": "https://dc.lft.to/lastmile_qr_scan"}, "fusion_lat": 0.0, "name": "008693661b8ec6d3e0b75c640af668ea", "lon": -76.934806, "is_disabled": 0, "is_reserved": 0, "fusion_lon": 0.0, "bike_id": "008693661b8ec6d3e0b75c640af668ea", "lat": 38.90583383333333}, {"type": "electric_scooter", "rental_uris": {"android": "https://dc.lft.to/lastmile_qr_scan", "ios": "https://dc.lft.to/lastmile_qr_scan"}, "fusion_lat": 0.0, "name": "60990f85be7659ba31d156ec4d82115b", "lon": -77.02612533333334, "is_disabled": 0, "is_reserved": 0, "fusion_lon": 0.0, "bike_id": "60990f85be7659ba31d156ec4d82115b", "lat": 38.898336666666665}, {"type": "electric_scooter", "rental_uris": {"android": "https://dc.lft.to/lastmile_qr_scan", "ios": "https://dc.lft.to/lastmile_qr_scan"}, "fusion_lat": 0.0, "name": "7fe75adfa2ff9bd390150960a56cefe4", "lon": -76.98909866666666, "is_disabled": 0, "is_reserved": 0, "fusion_lon": 0.0, "bike_id": "7fe75adfa2ff9bd390150960a56cefe4", "lat": 38.8649375}, {"type": "electric_scooter", "rental_uris": {"android": "https://dc.lft.to/lastmile_qr_scan", "ios": "https://dc.lft.to/lastmile_qr_scan"}, "fusion_lat": 0.0, "name": "20f6aca4344403c8a3b970ffcea97d55", "lon": -77.038523, "is_disabled": 0, "is_reserved": 0, "fusion_lon": 0.0, "bike_id": "20f6aca4344403c8a3b970ffcea97d55", "lat": 38.90272733333333}, {"type": "electric_scooter", "rental_uris": {"android": "https://dc.lft.to/lastmile_qr_scan", "ios": "https://dc.lft.to/lastmile_qr_scan"}, "fusion_lat": 0.0, "name": "ba947cdc33ac713a4f6c016fe808e548", "lon": -77.02152433333333, "is_disabled": 0, "is_reserved": 0, "fusion_lon": 0.0, "bike_id": "ba947cdc33ac713a4f6c016fe808e548", "lat": 38.902952666666664}, {"type": "electric_scooter", "rental_uris": {"android": "https://dc.lft.to/lastmile_qr_scan", "ios": "https://dc.lft.to/lastmile_qr_scan"}, "fusion_lat": 0.0, "name": "f28ed9cd7c54d929eeac27f86e0bfcc2", "lon": -76.94591633333333, "is_disabled": 0, "is_reserved": 0, "fusion_lon": 0.0, "bike_id": "f28ed9cd7c54d929eeac27f86e0bfcc2", "lat": 38.90150916666666}, {"type": "electric_scooter", "rental_uris": {"android": "https://dc.lft.to/lastmile_qr_scan", "ios": "https://dc.lft.to/lastmile_qr_scan"}, "fusion_lat": 0.0, "name": "b32a9ea0ca69c3f8f4cfda6256f6ca98", "lon": -76.99000833333334, "is_disabled": 0, "is_reserved": 0, "fusion_lon": 0.0, "bike_id": "b32a9ea0ca69c3f8f4cfda6256f6ca98", "lat": 38.8643495}, {"type": "electric_bike", "rental_uris": {"android": "https://dc.lft.to/lastmile_qr_scan", "ios": "https://dc.lft.to/lastmile_qr_scan"}, "fusion_lat": 0.0, "name": "17ad87cbf7c04dd8ce2ae472c3a3ad08", "lon": -77.0903875, "is_disabled": 0, "is_reserved": 0, "fusion_lon": 0.0, "bike_id": "17ad87cbf7c04dd8ce2ae472c3a3ad08", "lat": 38.8497255}, {"type": "electric_scooter", "rental_uris": {"android": "https://dc.lft.to/lastmile_qr_scan", "ios": "https://dc.lft.to/lastmile_qr_scan"}, "fusion_lat": 0.0, "name": "182e7d33e17c9a38705976ce9ce1d2d4", "lon": -77.03999966666667, "is_disabled": 0, "is_reserved": 0, "fusion_lon": 0.0, "bike_id": "182e7d33e17c9a38705976ce9ce1d2d4", "lat": 38.93431566666667}, {"type": "electric_scooter", "rental_uris": {"android": "https://dc.lft.to/lastmile_qr_scan", "ios": "https://dc.lft.to/lastmile_qr_scan"}, "fusion_lat": 0.0, "name": "710398abfc7770f2c041893f1c9a9015", "lon": -77.02711683333334, "is_disabled": 0, "is_reserved": 0, "fusion_lon": 0.0, "bike_id": "710398abfc7770f2c041893f1c9a9015", "lat": 38.92478283333333}, {"type": "electric_scooter", "rental_uris": {"android": "https://dc.lft.to/lastmile_qr_scan", "ios": "https://dc.lft.to/lastmile_qr_scan"}, "fusion_lat": 0.0, "name": "08468a1005dc3142021e2aec509b0bdf", "lon": -76.9801435, "is_disabled": 0, "is_reserved": 0, "fusion_lon": 0.0, "bike_id": "08468a1005dc3142021e2aec509b0bdf", "lat": 38.90090333333333}, {"type": "electric_scooter", "rental_uris": {"android": "https://dc.lft.to/lastmile_qr_scan", "ios": "https://dc.lft.to/lastmile_qr_scan"}, "fusion_lat": 0.0, "name": "fad788742f2d4b163c94e7842ecb759b", "lon": -77.02297566666667, "is_disabled": 0, "is_reserved": 0, "fusion_lon": 0.0, "bike_id": "fad788742f2d4b163c94e7842ecb759b", "lat": 38.92839416666666}, {"type": "electric_scooter", "rental_uris": {"android": "https://dc.lft.to/lastmile_qr_scan", "ios": "https://dc.lft.to/lastmile_qr_scan"}, "fusion_lat": 0.0, "name": "150bfc401019604b9e30cb3e29e399d6", "lon": -77.03935433333334, "is_disabled": 0, "is_reserved": 0, "fusion_lon": 0.0, "bike_id": "150bfc401019604b9e30cb3e29e399d6", "lat": 38.91572016666667}, {"type": "electric_bike", "rental_uris": {"android": "https://dc.lft.to/lastmile_qr_scan", "ios": "https://dc.lft.to/lastmile_qr_scan"}, "fusion_lat": 0.0, "name": "3276701fa926c42830b9667d1ac9127d", "lon": -76.94571033333334, "is_disabled": 0, "is_reserved": 0, "fusion_lon": 0.0, "bike_id": "3276701fa926c42830b9667d1ac9127d", "lat": 38.9375135}, {"type": "electric_scooter", "rental_uris": {"android": "https://dc.lft.to/lastmile_qr_scan", "ios": "https://dc.lft.to/lastmile_qr_scan"}, "fusion_lat": 0.0, "name": "4511b207d8ddbdbfc453057760482d14", "lon": -77.03415466666667, "is_disabled": 0, "is_reserved": 0, "fusion_lon": 0.0, "bike_id": "4511b207d8ddbdbfc453057760482d14", "lat": 38.917066}, {"type": "electric_scooter", "rental_uris": {"android": "https://dc.lft.to/lastmile_qr_scan", "ios": "https://dc.lft.to/lastmile_qr_scan"}, "fusion_lat": 0.0, "name": "f49a6b03993a655f7cb3de3e381db8dc", "lon": -77.019915, "is_disabled": 0, "is_reserved": 0, "fusion_lon": 0.0, "bike_id": "f49a6b03993a655f7cb3de3e381db8dc", "lat": 38.895371833333336}, {"type": "electric_scooter", "rental_uris": {"android": "https://dc.lft.to/lastmile_qr_scan", "ios": "https://dc.lft.to/lastmile_qr_scan"}, "fusion_lat": 0.0, "name": "695da96e231f9d352d4494effb94e724", "lon": -77.03194616666667, "is_disabled": 0, "is_reserved": 0, "fusion_lon": 0.0, "bike_id": "695da96e231f9d352d4494effb94e724", "lat": 38.91800033333333}, {"type": "electric_scooter", "rental_uris": {"android": "https://dc.lft.to/lastmile_qr_scan", "ios": "https://dc.lft.to/lastmile_qr_scan"}, "fusion_lat": 0.0, "name": "9b29f25e0cf3b98b051c51f7e5b612fb", "lon": -77.0319155, "is_disabled": 0, "is_reserved": 0, "fusion_lon": 0.0, "bike_id": "9b29f25e0cf3b98b051c51f7e5b612fb", "lat": 38.915338166666665}, {"type": "electric_scooter", "rental_uris": {"android": "https://dc.lft.to/lastmile_qr_scan", "ios": "https://dc.lft.to/lastmile_qr_scan"}, "fusion_lat": 0.0, "name": "035e81559859e59f209d0bcde28bad04", "lon": -77.0486645, "is_disabled": 0, "is_reserved": 0, "fusion_lon": 0.0, "bike_id": "035e81559859e59f209d0bcde28bad04", "lat": 38.89223833333333}, {"type": "electric_scooter", "rental_uris": {"android": "https://dc.lft.to/lastmile_qr_scan", "ios": "https://dc.lft.to/lastmile_qr_scan"}, "fusion_lat": 0.0, "name": "fe480abc4597cb323147715e8de243bc", "lon": -77.04081933333333, "is_disabled": 0, "is_reserved": 0, "fusion_lon": 0.0, "bike_id": "fe480abc4597cb323147715e8de243bc", "lat": 38.90720733333333}, {"type": "electric_scooter", "rental_uris": {"android": "https://dc.lft.to/lastmile_qr_scan", "ios": "https://dc.lft.to/lastmile_qr_scan"}, "fusion_lat": 0.0, "name": "6b8b9b695e6451eea166fe21f50ac5ac", "lon": -77.02659016666667, "is_disabled": 0, "is_reserved": 0, "fusion_lon": 0.0, "bike_id": "6b8b9b695e6451eea166fe21f50ac5ac", "lat": 38.89623666666667}, {"type": "electric_scooter", "rental_uris": {"android": "https://dc.lft.to/lastmile_qr_scan", "ios": "https://dc.lft.to/lastmile_qr_scan"}, "fusion_lat": 0.0, "name": "86283481f3031e3694ddbec32046b5ae", "lon": -77.0283685, "is_disabled": 0, "is_reserved": 0, "fusion_lon": 0.0, "bike_id": "86283481f3031e3694ddbec32046b5ae", "lat": 38.91708966666667}, {"type": "electric_scooter", "rental_uris": {"android": "https://dc.lft.to/lastmile_qr_scan", "ios": "https://dc.lft.to/lastmile_qr_scan"}, "fusion_lat": 0.0, "name": "c21e6841bf29e5d45418a692214d1045", "lon": -77.02426633333333, "is_disabled": 0, "is_reserved": 0, "fusion_lon": 0.0, "bike_id": "c21e6841bf29e5d45418a692214d1045", "lat": 38.92089816666667}, {"type": "electric_scooter", "rental_uris": {"android": "https://dc.lft.to/lastmile_qr_scan", "ios": "https://dc.lft.to/lastmile_qr_scan"}, "fusion_lat": 0.0, "name": "b68f69cd200d93a7cff696967ae7ce20", "lon": -76.98022083333333, "is_disabled": 0, "is_reserved": 0, "fusion_lon": 0.0, "bike_id": "b68f69cd200d93a7cff696967ae7ce20", "lat": 38.853139666666664}, {"type": "electric_scooter", "rental_uris": {"android": "https://dc.lft.to/lastmile_qr_scan", "ios": "https://dc.lft.to/lastmile_qr_scan"}, "fusion_lat": 0.0, "name": "b28393181dcf22d3936c2c16d05b7ef8", "lon": -77.02978383333334, "is_disabled": 0, "is_reserved": 0, "fusion_lon": 0.0, "bike_id": "b28393181dcf22d3936c2c16d05b7ef8", "lat": 38.9405125}, {"type": "electric_scooter", "rental_uris": {"android": "https://dc.lft.to/lastmile_qr_scan", "ios": "https://dc.lft.to/lastmile_qr_scan"}, "fusion_lat": 0.0, "name": "7a0b21ae72c50247cae13eafae5b9e20", "lon": -77.0522805, "is_disabled": 0, "is_reserved": 0, "fusion_lon": 0.0, "bike_id": "7a0b21ae72c50247cae13eafae5b9e20", "lat": 38.925161333333335}, {"type": "electric_scooter", "rental_uris": {"android": "https://dc.lft.to/lastmile_qr_scan", "ios": "https://dc.lft.to/lastmile_qr_scan"}, "fusion_lat": 0.0, "name": "d18f72b27991d55cae6be3f1be8fecdb", "lon": -76.9993115, "is_disabled": 0, "is_reserved": 0, "fusion_lon": 0.0, "bike_id": "d18f72b27991d55cae6be3f1be8fecdb", "lat": 38.900266}, {"type": "electric_scooter", "rental_uris": {"android": "https://dc.lft.to/lastmile_qr_scan", "ios": "https://dc.lft.to/lastmile_qr_scan"}, "fusion_lat": 0.0, "name": "33085ee8e457b42e29bc12596304408f", "lon": -77.02320083333333, "is_disabled": 0, "is_reserved": 0, "fusion_lon": 0.0, "bike_id": "33085ee8e457b42e29bc12596304408f", "lat": 38.955298666666664}, {"type": "electric_scooter", "rental_uris": {"android": "https://dc.lft.to/lastmile_qr_scan", "ios": "https://dc.lft.to/lastmile_qr_scan"}, "fusion_lat": 0.0, "name": "9d9304179b5ecb7e868a79743a67a6d3", "lon": -76.94980066666666, "is_disabled": 0, "is_reserved": 0, "fusion_lon": 0.0, "bike_id": "9d9304179b5ecb7e868a79743a67a6d3", "lat": 38.89456933333334}, {"type": "electric_scooter", "rental_uris": {"android": "https://dc.lft.to/lastmile_qr_scan", "ios": "https://dc.lft.to/lastmile_qr_scan"}, "fusion_lat": 0.0, "name": "dfda5033a64890b16676b29f1cb8bfa6", "lon": -76.95195366666667, "is_disabled": 0, "is_reserved": 0, "fusion_lon": 0.0, "bike_id": "dfda5033a64890b16676b29f1cb8bfa6", "lat": 38.90004966666667}, {"type": "electric_scooter", "rental_uris": {"android": "https://dc.lft.to/lastmile_qr_scan", "ios": "https://dc.lft.to/lastmile_qr_scan"}, "fusion_lat": 0.0, "name": "33daf533f77428b3d79be52cdc33258c", "lon": -76.93361433333334, "is_disabled": 0, "is_reserved": 0, "fusion_lon": 0.0, "bike_id": "33daf533f77428b3d79be52cdc33258c", "lat": 38.89918383333333}, {"type": "electric_bike", "rental_uris": {"android": "https://dc.lft.to/lastmile_qr_scan", "ios": "https://dc.lft.to/lastmile_qr_scan"}, "fusion_lat": 0.0, "name": "40d7f7ba343ece2e4c33af28945f390d", "lon": -76.9808705, "is_disabled": 0, "is_reserved": 0, "fusion_lon": 0.0, "bike_id": "40d7f7ba343ece2e4c33af28945f390d", "lat": 38.88134866666667}, {"type": "electric_scooter", "rental_uris": {"android": "https://dc.lft.to/lastmile_qr_scan", "ios": "https://dc.lft.to/lastmile_qr_scan"}, "fusion_lat": 0.0, "name": "4d96460130e16af586235df99ec94c78", "lon": -77.0269575, "is_disabled": 0, "is_reserved": 0, "fusion_lon": 0.0, "bike_id": "4d96460130e16af586235df99ec94c78", "lat": 38.925718833333335}, {"type": "electric_scooter", "rental_uris": {"android": "https://dc.lft.to/lastmile_qr_scan", "ios": "https://dc.lft.to/lastmile_qr_scan"}, "fusion_lat": 0.0, "name": "1b669b14825e9a471052bffd48f65a7d", "lon": -77.03857233333333, "is_disabled": 0, "is_reserved": 0, "fusion_lon": 0.0, "bike_id": "1b669b14825e9a471052bffd48f65a7d", "lat": 38.90971366666667}, {"type": "electric_scooter", "rental_uris": {"android": "https://dc.lft.to/lastmile_qr_scan", "ios": "https://dc.lft.to/lastmile_qr_scan"}, "fusion_lat": 0.0, "name": "3874268f6743f68654030417e262563d", "lon": -76.9947355, "is_disabled": 0, "is_reserved": 0, "fusion_lon": 0.0, "bike_id": "3874268f6743f68654030417e262563d", "lat": 38.862175}, {"type": "electric_scooter", "rental_uris": {"android": "https://dc.lft.to/lastmile_qr_scan", "ios": "https://dc.lft.to/lastmile_qr_scan"}, "fusion_lat": 0.0, "name": "8d621e7b1214df97d7a8637a844005f6", "lon": -77.017269, "is_disabled": 0, "is_reserved": 0, "fusion_lon": 0.0, "bike_id": "8d621e7b1214df97d7a8637a844005f6", "lat": 38.915014}, {"type": "electric_scooter", "rental_uris": {"android": "https://dc.lft.to/lastmile_qr_scan", "ios": "https://dc.lft.to/lastmile_qr_scan"}, "fusion_lat": 0.0, "name": "454c2f71d42973267d7bf4ea0dc49837", "lon": -77.02685316666667, "is_disabled": 0, "is_reserved": 0, "fusion_lon": 0.0, "bike_id": "454c2f71d42973267d7bf4ea0dc49837", "lat": 38.90240766666667}, {"type": "electric_scooter", "rental_uris": {"android": "https://dc.lft.to/lastmile_qr_scan", "ios": "https://dc.lft.to/lastmile_qr_scan"}, "fusion_lat": 0.0, "name": "1f768c4e8b08b84d384d09714f2870f2", "lon": -77.04800583333333, "is_disabled": 0, "is_reserved": 0, "fusion_lon": 0.0, "bike_id": "1f768c4e8b08b84d384d09714f2870f2", "lat": 38.90860083333333}, {"type": "electric_scooter", "rental_uris": {"android": "https://dc.lft.to/lastmile_qr_scan", "ios": "https://dc.lft.to/lastmile_qr_scan"}, "fusion_lat": 0.0, "name": "014d245994d71b199c0b326fa7c081f4", "lon": -76.988331, "is_disabled": 0, "is_reserved": 0, "fusion_lon": 0.0, "bike_id": "014d245994d71b199c0b326fa7c081f4", "lat": 38.892498}, {"type": "electric_scooter", "rental_uris": {"android": "https://dc.lft.to/lastmile_qr_scan", "ios": "https://dc.lft.to/lastmile_qr_scan"}, "fusion_lat": 0.0, "name": "a7b05226aab2c63e2730118fd98e4eef", "lon": -77.04710583333333, "is_disabled": 0, "is_reserved": 0, "fusion_lon": 0.0, "bike_id": "a7b05226aab2c63e2730118fd98e4eef", "lat": 38.92228433333333}, {"type": "electric_scooter", "rental_uris": {"android": "https://dc.lft.to/lastmile_qr_scan", "ios": "https://dc.lft.to/lastmile_qr_scan"}, "fusion_lat": 0.0, "name": "8075522d3d993d2131205bf73e5f51c0", "lon": -77.0419205, "is_disabled": 0, "is_reserved": 0, "fusion_lon": 0.0, "bike_id": "8075522d3d993d2131205bf73e5f51c0", "lat": 38.926226}, {"type": "electric_scooter", "rental_uris": {"android": "https://dc.lft.to/lastmile_qr_scan", "ios": "https://dc.lft.to/lastmile_qr_scan"}, "fusion_lat": 0.0, "name": "bbde33feb66c5dab83627bc3b78e658d", "lon": -77.0364025, "is_disabled": 0, "is_reserved": 0, "fusion_lon": 0.0, "bike_id": "bbde33feb66c5dab83627bc3b78e658d", "lat": 38.90287}, {"type": "electric_scooter", "rental_uris": {"android": "https://dc.lft.to/lastmile_qr_scan", "ios": "https://dc.lft.to/lastmile_qr_scan"}, "fusion_lat": 0.0, "name": "c5356a3352b91666b6e9e47a0390b0c4", "lon": -76.99371183333334, "is_disabled": 0, "is_reserved": 0, "fusion_lon": 0.0, "bike_id": "c5356a3352b91666b6e9e47a0390b0c4", "lat": 38.88340933333333}, {"type": "electric_scooter", "rental_uris": {"android": "https://dc.lft.to/lastmile_qr_scan", "ios": "https://dc.lft.to/lastmile_qr_scan"}, "fusion_lat": 0.0, "name": "0df640f3c3612f334b7cbceffa9d9dc2", "lon": -77.02381133333333, "is_disabled": 0, "is_reserved": 0, "fusion_lon": 0.0, "bike_id": "0df640f3c3612f334b7cbceffa9d9dc2", "lat": 38.91830233333334}, {"type": "electric_scooter", "rental_uris": {"android": "https://dc.lft.to/lastmile_qr_scan", "ios": "https://dc.lft.to/lastmile_qr_scan"}, "fusion_lat": 0.0, "name": "5665355ee328ae8a0e2d5927d88f4fb7", "lon": -77.00580716666667, "is_disabled": 0, "is_reserved": 0, "fusion_lon": 0.0, "bike_id": "5665355ee328ae8a0e2d5927d88f4fb7", "lat": 38.879038666666666}, {"type": "electric_scooter", "rental_uris": {"android": "https://dc.lft.to/lastmile_qr_scan", "ios": "https://dc.lft.to/lastmile_qr_scan"}, "fusion_lat": 0.0, "name": "71a5fc35eb2392e6482efe216e53c1f9", "lon": -77.05137583333334, "is_disabled": 0, "is_reserved": 0, "fusion_lon": 0.0, "bike_id": "71a5fc35eb2392e6482efe216e53c1f9", "lat": 38.9052335}, {"type": "electric_scooter", "rental_uris": {"android": "https://dc.lft.to/lastmile_qr_scan", "ios": "https://dc.lft.to/lastmile_qr_scan"}, "fusion_lat": 0.0, "name": "5eb2f1b8cba154ac1a56eed53332bb91", "lon": -77.02018916666667, "is_disabled": 0, "is_reserved": 0, "fusion_lon": 0.0, "bike_id": "5eb2f1b8cba154ac1a56eed53332bb91", "lat": 38.9240985}, {"type": "electric_scooter", "rental_uris": {"android": "https://dc.lft.to/lastmile_qr_scan", "ios": "https://dc.lft.to/lastmile_qr_scan"}, "fusion_lat": 0.0, "name": "20af8fbf01f4c30d122f12feb6acf733", "lon": -77.01418466666667, "is_disabled": 0, "is_reserved": 0, "fusion_lon": 0.0, "bike_id": "20af8fbf01f4c30d122f12feb6acf733", "lat": 38.928382}, {"type": "electric_scooter", "rental_uris": {"android": "https://dc.lft.to/lastmile_qr_scan", "ios": "https://dc.lft.to/lastmile_qr_scan"}, "fusion_lat": 0.0, "name": "32d97e1d4f4d44bd74092625e6d22414", "lon": -77.021571, "is_disabled": 0, "is_reserved": 0, "fusion_lon": 0.0, "bike_id": "32d97e1d4f4d44bd74092625e6d22414", "lat": 38.930832333333335}, {"type": "electric_scooter", "rental_uris": {"android": "https://dc.lft.to/lastmile_qr_scan", "ios": "https://dc.lft.to/lastmile_qr_scan"}, "fusion_lat": 0.0, "name": "b62f82c330a6ec6cff4be9df3a5e0041", "lon": -77.00721033333333, "is_disabled": 0, "is_reserved": 0, "fusion_lon": 0.0, "bike_id": "b62f82c330a6ec6cff4be9df3a5e0041", "lat": 38.904718833333334}, {"type": "electric_scooter", "rental_uris": {"android": "https://dc.lft.to/lastmile_qr_scan", "ios": "https://dc.lft.to/lastmile_qr_scan"}, "fusion_lat": 0.0, "name": "03761dd5989064b870692e49160cca67", "lon": -76.97724716666667, "is_disabled": 0, "is_reserved": 0, "fusion_lon": 0.0, "bike_id": "03761dd5989064b870692e49160cca67", "lat": 38.8729055}, {"type": "electric_scooter", "rental_uris": {"android": "https://dc.lft.to/lastmile_qr_scan", "ios": "https://dc.lft.to/lastmile_qr_scan"}, "fusion_lat": 0.0, "name": "f09be0074bf7c8487cf2052151bbf8ae", "lon": -77.03466016666667, "is_disabled": 0, "is_reserved": 0, "fusion_lon": 0.0, "bike_id": "f09be0074bf7c8487cf2052151bbf8ae", "lat": 38.905728833333335}, {"type": "electric_scooter", "rental_uris": {"android": "https://dc.lft.to/lastmile_qr_scan", "ios": "https://dc.lft.to/lastmile_qr_scan"}, "fusion_lat": 0.0, "name": "e194a678fd2c58e9deedc16d4e228b13", "lon": -77.04150533333333, "is_disabled": 0, "is_reserved": 0, "fusion_lon": 0.0, "bike_id": "e194a678fd2c58e9deedc16d4e228b13", "lat": 38.916973166666665}, {"type": "electric_scooter", "rental_uris": {"android": "https://dc.lft.to/lastmile_qr_scan", "ios": "https://dc.lft.to/lastmile_qr_scan"}, "fusion_lat": 0.0, "name": "af497cbb6ce3c9cce11dd184c7d8da31", "lon": -76.9905995, "is_disabled": 0, "is_reserved": 0, "fusion_lon": 0.0, "bike_id": "af497cbb6ce3c9cce11dd184c7d8da31", "lat": 38.86360033333333}, {"type": "electric_scooter", "rental_uris": {"android": "https://dc.lft.to/lastmile_qr_scan", "ios": "https://dc.lft.to/lastmile_qr_scan"}, "fusion_lat": 0.0, "name": "6b7e0464c4a6347ecbb93484dd4cf6e3", "lon": -77.04434233333333, "is_disabled": 0, "is_reserved": 0, "fusion_lon": 0.0, "bike_id": "6b7e0464c4a6347ecbb93484dd4cf6e3", "lat": 38.921682}, {"type": "electric_scooter", "rental_uris": {"android": "https://dc.lft.to/lastmile_qr_scan", "ios": "https://dc.lft.to/lastmile_qr_scan"}, "fusion_lat": 0.0, "name": "2ed3855f42573572ae2962199b47c49b", "lon": -77.03184116666667, "is_disabled": 0, "is_reserved": 0, "fusion_lon": 0.0, "bike_id": "2ed3855f42573572ae2962199b47c49b", "lat": 38.9210295}, {"type": "electric_scooter", "rental_uris": {"android": "https://dc.lft.to/lastmile_qr_scan", "ios": "https://dc.lft.to/lastmile_qr_scan"}, "fusion_lat": 0.0, "name": "aaeb4428fffac05bf9ba045b9a5ecf3f", "lon": -77.03180483333334, "is_disabled": 0, "is_reserved": 0, "fusion_lon": 0.0, "bike_id": "aaeb4428fffac05bf9ba045b9a5ecf3f", "lat": 38.91258966666667}, {"type": "electric_scooter", "rental_uris": {"android": "https://dc.lft.to/lastmile_qr_scan", "ios": "https://dc.lft.to/lastmile_qr_scan"}, "fusion_lat": 0.0, "name": "1455f6940713ce4937fed493347b8cf4", "lon": -77.04820733333334, "is_disabled": 0, "is_reserved": 0, "fusion_lon": 0.0, "bike_id": "1455f6940713ce4937fed493347b8cf4", "lat": 38.911201166666665}, {"type": "electric_scooter", "rental_uris": {"android": "https://dc.lft.to/lastmile_qr_scan", "ios": "https://dc.lft.to/lastmile_qr_scan"}, "fusion_lat": 0.0, "name": "3c38d6f2e90e0138ea011a51cec64019", "lon": -77.01995116666667, "is_disabled": 0, "is_reserved": 0, "fusion_lon": 0.0, "bike_id": "3c38d6f2e90e0138ea011a51cec64019", "lat": 38.915761333333336}, {"type": "electric_scooter", "rental_uris": {"android": "https://dc.lft.to/lastmile_qr_scan", "ios": "https://dc.lft.to/lastmile_qr_scan"}, "fusion_lat": 0.0, "name": "0d18420dec2e85961881dbe6fd81566d", "lon": -77.040033, "is_disabled": 0, "is_reserved": 0, "fusion_lon": 0.0, "bike_id": "0d18420dec2e85961881dbe6fd81566d", "lat": 38.907981}, {"type": "electric_scooter", "rental_uris": {"android": "https://dc.lft.to/lastmile_qr_scan", "ios": "https://dc.lft.to/lastmile_qr_scan"}, "fusion_lat": 0.0, "name": "c945f025f6aae462dbd438fa578c4895", "lon": -76.93609183333334, "is_disabled": 0, "is_reserved": 0, "fusion_lon": 0.0, "bike_id": "c945f025f6aae462dbd438fa578c4895", "lat": 38.8968555}, {"type": "electric_scooter", "rental_uris": {"android": "https://dc.lft.to/lastmile_qr_scan", "ios": "https://dc.lft.to/lastmile_qr_scan"}, "fusion_lat": 0.0, "name": "e2ffc47e9dc09b4badd96bb6e1ced7ef", "lon": -77.02552166666666, "is_disabled": 0, "is_reserved": 0, "fusion_lon": 0.0, "bike_id": "e2ffc47e9dc09b4badd96bb6e1ced7ef", "lat": 38.907312833333336}, {"type": "electric_scooter", "rental_uris": {"android": "https://dc.lft.to/lastmile_qr_scan", "ios": "https://dc.lft.to/lastmile_qr_scan"}, "fusion_lat": 0.0, "name": "c3ff9035884b3d4757c1f380a406f6a3", "lon": -77.023461, "is_disabled": 0, "is_reserved": 0, "fusion_lon": 0.0, "bike_id": "c3ff9035884b3d4757c1f380a406f6a3", "lat": 38.931768166666664}, {"type": "electric_scooter", "rental_uris": {"android": "https://dc.lft.to/lastmile_qr_scan", "ios": "https://dc.lft.to/lastmile_qr_scan"}, "fusion_lat": 0.0, "name": "b7b2e60a582141c1e0fc0cfb87c859d7", "lon": -76.97613416666667, "is_disabled": 0, "is_reserved": 0, "fusion_lon": 0.0, "bike_id": "b7b2e60a582141c1e0fc0cfb87c859d7", "lat": 38.903830666666664}, {"type": "electric_scooter", "rental_uris": {"android": "https://dc.lft.to/lastmile_qr_scan", "ios": "https://dc.lft.to/lastmile_qr_scan"}, "fusion_lat": 0.0, "name": "73402101512c7f1865d60f5c71013b4e", "lon": -76.99891116666667, "is_disabled": 0, "is_reserved": 0, "fusion_lon": 0.0, "bike_id": "73402101512c7f1865d60f5c71013b4e", "lat": 38.90952716666666}, {"type": "electric_scooter", "rental_uris": {"android": "https://dc.lft.to/lastmile_qr_scan", "ios": "https://dc.lft.to/lastmile_qr_scan"}, "fusion_lat": 0.0, "name": "996c83b833aa00666d5e972fcd6da69b", "lon": -77.03462366666666, "is_disabled": 0, "is_reserved": 0, "fusion_lon": 0.0, "bike_id": "996c83b833aa00666d5e972fcd6da69b", "lat": 38.905085}, {"type": "electric_scooter", "rental_uris": {"android": "https://dc.lft.to/lastmile_qr_scan", "ios": "https://dc.lft.to/lastmile_qr_scan"}, "fusion_lat": 0.0, "name": "5d6bb5f8c3797d164966c783642e4b28", "lon": -77.059554, "is_disabled": 0, "is_reserved": 0, "fusion_lon": 0.0, "bike_id": "5d6bb5f8c3797d164966c783642e4b28", "lat": 38.907612666666665}, {"type": "electric_scooter", "rental_uris": {"android": "https://dc.lft.to/lastmile_qr_scan", "ios": "https://dc.lft.to/lastmile_qr_scan"}, "fusion_lat": 0.0, "name": "2096d3c2b1075bce2fe152da1cfb10f0", "lon": -77.02778083333334, "is_disabled": 0, "is_reserved": 0, "fusion_lon": 0.0, "bike_id": "2096d3c2b1075bce2fe152da1cfb10f0", "lat": 38.92681266666666}, {"type": "electric_scooter", "rental_uris": {"android": "https://dc.lft.to/lastmile_qr_scan", "ios": "https://dc.lft.to/lastmile_qr_scan"}, "fusion_lat": 0.0, "name": "4f6a31aeaba29d58b02437221440b2ed", "lon": -77.05884716666667, "is_disabled": 0, "is_reserved": 0, "fusion_lon": 0.0, "bike_id": "4f6a31aeaba29d58b02437221440b2ed", "lat": 38.942472333333335}, {"type": "electric_scooter", "rental_uris": {"android": "https://dc.lft.to/lastmile_qr_scan", "ios": "https://dc.lft.to/lastmile_qr_scan"}, "fusion_lat": 0.0, "name": "70b8e578db9c562a0bb393cdf04f04d0", "lon": -77.0416115, "is_disabled": 0, "is_reserved": 0, "fusion_lon": 0.0, "bike_id": "70b8e578db9c562a0bb393cdf04f04d0", "lat": 38.91747683333333}, {"type": "electric_scooter", "rental_uris": {"android": "https://dc.lft.to/lastmile_qr_scan", "ios": "https://dc.lft.to/lastmile_qr_scan"}, "fusion_lat": 0.0, "name": "50b56d5afe5e4b613a9427dae93733d6", "lon": -77.07344866666666, "is_disabled": 0, "is_reserved": 0, "fusion_lon": 0.0, "bike_id": "50b56d5afe5e4b613a9427dae93733d6", "lat": 38.911027833333335}, {"type": "electric_scooter", "rental_uris": {"android": "https://dc.lft.to/lastmile_qr_scan", "ios": "https://dc.lft.to/lastmile_qr_scan"}, "fusion_lat": 0.0, "name": "9bdd2278e0dc41bf84b792d4f15bfc06", "lon": -77.032857, "is_disabled": 0, "is_reserved": 0, "fusion_lon": 0.0, "bike_id": "9bdd2278e0dc41bf84b792d4f15bfc06", "lat": 38.93204333333333}, {"type": "electric_scooter", "rental_uris": {"android": "https://dc.lft.to/lastmile_qr_scan", "ios": "https://dc.lft.to/lastmile_qr_scan"}, "fusion_lat": 0.0, "name": "a1e92306f2e1556b3242e939d9c55391", "lon": -77.04193066666667, "is_disabled": 0, "is_reserved": 0, "fusion_lon": 0.0, "bike_id": "a1e92306f2e1556b3242e939d9c55391", "lat": 38.917}, {"type": "electric_scooter", "rental_uris": {"android": "https://dc.lft.to/lastmile_qr_scan", "ios": "https://dc.lft.to/lastmile_qr_scan"}, "fusion_lat": 0.0, "name": "94957f96a97ebc4e941650c25aa267bc", "lon": -77.01730666666667, "is_disabled": 0, "is_reserved": 0, "fusion_lon": 0.0, "bike_id": "94957f96a97ebc4e941650c25aa267bc", "lat": 38.87276583333333}, {"type": "electric_scooter", "rental_uris": {"android": "https://dc.lft.to/lastmile_qr_scan", "ios": "https://dc.lft.to/lastmile_qr_scan"}, "fusion_lat": 0.0, "name": "4a9b0fbb2e7ab78e1238313446c0b2f4", "lon": -77.04022266666666, "is_disabled": 0, "is_reserved": 0, "fusion_lon": 0.0, "bike_id": "4a9b0fbb2e7ab78e1238313446c0b2f4", "lat": 38.92461216666667}, {"type": "electric_scooter", "rental_uris": {"android": "https://dc.lft.to/lastmile_qr_scan", "ios": "https://dc.lft.to/lastmile_qr_scan"}, "fusion_lat": 0.0, "name": "f89511ddcb15a1e8b44bcc12f69cdce0", "lon": -77.00781583333334, "is_disabled": 0, "is_reserved": 0, "fusion_lon": 0.0, "bike_id": "f89511ddcb15a1e8b44bcc12f69cdce0", "lat": 38.8793205}, {"type": "electric_scooter", "rental_uris": {"android": "https://dc.lft.to/lastmile_qr_scan", "ios": "https://dc.lft.to/lastmile_qr_scan"}, "fusion_lat": 0.0, "name": "e3f1a8d4b71dd8637a7d6f1ad154d397", "lon": -77.0297775, "is_disabled": 0, "is_reserved": 0, "fusion_lon": 0.0, "bike_id": "e3f1a8d4b71dd8637a7d6f1ad154d397", "lat": 38.910576}, {"type": "electric_scooter", "rental_uris": {"android": "https://dc.lft.to/lastmile_qr_scan", "ios": "https://dc.lft.to/lastmile_qr_scan"}, "fusion_lat": 0.0, "name": "ecaae500f2121c8b5e2d064a59969cae", "lon": -77.06131166666667, "is_disabled": 0, "is_reserved": 0, "fusion_lon": 0.0, "bike_id": "ecaae500f2121c8b5e2d064a59969cae", "lat": 38.940871}, {"type": "electric_scooter", "rental_uris": {"android": "https://dc.lft.to/lastmile_qr_scan", "ios": "https://dc.lft.to/lastmile_qr_scan"}, "fusion_lat": 0.0, "name": "62ec367d9c901fc201c425ab72defad5", "lon": -76.9814285, "is_disabled": 0, "is_reserved": 0, "fusion_lon": 0.0, "bike_id": "62ec367d9c901fc201c425ab72defad5", "lat": 38.905626166666664}, {"type": "electric_scooter", "rental_uris": {"android": "https://dc.lft.to/lastmile_qr_scan", "ios": "https://dc.lft.to/lastmile_qr_scan"}, "fusion_lat": 0.0, "name": "b1eb90a98211309272f3c5166db11466", "lon": -77.04200833333333, "is_disabled": 0, "is_reserved": 0, "fusion_lon": 0.0, "bike_id": "b1eb90a98211309272f3c5166db11466", "lat": 38.919711666666664}, {"type": "electric_scooter", "rental_uris": {"android": "https://dc.lft.to/lastmile_qr_scan", "ios": "https://dc.lft.to/lastmile_qr_scan"}, "fusion_lat": 0.0, "name": "d4083b83d3c2880b4c44d907450e576c", "lon": -77.04333516666667, "is_disabled": 0, "is_reserved": 0, "fusion_lon": 0.0, "bike_id": "d4083b83d3c2880b4c44d907450e576c", "lat": 38.90578716666667}, {"type": "electric_scooter", "rental_uris": {"android": "https://dc.lft.to/lastmile_qr_scan", "ios": "https://dc.lft.to/lastmile_qr_scan"}, "fusion_lat": 0.0, "name": "656a68716d1e9dadb2557b619f28995c", "lon": -77.03126083333333, "is_disabled": 0, "is_reserved": 0, "fusion_lon": 0.0, "bike_id": "656a68716d1e9dadb2557b619f28995c", "lat": 38.89234916666667}, {"type": "electric_scooter", "rental_uris": {"android": "https://dc.lft.to/lastmile_qr_scan", "ios": "https://dc.lft.to/lastmile_qr_scan"}, "fusion_lat": 0.0, "name": "29a21e53765456218ca74158523b11bd", "lon": -77.01610066666667, "is_disabled": 0, "is_reserved": 0, "fusion_lon": 0.0, "bike_id": "29a21e53765456218ca74158523b11bd", "lat": 38.88328766666667}, {"type": "electric_scooter", "rental_uris": {"android": "https://dc.lft.to/lastmile_qr_scan", "ios": "https://dc.lft.to/lastmile_qr_scan"}, "fusion_lat": 0.0, "name": "9bc3fef5f93638d80d799c19f3643944", "lon": -76.98106783333333, "is_disabled": 0, "is_reserved": 0, "fusion_lon": 0.0, "bike_id": "9bc3fef5f93638d80d799c19f3643944", "lat": 38.90413233333334}, {"type": "electric_scooter", "rental_uris": {"android": "https://dc.lft.to/lastmile_qr_scan", "ios": "https://dc.lft.to/lastmile_qr_scan"}, "fusion_lat": 0.0, "name": "2c3781bd3b8503270edb9e386ddbf69b", "lon": -77.05025283333333, "is_disabled": 0, "is_reserved": 0, "fusion_lon": 0.0, "bike_id": "2c3781bd3b8503270edb9e386ddbf69b", "lat": 38.898317666666664}, {"type": "electric_scooter", "rental_uris": {"android": "https://dc.lft.to/lastmile_qr_scan", "ios": "https://dc.lft.to/lastmile_qr_scan"}, "fusion_lat": 0.0, "name": "de44172121b8b4bb20ebad7e3fe3553a", "lon": -77.0234325, "is_disabled": 0, "is_reserved": 0, "fusion_lon": 0.0, "bike_id": "de44172121b8b4bb20ebad7e3fe3553a", "lat": 38.92252633333333}, {"type": "electric_scooter", "rental_uris": {"android": "https://dc.lft.to/lastmile_qr_scan", "ios": "https://dc.lft.to/lastmile_qr_scan"}, "fusion_lat": 0.0, "name": "fb39fe2cf1fed82cf3d061b0c63fb29e", "lon": -76.984842, "is_disabled": 0, "is_reserved": 0, "fusion_lon": 0.0, "bike_id": "fb39fe2cf1fed82cf3d061b0c63fb29e", "lat": 38.90994633333333}, {"type": "electric_scooter", "rental_uris": {"android": "https://dc.lft.to/lastmile_qr_scan", "ios": "https://dc.lft.to/lastmile_qr_scan"}, "fusion_lat": 0.0, "name": "eec8d13a7bcf68ba6f3f0f445e8e372d", "lon": -77.02795483333334, "is_disabled": 0, "is_reserved": 0, "fusion_lon": 0.0, "bike_id": "eec8d13a7bcf68ba6f3f0f445e8e372d", "lat": 38.954206666666664}, {"type": "electric_scooter", "rental_uris": {"android": "https://dc.lft.to/lastmile_qr_scan", "ios": "https://dc.lft.to/lastmile_qr_scan"}, "fusion_lat": 0.0, "name": "d42d1bfc4699d53fec930fabe3b5372c", "lon": -77.01171083333334, "is_disabled": 0, "is_reserved": 0, "fusion_lon": 0.0, "bike_id": "d42d1bfc4699d53fec930fabe3b5372c", "lat": 38.919206833333334}, {"type": "electric_scooter", "rental_uris": {"android": "https://dc.lft.to/lastmile_qr_scan", "ios": "https://dc.lft.to/lastmile_qr_scan"}, "fusion_lat": 0.0, "name": "ef1df2faf137269b8ecfe355f51c0cdf", "lon": -76.9836985, "is_disabled": 0, "is_reserved": 0, "fusion_lon": 0.0, "bike_id": "ef1df2faf137269b8ecfe355f51c0cdf", "lat": 38.91535483333333}, {"type": "electric_scooter", "rental_uris": {"android": "https://dc.lft.to/lastmile_qr_scan", "ios": "https://dc.lft.to/lastmile_qr_scan"}, "fusion_lat": 0.0, "name": "876d2bb7c5d307cf6e881c7a790f50fc", "lon": -77.0307445, "is_disabled": 0, "is_reserved": 0, "fusion_lon": 0.0, "bike_id": "876d2bb7c5d307cf6e881c7a790f50fc", "lat": 38.92248816666667}, {"type": "electric_scooter", "rental_uris": {"android": "https://dc.lft.to/lastmile_qr_scan", "ios": "https://dc.lft.to/lastmile_qr_scan"}, "fusion_lat": 0.0, "name": "935269d1029778c05785129b7e1ea6c9", "lon": -77.04154566666666, "is_disabled": 0, "is_reserved": 0, "fusion_lon": 0.0, "bike_id": "935269d1029778c05785129b7e1ea6c9", "lat": 38.9186195}, {"type": "electric_scooter", "rental_uris": {"android": "https://dc.lft.to/lastmile_qr_scan", "ios": "https://dc.lft.to/lastmile_qr_scan"}, "fusion_lat": 0.0, "name": "e8b9347ede499838ccf7eb1d19ed476a", "lon": -76.95188116666667, "is_disabled": 0, "is_reserved": 0, "fusion_lon": 0.0, "bike_id": "e8b9347ede499838ccf7eb1d19ed476a", "lat": 38.90740066666667}, {"type": "electric_scooter", "rental_uris": {"android": "https://dc.lft.to/lastmile_qr_scan", "ios": "https://dc.lft.to/lastmile_qr_scan"}, "fusion_lat": 0.0, "name": "e2d4ba03a0826ea57e8e65edb99fa029", "lon": -77.043756, "is_disabled": 0, "is_reserved": 0, "fusion_lon": 0.0, "bike_id": "e2d4ba03a0826ea57e8e65edb99fa029", "lat": 38.892241}, {"type": "electric_scooter", "rental_uris": {"android": "https://dc.lft.to/lastmile_qr_scan", "ios": "https://dc.lft.to/lastmile_qr_scan"}, "fusion_lat": 0.0, "name": "132a9b559cc41cc74669d021231dafd0", "lon": -77.01973166666667, "is_disabled": 0, "is_reserved": 0, "fusion_lon": 0.0, "bike_id": "132a9b559cc41cc74669d021231dafd0", "lat": 38.8785115}, {"type": "electric_scooter", "rental_uris": {"android": "https://dc.lft.to/lastmile_qr_scan", "ios": "https://dc.lft.to/lastmile_qr_scan"},