{"data": {"bikes": [{"rental_uris": {"ios": "https://dc.lft.to/lastmile_qr_scan", "android": "https://dc.lft.to/lastmile_qr_scan"}, "type": "electric_scooter", "name": "61a346a6b9738509015af445b66e8ff6", "is_reserved": 0, "lon": -77.03262083333334, "is_disabled": 0, "fusion_lat": 0.0, "lat": 38.92910633333334, "bike_id": "61a346a6b9738509015af445b66e8ff6", "fusion_lon": 0.0}, {"rental_uris": {"ios": "https://dc.lft.to/lastmile_qr_scan", "android": "https://dc.lft.to/lastmile_qr_scan"}, "type": "electric_scooter", "name": "d253f8716f5d592b21c14fded6acfb20", "is_reserved": 0, "lon": -76.99893066666667, "is_disabled": 0, "fusion_lat": 0.0, "lat": 38.953098833333335, "bike_id": "d253f8716f5d592b21c14fded6acfb20", "fusion_lon": 0.0}, {"rental_uris": {"ios": "https://dc.lft.to/lastmile_qr_scan", "android": "https://dc.lft.to/lastmile_qr_scan"}, "type": "electric_scooter", "name": "9711fb2c76bf5959a1e4fbd66f07fe62", "is_reserved": 0, "lon": -77.046048, "is_disabled": 0, "fusion_lat": 0.0, "lat": 38.909704, "bike_id": "9711fb2c76bf5959a1e4fbd66f07fe62", "fusion_lon": 0.0}, {"rental_uris": {"ios": "https://dc.lft.to/lastmile_qr_scan", "android": "https://dc.lft.to/lastmile_qr_scan"}, "type": "electric_scooter", "name": "e71977641d40b809fc42069575ae16d5", "is_reserved": 0, "lon": -77.04881833333333, "is_disabled": 0, "fusion_lat": 0.0, "lat": 38.90900883333333, "bike_id": "e71977641d40b809fc42069575ae16d5", "fusion_lon": 0.0}, {"rental_uris": {"ios": "https://dc.lft.to/lastmile_qr_scan", "android": "https://dc.lft.to/lastmile_qr_scan"}, "type": "electric_scooter", "name": "49023e405c13d26614cbcc464274e6ab", "is_reserved": 0, "lon": -77.02952116666667, "is_disabled": 0, "fusion_lat": 0.0, "lat": 38.9168275, "bike_id": "49023e405c13d26614cbcc464274e6ab", "fusion_lon": 0.0}, {"rental_uris": {"ios": "https://dc.lft.to/lastmile_qr_scan", "android": "https://dc.lft.to/lastmile_qr_scan"}, "type": "electric_scooter", "name": "355a96749c6c752170cfa282a0643105", "is_reserved": 0, "lon": -76.94664716666666, "is_disabled": 0, "fusion_lat": 0.0, "lat": 38.898686, "bike_id": "355a96749c6c752170cfa282a0643105", "fusion_lon": 0.0}, {"rental_uris": {"ios": "https://dc.lft.to/lastmile_qr_scan", "android": "https://dc.lft.to/lastmile_qr_scan"}, "type": "electric_scooter", "name": "dcd0cd7a48b187f84935c7c3d997f878", "is_reserved": 0, "lon": -77.02541583333333, "is_disabled": 0, "fusion_lat": 0.0, "lat": 38.9009695, "bike_id": "dcd0cd7a48b187f84935c7c3d997f878", "fusion_lon": 0.0}, {"rental_uris": {"ios": "https://dc.lft.to/lastmile_qr_scan", "android": "https://dc.lft.to/lastmile_qr_scan"}, "type": "electric_scooter", "name": "7ae9b64fb36088339a51816af2263eee", "is_reserved": 0, "lon": -76.988113, "is_disabled": 0, "fusion_lat": 0.0, "lat": 38.900149, "bike_id": "7ae9b64fb36088339a51816af2263eee", "fusion_lon": 0.0}, {"rental_uris": {"ios": "https://dc.lft.to/lastmile_qr_scan", "android": "https://dc.lft.to/lastmile_qr_scan"}, "type": "electric_scooter", "name": "26ddd239d01277e815f6a89369e10d81", "is_reserved": 0, "lon": -77.04193233333334, "is_disabled": 0, "fusion_lat": 0.0, "lat": 38.92059866666666, "bike_id": "26ddd239d01277e815f6a89369e10d81", "fusion_lon": 0.0}, {"rental_uris": {"ios": "https://dc.lft.to/lastmile_qr_scan", "android": "https://dc.lft.to/lastmile_qr_scan"}, "type": "electric_scooter", "name": "98ba3a4dd851a11deb1983a982764af2", "is_reserved": 0, "lon": -77.00217983333333, "is_disabled": 0, "fusion_lat": 0.0, "lat": 38.90760366666667, "bike_id": "98ba3a4dd851a11deb1983a982764af2", "fusion_lon": 0.0}, {"rental_uris": {"ios": "https://dc.lft.to/lastmile_qr_scan", "android": "https://dc.lft.to/lastmile_qr_scan"}, "type": "electric_scooter", "name": "5ed97fc69f5902f74b600271463e2874", "is_reserved": 0, "lon": -77.01852583333333, "is_disabled": 0, "fusion_lat": 0.0, "lat": 38.91510383333333, "bike_id": "5ed97fc69f5902f74b600271463e2874", "fusion_lon": 0.0}, {"rental_uris": {"ios": "https://dc.lft.to/lastmile_qr_scan", "android": "https://dc.lft.to/lastmile_qr_scan"}, "type": "electric_scooter", "name": "92677bcbad04dc79b143a93893778087", "is_reserved": 0, "lon": -77.041226, "is_disabled": 0, "fusion_lat": 0.0, "lat": 38.9340325, "bike_id": "92677bcbad04dc79b143a93893778087", "fusion_lon": 0.0}, {"rental_uris": {"ios": "https://dc.lft.to/lastmile_qr_scan", "android": "https://dc.lft.to/lastmile_qr_scan"}, "type": "electric_scooter", "name": "5501fd6adf784ead7983a7602b9f7ff5", "is_reserved": 0, "lon": -77.01631516666667, "is_disabled": 0, "fusion_lat": 0.0, "lat": 38.902564, "bike_id": "5501fd6adf784ead7983a7602b9f7ff5", "fusion_lon": 0.0}, {"rental_uris": {"ios": "https://dc.lft.to/lastmile_qr_scan", "android": "https://dc.lft.to/lastmile_qr_scan"}, "type": "electric_scooter", "name": "f5256d53df6c90cf288bc32d72ff3c2d", "is_reserved": 0, "lon": -77.04433333333333, "is_disabled": 0, "fusion_lat": 0.0, "lat": 38.91129633333333, "bike_id": "f5256d53df6c90cf288bc32d72ff3c2d", "fusion_lon": 0.0}, {"rental_uris": {"ios": "https://dc.lft.to/lastmile_qr_scan", "android": "https://dc.lft.to/lastmile_qr_scan"}, "type": "electric_scooter", "name": "06763985b6f7b859894645003364cfff", "is_reserved": 0, "lon": -77.05128633333334, "is_disabled": 0, "fusion_lat": 0.0, "lat": 38.902332, "bike_id": "06763985b6f7b859894645003364cfff", "fusion_lon": 0.0}, {"rental_uris": {"ios": "https://dc.lft.to/lastmile_qr_scan", "android": "https://dc.lft.to/lastmile_qr_scan"}, "type": "electric_scooter", "name": "0bee8fe708b52c04a8a64bef245c1728", "is_reserved": 0, "lon": -76.99351083333333, "is_disabled": 0, "fusion_lat": 0.0, "lat": 38.900277, "bike_id": "0bee8fe708b52c04a8a64bef245c1728", "fusion_lon": 0.0}, {"rental_uris": {"ios": "https://dc.lft.to/lastmile_qr_scan", "android": "https://dc.lft.to/lastmile_qr_scan"}, "type": "electric_scooter", "name": "fdfc6ac3d223912c0646278e8b3dace3", "is_reserved": 0, "lon": -77.038518, "is_disabled": 0, "fusion_lat": 0.0, "lat": 38.91194183333333, "bike_id": "fdfc6ac3d223912c0646278e8b3dace3", "fusion_lon": 0.0}, {"rental_uris": {"ios": "https://dc.lft.to/lastmile_qr_scan", "android": "https://dc.lft.to/lastmile_qr_scan"}, "type": "electric_scooter", "name": "1831e2287a957abf3c3ffee64161cded", "is_reserved": 0, "lon": -77.03466133333333, "is_disabled": 0, "fusion_lat": 0.0, "lat": 38.90568416666667, "bike_id": "1831e2287a957abf3c3ffee64161cded", "fusion_lon": 0.0}, {"rental_uris": {"ios": "https://dc.lft.to/lastmile_qr_scan", "android": "https://dc.lft.to/lastmile_qr_scan"}, "type": "electric_scooter", "name": "af311ff737e0d993e994e0a07fc2c816", "is_reserved": 0, "lon": -77.0207325, "is_disabled": 0, "fusion_lat": 0.0, "lat": 38.9302265, "bike_id": "af311ff737e0d993e994e0a07fc2c816", "fusion_lon": 0.0}, {"rental_uris": {"ios": "https://dc.lft.to/lastmile_qr_scan", "android": "https://dc.lft.to/lastmile_qr_scan"}, "type": "electric_bike", "name": "d77929d7d4e0c72460bb979051699ea1", "is_reserved": 0, "lon": -76.96327283333333, "is_disabled": 0, "fusion_lat": 0.0, "lat": 38.938972166666666, "bike_id": "d77929d7d4e0c72460bb979051699ea1", "fusion_lon": 0.0}, {"rental_uris": {"ios": "https://dc.lft.to/lastmile_qr_scan", "android": "https://dc.lft.to/lastmile_qr_scan"}, "type": "electric_scooter", "name": "440dd30a254f4bf23378de74a0f0f212", "is_reserved": 0, "lon": -77.02828916666667, "is_disabled": 0, "fusion_lat": 0.0, "lat": 38.88745566666667, "bike_id": "440dd30a254f4bf23378de74a0f0f212", "fusion_lon": 0.0}, {"rental_uris": {"ios": "https://dc.lft.to/lastmile_qr_scan", "android": "https://dc.lft.to/lastmile_qr_scan"}, "type": "electric_scooter", "name": "904d5a92417f01bb4f5eef01ed56ad7f", "is_reserved": 0, "lon": -76.9961245, "is_disabled": 0, "fusion_lat": 0.0, "lat": 38.88718716666666, "bike_id": "904d5a92417f01bb4f5eef01ed56ad7f", "fusion_lon": 0.0}, {"rental_uris": {"ios": "https://dc.lft.to/lastmile_qr_scan", "android": "https://dc.lft.to/lastmile_qr_scan"}, "type": "electric_bike", "name": "5cdca5d06f39fc6601502600cd98bc6a", "is_reserved": 0, "lon": -77.02087733333333, "is_disabled": 0, "fusion_lat": 0.0, "lat": 38.958450666666664, "bike_id": "5cdca5d06f39fc6601502600cd98bc6a", "fusion_lon": 0.0}, {"rental_uris": {"ios": "https://dc.lft.to/lastmile_qr_scan", "android": "https://dc.lft.to/lastmile_qr_scan"}, "type": "electric_scooter", "name": "6f2b8317ef974af2d1365b652aeaa40e", "is_reserved": 0, "lon": -77.04900416666666, "is_disabled": 0, "fusion_lat": 0.0, "lat": 38.8974325, "bike_id": "6f2b8317ef974af2d1365b652aeaa40e", "fusion_lon": 0.0}, {"rental_uris": {"ios": "https://dc.lft.to/lastmile_qr_scan", "android": "https://dc.lft.to/lastmile_qr_scan"}, "type": "electric_scooter", "name": "e23470aef281cc9bee416f9406d27760", "is_reserved": 0, "lon": -77.03918266666666, "is_disabled": 0, "fusion_lat": 0.0, "lat": 38.9247785, "bike_id": "e23470aef281cc9bee416f9406d27760", "fusion_lon": 0.0}, {"rental_uris": {"ios": "https://dc.lft.to/lastmile_qr_scan", "android": "https://dc.lft.to/lastmile_qr_scan"}, "type": "electric_scooter", "name": "eed2d53fd1ba3e5eb0f705ece21e1303", "is_reserved": 0, "lon": -76.99492883333333, "is_disabled": 0, "fusion_lat": 0.0, "lat": 38.88104116666667, "bike_id": "eed2d53fd1ba3e5eb0f705ece21e1303", "fusion_lon": 0.0}, {"rental_uris": {"ios": "https://dc.lft.to/lastmile_qr_scan", "android": "https://dc.lft.to/lastmile_qr_scan"}, "type": "electric_scooter", "name": "9ec978e5d279fccc9ff7c3714783577e", "is_reserved": 0, "lon": -77.0433765, "is_disabled": 0, "fusion_lat": 0.0, "lat": 38.90731233333333, "bike_id": "9ec978e5d279fccc9ff7c3714783577e", "fusion_lon": 0.0}, {"rental_uris": {"ios": "https://dc.lft.to/lastmile_qr_scan", "android": "https://dc.lft.to/lastmile_qr_scan"}, "type": "electric_scooter", "name": "f8dd8d1ee4672f06bb176b7ddfcbb76b", "is_reserved": 0, "lon": -77.03210533333333, "is_disabled": 0, "fusion_lat": 0.0, "lat": 38.899315666666666, "bike_id": "f8dd8d1ee4672f06bb176b7ddfcbb76b", "fusion_lon": 0.0}, {"rental_uris": {"ios": "https://dc.lft.to/lastmile_qr_scan", "android": "https://dc.lft.to/lastmile_qr_scan"}, "type": "electric_scooter", "name": "735a151f8bf3fd84914448af109583aa", "is_reserved": 0, "lon": -77.02972966666667, "is_disabled": 0, "fusion_lat": 0.0, "lat": 38.91663283333333, "bike_id": "735a151f8bf3fd84914448af109583aa", "fusion_lon": 0.0}, {"rental_uris": {"ios": "https://dc.lft.to/lastmile_qr_scan", "android": "https://dc.lft.to/lastmile_qr_scan"}, "type": "electric_scooter", "name": "9b4da2185ef48fc88f1e57430074ff8a", "is_reserved": 0, "lon": -77.028317, "is_disabled": 0, "fusion_lat": 0.0, "lat": 38.88740766666667, "bike_id": "9b4da2185ef48fc88f1e57430074ff8a", "fusion_lon": 0.0}, {"rental_uris": {"ios": "https://dc.lft.to/lastmile_qr_scan", "android": "https://dc.lft.to/lastmile_qr_scan"}, "type": "electric_bike", "name": "fc879a0f435114d6e6a045cdc8a3f070", "is_reserved": 0, "lon": -77.05269933333334, "is_disabled": 0, "fusion_lat": 0.0, "lat": 38.940928666666665, "bike_id": "fc879a0f435114d6e6a045cdc8a3f070", "fusion_lon": 0.0}, {"rental_uris": {"ios": "https://dc.lft.to/lastmile_qr_scan", "android": "https://dc.lft.to/lastmile_qr_scan"}, "type": "electric_scooter", "name": "12de739c63f1e9ac336757e813f5e6f1", "is_reserved": 0, "lon": -77.03132233333334, "is_disabled": 0, "fusion_lat": 0.0, "lat": 38.92370616666667, "bike_id": "12de739c63f1e9ac336757e813f5e6f1", "fusion_lon": 0.0}, {"rental_uris": {"ios": "https://dc.lft.to/lastmile_qr_scan", "android": "https://dc.lft.to/lastmile_qr_scan"}, "type": "electric_scooter", "name": "8635a41e768b9c54907cd58da1e83df4", "is_reserved": 0, "lon": -77.0313435, "is_disabled": 0, "fusion_lat": 0.0, "lat": 38.923701, "bike_id": "8635a41e768b9c54907cd58da1e83df4", "fusion_lon": 0.0}, {"rental_uris": {"ios": "https://dc.lft.to/lastmile_qr_scan", "android": "https://dc.lft.to/lastmile_qr_scan"}, "type": "electric_scooter", "name": "3059edfb8f43bb54c933ccf19dff22fc", "is_reserved": 0, "lon": -77.00589566666666, "is_disabled": 0, "fusion_lat": 0.0, "lat": 38.900324166666664, "bike_id": "3059edfb8f43bb54c933ccf19dff22fc", "fusion_lon": 0.0}, {"rental_uris": {"ios": "https://dc.lft.to/lastmile_qr_scan", "android": "https://dc.lft.to/lastmile_qr_scan"}, "type": "electric_scooter", "name": "e3d56629af909ecb7fb60fcdeeae8384", "is_reserved": 0, "lon": -77.01640383333333, "is_disabled": 0, "fusion_lat": 0.0, "lat": 38.91594683333334, "bike_id": "e3d56629af909ecb7fb60fcdeeae8384", "fusion_lon": 0.0}, {"rental_uris": {"ios": "https://dc.lft.to/lastmile_qr_scan", "android": "https://dc.lft.to/lastmile_qr_scan"}, "type": "electric_scooter", "name": "6e683847e2d99ed3b93bc95ec9b5c28f", "is_reserved": 0, "lon": -77.04643333333334, "is_disabled": 0, "fusion_lat": 0.0, "lat": 38.90033616666667, "bike_id": "6e683847e2d99ed3b93bc95ec9b5c28f", "fusion_lon": 0.0}, {"rental_uris": {"ios": "https://dc.lft.to/lastmile_qr_scan", "android": "https://dc.lft.to/lastmile_qr_scan"}, "type": "electric_scooter", "name": "a8d8b8953e600829b2cfcb457b43865a", "is_reserved": 0, "lon": -77.03687983333333, "is_disabled": 0, "fusion_lat": 0.0, "lat": 38.91675166666667, "bike_id": "a8d8b8953e600829b2cfcb457b43865a", "fusion_lon": 0.0}, {"rental_uris": {"ios": "https://dc.lft.to/lastmile_qr_scan", "android": "https://dc.lft.to/lastmile_qr_scan"}, "type": "electric_scooter", "name": "9772f368c3a94f1072dfe03793ce84ca", "is_reserved": 0, "lon": -77.005388, "is_disabled": 0, "fusion_lat": 0.0, "lat": 38.87544783333333, "bike_id": "9772f368c3a94f1072dfe03793ce84ca", "fusion_lon": 0.0}, {"rental_uris": {"ios": "https://dc.lft.to/lastmile_qr_scan", "android": "https://dc.lft.to/lastmile_qr_scan"}, "type": "electric_scooter", "name": "ac1005feafbe06c5f4077aac6f11b0c1", "is_reserved": 0, "lon": -77.06802933333333, "is_disabled": 0, "fusion_lat": 0.0, "lat": 38.9050825, "bike_id": "ac1005feafbe06c5f4077aac6f11b0c1", "fusion_lon": 0.0}, {"rental_uris": {"ios": "https://dc.lft.to/lastmile_qr_scan", "android": "https://dc.lft.to/lastmile_qr_scan"}, "type": "electric_scooter", "name": "3be20b71782a7c7e86eac4445de78b85", "is_reserved": 0, "lon": -76.9902905, "is_disabled": 0, "fusion_lat": 0.0, "lat": 38.88870683333333, "bike_id": "3be20b71782a7c7e86eac4445de78b85", "fusion_lon": 0.0}, {"rental_uris": {"ios": "https://dc.lft.to/lastmile_qr_scan", "android": "https://dc.lft.to/lastmile_qr_scan"}, "type": "electric_scooter", "name": "d502a641f5497b4758738be393328574", "is_reserved": 0, "lon": -77.04398833333333, "is_disabled": 0, "fusion_lat": 0.0, "lat": 38.9206425, "bike_id": "d502a641f5497b4758738be393328574", "fusion_lon": 0.0}, {"rental_uris": {"ios": "https://dc.lft.to/lastmile_qr_scan", "android": "https://dc.lft.to/lastmile_qr_scan"}, "type": "electric_scooter", "name": "d8ef28f48f78d432be4def4ed016d67f", "is_reserved": 0, "lon": -77.00482366666667, "is_disabled": 0, "fusion_lat": 0.0, "lat": 38.87454566666667, "bike_id": "d8ef28f48f78d432be4def4ed016d67f", "fusion_lon": 0.0}, {"rental_uris": {"ios": "https://dc.lft.to/lastmile_qr_scan", "android": "https://dc.lft.to/lastmile_qr_scan"}, "type": "electric_scooter", "name": "19bb85c3bb76b2e8069295ad5c9fd459", "is_reserved": 0, "lon": -77.02337483333334, "is_disabled": 0, "fusion_lat": 0.0, "lat": 38.881334, "bike_id": "19bb85c3bb76b2e8069295ad5c9fd459", "fusion_lon": 0.0}, {"rental_uris": {"ios": "https://dc.lft.to/lastmile_qr_scan", "android": "https://dc.lft.to/lastmile_qr_scan"}, "type": "electric_scooter", "name": "fccb5519f8a44be213f800641689be56", "is_reserved": 0, "lon": -77.04326916666666, "is_disabled": 0, "fusion_lat": 0.0, "lat": 38.908952666666664, "bike_id": "fccb5519f8a44be213f800641689be56", "fusion_lon": 0.0}, {"rental_uris": {"ios": "https://dc.lft.to/lastmile_qr_scan", "android": "https://dc.lft.to/lastmile_qr_scan"}, "type": "electric_scooter", "name": "5c12a065d82db9682643153638e36c0f", "is_reserved": 0, "lon": -77.021929, "is_disabled": 0, "fusion_lat": 0.0, "lat": 38.91134433333333, "bike_id": "5c12a065d82db9682643153638e36c0f", "fusion_lon": 0.0}, {"rental_uris": {"ios": "https://dc.lft.to/lastmile_qr_scan", "android": "https://dc.lft.to/lastmile_qr_scan"}, "type": "electric_scooter", "name": "feb0978d7c1a785efaa5adf58bba0848", "is_reserved": 0, "lon": -77.03651933333333, "is_disabled": 0, "fusion_lat": 0.0, "lat": 38.91257516666667, "bike_id": "feb0978d7c1a785efaa5adf58bba0848", "fusion_lon": 0.0}, {"rental_uris": {"ios": "https://dc.lft.to/lastmile_qr_scan", "android": "https://dc.lft.to/lastmile_qr_scan"}, "type": "electric_scooter", "name": "dfb01e7309716f537f62690c82bbc9d5", "is_reserved": 0, "lon": -77.03848233333333, "is_disabled": 0, "fusion_lat": 0.0, "lat": 38.925209333333335, "bike_id": "dfb01e7309716f537f62690c82bbc9d5", "fusion_lon": 0.0}, {"rental_uris": {"ios": "https://dc.lft.to/lastmile_qr_scan", "android": "https://dc.lft.to/lastmile_qr_scan"}, "type": "electric_scooter", "name": "7c8b4fccf08f7697c47faa4ee8f833b6", "is_reserved": 0, "lon": -77.01016533333333, "is_disabled": 0, "fusion_lat": 0.0, "lat": 38.9125835, "bike_id": "7c8b4fccf08f7697c47faa4ee8f833b6", "fusion_lon": 0.0}, {"rental_uris": {"ios": "https://dc.lft.to/lastmile_qr_scan", "android": "https://dc.lft.to/lastmile_qr_scan"}, "type": "electric_scooter", "name": "df5d8a3ce60b1fe5563cf059cb8da48b", "is_reserved": 0, "lon": -77.00917233333334, "is_disabled": 0, "fusion_lat": 0.0, "lat": 38.912397166666665, "bike_id": "df5d8a3ce60b1fe5563cf059cb8da48b", "fusion_lon": 0.0}, {"rental_uris": {"ios": "https://dc.lft.to/lastmile_qr_scan", "android": "https://dc.lft.to/lastmile_qr_scan"}, "type": "electric_scooter", "name": "922d6d6d9c870c1f17a2d1b867efaf15", "is_reserved": 0, "lon": -77.03799366666667, "is_disabled": 0, "fusion_lat": 0.0, "lat": 38.91037583333333, "bike_id": "922d6d6d9c870c1f17a2d1b867efaf15", "fusion_lon": 0.0}, {"rental_uris": {"ios": "https://dc.lft.to/lastmile_qr_scan", "android": "https://dc.lft.to/lastmile_qr_scan"}, "type": "electric_scooter", "name": "05023f94c41d13c219cd2f3c33690173", "is_reserved": 0, "lon": -77.03197466666667, "is_disabled": 0, "fusion_lat": 0.0, "lat": 38.907017833333335, "bike_id": "05023f94c41d13c219cd2f3c33690173", "fusion_lon": 0.0}, {"rental_uris": {"ios": "https://dc.lft.to/lastmile_qr_scan", "android": "https://dc.lft.to/lastmile_qr_scan"}, "type": "electric_scooter", "name": "03115acc81030e87bb3e380b9537f4cf", "is_reserved": 0, "lon": -77.0473185, "is_disabled": 0, "fusion_lat": 0.0, "lat": 38.89557583333333, "bike_id": "03115acc81030e87bb3e380b9537f4cf", "fusion_lon": 0.0}, {"rental_uris": {"ios": "https://dc.lft.to/lastmile_qr_scan", "android": "https://dc.lft.to/lastmile_qr_scan"}, "type": "electric_scooter", "name": "b6f18adc7b1a5c83612c8f2b1137bb24", "is_reserved": 0, "lon": -77.03655533333334, "is_disabled": 0, "fusion_lat": 0.0, "lat": 38.922915, "bike_id": "b6f18adc7b1a5c83612c8f2b1137bb24", "fusion_lon": 0.0}, {"rental_uris": {"ios": "https://dc.lft.to/lastmile_qr_scan", "android": "https://dc.lft.to/lastmile_qr_scan"}, "type": "electric_scooter", "name": "861b4612c4b7158eab51a6110cbe569d", "is_reserved": 0, "lon": -77.06325883333334, "is_disabled": 0, "fusion_lat": 0.0, "lat": 38.943727833333334, "bike_id": "861b4612c4b7158eab51a6110cbe569d", "fusion_lon": 0.0}, {"rental_uris": {"ios": "https://dc.lft.to/lastmile_qr_scan", "android": "https://dc.lft.to/lastmile_qr_scan"}, "type": "electric_scooter", "name": "5d0a3e71e31924771e18871d1d4411f0", "is_reserved": 0, "lon": -76.93185366666667, "is_disabled": 0, "fusion_lat": 0.0, "lat": 38.89880216666667, "bike_id": "5d0a3e71e31924771e18871d1d4411f0", "fusion_lon": 0.0}, {"rental_uris": {"ios": "https://dc.lft.to/lastmile_qr_scan", "android": "https://dc.lft.to/lastmile_qr_scan"}, "type": "electric_bike", "name": "d1059bb0dd0c1af24b30c785473a7fd3", "is_reserved": 0, "lon": -76.98248466666666, "is_disabled": 0, "fusion_lat": 0.0, "lat": 38.952435333333334, "bike_id": "d1059bb0dd0c1af24b30c785473a7fd3", "fusion_lon": 0.0}, {"rental_uris": {"ios": "https://dc.lft.to/lastmile_qr_scan", "android": "https://dc.lft.to/lastmile_qr_scan"}, "type": "electric_scooter", "name": "9305447a8525e86577d438a06814d3b4", "is_reserved": 0, "lon": -77.00523533333333, "is_disabled": 0, "fusion_lat": 0.0, "lat": 38.87642616666667, "bike_id": "9305447a8525e86577d438a06814d3b4", "fusion_lon": 0.0}, {"rental_uris": {"ios": "https://dc.lft.to/lastmile_qr_scan", "android": "https://dc.lft.to/lastmile_qr_scan"}, "type": "electric_scooter", "name": "8b7d0491a133ea10c2c06ac1d7df32be", "is_reserved": 0, "lon": -76.98150283333334, "is_disabled": 0, "fusion_lat": 0.0, "lat": 38.899355666666665, "bike_id": "8b7d0491a133ea10c2c06ac1d7df32be", "fusion_lon": 0.0}, {"rental_uris": {"ios": "https://dc.lft.to/lastmile_qr_scan", "android": "https://dc.lft.to/lastmile_qr_scan"}, "type": "electric_bike", "name": "385ed340ac8edf8b74ceea915d927fb7", "is_reserved": 0, "lon": -76.98019066666667, "is_disabled": 0, "fusion_lat": 0.0, "lat": 38.853092833333335, "bike_id": "385ed340ac8edf8b74ceea915d927fb7", "fusion_lon": 0.0}, {"rental_uris": {"ios": "https://dc.lft.to/lastmile_qr_scan", "android": "https://dc.lft.to/lastmile_qr_scan"}, "type": "electric_scooter", "name": "abf944d6b17a75419aa0d6e6037ec2fb", "is_reserved": 0, "lon": -77.0213385, "is_disabled": 0, "fusion_lat": 0.0, "lat": 38.902914, "bike_id": "abf944d6b17a75419aa0d6e6037ec2fb", "fusion_lon": 0.0}, {"rental_uris": {"ios": "https://dc.lft.to/lastmile_qr_scan", "android": "https://dc.lft.to/lastmile_qr_scan"}, "type": "electric_scooter", "name": "90907474ad3ba8998182f0636ba425af", "is_reserved": 0, "lon": -77.02274833333334, "is_disabled": 0, "fusion_lat": 0.0, "lat": 38.91653516666667, "bike_id": "90907474ad3ba8998182f0636ba425af", "fusion_lon": 0.0}, {"rental_uris": {"ios": "https://dc.lft.to/lastmile_qr_scan", "android": "https://dc.lft.to/lastmile_qr_scan"}, "type": "electric_scooter", "name": "9043fce50a16262e9eee78b17efb8065", "is_reserved": 0, "lon": -77.031977, "is_disabled": 0, "fusion_lat": 0.0, "lat": 38.915648, "bike_id": "9043fce50a16262e9eee78b17efb8065", "fusion_lon": 0.0}, {"rental_uris": {"ios": "https://dc.lft.to/lastmile_qr_scan", "android": "https://dc.lft.to/lastmile_qr_scan"}, "type": "electric_scooter", "name": "2bd8eef27dcdbde82574a6f2b5c5a82a", "is_reserved": 0, "lon": -77.02967683333334, "is_disabled": 0, "fusion_lat": 0.0, "lat": 38.9252475, "bike_id": "2bd8eef27dcdbde82574a6f2b5c5a82a", "fusion_lon": 0.0}, {"rental_uris": {"ios": "https://dc.lft.to/lastmile_qr_scan", "android": "https://dc.lft.to/lastmile_qr_scan"}, "type": "electric_scooter", "name": "1450dde2bb20447b98032275730136e1", "is_reserved": 0, "lon": -77.00626016666666, "is_disabled": 0, "fusion_lat": 0.0, "lat": 38.87174733333333, "bike_id": "1450dde2bb20447b98032275730136e1", "fusion_lon": 0.0}, {"rental_uris": {"ios": "https://dc.lft.to/lastmile_qr_scan", "android": "https://dc.lft.to/lastmile_qr_scan"}, "type": "electric_scooter", "name": "09a5b239c5fccc1e43b560b793f9c7ab", "is_reserved": 0, "lon": -77.0408335, "is_disabled": 0, "fusion_lat": 0.0, "lat": 38.94787983333333, "bike_id": "09a5b239c5fccc1e43b560b793f9c7ab", "fusion_lon": 0.0}, {"rental_uris": {"ios": "https://dc.lft.to/lastmile_qr_scan", "android": "https://dc.lft.to/lastmile_qr_scan"}, "type": "electric_scooter", "name": "aee0e32e867ad43504676eb38ed9d028", "is_reserved": 0, "lon": -77.04214083333333, "is_disabled": 0, "fusion_lat": 0.0, "lat": 38.921242166666666, "bike_id": "aee0e32e867ad43504676eb38ed9d028", "fusion_lon": 0.0}, {"rental_uris": {"ios": "https://dc.lft.to/lastmile_qr_scan", "android": "https://dc.lft.to/lastmile_qr_scan"}, "type": "electric_scooter", "name": "7ca9ff02a0a9d760230bfb9ef87ea561", "is_reserved": 0, "lon": -77.03816333333333, "is_disabled": 0, "fusion_lat": 0.0, "lat": 38.914076333333334, "bike_id": "7ca9ff02a0a9d760230bfb9ef87ea561", "fusion_lon": 0.0}, {"rental_uris": {"ios": "https://dc.lft.to/lastmile_qr_scan", "android": "https://dc.lft.to/lastmile_qr_scan"}, "type": "electric_scooter", "name": "38d1a3931af44541bed6b448b07c0227", "is_reserved": 0, "lon": -77.03826783333334, "is_disabled": 0, "fusion_lat": 0.0, "lat": 38.92172716666666, "bike_id": "38d1a3931af44541bed6b448b07c0227", "fusion_lon": 0.0}, {"rental_uris": {"ios": "https://dc.lft.to/lastmile_qr_scan", "android": "https://dc.lft.to/lastmile_qr_scan"}, "type": "electric_scooter", "name": "52a96b26c168e4a026f29c43cffbbe43", "is_reserved": 0, "lon": -77.04492566666667, "is_disabled": 0, "fusion_lat": 0.0, "lat": 38.90015233333333, "bike_id": "52a96b26c168e4a026f29c43cffbbe43", "fusion_lon": 0.0}, {"rental_uris": {"ios": "https://dc.lft.to/lastmile_qr_scan", "android": "https://dc.lft.to/lastmile_qr_scan"}, "type": "electric_bike", "name": "7ac5e571b2c915716b77dd258602b621", "is_reserved": 0, "lon": -77.04332083333334, "is_disabled": 0, "fusion_lat": 0.0, "lat": 38.92240733333333, "bike_id": "7ac5e571b2c915716b77dd258602b621", "fusion_lon": 0.0}, {"rental_uris": {"ios": "https://dc.lft.to/lastmile_qr_scan", "android": "https://dc.lft.to/lastmile_qr_scan"}, "type": "electric_scooter", "name": "29b7d234c4e4b6e3a3dbae65d96c2262", "is_reserved": 0, "lon": -77.0425025, "is_disabled": 0, "fusion_lat": 0.0, "lat": 38.921684666666664, "bike_id": "29b7d234c4e4b6e3a3dbae65d96c2262", "fusion_lon": 0.0}, {"rental_uris": {"ios": "https://dc.lft.to/lastmile_qr_scan", "android": "https://dc.lft.to/lastmile_qr_scan"}, "type": "electric_scooter", "name": "54bf45fcc57947e702854a5ae6411e15", "is_reserved": 0, "lon": -77.03449066666667, "is_disabled": 0, "fusion_lat": 0.0, "lat": 38.908185, "bike_id": "54bf45fcc57947e702854a5ae6411e15", "fusion_lon": 0.0}, {"rental_uris": {"ios": "https://dc.lft.to/lastmile_qr_scan", "android": "https://dc.lft.to/lastmile_qr_scan"}, "type": "electric_scooter", "name": "dc5cec23d79d32e90b2cb7e93f5ca16d", "is_reserved": 0, "lon": -77.04680916666666, "is_disabled": 0, "fusion_lat": 0.0, "lat": 38.89743416666666, "bike_id": "dc5cec23d79d32e90b2cb7e93f5ca16d", "fusion_lon": 0.0}, {"rental_uris": {"ios": "https://dc.lft.to/lastmile_qr_scan", "android": "https://dc.lft.to/lastmile_qr_scan"}, "type": "electric_scooter", "name": "f3f63a05a54419a9f9714b1251a29866", "is_reserved": 0, "lon": -77.04245866666666, "is_disabled": 0, "fusion_lat": 0.0, "lat": 38.922316, "bike_id": "f3f63a05a54419a9f9714b1251a29866", "fusion_lon": 0.0}, {"rental_uris": {"ios": "https://dc.lft.to/lastmile_qr_scan", "android": "https://dc.lft.to/lastmile_qr_scan"}, "type": "electric_scooter", "name": "79eff99ef41f0f3e70950a1b420227f6", "is_reserved": 0, "lon": -77.04755883333333, "is_disabled": 0, "fusion_lat": 0.0, "lat": 38.912434166666664, "bike_id": "79eff99ef41f0f3e70950a1b420227f6", "fusion_lon": 0.0}, {"rental_uris": {"ios": "https://dc.lft.to/lastmile_qr_scan", "android": "https://dc.lft.to/lastmile_qr_scan"}, "type": "electric_scooter", "name": "7dd6e5e7817a61c4d8182c368544d77a", "is_reserved": 0, "lon": -77.00486933333333, "is_disabled": 0, "fusion_lat": 0.0, "lat": 38.8746105, "bike_id": "7dd6e5e7817a61c4d8182c368544d77a", "fusion_lon": 0.0}, {"rental_uris": {"ios": "https://dc.lft.to/lastmile_qr_scan", "android": "https://dc.lft.to/lastmile_qr_scan"}, "type": "electric_scooter", "name": "82de1dd38a82e6a72c6b0b0d63dfbf87", "is_reserved": 0, "lon": -77.023855, "is_disabled": 0, "fusion_lat": 0.0, "lat": 38.92075533333333, "bike_id": "82de1dd38a82e6a72c6b0b0d63dfbf87", "fusion_lon": 0.0}, {"rental_uris": {"ios": "https://dc.lft.to/lastmile_qr_scan", "android": "https://dc.lft.to/lastmile_qr_scan"}, "type": "electric_scooter", "name": "64860ecc5e563d38d498d536796a4212", "is_reserved": 0, "lon": -77.04141816666667, "is_disabled": 0, "fusion_lat": 0.0, "lat": 38.907317, "bike_id": "64860ecc5e563d38d498d536796a4212", "fusion_lon": 0.0}, {"rental_uris": {"ios": "https://dc.lft.to/lastmile_qr_scan", "android": "https://dc.lft.to/lastmile_qr_scan"}, "type": "electric_scooter", "name": "28af854beb3fc743f309b936681991d0", "is_reserved": 0, "lon": -77.03960483333333, "is_disabled": 0, "fusion_lat": 0.0, "lat": 38.924494, "bike_id": "28af854beb3fc743f309b936681991d0", "fusion_lon": 0.0}, {"rental_uris": {"ios": "https://dc.lft.to/lastmile_qr_scan", "android": "https://dc.lft.to/lastmile_qr_scan"}, "type": "electric_bike", "name": "d5e2ec1de0fb0b66b6d3f0b59efef68c", "is_reserved": 0, "lon": -76.93860883333333, "is_disabled": 0, "fusion_lat": 0.0, "lat": 38.97767366666667, "bike_id": "d5e2ec1de0fb0b66b6d3f0b59efef68c", "fusion_lon": 0.0}, {"rental_uris": {"ios": "https://dc.lft.to/lastmile_qr_scan", "android": "https://dc.lft.to/lastmile_qr_scan"}, "type": "electric_scooter", "name": "5909525261dd040fcfdf8df495b72480", "is_reserved": 0, "lon": -77.00069983333333, "is_disabled": 0, "fusion_lat": 0.0, "lat": 38.89484566666667, "bike_id": "5909525261dd040fcfdf8df495b72480", "fusion_lon": 0.0}, {"rental_uris": {"ios": "https://dc.lft.to/lastmile_qr_scan", "android": "https://dc.lft.to/lastmile_qr_scan"}, "type": "electric_scooter", "name": "ab6cbdabef959441336dfb924634e562", "is_reserved": 0, "lon": -77.0175735, "is_disabled": 0, "fusion_lat": 0.0, "lat": 38.87681933333333, "bike_id": "ab6cbdabef959441336dfb924634e562", "fusion_lon": 0.0}, {"rental_uris": {"ios": "https://dc.lft.to/lastmile_qr_scan", "android": "https://dc.lft.to/lastmile_qr_scan"}, "type": "electric_scooter", "name": "890019076dd88ee01533e8e222ec0390", "is_reserved": 0, "lon": -77.06420116666666, "is_disabled": 0, "fusion_lat": 0.0, "lat": 38.90913533333333, "bike_id": "890019076dd88ee01533e8e222ec0390", "fusion_lon": 0.0}, {"rental_uris": {"ios": "https://dc.lft.to/lastmile_qr_scan", "android": "https://dc.lft.to/lastmile_qr_scan"}, "type": "electric_scooter", "name": "efd1c1e00626a208b56a2d0f67a7bc2b", "is_reserved": 0, "lon": -77.02420633333334, "is_disabled": 0, "fusion_lat": 0.0, "lat": 38.918242666666664, "bike_id": "efd1c1e00626a208b56a2d0f67a7bc2b", "fusion_lon": 0.0}, {"rental_uris": {"ios": "https://dc.lft.to/lastmile_qr_scan", "android": "https://dc.lft.to/lastmile_qr_scan"}, "type": "electric_scooter", "name": "3c727fa737032027b349c4ccbb9496f6", "is_reserved": 0, "lon": -77.0296715, "is_disabled": 0, "fusion_lat": 0.0, "lat": 38.93561016666666, "bike_id": "3c727fa737032027b349c4ccbb9496f6", "fusion_lon": 0.0}, {"rental_uris": {"ios": "https://dc.lft.to/lastmile_qr_scan", "android": "https://dc.lft.to/lastmile_qr_scan"}, "type": "electric_scooter", "name": "94b51cdd1c4965c630952e9a3507a009", "is_reserved": 0, "lon": -77.04433966666667, "is_disabled": 0, "fusion_lat": 0.0, "lat": 38.921171, "bike_id": "94b51cdd1c4965c630952e9a3507a009", "fusion_lon": 0.0}, {"rental_uris": {"ios": "https://dc.lft.to/lastmile_qr_scan", "android": "https://dc.lft.to/lastmile_qr_scan"}, "type": "electric_scooter", "name": "9c12b803977380892a79ff6aad28f834", "is_reserved": 0, "lon": -77.0306115, "is_disabled": 0, "fusion_lat": 0.0, "lat": 38.923742, "bike_id": "9c12b803977380892a79ff6aad28f834", "fusion_lon": 0.0}, {"rental_uris": {"ios": "https://dc.lft.to/lastmile_qr_scan", "android": "https://dc.lft.to/lastmile_qr_scan"}, "type": "electric_scooter", "name": "ca8e06e34015d23f1492de4b32e3862d", "is_reserved": 0, "lon": -77.031542, "is_disabled": 0, "fusion_lat": 0.0, "lat": 38.90595166666667, "bike_id": "ca8e06e34015d23f1492de4b32e3862d", "fusion_lon": 0.0}, {"rental_uris": {"ios": "https://dc.lft.to/lastmile_qr_scan", "android": "https://dc.lft.to/lastmile_qr_scan"}, "type": "electric_scooter", "name": "ab2609190136fd49163aa077a7b041ea", "is_reserved": 0, "lon": -77.0338015, "is_disabled": 0, "fusion_lat": 0.0, "lat": 38.93861416666667, "bike_id": "ab2609190136fd49163aa077a7b041ea", "fusion_lon": 0.0}, {"rental_uris": {"ios": "https://dc.lft.to/lastmile_qr_scan", "android": "https://dc.lft.to/lastmile_qr_scan"}, "type": "electric_bike", "name": "d04ef5ece01303d8fc919f482fc2e20f", "is_reserved": 0, "lon": -77.100764, "is_disabled": 0, "fusion_lat": 0.0, "lat": 38.857382, "bike_id": "d04ef5ece01303d8fc919f482fc2e20f", "fusion_lon": 0.0}, {"rental_uris": {"ios": "https://dc.lft.to/lastmile_qr_scan", "android": "https://dc.lft.to/lastmile_qr_scan"}, "type": "electric_scooter", "name": "00d93d4f7df2de5a4fcbf1a172269505", "is_reserved": 0, "lon": -77.00275016666667, "is_disabled": 0, "fusion_lat": 0.0, "lat": 38.88766966666667, "bike_id": "00d93d4f7df2de5a4fcbf1a172269505", "fusion_lon": 0.0}, {"rental_uris": {"ios": "https://dc.lft.to/lastmile_qr_scan", "android": "https://dc.lft.to/lastmile_qr_scan"}, "type": "electric_scooter", "name": "af76b42ffc526d27c1af374511f8655b", "is_reserved": 0, "lon": -77.04960466666667, "is_disabled": 0, "fusion_lat": 0.0, "lat": 38.9159425, "bike_id": "af76b42ffc526d27c1af374511f8655b", "fusion_lon": 0.0}, {"rental_uris": {"ios": "https://dc.lft.to/lastmile_qr_scan", "android": "https://dc.lft.to/lastmile_qr_scan"}, "type": "electric_scooter", "name": "e006c96c989877b0e01f855c4e620a04", "is_reserved": 0, "lon": -77.0446765, "is_disabled": 0, "fusion_lat": 0.0, "lat": 38.91638116666667, "bike_id": "e006c96c989877b0e01f855c4e620a04", "fusion_lon": 0.0}, {"rental_uris": {"ios": "https://dc.lft.to/lastmile_qr_scan", "android": "https://dc.lft.to/lastmile_qr_scan"}, "type": "electric_scooter", "name": "5d228affd623e14d7b5f42611a08c8da", "is_reserved": 0, "lon": -77.03182766666667, "is_disabled": 0, "fusion_lat": 0.0, "lat": 38.929115, "bike_id": "5d228affd623e14d7b5f42611a08c8da", "fusion_lon": 0.0}, {"rental_uris": {"ios": "https://dc.lft.to/lastmile_qr_scan", "android": "https://dc.lft.to/lastmile_qr_scan"}, "type": "electric_scooter", "name": "b4a877a15a518cded01fc8ebe97e2a15", "is_reserved": 0, "lon": -77.02293816666666, "is_disabled": 0, "fusion_lat": 0.0, "lat": 38.89847316666667, "bike_id": "b4a877a15a518cded01fc8ebe97e2a15", "fusion_lon": 0.0}, {"rental_uris": {"ios": "https://dc.lft.to/lastmile_qr_scan", "android": "https://dc.lft.to/lastmile_qr_scan"}, "type": "electric_scooter", "name": "9bb09343b971787f2017ad139fca5009", "is_reserved": 0, "lon": -77.0040745, "is_disabled": 0, "fusion_lat": 0.0, "lat": 38.8776735, "bike_id": "9bb09343b971787f2017ad139fca5009", "fusion_lon": 0.0}, {"rental_uris": {"ios": "https://dc.lft.to/lastmile_qr_scan", "android": "https://dc.lft.to/lastmile_qr_scan"}, "type": "electric_scooter", "name": "ca3f8b87eed0fdfffa50810ca4b776b5", "is_reserved": 0, "lon": -76.98535033333333, "is_disabled": 0, "fusion_lat": 0.0, "lat": 38.858540166666664, "bike_id": "ca3f8b87eed0fdfffa50810ca4b776b5", "fusion_lon": 0.0}, {"rental_uris": {"ios": "https://dc.lft.to/lastmile_qr_scan", "android": "https://dc.lft.to/lastmile_qr_scan"}, "type": "electric_scooter", "name": "fa6a8d8c2e2c17946e6d6d9048ee69e8", "is_reserved": 0, "lon": -77.04528266666667, "is_disabled": 0, "fusion_lat": 0.0, "lat": 38.911188, "bike_id": "fa6a8d8c2e2c17946e6d6d9048ee69e8", "fusion_lon": 0.0}, {"rental_uris": {"ios": "https://dc.lft.to/lastmile_qr_scan", "android": "https://dc.lft.to/lastmile_qr_scan"}, "type": "electric_scooter", "name": "9547589eb7a8f7e0c4372fea586a875e", "is_reserved": 0, "lon": -77.0021395, "is_disabled": 0, "fusion_lat": 0.0, "lat": 38.89459566666667, "bike_id": "9547589eb7a8f7e0c4372fea586a875e", "fusion_lon": 0.0}, {"rental_uris": {"ios": "https://dc.lft.to/lastmile_qr_scan", "android": "https://dc.lft.to/lastmile_qr_scan"}, "type": "electric_scooter", "name": "27f13c27b7ebaec9af63949e70b10e2b", "is_reserved": 0, "lon": -77.03150733333334, "is_disabled": 0, "fusion_lat": 0.0, "lat": 38.894398833333334, "bike_id": "27f13c27b7ebaec9af63949e70b10e2b", "fusion_lon": 0.0}, {"rental_uris": {"ios": "https://dc.lft.to/lastmile_qr_scan", "android": "https://dc.lft.to/lastmile_qr_scan"}, "type": "electric_scooter", "name": "611ec704dd1a2d94c043bff85e0bafdf", "is_reserved": 0, "lon": -77.02609466666667, "is_disabled": 0, "fusion_lat": 0.0, "lat": 38.91697116666667, "bike_id": "611ec704dd1a2d94c043bff85e0bafdf", "fusion_lon": 0.0}, {"rental_uris": {"ios": "https://dc.lft.to/lastmile_qr_scan", "android": "https://dc.lft.to/lastmile_qr_scan"}, "type": "electric_scooter", "name": "506434aa7425f52f84727a7594cd0f58", "is_reserved": 0, "lon": -76.9835895, "is_disabled": 0, "fusion_lat": 0.0, "lat": 38.887458333333335, "bike_id": "506434aa7425f52f84727a7594cd0f58", "fusion_lon": 0.0}, {"rental_uris": {"ios": "https://dc.lft.to/lastmile_qr_scan", "android": "https://dc.lft.to/lastmile_qr_scan"}, "type": "electric_scooter", "name": "bc9684f434c72b791a0dc0680900d943", "is_reserved": 0, "lon": -76.98259, "is_disabled": 0, "fusion_lat": 0.0, "lat": 38.86629383333333, "bike_id": "bc9684f434c72b791a0dc0680900d943", "fusion_lon": 0.0}, {"rental_uris": {"ios": "https://dc.lft.to/lastmile_qr_scan", "android": "https://dc.lft.to/lastmile_qr_scan"}, "type": "electric_scooter", "name": "da33d6e567d8fe83824a4e8d5475ce44", "is_reserved": 0, "lon": -77.02652966666666, "is_disabled": 0, "fusion_lat": 0.0, "lat": 38.92215366666667, "bike_id": "da33d6e567d8fe83824a4e8d5475ce44", "fusion_lon": 0.0}, {"rental_uris": {"ios": "https://dc.lft.to/lastmile_qr_scan", "android": "https://dc.lft.to/lastmile_qr_scan"}, "type": "electric_scooter", "name": "ea2a87d075e92467a32d9c0c0bb84d7b", "is_reserved": 0, "lon": -77.04718316666667, "is_disabled": 0, "fusion_lat": 0.0, "lat": 38.91787983333333, "bike_id": "ea2a87d075e92467a32d9c0c0bb84d7b", "fusion_lon": 0.0}, {"rental_uris": {"ios": "https://dc.lft.to/lastmile_qr_scan", "android": "https://dc.lft.to/lastmile_qr_scan"}, "type": "electric_scooter", "name": "6307b455801af971084e820902ab9913", "is_reserved": 0, "lon": -77.06553483333333, "is_disabled": 0, "fusion_lat": 0.0, "lat": 38.91171666666666, "bike_id": "6307b455801af971084e820902ab9913", "fusion_lon": 0.0}, {"rental_uris": {"ios": "https://dc.lft.to/lastmile_qr_scan", "android": "https://dc.lft.to/lastmile_qr_scan"}, "type": "electric_scooter", "name": "155e8182fcd47c9ea69e2f5f1d8716fd", "is_reserved": 0, "lon": -77.02139516666666, "is_disabled": 0, "fusion_lat": 0.0, "lat": 38.8974235, "bike_id": "155e8182fcd47c9ea69e2f5f1d8716fd", "fusion_lon": 0.0}, {"rental_uris": {"ios": "https://dc.lft.to/lastmile_qr_scan", "android": "https://dc.lft.to/lastmile_qr_scan"}, "type": "electric_scooter", "name": "71a6932b6b0ced9601f3a1aed7eec32c", "is_reserved": 0, "lon": -77.04342533333333, "is_disabled": 0, "fusion_lat": 0.0, "lat": 38.92350016666666, "bike_id": "71a6932b6b0ced9601f3a1aed7eec32c", "fusion_lon": 0.0}, {"rental_uris": {"ios": "https://dc.lft.to/lastmile_qr_scan", "android": "https://dc.lft.to/lastmile_qr_scan"}, "type": "electric_bike", "name": "a0e86d9c90fde9b28867a7bc78222d1e", "is_reserved": 0, "lon": -77.02009533333333, "is_disabled": 0, "fusion_lat": 0.0, "lat": 38.96446566666667, "bike_id": "a0e86d9c90fde9b28867a7bc78222d1e", "fusion_lon": 0.0}, {"rental_uris": {"ios": "https://dc.lft.to/lastmile_qr_scan", "android": "https://dc.lft.to/lastmile_qr_scan"}, "type": "electric_scooter", "name": "5f3ee7c168b4e9352272772b24efb19f", "is_reserved": 0, "lon": -77.02125783333334, "is_disabled": 0, "fusion_lat": 0.0, "lat": 38.92694616666667, "bike_id": "5f3ee7c168b4e9352272772b24efb19f", "fusion_lon": 0.0}, {"rental_uris": {"ios": "https://dc.lft.to/lastmile_qr_scan", "android": "https://dc.lft.to/lastmile_qr_scan"}, "type": "electric_scooter", "name": "d08fc4c2a1aac237404ec83b1b07a10d", "is_reserved": 0, "lon": -77.0232575, "is_disabled": 0, "fusion_lat": 0.0, "lat": 38.922964, "bike_id": "d08fc4c2a1aac237404ec83b1b07a10d", "fusion_lon": 0.0}, {"rental_uris": {"ios": "https://dc.lft.to/lastmile_qr_scan", "android": "https://dc.lft.to/lastmile_qr_scan"}, "type": "electric_scooter", "name": "c4c2bf9cf144ad3af4737f17bb8684f5", "is_reserved": 0, "lon": -77.01589083333333, "is_disabled": 0, "fusion_lat": 0.0, "lat": 38.89972916666667, "bike_id": "c4c2bf9cf144ad3af4737f17bb8684f5", "fusion_lon": 0.0}, {"rental_uris": {"ios": "https://dc.lft.to/lastmile_qr_scan", "android": "https://dc.lft.to/lastmile_qr_scan"}, "type": "electric_scooter", "name": "138117565b21cd7d5c741456f051a3a1", "is_reserved": 0, "lon": -77.02198683333333, "is_disabled": 0, "fusion_lat": 0.0, "lat": 38.911058833333335, "bike_id": "138117565b21cd7d5c741456f051a3a1", "fusion_lon": 0.0}, {"rental_uris": {"ios": "https://dc.lft.to/lastmile_qr_scan", "android": "https://dc.lft.to/lastmile_qr_scan"}, "type": "electric_scooter", "name": "43bf7c1178f49989ddd9d4abf9c07ded", "is_reserved": 0, "lon": -76.93263216666666, "is_disabled": 0, "fusion_lat": 0.0, "lat": 38.887470666666665, "bike_id": "43bf7c1178f49989ddd9d4abf9c07ded", "fusion_lon": 0.0}, {"rental_uris": {"ios": "https://dc.lft.to/lastmile_qr_scan", "android": "https://dc.lft.to/lastmile_qr_scan"}, "type": "electric_scooter", "name": "4fa9e5276ce00dd9547c34c5b4f14076", "is_reserved": 0, "lon": -77.03909233333333, "is_disabled": 0, "fusion_lat": 0.0, "lat": 38.923143833333334, "bike_id": "4fa9e5276ce00dd9547c34c5b4f14076", "fusion_lon": 0.0}, {"rental_uris": {"ios": "https://dc.lft.to/lastmile_qr_scan", "android": "https://dc.lft.to/lastmile_qr_scan"}, "type": "electric_scooter", "name": "af8165650906f9a59063b7ed934a79ec", "is_reserved": 0, "lon": -77.00899066666666, "is_disabled": 0, "fusion_lat": 0.0, "lat": 38.896030333333336, "bike_id": "af8165650906f9a59063b7ed934a79ec", "fusion_lon": 0.0}, {"rental_uris": {"ios": "https://dc.lft.to/lastmile_qr_scan", "android": "https://dc.lft.to/lastmile_qr_scan"}, "type": "electric_scooter", "name": "acf2c429af0959518ab0a307e093f152", "is_reserved": 0, "lon": -76.94663016666667, "is_disabled": 0, "fusion_lat": 0.0, "lat": 38.89868633333333, "bike_id": "acf2c429af0959518ab0a307e093f152", "fusion_lon": 0.0}, {"rental_uris": {"ios": "https://dc.lft.to/lastmile_qr_scan", "android": "https://dc.lft.to/lastmile_qr_scan"}, "type": "electric_scooter", "name": "52c0cd1aac9367eedc4aff869c65634d", "is_reserved": 0, "lon": -77.04077566666666, "is_disabled": 0, "fusion_lat": 0.0, "lat": 38.920253833333334, "bike_id": "52c0cd1aac9367eedc4aff869c65634d", "fusion_lon": 0.0}, {"rental_uris": {"ios": "https://dc.lft.to/lastmile_qr_scan", "android": "https://dc.lft.to/lastmile_qr_scan"}, "type": "electric_scooter", "name": "aad2b3bfde8088ffc5caff1f87b7fc4c", "is_reserved": 0, "lon": -77.02888983333334, "is_disabled": 0, "fusion_lat": 0.0, "lat": 38.917135, "bike_id": "aad2b3bfde8088ffc5caff1f87b7fc4c", "fusion_lon": 0.0}, {"rental_uris": {"ios": "https://dc.lft.to/lastmile_qr_scan", "android": "https://dc.lft.to/lastmile_qr_scan"}, "type": "electric_scooter", "name": "1d02dc960482a7e48e9697f026dbf64a", "is_reserved": 0, "lon": -77.04140833333334, "is_disabled": 0, "fusion_lat": 0.0, "lat": 38.92541583333333, "bike_id": "1d02dc960482a7e48e9697f026dbf64a", "fusion_lon": 0.0}, {"rental_uris": {"ios": "https://dc.lft.to/lastmile_qr_scan", "android": "https://dc.lft.to/lastmile_qr_scan"}, "type": "electric_scooter", "name": "89e47cf22802de10a8eb598ece48f75c", "is_reserved": 0, "lon": -77.02396816666666, "is_disabled": 0, "fusion_lat": 0.0, "lat": 38.920857833333336, "bike_id": "89e47cf22802de10a8eb598ece48f75c", "fusion_lon": 0.0}, {"rental_uris": {"ios": "https://dc.lft.to/lastmile_qr_scan", "android": "https://dc.lft.to/lastmile_qr_scan"}, "type": "electric_scooter", "name": "e5516966b0a8b1f17e632138862a8c23", "is_reserved": 0, "lon": -77.052295, "is_disabled": 0, "fusion_lat": 0.0, "lat": 38.9246035, "bike_id": "e5516966b0a8b1f17e632138862a8c23", "fusion_lon": 0.0}, {"rental_uris": {"ios": "https://dc.lft.to/lastmile_qr_scan", "android": "https://dc.lft.to/lastmile_qr_scan"}, "type": "electric_scooter", "name": "336ec18e24d8edc1abeafa490c990334", "is_reserved": 0, "lon": -77.0404505, "is_disabled": 0, "fusion_lat": 0.0, "lat": 38.91787333333333, "bike_id": "336ec18e24d8edc1abeafa490c990334", "fusion_lon": 0.0}, {"rental_uris": {"ios": "https://dc.lft.to/lastmile_qr_scan", "android": "https://dc.lft.to/lastmile_qr_scan"}, "type": "electric_scooter", "name": "91c63668d8dccd181f911c8086a95770", "is_reserved": 0, "lon": -77.0424715, "is_disabled": 0, "fusion_lat": 0.0, "lat": 38.92222566666667, "bike_id": "91c63668d8dccd181f911c8086a95770", "fusion_lon": 0.0}, {"rental_uris": {"ios": "https://dc.lft.to/lastmile_qr_scan", "android": "https://dc.lft.to/lastmile_qr_scan"}, "type": "electric_scooter", "name": "ca404177a5588811120fc3ae644753b4", "is_reserved": 0, "lon": -77.0218625, "is_disabled": 0, "fusion_lat": 0.0, "lat": 38.92915766666667, "bike_id": "ca404177a5588811120fc3ae644753b4", "fusion_lon": 0.0}, {"rental_uris": {"ios": "https://dc.lft.to/lastmile_qr_scan", "android": "https://dc.lft.to/lastmile_qr_scan"}, "type": "electric_scooter", "name": "5bba8fc617eb7d57ab15ca37b55b7565", "is_reserved": 0, "lon": -77.030513, "is_disabled": 0, "fusion_lat": 0.0, "lat": 38.923800666666665, "bike_id": "5bba8fc617eb7d57ab15ca37b55b7565", "fusion_lon": 0.0}, {"rental_uris": {"ios": "https://dc.lft.to/lastmile_qr_scan", "android": "https://dc.lft.to/lastmile_qr_scan"}, "type": "electric_scooter", "name": "db2ab4b0fcc57566ab3cc3660401ea46", "is_reserved": 0, "lon": -77.041803, "is_disabled": 0, "fusion_lat": 0.0, "lat": 38.91413983333333, "bike_id": "db2ab4b0fcc57566ab3cc3660401ea46", "fusion_lon": 0.0}, {"rental_uris": {"ios": "https://dc.lft.to/lastmile_qr_scan", "android": "https://dc.lft.to/lastmile_qr_scan"}, "type": "electric_scooter", "name": "9ce4afa5d55f0efc005801e46a6166d9", "is_reserved": 0, "lon": -77.03915683333334, "is_disabled": 0, "fusion_lat": 0.0, "lat": 38.89857216666667, "bike_id": "9ce4afa5d55f0efc005801e46a6166d9", "fusion_lon": 0.0}, {"rental_uris": {"ios": "https://dc.lft.to/lastmile_qr_scan", "android": "https://dc.lft.to/lastmile_qr_scan"}, "type": "electric_bike", "name": "7803ea49eccc1ac9a24a432e1a4f157d", "is_reserved": 0, "lon": -77.11281933333333, "is_disabled": 0, "fusion_lat": 0.0, "lat": 38.831017, "bike_id": "7803ea49eccc1ac9a24a432e1a4f157d", "fusion_lon": 0.0}, {"rental_uris": {"ios": "https://dc.lft.to/lastmile_qr_scan", "android": "https://dc.lft.to/lastmile_qr_scan"}, "type": "electric_scooter", "name": "bd2c8938b3b0e4df28fe556b280466e7", "is_reserved": 0, "lon": -77.08778183333334, "is_disabled": 0, "fusion_lat": 0.0, "lat": 38.93561783333333, "bike_id": "bd2c8938b3b0e4df28fe556b280466e7", "fusion_lon": 0.0}, {"rental_uris": {"ios": "https://dc.lft.to/lastmile_qr_scan", "android": "https://dc.lft.to/lastmile_qr_scan"}, "type": "electric_bike", "name": "2690f5c5f0b3d3b9cf10ac14baa3e244", "is_reserved": 0, "lon": -77.04467366666667, "is_disabled": 0, "fusion_lat": 0.0, "lat": 38.92311816666667, "bike_id": "2690f5c5f0b3d3b9cf10ac14baa3e244", "fusion_lon": 0.0}, {"rental_uris": {"ios": "https://dc.lft.to/lastmile_qr_scan", "android": "https://dc.lft.to/lastmile_qr_scan"}, "type": "electric_scooter", "name": "a94bdf6ee293ea9beec920bb135409f5", "is_reserved": 0, "lon": -77.00823916666667, "is_disabled": 0, "fusion_lat": 0.0, "lat": 38.915612833333334, "bike_id": "a94bdf6ee293ea9beec920bb135409f5", "fusion_lon": 0.0}, {"rental_uris": {"ios": "https://dc.lft.to/lastmile_qr_scan", "android": "https://dc.lft.to/lastmile_qr_scan"}, "type": "electric_scooter", "name": "2b9b50d0150cc0eea4eb6531c38f54b2", "is_reserved": 0, "lon": -77.06322666666667, "is_disabled": 0, "fusion_lat": 0.0, "lat": 38.91345316666666, "bike_id": "2b9b50d0150cc0eea4eb6531c38f54b2", "fusion_lon": 0.0}, {"rental_uris": {"ios": "https://dc.lft.to/lastmile_qr_scan", "android": "https://dc.lft.to/lastmile_qr_scan"}, "type": "electric_scooter", "name": "24bb2b498fa73d78417ab1c1ffae7d8e", "is_reserved": 0, "lon": -77.043328, "is_disabled": 0, "fusion_lat": 0.0, "lat": 38.911242333333334, "bike_id": "24bb2b498fa73d78417ab1c1ffae7d8e", "fusion_lon": 0.0}, {"rental_uris": {"ios": "https://dc.lft.to/lastmile_qr_scan", "android": "https://dc.lft.to/lastmile_qr_scan"}, "type": "electric_bike", "name": "acfb19f4fe13886d2c1e811512c4140a", "is_reserved": 0, "lon": -77.0200655, "is_disabled": 0, "fusion_lat": 0.0, "lat": 39.026231833333334, "bike_id": "acfb19f4fe13886d2c1e811512c4140a", "fusion_lon": 0.0}, {"rental_uris": {"ios": "https://dc.lft.to/lastmile_qr_scan", "android": "https://dc.lft.to/lastmile_qr_scan"}, "type": "electric_scooter", "name": "d7f16ae5f0a97be8cb7ae391ce11b511", "is_reserved": 0, "lon": -77.03118016666667, "is_disabled": 0, "fusion_lat": 0.0, "lat": 38.920097, "bike_id": "d7f16ae5f0a97be8cb7ae391ce11b511", "fusion_lon": 0.0}, {"rental_uris": {"ios": "https://dc.lft.to/lastmile_qr_scan", "android": "https://dc.lft.to/lastmile_qr_scan"}, "type": "electric_scooter", "name": "0f5e4a8f01d540238bbb4fdb6cfea0ee", "is_reserved": 0, "lon": -77.0245325, "is_disabled": 0, "fusion_lat": 0.0, "lat": 38.9179045, "bike_id": "0f5e4a8f01d540238bbb4fdb6cfea0ee", "fusion_lon": 0.0}, {"rental_uris": {"ios": "https://dc.lft.to/lastmile_qr_scan", "android": "https://dc.lft.to/lastmile_qr_scan"}, "type": "electric_scooter", "name": "a5efe4bcd28c2b1af6f11b8e3c694e91", "is_reserved": 0, "lon": -76.98067783333333, "is_disabled": 0, "fusion_lat": 0.0, "lat": 38.904102, "bike_id": "a5efe4bcd28c2b1af6f11b8e3c694e91", "fusion_lon": 0.0}, {"rental_uris": {"ios": "https://dc.lft.to/lastmile_qr_scan", "android": "https://dc.lft.to/lastmile_qr_scan"}, "type": "electric_scooter", "name": "1886907239160ea4a1aac9b5cabda5fa", "is_reserved": 0, "lon": -77.021587, "is_disabled": 0, "fusion_lat": 0.0, "lat": 38.87930083333333, "bike_id": "1886907239160ea4a1aac9b5cabda5fa", "fusion_lon": 0.0}, {"rental_uris": {"ios": "https://dc.lft.to/lastmile_qr_scan", "android": "https://dc.lft.to/lastmile_qr_scan"}, "type": "electric_scooter", "name": "c554aba96400389ac8c7b261bf4af6ce", "is_reserved": 0, "lon": -77.02080366666667, "is_disabled": 0, "fusion_lat": 0.0, "lat": 38.92396683333333, "bike_id": "c554aba96400389ac8c7b261bf4af6ce", "fusion_lon": 0.0}, {"rental_uris": {"ios": "https://dc.lft.to/lastmile_qr_scan", "android": "https://dc.lft.to/lastmile_qr_scan"}, "type": "electric_scooter", "name": "c2903da8928f804da27b6e281c9c3c03", "is_reserved": 0, "lon": -77.03476366666666, "is_disabled": 0, "fusion_lat": 0.0, "lat": 38.930356833333335, "bike_id": "c2903da8928f804da27b6e281c9c3c03", "fusion_lon": 0.0}, {"rental_uris": {"ios": "https://dc.lft.to/lastmile_qr_scan", "android": "https://dc.lft.to/lastmile_qr_scan"}, "type": "electric_scooter", "name": "591bad37098bf37f4312e880a8cc624b", "is_reserved": 0, "lon": -77.0395925, "is_disabled": 0, "fusion_lat": 0.0, "lat": 38.9314805, "bike_id": "591bad37098bf37f4312e880a8cc624b", "fusion_lon": 0.0}, {"rental_uris": {"ios": "https://dc.lft.to/lastmile_qr_scan", "android": "https://dc.lft.to/lastmile_qr_scan"}, "type": "electric_scooter", "name": "08db0f458823dec843c5e370b6f61767", "is_reserved": 0, "lon": -77.00715683333334, "is_disabled": 0, "fusion_lat": 0.0, "lat": 38.87846066666667, "bike_id": "08db0f458823dec843c5e370b6f61767", "fusion_lon": 0.0}, {"rental_uris": {"ios": "https://dc.lft.to/lastmile_qr_scan", "android": "https://dc.lft.to/lastmile_qr_scan"}, "type": "electric_scooter", "name": "83d476dc8b9211191f2abfb584217843", "is_reserved": 0, "lon": -77.038926, "is_disabled": 0, "fusion_lat": 0.0, "lat": 38.92219033333333, "bike_id": "83d476dc8b9211191f2abfb584217843", "fusion_lon": 0.0}, {"rental_uris": {"ios": "https://dc.lft.to/lastmile_qr_scan", "android": "https://dc.lft.to/lastmile_qr_scan"}, "type": "electric_scooter", "name": "0743e009c2dbadfd60808cb58884cda3", "is_reserved": 0, "lon": -77.02280916666666, "is_disabled": 0, "fusion_lat": 0.0, "lat": 38.92673516666667, "bike_id": "0743e009c2dbadfd60808cb58884cda3", "fusion_lon": 0.0}, {"rental_uris": {"ios": "https://dc.lft.to/lastmile_qr_scan", "android": "https://dc.lft.to/lastmile_qr_scan"}, "type": "electric_scooter", "name": "4218092ee4fa2a11d2689536970993bd", "is_reserved": 0, "lon": -77.01571033333333, "is_disabled": 0, "fusion_lat": 0.0, "lat": 38.876340166666665, "bike_id": "4218092ee4fa2a11d2689536970993bd", "fusion_lon": 0.0}, {"rental_uris": {"ios": "https://dc.lft.to/lastmile_qr_scan", "android": "https://dc.lft.to/lastmile_qr_scan"}, "type": "electric_scooter", "name": "c202a6f1b541697160d91fdea12a1e46", "is_reserved": 0, "lon": -77.0434445, "is_disabled": 0, "fusion_lat": 0.0, "lat": 38.91385433333333, "bike_id": "c202a6f1b541697160d91fdea12a1e46", "fusion_lon": 0.0}, {"rental_uris": {"ios": "https://dc.lft.to/lastmile_qr_scan", "android": "https://dc.lft.to/lastmile_qr_scan"}, "type": "electric_bike", "name": "f80b4e61ed437bbc9b2b402f19bbdf7a", "is_reserved": 0, "lon": -77.06416, "is_disabled": 0, "fusion_lat": 0.0, "lat": 38.90643, "bike_id": "f80b4e61ed437bbc9b2b402f19bbdf7a", "fusion_lon": 0.0}, {"rental_uris": {"ios": "https://dc.lft.to/lastmile_qr_scan", "android": "https://dc.lft.to/lastmile_qr_scan"}, "type": "electric_scooter", "name": "045d0539ca9920889125fdbea88b8627", "is_reserved": 0, "lon": -77.03740533333334, "is_disabled": 0, "fusion_lat": 0.0, "lat": 38.8799525, "bike_id": "045d0539ca9920889125fdbea88b8627", "fusion_lon": 0.0}, {"rental_uris": {"ios": "https://dc.lft.to/lastmile_qr_scan", "android": "https://dc.lft.to/lastmile_qr_scan"}, "type": "electric_scooter", "name": "a6ff0304f88f7287e8d5d7bfa325d5e4", "is_reserved": 0, "lon": -77.02205683333334, "is_disabled": 0, "fusion_lat": 0.0, "lat": 38.89229866666667, "bike_id": "a6ff0304f88f7287e8d5d7bfa325d5e4", "fusion_lon": 0.0}, {"rental_uris": {"ios": "https://dc.lft.to/lastmile_qr_scan", "android": "https://dc.lft.to/lastmile_qr_scan"}, "type": "electric_scooter", "name": "9aeb090a9cf8106619b7f38adaf0e983", "is_reserved": 0, "lon": -77.045248, "is_disabled": 0, "fusion_lat": 0.0, "lat": 38.911127666666665, "bike_id": "9aeb090a9cf8106619b7f38adaf0e983", "fusion_lon": 0.0}, {"rental_uris": {"ios": "https://dc.lft.to/lastmile_qr_scan", "android": "https://dc.lft.to/lastmile_qr_scan"}, "type": "electric_scooter", "name": "54f847f2ab6cff9540583820a9d37851", "is_reserved": 0, "lon": -77.03204533333333, "is_disabled": 0, "fusion_lat": 0.0, "lat": 38.91636316666666, "bike_id": "54f847f2ab6cff9540583820a9d37851", "fusion_lon": 0.0}, {"rental_uris": {"ios": "https://dc.lft.to/lastmile_qr_scan", "android": "https://dc.lft.to/lastmile_qr_scan"}, "type": "electric_scooter", "name": "9dd151415bcc29f43ef22150ac563f44", "is_reserved": 0, "lon": -77.0182145, "is_disabled": 0, "fusion_lat": 0.0, "lat": 38.922239166666664, "bike_id": "9dd151415bcc29f43ef22150ac563f44", "fusion_lon": 0.0}, {"rental_uris": {"ios": "https://dc.lft.to/lastmile_qr_scan", "android": "https://dc.lft.to/lastmile_qr_scan"}, "type": "electric_scooter", "name": "18b306538a69edc18e42c5a204493b23", "is_reserved": 0, "lon": -77.053287, "is_disabled": 0, "fusion_lat": 0.0, "lat": 38.902373833333336, "bike_id": "18b306538a69edc18e42c5a204493b23", "fusion_lon": 0.0}, {"rental_uris": {"ios": "https://dc.lft.to/lastmile_qr_scan", "android": "https://dc.lft.to/lastmile_qr_scan"}, "type": "electric_scooter", "name": "542baabc643417546597bc5f2dfc5934", "is_reserved": 0, "lon": -77.070133, "is_disabled": 0, "fusion_lat": 0.0, "lat": 38.893565, "bike_id": "542baabc643417546597bc5f2dfc5934", "fusion_lon": 0.0}, {"rental_uris": {"ios": "https://dc.lft.to/lastmile_qr_scan", "android": "https://dc.lft.to/lastmile_qr_scan"}, "type": "electric_scooter", "name": "3a7bd082c1faa0dee09fe54cb9946819", "is_reserved": 0, "lon": -76.99025483333334, "is_disabled": 0, "fusion_lat": 0.0, "lat": 38.864258, "bike_id": "3a7bd082c1faa0dee09fe54cb9946819", "fusion_lon": 0.0}, {"rental_uris": {"ios": "https://dc.lft.to/lastmile_qr_scan", "android": "https://dc.lft.to/lastmile_qr_scan"}, "type": "electric_scooter", "name": "7c51f21f6fecb5775d92dfefe0066d70", "is_reserved": 0, "lon": -77.02860633333333, "is_disabled": 0, "fusion_lat": 0.0, "lat": 38.912557166666666, "bike_id": "7c51f21f6fecb5775d92dfefe0066d70", "fusion_lon": 0.0}, {"rental_uris": {"ios": "https://dc.lft.to/lastmile_qr_scan", "android": "https://dc.lft.to/lastmile_qr_scan"}, "type": "electric_bike", "name": "28f5b027812b739f66ad171b015a78d8", "is_reserved": 0, "lon": -77.12929333333334, "is_disabled": 0, "fusion_lat": 0.0, "lat": 38.86584716666667, "bike_id": "28f5b027812b739f66ad171b015a78d8", "fusion_lon": 0.0}, {"rental_uris": {"ios": "https://dc.lft.to/lastmile_qr_scan", "android": "https://dc.lft.to/lastmile_qr_scan"}, "type": "electric_scooter", "name": "751c8bf9888ff17ab658b092e38a8bae", "is_reserved": 0, "lon": -77.0150065, "is_disabled": 0, "fusion_lat": 0.0, "lat": 38.926657, "bike_id": "751c8bf9888ff17ab658b092e38a8bae", "fusion_lon": 0.0}, {"rental_uris": {"ios": "https://dc.lft.to/lastmile_qr_scan", "android": "https://dc.lft.to/lastmile_qr_scan"}, "type": "electric_scooter", "name": "eba3d1df5ccc342feb7db996a8185108", "is_reserved": 0, "lon": -77.04031766666667, "is_disabled": 0, "fusion_lat": 0.0, "lat": 38.923156166666665, "bike_id": "eba3d1df5ccc342feb7db996a8185108", "fusion_lon": 0.0}, {"rental_uris": {"ios": "https://dc.lft.to/lastmile_qr_scan", "android": "https://dc.lft.to/lastmile_qr_scan"}, "type": "electric_scooter", "name": "5d64dbfda36f5096da5d27b71c599840", "is_reserved": 0, "lon": -77.03912016666666, "is_disabled": 0, "fusion_lat": 0.0, "lat": 38.91559766666666, "bike_id": "5d64dbfda36f5096da5d27b71c599840", "fusion_lon": 0.0}, {"rental_uris": {"ios": "https://dc.lft.to/lastmile_qr_scan", "android": "https://dc.lft.to/lastmile_qr_scan"}, "type": "electric_scooter", "name": "4e5edf3458b83959f9ad7ec7c2905edc", "is_reserved": 0, "lon": -77.0581435, "is_disabled": 0, "fusion_lat": 0.0, "lat": 38.935185833333335, "bike_id": "4e5edf3458b83959f9ad7ec7c2905edc", "fusion_lon": 0.0}, {"rental_uris": {"ios": "https://dc.lft.to/lastmile_qr_scan", "android": "https://dc.lft.to/lastmile_qr_scan"}, "type": "electric_scooter", "name": "199e9ff77fdd4d5383ebe0741e10ce4a", "is_reserved": 0, "lon": -77.00203083333334, "is_disabled": 0, "fusion_lat": 0.0, "lat": 38.91207633333333, "bike_id": "199e9ff77fdd4d5383ebe0741e10ce4a", "fusion_lon": 0.0}, {"rental_uris": {"ios": "https://dc.lft.to/lastmile_qr_scan", "android": "https://dc.lft.to/lastmile_qr_scan"}, "type": "electric_scooter", "name": "1e83cc4a7502de0039a11a9bc086e8f6", "is_reserved": 0, "lon": -77.00058383333334, "is_disabled": 0, "fusion_lat": 0.0, "lat": 38.87454666666667, "bike_id": "1e83cc4a7502de0039a11a9bc086e8f6", "fusion_lon": 0.0}, {"rental_uris": {"ios": "https://dc.lft.to/lastmile_qr_scan", "android": "https://dc.lft.to/lastmile_qr_scan"}, "type": "electric_bike", "name": "8b35d92c4e57af36c110ffe7052b2b3a", "is_reserved": 0, "lon": -76.94150366666666, "is_disabled": 0, "fusion_lat": 0.0, "lat": 38.89030316666667, "bike_id": "8b35d92c4e57af36c110ffe7052b2b3a", "fusion_lon": 0.0}, {"rental_uris": {"ios": "https://dc.lft.to/lastmile_qr_scan", "android": "https://dc.lft.to/lastmile_qr_scan"}, "type": "electric_scooter", "name": "a0a6955a1f6670a11301c442694d4647", "is_reserved": 0, "lon": -77.02159666666667, "is_disabled": 0, "fusion_lat": 0.0, "lat": 38.92457183333333, "bike_id": "a0a6955a1f6670a11301c442694d4647", "fusion_lon": 0.0}, {"rental_uris": {"ios": "https://dc.lft.to/lastmile_qr_scan", "android": "https://dc.lft.to/lastmile_qr_scan"}, "type": "electric_scooter", "name": "34ab1227c959f3020a94d3221191c947", "is_reserved": 0, "lon": -77.038261, "is_disabled": 0, "fusion_lat": 0.0, "lat": 38.962647833333335, "bike_id": "34ab1227c959f3020a94d3221191c947", "fusion_lon": 0.0}, {"rental_uris": {"ios": "https://dc.lft.to/lastmile_qr_scan", "android": "https://dc.lft.to/lastmile_qr_scan"}, "type": "electric_scooter", "name": "0ead452647c9dd2415795601f0ed22fe", "is_reserved": 0, "lon": -76.93184866666667, "is_disabled": 0, "fusion_lat": 0.0, "lat": 38.898754, "bike_id": "0ead452647c9dd2415795601f0ed22fe", "fusion_lon": 0.0}, {"rental_uris": {"ios": "https://dc.lft.to/lastmile_qr_scan", "android": "https://dc.lft.to/lastmile_qr_scan"}, "type": "electric_scooter", "name": "0e20ea88e27e81775d53a0c76029900c", "is_reserved": 0, "lon": -77.00662766666666, "is_disabled": 0, "fusion_lat": 0.0, "lat": 38.87654283333333, "bike_id": "0e20ea88e27e81775d53a0c76029900c", "fusion_lon": 0.0}, {"rental_uris": {"ios": "https://dc.lft.to/lastmile_qr_scan", "android": "https://dc.lft.to/lastmile_qr_scan"}, "type": "electric_scooter", "name": "55afa2f5ebdb7b2d34329c7b01ef58ce", "is_reserved": 0, "lon": -77.04360866666667, "is_disabled": 0, "fusion_lat": 0.0, "lat": 38.922473, "bike_id": "55afa2f5ebdb7b2d34329c7b01ef58ce", "fusion_lon": 0.0}, {"rental_uris": {"ios": "https://dc.lft.to/lastmile_qr_scan", "android": "https://dc.lft.to/lastmile_qr_scan"}, "type": "electric_scooter", "name": "7519279fd5a127c444206572825e5d08", "is_reserved": 0, "lon": -77.02193716666666, "is_disabled": 0, "fusion_lat": 0.0, "lat": 38.91082566666667, "bike_id": "7519279fd5a127c444206572825e5d08", "fusion_lon": 0.0}, {"rental_uris": {"ios": "https://dc.lft.to/lastmile_qr_scan", "android": "https://dc.lft.to/lastmile_qr_scan"}, "type": "electric_bike", "name": "521c42e1e9d41e23501e216ce5d623ca", "is_reserved": 0, "lon": -77.12900983333333, "is_disabled": 0, "fusion_lat": 0.0, "lat": 38.79969, "bike_id": "521c42e1e9d41e23501e216ce5d623ca", "fusion_lon": 0.0}, {"rental_uris": {"ios": "https://dc.lft.to/lastmile_qr_scan", "android": "https://dc.lft.to/lastmile_qr_scan"}, "type": "electric_scooter", "name": "20e5f96ad5d9c63e7661dd2b47487751", "is_reserved": 0, "lon": -77.036439, "is_disabled": 0, "fusion_lat": 0.0, "lat": 38.912692, "bike_id": "20e5f96ad5d9c63e7661dd2b47487751", "fusion_lon": 0.0}, {"rental_uris": {"ios": "https://dc.lft.to/lastmile_qr_scan", "android": "https://dc.lft.to/lastmile_qr_scan"}, "type": "electric_scooter", "name": "e09a6a67ec68150b34848df920bc29f5", "is_reserved": 0, "lon": -77.03647316666667, "is_disabled": 0, "fusion_lat": 0.0, "lat": 38.92306416666667, "bike_id": "e09a6a67ec68150b34848df920bc29f5", "fusion_lon": 0.0}, {"rental_uris": {"ios": "https://dc.lft.to/lastmile_qr_scan", "android": "https://dc.lft.to/lastmile_qr_scan"}, "type": "electric_bike", "name": "8e4fa02850630dd8f329b725677cb0f1", "is_reserved": 0, "lon": -76.91805583333333, "is_disabled": 0, "fusion_lat": 0.0, "lat": 39.000096, "bike_id": "8e4fa02850630dd8f329b725677cb0f1", "fusion_lon": 0.0}, {"rental_uris": {"ios": "https://dc.lft.to/lastmile_qr_scan", "android": "https://dc.lft.to/lastmile_qr_scan"}, "type": "electric_scooter", "name": "2751af241c6710c61313cea260237f9a", "is_reserved": 0, "lon": -77.0473875, "is_disabled": 0, "fusion_lat": 0.0, "lat": 38.91773633333333, "bike_id": "2751af241c6710c61313cea260237f9a", "fusion_lon": 0.0}, {"rental_uris": {"ios": "https://dc.lft.to/lastmile_qr_scan", "android": "https://dc.lft.to/lastmile_qr_scan"}, "type": "electric_scooter", "name": "1f777265ddc11c60d8884ebd3918dde5", "is_reserved": 0, "lon": -76.99494766666666, "is_disabled": 0, "fusion_lat": 0.0, "lat": 38.88226016666667, "bike_id": "1f777265ddc11c60d8884ebd3918dde5", "fusion_lon": 0.0}, {"rental_uris": {"ios": "https://dc.lft.to/lastmile_qr_scan", "android": "https://dc.lft.to/lastmile_qr_scan"}, "type": "electric_bike", "name": "cf874ab54cbf798e083df661f9eac673", "is_reserved": 0, "lon": -76.98346583333333, "is_disabled": 0, "fusion_lat": 0.0, "lat": 38.862670333333334, "bike_id": "cf874ab54cbf798e083df661f9eac673", "fusion_lon": 0.0}, {"rental_uris": {"ios": "https://dc.lft.to/lastmile_qr_scan", "android": "https://dc.lft.to/lastmile_qr_scan"}, "type": "electric_scooter", "name": "74a53afa8459f3adbabefa3d9964457a", "is_reserved": 0, "lon": -77.05301483333334, "is_disabled": 0, "fusion_lat": 0.0, "lat": 38.902452, "bike_id": "74a53afa8459f3adbabefa3d9964457a", "fusion_lon": 0.0}, {"rental_uris": {"ios": "https://dc.lft.to/lastmile_qr_scan", "android": "https://dc.lft.to/lastmile_qr_scan"}, "type": "electric_scooter", "name": "f06bb161c0c8aeaccccef05bd7784331", "is_reserved": 0, "lon": -77.02283383333334, "is_disabled": 0, "fusion_lat": 0.0, "lat": 38.925696333333335, "bike_id": "f06bb161c0c8aeaccccef05bd7784331", "fusion_lon": 0.0}, {"rental_uris": {"ios": "https://dc.lft.to/lastmile_qr_scan", "android": "https://dc.lft.to/lastmile_qr_scan"}, "type": "electric_scooter", "name": "131653784b4d65cac89343e81e16e2e8", "is_reserved": 0, "lon": -77.05729783333334, "is_disabled": 0, "fusion_lat": 0.0, "lat": 38.933529, "bike_id": "131653784b4d65cac89343e81e16e2e8", "fusion_lon": 0.0}, {"rental_uris": {"ios": "https://dc.lft.to/lastmile_qr_scan", "android": "https://dc.lft.to/lastmile_qr_scan"}, "type": "electric_scooter", "name": "754367f9fa825d5d66d971f053593045", "is_reserved": 0, "lon": -77.0491285, "is_disabled": 0, "fusion_lat": 0.0, "lat": 38.900844, "bike_id": "754367f9fa825d5d66d971f053593045", "fusion_lon": 0.0}, {"rental_uris": {"ios": "https://dc.lft.to/lastmile_qr_scan", "android": "https://dc.lft.to/lastmile_qr_scan"}, "type": "electric_bike", "name": "e7b4f5e38d585a74e4960923e49e5477", "is_reserved": 0, "lon": -76.99914466666667, "is_disabled": 0, "fusion_lat": 0.0, "lat": 38.864518833333335, "bike_id": "e7b4f5e38d585a74e4960923e49e5477", "fusion_lon": 0.0}, {"rental_uris": {"ios": "https://dc.lft.to/lastmile_qr_scan", "android": "https://dc.lft.to/lastmile_qr_scan"}, "type": "electric_scooter", "name": "d0d6593a5dc181ef02a2e90790c6c4e3", "is_reserved": 0, "lon": -76.93383466666667, "is_disabled": 0, "fusion_lat": 0.0, "lat": 38.89903783333333, "bike_id": "d0d6593a5dc181ef02a2e90790c6c4e3", "fusion_lon": 0.0}, {"rental_uris": {"ios": "https://dc.lft.to/lastmile_qr_scan", "android": "https://dc.lft.to/lastmile_qr_scan"}, "type": "electric_scooter", "name": "af26d39d499cd91527264889bbf426b0", "is_reserved": 0, "lon": -77.04224333333333, "is_disabled": 0, "fusion_lat": 0.0, "lat": 38.911067, "bike_id": "af26d39d499cd91527264889bbf426b0", "fusion_lon": 0.0}, {"rental_uris": {"ios": "https://dc.lft.to/lastmile_qr_scan", "android": "https://dc.lft.to/lastmile_qr_scan"}, "type": "electric_bike", "name": "6ac2c98e4a797f5716892a843df43e56", "is_reserved": 0, "lon": -77.00413766666667, "is_disabled": 0, "fusion_lat": 0.0, "lat": 38.985261333333334, "bike_id": "6ac2c98e4a797f5716892a843df43e56", "fusion_lon": 0.0}, {"rental_uris": {"ios": "https://dc.lft.to/lastmile_qr_scan", "android": "https://dc.lft.to/lastmile_qr_scan"}, "type": "electric_scooter", "name": "e92f02386df4a1c15d3ae8e180ec16d9", "is_reserved": 0, "lon": -77.033739, "is_disabled": 0, "fusion_lat": 0.0, "lat": 38.89988, "bike_id": "e92f02386df4a1c15d3ae8e180ec16d9", "fusion_lon": 0.0}, {"rental_uris": {"ios": "https://dc.lft.to/lastmile_qr_scan", "android": "https://dc.lft.to/lastmile_qr_scan"}, "type": "electric_scooter", "name": "3970f5832ec0d9691587e3b73de0191c", "is_reserved": 0, "lon": -77.00382933333333, "is_disabled": 0, "fusion_lat": 0.0, "lat": 38.87934933333333, "bike_id": "3970f5832ec0d9691587e3b73de0191c", "fusion_lon": 0.0}, {"rental_uris": {"ios": "https://dc.lft.to/lastmile_qr_scan", "android": "https://dc.lft.to/lastmile_qr_scan"}, "type": "electric_scooter", "name": "2d876157989c49f5c71b45a4d3b29fc6", "is_reserved": 0, "lon": -77.04090966666666, "is_disabled": 0, "fusion_lat": 0.0, "lat": 38.917166, "bike_id": "2d876157989c49f5c71b45a4d3b29fc6", "fusion_lon": 0.0}, {"rental_uris": {"ios": "https://dc.lft.to/lastmile_qr_scan", "android": "https://dc.lft.to/lastmile_qr_scan"}, "type": "electric_scooter", "name": "9a174a9c6ea73c9cec32adbde62041a8", "is_reserved": 0, "lon": -77.02292616666666, "is_disabled": 0, "fusion_lat": 0.0, "lat": 38.90959733333333, "bike_id": "9a174a9c6ea73c9cec32adbde62041a8", "fusion_lon": 0.0}, {"rental_uris": {"ios": "https://dc.lft.to/lastmile_qr_scan", "android": "https://dc.lft.to/lastmile_qr_scan"}, "type": "electric_scooter", "name": "7258912b0aee9a5d60e369b74c3c4b8b", "is_reserved": 0, "lon": -77.02663583333333, "is_disabled": 0, "fusion_lat": 0.0, "lat": 38.884967, "bike_id": "7258912b0aee9a5d60e369b74c3c4b8b", "fusion_lon": 0.0}, {"rental_uris": {"ios": "https://dc.lft.to/lastmile_qr_scan", "android": "https://dc.lft.to/lastmile_qr_scan"}, "type": "electric_scooter", "name": "062052eb62a9a118e39f53a9b6447d2b", "is_reserved": 0, "lon": -77.03984833333334, "is_disabled": 0, "fusion_lat": 0.0, "lat": 38.892204666666665, "bike_id": "062052eb62a9a118e39f53a9b6447d2b", "fusion_lon": 0.0}, {"rental_uris": {"ios": "https://dc.lft.to/lastmile_qr_scan", "android": "https://dc.lft.to/lastmile_qr_scan"}, "type": "electric_bike", "name": "c09745434afb2382efc2fb69f88b8b37", "is_reserved": 0, "lon": -77.12702833333333, "is_disabled": 0, "fusion_lat": 0.0, "lat": 38.895739, "bike_id": "c09745434afb2382efc2fb69f88b8b37", "fusion_lon": 0.0}, {"rental_uris": {"ios": "https://dc.lft.to/lastmile_qr_scan", "android": "https://dc.lft.to/lastmile_qr_scan"}, "type": "electric_bike", "name": "82bc2cde47dba9616b8cebc831e6705f", "is_reserved": 0, "lon": -76.9570055, "is_disabled": 0, "fusion_lat": 0.0, "lat": 38.850889333333335, "bike_id": "82bc2cde47dba9616b8cebc831e6705f", "fusion_lon": 0.0}, {"rental_uris": {"ios": "https://dc.lft.to/lastmile_qr_scan", "android": "https://dc.lft.to/lastmile_qr_scan"}, "type": "electric_scooter", "name": "9e8463c7a107c1e2a4b8d8c65126a4e7", "is_reserved": 0, "lon": -77.02953583333333, "is_disabled": 0, "fusion_lat": 0.0, "lat": 38.917032166666665, "bike_id": "9e8463c7a107c1e2a4b8d8c65126a4e7", "fusion_lon": 0.0}, {"rental_uris": {"ios": "https://dc.lft.to/lastmile_qr_scan", "android": "https://dc.lft.to/lastmile_qr_scan"}, "type": "electric_bike", "name": "21fe0860b9e035d07c48926e5d6871a3", "is_reserved": 0, "lon": -77.09016133333333, "is_disabled": 0, "fusion_lat": 0.0, "lat": 38.9264665, "bike_id": "21fe0860b9e035d07c48926e5d6871a3", "fusion_lon": 0.0}, {"rental_uris": {"ios": "https://dc.lft.to/lastmile_qr_scan", "android": "https://dc.lft.to/lastmile_qr_scan"}, "type": "electric_scooter", "name": "810941b9a00e1101fe055c5cbf12e80d", "is_reserved": 0, "lon": -77.0319325, "is_disabled": 0, "fusion_lat": 0.0, "lat": 38.9181325, "bike_id": "810941b9a00e1101fe055c5cbf12e80d", "fusion_lon": 0.0}, {"rental_uris": {"ios": "https://dc.lft.to/lastmile_qr_scan", "android": "https://dc.lft.to/lastmile_qr_scan"}, "type": "electric_scooter", "name": "1089939a46d837b761c3e3abea0a4cbe", "is_reserved": 0, "lon": -77.0237815, "is_disabled": 0, "fusion_lat": 0.0, "lat": 38.902247833333334, "bike_id": "1089939a46d837b761c3e3abea0a4cbe", "fusion_lon": 0.0}, {"rental_uris": {"ios": "https://dc.lft.to/lastmile_qr_scan", "android": "https://dc.lft.to/lastmile_qr_scan"}, "type": "electric_scooter", "name": "716a276b0873783168bd2c3a4fa92c91", "is_reserved": 0, "lon": -76.9574405, "is_disabled": 0, "fusion_lat": 0.0, "lat": 38.883949, "bike_id": "716a276b0873783168bd2c3a4fa92c91", "fusion_lon": 0.0}, {"rental_uris": {"ios": "https://dc.lft.to/lastmile_qr_scan", "android": "https://dc.lft.to/lastmile_qr_scan"}, "type": "electric_scooter", "name": "629996af0fc7a301248bee16b083dd5f", "is_reserved": 0, "lon": -76.98358333333333, "is_disabled": 0, "fusion_lat": 0.0, "lat": 38.8874785, "bike_id": "629996af0fc7a301248bee16b083dd5f", "fusion_lon": 0.0}, {"rental_uris": {"ios": "https://dc.lft.to/lastmile_qr_scan", "android": "https://dc.lft.to/lastmile_qr_scan"}, "type": "electric_scooter", "name": "f2051955d718d0d67cdb109978b8eb62", "is_reserved": 0, "lon": -77.0075905, "is_disabled": 0, "fusion_lat": 0.0, "lat": 38.92531316666667, "bike_id": "f2051955d718d0d67cdb109978b8eb62", "fusion_lon": 0.0}, {"rental_uris": {"ios": "https://dc.lft.to/lastmile_qr_scan", "android": "https://dc.lft.to/lastmile_qr_scan"}, "type": "electric_scooter", "name": "10483b238de19e0de3a86bd1fbc7a746", "is_reserved": 0, "lon": -77.01228583333334, "is_disabled": 0, "fusion_lat": 0.0, "lat": 38.86976466666667, "bike_id": "10483b238de19e0de3a86bd1fbc7a746", "fusion_lon": 0.0}, {"rental_uris": {"ios": "https://dc.lft.to/lastmile_qr_scan", "android": "https://dc.lft.to/lastmile_qr_scan"}, "type": "electric_scooter", "name": "d6569a9493dc403816f39fc73ac13224", "is_reserved": 0, "lon": -77.000568, "is_disabled": 0, "fusion_lat": 0.0, "lat": 38.87376366666667, "bike_id": "d6569a9493dc403816f39fc73ac13224", "fusion_lon": 0.0}, {"rental_uris": {"ios": "https://dc.lft.to/lastmile_qr_scan", "android": "https://dc.lft.to/lastmile_qr_scan"}, "type": "electric_scooter", "name": "715b7dfe6e925dc55ff8723cfcd5e0e2", "is_reserved": 0, "lon": -77.08191266666667, "is_disabled": 0, "fusion_lat": 0.0, "lat": 38.933467, "bike_id": "715b7dfe6e925dc55ff8723cfcd5e0e2", "fusion_lon": 0.0}, {"rental_uris": {"ios": "https://dc.lft.to/lastmile_qr_scan", "android": "https://dc.lft.to/lastmile_qr_scan"}, "type": "electric_scooter", "name": "e178d9d2f25cd11952968a0d9c2617cf", "is_reserved": 0, "lon": -76.9736085, "is_disabled": 0, "fusion_lat": 0.0, "lat": 38.850230333333336, "bike_id": "e178d9d2f25cd11952968a0d9c2617cf", "fusion_lon": 0.0}, {"rental_uris": {"ios": "https://dc.lft.to/lastmile_qr_scan", "android": "https://dc.lft.to/lastmile_qr_scan"}, "type": "electric_scooter", "name": "590ca3a80ff61cb9fda52daeccde37d3", "is_reserved": 0, "lon": -77.04346716666667, "is_disabled": 0, "fusion_lat": 0.0, "lat": 38.913549333333336, "bike_id": "590ca3a80ff61cb9fda52daeccde37d3", "fusion_lon": 0.0}, {"rental_uris": {"ios": "https://dc.lft.to/lastmile_qr_scan", "android": "https://dc.lft.to/lastmile_qr_scan"}, "type": "electric_scooter", "name": "5ead1769c572206ca947c9c6f8b5193c", "is_reserved": 0, "lon": -76.95451333333334, "is_disabled": 0, "fusion_lat": 0.0, "lat": 38.88393933333333, "bike_id": "5ead1769c572206ca947c9c6f8b5193c", "fusion_lon": 0.0}, {"rental_uris": {"ios": "https://dc.lft.to/lastmile_qr_scan", "android": "https://dc.lft.to/lastmile_qr_scan"}, "type": "electric_scooter", "name": "f0c7db3f85722afa723d9546297c54bf", "is_reserved": 0, "lon": -77.03189533333334, "is_disabled": 0, "fusion_lat": 0.0, "lat": 38.915952, "bike_id": "f0c7db3f85722afa723d9546297c54bf", "fusion_lon": 0.0}, {"rental_uris": {"ios": "https://dc.lft.to/lastmile_qr_scan", "android": "https://dc.lft.to/lastmile_qr_scan"}, "type": "electric_scooter", "name": "72cad9521a70a2b3cf04a5140494ddbe", "is_reserved": 0, "lon": -76.9951435, "is_disabled": 0, "fusion_lat": 0.0, "lat": 38.8898865, "bike_id": "72cad9521a70a2b3cf04a5140494ddbe", "fusion_lon": 0.0}, {"rental_uris": {"ios": "https://dc.lft.to/lastmile_qr_scan", "android": "https://dc.lft.to/lastmile_qr_scan"}, "type": "electric_scooter", "name": "3d89ee317c88a981ca7e97b5fb1d24e2", "is_reserved": 0, "lon": -77.011027, "is_disabled": 0, "fusion_lat": 0.0, "lat": 38.89574133333333, "bike_id": "3d89ee317c88a981ca7e97b5fb1d24e2", "fusion_lon": 0.0}, {"rental_uris": {"ios": "https://dc.lft.to/lastmile_qr_scan", "android": "https://dc.lft.to/lastmile_qr_scan"}, "type": "electric_scooter", "name": "156bb668f374093f76406ba71408c705", "is_reserved": 0, "lon": -76.98701366666667, "is_disabled": 0, "fusion_lat": 0.0, "lat": 38.85961133333333, "bike_id": "156bb668f374093f76406ba71408c705", "fusion_lon": 0.0}, {"rental_uris": {"ios": "https://dc.lft.to/lastmile_qr_scan", "android": "https://dc.lft.to/lastmile_qr_scan"}, "type": "electric_scooter", "name": "84eedfe6f3e796a510b62613b9601b07", "is_reserved": 0, "lon": -77.02715016666667, "is_disabled": 0, "fusion_lat": 0.0, "lat": 38.9101515, "bike_id": "84eedfe6f3e796a510b62613b9601b07", "fusion_lon": 0.0}, {"rental_uris": {"ios": "https://dc.lft.to/lastmile_qr_scan", "android": "https://dc.lft.to/lastmile_qr_scan"}, "type": "electric_scooter", "name": "d013ae9a7c03904deb0c363f8a603d93", "is_reserved": 0, "lon": -77.05326433333333, "is_disabled": 0, "fusion_lat": 0.0, "lat": 38.90652166666667, "bike_id": "d013ae9a7c03904deb0c363f8a603d93", "fusion_lon": 0.0}, {"rental_uris": {"ios": "https://dc.lft.to/lastmile_qr_scan", "android": "https://dc.lft.to/lastmile_qr_scan"}, "type": "electric_scooter", "name": "2a11f62d61b28b55ad5a10af750b6447", "is_reserved": 0, "lon": -77.02664866666667, "is_disabled": 0, "fusion_lat": 0.0, "lat": 38.89631966666666, "bike_id": "2a11f62d61b28b55ad5a10af750b6447", "fusion_lon": 0.0}, {"rental_uris": {"ios": "https://dc.lft.to/lastmile_qr_scan", "android": "https://dc.lft.to/lastmile_qr_scan"}, "type": "electric_scooter", "name": "b7553e836875db8000fbf37f273524ec", "is_reserved": 0, "lon": -77.03990816666666, "is_disabled": 0, "fusion_lat": 0.0, "lat": 38.93403466666667, "bike_id": "b7553e836875db8000fbf37f273524ec", "fusion_lon": 0.0}, {"rental_uris": {"ios": "https://dc.lft.to/lastmile_qr_scan", "android": "https://dc.lft.to/lastmile_qr_scan"}, "type": "electric_scooter", "name": "e27191c85c4d6e0e287884b9158710a7", "is_reserved": 0, "lon": -76.998937, "is_disabled": 0, "fusion_lat": 0.0, "lat": 38.90756233333333, "bike_id": "e27191c85c4d6e0e287884b9158710a7", "fusion_lon": 0.0}, {"rental_uris": {"ios": "https://dc.lft.to/lastmile_qr_scan", "android": "https://dc.lft.to/lastmile_qr_scan"}, "type": "electric_scooter", "name": "c83d8f3bfde3c8907fc19cf2b2714561", "is_reserved": 0, "lon": -77.03973916666666, "is_disabled": 0, "fusion_lat": 0.0, "lat": 38.892217333333335, "bike_id": "c83d8f3bfde3c8907fc19cf2b2714561", "fusion_lon": 0.0}, {"rental_uris": {"ios": "https://dc.lft.to/lastmile_qr_scan", "android": "https://dc.lft.to/lastmile_qr_scan"}, "type": "electric_scooter", "name": "1e49aa471e2b96be86f8e27f7eba04e5", "is_reserved": 0, "lon": -77.02406233333333, "is_disabled": 0, "fusion_lat": 0.0, "lat": 38.945074, "bike_id": "1e49aa471e2b96be86f8e27f7eba04e5", "fusion_lon": 0.0}, {"rental_uris": {"ios": "https://dc.lft.to/lastmile_qr_scan", "android": "https://dc.lft.to/lastmile_qr_scan"}, "type": "electric_bike", "name": "bb58c04ea31a2159c5e81b672a731a9c", "is_reserved": 0, "lon": -77.0039885, "is_disabled": 0, "fusion_lat": 0.0, "lat": 38.921224, "bike_id": "bb58c04ea31a2159c5e81b672a731a9c", "fusion_lon": 0.0}, {"rental_uris": {"ios": "https://dc.lft.to/lastmile_qr_scan", "android": "https://dc.lft.to/lastmile_qr_scan"}, "type": "electric_bike", "name": "98a2d294ba20525c86d0104487c2c5b3", "is_reserved": 0, "lon": -77.02417516666667, "is_disabled": 0, "fusion_lat": 0.0, "lat": 38.9490505, "bike_id": "98a2d294ba20525c86d0104487c2c5b3", "fusion_lon": 0.0}, {"rental_uris": {"ios": "https://dc.lft.to/lastmile_qr_scan", "android": "https://dc.lft.to/lastmile_qr_scan"}, "type": "electric_scooter", "name": "25168f3256dc0bc7242c40d1c3d6efaf", "is_reserved": 0, "lon": -77.00477566666666, "is_disabled": 0, "fusion_lat": 0.0, "lat": 38.87454283333334, "bike_id": "25168f3256dc0bc7242c40d1c3d6efaf", "fusion_lon": 0.0}, {"rental_uris": {"ios": "https://dc.lft.to/lastmile_qr_scan", "android": "https://dc.lft.to/lastmile_qr_scan"}, "type": "electric_bike", "name": "c98cd4ea010836689b3762bbf9d1a241", "is_reserved": 0, "lon": -76.980583, "is_disabled": 0, "fusion_lat": 0.0, "lat": 38.97254616666667, "bike_id": "c98cd4ea010836689b3762bbf9d1a241", "fusion_lon": 0.0}, {"rental_uris": {"ios": "https://dc.lft.to/lastmile_qr_scan", "android": "https://dc.lft.to/lastmile_qr_scan"}, "type": "electric_scooter", "name": "e80be821be512ed49d819864efc163a2", "is_reserved": 0, "lon": -77.02395716666666, "is_disabled": 0, "fusion_lat": 0.0, "lat": 38.917391, "bike_id": "e80be821be512ed49d819864efc163a2", "fusion_lon": 0.0}, {"rental_uris": {"ios": "https://dc.lft.to/lastmile_qr_scan", "android": "https://dc.lft.to/lastmile_qr_scan"}, "type": "electric_scooter", "name": "63d4b03137414c2baf634a9313785f9f", "is_reserved": 0, "lon": -77.018938, "is_disabled": 0, "fusion_lat": 0.0, "lat": 38.87462033333333, "bike_id": "63d4b03137414c2baf634a9313785f9f", "fusion_lon": 0.0}, {"rental_uris": {"ios": "https://dc.lft.to/lastmile_qr_scan", "android": "https://dc.lft.to/lastmile_qr_scan"}, "type": "electric_scooter", "name": "3e37960d38756cf2b5c059a9b8fb6f59", "is_reserved": 0, "lon": -77.036777, "is_disabled": 0, "fusion_lat": 0.0, "lat": 38.939174666666666, "bike_id": "3e37960d38756cf2b5c059a9b8fb6f59", "fusion_lon": 0.0}, {"rental_uris": {"ios": "https://dc.lft.to/lastmile_qr_scan", "android": "https://dc.lft.to/lastmile_qr_scan"}, "type": "electric_scooter", "name": "76b870969482ac57a1fa0b168fe27d36", "is_reserved": 0, "lon": -76.97130883333334, "is_disabled": 0, "fusion_lat": 0.0, "lat": 38.87860366666666, "bike_id": "76b870969482ac57a1fa0b168fe27d36", "fusion_lon": 0.0}, {"rental_uris": {"ios": "https://dc.lft.to/lastmile_qr_scan", "android": "https://dc.lft.to/lastmile_qr_scan"}, "type": "electric_scooter", "name": "1a0b15a3552273715a3c7e3c85589be9", "is_reserved": 0, "lon": -76.99149133333333, "is_disabled": 0, "fusion_lat": 0.0, "lat": 38.901268, "bike_id": "1a0b15a3552273715a3c7e3c85589be9", "fusion_lon": 0.0}, {"rental_uris": {"ios": "https://dc.lft.to/lastmile_qr_scan", "android": "https://dc.lft.to/lastmile_qr_scan"}, "type": "electric_scooter", "name": "7d98a96a61fa36dd563c289bdd0416ff", "is_reserved": 0, "lon": -77.02438, "is_disabled": 0, "fusion_lat": 0.0, "lat": 38.95634366666667, "bike_id": "7d98a96a61fa36dd563c289bdd0416ff", "fusion_lon": 0.0}, {"rental_uris": {"ios": "https://dc.lft.to/lastmile_qr_scan", "android": "https://dc.lft.to/lastmile_qr_scan"}, "type": "electric_scooter", "name": "30e20d0f0e0b6285101d144222c5884c", "is_reserved": 0, "lon": -77.03374166666667, "is_disabled": 0, "fusion_lat": 0.0, "lat": 38.92863066666666, "bike_id": "30e20d0f0e0b6285101d144222c5884c", "fusion_lon": 0.0}, {"rental_uris": {"ios": "https://dc.lft.to/lastmile_qr_scan", "android": "https://dc.lft.to/lastmile_qr_scan"}, "type": "electric_scooter", "name": "d4c213ead0334adf74da06fc2a50234d", "is_reserved": 0, "lon": -77.05312083333334, "is_disabled": 0, "fusion_lat": 0.0, "lat": 38.90237316666666, "bike_id": "d4c213ead0334adf74da06fc2a50234d", "fusion_lon": 0.0}, {"rental_uris": {"ios": "https://dc.lft.to/lastmile_qr_scan", "android": "https://dc.lft.to/lastmile_qr_scan"}, "type": "electric_scooter", "name": "d458721c364b7a394c56fdd07743ee05", "is_reserved": 0, "lon": -77.07289166666666, "is_disabled": 0, "fusion_lat": 0.0, "lat": 38.914442666666666, "bike_id": "d458721c364b7a394c56fdd07743ee05", "fusion_lon": 0.0}, {"rental_uris": {"ios": "https://dc.lft.to/lastmile_qr_scan", "android": "https://dc.lft.to/lastmile_qr_scan"}, "type": "electric_scooter", "name": "41b3af77cdd56f090f21a9163d20bd37", "is_reserved": 0, "lon": -77.05522216666667, "is_disabled": 0, "fusion_lat": 0.0, "lat": 38.90775, "bike_id": "41b3af77cdd56f090f21a9163d20bd37", "fusion_lon": 0.0}, {"rental_uris": {"ios": "https://dc.lft.to/lastmile_qr_scan", "android": "https://dc.lft.to/lastmile_qr_scan"}, "type": "electric_scooter", "name": "e1978f42f57f83f7f5957669023651d2", "is_reserved": 0, "lon": -77.07088016666667, "is_disabled": 0, "fusion_lat": 0.0, "lat": 38.953304333333335, "bike_id": "e1978f42f57f83f7f5957669023651d2", "fusion_lon": 0.0}, {"rental_uris": {"ios": "https://dc.lft.to/lastmile_qr_scan", "android": "https://dc.lft.to/lastmile_qr_scan"}, "type": "electric_scooter", "name": "b61dc69149997eaaf6ff6139cc671cc6", "is_reserved": 0, "lon": -76.92921366666667, "is_disabled": 0, "fusion_lat": 0.0, "lat": 38.88662033333333, "bike_id": "b61dc69149997eaaf6ff6139cc671cc6", "fusion_lon": 0.0}, {"rental_uris": {"ios": "https://dc.lft.to/lastmile_qr_scan", "android": "https://dc.lft.to/lastmile_qr_scan"}, "type": "electric_scooter", "name": "39d765b0735a4116c00b745eb302b68b", "is_reserved": 0, "lon": -77.019734, "is_disabled": 0, "fusion_lat": 0.0, "lat": 38.876061666666665, "bike_id": "39d765b0735a4116c00b745eb302b68b", "fusion_lon": 0.0}, {"rental_uris": {"ios": "https://dc.lft.to/lastmile_qr_scan", "android": "https://dc.lft.to/lastmile_qr_scan"}, "type": "electric_scooter", "name": "692cc08505693bcd095650e36b507c09", "is_reserved": 0, "lon": -76.98736116666667, "is_disabled": 0, "fusion_lat": 0.0, "lat": 38.84224833333333, "bike_id": "692cc08505693bcd095650e36b507c09", "fusion_lon": 0.0}, {"rental_uris": {"ios": "https://dc.lft.to/lastmile_qr_scan", "android": "https://dc.lft.to/lastmile_qr_scan"}, "type": "electric_scooter", "name": "6fae906900987eea98e10c727699ce89", "is_reserved": 0, "lon": -77.03651366666666, "is_disabled": 0, "fusion_lat": 0.0, "lat": 38.954610333333335, "bike_id": "6fae906900987eea98e10c727699ce89", "fusion_lon": 0.0}, {"rental_uris": {"ios": "https://dc.lft.to/lastmile_qr_scan", "android": "https://dc.lft.to/lastmile_qr_scan"}, "type": "electric_scooter", "name": "ad68e69132bb1f19209d6a2573d14e8a", "is_reserved": 0, "lon": -77.02704466666667, "is_disabled": 0, "fusion_lat": 0.0, "lat": 38.91728066666667, "bike_id": "ad68e69132bb1f19209d6a2573d14e8a", "fusion_lon": 0.0}, {"rental_uris": {"ios": "https://dc.lft.to/lastmile_qr_scan", "android": "https://dc.lft.to/lastmile_qr_scan"}, "type": "electric_scooter", "name": "c1970103bfbafcfac6a0a49638763dc0", "is_reserved": 0, "lon": -76.99560833333334, "is_disabled": 0, "fusion_lat": 0.0, "lat": 38.9268605, "bike_id": "c1970103bfbafcfac6a0a49638763dc0", "fusion_lon": 0.0}, {"rental_uris": {"ios": "https://dc.lft.to/lastmile_qr_scan", "android": "https://dc.lft.to/lastmile_qr_scan"}, "type": "electric_scooter", "name": "bfb526cb447622e9dd30e6272bdb5f61", "is_reserved": 0, "lon": -77.04676366666666, "is_disabled": 0, "fusion_lat": 0.0, "lat": 38.892263666666665, "bike_id": "bfb526cb447622e9dd30e6272bdb5f61", "fusion_lon": 0.0}, {"rental_uris": {"ios": "https://dc.lft.to/lastmile_qr_scan", "android": "https://dc.lft.to/lastmile_qr_scan"}, "type": "electric_scooter", "name": "cfbfc2964f37551f338b970149d6911f", "is_reserved": 0, "lon": -77.03968066666667, "is_disabled": 0, "fusion_lat": 0.0, "lat": 38.93145666666667, "bike_id": "cfbfc2964f37551f338b970149d6911f", "fusion_lon": 0.0}, {"rental_uris": {"ios": "https://dc.lft.to/lastmile_qr_scan", "android": "https://dc.lft.to/lastmile_qr_scan"}, "type": "electric_scooter", "name": "7c64b4bb3febae65c8d4bd9c7ca817c9", "is_reserved": 0, "lon": -77.03838816666666, "is_disabled": 0, "fusion_lat": 0.0, "lat": 38.907242, "bike_id": "7c64b4bb3febae65c8d4bd9c7ca817c9", "fusion_lon": 0.0}, {"rental_uris": {"ios": "https://dc.lft.to/lastmile_qr_scan", "android": "https://dc.lft.to/lastmile_qr_scan"}, "type": "electric_scooter", "name": "79670d12c51d95fd2364820a538c96ab", "is_reserved": 0, "lon": -77.02703983333333, "is_disabled": 0, "fusion_lat": 0.0, "lat": 38.917233833333334, "bike_id": "79670d12c51d95fd2364820a538c96ab", "fusion_lon": 0.0}, {"rental_uris": {"ios": "https://dc.lft.to/lastmile_qr_scan", "android": "https://dc.lft.to/lastmile_qr_scan"}, "type": "electric_scooter", "name": "90ac023dd1a4059da959758357881fd0", "is_reserved": 0, "lon": -76.99586, "is_disabled": 0, "fusion_lat": 0.0, "lat": 38.909412333333336, "bike_id": "90ac023dd1a4059da959758357881fd0", "fusion_lon": 0.0}, {"rental_uris": {"ios": "https://dc.lft.to/lastmile_qr_scan", "android": "https://dc.lft.to/lastmile_qr_scan"}, "type": "electric_scooter", "name": "63fbde71caaaffcedff68749edddbeea", "is_reserved": 0, "lon": -77.0238145, "is_disabled": 0, "fusion_lat": 0.0, "lat": 38.908448, "bike_id": "63fbde71caaaffcedff68749edddbeea", "fusion_lon": 0.0}, {"rental_uris": {"ios": "https://dc.lft.to/lastmile_qr_scan", "android": "https://dc.lft.to/lastmile_qr_scan"}, "type": "electric_scooter", "name": "29fd3d1a3b44343d047474e68345b22f", "is_reserved": 0, "lon": -77.04921533333334, "is_disabled": 0, "fusion_lat": 0.0, "lat": 38.90090383333333, "bike_id": "29fd3d1a3b44343d047474e68345b22f", "fusion_lon": 0.0}, {"rental_uris": {"ios": "https://dc.lft.to/lastmile_qr_scan", "android": "https://dc.lft.to/lastmile_qr_scan"}, "type": "electric_scooter", "name": "755950cbe64a37c3a5bd11a4fd77deee", "is_reserved": 0, "lon": -77.00126966666667, "is_disabled": 0, "fusion_lat": 0.0, "lat": 38.875124166666666, "bike_id": "755950cbe64a37c3a5bd11a4fd77deee", "fusion_lon": 0.0}, {"rental_uris": {"ios": "https://dc.lft.to/lastmile_qr_scan", "android": "https://dc.lft.to/lastmile_qr_scan"}, "type": "electric_scooter", "name": "1b203bfcdbded9f777c10c3d75a4ae57", "is_reserved": 0, "lon": -77.06841116666666, "is_disabled": 0, "fusion_lat": 0.0, "lat": 38.904056833333335, "bike_id": "1b203bfcdbded9f777c10c3d75a4ae57", "fusion_lon": 0.0}, {"rental_uris": {"ios": "https://dc.lft.to/lastmile_qr_scan", "android": "https://dc.lft.to/lastmile_qr_scan"}, "type": "electric_scooter", "name": "57836f3daf5746477641f1da069cb449", "is_reserved": 0, "lon": -77.06097616666666, "is_disabled": 0, "fusion_lat": 0.0, "lat": 38.939967333333335, "bike_id": "57836f3daf5746477641f1da069cb449", "fusion_lon": 0.0}, {"rental_uris": {"ios": "https://dc.lft.to/lastmile_qr_scan", "android": "https://dc.lft.to/lastmile_qr_scan"}, "type": "electric_scooter", "name": "cd0fef2f023c34b2c622b06c0fb2ce8f", "is_reserved": 0, "lon": -76.97327466666667, "is_disabled": 0, "fusion_lat": 0.0, "lat": 38.90410766666667, "bike_id": "cd0fef2f023c34b2c622b06c0fb2ce8f", "fusion_lon": 0.0}, {"rental_uris": {"ios": "https://dc.lft.to/lastmile_qr_scan", "android": "https://dc.lft.to/lastmile_qr_scan"}, "type": "electric_bike", "name": "2069f8d8653acbad26e55dfbb89eb6df", "is_reserved": 0, "lon": -77.06943666666666, "is_disabled": 0, "fusion_lat": 0.0, "lat": 38.83632166666666, "bike_id": "2069f8d8653acbad26e55dfbb89eb6df", "fusion_lon": 0.0}, {"rental_uris": {"ios": "https://dc.lft.to/lastmile_qr_scan", "android": "https://dc.lft.to/lastmile_qr_scan"}, "type": "electric_scooter", "name": "8b5d78b4047302714e18615e59b3bb7a", "is_reserved": 0, "lon": -77.04829283333333, "is_disabled": 0, "fusion_lat": 0.0, "lat": 38.914907666666664, "bike_id": "8b5d78b4047302714e18615e59b3bb7a", "fusion_lon": 0.0}, {"rental_uris": {"ios": "https://dc.lft.to/lastmile_qr_scan", "android": "https://dc.lft.to/lastmile_qr_scan"}, "type": "electric_scooter", "name": "979e134b254aed1fdde137981d6008c5", "is_reserved": 0, "lon": -77.01150783333334, "is_disabled": 0, "fusion_lat": 0.0, "lat": 38.909627666666665, "bike_id": "979e134b254aed1fdde137981d6008c5", "fusion_lon": 0.0}, {"rental_uris": {"ios": "https://dc.lft.to/lastmile_qr_scan", "android": "https://dc.lft.to/lastmile_qr_scan"}, "type": "electric_scooter", "name": "ec9ee480eefc6b04b7ff8d77d891dbc6", "is_reserved": 0, "lon": -77.0261495, "is_disabled": 0, "fusion_lat": 0.0, "lat": 38.90360533333333, "bike_id": "ec9ee480eefc6b04b7ff8d77d891dbc6", "fusion_lon": 0.0}, {"rental_uris": {"ios": "https://dc.lft.to/lastmile_qr_scan", "android": "https://dc.lft.to/lastmile_qr_scan"}, "type": "electric_scooter", "name": "c77144f03949eaf812fd7db80245746c", "is_reserved": 0, "lon": -77.0197925, "is_disabled": 0, "fusion_lat": 0.0, "lat": 38.88723483333333, "bike_id": "c77144f03949eaf812fd7db80245746c", "fusion_lon": 0.0}, {"rental_uris": {"ios": "https://dc.lft.to/lastmile_qr_scan", "android": "https://dc.lft.to/lastmile_qr_scan"}, "type": "electric_scooter", "name": "1798c29f196c03f69701246bbae28825", "is_reserved": 0, "lon": -77.02713233333333, "is_disabled": 0, "fusion_lat": 0.0, "lat": 38.895771333333336, "bike_id": "1798c29f196c03f69701246bbae28825", "fusion_lon": 0.0}, {"rental_uris": {"ios": "https://dc.lft.to/lastmile_qr_scan", "android": "https://dc.lft.to/lastmile_qr_scan"}, "type": "electric_scooter", "name": "906210ae5c5d4a093b92b876a890ed8f", "is_reserved": 0, "lon": -77.02184433333333, "is_disabled": 0, "fusion_lat": 0.0, "lat": 38.91110466666667, "bike_id": "906210ae5c5d4a093b92b876a890ed8f", "fusion_lon": 0.0}, {"rental_uris": {"ios": "https://dc.lft.to/lastmile_qr_scan", "android": "https://dc.lft.to/lastmile_qr_scan"}, "type": "electric_scooter", "name": "86182595d6a3750cd3f6da329382b26a", "is_reserved": 0, "lon": -77.03465833333334, "is_disabled": 0, "fusion_lat": 0.0, "lat": 38.9083875, "bike_id": "86182595d6a3750cd3f6da329382b26a", "fusion_lon": 0.0}, {"rental_uris": {"ios": "https://dc.lft.to/lastmile_qr_scan", "android": "https://dc.lft.to/lastmile_qr_scan"}, "type": "electric_scooter", "name": "01634027ec085755db487c18e83faa99", "is_reserved": 0, "lon": -77.04462966666667, "is_disabled": 0, "fusion_lat": 0.0, "lat": 38.924769, "bike_id": "01634027ec085755db487c18e83faa99", "fusion_lon": 0.0}, {"rental_uris": {"ios": "https://dc.lft.to/lastmile_qr_scan", "android": "https://dc.lft.to/lastmile_qr_scan"}, "type": "electric_scooter", "name": "7e31204bd43d23f9b4145e9a7af9f3e8", "is_reserved": 0, "lon": -76.997415, "is_disabled": 0, "fusion_lat": 0.0, "lat": 38.90132283333333, "bike_id": "7e31204bd43d23f9b4145e9a7af9f3e8", "fusion_lon": 0.0}, {"rental_uris": {"ios": "https://dc.lft.to/lastmile_qr_scan", "android": "https://dc.lft.to/lastmile_qr_scan"}, "type": "electric_scooter", "name": "651cd290edc6495bac4efcc220ed0b59", "is_reserved": 0, "lon": -77.03195883333333, "is_disabled": 0, "fusion_lat": 0.0, "lat": 38.894707833333335, "bike_id": "651cd290edc6495bac4efcc220ed0b59", "fusion_lon": 0.0}, {"rental_uris": {"ios": "https://dc.lft.to/lastmile_qr_scan", "android": "https://dc.lft.to/lastmile_qr_scan"}, "type": "electric_scooter", "name": "cd3a55f04f4a60ff992671c2cec23906", "is_reserved": 0, "lon": -77.011028, "is_disabled": 0, "fusion_lat": 0.0, "lat": 38.895599833333335, "bike_id": "cd3a55f04f4a60ff992671c2cec23906", "fusion_lon": 0.0}, {"rental_uris": {"ios": "https://dc.lft.to/lastmile_qr_scan", "android": "https://dc.lft.to/lastmile_qr_scan"}, "type": "electric_scooter", "name": "2c848e16f02e60e8a22440f6487f236f", "is_reserved": 0, "lon": -77.04863766666666, "is_disabled": 0, "fusion_lat": 0.0, "lat": 38.906368, "bike_id": "2c848e16f02e60e8a22440f6487f236f", "fusion_lon": 0.0}, {"rental_uris": {"ios": "https://dc.lft.to/lastmile_qr_scan", "android": "https://dc.lft.to/lastmile_qr_scan"}, "type": "electric_bike", "name": "d8c4c652841843bbf64f319f1c3c58b0", "is_reserved": 0, "lon": -77.023421, "is_disabled": 0, "fusion_lat": 0.0, "lat": 38.88745733333333, "bike_id": "d8c4c652841843bbf64f319f1c3c58b0", "fusion_lon": 0.0}, {"rental_uris": {"ios": "https://dc.lft.to/lastmile_qr_scan", "android": "https://dc.lft.to/lastmile_qr_scan"}, "type": "electric_scooter", "name": "d3e4382d78cce1f36bcea59da2532fc7", "is_reserved": 0, "lon": -77.03716516666667, "is_disabled": 0, "fusion_lat": 0.0, "lat": 38.92655416666667, "bike_id": "d3e4382d78cce1f36bcea59da2532fc7", "fusion_lon": 0.0}, {"rental_uris": {"ios": "https://dc.lft.to/lastmile_qr_scan", "android": "https://dc.lft.to/lastmile_qr_scan"}, "type": "electric_scooter", "name": "fb9348a25a5444313d2cacf91086c8ad", "is_reserved": 0, "lon": -77.02951933333334, "is_disabled": 0, "fusion_lat": 0.0, "lat": 38.89738366666667, "bike_id": "fb9348a25a5444313d2cacf91086c8ad", "fusion_lon": 0.0}, {"rental_uris": {"ios": "https://dc.lft.to/lastmile_qr_scan", "android": "https://dc.lft.to/lastmile_qr_scan"}, "type": "electric_scooter", "name": "8cef70de3957008335323c51ed18d824", "is_reserved": 0, "lon": -77.03077516666667, "is_disabled": 0, "fusion_lat": 0.0, "lat": 38.9237965, "bike_id": "8cef70de3957008335323c51ed18d824", "fusion_lon": 0.0}, {"rental_uris": {"ios": "https://dc.lft.to/lastmile_qr_scan", "android": "https://dc.lft.to/lastmile_qr_scan"}, "type": "electric_scooter", "name": "2be81c97e53a617de23461fe0afe8742", "is_reserved": 0, "lon": -77.044311, "is_disabled": 0, "fusion_lat": 0.0, "lat": 38.912539, "bike_id": "2be81c97e53a617de23461fe0afe8742", "fusion_lon": 0.0}, {"rental_uris": {"ios": "https://dc.lft.to/lastmile_qr_scan", "android": "https://dc.lft.to/lastmile_qr_scan"}, "type": "electric_scooter", "name": "0c2dba7fecae3ad1e54f3876be310c9f", "is_reserved": 0, "lon": -77.03840066666666, "is_disabled": 0, "fusion_lat": 0.0, "lat": 38.9098745, "bike_id": "0c2dba7fecae3ad1e54f3876be310c9f", "fusion_lon": 0.0}, {"rental_uris": {"ios": "https://dc.lft.to/lastmile_qr_scan", "android": "https://dc.lft.to/lastmile_qr_scan"}, "type": "electric_scooter", "name": "0caf9734bd19703a92dee0cca766e532", "is_reserved": 0, "lon": -77.023729, "is_disabled": 0, "fusion_lat": 0.0, "lat": 38.89849316666667, "bike_id": "0caf9734bd19703a92dee0cca766e532", "fusion_lon": 0.0}, {"rental_uris": {"ios": "https://dc.lft.to/lastmile_qr_scan", "android": "https://dc.lft.to/lastmile_qr_scan"}, "type": "electric_scooter", "name": "df42787ce193164ec881ad7bf0e90ab7", "is_reserved": 0, "lon": -76.98276616666666, "is_disabled": 0, "fusion_lat": 0.0, "lat": 38.9034785, "bike_id": "df42787ce193164ec881ad7bf0e90ab7", "fusion_lon": 0.0}, {"rental_uris": {"ios": "https://dc.lft.to/lastmile_qr_scan", "android": "https://dc.lft.to/lastmile_qr_scan"}, "type": "electric_scooter", "name": "a7b8a04085a0367dc2a893727f11f4c4", "is_reserved": 0, "lon": -77.07393233333333, "is_disabled": 0, "fusion_lat": 0.0, "lat": 38.93759583333333, "bike_id": "a7b8a04085a0367dc2a893727f11f4c4", "fusion_lon": 0.0}, {"rental_uris": {"ios": "https://dc.lft.to/lastmile_qr_scan", "android": "https://dc.lft.to/lastmile_qr_scan"}, "type": "electric_scooter", "name": "cc3033d9663b095e58cc7242c7f89b95", "is_reserved": 0, "lon": -77.0303285, "is_disabled": 0, "fusion_lat": 0.0, "lat": 38.89739516666667, "bike_id": "cc3033d9663b095e58cc7242c7f89b95", "fusion_lon": 0.0}, {"rental_uris": {"ios": "https://dc.lft.to/lastmile_qr_scan", "android": "https://dc.lft.to/lastmile_qr_scan"}, "type": "electric_scooter", "name": "6c9ba0127bf25ee85bc15e7bf19353b2", "is_reserved": 0, "lon": -77.00726966666667, "is_disabled": 0, "fusion_lat": 0.0, "lat": 38.91201933333333, "bike_id": "6c9ba0127bf25ee85bc15e7bf19353b2", "fusion_lon": 0.0}, {"rental_uris": {"ios": "https://dc.lft.to/lastmile_qr_scan", "android": "https://dc.lft.to/lastmile_qr_scan"}, "type": "electric_scooter", "name": "17b297452f1eb64edf8b38d94d821196", "is_reserved": 0, "lon": -77.0216985, "is_disabled": 0, "fusion_lat": 0.0, "lat": 38.909705833333334, "bike_id": "17b297452f1eb64edf8b38d94d821196", "fusion_lon": 0.0}, {"rental_uris": {"ios": "https://dc.lft.to/lastmile_qr_scan", "android": "https://dc.lft.to/lastmile_qr_scan"}, "type": "electric_bike", "name": "7e79a06bd4a27e93b8dbe769065b3b1b", "is_reserved": 0, "lon": -76.907379, "is_disabled": 0, "fusion_lat": 0.0, "lat": 38.896208, "bike_id": "7e79a06bd4a27e93b8dbe769065b3b1b", "fusion_lon": 0.0}, {"rental_uris": {"ios": "https://dc.lft.to/lastmile_qr_scan", "android": "https://dc.lft.to/lastmile_qr_scan"}, "type": "electric_bike", "name": "56ece49cdebf7ac0e841e2ccaf5aa461", "is_reserved": 0, "lon": -77.02426316666667, "is_disabled": 0, "fusion_lat": 0.0, "lat": 38.9310585, "bike_id": "56ece49cdebf7ac0e841e2ccaf5aa461", "fusion_lon": 0.0}, {"rental_uris": {"ios": "https://dc.lft.to/lastmile_qr_scan", "android": "https://dc.lft.to/lastmile_qr_scan"}, "type": "electric_scooter", "name": "8d930f3be8ded831d7adc2dbe299f170", "is_reserved": 0, "lon": -77.0301915, "is_disabled": 0, "fusion_lat": 0.0, "lat": 38.87848116666667, "bike_id": "8d930f3be8ded831d7adc2dbe299f170", "fusion_lon": 0.0}, {"rental_uris": {"ios": "https://dc.lft.to/lastmile_qr_scan", "android": "https://dc.lft.to/lastmile_qr_scan"}, "type": "electric_scooter", "name": "469cdbbf735ec76f007f543ea2beffe4", "is_reserved": 0, "lon": -77.00729616666666, "is_disabled": 0, "fusion_lat": 0.0, "lat": 38.89898916666667, "bike_id": "469cdbbf735ec76f007f543ea2beffe4", "fusion_lon": 0.0}, {"rental_uris": {"ios": "https://dc.lft.to/lastmile_qr_scan", "android": "https://dc.lft.to/lastmile_qr_scan"}, "type": "electric_scooter", "name": "df15d46682792cd04cfac2aef36b5476", "is_reserved": 0, "lon": -77.03164866666667, "is_disabled": 0, "fusion_lat": 0.0, "lat": 38.9162745, "bike_id": "df15d46682792cd04cfac2aef36b5476", "fusion_lon": 0.0}, {"rental_uris": {"ios": "https://dc.lft.to/lastmile_qr_scan", "android": "https://dc.lft.to/lastmile_qr_scan"}, "type": "electric_scooter", "name": "307b682d7432b1dd00672c126db9a2e9", "is_reserved": 0, "lon": -77.03011516666666, "is_disabled": 0, "fusion_lat": 0.0, "lat": 38.897476, "bike_id": "307b682d7432b1dd00672c126db9a2e9", "fusion_lon": 0.0}, {"rental_uris": {"ios": "https://dc.lft.to/lastmile_qr_scan", "android": "https://dc.lft.to/lastmile_qr_scan"}, "type": "electric_bike", "name": "45b59c15c00333628963a3a79aa15144", "is_reserved": 0, "lon": -76.9955855, "is_disabled": 0, "fusion_lat": 0.0, "lat": 38.8621625, "bike_id": "45b59c15c00333628963a3a79aa15144", "fusion_lon": 0.0},