{"data": {"bikes": [{"rental_uris": {"ios": "https://dc.lft.to/lastmile_qr_scan", "android": "https://dc.lft.to/lastmile_qr_scan"}, "type": "electric_scooter", "name": "f0ccf8ca9502cf4dbd23b7a067e026b8", "is_reserved": 0, "lon": -77.02183633333334, "is_disabled": 0, "fusion_lat": 0.0, "lat": 38.911295333333335, "bike_id": "f0ccf8ca9502cf4dbd23b7a067e026b8", "fusion_lon": 0.0}, {"rental_uris": {"ios": "https://dc.lft.to/lastmile_qr_scan", "android": "https://dc.lft.to/lastmile_qr_scan"}, "type": "electric_scooter", "name": "edc062672872c23ff9b555cb721746f3", "is_reserved": 0, "lon": -77.01777816666667, "is_disabled": 0, "fusion_lat": 0.0, "lat": 38.879166166666664, "bike_id": "edc062672872c23ff9b555cb721746f3", "fusion_lon": 0.0}, {"rental_uris": {"ios": "https://dc.lft.to/lastmile_qr_scan", "android": "https://dc.lft.to/lastmile_qr_scan"}, "type": "electric_scooter", "name": "81d3acc220ac917a1a7f25b814937f57", "is_reserved": 0, "lon": -77.04092616666667, "is_disabled": 0, "fusion_lat": 0.0, "lat": 38.920671166666665, "bike_id": "81d3acc220ac917a1a7f25b814937f57", "fusion_lon": 0.0}, {"rental_uris": {"ios": "https://dc.lft.to/lastmile_qr_scan", "android": "https://dc.lft.to/lastmile_qr_scan"}, "type": "electric_scooter", "name": "0db5ffe312dfd0daf720e52baf132b20", "is_reserved": 0, "lon": -77.007591, "is_disabled": 0, "fusion_lat": 0.0, "lat": 38.87114966666667, "bike_id": "0db5ffe312dfd0daf720e52baf132b20", "fusion_lon": 0.0}, {"rental_uris": {"ios": "https://dc.lft.to/lastmile_qr_scan", "android": "https://dc.lft.to/lastmile_qr_scan"}, "type": "electric_scooter", "name": "d576d75d45b31d2309dbde99881ef48b", "is_reserved": 0, "lon": -76.97653516666666, "is_disabled": 0, "fusion_lat": 0.0, "lat": 38.9036515, "bike_id": "d576d75d45b31d2309dbde99881ef48b", "fusion_lon": 0.0}, {"rental_uris": {"ios": "https://dc.lft.to/lastmile_qr_scan", "android": "https://dc.lft.to/lastmile_qr_scan"}, "type": "electric_bike", "name": "e63196362ca30262c87e275a90d2d108", "is_reserved": 0, "lon": -77.099629, "is_disabled": 0, "fusion_lat": 0.0, "lat": 38.85790333333333, "bike_id": "e63196362ca30262c87e275a90d2d108", "fusion_lon": 0.0}, {"rental_uris": {"ios": "https://dc.lft.to/lastmile_qr_scan", "android": "https://dc.lft.to/lastmile_qr_scan"}, "type": "electric_scooter", "name": "a0f1a4b4c2b122491803394532f43e3d", "is_reserved": 0, "lon": -77.02781133333333, "is_disabled": 0, "fusion_lat": 0.0, "lat": 38.965844833333335, "bike_id": "a0f1a4b4c2b122491803394532f43e3d", "fusion_lon": 0.0}, {"rental_uris": {"ios": "https://dc.lft.to/lastmile_qr_scan", "android": "https://dc.lft.to/lastmile_qr_scan"}, "type": "electric_scooter", "name": "663a2fd2db6474c56b4308be74758f45", "is_reserved": 0, "lon": -77.02701716666667, "is_disabled": 0, "fusion_lat": 0.0, "lat": 38.91804283333333, "bike_id": "663a2fd2db6474c56b4308be74758f45", "fusion_lon": 0.0}, {"rental_uris": {"ios": "https://dc.lft.to/lastmile_qr_scan", "android": "https://dc.lft.to/lastmile_qr_scan"}, "type": "electric_scooter", "name": "bdf7f5097aff0b95416e647391ed3bbc", "is_reserved": 0, "lon": -76.94158333333333, "is_disabled": 0, "fusion_lat": 0.0, "lat": 38.90176016666667, "bike_id": "bdf7f5097aff0b95416e647391ed3bbc", "fusion_lon": 0.0}, {"rental_uris": {"ios": "https://dc.lft.to/lastmile_qr_scan", "android": "https://dc.lft.to/lastmile_qr_scan"}, "type": "electric_scooter", "name": "305e428e605fcdaaa722645878f35f49", "is_reserved": 0, "lon": -77.03269583333334, "is_disabled": 0, "fusion_lat": 0.0, "lat": 38.92158833333333, "bike_id": "305e428e605fcdaaa722645878f35f49", "fusion_lon": 0.0}, {"rental_uris": {"ios": "https://dc.lft.to/lastmile_qr_scan", "android": "https://dc.lft.to/lastmile_qr_scan"}, "type": "electric_scooter", "name": "3d64158e7b6e9a00527ada9fcfd4081c", "is_reserved": 0, "lon": -77.07119333333333, "is_disabled": 0, "fusion_lat": 0.0, "lat": 38.90590516666666, "bike_id": "3d64158e7b6e9a00527ada9fcfd4081c", "fusion_lon": 0.0}, {"rental_uris": {"ios": "https://dc.lft.to/lastmile_qr_scan", "android": "https://dc.lft.to/lastmile_qr_scan"}, "type": "electric_scooter", "name": "150194772f7d7b2b2929e2b8eed28672", "is_reserved": 0, "lon": -76.99105083333333, "is_disabled": 0, "fusion_lat": 0.0, "lat": 38.85727816666667, "bike_id": "150194772f7d7b2b2929e2b8eed28672", "fusion_lon": 0.0}, {"rental_uris": {"ios": "https://dc.lft.to/lastmile_qr_scan", "android": "https://dc.lft.to/lastmile_qr_scan"}, "type": "electric_scooter", "name": "9f8cb727c1369b3255346934014c8783", "is_reserved": 0, "lon": -77.01331633333334, "is_disabled": 0, "fusion_lat": 0.0, "lat": 38.92029683333333, "bike_id": "9f8cb727c1369b3255346934014c8783", "fusion_lon": 0.0}, {"rental_uris": {"ios": "https://dc.lft.to/lastmile_qr_scan", "android": "https://dc.lft.to/lastmile_qr_scan"}, "type": "electric_scooter", "name": "a04c354f145688de7ba75c22b37c9db1", "is_reserved": 0, "lon": -77.04504216666666, "is_disabled": 0, "fusion_lat": 0.0, "lat": 38.89225, "bike_id": "a04c354f145688de7ba75c22b37c9db1", "fusion_lon": 0.0}, {"rental_uris": {"ios": "https://dc.lft.to/lastmile_qr_scan", "android": "https://dc.lft.to/lastmile_qr_scan"}, "type": "electric_scooter", "name": "b9d67108595dc1d1b221ddca9e034afb", "is_reserved": 0, "lon": -77.01557366666667, "is_disabled": 0, "fusion_lat": 0.0, "lat": 38.90270266666667, "bike_id": "b9d67108595dc1d1b221ddca9e034afb", "fusion_lon": 0.0}, {"rental_uris": {"ios": "https://dc.lft.to/lastmile_qr_scan", "android": "https://dc.lft.to/lastmile_qr_scan"}, "type": "electric_scooter", "name": "32380de92ac3d1894f732770293e4435", "is_reserved": 0, "lon": -76.994778, "is_disabled": 0, "fusion_lat": 0.0, "lat": 38.8621195, "bike_id": "32380de92ac3d1894f732770293e4435", "fusion_lon": 0.0}, {"rental_uris": {"ios": "https://dc.lft.to/lastmile_qr_scan", "android": "https://dc.lft.to/lastmile_qr_scan"}, "type": "electric_scooter", "name": "6ec3f3fa7d9147bd658db7ac3b6b23f6", "is_reserved": 0, "lon": -77.0434635, "is_disabled": 0, "fusion_lat": 0.0, "lat": 38.9216685, "bike_id": "6ec3f3fa7d9147bd658db7ac3b6b23f6", "fusion_lon": 0.0}, {"rental_uris": {"ios": "https://dc.lft.to/lastmile_qr_scan", "android": "https://dc.lft.to/lastmile_qr_scan"}, "type": "electric_scooter", "name": "867b5c34bd5f59fff70d73c85fb2fe96", "is_reserved": 0, "lon": -77.03339866666667, "is_disabled": 0, "fusion_lat": 0.0, "lat": 38.91418266666667, "bike_id": "867b5c34bd5f59fff70d73c85fb2fe96", "fusion_lon": 0.0}, {"rental_uris": {"ios": "https://dc.lft.to/lastmile_qr_scan", "android": "https://dc.lft.to/lastmile_qr_scan"}, "type": "electric_scooter", "name": "ee36583c48f328593b094a0afee7cf95", "is_reserved": 0, "lon": -77.02301416666667, "is_disabled": 0, "fusion_lat": 0.0, "lat": 38.91841133333333, "bike_id": "ee36583c48f328593b094a0afee7cf95", "fusion_lon": 0.0}, {"rental_uris": {"ios": "https://dc.lft.to/lastmile_qr_scan", "android": "https://dc.lft.to/lastmile_qr_scan"}, "type": "electric_scooter", "name": "5aa22f6de43f301ae8a76e18ec1dab55", "is_reserved": 0, "lon": -77.04174083333334, "is_disabled": 0, "fusion_lat": 0.0, "lat": 38.901439333333336, "bike_id": "5aa22f6de43f301ae8a76e18ec1dab55", "fusion_lon": 0.0}, {"rental_uris": {"ios": "https://dc.lft.to/lastmile_qr_scan", "android": "https://dc.lft.to/lastmile_qr_scan"}, "type": "electric_scooter", "name": "a7c15a71f6bce5291d075925aa3bcaa4", "is_reserved": 0, "lon": -76.98889383333334, "is_disabled": 0, "fusion_lat": 0.0, "lat": 38.89954433333333, "bike_id": "a7c15a71f6bce5291d075925aa3bcaa4", "fusion_lon": 0.0}, {"rental_uris": {"ios": "https://dc.lft.to/lastmile_qr_scan", "android": "https://dc.lft.to/lastmile_qr_scan"}, "type": "electric_scooter", "name": "958fd4a25e74089cd22cb3dc5b159d9f", "is_reserved": 0, "lon": -77.04492266666666, "is_disabled": 0, "fusion_lat": 0.0, "lat": 38.892191833333335, "bike_id": "958fd4a25e74089cd22cb3dc5b159d9f", "fusion_lon": 0.0}, {"rental_uris": {"ios": "https://dc.lft.to/lastmile_qr_scan", "android": "https://dc.lft.to/lastmile_qr_scan"}, "type": "electric_scooter", "name": "05a01f510f43c11a5f141ca670284fc8", "is_reserved": 0, "lon": -77.01362383333333, "is_disabled": 0, "fusion_lat": 0.0, "lat": 38.919261, "bike_id": "05a01f510f43c11a5f141ca670284fc8", "fusion_lon": 0.0}, {"rental_uris": {"ios": "https://dc.lft.to/lastmile_qr_scan", "android": "https://dc.lft.to/lastmile_qr_scan"}, "type": "electric_scooter", "name": "9531a053a83a2d8e1579296f4fabfe71", "is_reserved": 0, "lon": -77.01574283333333, "is_disabled": 0, "fusion_lat": 0.0, "lat": 38.87662733333333, "bike_id": "9531a053a83a2d8e1579296f4fabfe71", "fusion_lon": 0.0}, {"rental_uris": {"ios": "https://dc.lft.to/lastmile_qr_scan", "android": "https://dc.lft.to/lastmile_qr_scan"}, "type": "electric_scooter", "name": "952635db101aa68471b644e420a5097c", "is_reserved": 0, "lon": -77.04340233333333, "is_disabled": 0, "fusion_lat": 0.0, "lat": 38.91378783333333, "bike_id": "952635db101aa68471b644e420a5097c", "fusion_lon": 0.0}, {"rental_uris": {"ios": "https://dc.lft.to/lastmile_qr_scan", "android": "https://dc.lft.to/lastmile_qr_scan"}, "type": "electric_scooter", "name": "927196e0e7e88ce7f67a0ca0543e9d12", "is_reserved": 0, "lon": -77.01904983333333, "is_disabled": 0, "fusion_lat": 0.0, "lat": 38.90368083333333, "bike_id": "927196e0e7e88ce7f67a0ca0543e9d12", "fusion_lon": 0.0}, {"rental_uris": {"ios": "https://dc.lft.to/lastmile_qr_scan", "android": "https://dc.lft.to/lastmile_qr_scan"}, "type": "electric_scooter", "name": "5e126cd8188aa9d73e0f82d8bc0756fd", "is_reserved": 0, "lon": -77.04007666666666, "is_disabled": 0, "fusion_lat": 0.0, "lat": 38.888674333333334, "bike_id": "5e126cd8188aa9d73e0f82d8bc0756fd", "fusion_lon": 0.0}, {"rental_uris": {"ios": "https://dc.lft.to/lastmile_qr_scan", "android": "https://dc.lft.to/lastmile_qr_scan"}, "type": "electric_scooter", "name": "6f5ba9611fec3e56104ee33d40ac392b", "is_reserved": 0, "lon": -77.02563283333333, "is_disabled": 0, "fusion_lat": 0.0, "lat": 38.884929, "bike_id": "6f5ba9611fec3e56104ee33d40ac392b", "fusion_lon": 0.0}, {"rental_uris": {"ios": "https://dc.lft.to/lastmile_qr_scan", "android": "https://dc.lft.to/lastmile_qr_scan"}, "type": "electric_scooter", "name": "fc49caaf679ef6161c6fd757a801b751", "is_reserved": 0, "lon": -77.08340683333333, "is_disabled": 0, "fusion_lat": 0.0, "lat": 38.894196666666666, "bike_id": "fc49caaf679ef6161c6fd757a801b751", "fusion_lon": 0.0}, {"rental_uris": {"ios": "https://dc.lft.to/lastmile_qr_scan", "android": "https://dc.lft.to/lastmile_qr_scan"}, "type": "electric_scooter", "name": "8adac827cdb3cb0fcdbe9c95e3ae6661", "is_reserved": 0, "lon": -77.04530666666666, "is_disabled": 0, "fusion_lat": 0.0, "lat": 38.911125166666665, "bike_id": "8adac827cdb3cb0fcdbe9c95e3ae6661", "fusion_lon": 0.0}, {"rental_uris": {"ios": "https://dc.lft.to/lastmile_qr_scan", "android": "https://dc.lft.to/lastmile_qr_scan"}, "type": "electric_scooter", "name": "8472f5016044fe718f05e96754f4599d", "is_reserved": 0, "lon": -77.03340133333333, "is_disabled": 0, "fusion_lat": 0.0, "lat": 38.902393833333335, "bike_id": "8472f5016044fe718f05e96754f4599d", "fusion_lon": 0.0}, {"rental_uris": {"ios": "https://dc.lft.to/lastmile_qr_scan", "android": "https://dc.lft.to/lastmile_qr_scan"}, "type": "electric_scooter", "name": "bcabda29ddc2180f63b5e62d033995a1", "is_reserved": 0, "lon": -77.01802733333334, "is_disabled": 0, "fusion_lat": 0.0, "lat": 38.922251333333335, "bike_id": "bcabda29ddc2180f63b5e62d033995a1", "fusion_lon": 0.0}, {"rental_uris": {"ios": "https://dc.lft.to/lastmile_qr_scan", "android": "https://dc.lft.to/lastmile_qr_scan"}, "type": "electric_scooter", "name": "dd35aec2c3effd4081885c5d238704ac", "is_reserved": 0, "lon": -76.99778416666666, "is_disabled": 0, "fusion_lat": 0.0, "lat": 38.92305183333333, "bike_id": "dd35aec2c3effd4081885c5d238704ac", "fusion_lon": 0.0}, {"rental_uris": {"ios": "https://dc.lft.to/lastmile_qr_scan", "android": "https://dc.lft.to/lastmile_qr_scan"}, "type": "electric_scooter", "name": "52d6c534da06fffd7b2e124a1db200b7", "is_reserved": 0, "lon": -77.0408455, "is_disabled": 0, "fusion_lat": 0.0, "lat": 38.947868666666665, "bike_id": "52d6c534da06fffd7b2e124a1db200b7", "fusion_lon": 0.0}, {"rental_uris": {"ios": "https://dc.lft.to/lastmile_qr_scan", "android": "https://dc.lft.to/lastmile_qr_scan"}, "type": "electric_scooter", "name": "b7dd79ff65bc8cdc8017d2b27a1f162e", "is_reserved": 0, "lon": -77.0196595, "is_disabled": 0, "fusion_lat": 0.0, "lat": 38.923281333333335, "bike_id": "b7dd79ff65bc8cdc8017d2b27a1f162e", "fusion_lon": 0.0}, {"rental_uris": {"ios": "https://dc.lft.to/lastmile_qr_scan", "android": "https://dc.lft.to/lastmile_qr_scan"}, "type": "electric_scooter", "name": "0b00ce136956175e446e03882b56b059", "is_reserved": 0, "lon": -76.9815865, "is_disabled": 0, "fusion_lat": 0.0, "lat": 38.8993565, "bike_id": "0b00ce136956175e446e03882b56b059", "fusion_lon": 0.0}, {"rental_uris": {"ios": "https://dc.lft.to/lastmile_qr_scan", "android": "https://dc.lft.to/lastmile_qr_scan"}, "type": "electric_scooter", "name": "8523f148a3e397a67ebfec8b25feb574", "is_reserved": 0, "lon": -77.03210366666667, "is_disabled": 0, "fusion_lat": 0.0, "lat": 38.92192583333333, "bike_id": "8523f148a3e397a67ebfec8b25feb574", "fusion_lon": 0.0}, {"rental_uris": {"ios": "https://dc.lft.to/lastmile_qr_scan", "android": "https://dc.lft.to/lastmile_qr_scan"}, "type": "electric_scooter", "name": "5c869e55083f9255f8454528e4de91ab", "is_reserved": 0, "lon": -77.00627383333334, "is_disabled": 0, "fusion_lat": 0.0, "lat": 38.871731, "bike_id": "5c869e55083f9255f8454528e4de91ab", "fusion_lon": 0.0}, {"rental_uris": {"ios": "https://dc.lft.to/lastmile_qr_scan", "android": "https://dc.lft.to/lastmile_qr_scan"}, "type": "electric_scooter", "name": "0afd72d106d792aafeaea26658d56265", "is_reserved": 0, "lon": -77.03668416666666, "is_disabled": 0, "fusion_lat": 0.0, "lat": 38.92121, "bike_id": "0afd72d106d792aafeaea26658d56265", "fusion_lon": 0.0}, {"rental_uris": {"ios": "https://dc.lft.to/lastmile_qr_scan", "android": "https://dc.lft.to/lastmile_qr_scan"}, "type": "electric_scooter", "name": "49b9a9a1073e01dd491b5decf12eeb49", "is_reserved": 0, "lon": -77.00569566666667, "is_disabled": 0, "fusion_lat": 0.0, "lat": 38.87864366666667, "bike_id": "49b9a9a1073e01dd491b5decf12eeb49", "fusion_lon": 0.0}, {"rental_uris": {"ios": "https://dc.lft.to/lastmile_qr_scan", "android": "https://dc.lft.to/lastmile_qr_scan"}, "type": "electric_scooter", "name": "2551ef63e4d3fa642b2563a51a73a359", "is_reserved": 0, "lon": -77.0417445, "is_disabled": 0, "fusion_lat": 0.0, "lat": 38.9160275, "bike_id": "2551ef63e4d3fa642b2563a51a73a359", "fusion_lon": 0.0}, {"rental_uris": {"ios": "https://dc.lft.to/lastmile_qr_scan", "android": "https://dc.lft.to/lastmile_qr_scan"}, "type": "electric_scooter", "name": "b479d5ab42f4d96ed1bb873fe1c8f4b9", "is_reserved": 0, "lon": -77.00752633333333, "is_disabled": 0, "fusion_lat": 0.0, "lat": 38.916162666666665, "bike_id": "b479d5ab42f4d96ed1bb873fe1c8f4b9", "fusion_lon": 0.0}, {"rental_uris": {"ios": "https://dc.lft.to/lastmile_qr_scan", "android": "https://dc.lft.to/lastmile_qr_scan"}, "type": "electric_scooter", "name": "6bde74e91f4b1efb868866ae9042f1ef", "is_reserved": 0, "lon": -77.0457185, "is_disabled": 0, "fusion_lat": 0.0, "lat": 38.92066883333333, "bike_id": "6bde74e91f4b1efb868866ae9042f1ef", "fusion_lon": 0.0}, {"rental_uris": {"ios": "https://dc.lft.to/lastmile_qr_scan", "android": "https://dc.lft.to/lastmile_qr_scan"}, "type": "electric_scooter", "name": "981a16906b1820cc960817ecae596d12", "is_reserved": 0, "lon": -77.024269, "is_disabled": 0, "fusion_lat": 0.0, "lat": 38.92142716666667, "bike_id": "981a16906b1820cc960817ecae596d12", "fusion_lon": 0.0}, {"rental_uris": {"ios": "https://dc.lft.to/lastmile_qr_scan", "android": "https://dc.lft.to/lastmile_qr_scan"}, "type": "electric_scooter", "name": "e4420f281b3b8c35bc8974b582994c55", "is_reserved": 0, "lon": -77.03813466666666, "is_disabled": 0, "fusion_lat": 0.0, "lat": 38.9141155, "bike_id": "e4420f281b3b8c35bc8974b582994c55", "fusion_lon": 0.0}, {"rental_uris": {"ios": "https://dc.lft.to/lastmile_qr_scan", "android": "https://dc.lft.to/lastmile_qr_scan"}, "type": "electric_bike", "name": "ce63f3acc800b794851d3f43868b2336", "is_reserved": 0, "lon": -76.98248183333334, "is_disabled": 0, "fusion_lat": 0.0, "lat": 38.9524285, "bike_id": "ce63f3acc800b794851d3f43868b2336", "fusion_lon": 0.0}, {"rental_uris": {"ios": "https://dc.lft.to/lastmile_qr_scan", "android": "https://dc.lft.to/lastmile_qr_scan"}, "type": "electric_bike", "name": "3cd3fbd62b793dfd09e13123a6ddd1d6", "is_reserved": 0, "lon": -76.98018033333334, "is_disabled": 0, "fusion_lat": 0.0, "lat": 38.8531635, "bike_id": "3cd3fbd62b793dfd09e13123a6ddd1d6", "fusion_lon": 0.0}, {"rental_uris": {"ios": "https://dc.lft.to/lastmile_qr_scan", "android": "https://dc.lft.to/lastmile_qr_scan"}, "type": "electric_scooter", "name": "6b555fce3b2eb2439ce06b1caca74bf8", "is_reserved": 0, "lon": -77.02301833333334, "is_disabled": 0, "fusion_lat": 0.0, "lat": 38.89847233333333, "bike_id": "6b555fce3b2eb2439ce06b1caca74bf8", "fusion_lon": 0.0}, {"rental_uris": {"ios": "https://dc.lft.to/lastmile_qr_scan", "android": "https://dc.lft.to/lastmile_qr_scan"}, "type": "electric_scooter", "name": "2a298660f01dbb1c85fc5eab2cb44fce", "is_reserved": 0, "lon": -77.02836333333333, "is_disabled": 0, "fusion_lat": 0.0, "lat": 38.887365, "bike_id": "2a298660f01dbb1c85fc5eab2cb44fce", "fusion_lon": 0.0}, {"rental_uris": {"ios": "https://dc.lft.to/lastmile_qr_scan", "android": "https://dc.lft.to/lastmile_qr_scan"}, "type": "electric_scooter", "name": "eb4318b3a75581521a0a4000765656a4", "is_reserved": 0, "lon": -77.04834583333333, "is_disabled": 0, "fusion_lat": 0.0, "lat": 38.909782166666666, "bike_id": "eb4318b3a75581521a0a4000765656a4", "fusion_lon": 0.0}, {"rental_uris": {"ios": "https://dc.lft.to/lastmile_qr_scan", "android": "https://dc.lft.to/lastmile_qr_scan"}, "type": "electric_scooter", "name": "52e3d643508d9405b3fc60a75abc0f7f", "is_reserved": 0, "lon": -77.04071983333333, "is_disabled": 0, "fusion_lat": 0.0, "lat": 38.915914, "bike_id": "52e3d643508d9405b3fc60a75abc0f7f", "fusion_lon": 0.0}, {"rental_uris": {"ios": "https://dc.lft.to/lastmile_qr_scan", "android": "https://dc.lft.to/lastmile_qr_scan"}, "type": "electric_bike", "name": "ca1fa63b9fac675cd5bfba7792a378a8", "is_reserved": 0, "lon": -76.97705583333334, "is_disabled": 0, "fusion_lat": 0.0, "lat": 38.822070333333336, "bike_id": "ca1fa63b9fac675cd5bfba7792a378a8", "fusion_lon": 0.0}, {"rental_uris": {"ios": "https://dc.lft.to/lastmile_qr_scan", "android": "https://dc.lft.to/lastmile_qr_scan"}, "type": "electric_scooter", "name": "ad9696cece9846ddcd7a9c5a0363653e", "is_reserved": 0, "lon": -76.99736383333334, "is_disabled": 0, "fusion_lat": 0.0, "lat": 38.9205115, "bike_id": "ad9696cece9846ddcd7a9c5a0363653e", "fusion_lon": 0.0}, {"rental_uris": {"ios": "https://dc.lft.to/lastmile_qr_scan", "android": "https://dc.lft.to/lastmile_qr_scan"}, "type": "electric_scooter", "name": "b92c87633896ef8a60093bd7fe4018b9", "is_reserved": 0, "lon": -77.03862766666667, "is_disabled": 0, "fusion_lat": 0.0, "lat": 38.9247495, "bike_id": "b92c87633896ef8a60093bd7fe4018b9", "fusion_lon": 0.0}, {"rental_uris": {"ios": "https://dc.lft.to/lastmile_qr_scan", "android": "https://dc.lft.to/lastmile_qr_scan"}, "type": "electric_scooter", "name": "93af94b6d310d038cf1e5524cb59b98e", "is_reserved": 0, "lon": -76.96546316666667, "is_disabled": 0, "fusion_lat": 0.0, "lat": 38.87884783333333, "bike_id": "93af94b6d310d038cf1e5524cb59b98e", "fusion_lon": 0.0}, {"rental_uris": {"ios": "https://dc.lft.to/lastmile_qr_scan", "android": "https://dc.lft.to/lastmile_qr_scan"}, "type": "electric_scooter", "name": "8f1f05a74cbaae1fd57b749b0d1c7b5d", "is_reserved": 0, "lon": -77.0381885, "is_disabled": 0, "fusion_lat": 0.0, "lat": 38.930625, "bike_id": "8f1f05a74cbaae1fd57b749b0d1c7b5d", "fusion_lon": 0.0}, {"rental_uris": {"ios": "https://dc.lft.to/lastmile_qr_scan", "android": "https://dc.lft.to/lastmile_qr_scan"}, "type": "electric_bike", "name": "b23efb5651afda1a5d2b25f04e20f27b", "is_reserved": 0, "lon": -77.08369266666666, "is_disabled": 0, "fusion_lat": 0.0, "lat": 38.854147833333336, "bike_id": "b23efb5651afda1a5d2b25f04e20f27b", "fusion_lon": 0.0}, {"rental_uris": {"ios": "https://dc.lft.to/lastmile_qr_scan", "android": "https://dc.lft.to/lastmile_qr_scan"}, "type": "electric_scooter", "name": "9906a87e7d2eb64331aa9a46ae045519", "is_reserved": 0, "lon": -76.93748316666667, "is_disabled": 0, "fusion_lat": 0.0, "lat": 38.89012783333333, "bike_id": "9906a87e7d2eb64331aa9a46ae045519", "fusion_lon": 0.0}, {"rental_uris": {"ios": "https://dc.lft.to/lastmile_qr_scan", "android": "https://dc.lft.to/lastmile_qr_scan"}, "type": "electric_scooter", "name": "9258e59b74d47de42d874b486204bad6", "is_reserved": 0, "lon": -77.041718, "is_disabled": 0, "fusion_lat": 0.0, "lat": 38.91831366666667, "bike_id": "9258e59b74d47de42d874b486204bad6", "fusion_lon": 0.0}, {"rental_uris": {"ios": "https://dc.lft.to/lastmile_qr_scan", "android": "https://dc.lft.to/lastmile_qr_scan"}, "type": "electric_bike", "name": "61a01f9fc1e4faa8c17e55da76b3122c", "is_reserved": 0, "lon": -77.22189833333333, "is_disabled": 0, "fusion_lat": 0.0, "lat": 38.8717875, "bike_id": "61a01f9fc1e4faa8c17e55da76b3122c", "fusion_lon": 0.0}, {"rental_uris": {"ios": "https://dc.lft.to/lastmile_qr_scan", "android": "https://dc.lft.to/lastmile_qr_scan"}, "type": "electric_scooter", "name": "9914542a82a81697986dfaf5abdf9831", "is_reserved": 0, "lon": -77.00356666666667, "is_disabled": 0, "fusion_lat": 0.0, "lat": 38.899348833333335, "bike_id": "9914542a82a81697986dfaf5abdf9831", "fusion_lon": 0.0}, {"rental_uris": {"ios": "https://dc.lft.to/lastmile_qr_scan", "android": "https://dc.lft.to/lastmile_qr_scan"}, "type": "electric_scooter", "name": "ad6675ce42644c451edfa1460db6b3f8", "is_reserved": 0, "lon": -77.00265233333333, "is_disabled": 0, "fusion_lat": 0.0, "lat": 38.91257016666667, "bike_id": "ad6675ce42644c451edfa1460db6b3f8", "fusion_lon": 0.0}, {"rental_uris": {"ios": "https://dc.lft.to/lastmile_qr_scan", "android": "https://dc.lft.to/lastmile_qr_scan"}, "type": "electric_scooter", "name": "11c9d8e103791d86d44dc5ab11556f25", "is_reserved": 0, "lon": -77.007135, "is_disabled": 0, "fusion_lat": 0.0, "lat": 38.8788705, "bike_id": "11c9d8e103791d86d44dc5ab11556f25", "fusion_lon": 0.0}, {"rental_uris": {"ios": "https://dc.lft.to/lastmile_qr_scan", "android": "https://dc.lft.to/lastmile_qr_scan"}, "type": "electric_scooter", "name": "d00a231cb18f590f4a4aa4aada1c0257", "is_reserved": 0, "lon": -77.018797, "is_disabled": 0, "fusion_lat": 0.0, "lat": 38.877152333333335, "bike_id": "d00a231cb18f590f4a4aa4aada1c0257", "fusion_lon": 0.0}, {"rental_uris": {"ios": "https://dc.lft.to/lastmile_qr_scan", "android": "https://dc.lft.to/lastmile_qr_scan"}, "type": "electric_scooter", "name": "3fe11664dc251bd65e0eef9da1fc3ecf", "is_reserved": 0, "lon": -77.025584, "is_disabled": 0, "fusion_lat": 0.0, "lat": 38.92033266666667, "bike_id": "3fe11664dc251bd65e0eef9da1fc3ecf", "fusion_lon": 0.0}, {"rental_uris": {"ios": "https://dc.lft.to/lastmile_qr_scan", "android": "https://dc.lft.to/lastmile_qr_scan"}, "type": "electric_scooter", "name": "0bfd727612f7355c19f63c05b43a1aab", "is_reserved": 0, "lon": -77.036276, "is_disabled": 0, "fusion_lat": 0.0, "lat": 38.9266245, "bike_id": "0bfd727612f7355c19f63c05b43a1aab", "fusion_lon": 0.0}, {"rental_uris": {"ios": "https://dc.lft.to/lastmile_qr_scan", "android": "https://dc.lft.to/lastmile_qr_scan"}, "type": "electric_scooter", "name": "96118c0de1c3eb7b9a0f2ee5c7a1085d", "is_reserved": 0, "lon": -77.05112866666667, "is_disabled": 0, "fusion_lat": 0.0, "lat": 38.89790683333333, "bike_id": "96118c0de1c3eb7b9a0f2ee5c7a1085d", "fusion_lon": 0.0}, {"rental_uris": {"ios": "https://dc.lft.to/lastmile_qr_scan", "android": "https://dc.lft.to/lastmile_qr_scan"}, "type": "electric_scooter", "name": "10e0866f851a36fc74f3e968f6c8b9ee", "is_reserved": 0, "lon": -77.01917566666667, "is_disabled": 0, "fusion_lat": 0.0, "lat": 38.9056395, "bike_id": "10e0866f851a36fc74f3e968f6c8b9ee", "fusion_lon": 0.0}, {"rental_uris": {"ios": "https://dc.lft.to/lastmile_qr_scan", "android": "https://dc.lft.to/lastmile_qr_scan"}, "type": "electric_bike", "name": "90d9cdca5b9877a1c2fabf7fe606124f", "is_reserved": 0, "lon": -76.9761945, "is_disabled": 0, "fusion_lat": 0.0, "lat": 38.892943, "bike_id": "90d9cdca5b9877a1c2fabf7fe606124f", "fusion_lon": 0.0}, {"rental_uris": {"ios": "https://dc.lft.to/lastmile_qr_scan", "android": "https://dc.lft.to/lastmile_qr_scan"}, "type": "electric_scooter", "name": "97206db7722125000702ab6786818669", "is_reserved": 0, "lon": -77.02818366666666, "is_disabled": 0, "fusion_lat": 0.0, "lat": 38.89923533333334, "bike_id": "97206db7722125000702ab6786818669", "fusion_lon": 0.0}, {"rental_uris": {"ios": "https://dc.lft.to/lastmile_qr_scan", "android": "https://dc.lft.to/lastmile_qr_scan"}, "type": "electric_scooter", "name": "f37fba8c02bd4924ada313310e8d844b", "is_reserved": 0, "lon": -77.04518033333333, "is_disabled": 0, "fusion_lat": 0.0, "lat": 38.923298833333334, "bike_id": "f37fba8c02bd4924ada313310e8d844b", "fusion_lon": 0.0}, {"rental_uris": {"ios": "https://dc.lft.to/lastmile_qr_scan", "android": "https://dc.lft.to/lastmile_qr_scan"}, "type": "electric_scooter", "name": "0ad783a89ecc5adb471fa311888d7529", "is_reserved": 0, "lon": -77.03870783333333, "is_disabled": 0, "fusion_lat": 0.0, "lat": 38.921486, "bike_id": "0ad783a89ecc5adb471fa311888d7529", "fusion_lon": 0.0}, {"rental_uris": {"ios": "https://dc.lft.to/lastmile_qr_scan", "android": "https://dc.lft.to/lastmile_qr_scan"}, "type": "electric_scooter", "name": "b67dbcfb0f803edbcb370d1251cad206", "is_reserved": 0, "lon": -77.033387, "is_disabled": 0, "fusion_lat": 0.0, "lat": 38.919212, "bike_id": "b67dbcfb0f803edbcb370d1251cad206", "fusion_lon": 0.0}, {"rental_uris": {"ios": "https://dc.lft.to/lastmile_qr_scan", "android": "https://dc.lft.to/lastmile_qr_scan"}, "type": "electric_scooter", "name": "18e870a090785c2efd08896fdba3c3b8", "is_reserved": 0, "lon": -77.02111983333333, "is_disabled": 0, "fusion_lat": 0.0, "lat": 38.92691216666667, "bike_id": "18e870a090785c2efd08896fdba3c3b8", "fusion_lon": 0.0}, {"rental_uris": {"ios": "https://dc.lft.to/lastmile_qr_scan", "android": "https://dc.lft.to/lastmile_qr_scan"}, "type": "electric_scooter", "name": "123c7da8d54af41643ed551c23bd42a3", "is_reserved": 0, "lon": -77.02951816666666, "is_disabled": 0, "fusion_lat": 0.0, "lat": 38.9043255, "bike_id": "123c7da8d54af41643ed551c23bd42a3", "fusion_lon": 0.0}, {"rental_uris": {"ios": "https://dc.lft.to/lastmile_qr_scan", "android": "https://dc.lft.to/lastmile_qr_scan"}, "type": "electric_scooter", "name": "d26002caad376b0ddc8c68b0365ee0e5", "is_reserved": 0, "lon": -77.03444433333334, "is_disabled": 0, "fusion_lat": 0.0, "lat": 38.91803866666667, "bike_id": "d26002caad376b0ddc8c68b0365ee0e5", "fusion_lon": 0.0}, {"rental_uris": {"ios": "https://dc.lft.to/lastmile_qr_scan", "android": "https://dc.lft.to/lastmile_qr_scan"}, "type": "electric_scooter", "name": "63eb2ff92e1abfeef8b813a76223c3fd", "is_reserved": 0, "lon": -76.98539083333333, "is_disabled": 0, "fusion_lat": 0.0, "lat": 38.91296416666667, "bike_id": "63eb2ff92e1abfeef8b813a76223c3fd", "fusion_lon": 0.0}, {"rental_uris": {"ios": "https://dc.lft.to/lastmile_qr_scan", "android": "https://dc.lft.to/lastmile_qr_scan"}, "type": "electric_scooter", "name": "7076c0141de57ddeb2c257652a476177", "is_reserved": 0, "lon": -77.06286016666667, "is_disabled": 0, "fusion_lat": 0.0, "lat": 38.912442, "bike_id": "7076c0141de57ddeb2c257652a476177", "fusion_lon": 0.0}, {"rental_uris": {"ios": "https://dc.lft.to/lastmile_qr_scan", "android": "https://dc.lft.to/lastmile_qr_scan"}, "type": "electric_bike", "name": "6c68d99efa357064a30bfdadee3aa5a6", "is_reserved": 0, "lon": -77.05159516666667, "is_disabled": 0, "fusion_lat": 0.0, "lat": 38.85800366666667, "bike_id": "6c68d99efa357064a30bfdadee3aa5a6", "fusion_lon": 0.0}, {"rental_uris": {"ios": "https://dc.lft.to/lastmile_qr_scan", "android": "https://dc.lft.to/lastmile_qr_scan"}, "type": "electric_scooter", "name": "ed2f656653de4843da309a97e1d8a6d9", "is_reserved": 0, "lon": -77.02611, "is_disabled": 0, "fusion_lat": 0.0, "lat": 38.924145833333334, "bike_id": "ed2f656653de4843da309a97e1d8a6d9", "fusion_lon": 0.0}, {"rental_uris": {"ios": "https://dc.lft.to/lastmile_qr_scan", "android": "https://dc.lft.to/lastmile_qr_scan"}, "type": "electric_scooter", "name": "fa457ecdcafa9404ca77bfb4ed4acf59", "is_reserved": 0, "lon": -77.0337195, "is_disabled": 0, "fusion_lat": 0.0, "lat": 38.911151, "bike_id": "fa457ecdcafa9404ca77bfb4ed4acf59", "fusion_lon": 0.0}, {"rental_uris": {"ios": "https://dc.lft.to/lastmile_qr_scan", "android": "https://dc.lft.to/lastmile_qr_scan"}, "type": "electric_scooter", "name": "128565f1a1f5b99799a93a5965968bc2", "is_reserved": 0, "lon": -77.07166783333334, "is_disabled": 0, "fusion_lat": 0.0, "lat": 38.907632666666665, "bike_id": "128565f1a1f5b99799a93a5965968bc2", "fusion_lon": 0.0}, {"rental_uris": {"ios": "https://dc.lft.to/lastmile_qr_scan", "android": "https://dc.lft.to/lastmile_qr_scan"}, "type": "electric_scooter", "name": "e2a1f3c23cce39dfdbf256e43422d60a", "is_reserved": 0, "lon": -77.0158285, "is_disabled": 0, "fusion_lat": 0.0, "lat": 38.872193, "bike_id": "e2a1f3c23cce39dfdbf256e43422d60a", "fusion_lon": 0.0}, {"rental_uris": {"ios": "https://dc.lft.to/lastmile_qr_scan", "android": "https://dc.lft.to/lastmile_qr_scan"}, "type": "electric_scooter", "name": "aef91bba17d2f77ab928567a7671756b", "is_reserved": 0, "lon": -77.03851533333334, "is_disabled": 0, "fusion_lat": 0.0, "lat": 38.909573, "bike_id": "aef91bba17d2f77ab928567a7671756b", "fusion_lon": 0.0}, {"rental_uris": {"ios": "https://dc.lft.to/lastmile_qr_scan", "android": "https://dc.lft.to/lastmile_qr_scan"}, "type": "electric_scooter", "name": "980b9b3b3da6e80d5f8aa61a503991d0", "is_reserved": 0, "lon": -77.024769, "is_disabled": 0, "fusion_lat": 0.0, "lat": 38.92393833333333, "bike_id": "980b9b3b3da6e80d5f8aa61a503991d0", "fusion_lon": 0.0}, {"rental_uris": {"ios": "https://dc.lft.to/lastmile_qr_scan", "android": "https://dc.lft.to/lastmile_qr_scan"}, "type": "electric_scooter", "name": "04f17ee86e9b5a4e39bdaada9dc0f86c", "is_reserved": 0, "lon": -76.929449, "is_disabled": 0, "fusion_lat": 0.0, "lat": 38.903395833333335, "bike_id": "04f17ee86e9b5a4e39bdaada9dc0f86c", "fusion_lon": 0.0}, {"rental_uris": {"ios": "https://dc.lft.to/lastmile_qr_scan", "android": "https://dc.lft.to/lastmile_qr_scan"}, "type": "electric_scooter", "name": "6742799b01001419c5b74ed48af72df4", "is_reserved": 0, "lon": -77.04025833333333, "is_disabled": 0, "fusion_lat": 0.0, "lat": 38.922575, "bike_id": "6742799b01001419c5b74ed48af72df4", "fusion_lon": 0.0}, {"rental_uris": {"ios": "https://dc.lft.to/lastmile_qr_scan", "android": "https://dc.lft.to/lastmile_qr_scan"}, "type": "electric_scooter", "name": "8a7757b46cf79541b17824e9140d957e", "is_reserved": 0, "lon": -77.027062, "is_disabled": 0, "fusion_lat": 0.0, "lat": 38.9190655, "bike_id": "8a7757b46cf79541b17824e9140d957e", "fusion_lon": 0.0}, {"rental_uris": {"ios": "https://dc.lft.to/lastmile_qr_scan", "android": "https://dc.lft.to/lastmile_qr_scan"}, "type": "electric_scooter", "name": "20e42338bba1285bb3167780eb08ee81", "is_reserved": 0, "lon": -77.05071583333333, "is_disabled": 0, "fusion_lat": 0.0, "lat": 38.903824666666665, "bike_id": "20e42338bba1285bb3167780eb08ee81", "fusion_lon": 0.0}, {"rental_uris": {"ios": "https://dc.lft.to/lastmile_qr_scan", "android": "https://dc.lft.to/lastmile_qr_scan"}, "type": "electric_scooter", "name": "679f3805ce09339d4bebd63504d0639c", "is_reserved": 0, "lon": -77.03473816666667, "is_disabled": 0, "fusion_lat": 0.0, "lat": 38.9056005, "bike_id": "679f3805ce09339d4bebd63504d0639c", "fusion_lon": 0.0}, {"rental_uris": {"ios": "https://dc.lft.to/lastmile_qr_scan", "android": "https://dc.lft.to/lastmile_qr_scan"}, "type": "electric_bike", "name": "e7891e0714fda4f0d26870a54f029150", "is_reserved": 0, "lon": -76.99858066666667, "is_disabled": 0, "fusion_lat": 0.0, "lat": 38.908973333333336, "bike_id": "e7891e0714fda4f0d26870a54f029150", "fusion_lon": 0.0}, {"rental_uris": {"ios": "https://dc.lft.to/lastmile_qr_scan", "android": "https://dc.lft.to/lastmile_qr_scan"}, "type": "electric_bike", "name": "1a8abbed3ae108ecef8d64ebd37e1a1b", "is_reserved": 0, "lon": -76.9630695, "is_disabled": 0, "fusion_lat": 0.0, "lat": 38.897005666666665, "bike_id": "1a8abbed3ae108ecef8d64ebd37e1a1b", "fusion_lon": 0.0}, {"rental_uris": {"ios": "https://dc.lft.to/lastmile_qr_scan", "android": "https://dc.lft.to/lastmile_qr_scan"}, "type": "electric_scooter", "name": "b4c1423f769a35f1e7d8b91621c07c20", "is_reserved": 0, "lon": -77.00623583333333, "is_disabled": 0, "fusion_lat": 0.0, "lat": 38.8783245, "bike_id": "b4c1423f769a35f1e7d8b91621c07c20", "fusion_lon": 0.0}, {"rental_uris": {"ios": "https://dc.lft.to/lastmile_qr_scan", "android": "https://dc.lft.to/lastmile_qr_scan"}, "type": "electric_scooter", "name": "a7c5bca15bb8cf41cb8f3dc1b878dff3", "is_reserved": 0, "lon": -77.0281625, "is_disabled": 0, "fusion_lat": 0.0, "lat": 38.89235166666667, "bike_id": "a7c5bca15bb8cf41cb8f3dc1b878dff3", "fusion_lon": 0.0}, {"rental_uris": {"ios": "https://dc.lft.to/lastmile_qr_scan", "android": "https://dc.lft.to/lastmile_qr_scan"}, "type": "electric_scooter", "name": "6301ab5883148b2acdd629f760a8536f", "is_reserved": 0, "lon": -77.04338483333333, "is_disabled": 0, "fusion_lat": 0.0, "lat": 38.906431166666664, "bike_id": "6301ab5883148b2acdd629f760a8536f", "fusion_lon": 0.0}, {"rental_uris": {"ios": "https://dc.lft.to/lastmile_qr_scan", "android": "https://dc.lft.to/lastmile_qr_scan"}, "type": "electric_scooter", "name": "8095ca741ee3fbf068d7f7bc4bfb0ce3", "is_reserved": 0, "lon": -77.03534033333334, "is_disabled": 0, "fusion_lat": 0.0, "lat": 38.9238585, "bike_id": "8095ca741ee3fbf068d7f7bc4bfb0ce3", "fusion_lon": 0.0}, {"rental_uris": {"ios": "https://dc.lft.to/lastmile_qr_scan", "android": "https://dc.lft.to/lastmile_qr_scan"}, "type": "electric_scooter", "name": "e37898add82bb2f046f58d6031aac5fd", "is_reserved": 0, "lon": -76.96558183333333, "is_disabled": 0, "fusion_lat": 0.0, "lat": 38.91843816666667, "bike_id": "e37898add82bb2f046f58d6031aac5fd", "fusion_lon": 0.0}, {"rental_uris": {"ios": "https://dc.lft.to/lastmile_qr_scan", "android": "https://dc.lft.to/lastmile_qr_scan"}, "type": "electric_scooter", "name": "0c1bbd187c18a04a5075c63d92af516f", "is_reserved": 0, "lon": -77.0329325, "is_disabled": 0, "fusion_lat": 0.0, "lat": 38.924565, "bike_id": "0c1bbd187c18a04a5075c63d92af516f", "fusion_lon": 0.0}, {"rental_uris": {"ios": "https://dc.lft.to/lastmile_qr_scan", "android": "https://dc.lft.to/lastmile_qr_scan"}, "type": "electric_scooter", "name": "db94ab21a1a2ad9644317c327a970201", "is_reserved": 0, "lon": -77.02132233333333, "is_disabled": 0, "fusion_lat": 0.0, "lat": 38.91326633333333, "bike_id": "db94ab21a1a2ad9644317c327a970201", "fusion_lon": 0.0}, {"rental_uris": {"ios": "https://dc.lft.to/lastmile_qr_scan", "android": "https://dc.lft.to/lastmile_qr_scan"}, "type": "electric_scooter", "name": "0014b2718844b9123a38b133851d5861", "is_reserved": 0, "lon": -77.02693766666667, "is_disabled": 0, "fusion_lat": 0.0, "lat": 38.911515666666666, "bike_id": "0014b2718844b9123a38b133851d5861", "fusion_lon": 0.0}, {"rental_uris": {"ios": "https://dc.lft.to/lastmile_qr_scan", "android": "https://dc.lft.to/lastmile_qr_scan"}, "type": "electric_scooter", "name": "f5fd956d91072bc3bfb25bf4e6031322", "is_reserved": 0, "lon": -76.991323, "is_disabled": 0, "fusion_lat": 0.0, "lat": 38.900090666666664, "bike_id": "f5fd956d91072bc3bfb25bf4e6031322", "fusion_lon": 0.0}, {"rental_uris": {"ios": "https://dc.lft.to/lastmile_qr_scan", "android": "https://dc.lft.to/lastmile_qr_scan"}, "type": "electric_scooter", "name": "e92d04d59780069fa3025f212a937a56", "is_reserved": 0, "lon": -77.02298066666667, "is_disabled": 0, "fusion_lat": 0.0, "lat": 38.89851783333334, "bike_id": "e92d04d59780069fa3025f212a937a56", "fusion_lon": 0.0}, {"rental_uris": {"ios": "https://dc.lft.to/lastmile_qr_scan", "android": "https://dc.lft.to/lastmile_qr_scan"}, "type": "electric_bike", "name": "c7ad7bf962defd593db2a3601c6e773b", "is_reserved": 0, "lon": -77.04269866666667, "is_disabled": 0, "fusion_lat": 0.0, "lat": 38.849091, "bike_id": "c7ad7bf962defd593db2a3601c6e773b", "fusion_lon": 0.0}, {"rental_uris": {"ios": "https://dc.lft.to/lastmile_qr_scan", "android": "https://dc.lft.to/lastmile_qr_scan"}, "type": "electric_scooter", "name": "28edc1806e43369034c1920aada5ef54", "is_reserved": 0, "lon": -77.03800433333333, "is_disabled": 0, "fusion_lat": 0.0, "lat": 38.925020333333336, "bike_id": "28edc1806e43369034c1920aada5ef54", "fusion_lon": 0.0}, {"rental_uris": {"ios": "https://dc.lft.to/lastmile_qr_scan", "android": "https://dc.lft.to/lastmile_qr_scan"}, "type": "electric_scooter", "name": "6dea8b879eabd89878c69a04795afbc7", "is_reserved": 0, "lon": -77.05600633333333, "is_disabled": 0, "fusion_lat": 0.0, "lat": 38.894276, "bike_id": "6dea8b879eabd89878c69a04795afbc7", "fusion_lon": 0.0}, {"rental_uris": {"ios": "https://dc.lft.to/lastmile_qr_scan", "android": "https://dc.lft.to/lastmile_qr_scan"}, "type": "electric_scooter", "name": "8d823f0bbb972366e496a8e057979cb3", "is_reserved": 0, "lon": -77.03552316666666, "is_disabled": 0, "fusion_lat": 0.0, "lat": 38.9171905, "bike_id": "8d823f0bbb972366e496a8e057979cb3", "fusion_lon": 0.0}, {"rental_uris": {"ios": "https://dc.lft.to/lastmile_qr_scan", "android": "https://dc.lft.to/lastmile_qr_scan"}, "type": "electric_scooter", "name": "b18a33fabc8870356b1fe9b6f1588e92", "is_reserved": 0, "lon": -77.03701566666666, "is_disabled": 0, "fusion_lat": 0.0, "lat": 38.9283045, "bike_id": "b18a33fabc8870356b1fe9b6f1588e92", "fusion_lon": 0.0}, {"rental_uris": {"ios": "https://dc.lft.to/lastmile_qr_scan", "android": "https://dc.lft.to/lastmile_qr_scan"}, "type": "electric_scooter", "name": "029e8d49c788dc884527e87661631f07", "is_reserved": 0, "lon": -77.014367, "is_disabled": 0, "fusion_lat": 0.0, "lat": 38.92857633333333, "bike_id": "029e8d49c788dc884527e87661631f07", "fusion_lon": 0.0}, {"rental_uris": {"ios": "https://dc.lft.to/lastmile_qr_scan", "android": "https://dc.lft.to/lastmile_qr_scan"}, "type": "electric_scooter", "name": "f30d76818ad2d9fde363f2b0fa1210a7", "is_reserved": 0, "lon": -77.0633755, "is_disabled": 0, "fusion_lat": 0.0, "lat": 38.94370816666667, "bike_id": "f30d76818ad2d9fde363f2b0fa1210a7", "fusion_lon": 0.0}, {"rental_uris": {"ios": "https://dc.lft.to/lastmile_qr_scan", "android": "https://dc.lft.to/lastmile_qr_scan"}, "type": "electric_scooter", "name": "c88b5d7fcb47576f7768f69ae3b992c9", "is_reserved": 0, "lon": -77.02633783333333, "is_disabled": 0, "fusion_lat": 0.0, "lat": 38.89597583333333, "bike_id": "c88b5d7fcb47576f7768f69ae3b992c9", "fusion_lon": 0.0}, {"rental_uris": {"ios": "https://dc.lft.to/lastmile_qr_scan", "android": "https://dc.lft.to/lastmile_qr_scan"}, "type": "electric_scooter", "name": "929cad5da92de7d0f87175632be002c5", "is_reserved": 0, "lon": -77.0135235, "is_disabled": 0, "fusion_lat": 0.0, "lat": 38.91915916666667, "bike_id": "929cad5da92de7d0f87175632be002c5", "fusion_lon": 0.0}, {"rental_uris": {"ios": "https://dc.lft.to/lastmile_qr_scan", "android": "https://dc.lft.to/lastmile_qr_scan"}, "type": "electric_bike", "name": "69455552bac2f95ee5d144b57b853060", "is_reserved": 0, "lon": -77.08878616666667, "is_disabled": 0, "fusion_lat": 0.0, "lat": 38.938796833333335, "bike_id": "69455552bac2f95ee5d144b57b853060", "fusion_lon": 0.0}, {"rental_uris": {"ios": "https://dc.lft.to/lastmile_qr_scan", "android": "https://dc.lft.to/lastmile_qr_scan"}, "type": "electric_bike", "name": "ac548e9f4f06dcd4d26161d78585e9ab", "is_reserved": 0, "lon": -77.099587, "is_disabled": 0, "fusion_lat": 0.0, "lat": 38.8579295, "bike_id": "ac548e9f4f06dcd4d26161d78585e9ab", "fusion_lon": 0.0}, {"rental_uris": {"ios": "https://dc.lft.to/lastmile_qr_scan", "android": "https://dc.lft.to/lastmile_qr_scan"}, "type": "electric_scooter", "name": "e750731c71b6f5124b55891b5d639103", "is_reserved": 0, "lon": -77.03780733333333, "is_disabled": 0, "fusion_lat": 0.0, "lat": 38.916953666666664, "bike_id": "e750731c71b6f5124b55891b5d639103", "fusion_lon": 0.0}, {"rental_uris": {"ios": "https://dc.lft.to/lastmile_qr_scan", "android": "https://dc.lft.to/lastmile_qr_scan"}, "type": "electric_scooter", "name": "5fa2c684aae0b4df60b036f58033cea7", "is_reserved": 0, "lon": -77.0121015, "is_disabled": 0, "fusion_lat": 0.0, "lat": 38.918202666666666, "bike_id": "5fa2c684aae0b4df60b036f58033cea7", "fusion_lon": 0.0}, {"rental_uris": {"ios": "https://dc.lft.to/lastmile_qr_scan", "android": "https://dc.lft.to/lastmile_qr_scan"}, "type": "electric_scooter", "name": "24d55b4c34724254515f670fc39076ee", "is_reserved": 0, "lon": -77.00939733333334, "is_disabled": 0, "fusion_lat": 0.0, "lat": 38.912683333333334, "bike_id": "24d55b4c34724254515f670fc39076ee", "fusion_lon": 0.0}, {"rental_uris": {"ios": "https://dc.lft.to/lastmile_qr_scan", "android": "https://dc.lft.to/lastmile_qr_scan"}, "type": "electric_scooter", "name": "8fb294426f14f7d8b221fdc5669db59c", "is_reserved": 0, "lon": -77.00572383333333, "is_disabled": 0, "fusion_lat": 0.0, "lat": 38.8745985, "bike_id": "8fb294426f14f7d8b221fdc5669db59c", "fusion_lon": 0.0}, {"rental_uris": {"ios": "https://dc.lft.to/lastmile_qr_scan", "android": "https://dc.lft.to/lastmile_qr_scan"}, "type": "electric_scooter", "name": "32fe192f88e3136dc6c166991ad6f45b", "is_reserved": 0, "lon": -77.03281033333333, "is_disabled": 0, "fusion_lat": 0.0, "lat": 38.9199935, "bike_id": "32fe192f88e3136dc6c166991ad6f45b", "fusion_lon": 0.0}, {"rental_uris": {"ios": "https://dc.lft.to/lastmile_qr_scan", "android": "https://dc.lft.to/lastmile_qr_scan"}, "type": "electric_scooter", "name": "1d2a294adb91283b81fb9cc5fb14b6ab", "is_reserved": 0, "lon": -76.98703133333333, "is_disabled": 0, "fusion_lat": 0.0, "lat": 38.888459833333336, "bike_id": "1d2a294adb91283b81fb9cc5fb14b6ab", "fusion_lon": 0.0}, {"rental_uris": {"ios": "https://dc.lft.to/lastmile_qr_scan", "android": "https://dc.lft.to/lastmile_qr_scan"}, "type": "electric_scooter", "name": "95a739da91f255170000c590cfba2337", "is_reserved": 0, "lon": -77.01846716666667, "is_disabled": 0, "fusion_lat": 0.0, "lat": 38.94995633333333, "bike_id": "95a739da91f255170000c590cfba2337", "fusion_lon": 0.0}, {"rental_uris": {"ios": "https://dc.lft.to/lastmile_qr_scan", "android": "https://dc.lft.to/lastmile_qr_scan"}, "type": "electric_scooter", "name": "9f55ee6e58b032f1b4a3cd5d6acb4b68", "is_reserved": 0, "lon": -76.9794395, "is_disabled": 0, "fusion_lat": 0.0, "lat": 38.916023, "bike_id": "9f55ee6e58b032f1b4a3cd5d6acb4b68", "fusion_lon": 0.0}, {"rental_uris": {"ios": "https://dc.lft.to/lastmile_qr_scan", "android": "https://dc.lft.to/lastmile_qr_scan"}, "type": "electric_bike", "name": "5fa5b9c2945ca78677e3d326b9513003", "is_reserved": 0, "lon": -76.9785535, "is_disabled": 0, "fusion_lat": 0.0, "lat": 38.983837666666666, "bike_id": "5fa5b9c2945ca78677e3d326b9513003", "fusion_lon": 0.0}, {"rental_uris": {"ios": "https://dc.lft.to/lastmile_qr_scan", "android": "https://dc.lft.to/lastmile_qr_scan"}, "type": "electric_scooter", "name": "fc963e5ed2554ddf99a52079bdd8083e", "is_reserved": 0, "lon": -77.01715883333334, "is_disabled": 0, "fusion_lat": 0.0, "lat": 38.91412283333333, "bike_id": "fc963e5ed2554ddf99a52079bdd8083e", "fusion_lon": 0.0}, {"rental_uris": {"ios": "https://dc.lft.to/lastmile_qr_scan", "android": "https://dc.lft.to/lastmile_qr_scan"}, "type": "electric_scooter", "name": "38206afa1bd32a0f376b02b3f66013f8", "is_reserved": 0, "lon": -77.030158, "is_disabled": 0, "fusion_lat": 0.0, "lat": 38.93116883333333, "bike_id": "38206afa1bd32a0f376b02b3f66013f8", "fusion_lon": 0.0}, {"rental_uris": {"ios": "https://dc.lft.to/lastmile_qr_scan", "android": "https://dc.lft.to/lastmile_qr_scan"}, "type": "electric_scooter", "name": "33f279da12a252c51ad20e57c99a1558", "is_reserved": 0, "lon": -77.03851533333334, "is_disabled": 0, "fusion_lat": 0.0, "lat": 38.912729, "bike_id": "33f279da12a252c51ad20e57c99a1558", "fusion_lon": 0.0}, {"rental_uris": {"ios": "https://dc.lft.to/lastmile_qr_scan", "android": "https://dc.lft.to/lastmile_qr_scan"}, "type": "electric_scooter", "name": "5cca5f3a2c10aeb920ca281e4e4eb193", "is_reserved": 0, "lon": -76.99372316666667, "is_disabled": 0, "fusion_lat": 0.0, "lat": 38.90038583333333, "bike_id": "5cca5f3a2c10aeb920ca281e4e4eb193", "fusion_lon": 0.0}, {"rental_uris": {"ios": "https://dc.lft.to/lastmile_qr_scan", "android": "https://dc.lft.to/lastmile_qr_scan"}, "type": "electric_scooter", "name": "90329e2906a13ef53565afe6adbaa3cc", "is_reserved": 0, "lon": -77.023892, "is_disabled": 0, "fusion_lat": 0.0, "lat": 38.920777, "bike_id": "90329e2906a13ef53565afe6adbaa3cc", "fusion_lon": 0.0}, {"rental_uris": {"ios": "https://dc.lft.to/lastmile_qr_scan", "android": "https://dc.lft.to/lastmile_qr_scan"}, "type": "electric_scooter", "name": "cbb9af722c95d1825e893eb34241955c", "is_reserved": 0, "lon": -77.056975, "is_disabled": 0, "fusion_lat": 0.0, "lat": 38.93722616666667, "bike_id": "cbb9af722c95d1825e893eb34241955c", "fusion_lon": 0.0}, {"rental_uris": {"ios": "https://dc.lft.to/lastmile_qr_scan", "android": "https://dc.lft.to/lastmile_qr_scan"}, "type": "electric_scooter", "name": "73bad3ae485bac23cc05ceb4f9ef406a", "is_reserved": 0, "lon": -77.0118495, "is_disabled": 0, "fusion_lat": 0.0, "lat": 38.911075333333336, "bike_id": "73bad3ae485bac23cc05ceb4f9ef406a", "fusion_lon": 0.0}, {"rental_uris": {"ios": "https://dc.lft.to/lastmile_qr_scan", "android": "https://dc.lft.to/lastmile_qr_scan"}, "type": "electric_scooter", "name": "a969fe146c22721474b39fcfb0bfe858", "is_reserved": 0, "lon": -77.03055783333333, "is_disabled": 0, "fusion_lat": 0.0, "lat": 38.9903255, "bike_id": "a969fe146c22721474b39fcfb0bfe858", "fusion_lon": 0.0}, {"rental_uris": {"ios": "https://dc.lft.to/lastmile_qr_scan", "android": "https://dc.lft.to/lastmile_qr_scan"}, "type": "electric_scooter", "name": "69d9375c056f9e57d40293d8e0d4d251", "is_reserved": 0, "lon": -77.01957983333334, "is_disabled": 0, "fusion_lat": 0.0, "lat": 38.93134633333333, "bike_id": "69d9375c056f9e57d40293d8e0d4d251", "fusion_lon": 0.0}, {"rental_uris": {"ios": "https://dc.lft.to/lastmile_qr_scan", "android": "https://dc.lft.to/lastmile_qr_scan"}, "type": "electric_scooter", "name": "3abf7b8f9bf2ab5bb7f69ca214f9d00b", "is_reserved": 0, "lon": -77.02166916666667, "is_disabled": 0, "fusion_lat": 0.0, "lat": 38.91610266666667, "bike_id": "3abf7b8f9bf2ab5bb7f69ca214f9d00b", "fusion_lon": 0.0}, {"rental_uris": {"ios": "https://dc.lft.to/lastmile_qr_scan", "android": "https://dc.lft.to/lastmile_qr_scan"}, "type": "electric_scooter", "name": "f7d9b93c9963e8a754ed9fe2c7a86624", "is_reserved": 0, "lon": -77.0035225, "is_disabled": 0, "fusion_lat": 0.0, "lat": 38.87662133333333, "bike_id": "f7d9b93c9963e8a754ed9fe2c7a86624", "fusion_lon": 0.0}, {"rental_uris": {"ios": "https://dc.lft.to/lastmile_qr_scan", "android": "https://dc.lft.to/lastmile_qr_scan"}, "type": "electric_scooter", "name": "1545f0cf8260d4c099ed0aca00efb5c3", "is_reserved": 0, "lon": -77.019851, "is_disabled": 0, "fusion_lat": 0.0, "lat": 38.87594816666667, "bike_id": "1545f0cf8260d4c099ed0aca00efb5c3", "fusion_lon": 0.0}, {"rental_uris": {"ios": "https://dc.lft.to/lastmile_qr_scan", "android": "https://dc.lft.to/lastmile_qr_scan"}, "type": "electric_scooter", "name": "257566275ae4b4bdc02b325663bfa394", "is_reserved": 0, "lon": -77.03865866666666, "is_disabled": 0, "fusion_lat": 0.0, "lat": 38.91267233333333, "bike_id": "257566275ae4b4bdc02b325663bfa394", "fusion_lon": 0.0}, {"rental_uris": {"ios": "https://dc.lft.to/lastmile_qr_scan", "android": "https://dc.lft.to/lastmile_qr_scan"}, "type": "electric_bike", "name": "012b0f7f7d99ee61b3deb1dd90bf2da3", "is_reserved": 0, "lon": -77.128415, "is_disabled": 0, "fusion_lat": 0.0, "lat": 38.80053083333333, "bike_id": "012b0f7f7d99ee61b3deb1dd90bf2da3", "fusion_lon": 0.0}, {"rental_uris": {"ios": "https://dc.lft.to/lastmile_qr_scan", "android": "https://dc.lft.to/lastmile_qr_scan"}, "type": "electric_scooter", "name": "536ba566fccad4d47d01bccce504dbf3", "is_reserved": 0, "lon": -77.002284, "is_disabled": 0, "fusion_lat": 0.0, "lat": 38.90042316666667, "bike_id": "536ba566fccad4d47d01bccce504dbf3", "fusion_lon": 0.0}, {"rental_uris": {"ios": "https://dc.lft.to/lastmile_qr_scan", "android": "https://dc.lft.to/lastmile_qr_scan"}, "type": "electric_scooter", "name": "de81f1d66ac34df8fd23b463bbc7bd22", "is_reserved": 0, "lon": -77.02950366666667, "is_disabled": 0, "fusion_lat": 0.0, "lat": 38.902646833333336, "bike_id": "de81f1d66ac34df8fd23b463bbc7bd22", "fusion_lon": 0.0}, {"rental_uris": {"ios": "https://dc.lft.to/lastmile_qr_scan", "android": "https://dc.lft.to/lastmile_qr_scan"}, "type": "electric_scooter", "name": "f48851f67835a801921f03aaa4f4488d", "is_reserved": 0, "lon": -76.99113716666666, "is_disabled": 0, "fusion_lat": 0.0, "lat": 38.90903, "bike_id": "f48851f67835a801921f03aaa4f4488d", "fusion_lon": 0.0}, {"rental_uris": {"ios": "https://dc.lft.to/lastmile_qr_scan", "android": "https://dc.lft.to/lastmile_qr_scan"}, "type": "electric_scooter", "name": "80922740bce44a711cf4e61b6f2a3c55", "is_reserved": 0, "lon": -77.02727566666667, "is_disabled": 0, "fusion_lat": 0.0, "lat": 38.93462933333333, "bike_id": "80922740bce44a711cf4e61b6f2a3c55", "fusion_lon": 0.0}, {"rental_uris": {"ios": "https://dc.lft.to/lastmile_qr_scan", "android": "https://dc.lft.to/lastmile_qr_scan"}, "type": "electric_scooter", "name": "03f16d0cecf24c4fcb94d0ccea9d4b47", "is_reserved": 0, "lon": -77.0005115, "is_disabled": 0, "fusion_lat": 0.0, "lat": 38.879244666666665, "bike_id": "03f16d0cecf24c4fcb94d0ccea9d4b47", "fusion_lon": 0.0}, {"rental_uris": {"ios": "https://dc.lft.to/lastmile_qr_scan", "android": "https://dc.lft.to/lastmile_qr_scan"}, "type": "electric_scooter", "name": "a7cdb2950675e5b88e9234ab790c1e77", "is_reserved": 0, "lon": -77.02711683333334, "is_disabled": 0, "fusion_lat": 0.0, "lat": 38.91770183333333, "bike_id": "a7cdb2950675e5b88e9234ab790c1e77", "fusion_lon": 0.0}, {"rental_uris": {"ios": "https://dc.lft.to/lastmile_qr_scan", "android": "https://dc.lft.to/lastmile_qr_scan"}, "type": "electric_scooter", "name": "fa3c2704ede6ebf03236a73f838ce1ae", "is_reserved": 0, "lon": -77.04362716666667, "is_disabled": 0, "fusion_lat": 0.0, "lat": 38.922474333333334, "bike_id": "fa3c2704ede6ebf03236a73f838ce1ae", "fusion_lon": 0.0}, {"rental_uris": {"ios": "https://dc.lft.to/lastmile_qr_scan", "android": "https://dc.lft.to/lastmile_qr_scan"}, "type": "electric_scooter", "name": "bf0c0e0be76e89d571c0aa20846d9a8d", "is_reserved": 0, "lon": -77.031757, "is_disabled": 0, "fusion_lat": 0.0, "lat": 38.91333766666666, "bike_id": "bf0c0e0be76e89d571c0aa20846d9a8d", "fusion_lon": 0.0}, {"rental_uris": {"ios": "https://dc.lft.to/lastmile_qr_scan", "android": "https://dc.lft.to/lastmile_qr_scan"}, "type": "electric_scooter", "name": "4bc6f73e2f1593d04f537f2295aa2dcd", "is_reserved": 0, "lon": -77.03853416666666, "is_disabled": 0, "fusion_lat": 0.0, "lat": 38.92648883333333, "bike_id": "4bc6f73e2f1593d04f537f2295aa2dcd", "fusion_lon": 0.0}, {"rental_uris": {"ios": "https://dc.lft.to/lastmile_qr_scan", "android": "https://dc.lft.to/lastmile_qr_scan"}, "type": "electric_scooter", "name": "4a9b0bba5d1a4f94c09a6610f9bea0aa", "is_reserved": 0, "lon": -77.04173066666667, "is_disabled": 0, "fusion_lat": 0.0, "lat": 38.911919833333336, "bike_id": "4a9b0bba5d1a4f94c09a6610f9bea0aa", "fusion_lon": 0.0}, {"rental_uris": {"ios": "https://dc.lft.to/lastmile_qr_scan", "android": "https://dc.lft.to/lastmile_qr_scan"}, "type": "electric_scooter", "name": "d572557dba5aa72610af3019b2eaa254", "is_reserved": 0, "lon": -77.00631, "is_disabled": 0, "fusion_lat": 0.0, "lat": 38.8717795, "bike_id": "d572557dba5aa72610af3019b2eaa254", "fusion_lon": 0.0}, {"rental_uris": {"ios": "https://dc.lft.to/lastmile_qr_scan", "android": "https://dc.lft.to/lastmile_qr_scan"}, "type": "electric_scooter", "name": "b4b664f237a66c8ae4949b4dc5f62a38", "is_reserved": 0, "lon": -77.0269105, "is_disabled": 0, "fusion_lat": 0.0, "lat": 38.908385833333334, "bike_id": "b4b664f237a66c8ae4949b4dc5f62a38", "fusion_lon": 0.0}, {"rental_uris": {"ios": "https://dc.lft.to/lastmile_qr_scan", "android": "https://dc.lft.to/lastmile_qr_scan"}, "type": "electric_scooter", "name": "953cf32884f1fb00c4836884839e486b", "is_reserved": 0, "lon": -77.01797566666667, "is_disabled": 0, "fusion_lat": 0.0, "lat": 38.88598783333333, "bike_id": "953cf32884f1fb00c4836884839e486b", "fusion_lon": 0.0}, {"rental_uris": {"ios": "https://dc.lft.to/lastmile_qr_scan", "android": "https://dc.lft.to/lastmile_qr_scan"}, "type": "electric_bike", "name": "45b5e2c8217f40da8a0c95293cfc99ae", "is_reserved": 0, "lon": -77.13234733333333, "is_disabled": 0, "fusion_lat": 0.0, "lat": 38.8045105, "bike_id": "45b5e2c8217f40da8a0c95293cfc99ae", "fusion_lon": 0.0}, {"rental_uris": {"ios": "https://dc.lft.to/lastmile_qr_scan", "android": "https://dc.lft.to/lastmile_qr_scan"}, "type": "electric_scooter", "name": "35584fc64e5c16857a18bb510143567c", "is_reserved": 0, "lon": -77.06671, "is_disabled": 0, "fusion_lat": 0.0, "lat": 38.90381583333333, "bike_id": "35584fc64e5c16857a18bb510143567c", "fusion_lon": 0.0}, {"rental_uris": {"ios": "https://dc.lft.to/lastmile_qr_scan", "android": "https://dc.lft.to/lastmile_qr_scan"}, "type": "electric_bike", "name": "72a5b009a896097af1859f0e520310d9", "is_reserved": 0, "lon": -76.983477, "is_disabled": 0, "fusion_lat": 0.0, "lat": 38.862663166666664, "bike_id": "72a5b009a896097af1859f0e520310d9", "fusion_lon": 0.0}, {"rental_uris": {"ios": "https://dc.lft.to/lastmile_qr_scan", "android": "https://dc.lft.to/lastmile_qr_scan"}, "type": "electric_scooter", "name": "97a989197b7e23f6357ff2ccf5ea41c7", "is_reserved": 0, "lon": -77.02632083333333, "is_disabled": 0, "fusion_lat": 0.0, "lat": 38.924815833333334, "bike_id": "97a989197b7e23f6357ff2ccf5ea41c7", "fusion_lon": 0.0}, {"rental_uris": {"ios": "https://dc.lft.to/lastmile_qr_scan", "android": "https://dc.lft.to/lastmile_qr_scan"}, "type": "electric_bike", "name": "48525c754b688dbac61c7fd5692c19a3", "is_reserved": 0, "lon": -76.91806783333334, "is_disabled": 0, "fusion_lat": 0.0, "lat": 39.000029, "bike_id": "48525c754b688dbac61c7fd5692c19a3", "fusion_lon": 0.0}, {"rental_uris": {"ios": "https://dc.lft.to/lastmile_qr_scan", "android": "https://dc.lft.to/lastmile_qr_scan"}, "type": "electric_scooter", "name": "f914f81dfb2ea528d9f25de5f018cddc", "is_reserved": 0, "lon": -77.0474555, "is_disabled": 0, "fusion_lat": 0.0, "lat": 38.917828166666666, "bike_id": "f914f81dfb2ea528d9f25de5f018cddc", "fusion_lon": 0.0}, {"rental_uris": {"ios": "https://dc.lft.to/lastmile_qr_scan", "android": "https://dc.lft.to/lastmile_qr_scan"}, "type": "electric_scooter", "name": "ac188f947db83339e73151dac6e98dc5", "is_reserved": 0, "lon": -77.0756155, "is_disabled": 0, "fusion_lat": 0.0, "lat": 38.90638516666667, "bike_id": "ac188f947db83339e73151dac6e98dc5", "fusion_lon": 0.0}, {"rental_uris": {"ios": "https://dc.lft.to/lastmile_qr_scan", "android": "https://dc.lft.to/lastmile_qr_scan"}, "type": "electric_scooter", "name": "8573d8a4e6f7f8d96ccea52abbc9e3ce", "is_reserved": 0, "lon": -77.07255733333334, "is_disabled": 0, "fusion_lat": 0.0, "lat": 38.934372, "bike_id": "8573d8a4e6f7f8d96ccea52abbc9e3ce", "fusion_lon": 0.0}, {"rental_uris": {"ios": "https://dc.lft.to/lastmile_qr_scan", "android": "https://dc.lft.to/lastmile_qr_scan"}, "type": "electric_bike", "name": "f560f5800ef77a0bec54dff54e87cdb1", "is_reserved": 0, "lon": -76.95159683333333, "is_disabled": 0, "fusion_lat": 0.0, "lat": 39.08439083333333, "bike_id": "f560f5800ef77a0bec54dff54e87cdb1", "fusion_lon": 0.0}, {"rental_uris": {"ios": "https://dc.lft.to/lastmile_qr_scan", "android": "https://dc.lft.to/lastmile_qr_scan"}, "type": "electric_scooter", "name": "1a9445832d136c2e29b16be89f61d9cc", "is_reserved": 0, "lon": -77.0264325, "is_disabled": 0, "fusion_lat": 0.0, "lat": 38.896067, "bike_id": "1a9445832d136c2e29b16be89f61d9cc", "fusion_lon": 0.0}, {"rental_uris": {"ios": "https://dc.lft.to/lastmile_qr_scan", "android": "https://dc.lft.to/lastmile_qr_scan"}, "type": "electric_scooter", "name": "6eb45f68a9c443d8559ecc35805a5859", "is_reserved": 0, "lon": -77.01345616666667, "is_disabled": 0, "fusion_lat": 0.0, "lat": 38.9191535, "bike_id": "6eb45f68a9c443d8559ecc35805a5859", "fusion_lon": 0.0}, {"rental_uris": {"ios": "https://dc.lft.to/lastmile_qr_scan", "android": "https://dc.lft.to/lastmile_qr_scan"}, "type": "electric_scooter", "name": "d797dd3effd2776e260a2aa87f71df6d", "is_reserved": 0, "lon": -77.0223175, "is_disabled": 0, "fusion_lat": 0.0, "lat": 38.891951166666665, "bike_id": "d797dd3effd2776e260a2aa87f71df6d", "fusion_lon": 0.0}, {"rental_uris": {"ios": "https://dc.lft.to/lastmile_qr_scan", "android": "https://dc.lft.to/lastmile_qr_scan"}, "type": "electric_scooter", "name": "2867503a74c23694238f52d7fc08f4a8", "is_reserved": 0, "lon": -77.0195395, "is_disabled": 0, "fusion_lat": 0.0, "lat": 38.95046216666667, "bike_id": "2867503a74c23694238f52d7fc08f4a8", "fusion_lon": 0.0}, {"rental_uris": {"ios": "https://dc.lft.to/lastmile_qr_scan", "android": "https://dc.lft.to/lastmile_qr_scan"}, "type": "electric_scooter", "name": "7f77c76298c59d18280b33a874b0a18c", "is_reserved": 0, "lon": -77.02394466666667, "is_disabled": 0, "fusion_lat": 0.0, "lat": 38.9096625, "bike_id": "7f77c76298c59d18280b33a874b0a18c", "fusion_lon": 0.0}, {"rental_uris": {"ios": "https://dc.lft.to/lastmile_qr_scan", "android": "https://dc.lft.to/lastmile_qr_scan"}, "type": "electric_scooter", "name": "83b79501af1def56dc879fb7239cddd5", "is_reserved": 0, "lon": -77.047047, "is_disabled": 0, "fusion_lat": 0.0, "lat": 38.92062383333333, "bike_id": "83b79501af1def56dc879fb7239cddd5", "fusion_lon": 0.0}, {"rental_uris": {"ios": "https://dc.lft.to/lastmile_qr_scan", "android": "https://dc.lft.to/lastmile_qr_scan"}, "type": "electric_scooter", "name": "4741572e454de8223a5243d81b6e217e", "is_reserved": 0, "lon": -77.0118025, "is_disabled": 0, "fusion_lat": 0.0, "lat": 38.95157366666667, "bike_id": "4741572e454de8223a5243d81b6e217e", "fusion_lon": 0.0}, {"rental_uris": {"ios": "https://dc.lft.to/lastmile_qr_scan", "android": "https://dc.lft.to/lastmile_qr_scan"}, "type": "electric_scooter", "name": "3babbe37db206a3a9c82134ad8b7aece", "is_reserved": 0, "lon": -77.020518, "is_disabled": 0, "fusion_lat": 0.0, "lat": 38.894467666666664, "bike_id": "3babbe37db206a3a9c82134ad8b7aece", "fusion_lon": 0.0}, {"rental_uris": {"ios": "https://dc.lft.to/lastmile_qr_scan", "android": "https://dc.lft.to/lastmile_qr_scan"}, "type": "electric_scooter", "name": "0e408b504cfa2e5ac2536f7db1ec96a8", "is_reserved": 0, "lon": -77.034773, "is_disabled": 0, "fusion_lat": 0.0, "lat": 38.905622, "bike_id": "0e408b504cfa2e5ac2536f7db1ec96a8", "fusion_lon": 0.0}, {"rental_uris": {"ios": "https://dc.lft.to/lastmile_qr_scan", "android": "https://dc.lft.to/lastmile_qr_scan"}, "type": "electric_bike", "name": "cb4b84a2b2d5b641dce725f75ad8d55b", "is_reserved": 0, "lon": -76.97547, "is_disabled": 0, "fusion_lat": 0.0, "lat": 38.904299, "bike_id": "cb4b84a2b2d5b641dce725f75ad8d55b", "fusion_lon": 0.0}, {"rental_uris": {"ios": "https://dc.lft.to/lastmile_qr_scan", "android": "https://dc.lft.to/lastmile_qr_scan"}, "type": "electric_scooter", "name": "b7a9a5c1f44673ea3f51b79bf889c5f3", "is_reserved": 0, "lon": -77.03277233333333, "is_disabled": 0, "fusion_lat": 0.0, "lat": 38.93252583333334, "bike_id": "b7a9a5c1f44673ea3f51b79bf889c5f3", "fusion_lon": 0.0}, {"rental_uris": {"ios": "https://dc.lft.to/lastmile_qr_scan", "android": "https://dc.lft.to/lastmile_qr_scan"}, "type": "electric_bike", "name": "2965fc2a90da55fc5168faf0ca9702a0", "is_reserved": 0, "lon": -77.01853233333334, "is_disabled": 0, "fusion_lat": 0.0, "lat": 38.9311135, "bike_id": "2965fc2a90da55fc5168faf0ca9702a0", "fusion_lon": 0.0}, {"rental_uris": {"ios": "https://dc.lft.to/lastmile_qr_scan", "android": "https://dc.lft.to/lastmile_qr_scan"}, "type": "electric_scooter", "name": "8ae628a1bd1d8b06ea0c2eda3174965c", "is_reserved": 0, "lon": -77.00158383333333, "is_disabled": 0, "fusion_lat": 0.0, "lat": 38.82133016666667, "bike_id": "8ae628a1bd1d8b06ea0c2eda3174965c", "fusion_lon": 0.0}, {"rental_uris": {"ios": "https://dc.lft.to/lastmile_qr_scan", "android": "https://dc.lft.to/lastmile_qr_scan"}, "type": "electric_scooter", "name": "793019c6671219f6c318fbb6cbbe1640", "is_reserved": 0, "lon": -77.03263533333333, "is_disabled": 0, "fusion_lat": 0.0, "lat": 38.929042333333335, "bike_id": "793019c6671219f6c318fbb6cbbe1640", "fusion_lon": 0.0}, {"rental_uris": {"ios": "https://dc.lft.to/lastmile_qr_scan", "android": "https://dc.lft.to/lastmile_qr_scan"}, "type": "electric_scooter", "name": "adb706931de4794c58c4a034635b009d", "is_reserved": 0, "lon": -77.01154683333333, "is_disabled": 0, "fusion_lat": 0.0, "lat": 38.90961216666667, "bike_id": "adb706931de4794c58c4a034635b009d", "fusion_lon": 0.0}, {"rental_uris": {"ios": "https://dc.lft.to/lastmile_qr_scan", "android": "https://dc.lft.to/lastmile_qr_scan"}, "type": "electric_scooter", "name": "366b962ce0ac4f6103af969c9681d2c4", "is_reserved": 0, "lon": -77.039716, "is_disabled": 0, "fusion_lat": 0.0, "lat": 38.93150966666666, "bike_id": "366b962ce0ac4f6103af969c9681d2c4", "fusion_lon": 0.0}, {"rental_uris": {"ios": "https://dc.lft.to/lastmile_qr_scan", "android": "https://dc.lft.to/lastmile_qr_scan"}, "type": "electric_bike", "name": "5f78ebc8179bb0519b4d89d52c92d1f5", "is_reserved": 0, "lon": -77.06949166666666, "is_disabled": 0, "fusion_lat": 0.0, "lat": 38.8362755, "bike_id": "5f78ebc8179bb0519b4d89d52c92d1f5", "fusion_lon": 0.0}, {"rental_uris": {"ios": "https://dc.lft.to/lastmile_qr_scan", "android": "https://dc.lft.to/lastmile_qr_scan"}, "type": "electric_bike", "name": "201af38c3c220cbaa2d0fc2f2b9e6f91", "is_reserved": 0, "lon": -76.99352566666667, "is_disabled": 0, "fusion_lat": 0.0, "lat": 38.845063333333336, "bike_id": "201af38c3c220cbaa2d0fc2f2b9e6f91", "fusion_lon": 0.0}, {"rental_uris": {"ios": "https://dc.lft.to/lastmile_qr_scan", "android": "https://dc.lft.to/lastmile_qr_scan"}, "type": "electric_scooter", "name": "1e458054b7873f4a25c8d3cc77b88d33", "is_reserved": 0, "lon": -77.04901833333334, "is_disabled": 0, "fusion_lat": 0.0, "lat": 38.900902, "bike_id": "1e458054b7873f4a25c8d3cc77b88d33", "fusion_lon": 0.0}, {"rental_uris": {"ios": "https://dc.lft.to/lastmile_qr_scan", "android": "https://dc.lft.to/lastmile_qr_scan"}, "type": "electric_scooter", "name": "dccee155999e46bf2727e34c2c023d55", "is_reserved": 0, "lon": -76.99588733333333, "is_disabled": 0, "fusion_lat": 0.0, "lat": 38.90942716666667, "bike_id": "dccee155999e46bf2727e34c2c023d55", "fusion_lon": 0.0}, {"rental_uris": {"ios": "https://dc.lft.to/lastmile_qr_scan", "android": "https://dc.lft.to/lastmile_qr_scan"}, "type": "electric_scooter", "name": "dff8c3cb8026d241139853b11e4d2f92", "is_reserved": 0, "lon": -77.06087666666667, "is_disabled": 0, "fusion_lat": 0.0, "lat": 38.93997783333333, "bike_id": "dff8c3cb8026d241139853b11e4d2f92", "fusion_lon": 0.0}, {"rental_uris": {"ios": "https://dc.lft.to/lastmile_qr_scan", "android": "https://dc.lft.to/lastmile_qr_scan"}, "type": "electric_scooter", "name": "29aacbf6d55ce918919dcb026a39c11d", "is_reserved": 0, "lon": -77.0685215, "is_disabled": 0, "fusion_lat": 0.0, "lat": 38.904149833333335, "bike_id": "29aacbf6d55ce918919dcb026a39c11d", "fusion_lon": 0.0}, {"rental_uris": {"ios": "https://dc.lft.to/lastmile_qr_scan", "android": "https://dc.lft.to/lastmile_qr_scan"}, "type": "electric_scooter", "name": "cd81de357e27d63e913507ae536732b2", "is_reserved": 0, "lon": -77.04821783333334, "is_disabled": 0, "fusion_lat": 0.0, "lat": 38.914930166666664, "bike_id": "cd81de357e27d63e913507ae536732b2", "fusion_lon": 0.0}, {"rental_uris": {"ios": "https://dc.lft.to/lastmile_qr_scan", "android": "https://dc.lft.to/lastmile_qr_scan"}, "type": "electric_scooter", "name": "addd3e9748d0133446d5d6e9e49a8c41", "is_reserved": 0, "lon": -77.0152385, "is_disabled": 0, "fusion_lat": 0.0, "lat": 38.884855, "bike_id": "addd3e9748d0133446d5d6e9e49a8c41", "fusion_lon": 0.0}, {"rental_uris": {"ios": "https://dc.lft.to/lastmile_qr_scan", "android": "https://dc.lft.to/lastmile_qr_scan"}, "type": "electric_scooter", "name": "8885130847b750b55d1f6d0ad5fa191c", "is_reserved": 0, "lon": -76.97331416666667, "is_disabled": 0, "fusion_lat": 0.0, "lat": 38.90410716666667, "bike_id": "8885130847b750b55d1f6d0ad5fa191c", "fusion_lon": 0.0}, {"rental_uris": {"ios": "https://dc.lft.to/lastmile_qr_scan", "android": "https://dc.lft.to/lastmile_qr_scan"}, "type": "electric_scooter", "name": "051e2f129be5602d60cb462a1a328d4a", "is_reserved": 0, "lon": -77.00714833333333, "is_disabled": 0, "fusion_lat": 0.0, "lat": 38.9053815, "bike_id": "051e2f129be5602d60cb462a1a328d4a", "fusion_lon": 0.0}, {"rental_uris": {"ios": "https://dc.lft.to/lastmile_qr_scan", "android": "https://dc.lft.to/lastmile_qr_scan"}, "type": "electric_scooter", "name": "3b57eeecba084c687043b648560e9bc3", "is_reserved": 0, "lon": -77.03781733333334, "is_disabled": 0, "fusion_lat": 0.0, "lat": 38.92570883333333, "bike_id": "3b57eeecba084c687043b648560e9bc3", "fusion_lon": 0.0}, {"rental_uris": {"ios": "https://dc.lft.to/lastmile_qr_scan", "android": "https://dc.lft.to/lastmile_qr_scan"}, "type": "electric_bike", "name": "9bf4353ac3c1cee86603094df271ca94", "is_reserved": 0, "lon": -77.0724905, "is_disabled": 0, "fusion_lat": 0.0, "lat": 38.8136405, "bike_id": "9bf4353ac3c1cee86603094df271ca94", "fusion_lon": 0.0}, {"rental_uris": {"ios": "https://dc.lft.to/lastmile_qr_scan", "android": "https://dc.lft.to/lastmile_qr_scan"}, "type": "electric_scooter", "name": "ae2ffd7248de0b78cdd5e01e3bbe87cd", "is_reserved": 0, "lon": -77.04399833333333, "is_disabled": 0, "fusion_lat": 0.0, "lat": 38.925959166666665, "bike_id": "ae2ffd7248de0b78cdd5e01e3bbe87cd", "fusion_lon": 0.0}, {"rental_uris": {"ios": "https://dc.lft.to/lastmile_qr_scan", "android": "https://dc.lft.to/lastmile_qr_scan"}, "type": "electric_scooter", "name": "37989bc6ebad0c959ea7ee0071652402", "is_reserved": 0, "lon": -76.99013266666667, "is_disabled": 0, "fusion_lat": 0.0, "lat": 38.903975333333335, "bike_id": "37989bc6ebad0c959ea7ee0071652402", "fusion_lon": 0.0}, {"rental_uris": {"ios": "https://dc.lft.to/lastmile_qr_scan", "android": "https://dc.lft.to/lastmile_qr_scan"}, "type": "electric_scooter", "name": "f928db111a2e4e3a22caa0693fd7578b", "is_reserved": 0, "lon": -77.01924633333333, "is_disabled": 0, "fusion_lat": 0.0, "lat": 38.902330166666665, "bike_id": "f928db111a2e4e3a22caa0693fd7578b", "fusion_lon": 0.0}, {"rental_uris": {"ios": "https://dc.lft.to/lastmile_qr_scan", "android": "https://dc.lft.to/lastmile_qr_scan"}, "type": "electric_scooter", "name": "c8bd82c3603dcf0eb7f9908daff75c63", "is_reserved": 0, "lon": -77.03504333333333, "is_disabled": 0, "fusion_lat": 0.0, "lat": 38.91872383333333, "bike_id": "c8bd82c3603dcf0eb7f9908daff75c63", "fusion_lon": 0.0}, {"rental_uris": {"ios": "https://dc.lft.to/lastmile_qr_scan", "android": "https://dc.lft.to/lastmile_qr_scan"}, "type": "electric_scooter", "name": "1e72cc7e7409e049e571ae0d007fa3f1", "is_reserved": 0, "lon": -77.03723066666667, "is_disabled": 0, "fusion_lat": 0.0, "lat": 38.92652, "bike_id": "1e72cc7e7409e049e571ae0d007fa3f1", "fusion_lon": 0.0}, {"rental_uris": {"ios": "https://dc.lft.to/lastmile_qr_scan", "android": "https://dc.lft.to/lastmile_qr_scan"}, "type": "electric_scooter", "name": "93694b2bc20e0323001fd72da0db31c9", "is_reserved": 0, "lon": -77.00070933333333, "is_disabled": 0, "fusion_lat": 0.0, "lat": 38.87683366666667, "bike_id": "93694b2bc20e0323001fd72da0db31c9", "fusion_lon": 0.0}, {"rental_uris": {"ios": "https://dc.lft.to/lastmile_qr_scan", "android": "https://dc.lft.to/lastmile_qr_scan"}, "type": "electric_scooter", "name": "18a00c5db31eb7e61ec9a0f8c3487da1", "is_reserved": 0, "lon": -77.05360716666667, "is_disabled": 0, "fusion_lat": 0.0, "lat": 38.898839333333335, "bike_id": "18a00c5db31eb7e61ec9a0f8c3487da1", "fusion_lon": 0.0}, {"rental_uris": {"ios": "https://dc.lft.to/lastmile_qr_scan", "android": "https://dc.lft.to/lastmile_qr_scan"}, "type": "electric_scooter", "name": "170ed740d264a757ec5297012583882f", "is_reserved": 0, "lon": -77.02165083333334, "is_disabled": 0, "fusion_lat": 0.0, "lat": 38.92500166666667, "bike_id": "170ed740d264a757ec5297012583882f", "fusion_lon": 0.0}, {"rental_uris": {"ios": "https://dc.lft.to/lastmile_qr_scan", "android": "https://dc.lft.to/lastmile_qr_scan"}, "type": "electric_scooter", "name": "bba8047de359b49ef7cb09602dd3215c", "is_reserved": 0, "lon": -77.032036, "is_disabled": 0, "fusion_lat": 0.0, "lat": 38.916335333333336, "bike_id": "bba8047de359b49ef7cb09602dd3215c", "fusion_lon": 0.0}, {"rental_uris": {"ios": "https://dc.lft.to/lastmile_qr_scan", "android": "https://dc.lft.to/lastmile_qr_scan"}, "type": "electric_scooter", "name": "b8b5f9aaae43adbde2de280aa9a65a6c", "is_reserved": 0, "lon": -77.03362166666666, "is_disabled": 0, "fusion_lat": 0.0, "lat": 38.921612833333334, "bike_id": "b8b5f9aaae43adbde2de280aa9a65a6c", "fusion_lon": 0.0}, {"rental_uris": {"ios": "https://dc.lft.to/lastmile_qr_scan", "android": "https://dc.lft.to/lastmile_qr_scan"}, "type": "electric_scooter", "name": "6fe60e4e24f7f77fa6c45fa43b2899e4", "is_reserved": 0, "lon": -77.0153385, "is_disabled": 0, "fusion_lat": 0.0, "lat": 38.901438, "bike_id": "6fe60e4e24f7f77fa6c45fa43b2899e4", "fusion_lon": 0.0}, {"rental_uris": {"ios": "https://dc.lft.to/lastmile_qr_scan", "android": "https://dc.lft.to/lastmile_qr_scan"}, "type": "electric_scooter", "name": "58b4ac5726e18561fc3114e4ea7b3dc9", "is_reserved": 0, "lon": -77.02410566666667, "is_disabled": 0, "fusion_lat": 0.0, "lat": 38.91717583333333, "bike_id": "58b4ac5726e18561fc3114e4ea7b3dc9", "fusion_lon": 0.0}, {"rental_uris": {"ios": "https://dc.lft.to/lastmile_qr_scan", "android": "https://dc.lft.to/lastmile_qr_scan"}, "type": "electric_scooter", "name": "22827393fa0dbd3e3ae96fd3d003351d", "is_reserved": 0, "lon": -77.03134566666667, "is_disabled": 0, "fusion_lat": 0.0, "lat": 38.92378333333333, "bike_id": "22827393fa0dbd3e3ae96fd3d003351d", "fusion_lon": 0.0}, {"rental_uris": {"ios": "https://dc.lft.to/lastmile_qr_scan", "android": "https://dc.lft.to/lastmile_qr_scan"}, "type": "electric_scooter", "name": "5dc66e7f12be0a14881bdf4c2183503b", "is_reserved": 0, "lon": -77.074054, "is_disabled": 0, "fusion_lat": 0.0, "lat": 38.937484833333336, "bike_id": "5dc66e7f12be0a14881bdf4c2183503b", "fusion_lon": 0.0}, {"rental_uris": {"ios": "https://dc.lft.to/lastmile_qr_scan", "android": "https://dc.lft.to/lastmile_qr_scan"}, "type": "electric_scooter", "name": "7a058b6591606be7843ab58603ea2701", "is_reserved": 0, "lon": -77.02358766666667, "is_disabled": 0, "fusion_lat": 0.0, "lat": 38.945221, "bike_id": "7a058b6591606be7843ab58603ea2701", "fusion_lon": 0.0}, {"rental_uris": {"ios": "https://dc.lft.to/lastmile_qr_scan", "android": "https://dc.lft.to/lastmile_qr_scan"}, "type": "electric_scooter", "name": "f6ca1df47f9c9198d0c156984ec3d93c", "is_reserved": 0, "lon": -76.99389866666667, "is_disabled": 0, "fusion_lat": 0.0, "lat": 38.910148666666664, "bike_id": "f6ca1df47f9c9198d0c156984ec3d93c", "fusion_lon": 0.0}, {"rental_uris": {"ios": "https://dc.lft.to/lastmile_qr_scan", "android": "https://dc.lft.to/lastmile_qr_scan"}, "type": "electric_scooter", "name": "33060675f80f0fd4e1872619b2f2f404", "is_reserved": 0, "lon": -76.99628766666666, "is_disabled": 0, "fusion_lat": 0.0, "lat": 38.9044965, "bike_id": "33060675f80f0fd4e1872619b2f2f404", "fusion_lon": 0.0}, {"rental_uris": {"ios": "https://dc.lft.to/lastmile_qr_scan", "android": "https://dc.lft.to/lastmile_qr_scan"}, "type": "electric_scooter", "name": "74f0a8da0f9b6dad1753088434786957", "is_reserved": 0, "lon": -77.05011683333333, "is_disabled": 0, "fusion_lat": 0.0, "lat": 38.897699833333334, "bike_id": "74f0a8da0f9b6dad1753088434786957", "fusion_lon": 0.0}, {"rental_uris": {"ios": "https://dc.lft.to/lastmile_qr_scan", "android": "https://dc.lft.to/lastmile_qr_scan"}, "type": "electric_scooter", "name": "9d0f0ab6f95f4125b768f8e57602e84a", "is_reserved": 0, "lon": -76.9818805, "is_disabled": 0, "fusion_lat": 0.0, "lat": 38.90583516666667, "bike_id": "9d0f0ab6f95f4125b768f8e57602e84a", "fusion_lon": 0.0}, {"rental_uris": {"ios": "https://dc.lft.to/lastmile_qr_scan", "android": "https://dc.lft.to/lastmile_qr_scan"}, "type": "electric_scooter", "name": "dff4532c439517422d6c9845ccbd1df1", "is_reserved": 0, "lon": -77.0396495, "is_disabled": 0, "fusion_lat": 0.0, "lat": 38.9136, "bike_id": "dff4532c439517422d6c9845ccbd1df1", "fusion_lon": 0.0}, {"rental_uris": {"ios": "https://dc.lft.to/lastmile_qr_scan", "android": "https://dc.lft.to/lastmile_qr_scan"}, "type": "electric_scooter", "name": "9eeae7b38a695c73529d5640c347706b", "is_reserved": 0, "lon": -77.02407416666667, "is_disabled": 0, "fusion_lat": 0.0, "lat": 38.92755966666667, "bike_id": "9eeae7b38a695c73529d5640c347706b", "fusion_lon": 0.0}, {"rental_uris": {"ios": "https://dc.lft.to/lastmile_qr_scan", "android": "https://dc.lft.to/lastmile_qr_scan"}, "type": "electric_scooter", "name": "151f2f12c47704faf64a34b6fa327b93", "is_reserved": 0, "lon": -77.01995633333334, "is_disabled": 0, "fusion_lat": 0.0, "lat": 38.930552166666665, "bike_id": "151f2f12c47704faf64a34b6fa327b93", "fusion_lon": 0.0}, {"rental_uris": {"ios": "https://dc.lft.to/lastmile_qr_scan", "android": "https://dc.lft.to/lastmile_qr_scan"}, "type": "electric_scooter", "name": "949511fd4016595ede81b62d26ff139a", "is_reserved": 0, "lon": -77.0399275, "is_disabled": 0, "fusion_lat": 0.0, "lat": 38.91419116666667, "bike_id": "949511fd4016595ede81b62d26ff139a", "fusion_lon": 0.0}, {"rental_uris": {"ios": "https://dc.lft.to/lastmile_qr_scan", "android": "https://dc.lft.to/lastmile_qr_scan"}, "type": "electric_bike", "name": "d0889d2c214eb4ca4ec7ba027e7e42a3", "is_reserved": 0, "lon": -76.950622, "is_disabled": 0, "fusion_lat": 0.0, "lat": 39.085105166666665, "bike_id": "d0889d2c214eb4ca4ec7ba027e7e42a3", "fusion_lon": 0.0}, {"rental_uris": {"ios": "https://dc.lft.to/lastmile_qr_scan", "android": "https://dc.lft.to/lastmile_qr_scan"}, "type": "electric_bike", "name": "ae2c385413ff2da8c287eda8dd24fdd6", "is_reserved": 0, "lon": -76.98813233333334, "is_disabled": 0, "fusion_lat": 0.0, "lat": 38.84277866666667, "bike_id": "ae2c385413ff2da8c287eda8dd24fdd6", "fusion_lon": 0.0}, {"rental_uris": {"ios": "https://dc.lft.to/lastmile_qr_scan", "android": "https://dc.lft.to/lastmile_qr_scan"}, "type": "electric_scooter", "name": "0aac696ba9d7e2b8ec89520a7a5b04a5", "is_reserved": 0, "lon": -76.98339883333334, "is_disabled": 0, "fusion_lat": 0.0, "lat": 38.900935833333335, "bike_id": "0aac696ba9d7e2b8ec89520a7a5b04a5", "fusion_lon": 0.0}, {"rental_uris": {"ios": "https://dc.lft.to/lastmile_qr_scan", "android": "https://dc.lft.to/lastmile_qr_scan"}, "type": "electric_scooter", "name": "8659938753dd8faf85078fa9c9073240", "is_reserved": 0, "lon": -77.04643816666666, "is_disabled": 0, "fusion_lat": 0.0, "lat": 38.897490166666664, "bike_id": "8659938753dd8faf85078fa9c9073240", "fusion_lon": 0.0}, {"rental_uris": {"ios": "https://dc.lft.to/lastmile_qr_scan", "android": "https://dc.lft.to/lastmile_qr_scan"}, "type": "electric_scooter", "name": "de35e0ef33572ddc5cb5d64d11fd5b05", "is_reserved": 0, "lon": -77.038161, "is_disabled": 0, "fusion_lat": 0.0, "lat": 38.91493333333333, "bike_id": "de35e0ef33572ddc5cb5d64d11fd5b05", "fusion_lon": 0.0}, {"rental_uris": {"ios": "https://dc.lft.to/lastmile_qr_scan", "android": "https://dc.lft.to/lastmile_qr_scan"}, "type": "electric_scooter", "name": "8d75f0aac10a6148c8f837145aca1fb0", "is_reserved": 0, "lon": -77.02831383333333, "is_disabled": 0, "fusion_lat": 0.0, "lat": 38.899502166666664, "bike_id": "8d75f0aac10a6148c8f837145aca1fb0", "fusion_lon": 0.0}, {"rental_uris": {"ios": "https://dc.lft.to/lastmile_qr_scan", "android": "https://dc.lft.to/lastmile_qr_scan"}, "type": "electric_scooter", "name": "e0fd3e7030cdc2a7c5c37f94603a7b07", "is_reserved": 0, "lon": -77.0229325, "is_disabled": 0, "fusion_lat": 0.0, "lat": 38.918457833333335, "bike_id": "e0fd3e7030cdc2a7c5c37f94603a7b07", "fusion_lon": 0.0}, {"rental_uris": {"ios": "https://dc.lft.to/lastmile_qr_scan", "android": "https://dc.lft.to/lastmile_qr_scan"}, "type": "electric_scooter", "name": "21e77238e3eb3981d8ae496afc43c6a9", "is_reserved": 0, "lon": -77.04505616666667, "is_disabled": 0, "fusion_lat": 0.0, "lat": 38.89734683333333, "bike_id": "21e77238e3eb3981d8ae496afc43c6a9", "fusion_lon": 0.0}, {"rental_uris": {"ios": "https://dc.lft.to/lastmile_qr_scan", "android": "https://dc.lft.to/lastmile_qr_scan"}, "type": "electric_scooter", "name": "02e82d0d2e9c80423b59e956fbe79587", "is_reserved": 0, "lon": -77.01709583333333, "is_disabled": 0, "fusion_lat": 0.0, "lat": 38.904731, "bike_id": "02e82d0d2e9c80423b59e956fbe79587", "fusion_lon": 0.0}, {"rental_uris": {"ios": "https://dc.lft.to/lastmile_qr_scan", "android": "https://dc.lft.to/lastmile_qr_scan"}, "type": "electric_scooter", "name": "0495644fc914e61bc08a788bacf8a934", "is_reserved": 0, "lon": -77.01766183333334, "is_disabled": 0, "fusion_lat": 0.0, "lat": 38.88623283333333, "bike_id": "0495644fc914e61bc08a788bacf8a934", "fusion_lon": 0.0}, {"rental_uris": {"ios": "https://dc.lft.to/lastmile_qr_scan", "android": "https://dc.lft.to/lastmile_qr_scan"}, "type": "electric_scooter", "name": "12deea27111f446ccbc49effbebcf36e", "is_reserved": 0, "lon": -77.02592616666666, "is_disabled": 0, "fusion_lat": 0.0, "lat": 38.91402633333333, "bike_id": "12deea27111f446ccbc49effbebcf36e", "fusion_lon": 0.0}, {"rental_uris": {"ios": "https://dc.lft.to/lastmile_qr_scan", "android": "https://dc.lft.to/lastmile_qr_scan"}, "type": "electric_scooter", "name": "5982f3f9490383821945809b18fe76f7", "is_reserved": 0, "lon": -77.03346216666667, "is_disabled": 0, "fusion_lat": 0.0, "lat": 38.928771, "bike_id": "5982f3f9490383821945809b18fe76f7", "fusion_lon": 0.0}, {"rental_uris": {"ios": "https://dc.lft.to/lastmile_qr_scan", "android": "https://dc.lft.to/lastmile_qr_scan"}, "type": "electric_scooter", "name": "d13ebc1bc5c4b3c8fcb74e2d1d90dd78", "is_reserved": 0, "lon": -77.01062483333334, "is_disabled": 0, "fusion_lat": 0.0, "lat": 38.911929666666666, "bike_id": "d13ebc1bc5c4b3c8fcb74e2d1d90dd78", "fusion_lon": 0.0}, {"rental_uris": {"ios": "https://dc.lft.to/lastmile_qr_scan", "android": "https://dc.lft.to/lastmile_qr_scan"}, "type": "electric_scooter", "name": "5992c9347d57a8a4aaf6ad097f7d2e67", "is_reserved": 0, "lon": -77.03639866666667, "is_disabled": 0, "fusion_lat": 0.0, "lat": 38.92484866666667, "bike_id": "5992c9347d57a8a4aaf6ad097f7d2e67", "fusion_lon": 0.0}, {"rental_uris": {"ios": "https://dc.lft.to/lastmile_qr_scan", "android": "https://dc.lft.to/lastmile_qr_scan"}, "type": "electric_scooter", "name": "5ad2d72dfcbc893e444f14c907ec76e9", "is_reserved": 0, "lon": -77.02019033333333, "is_disabled": 0, "fusion_lat": 0.0, "lat": 38.9232955, "bike_id": "5ad2d72dfcbc893e444f14c907ec76e9", "fusion_lon": 0.0}, {"rental_uris": {"ios": "https://dc.lft.to/lastmile_qr_scan", "android": "https://dc.lft.to/lastmile_qr_scan"}, "type": "electric_scooter", "name": "edfcc86fd14562e6232e0724c4efa216", "is_reserved": 0, "lon": -77.00321133333334, "is_disabled": 0, "fusion_lat": 0.0, "lat": 38.908963, "bike_id": "edfcc86fd14562e6232e0724c4efa216", "fusion_lon": 0.0}, {"rental_uris": {"ios": "https://dc.lft.to/lastmile_qr_scan", "android": "https://dc.lft.to/lastmile_qr_scan"}, "type": "electric_scooter", "name": "a217ce06a0eadf419425ae59a742001a", "is_reserved": 0, "lon": -77.00556033333334, "is_disabled": 0, "fusion_lat": 0.0, "lat": 38.911864333333334, "bike_id": "a217ce06a0eadf419425ae59a742001a", "fusion_lon": 0.0}, {"rental_uris": {"ios": "https://dc.lft.to/lastmile_qr_scan", "android": "https://dc.lft.to/lastmile_qr_scan"}, "type": "electric_scooter", "name": "6c5270429d21a4eabe2cf7ecfa0da9c9", "is_reserved": 0, "lon": -77.04036866666667, "is_disabled": 0, "fusion_lat": 0.0, "lat": 38.92443, "bike_id": "6c5270429d21a4eabe2cf7ecfa0da9c9", "fusion_lon": 0.0}, {"rental_uris": {"ios": "https://dc.lft.to/lastmile_qr_scan", "android": "https://dc.lft.to/lastmile_qr_scan"}, "type": "electric_scooter", "name": "20e59e8c99606a54ff081660d04d2072", "is_reserved": 0, "lon": -76.9849445, "is_disabled": 0, "fusion_lat": 0.0, "lat": 38.90367833333333, "bike_id": "20e59e8c99606a54ff081660d04d2072", "fusion_lon": 0.0}, {"rental_uris": {"ios": "https://dc.lft.to/lastmile_qr_scan", "android": "https://dc.lft.to/lastmile_qr_scan"}, "type": "electric_scooter", "name": "7e25c7b82927fa8b3520d19bdfcf8993", "is_reserved": 0, "lon": -77.01139683333334, "is_disabled": 0, "fusion_lat": 0.0, "lat": 38.90647233333333, "bike_id": "7e25c7b82927fa8b3520d19bdfcf8993", "fusion_lon": 0.0}, {"rental_uris": {"ios": "https://dc.lft.to/lastmile_qr_scan", "android": "https://dc.lft.to/lastmile_qr_scan"}, "type": "electric_scooter", "name": "f4b4ba131434c53bdd9e1ee939e12735", "is_reserved": 0, "lon": -77.03668783333333, "is_disabled": 0, "fusion_lat": 0.0, "lat": 38.92368866666666, "bike_id": "f4b4ba131434c53bdd9e1ee939e12735", "fusion_lon": 0.0}, {"rental_uris": {"ios": "https://dc.lft.to/lastmile_qr_scan", "android": "https://dc.lft.to/lastmile_qr_scan"}, "type": "electric_scooter", "name": "e3783d9df7f3e38fa90584f19d3f0b55", "is_reserved": 0, "lon": -77.03279983333333, "is_disabled": 0, "fusion_lat": 0.0, "lat": 38.904493, "bike_id": "e3783d9df7f3e38fa90584f19d3f0b55", "fusion_lon": 0.0}, {"rental_uris": {"ios": "https://dc.lft.to/lastmile_qr_scan", "android": "https://dc.lft.to/lastmile_qr_scan"}, "type": "electric_scooter", "name": "4af0131be096501d96732eff8ad44d12", "is_reserved": 0, "lon": -77.02358466666666, "is_disabled": 0, "fusion_lat": 0.0, "lat": 38.94197966666667, "bike_id": "4af0131be096501d96732eff8ad44d12", "fusion_lon": 0.0}, {"rental_uris": {"ios": "https://dc.lft.to/lastmile_qr_scan", "android": "https://dc.lft.to/lastmile_qr_scan"}, "type": "electric_scooter", "name": "f7e2ca371ac47e80875d698f7fcec863", "is_reserved": 0, "lon": -77.01450216666667, "is_disabled": 0, "fusion_lat": 0.0, "lat": 38.91772316666667, "bike_id": "f7e2ca371ac47e80875d698f7fcec863", "fusion_lon": 0.0}, {"rental_uris": {"ios": "https://dc.lft.to/lastmile_qr_scan", "android": "https://dc.lft.to/lastmile_qr_scan"}, "type": "electric_scooter", "name": "13024b709d388d99c4e0344dee609def", "is_reserved": 0, "lon": -77.00596616666667, "is_disabled": 0, "fusion_lat": 0.0, "lat": 38.90701766666667, "bike_id": "13024b709d388d99c4e0344dee609def", "fusion_lon": 0.0}, {"rental_uris": {"ios": "https://dc.lft.to/lastmile_qr_scan", "android": "https://dc.lft.to/lastmile_qr_scan"}, "type": "electric_scooter", "name": "bbd92c23d59b6692b3d3e3606a8afa80", "is_reserved": 0, "lon": -76.92896816666666, "is_disabled": 0, "fusion_lat": 0.0, "lat": 38.8794525, "bike_id": "bbd92c23d59b6692b3d3e3606a8afa80", "fusion_lon": 0.0}, {"rental_uris": {"ios": "https://dc.lft.to/lastmile_qr_scan", "android": "https://dc.lft.to/lastmile_qr_scan"}, "type": "electric_scooter", "name": "f3a9c236cc5752a9e44b131f5f130f30", "is_reserved": 0, "lon": -77.00044533333333, "is_disabled": 0, "fusion_lat": 0.0, "lat": 38.9001285, "bike_id": "f3a9c236cc5752a9e44b131f5f130f30", "fusion_lon": 0.0}, {"rental_uris": {"ios": "https://dc.lft.to/lastmile_qr_scan", "android": "https://dc.lft.to/lastmile_qr_scan"}, "type": "electric_scooter", "name": "5f7600a0c479f78c47b286f5d75d5f69", "is_reserved": 0, "lon": -77.002069, "is_disabled": 0, "fusion_lat": 0.0, "lat": 38.9119385, "bike_id": "5f7600a0c479f78c47b286f5d75d5f69", "fusion_lon": 0.0}, {"rental_uris": {"ios": "https://dc.lft.to/lastmile_qr_scan", "android": "https://dc.lft.to/lastmile_qr_scan"}, "type": "electric_scooter", "name": "6cb9138148aaf681e777b20cd19eb909", "is_reserved": 0, "lon": -77.05531116666667, "is_disabled": 0, "fusion_lat": 0.0, "lat": 38.91003083333333, "bike_id": "6cb9138148aaf681e777b20cd19eb909", "fusion_lon": 0.0}, {"rental_uris": {"ios": "https://dc.lft.to/lastmile_qr_scan", "android": "https://dc.lft.to/lastmile_qr_scan"}, "type": "electric_scooter", "name": "15147fbe8f6e23613b84ada2deb28b95", "is_reserved": 0, "lon": -77.01500316666667, "is_disabled": 0, "fusion_lat": 0.0, "lat": 38.92669466666667, "bike_id": "15147fbe8f6e23613b84ada2deb28b95", "fusion_lon": 0.0}, {"rental_uris": {"ios": "https://dc.lft.to/lastmile_qr_scan", "android": "https://dc.lft.to/lastmile_qr_scan"}, "type": "electric_scooter", "name": "e6854fbb8e314bf5abf7c8f138493d1c", "is_reserved": 0, "lon": -76.98996083333333, "is_disabled": 0, "fusion_lat": 0.0, "lat": 38.86423666666666, "bike_id": "e6854fbb8e314bf5abf7c8f138493d1c", "fusion_lon": 0.0}, {"rental_uris": {"ios": "https://dc.lft.to/lastmile_qr_scan", "android": "https://dc.lft.to/lastmile_qr_scan"}, "type": "electric_scooter", "name": "59615ec1876b04e8257954fdeab6f541", "is_reserved": 0, "lon": -77.03827333333334, "is_disabled": 0, "fusion_lat": 0.0, "lat": 38.962658, "bike_id": "59615ec1876b04e8257954fdeab6f541", "fusion_lon": 0.0}, {"rental_uris": {"ios": "https://dc.lft.to/lastmile_qr_scan", "android": "https://dc.lft.to/lastmile_qr_scan"}, "type": "electric_bike", "name": "be19b7877fc4c4e78b4a76417d492a64", "is_reserved": 0, "lon": -76.94153483333334, "is_disabled": 0, "fusion_lat": 0.0, "lat": 38.8902545, "bike_id": "be19b7877fc4c4e78b4a76417d492a64", "fusion_lon": 0.0}, {"rental_uris": {"ios": "https://dc.lft.to/lastmile_qr_scan", "android": "https://dc.lft.to/lastmile_qr_scan"}, "type": "electric_scooter", "name": "69877b203391be12adce9515b7cc198a", "is_reserved": 0, "lon": -77.046004, "is_disabled": 0, "fusion_lat": 0.0, "lat": 38.918592333333336, "bike_id": "69877b203391be12adce9515b7cc198a", "fusion_lon": 0.0}, {"rental_uris": {"ios": "https://dc.lft.to/lastmile_qr_scan", "android": "https://dc.lft.to/lastmile_qr_scan"}, "type": "electric_scooter", "name": "139668907f6fe017dbeea560cbc24bd0", "is_reserved": 0, "lon": -76.99922433333333, "is_disabled": 0, "fusion_lat": 0.0, "lat": 38.90054266666667, "bike_id": "139668907f6fe017dbeea560cbc24bd0", "fusion_lon": 0.0}, {"rental_uris": {"ios": "https://dc.lft.to/lastmile_qr_scan", "android": "https://dc.lft.to/lastmile_qr_scan"}, "type": "electric_scooter", "name": "95737be18dcc8b5ad7d5af9d7568c183", "is_reserved": 0, "lon": -77.038607, "is_disabled": 0, "fusion_lat": 0.0, "lat": 38.917134, "bike_id": "95737be18dcc8b5ad7d5af9d7568c183", "fusion_lon": 0.0}, {"rental_uris": {"ios": "https://dc.lft.to/lastmile_qr_scan", "android": "https://dc.lft.to/lastmile_qr_scan"}, "type": "electric_scooter", "name": "96038e64fe5529c3a178568c6f28bc86", "is_reserved": 0, "lon": -77.02166333333334, "is_disabled": 0, "fusion_lat": 0.0, "lat": 38.9249915, "bike_id": "96038e64fe5529c3a178568c6f28bc86", "fusion_lon": 0.0}, {"rental_uris": {"ios": "https://dc.lft.to/lastmile_qr_scan", "android": "https://dc.lft.to/lastmile_qr_scan"}, "type": "electric_scooter", "name": "b065c646b29a32d853cf5368b097c369", "is_reserved": 0, "lon": -77.04370883333333, "is_disabled": 0, "fusion_lat": 0.0, "lat": 38.892234333333334, "bike_id": "b065c646b29a32d853cf5368b097c369", "fusion_lon": 0.0}, {"rental_uris": {"ios": "https://dc.lft.to/lastmile_qr_scan", "android": "https://dc.lft.to/lastmile_qr_scan"}, "type": "electric_scooter", "name": "162d69dd33ec87744b276d7175a7ba47", "is_reserved": 0, "lon": -77.05816716666666, "is_disabled": 0, "fusion_lat": 0.0, "lat": 38.935218166666665, "bike_id": "162d69dd33ec87744b276d7175a7ba47", "fusion_lon": 0.0}, {"rental_uris": {"ios": "https://dc.lft.to/lastmile_qr_scan", "android": "https://dc.lft.to/lastmile_qr_scan"}, "type": "electric_bike", "name": "a289ec5bd2104364a870bb9734dde7c3", "is_reserved": 0, "lon": -77.12935616666667, "is_disabled": 0, "fusion_lat": 0.0, "lat": 38.865886833333334, "bike_id": "a289ec5bd2104364a870bb9734dde7c3", "fusion_lon": 0.0}, {"rental_uris": {"ios": "https://dc.lft.to/lastmile_qr_scan", "android": "https://dc.lft.to/lastmile_qr_scan"}, "type": "electric_scooter", "name": "bc6996412eabde1b865c543983ed487e", "is_reserved": 0, "lon": -77.07033216666666, "is_disabled": 0, "fusion_lat": 0.0, "lat": 38.893185333333335, "bike_id": "bc6996412eabde1b865c543983ed487e", "fusion_lon": 0.0}, {"rental_uris": {"ios": "https://dc.lft.to/lastmile_qr_scan", "android": "https://dc.lft.to/lastmile_qr_scan"}, "type": "electric_scooter", "name": "8de84f33675002a1386060a2eb9f2d00", "is_reserved": 0, "lon": -77.00039033333333, "is_disabled": 0, "fusion_lat": 0.0, "lat": 38.87457716666667, "bike_id": "8de84f33675002a1386060a2eb9f2d00", "fusion_lon": 0.0}, {"rental_uris": {"ios": "https://dc.lft.to/lastmile_qr_scan", "android": "https://dc.lft.to/lastmile_qr_scan"}, "type": "electric_scooter", "name": "51653e947540bb4ce2b47e685127855a", "is_reserved": 0, "lon": -76.93188666666667, "is_disabled": 0, "fusion_lat": 0.0, "lat": 38.8987865, "bike_id": "51653e947540bb4ce2b47e685127855a", "fusion_lon": 0.0}, {"rental_uris": {"ios": "https://dc.lft.to/lastmile_qr_scan", "android": "https://dc.lft.to/lastmile_qr_scan"}, "type": "electric_scooter", "name": "e85100af71d35bbc9ee9b5019f2eb3f9", "is_reserved": 0, "lon": -77.0247715, "is_disabled": 0, "fusion_lat": 0.0, "lat": 38.91817533333333, "bike_id": "e85100af71d35bbc9ee9b5019f2eb3f9", "fusion_lon": 0.0}, {"rental_uris": {"ios": "https://dc.lft.to/lastmile_qr_scan", "android": "https://dc.lft.to/lastmile_qr_scan"}, "type": "electric_scooter", "name": "f02109ac9c96f0d5df8f3fce4c24bfca", "is_reserved": 0, "lon": -77.04573416666666, "is_disabled": 0, "fusion_lat": 0.0, "lat": 38.90962366666667, "bike_id": "f02109ac9c96f0d5df8f3fce4c24bfca", "fusion_lon": 0.0}, {"rental_uris": {"ios": "https://dc.lft.to/lastmile_qr_scan", "android": "https://dc.lft.to/lastmile_qr_scan"}, "type": "electric_scooter", "name": "6ed3cc0537dc0e8c055480e2b36dc528", "is_reserved": 0, "lon": -77.04388733333333, "is_disabled": 0, "fusion_lat": 0.0, "lat": 38.92359016666666, "bike_id": "6ed3cc0537dc0e8c055480e2b36dc528", "fusion_lon": 0.0}, {"rental_uris": {"ios": "https://dc.lft.to/lastmile_qr_scan", "android": "https://dc.lft.to/lastmile_qr_scan"}, "type": "electric_scooter", "name": "1f80972dbb6a3a4454f40642e618a9d7", "is_reserved": 0, "lon": -76.9803215, "is_disabled": 0, "fusion_lat": 0.0, "lat": 38.916805833333335, "bike_id": "1f80972dbb6a3a4454f40642e618a9d7", "fusion_lon": 0.0}, {"rental_uris": {"ios": "https://dc.lft.to/lastmile_qr_scan", "android": "https://dc.lft.to/lastmile_qr_scan"}, "type": "electric_scooter", "name": "30da6b9a120bf3a72dc1cd049f87c082", "is_reserved": 0, "lon": -77.04925583333333, "is_disabled": 0, "fusion_lat": 0.0, "lat": 38.919368, "bike_id": "30da6b9a120bf3a72dc1cd049f87c082", "fusion_lon": 0.0}, {"rental_uris": {"ios": "https://dc.lft.to/lastmile_qr_scan", "android": "https://dc.lft.to/lastmile_qr_scan"}, "type": "electric_scooter", "name": "3fb4927285cd3d993dcc30d4b6126b0b", "is_reserved": 0, "lon": -77.03710266666667, "is_disabled": 0, "fusion_lat": 0.0, "lat": 38.914843833333336, "bike_id": "3fb4927285cd3d993dcc30d4b6126b0b", "fusion_lon": 0.0}, {"rental_uris": {"ios": "https://dc.lft.to/lastmile_qr_scan", "android": "https://dc.lft.to/lastmile_qr_scan"}, "type": "electric_scooter", "name": "15b2566b00cf4321348845476db8aa7b", "is_reserved": 0, "lon": -77.0387255, "is_disabled": 0, "fusion_lat": 0.0, "lat": 38.921487666666664, "bike_id": "15b2566b00cf4321348845476db8aa7b", "fusion_lon": 0.0}, {"rental_uris": {"ios": "https://dc.lft.to/lastmile_qr_scan", "android": "https://dc.lft.to/lastmile_qr_scan"}, "type": "electric_bike", "name": "c6762c5a80e80cb6bf147783b64318c2", "is_reserved": 0, "lon": -76.941656, "is_disabled": 0, "fusion_lat": 0.0, "lat": 38.865553166666665, "bike_id": "c6762c5a80e80cb6bf147783b64318c2", "fusion_lon": 0.0}, {"rental_uris": {"ios": "https://dc.lft.to/lastmile_qr_scan", "android": "https://dc.lft.to/lastmile_qr_scan"}, "type": "electric_scooter", "name": "16618ade4ab96b9d6f0d3d8bc124f948", "is_reserved": 0, "lon": -77.00986333333333, "is_disabled": 0, "fusion_lat": 0.0, "lat": 38.872949, "bike_id": "16618ade4ab96b9d6f0d3d8bc124f948", "fusion_lon": 0.0}, {"rental_uris": {"ios": "https://dc.lft.to/lastmile_qr_scan", "android": "https://dc.lft.to/lastmile_qr_scan"}, "type": "electric_scooter", "name": "789de9db0f32098236c32b2bd48c2969", "is_reserved": 0, "lon": -77.0336205, "is_disabled": 0, "fusion_lat": 0.0, "lat": 38.91062183333333, "bike_id": "789de9db0f32098236c32b2bd48c2969", "fusion_lon": 0.0}, {"rental_uris": {"ios": "https://dc.lft.to/lastmile_qr_scan", "android": "https://dc.lft.to/lastmile_qr_scan"}, "type": "electric_scooter", "name": "f7b9430724c108098949ac66774ca6d9", "is_reserved": 0, "lon": -77.01734416666666, "is_disabled": 0, "fusion_lat": 0.0, "lat": 38.912472, "bike_id": "f7b9430724c108098949ac66774ca6d9", "fusion_lon": 0.0}, {"rental_uris": {"ios": "https://dc.lft.to/lastmile_qr_scan", "android": "https://dc.lft.to/lastmile_qr_scan"}, "type": "electric_scooter", "name": "3711ed3c71dc0b7a21b6669368afc56a", "is_reserved": 0, "lon": -77.045161, "is_disabled": 0, "fusion_lat": 0.0, "lat": 38.90784883333333, "bike_id": "3711ed3c71dc0b7a21b6669368afc56a", "fusion_lon": 0.0}, {"rental_uris": {"ios": "https://dc.lft.to/lastmile_qr_scan", "android": "https://dc.lft.to/lastmile_qr_scan"}, "type": "electric_scooter", "name": "1184e47e6361efb5085a74c06b9947db", "is_reserved": 0, "lon": -77.0515865, "is_disabled": 0, "fusion_lat": 0.0, "lat": 38.90647466666667, "bike_id": "1184e47e6361efb5085a74c06b9947db", "fusion_lon": 0.0}, {"rental_uris": {"ios": "https://dc.lft.to/lastmile_qr_scan", "android": "https://dc.lft.to/lastmile_qr_scan"}, "type": "electric_bike", "name": "40471aafe38ce167d2d4f5f2b827c0cf", "is_reserved": 0, "lon": -77.126552, "is_disabled": 0, "fusion_lat": 0.0, "lat": 38.819143333333336, "bike_id": "40471aafe38ce167d2d4f5f2b827c0cf", "fusion_lon": 0.0}, {"rental_uris": {"ios": "https://dc.lft.to/lastmile_qr_scan", "android": "https://dc.lft.to/lastmile_qr_scan"}, "type": "electric_scooter", "name": "0a1bbc3cbfe01c7007319c8bf8816227", "is_reserved": 0, "lon": -77.034136, "is_disabled": 0, "fusion_lat": 0.0, "lat": 38.922065, "bike_id": "0a1bbc3cbfe01c7007319c8bf8816227", "fusion_lon": 0.0}, {"rental_uris": {"ios": "https://dc.lft.to/lastmile_qr_scan", "android": "https://dc.lft.to/lastmile_qr_scan"}, "type": "electric_scooter", "name": "406319f35020cb19e161ec0344ca9759", "is_reserved": 0, "lon": -77.06631783333333, "is_disabled": 0, "fusion_lat": 0.0, "lat": 38.90516616666667, "bike_id": "406319f35020cb19e161ec0344ca9759", "fusion_lon": 0.0}, {"rental_uris": {"ios": "https://dc.lft.to/lastmile_qr_scan", "android": "https://dc.lft.to/lastmile_qr_scan"}, "type": "electric_scooter", "name": "f44ca08114484c971d7586960822eb0f", "is_reserved": 0, "lon": -76.9850535, "is_disabled": 0, "fusion_lat": 0.0, "lat": 38.8800155, "bike_id": "f44ca08114484c971d7586960822eb0f", "fusion_lon": 0.0}, {"rental_uris": {"ios": "https://dc.lft.to/lastmile_qr_scan", "android": "https://dc.lft.to/lastmile_qr_scan"}, "type": "electric_scooter", "name": "14c72eaa8f3aff25d8a8ab94e7667dbb", "is_reserved": 0, "lon": -77.005508, "is_disabled": 0, "fusion_lat": 0.0, "lat": 38.87643633333333, "bike_id": "14c72eaa8f3aff25d8a8ab94e7667dbb", "fusion_lon": 0.0}, {"rental_uris": {"ios": "https://dc.lft.to/lastmile_qr_scan", "android": "https://dc.lft.to/lastmile_qr_scan"}, "type": "electric_bike", "name": "0c3c98abd613819e40526e091b2c488b", "is_reserved": 0, "lon": -77.08531433333333, "is_disabled": 0, "fusion_lat": 0.0, "lat": 38.85654233333333, "bike_id": "0c3c98abd613819e40526e091b2c488b", "fusion_lon": 0.0}, {"rental_uris": {"ios": "https://dc.lft.to/lastmile_qr_scan", "android": "https://dc.lft.to/lastmile_qr_scan"}, "type": "electric_scooter", "name": "77b6526f7935ebb2f5e5e555b3a93c32", "is_reserved": 0, "lon": -77.02506716666667, "is_disabled": 0, "fusion_lat": 0.0, "lat": 38.9354615, "bike_id": "77b6526f7935ebb2f5e5e555b3a93c32", "fusion_lon": 0.0}, {"rental_uris": {"ios": "https://dc.lft.to/lastmile_qr_scan", "android": "https://dc.lft.to/lastmile_qr_scan"}, "type": "electric_scooter", "name": "480bb094fed92c798ee62769724d9fe5", "is_reserved": 0, "lon": -77.059174, "is_disabled": 0, "fusion_lat": 0.0, "lat": 38.90274466666666, "bike_id": "480bb094fed92c798ee62769724d9fe5", "fusion_lon": 0.0}, {"rental_uris": {"ios": "https://dc.lft.to/lastmile_qr_scan", "android": "https://dc.lft.to/lastmile_qr_scan"}, "type": "electric_scooter", "name": "1c958940925d4f90b494cf2337d90c51", "is_reserved": 0, "lon": -77.02585216666667, "is_disabled": 0, "fusion_lat": 0.0, "lat": 38.887150166666665, "bike_id": "1c958940925d4f90b494cf2337d90c51", "fusion_lon": 0.0}, {"rental_uris": {"ios": "https://dc.lft.to/lastmile_qr_scan", "android": "https://dc.lft.to/lastmile_qr_scan"}, "type": "electric_scooter", "name": "1821aab4448418fe7c9dae850b74be50", "is_reserved": 0, "lon": -77.034984, "is_disabled": 0, "fusion_lat": 0.0, "lat": 38.9156285, "bike_id": "1821aab4448418fe7c9dae850b74be50", "fusion_lon": 0.0}, {"rental_uris": {"ios": "https://dc.lft.to/lastmile_qr_scan", "android": "https://dc.lft.to/lastmile_qr_scan"}, "type": "electric_scooter", "name": "d39afe101734e0e5d1ba01ac0688a716", "is_reserved": 0, "lon": -77.047374, "is_disabled": 0, "fusion_lat": 0.0, "lat": 38.89555433333334, "bike_id": "d39afe101734e0e5d1ba01ac0688a716", "fusion_lon": 0.0}, {"rental_uris": {"ios": "https://dc.lft.to/lastmile_qr_scan", "android": "https://dc.lft.to/lastmile_qr_scan"}, "type": "electric_scooter", "name": "f864ba0f5625d2a26163e872c37ce1c2", "is_reserved": 0, "lon": -77.010235, "is_disabled": 0, "fusion_lat": 0.0, "lat": 38.9125595, "bike_id": "f864ba0f5625d2a26163e872c37ce1c2", "fusion_lon": 0.0}, {"rental_uris": {"ios": "https://dc.lft.to/lastmile_qr_scan", "android": "https://dc.lft.to/lastmile_qr_scan"}, "type": "electric_scooter", "name": "fcfae4ee8aff8ef4d92c7b3d78ab4566", "is_reserved": 0, "lon": -77.0269675, "is_disabled": 0, "fusion_lat": 0.0, "lat": 38.908411, "bike_id": "fcfae4ee8aff8ef4d92c7b3d78ab4566", "fusion_lon": 0.0}, {"rental_uris": {"ios": "https://dc.lft.to/lastmile_qr_scan", "android": "https://dc.lft.to/lastmile_qr_scan"}, "type": "electric_scooter", "name": "5234c553e065999a8a08d1e58dca708f", "is_reserved": 0, "lon": -77.01834933333333, "is_disabled": 0, "fusion_lat": 0.0, "lat": 38.9053625, "bike_id": "5234c553e065999a8a08d1e58dca708f", "fusion_lon": 0.0}, {"rental_uris": {"ios": "https://dc.lft.to/lastmile_qr_scan", "android": "https://dc.lft.to/lastmile_qr_scan"}, "type": "electric_scooter", "name": "f62cff32dfdc7b4e25e9ce66a36bdb60", "is_reserved": 0, "lon": -77.03787616666666, "is_disabled": 0, "fusion_lat": 0.0, "lat": 38.923378, "bike_id": "f62cff32dfdc7b4e25e9ce66a36bdb60", "fusion_lon": 0.0}, {"rental_uris": {"ios": "https://dc.lft.to/lastmile_qr_scan", "android": "https://dc.lft.to/lastmile_qr_scan"}, "type": "electric_scooter", "name": "73418ab264139535357060626983daf3", "is_reserved": 0, "lon": -77.03212716666667, "is_disabled": 0, "fusion_lat": 0.0, "lat": 38.906963166666664, "bike_id": "73418ab264139535357060626983daf3", "fusion_lon": 0.0}, {"rental_uris": {"ios": "https://dc.lft.to/lastmile_qr_scan", "android": "https://dc.lft.to/lastmile_qr_scan"}, "type": "electric_scooter", "name": "0590c384a212c84653dc542af74a5d8c", "is_reserved": 0, "lon": -77.0092275, "is_disabled": 0, "fusion_lat": 0.0, "lat": 38.912429, "bike_id": "0590c384a212c84653dc542af74a5d8c", "fusion_lon": 0.0}, {"rental_uris": {"ios": "https://dc.lft.to/lastmile_qr_scan", "android": "https://dc.lft.to/lastmile_qr_scan"},