{"data": {"bikes": [{"bike_id": "d60ee768b0e13ebe188daa52a226c247", "type": "electric_scooter", "is_disabled": 0, "lat": 38.9048385, "rental_uris": {"ios": "https://dc.lft.to/lastmile_qr_scan", "android": "https://dc.lft.to/lastmile_qr_scan"}, "is_reserved": 0, "fusion_lon": 0.0, "fusion_lat": 0.0, "lon": -77.02950583333333, "name": "d60ee768b0e13ebe188daa52a226c247"}, {"bike_id": "137ade9422fd6200cb3ce90aad0ca370", "type": "electric_scooter", "is_disabled": 0, "lat": 38.9288945, "rental_uris": {"ios": "https://dc.lft.to/lastmile_qr_scan", "android": "https://dc.lft.to/lastmile_qr_scan"}, "is_reserved": 0, "fusion_lon": 0.0, "fusion_lat": 0.0, "lon": -77.02709133333333, "name": "137ade9422fd6200cb3ce90aad0ca370"}, {"bike_id": "7248a5d4fa165da02b4c8f897352b51a", "type": "electric_scooter", "is_disabled": 0, "lat": 38.89740166666667, "rental_uris": {"ios": "https://dc.lft.to/lastmile_qr_scan", "android": "https://dc.lft.to/lastmile_qr_scan"}, "is_reserved": 0, "fusion_lon": 0.0, "fusion_lat": 0.0, "lon": -76.94727316666666, "name": "7248a5d4fa165da02b4c8f897352b51a"}, {"bike_id": "948f6ef3c50870f15931e56b0aa9b6ad", "type": "electric_scooter", "is_disabled": 0, "lat": 38.907265, "rental_uris": {"ios": "https://dc.lft.to/lastmile_qr_scan", "android": "https://dc.lft.to/lastmile_qr_scan"}, "is_reserved": 0, "fusion_lon": 0.0, "fusion_lat": 0.0, "lon": -77.02980316666667, "name": "948f6ef3c50870f15931e56b0aa9b6ad"}, {"bike_id": "5c0368388dcd5098db281e5ebf166d35", "type": "electric_scooter", "is_disabled": 0, "lat": 38.90358583333333, "rental_uris": {"ios": "https://dc.lft.to/lastmile_qr_scan", "android": "https://dc.lft.to/lastmile_qr_scan"}, "is_reserved": 0, "fusion_lon": 0.0, "fusion_lat": 0.0, "lon": -77.03531666666667, "name": "5c0368388dcd5098db281e5ebf166d35"}, {"bike_id": "eeb5c787b5c2f5a9d91702bbbbf6c110", "type": "electric_scooter", "is_disabled": 0, "lat": 38.90049333333333, "rental_uris": {"ios": "https://dc.lft.to/lastmile_qr_scan", "android": "https://dc.lft.to/lastmile_qr_scan"}, "is_reserved": 0, "fusion_lon": 0.0, "fusion_lat": 0.0, "lon": -77.00072283333333, "name": "eeb5c787b5c2f5a9d91702bbbbf6c110"}, {"bike_id": "90ce3fa739e928af9cf0311dcd113a60", "type": "electric_scooter", "is_disabled": 0, "lat": 38.915348, "rental_uris": {"ios": "https://dc.lft.to/lastmile_qr_scan", "android": "https://dc.lft.to/lastmile_qr_scan"}, "is_reserved": 0, "fusion_lon": 0.0, "fusion_lat": 0.0, "lon": -77.02184183333334, "name": "90ce3fa739e928af9cf0311dcd113a60"}, {"bike_id": "1bade73bd6615f87d63dff8eac74e127", "type": "electric_scooter", "is_disabled": 0, "lat": 38.941424166666664, "rental_uris": {"ios": "https://dc.lft.to/lastmile_qr_scan", "android": "https://dc.lft.to/lastmile_qr_scan"}, "is_reserved": 0, "fusion_lon": 0.0, "fusion_lat": 0.0, "lon": -77.02325416666666, "name": "1bade73bd6615f87d63dff8eac74e127"}, {"bike_id": "d7a38a57d08dbcd29a218ebcb8beab13", "type": "electric_scooter", "is_disabled": 0, "lat": 38.91428033333333, "rental_uris": {"ios": "https://dc.lft.to/lastmile_qr_scan", "android": "https://dc.lft.to/lastmile_qr_scan"}, "is_reserved": 0, "fusion_lon": 0.0, "fusion_lat": 0.0, "lon": -77.031822, "name": "d7a38a57d08dbcd29a218ebcb8beab13"}, {"bike_id": "9225d256975738aacf3018521b263a15", "type": "electric_scooter", "is_disabled": 0, "lat": 38.895300166666665, "rental_uris": {"ios": "https://dc.lft.to/lastmile_qr_scan", "android": "https://dc.lft.to/lastmile_qr_scan"}, "is_reserved": 0, "fusion_lon": 0.0, "fusion_lat": 0.0, "lon": -76.94890816666667, "name": "9225d256975738aacf3018521b263a15"}, {"bike_id": "0cb074be2f32718d432289a9283977db", "type": "electric_scooter", "is_disabled": 0, "lat": 38.929775166666666, "rental_uris": {"ios": "https://dc.lft.to/lastmile_qr_scan", "android": "https://dc.lft.to/lastmile_qr_scan"}, "is_reserved": 0, "fusion_lon": 0.0, "fusion_lat": 0.0, "lon": -77.01304916666666, "name": "0cb074be2f32718d432289a9283977db"}, {"bike_id": "f970f55cff6371be50ecfb10265bbbaa", "type": "electric_scooter", "is_disabled": 0, "lat": 38.91193783333333, "rental_uris": {"ios": "https://dc.lft.to/lastmile_qr_scan", "android": "https://dc.lft.to/lastmile_qr_scan"}, "is_reserved": 0, "fusion_lon": 0.0, "fusion_lat": 0.0, "lon": -77.038356, "name": "f970f55cff6371be50ecfb10265bbbaa"}, {"bike_id": "2e0b42293cdb99eb93c794afe1272ffa", "type": "electric_scooter", "is_disabled": 0, "lat": 38.8992245, "rental_uris": {"ios": "https://dc.lft.to/lastmile_qr_scan", "android": "https://dc.lft.to/lastmile_qr_scan"}, "is_reserved": 0, "fusion_lon": 0.0, "fusion_lat": 0.0, "lon": -77.02176433333334, "name": "2e0b42293cdb99eb93c794afe1272ffa"}, {"bike_id": "76407b4db9b816a57f7a801d0af9b200", "type": "electric_scooter", "is_disabled": 0, "lat": 38.91472433333333, "rental_uris": {"ios": "https://dc.lft.to/lastmile_qr_scan", "android": "https://dc.lft.to/lastmile_qr_scan"}, "is_reserved": 0, "fusion_lon": 0.0, "fusion_lat": 0.0, "lon": -77.0319035, "name": "76407b4db9b816a57f7a801d0af9b200"}, {"bike_id": "48e78cee151b202d5a8cfad00a5df2f9", "type": "electric_scooter", "is_disabled": 0, "lat": 38.917179833333336, "rental_uris": {"ios": "https://dc.lft.to/lastmile_qr_scan", "android": "https://dc.lft.to/lastmile_qr_scan"}, "is_reserved": 0, "fusion_lon": 0.0, "fusion_lat": 0.0, "lon": -77.02799766666666, "name": "48e78cee151b202d5a8cfad00a5df2f9"}, {"bike_id": "0b723b3a6d9f2bd6ff82528c45b7851b", "type": "electric_bike", "is_disabled": 0, "lat": 39.050574, "rental_uris": {"ios": "https://dc.lft.to/lastmile_qr_scan", "android": "https://dc.lft.to/lastmile_qr_scan"}, "is_reserved": 0, "fusion_lon": 0.0, "fusion_lat": 0.0, "lon": -77.05146783333333, "name": "0b723b3a6d9f2bd6ff82528c45b7851b"}, {"bike_id": "3450a862f25fd37516f346ea9ad53658", "type": "electric_scooter", "is_disabled": 0, "lat": 38.87765666666667, "rental_uris": {"ios": "https://dc.lft.to/lastmile_qr_scan", "android": "https://dc.lft.to/lastmile_qr_scan"}, "is_reserved": 0, "fusion_lon": 0.0, "fusion_lat": 0.0, "lon": -76.98682216666667, "name": "3450a862f25fd37516f346ea9ad53658"}, {"bike_id": "6a258c32371c54a694e63e8fe44cea1c", "type": "electric_scooter", "is_disabled": 0, "lat": 38.905685, "rental_uris": {"ios": "https://dc.lft.to/lastmile_qr_scan", "android": "https://dc.lft.to/lastmile_qr_scan"}, "is_reserved": 0, "fusion_lon": 0.0, "fusion_lat": 0.0, "lon": -76.97782283333333, "name": "6a258c32371c54a694e63e8fe44cea1c"}, {"bike_id": "ea1a46f8992630a979975be25f68f7bc", "type": "electric_scooter", "is_disabled": 0, "lat": 38.902771666666666, "rental_uris": {"ios": "https://dc.lft.to/lastmile_qr_scan", "android": "https://dc.lft.to/lastmile_qr_scan"}, "is_reserved": 0, "fusion_lon": 0.0, "fusion_lat": 0.0, "lon": -76.97030383333333, "name": "ea1a46f8992630a979975be25f68f7bc"}, {"bike_id": "a61d28e464a711341bf082df2a9bca18", "type": "electric_scooter", "is_disabled": 0, "lat": 38.9103235, "rental_uris": {"ios": "https://dc.lft.to/lastmile_qr_scan", "android": "https://dc.lft.to/lastmile_qr_scan"}, "is_reserved": 0, "fusion_lon": 0.0, "fusion_lat": 0.0, "lon": -77.03840683333334, "name": "a61d28e464a711341bf082df2a9bca18"}, {"bike_id": "21987acf48327874e9f989d3b8287099", "type": "electric_scooter", "is_disabled": 0, "lat": 38.89574483333333, "rental_uris": {"ios": "https://dc.lft.to/lastmile_qr_scan", "android": "https://dc.lft.to/lastmile_qr_scan"}, "is_reserved": 0, "fusion_lon": 0.0, "fusion_lat": 0.0, "lon": -76.93025066666667, "name": "21987acf48327874e9f989d3b8287099"}, {"bike_id": "6082f68757621440e719fc004a14c8be", "type": "electric_scooter", "is_disabled": 0, "lat": 38.907616166666664, "rental_uris": {"ios": "https://dc.lft.to/lastmile_qr_scan", "android": "https://dc.lft.to/lastmile_qr_scan"}, "is_reserved": 0, "fusion_lon": 0.0, "fusion_lat": 0.0, "lon": -77.00232583333333, "name": "6082f68757621440e719fc004a14c8be"}, {"bike_id": "66de3b8a8ef93a94997fe6acb655b4c7", "type": "electric_scooter", "is_disabled": 0, "lat": 38.900976, "rental_uris": {"ios": "https://dc.lft.to/lastmile_qr_scan", "android": "https://dc.lft.to/lastmile_qr_scan"}, "is_reserved": 0, "fusion_lon": 0.0, "fusion_lat": 0.0, "lon": -77.01817183333333, "name": "66de3b8a8ef93a94997fe6acb655b4c7"}, {"bike_id": "1d065c76705c98a96fd19b57f7bebce2", "type": "electric_scooter", "is_disabled": 0, "lat": 38.89740416666667, "rental_uris": {"ios": "https://dc.lft.to/lastmile_qr_scan", "android": "https://dc.lft.to/lastmile_qr_scan"}, "is_reserved": 0, "fusion_lon": 0.0, "fusion_lat": 0.0, "lon": -77.02811916666667, "name": "1d065c76705c98a96fd19b57f7bebce2"}, {"bike_id": "05a9a81703c522362f7c9fc8b64bb61b", "type": "electric_scooter", "is_disabled": 0, "lat": 38.93996383333333, "rental_uris": {"ios": "https://dc.lft.to/lastmile_qr_scan", "android": "https://dc.lft.to/lastmile_qr_scan"}, "is_reserved": 0, "fusion_lon": 0.0, "fusion_lat": 0.0, "lon": -77.01693916666666, "name": "05a9a81703c522362f7c9fc8b64bb61b"}, {"bike_id": "cd1d3b42f3237187ef94b080459c6af5", "type": "electric_scooter", "is_disabled": 0, "lat": 38.918442, "rental_uris": {"ios": "https://dc.lft.to/lastmile_qr_scan", "android": "https://dc.lft.to/lastmile_qr_scan"}, "is_reserved": 0, "fusion_lon": 0.0, "fusion_lat": 0.0, "lon": -76.9655835, "name": "cd1d3b42f3237187ef94b080459c6af5"}, {"bike_id": "ced0b5b71878199f31ca17b60f812fd3", "type": "electric_bike", "is_disabled": 0, "lat": 38.8324825, "rental_uris": {"ios": "https://dc.lft.to/lastmile_qr_scan", "android": "https://dc.lft.to/lastmile_qr_scan"}, "is_reserved": 0, "fusion_lon": 0.0, "fusion_lat": 0.0, "lon": -76.9461895, "name": "ced0b5b71878199f31ca17b60f812fd3"}, {"bike_id": "7e24abf4b662a63a17b7e70dab3ab3e1", "type": "electric_scooter", "is_disabled": 0, "lat": 38.9141695, "rental_uris": {"ios": "https://dc.lft.to/lastmile_qr_scan", "android": "https://dc.lft.to/lastmile_qr_scan"}, "is_reserved": 0, "fusion_lon": 0.0, "fusion_lat": 0.0, "lon": -77.02214816666667, "name": "7e24abf4b662a63a17b7e70dab3ab3e1"}, {"bike_id": "55e00a558b9047e33a9d4a4e70b0e1a7", "type": "electric_scooter", "is_disabled": 0, "lat": 38.939955166666664, "rental_uris": {"ios": "https://dc.lft.to/lastmile_qr_scan", "android": "https://dc.lft.to/lastmile_qr_scan"}, "is_reserved": 0, "fusion_lon": 0.0, "fusion_lat": 0.0, "lon": -77.0174815, "name": "55e00a558b9047e33a9d4a4e70b0e1a7"}, {"bike_id": "c45271b34c03f6080e4e9dca83805435", "type": "electric_scooter", "is_disabled": 0, "lat": 38.9278295, "rental_uris": {"ios": "https://dc.lft.to/lastmile_qr_scan", "android": "https://dc.lft.to/lastmile_qr_scan"}, "is_reserved": 0, "fusion_lon": 0.0, "fusion_lat": 0.0, "lon": -76.96107433333333, "name": "c45271b34c03f6080e4e9dca83805435"}, {"bike_id": "432297b9b9ecd454ded288859d4c9fbc", "type": "electric_scooter", "is_disabled": 0, "lat": 38.86734833333333, "rental_uris": {"ios": "https://dc.lft.to/lastmile_qr_scan", "android": "https://dc.lft.to/lastmile_qr_scan"}, "is_reserved": 0, "fusion_lon": 0.0, "fusion_lat": 0.0, "lon": -76.97866533333334, "name": "432297b9b9ecd454ded288859d4c9fbc"}, {"bike_id": "9f5e206eab653b0744d383e15d0f922b", "type": "electric_scooter", "is_disabled": 0, "lat": 38.92326166666667, "rental_uris": {"ios": "https://dc.lft.to/lastmile_qr_scan", "android": "https://dc.lft.to/lastmile_qr_scan"}, "is_reserved": 0, "fusion_lon": 0.0, "fusion_lat": 0.0, "lon": -77.0380685, "name": "9f5e206eab653b0744d383e15d0f922b"}, {"bike_id": "90649d637c5571a8ef3adb7020d633e5", "type": "electric_scooter", "is_disabled": 0, "lat": 38.92157383333333, "rental_uris": {"ios": "https://dc.lft.to/lastmile_qr_scan", "android": "https://dc.lft.to/lastmile_qr_scan"}, "is_reserved": 0, "fusion_lon": 0.0, "fusion_lat": 0.0, "lon": -77.03515583333333, "name": "90649d637c5571a8ef3adb7020d633e5"}, {"bike_id": "ed44c7087981a0fd15f633a7a9c49070", "type": "electric_scooter", "is_disabled": 0, "lat": 38.92603533333333, "rental_uris": {"ios": "https://dc.lft.to/lastmile_qr_scan", "android": "https://dc.lft.to/lastmile_qr_scan"}, "is_reserved": 0, "fusion_lon": 0.0, "fusion_lat": 0.0, "lon": -77.02390983333333, "name": "ed44c7087981a0fd15f633a7a9c49070"}, {"bike_id": "63d087bd2728f106b57c208757a593aa", "type": "electric_scooter", "is_disabled": 0, "lat": 38.909328333333335, "rental_uris": {"ios": "https://dc.lft.to/lastmile_qr_scan", "android": "https://dc.lft.to/lastmile_qr_scan"}, "is_reserved": 0, "fusion_lon": 0.0, "fusion_lat": 0.0, "lon": -77.0556775, "name": "63d087bd2728f106b57c208757a593aa"}, {"bike_id": "9be2fe88380cff37048ab2900d894599", "type": "electric_scooter", "is_disabled": 0, "lat": 38.90089866666667, "rental_uris": {"ios": "https://dc.lft.to/lastmile_qr_scan", "android": "https://dc.lft.to/lastmile_qr_scan"}, "is_reserved": 0, "fusion_lon": 0.0, "fusion_lat": 0.0, "lon": -77.02460016666667, "name": "9be2fe88380cff37048ab2900d894599"}, {"bike_id": "3d2a501ee6ac2ab5af457b014faa1af9", "type": "electric_bike", "is_disabled": 0, "lat": 38.80907583333333, "rental_uris": {"ios": "https://dc.lft.to/lastmile_qr_scan", "android": "https://dc.lft.to/lastmile_qr_scan"}, "is_reserved": 0, "fusion_lon": 0.0, "fusion_lat": 0.0, "lon": -77.08654483333333, "name": "3d2a501ee6ac2ab5af457b014faa1af9"}, {"bike_id": "ae5b6daae6a31e82d7354f174c555b34", "type": "electric_scooter", "is_disabled": 0, "lat": 38.87823516666667, "rental_uris": {"ios": "https://dc.lft.to/lastmile_qr_scan", "android": "https://dc.lft.to/lastmile_qr_scan"}, "is_reserved": 0, "fusion_lon": 0.0, "fusion_lat": 0.0, "lon": -77.00854016666666, "name": "ae5b6daae6a31e82d7354f174c555b34"}, {"bike_id": "200d0babb2b4a3fdf499e445da497b84", "type": "electric_scooter", "is_disabled": 0, "lat": 38.92226316666667, "rental_uris": {"ios": "https://dc.lft.to/lastmile_qr_scan", "android": "https://dc.lft.to/lastmile_qr_scan"}, "is_reserved": 0, "fusion_lon": 0.0, "fusion_lat": 0.0, "lon": -77.02212266666666, "name": "200d0babb2b4a3fdf499e445da497b84"}, {"bike_id": "bb3b212f9b540b282ad716ecfbaca218", "type": "electric_scooter", "is_disabled": 0, "lat": 38.89300316666667, "rental_uris": {"ios": "https://dc.lft.to/lastmile_qr_scan", "android": "https://dc.lft.to/lastmile_qr_scan"}, "is_reserved": 0, "fusion_lon": 0.0, "fusion_lat": 0.0, "lon": -77.041641, "name": "bb3b212f9b540b282ad716ecfbaca218"}, {"bike_id": "34651f6ce752acd474713f99222d4314", "type": "electric_scooter", "is_disabled": 0, "lat": 38.91155916666666, "rental_uris": {"ios": "https://dc.lft.to/lastmile_qr_scan", "android": "https://dc.lft.to/lastmile_qr_scan"}, "is_reserved": 0, "fusion_lon": 0.0, "fusion_lat": 0.0, "lon": -77.02959433333334, "name": "34651f6ce752acd474713f99222d4314"}, {"bike_id": "f0f15df913c29809f3aca21fadc7b53f", "type": "electric_scooter", "is_disabled": 0, "lat": 38.91773333333333, "rental_uris": {"ios": "https://dc.lft.to/lastmile_qr_scan", "android": "https://dc.lft.to/lastmile_qr_scan"}, "is_reserved": 0, "fusion_lon": 0.0, "fusion_lat": 0.0, "lon": -77.02947183333333, "name": "f0f15df913c29809f3aca21fadc7b53f"}, {"bike_id": "de394d9d1e920f0f297fa239b7499077", "type": "electric_scooter", "is_disabled": 0, "lat": 38.89240016666667, "rental_uris": {"ios": "https://dc.lft.to/lastmile_qr_scan", "android": "https://dc.lft.to/lastmile_qr_scan"}, "is_reserved": 0, "fusion_lon": 0.0, "fusion_lat": 0.0, "lon": -76.95326866666667, "name": "de394d9d1e920f0f297fa239b7499077"}, {"bike_id": "a8dbb8173ed5bf017fd3e751ef2baf91", "type": "electric_scooter", "is_disabled": 0, "lat": 38.865075, "rental_uris": {"ios": "https://dc.lft.to/lastmile_qr_scan", "android": "https://dc.lft.to/lastmile_qr_scan"}, "is_reserved": 0, "fusion_lon": 0.0, "fusion_lat": 0.0, "lon": -76.99002933333334, "name": "a8dbb8173ed5bf017fd3e751ef2baf91"}, {"bike_id": "6adfd2599971dd8df859222c3aed66cc", "type": "electric_scooter", "is_disabled": 0, "lat": 38.933798833333334, "rental_uris": {"ios": "https://dc.lft.to/lastmile_qr_scan", "android": "https://dc.lft.to/lastmile_qr_scan"}, "is_reserved": 0, "fusion_lon": 0.0, "fusion_lat": 0.0, "lon": -77.057294, "name": "6adfd2599971dd8df859222c3aed66cc"}, {"bike_id": "1ee730aa8de43acbd1c0e30a4b5fac19", "type": "electric_scooter", "is_disabled": 0, "lat": 38.9113185, "rental_uris": {"ios": "https://dc.lft.to/lastmile_qr_scan", "android": "https://dc.lft.to/lastmile_qr_scan"}, "is_reserved": 0, "fusion_lon": 0.0, "fusion_lat": 0.0, "lon": -77.02198816666667, "name": "1ee730aa8de43acbd1c0e30a4b5fac19"}, {"bike_id": "fe2d8ab9ddaa638a36bd8779d5c45f1a", "type": "electric_scooter", "is_disabled": 0, "lat": 38.926406, "rental_uris": {"ios": "https://dc.lft.to/lastmile_qr_scan", "android": "https://dc.lft.to/lastmile_qr_scan"}, "is_reserved": 0, "fusion_lon": 0.0, "fusion_lat": 0.0, "lon": -77.01382966666667, "name": "fe2d8ab9ddaa638a36bd8779d5c45f1a"}, {"bike_id": "65c4ea8b4af876139bd4eb114c8e7c85", "type": "electric_scooter", "is_disabled": 0, "lat": 38.94185733333333, "rental_uris": {"ios": "https://dc.lft.to/lastmile_qr_scan", "android": "https://dc.lft.to/lastmile_qr_scan"}, "is_reserved": 0, "fusion_lon": 0.0, "fusion_lat": 0.0, "lon": -77.0252885, "name": "65c4ea8b4af876139bd4eb114c8e7c85"}, {"bike_id": "48af619a28a4fc329942fc80ca39c282", "type": "electric_scooter", "is_disabled": 0, "lat": 38.93375316666667, "rental_uris": {"ios": "https://dc.lft.to/lastmile_qr_scan", "android": "https://dc.lft.to/lastmile_qr_scan"}, "is_reserved": 0, "fusion_lon": 0.0, "fusion_lat": 0.0, "lon": -77.0573685, "name": "48af619a28a4fc329942fc80ca39c282"}, {"bike_id": "24ffde4a14044c25be45e737a151f039", "type": "electric_scooter", "is_disabled": 0, "lat": 38.866990333333334, "rental_uris": {"ios": "https://dc.lft.to/lastmile_qr_scan", "android": "https://dc.lft.to/lastmile_qr_scan"}, "is_reserved": 0, "fusion_lon": 0.0, "fusion_lat": 0.0, "lon": -76.987124, "name": "24ffde4a14044c25be45e737a151f039"}, {"bike_id": "ab7ff7a1ddbf4597dbeca6ad55f356c7", "type": "electric_scooter", "is_disabled": 0, "lat": 38.9053005, "rental_uris": {"ios": "https://dc.lft.to/lastmile_qr_scan", "android": "https://dc.lft.to/lastmile_qr_scan"}, "is_reserved": 0, "fusion_lon": 0.0, "fusion_lat": 0.0, "lon": -76.98622566666667, "name": "ab7ff7a1ddbf4597dbeca6ad55f356c7"}, {"bike_id": "f01f5ccda8b1ea99fad5150fdec31a27", "type": "electric_bike", "is_disabled": 0, "lat": 38.929589666666665, "rental_uris": {"ios": "https://dc.lft.to/lastmile_qr_scan", "android": "https://dc.lft.to/lastmile_qr_scan"}, "is_reserved": 0, "fusion_lon": 0.0, "fusion_lat": 0.0, "lon": -77.02340033333333, "name": "f01f5ccda8b1ea99fad5150fdec31a27"}, {"bike_id": "017aa9d0819c3c0f337fd61ca8888871", "type": "electric_scooter", "is_disabled": 0, "lat": 38.86214733333333, "rental_uris": {"ios": "https://dc.lft.to/lastmile_qr_scan", "android": "https://dc.lft.to/lastmile_qr_scan"}, "is_reserved": 0, "fusion_lon": 0.0, "fusion_lat": 0.0, "lon": -76.99471716666666, "name": "017aa9d0819c3c0f337fd61ca8888871"}, {"bike_id": "023d902b38cc3427944e76a2d14007e4", "type": "electric_scooter", "is_disabled": 0, "lat": 38.92166483333333, "rental_uris": {"ios": "https://dc.lft.to/lastmile_qr_scan", "android": "https://dc.lft.to/lastmile_qr_scan"}, "is_reserved": 0, "fusion_lon": 0.0, "fusion_lat": 0.0, "lon": -77.03846666666666, "name": "023d902b38cc3427944e76a2d14007e4"}, {"bike_id": "abf82b154c6def088154c087ab0c8916", "type": "electric_bike", "is_disabled": 0, "lat": 38.829424333333336, "rental_uris": {"ios": "https://dc.lft.to/lastmile_qr_scan", "android": "https://dc.lft.to/lastmile_qr_scan"}, "is_reserved": 0, "fusion_lon": 0.0, "fusion_lat": 0.0, "lon": -77.12368383333333, "name": "abf82b154c6def088154c087ab0c8916"}, {"bike_id": "042341bac83eb3f04d3be8edbb4aceea", "type": "electric_scooter", "is_disabled": 0, "lat": 38.91566983333333, "rental_uris": {"ios": "https://dc.lft.to/lastmile_qr_scan", "android": "https://dc.lft.to/lastmile_qr_scan"}, "is_reserved": 0, "fusion_lon": 0.0, "fusion_lat": 0.0, "lon": -77.039479, "name": "042341bac83eb3f04d3be8edbb4aceea"}, {"bike_id": "6f2361cbf58074874a5f8b7f248bd533", "type": "electric_scooter", "is_disabled": 0, "lat": 38.857598333333335, "rental_uris": {"ios": "https://dc.lft.to/lastmile_qr_scan", "android": "https://dc.lft.to/lastmile_qr_scan"}, "is_reserved": 0, "fusion_lon": 0.0, "fusion_lat": 0.0, "lon": -76.99300266666667, "name": "6f2361cbf58074874a5f8b7f248bd533"}, {"bike_id": "a44b745409e184789bd4a5d4e52cedbb", "type": "electric_scooter", "is_disabled": 0, "lat": 38.91696966666667, "rental_uris": {"ios": "https://dc.lft.to/lastmile_qr_scan", "android": "https://dc.lft.to/lastmile_qr_scan"}, "is_reserved": 0, "fusion_lon": 0.0, "fusion_lat": 0.0, "lon": -77.02597516666667, "name": "a44b745409e184789bd4a5d4e52cedbb"}, {"bike_id": "fccf61d69efaefe8584a9402090aa882", "type": "electric_scooter", "is_disabled": 0, "lat": 38.938182833333336, "rental_uris": {"ios": "https://dc.lft.to/lastmile_qr_scan", "android": "https://dc.lft.to/lastmile_qr_scan"}, "is_reserved": 0, "fusion_lon": 0.0, "fusion_lat": 0.0, "lon": -77.027143, "name": "fccf61d69efaefe8584a9402090aa882"}, {"bike_id": "fc8fd4aac45fc6293efb5987a75364d5", "type": "electric_scooter", "is_disabled": 0, "lat": 38.93766733333333, "rental_uris": {"ios": "https://dc.lft.to/lastmile_qr_scan", "android": "https://dc.lft.to/lastmile_qr_scan"}, "is_reserved": 0, "fusion_lon": 0.0, "fusion_lat": 0.0, "lon": -77.0244345, "name": "fc8fd4aac45fc6293efb5987a75364d5"}, {"bike_id": "7f6fb6fc3e095c0618fe3741005a2418", "type": "electric_scooter", "is_disabled": 0, "lat": 38.897233166666666, "rental_uris": {"ios": "https://dc.lft.to/lastmile_qr_scan", "android": "https://dc.lft.to/lastmile_qr_scan"}, "is_reserved": 0, "fusion_lon": 0.0, "fusion_lat": 0.0, "lon": -76.988341, "name": "7f6fb6fc3e095c0618fe3741005a2418"}, {"bike_id": "14a3e0b3e69b4c39201b018eee25aaa7", "type": "electric_scooter", "is_disabled": 0, "lat": 38.92257816666667, "rental_uris": {"ios": "https://dc.lft.to/lastmile_qr_scan", "android": "https://dc.lft.to/lastmile_qr_scan"}, "is_reserved": 0, "fusion_lon": 0.0, "fusion_lat": 0.0, "lon": -77.019682, "name": "14a3e0b3e69b4c39201b018eee25aaa7"}, {"bike_id": "5b9278aac2ea031b623e27d5d98fa7f8", "type": "electric_scooter", "is_disabled": 0, "lat": 38.89486516666667, "rental_uris": {"ios": "https://dc.lft.to/lastmile_qr_scan", "android": "https://dc.lft.to/lastmile_qr_scan"}, "is_reserved": 0, "fusion_lon": 0.0, "fusion_lat": 0.0, "lon": -76.99516666666666, "name": "5b9278aac2ea031b623e27d5d98fa7f8"}, {"bike_id": "e80fbff154087f351e3a56bad0a0536b", "type": "electric_bike", "is_disabled": 0, "lat": 38.92279333333333, "rental_uris": {"ios": "https://dc.lft.to/lastmile_qr_scan", "android": "https://dc.lft.to/lastmile_qr_scan"}, "is_reserved": 0, "fusion_lon": 0.0, "fusion_lat": 0.0, "lon": -77.022382, "name": "e80fbff154087f351e3a56bad0a0536b"}, {"bike_id": "41ea219174bc8f385ae6baa6600658a5", "type": "electric_scooter", "is_disabled": 0, "lat": 38.917108999999996, "rental_uris": {"ios": "https://dc.lft.to/lastmile_qr_scan", "android": "https://dc.lft.to/lastmile_qr_scan"}, "is_reserved": 0, "fusion_lon": 0.0, "fusion_lat": 0.0, "lon": -77.0318005, "name": "41ea219174bc8f385ae6baa6600658a5"}, {"bike_id": "80c35109630bbea1333e9e5f9b23faf9", "type": "electric_scooter", "is_disabled": 0, "lat": 38.85814033333333, "rental_uris": {"ios": "https://dc.lft.to/lastmile_qr_scan", "android": "https://dc.lft.to/lastmile_qr_scan"}, "is_reserved": 0, "fusion_lon": 0.0, "fusion_lat": 0.0, "lon": -76.98926733333333, "name": "80c35109630bbea1333e9e5f9b23faf9"}, {"bike_id": "de01e1648edef775bda16c102915495d", "type": "electric_scooter", "is_disabled": 0, "lat": 38.870717166666665, "rental_uris": {"ios": "https://dc.lft.to/lastmile_qr_scan", "android": "https://dc.lft.to/lastmile_qr_scan"}, "is_reserved": 0, "fusion_lon": 0.0, "fusion_lat": 0.0, "lon": -76.98133566666667, "name": "de01e1648edef775bda16c102915495d"}, {"bike_id": "31cd816ccf9cb7a9d7f0d78da8bb008c", "type": "electric_scooter", "is_disabled": 0, "lat": 38.89710566666667, "rental_uris": {"ios": "https://dc.lft.to/lastmile_qr_scan", "android": "https://dc.lft.to/lastmile_qr_scan"}, "is_reserved": 0, "fusion_lon": 0.0, "fusion_lat": 0.0, "lon": -77.0271685, "name": "31cd816ccf9cb7a9d7f0d78da8bb008c"}, {"bike_id": "01e43ca1dc419b725462c724dfc517f9", "type": "electric_scooter", "is_disabled": 0, "lat": 38.8864135, "rental_uris": {"ios": "https://dc.lft.to/lastmile_qr_scan", "android": "https://dc.lft.to/lastmile_qr_scan"}, "is_reserved": 0, "fusion_lon": 0.0, "fusion_lat": 0.0, "lon": -77.01368083333334, "name": "01e43ca1dc419b725462c724dfc517f9"}, {"bike_id": "a45c4abb77d7f91ef6de6074d97dfc59", "type": "electric_scooter", "is_disabled": 0, "lat": 38.916948833333336, "rental_uris": {"ios": "https://dc.lft.to/lastmile_qr_scan", "android": "https://dc.lft.to/lastmile_qr_scan"}, "is_reserved": 0, "fusion_lon": 0.0, "fusion_lat": 0.0, "lon": -77.02880916666666, "name": "a45c4abb77d7f91ef6de6074d97dfc59"}, {"bike_id": "8f5d97e6dbd1976ecfc4b15346e43ae8", "type": "electric_bike", "is_disabled": 0, "lat": 38.807569666666666, "rental_uris": {"ios": "https://dc.lft.to/lastmile_qr_scan", "android": "https://dc.lft.to/lastmile_qr_scan"}, "is_reserved": 0, "fusion_lon": 0.0, "fusion_lat": 0.0, "lon": -77.09454933333333, "name": "8f5d97e6dbd1976ecfc4b15346e43ae8"}, {"bike_id": "54102f7ba67ce598f782fac000bd53f0", "type": "electric_scooter", "is_disabled": 0, "lat": 38.933225, "rental_uris": {"ios": "https://dc.lft.to/lastmile_qr_scan", "android": "https://dc.lft.to/lastmile_qr_scan"}, "is_reserved": 0, "fusion_lon": 0.0, "fusion_lat": 0.0, "lon": -77.02384133333334, "name": "54102f7ba67ce598f782fac000bd53f0"}, {"bike_id": "24196e2fc693374376703c4a98d8775f", "type": "electric_bike", "is_disabled": 0, "lat": 38.943698499999996, "rental_uris": {"ios": "https://dc.lft.to/lastmile_qr_scan", "android": "https://dc.lft.to/lastmile_qr_scan"}, "is_reserved": 0, "fusion_lon": 0.0, "fusion_lat": 0.0, "lon": -77.00347833333333, "name": "24196e2fc693374376703c4a98d8775f"}, {"bike_id": "2f0bf9b97620d23ffb1dedc21737157d", "type": "electric_scooter", "is_disabled": 0, "lat": 38.899679166666665, "rental_uris": {"ios": "https://dc.lft.to/lastmile_qr_scan", "android": "https://dc.lft.to/lastmile_qr_scan"}, "is_reserved": 0, "fusion_lon": 0.0, "fusion_lat": 0.0, "lon": -76.9830755, "name": "2f0bf9b97620d23ffb1dedc21737157d"}, {"bike_id": "06034b0ba0bfc88fbd1d36b79ecd4f1e", "type": "electric_scooter", "is_disabled": 0, "lat": 38.916004, "rental_uris": {"ios": "https://dc.lft.to/lastmile_qr_scan", "android": "https://dc.lft.to/lastmile_qr_scan"}, "is_reserved": 0, "fusion_lon": 0.0, "fusion_lat": 0.0, "lon": -77.03986866666666, "name": "06034b0ba0bfc88fbd1d36b79ecd4f1e"}, {"bike_id": "4d106176152e28008f0df870f67191cb", "type": "electric_scooter", "is_disabled": 0, "lat": 38.907909, "rental_uris": {"ios": "https://dc.lft.to/lastmile_qr_scan", "android": "https://dc.lft.to/lastmile_qr_scan"}, "is_reserved": 0, "fusion_lon": 0.0, "fusion_lat": 0.0, "lon": -76.99418616666667, "name": "4d106176152e28008f0df870f67191cb"}, {"bike_id": "69fdc1bedf99dbd5990c816afaa7825f", "type": "electric_scooter", "is_disabled": 0, "lat": 38.94617133333333, "rental_uris": {"ios": "https://dc.lft.to/lastmile_qr_scan", "android": "https://dc.lft.to/lastmile_qr_scan"}, "is_reserved": 0, "fusion_lon": 0.0, "fusion_lat": 0.0, "lon": -77.02268483333333, "name": "69fdc1bedf99dbd5990c816afaa7825f"}, {"bike_id": "643f6ee1f805b0f11edae3e8f2431aad", "type": "electric_scooter", "is_disabled": 0, "lat": 38.939895666666665, "rental_uris": {"ios": "https://dc.lft.to/lastmile_qr_scan", "android": "https://dc.lft.to/lastmile_qr_scan"}, "is_reserved": 0, "fusion_lon": 0.0, "fusion_lat": 0.0, "lon": -77.02875416666667, "name": "643f6ee1f805b0f11edae3e8f2431aad"}, {"bike_id": "d8e9821c1c08832a1640dddbc586098f", "type": "electric_scooter", "is_disabled": 0, "lat": 38.92712733333333, "rental_uris": {"ios": "https://dc.lft.to/lastmile_qr_scan", "android": "https://dc.lft.to/lastmile_qr_scan"}, "is_reserved": 0, "fusion_lon": 0.0, "fusion_lat": 0.0, "lon": -77.0206635, "name": "d8e9821c1c08832a1640dddbc586098f"}, {"bike_id": "0c64412922a19a538aee214e882af7fe", "type": "electric_scooter", "is_disabled": 0, "lat": 38.8919705, "rental_uris": {"ios": "https://dc.lft.to/lastmile_qr_scan", "android": "https://dc.lft.to/lastmile_qr_scan"}, "is_reserved": 0, "fusion_lon": 0.0, "fusion_lat": 0.0, "lon": -77.02502, "name": "0c64412922a19a538aee214e882af7fe"}, {"bike_id": "d2a4624399af9aa3dbb4880afbd96c41", "type": "electric_scooter", "is_disabled": 0, "lat": 38.9233035, "rental_uris": {"ios": "https://dc.lft.to/lastmile_qr_scan", "android": "https://dc.lft.to/lastmile_qr_scan"}, "is_reserved": 0, "fusion_lon": 0.0, "fusion_lat": 0.0, "lon": -77.00051933333333, "name": "d2a4624399af9aa3dbb4880afbd96c41"}, {"bike_id": "da0e2045787428bd0e85f444e40aee89", "type": "electric_scooter", "is_disabled": 0, "lat": 38.86630866666667, "rental_uris": {"ios": "https://dc.lft.to/lastmile_qr_scan", "android": "https://dc.lft.to/lastmile_qr_scan"}, "is_reserved": 0, "fusion_lon": 0.0, "fusion_lat": 0.0, "lon": -76.987173, "name": "da0e2045787428bd0e85f444e40aee89"}, {"bike_id": "c2d1042140cf621a440eda2893a8fc0f", "type": "electric_scooter", "is_disabled": 0, "lat": 38.89488033333333, "rental_uris": {"ios": "https://dc.lft.to/lastmile_qr_scan", "android": "https://dc.lft.to/lastmile_qr_scan"}, "is_reserved": 0, "fusion_lon": 0.0, "fusion_lat": 0.0, "lon": -77.01100933333333, "name": "c2d1042140cf621a440eda2893a8fc0f"}, {"bike_id": "7cd83ef5c01dabd9891df5b3064890dd", "type": "electric_scooter", "is_disabled": 0, "lat": 38.905538666666665, "rental_uris": {"ios": "https://dc.lft.to/lastmile_qr_scan", "android": "https://dc.lft.to/lastmile_qr_scan"}, "is_reserved": 0, "fusion_lon": 0.0, "fusion_lat": 0.0, "lon": -77.02181833333333, "name": "7cd83ef5c01dabd9891df5b3064890dd"}, {"bike_id": "8124814bcd94d070f6deaeda5972edf6", "type": "electric_scooter", "is_disabled": 0, "lat": 38.894858, "rental_uris": {"ios": "https://dc.lft.to/lastmile_qr_scan", "android": "https://dc.lft.to/lastmile_qr_scan"}, "is_reserved": 0, "fusion_lon": 0.0, "fusion_lat": 0.0, "lon": -76.98779033333334, "name": "8124814bcd94d070f6deaeda5972edf6"}, {"bike_id": "134e167cb175a05cec1eea3469ef8aff", "type": "electric_scooter", "is_disabled": 0, "lat": 38.8928245, "rental_uris": {"ios": "https://dc.lft.to/lastmile_qr_scan", "android": "https://dc.lft.to/lastmile_qr_scan"}, "is_reserved": 0, "fusion_lon": 0.0, "fusion_lat": 0.0, "lon": -77.02034383333333, "name": "134e167cb175a05cec1eea3469ef8aff"}, {"bike_id": "c22492a2763f51b027320c5b305cd2c6", "type": "electric_scooter", "is_disabled": 0, "lat": 38.91420883333333, "rental_uris": {"ios": "https://dc.lft.to/lastmile_qr_scan", "android": "https://dc.lft.to/lastmile_qr_scan"}, "is_reserved": 0, "fusion_lon": 0.0, "fusion_lat": 0.0, "lon": -77.035931, "name": "c22492a2763f51b027320c5b305cd2c6"}, {"bike_id": "7d9d9db911a0b5b7348b984035f19f53", "type": "electric_scooter", "is_disabled": 0, "lat": 38.912841666666665, "rental_uris": {"ios": "https://dc.lft.to/lastmile_qr_scan", "android": "https://dc.lft.to/lastmile_qr_scan"}, "is_reserved": 0, "fusion_lon": 0.0, "fusion_lat": 0.0, "lon": -77.06112383333334, "name": "7d9d9db911a0b5b7348b984035f19f53"}, {"bike_id": "7699c31f741afe217395b162005a38d5", "type": "electric_bike", "is_disabled": 0, "lat": 38.84277816666667, "rental_uris": {"ios": "https://dc.lft.to/lastmile_qr_scan", "android": "https://dc.lft.to/lastmile_qr_scan"}, "is_reserved": 0, "fusion_lon": 0.0, "fusion_lat": 0.0, "lon": -76.98838666666667, "name": "7699c31f741afe217395b162005a38d5"}, {"bike_id": "abe2c1a832153f9e6d8664d28a8447ed", "type": "electric_scooter", "is_disabled": 0, "lat": 38.90563083333333, "rental_uris": {"ios": "https://dc.lft.to/lastmile_qr_scan", "android": "https://dc.lft.to/lastmile_qr_scan"}, "is_reserved": 0, "fusion_lon": 0.0, "fusion_lat": 0.0, "lon": -77.06529066666667, "name": "abe2c1a832153f9e6d8664d28a8447ed"}, {"bike_id": "d73ccdb16593a02bfad0a1aeef815663", "type": "electric_scooter", "is_disabled": 0, "lat": 38.9285955, "rental_uris": {"ios": "https://dc.lft.to/lastmile_qr_scan", "android": "https://dc.lft.to/lastmile_qr_scan"}, "is_reserved": 0, "fusion_lon": 0.0, "fusion_lat": 0.0, "lon": -77.0318805, "name": "d73ccdb16593a02bfad0a1aeef815663"}, {"bike_id": "3ba6608ec4feb626464f5a02956c9403", "type": "electric_scooter", "is_disabled": 0, "lat": 38.92363, "rental_uris": {"ios": "https://dc.lft.to/lastmile_qr_scan", "android": "https://dc.lft.to/lastmile_qr_scan"}, "is_reserved": 0, "fusion_lon": 0.0, "fusion_lat": 0.0, "lon": -77.05131016666667, "name": "3ba6608ec4feb626464f5a02956c9403"}, {"bike_id": "31157a9d6820d4fcb3770578c273b398", "type": "electric_scooter", "is_disabled": 0, "lat": 38.91626083333333, "rental_uris": {"ios": "https://dc.lft.to/lastmile_qr_scan", "android": "https://dc.lft.to/lastmile_qr_scan"}, "is_reserved": 0, "fusion_lon": 0.0, "fusion_lat": 0.0, "lon": -77.02386033333333, "name": "31157a9d6820d4fcb3770578c273b398"}, {"bike_id": "757be42bd42c70903426f0ce9f8ce647", "type": "electric_scooter", "is_disabled": 0, "lat": 38.910809, "rental_uris": {"ios": "https://dc.lft.to/lastmile_qr_scan", "android": "https://dc.lft.to/lastmile_qr_scan"}, "is_reserved": 0, "fusion_lon": 0.0, "fusion_lat": 0.0, "lon": -77.02188966666667, "name": "757be42bd42c70903426f0ce9f8ce647"}, {"bike_id": "0b2245d775b2673542e9720e04664e01", "type": "electric_scooter", "is_disabled": 0, "lat": 38.89847116666667, "rental_uris": {"ios": "https://dc.lft.to/lastmile_qr_scan", "android": "https://dc.lft.to/lastmile_qr_scan"}, "is_reserved": 0, "fusion_lon": 0.0, "fusion_lat": 0.0, "lon": -76.9463165, "name": "0b2245d775b2673542e9720e04664e01"}, {"bike_id": "3bb3be204a3985ce6cdd21943cf67f8c", "type": "electric_scooter", "is_disabled": 0, "lat": 38.91317466666667, "rental_uris": {"ios": "https://dc.lft.to/lastmile_qr_scan", "android": "https://dc.lft.to/lastmile_qr_scan"}, "is_reserved": 0, "fusion_lon": 0.0, "fusion_lat": 0.0, "lon": -77.0447725, "name": "3bb3be204a3985ce6cdd21943cf67f8c"}, {"bike_id": "93c070377d911da37fa44ceb0e3bd5a1", "type": "electric_bike", "is_disabled": 0, "lat": 38.87911916666667, "rental_uris": {"ios": "https://dc.lft.to/lastmile_qr_scan", "android": "https://dc.lft.to/lastmile_qr_scan"}, "is_reserved": 0, "fusion_lon": 0.0, "fusion_lat": 0.0, "lon": -77.00660266666667, "name": "93c070377d911da37fa44ceb0e3bd5a1"}, {"bike_id": "ac3c72367aaabac352ea0758090160da", "type": "electric_scooter", "is_disabled": 0, "lat": 38.924359, "rental_uris": {"ios": "https://dc.lft.to/lastmile_qr_scan", "android": "https://dc.lft.to/lastmile_qr_scan"}, "is_reserved": 0, "fusion_lon": 0.0, "fusion_lat": 0.0, "lon": -77.040085, "name": "ac3c72367aaabac352ea0758090160da"}, {"bike_id": "b3fb92b649337a13a0557c671da4c4af", "type": "electric_scooter", "is_disabled": 0, "lat": 38.904246, "rental_uris": {"ios": "https://dc.lft.to/lastmile_qr_scan", "android": "https://dc.lft.to/lastmile_qr_scan"}, "is_reserved": 0, "fusion_lon": 0.0, "fusion_lat": 0.0, "lon": -77.02639383333333, "name": "b3fb92b649337a13a0557c671da4c4af"}, {"bike_id": "9d8132b2a41c098e5028701e6d84b0e6", "type": "electric_scooter", "is_disabled": 0, "lat": 38.900606333333336, "rental_uris": {"ios": "https://dc.lft.to/lastmile_qr_scan", "android": "https://dc.lft.to/lastmile_qr_scan"}, "is_reserved": 0, "fusion_lon": 0.0, "fusion_lat": 0.0, "lon": -77.03648583333333, "name": "9d8132b2a41c098e5028701e6d84b0e6"}, {"bike_id": "be769bfc6d9969c26e6be52715c2ec82", "type": "electric_scooter", "is_disabled": 0, "lat": 38.843178, "rental_uris": {"ios": "https://dc.lft.to/lastmile_qr_scan", "android": "https://dc.lft.to/lastmile_qr_scan"}, "is_reserved": 0, "fusion_lon": 0.0, "fusion_lat": 0.0, "lon": -76.99912566666667, "name": "be769bfc6d9969c26e6be52715c2ec82"}, {"bike_id": "d7f233a1e866ba94b61e1229ef27eee3", "type": "electric_bike", "is_disabled": 0, "lat": 38.920699166666665, "rental_uris": {"ios": "https://dc.lft.to/lastmile_qr_scan", "android": "https://dc.lft.to/lastmile_qr_scan"}, "is_reserved": 0, "fusion_lon": 0.0, "fusion_lat": 0.0, "lon": -76.89070366666667, "name": "d7f233a1e866ba94b61e1229ef27eee3"}, {"bike_id": "d48acc17f6f188f29301579f5a1c60c7", "type": "electric_scooter", "is_disabled": 0, "lat": 38.8718, "rental_uris": {"ios": "https://dc.lft.to/lastmile_qr_scan", "android": "https://dc.lft.to/lastmile_qr_scan"}, "is_reserved": 0, "fusion_lon": 0.0, "fusion_lat": 0.0, "lon": -77.00613933333334, "name": "d48acc17f6f188f29301579f5a1c60c7"}, {"bike_id": "68dcf6ff28bcd31aec9e6763f970a1d9", "type": "electric_scooter", "is_disabled": 0, "lat": 38.91423366666667, "rental_uris": {"ios": "https://dc.lft.to/lastmile_qr_scan", "android": "https://dc.lft.to/lastmile_qr_scan"}, "is_reserved": 0, "fusion_lon": 0.0, "fusion_lat": 0.0, "lon": -77.02123333333333, "name": "68dcf6ff28bcd31aec9e6763f970a1d9"}, {"bike_id": "da403391c5cf78e81b79bc1c557c26cb", "type": "electric_scooter", "is_disabled": 0, "lat": 38.90292266666667, "rental_uris": {"ios": "https://dc.lft.to/lastmile_qr_scan", "android": "https://dc.lft.to/lastmile_qr_scan"}, "is_reserved": 0, "fusion_lon": 0.0, "fusion_lat": 0.0, "lon": -77.03643433333333, "name": "da403391c5cf78e81b79bc1c557c26cb"}, {"bike_id": "b9b62ec63579430a778dda80cf62e013", "type": "electric_scooter", "is_disabled": 0, "lat": 38.91426, "rental_uris": {"ios": "https://dc.lft.to/lastmile_qr_scan", "android": "https://dc.lft.to/lastmile_qr_scan"}, "is_reserved": 0, "fusion_lon": 0.0, "fusion_lat": 0.0, "lon": -77.03253866666667, "name": "b9b62ec63579430a778dda80cf62e013"}, {"bike_id": "fb9c2aa54583929840d5e0894c429e90", "type": "electric_scooter", "is_disabled": 0, "lat": 38.900156833333334, "rental_uris": {"ios": "https://dc.lft.to/lastmile_qr_scan", "android": "https://dc.lft.to/lastmile_qr_scan"}, "is_reserved": 0, "fusion_lon": 0.0, "fusion_lat": 0.0, "lon": -77.011345, "name": "fb9c2aa54583929840d5e0894c429e90"}, {"bike_id": "b14bd3f47ee0cde654876a89f6a9f039", "type": "electric_scooter", "is_disabled": 0, "lat": 38.921785166666666, "rental_uris": {"ios": "https://dc.lft.to/lastmile_qr_scan", "android": "https://dc.lft.to/lastmile_qr_scan"}, "is_reserved": 0, "fusion_lon": 0.0, "fusion_lat": 0.0, "lon": -77.02098633333334, "name": "b14bd3f47ee0cde654876a89f6a9f039"}, {"bike_id": "c63c2bfa589bfaa042dad1b7255b81df", "type": "electric_bike", "is_disabled": 0, "lat": 38.9650595, "rental_uris": {"ios": "https://dc.lft.to/lastmile_qr_scan", "android": "https://dc.lft.to/lastmile_qr_scan"}, "is_reserved": 0, "fusion_lon": 0.0, "fusion_lat": 0.0, "lon": -77.02098166666667, "name": "c63c2bfa589bfaa042dad1b7255b81df"}, {"bike_id": "30a573b276dc977142503ca91bd73f76", "type": "electric_scooter", "is_disabled": 0, "lat": 38.924636, "rental_uris": {"ios": "https://dc.lft.to/lastmile_qr_scan", "android": "https://dc.lft.to/lastmile_qr_scan"}, "is_reserved": 0, "fusion_lon": 0.0, "fusion_lat": 0.0, "lon": -77.05199533333334, "name": "30a573b276dc977142503ca91bd73f76"}, {"bike_id": "b7d0df82e21319aa0f238b90d58c945f", "type": "electric_scooter", "is_disabled": 0, "lat": 38.91424216666667, "rental_uris": {"ios": "https://dc.lft.to/lastmile_qr_scan", "android": "https://dc.lft.to/lastmile_qr_scan"}, "is_reserved": 0, "fusion_lon": 0.0, "fusion_lat": 0.0, "lon": -77.04592183333334, "name": "b7d0df82e21319aa0f238b90d58c945f"}, {"bike_id": "355ff1e098b3055f9a775321fdb45643", "type": "electric_scooter", "is_disabled": 0, "lat": 38.88499733333333, "rental_uris": {"ios": "https://dc.lft.to/lastmile_qr_scan", "android": "https://dc.lft.to/lastmile_qr_scan"}, "is_reserved": 0, "fusion_lon": 0.0, "fusion_lat": 0.0, "lon": -77.02533833333334, "name": "355ff1e098b3055f9a775321fdb45643"}, {"bike_id": "4a0a644814c999821d1e292f5decf260", "type": "electric_scooter", "is_disabled": 0, "lat": 38.927634, "rental_uris": {"ios": "https://dc.lft.to/lastmile_qr_scan", "android": "https://dc.lft.to/lastmile_qr_scan"}, "is_reserved": 0, "fusion_lon": 0.0, "fusion_lat": 0.0, "lon": -77.023777, "name": "4a0a644814c999821d1e292f5decf260"}, {"bike_id": "d948306128633f5a3f135360191770e3", "type": "electric_scooter", "is_disabled": 0, "lat": 38.91133216666667, "rental_uris": {"ios": "https://dc.lft.to/lastmile_qr_scan", "android": "https://dc.lft.to/lastmile_qr_scan"}, "is_reserved": 0, "fusion_lon": 0.0, "fusion_lat": 0.0, "lon": -77.022021, "name": "d948306128633f5a3f135360191770e3"}, {"bike_id": "e28c10812e450f986556b079dafd353b", "type": "electric_scooter", "is_disabled": 0, "lat": 38.91925033333333, "rental_uris": {"ios": "https://dc.lft.to/lastmile_qr_scan", "android": "https://dc.lft.to/lastmile_qr_scan"}, "is_reserved": 0, "fusion_lon": 0.0, "fusion_lat": 0.0, "lon": -77.00256283333333, "name": "e28c10812e450f986556b079dafd353b"}, {"bike_id": "a3b954e5a0204ebe3fdecd481f98ca52", "type": "electric_scooter", "is_disabled": 0, "lat": 38.90936266666667, "rental_uris": {"ios": "https://dc.lft.to/lastmile_qr_scan", "android": "https://dc.lft.to/lastmile_qr_scan"}, "is_reserved": 0, "fusion_lon": 0.0, "fusion_lat": 0.0, "lon": -77.0493615, "name": "a3b954e5a0204ebe3fdecd481f98ca52"}, {"bike_id": "50c0d61dbd120016f0298374665cd362", "type": "electric_scooter", "is_disabled": 0, "lat": 38.903958833333334, "rental_uris": {"ios": "https://dc.lft.to/lastmile_qr_scan", "android": "https://dc.lft.to/lastmile_qr_scan"}, "is_reserved": 0, "fusion_lon": 0.0, "fusion_lat": 0.0, "lon": -77.008831, "name": "50c0d61dbd120016f0298374665cd362"}, {"bike_id": "3d2865cfb00574b370f94d5d85b9c23b", "type": "electric_scooter", "is_disabled": 0, "lat": 38.896155, "rental_uris": {"ios": "https://dc.lft.to/lastmile_qr_scan", "android": "https://dc.lft.to/lastmile_qr_scan"}, "is_reserved": 0, "fusion_lon": 0.0, "fusion_lat": 0.0, "lon": -77.0450405, "name": "3d2865cfb00574b370f94d5d85b9c23b"}, {"bike_id": "694f45485c43a8ae98fc21a2f5833e46", "type": "electric_scooter", "is_disabled": 0, "lat": 38.91920783333333, "rental_uris": {"ios": "https://dc.lft.to/lastmile_qr_scan", "android": "https://dc.lft.to/lastmile_qr_scan"}, "is_reserved": 0, "fusion_lon": 0.0, "fusion_lat": 0.0, "lon": -77.044692, "name": "694f45485c43a8ae98fc21a2f5833e46"}, {"bike_id": "07f8b4902f024966e240b9a9f07681c7", "type": "electric_scooter", "is_disabled": 0, "lat": 38.90546966666667, "rental_uris": {"ios": "https://dc.lft.to/lastmile_qr_scan", "android": "https://dc.lft.to/lastmile_qr_scan"}, "is_reserved": 0, "fusion_lon": 0.0, "fusion_lat": 0.0, "lon": -77.043401, "name": "07f8b4902f024966e240b9a9f07681c7"}, {"bike_id": "72ef6d15b3bca8eee8afdc533e7c097f", "type": "electric_scooter", "is_disabled": 0, "lat": 38.886558666666666, "rental_uris": {"ios": "https://dc.lft.to/lastmile_qr_scan", "android": "https://dc.lft.to/lastmile_qr_scan"}, "is_reserved": 0, "fusion_lon": 0.0, "fusion_lat": 0.0, "lon": -77.0281885, "name": "72ef6d15b3bca8eee8afdc533e7c097f"}, {"bike_id": "cdee561a9ddd5d397b70dde1178d7b20", "type": "electric_scooter", "is_disabled": 0, "lat": 38.89223616666666, "rental_uris": {"ios": "https://dc.lft.to/lastmile_qr_scan", "android": "https://dc.lft.to/lastmile_qr_scan"}, "is_reserved": 0, "fusion_lon": 0.0, "fusion_lat": 0.0, "lon": -77.03978983333333, "name": "cdee561a9ddd5d397b70dde1178d7b20"}, {"bike_id": "f6e1cd9406d959201fc9a0a9bf2a0e46", "type": "electric_scooter", "is_disabled": 0, "lat": 38.90268066666667, "rental_uris": {"ios": "https://dc.lft.to/lastmile_qr_scan", "android": "https://dc.lft.to/lastmile_qr_scan"}, "is_reserved": 0, "fusion_lon": 0.0, "fusion_lat": 0.0, "lon": -77.00344366666667, "name": "f6e1cd9406d959201fc9a0a9bf2a0e46"}, {"bike_id": "0c0d43dd0ea80c735e1366e6eb53432e", "type": "electric_scooter", "is_disabled": 0, "lat": 38.986956, "rental_uris": {"ios": "https://dc.lft.to/lastmile_qr_scan", "android": "https://dc.lft.to/lastmile_qr_scan"}, "is_reserved": 0, "fusion_lon": 0.0, "fusion_lat": 0.0, "lon": -77.0298055, "name": "0c0d43dd0ea80c735e1366e6eb53432e"}, {"bike_id": "0ba242e27b7207a5005da92c4f945b91", "type": "electric_scooter", "is_disabled": 0, "lat": 38.918434500000004, "rental_uris": {"ios": "https://dc.lft.to/lastmile_qr_scan", "android": "https://dc.lft.to/lastmile_qr_scan"}, "is_reserved": 0, "fusion_lon": 0.0, "fusion_lat": 0.0, "lon": -76.965527, "name": "0ba242e27b7207a5005da92c4f945b91"}, {"bike_id": "700fe87564c7ba5f3d0d5599264846f6", "type": "electric_scooter", "is_disabled": 0, "lat": 38.91775783333333, "rental_uris": {"ios": "https://dc.lft.to/lastmile_qr_scan", "android": "https://dc.lft.to/lastmile_qr_scan"}, "is_reserved": 0, "fusion_lon": 0.0, "fusion_lat": 0.0, "lon": -77.02393516666666, "name": "700fe87564c7ba5f3d0d5599264846f6"}, {"bike_id": "cead9fb6c26c90ab25945805995a211c", "type": "electric_scooter", "is_disabled": 0, "lat": 38.88725016666667, "rental_uris": {"ios": "https://dc.lft.to/lastmile_qr_scan", "android": "https://dc.lft.to/lastmile_qr_scan"}, "is_reserved": 0, "fusion_lon": 0.0, "fusion_lat": 0.0, "lon": -77.0220775, "name": "cead9fb6c26c90ab25945805995a211c"}, {"bike_id": "7b86fabcfc41dbac8bfaa08cc7507e8c", "type": "electric_scooter", "is_disabled": 0, "lat": 38.92850583333333, "rental_uris": {"ios": "https://dc.lft.to/lastmile_qr_scan", "android": "https://dc.lft.to/lastmile_qr_scan"}, "is_reserved": 0, "fusion_lon": 0.0, "fusion_lat": 0.0, "lon": -77.03309183333333, "name": "7b86fabcfc41dbac8bfaa08cc7507e8c"}, {"bike_id": "f8937f1b9d15d73c7b60c27dc2328f9d", "type": "electric_scooter", "is_disabled": 0, "lat": 38.90688866666667, "rental_uris": {"ios": "https://dc.lft.to/lastmile_qr_scan", "android": "https://dc.lft.to/lastmile_qr_scan"}, "is_reserved": 0, "fusion_lon": 0.0, "fusion_lat": 0.0, "lon": -77.053165, "name": "f8937f1b9d15d73c7b60c27dc2328f9d"}, {"bike_id": "d67307dfe362739dd153c8ee1eec829d", "type": "electric_scooter", "is_disabled": 0, "lat": 38.928389333333335, "rental_uris": {"ios": "https://dc.lft.to/lastmile_qr_scan", "android": "https://dc.lft.to/lastmile_qr_scan"}, "is_reserved": 0, "fusion_lon": 0.0, "fusion_lat": 0.0, "lon": -77.032853, "name": "d67307dfe362739dd153c8ee1eec829d"}, {"bike_id": "24db8321e3cbfd7a4127cd66299d4418", "type": "electric_scooter", "is_disabled": 0, "lat": 38.90906616666667, "rental_uris": {"ios": "https://dc.lft.to/lastmile_qr_scan", "android": "https://dc.lft.to/lastmile_qr_scan"}, "is_reserved": 0, "fusion_lon": 0.0, "fusion_lat": 0.0, "lon": -77.0420895, "name": "24db8321e3cbfd7a4127cd66299d4418"}, {"bike_id": "5734e8efc87f9a06e89724210551b1a0", "type": "electric_scooter", "is_disabled": 0, "lat": 38.9102125, "rental_uris": {"ios": "https://dc.lft.to/lastmile_qr_scan", "android": "https://dc.lft.to/lastmile_qr_scan"}, "is_reserved": 0, "fusion_lon": 0.0, "fusion_lat": 0.0, "lon": -77.028193, "name": "5734e8efc87f9a06e89724210551b1a0"}, {"bike_id": "a70765df2bd69316f80792ab0820e6d6", "type": "electric_scooter", "is_disabled": 0, "lat": 38.91713716666667, "rental_uris": {"ios": "https://dc.lft.to/lastmile_qr_scan", "android": "https://dc.lft.to/lastmile_qr_scan"}, "is_reserved": 0, "fusion_lon": 0.0, "fusion_lat": 0.0, "lon": -77.03163716666667, "name": "a70765df2bd69316f80792ab0820e6d6"}, {"bike_id": "f2c4813bf6347ec0d9d16897fa3c90db", "type": "electric_scooter", "is_disabled": 0, "lat": 38.919599833333336, "rental_uris": {"ios": "https://dc.lft.to/lastmile_qr_scan", "android": "https://dc.lft.to/lastmile_qr_scan"}, "is_reserved": 0, "fusion_lon": 0.0, "fusion_lat": 0.0, "lon": -77.0710415, "name": "f2c4813bf6347ec0d9d16897fa3c90db"}, {"bike_id": "cff66ffcbb399f53379f0d6071db72d5", "type": "electric_scooter", "is_disabled": 0, "lat": 38.9351415, "rental_uris": {"ios": "https://dc.lft.to/lastmile_qr_scan", "android": "https://dc.lft.to/lastmile_qr_scan"}, "is_reserved": 0, "fusion_lon": 0.0, "fusion_lat": 0.0, "lon": -77.0326005, "name": "cff66ffcbb399f53379f0d6071db72d5"}, {"bike_id": "310bb70020fecfbb48f76d5281e208bb", "type": "electric_scooter", "is_disabled": 0, "lat": 38.899178, "rental_uris": {"ios": "https://dc.lft.to/lastmile_qr_scan", "android": "https://dc.lft.to/lastmile_qr_scan"}, "is_reserved": 0, "fusion_lon": 0.0, "fusion_lat": 0.0, "lon": -76.93365866666667, "name": "310bb70020fecfbb48f76d5281e208bb"}, {"bike_id": "274cb60c00d639ad8d8ec8783f985672", "type": "electric_scooter", "is_disabled": 0, "lat": 38.935405333333335, "rental_uris": {"ios": "https://dc.lft.to/lastmile_qr_scan", "android": "https://dc.lft.to/lastmile_qr_scan"}, "is_reserved": 0, "fusion_lon": 0.0, "fusion_lat": 0.0, "lon": -77.02359133333333, "name": "274cb60c00d639ad8d8ec8783f985672"}, {"bike_id": "af1e47a1bcdf1e5f3ea92e5166a77c8a", "type": "electric_scooter", "is_disabled": 0, "lat": 38.915808, "rental_uris": {"ios": "https://dc.lft.to/lastmile_qr_scan", "android": "https://dc.lft.to/lastmile_qr_scan"}, "is_reserved": 0, "fusion_lon": 0.0, "fusion_lat": 0.0, "lon": -77.04637433333333, "name": "af1e47a1bcdf1e5f3ea92e5166a77c8a"}, {"bike_id": "511b335775a7d7e33da1e532d3742b91", "type": "electric_scooter", "is_disabled": 0, "lat": 38.90411783333333, "rental_uris": {"ios": "https://dc.lft.to/lastmile_qr_scan", "android": "https://dc.lft.to/lastmile_qr_scan"}, "is_reserved": 0, "fusion_lon": 0.0, "fusion_lat": 0.0, "lon": -76.97334783333334, "name": "511b335775a7d7e33da1e532d3742b91"}, {"bike_id": "32529a13ea1e480278ac24abe24cd9e2", "type": "electric_scooter", "is_disabled": 0, "lat": 38.917536166666665, "rental_uris": {"ios": "https://dc.lft.to/lastmile_qr_scan", "android": "https://dc.lft.to/lastmile_qr_scan"}, "is_reserved": 0, "fusion_lon": 0.0, "fusion_lat": 0.0, "lon": -77.03854383333334, "name": "32529a13ea1e480278ac24abe24cd9e2"}, {"bike_id": "15a43a055f1ab1033bca67127827c931", "type": "electric_scooter", "is_disabled": 0, "lat": 38.9014565, "rental_uris": {"ios": "https://dc.lft.to/lastmile_qr_scan", "android": "https://dc.lft.to/lastmile_qr_scan"}, "is_reserved": 0, "fusion_lon": 0.0, "fusion_lat": 0.0, "lon": -76.930848, "name": "15a43a055f1ab1033bca67127827c931"}, {"bike_id": "eb1429249e03cdf0d5408acc8614fcb9", "type": "electric_scooter", "is_disabled": 0, "lat": 38.917615833333336, "rental_uris": {"ios": "https://dc.lft.to/lastmile_qr_scan", "android": "https://dc.lft.to/lastmile_qr_scan"}, "is_reserved": 0, "fusion_lon": 0.0, "fusion_lat": 0.0, "lon": -77.03998083333333, "name": "eb1429249e03cdf0d5408acc8614fcb9"}, {"bike_id": "c20c8221e04477f2558b25b323494d0f", "type": "electric_scooter", "is_disabled": 0, "lat": 38.90477216666667, "rental_uris": {"ios": "https://dc.lft.to/lastmile_qr_scan", "android": "https://dc.lft.to/lastmile_qr_scan"}, "is_reserved": 0, "fusion_lon": 0.0, "fusion_lat": 0.0, "lon": -77.02953366666667, "name": "c20c8221e04477f2558b25b323494d0f"}, {"bike_id": "46626d87d73c69f6f903b247ac1da407", "type": "electric_scooter", "is_disabled": 0, "lat": 38.9002235, "rental_uris": {"ios": "https://dc.lft.to/lastmile_qr_scan", "android": "https://dc.lft.to/lastmile_qr_scan"}, "is_reserved": 0, "fusion_lon": 0.0, "fusion_lat": 0.0, "lon": -77.0003875, "name": "46626d87d73c69f6f903b247ac1da407"}, {"bike_id": "6370eefe6d02255ec29e27dabf60bf2e", "type": "electric_scooter", "is_disabled": 0, "lat": 38.90133866666667, "rental_uris": {"ios": "https://dc.lft.to/lastmile_qr_scan", "android": "https://dc.lft.to/lastmile_qr_scan"}, "is_reserved": 0, "fusion_lon": 0.0, "fusion_lat": 0.0, "lon": -77.04041333333333, "name": "6370eefe6d02255ec29e27dabf60bf2e"}, {"bike_id": "76b30961f69bad1f0dbbcb6150f8f18d", "type": "electric_scooter", "is_disabled": 0, "lat": 38.866867166666665, "rental_uris": {"ios": "https://dc.lft.to/lastmile_qr_scan", "android": "https://dc.lft.to/lastmile_qr_scan"}, "is_reserved": 0, "fusion_lon": 0.0, "fusion_lat": 0.0, "lon": -76.9857435, "name": "76b30961f69bad1f0dbbcb6150f8f18d"}, {"bike_id": "c704bb2adace2807570f435e2d5791d7", "type": "electric_scooter", "is_disabled": 0, "lat": 38.9335645, "rental_uris": {"ios": "https://dc.lft.to/lastmile_qr_scan", "android": "https://dc.lft.to/lastmile_qr_scan"}, "is_reserved": 0, "fusion_lon": 0.0, "fusion_lat": 0.0, "lon": -76.99257083333333, "name": "c704bb2adace2807570f435e2d5791d7"}, {"bike_id": "bc9be94360452eb52e595e7eb0312540", "type": "electric_scooter", "is_disabled": 0, "lat": 38.9337515, "rental_uris": {"ios": "https://dc.lft.to/lastmile_qr_scan", "android": "https://dc.lft.to/lastmile_qr_scan"}, "is_reserved": 0, "fusion_lon": 0.0, "fusion_lat": 0.0, "lon": -77.05730816666667, "name": "bc9be94360452eb52e595e7eb0312540"}, {"bike_id": "11c028117472dd900ec15887bcf01e96", "type": "electric_scooter", "is_disabled": 0, "lat": 38.91806316666667, "rental_uris": {"ios": "https://dc.lft.to/lastmile_qr_scan", "android": "https://dc.lft.to/lastmile_qr_scan"}, "is_reserved": 0, "fusion_lon": 0.0, "fusion_lat": 0.0, "lon": -77.045525, "name": "11c028117472dd900ec15887bcf01e96"}, {"bike_id": "643bb4ecbb151030653cb3d4ad8fb7e7", "type": "electric_bike", "is_disabled": 0, "lat": 38.9489115, "rental_uris": {"ios": "https://dc.lft.to/lastmile_qr_scan", "android": "https://dc.lft.to/lastmile_qr_scan"}, "is_reserved": 0, "fusion_lon": 0.0, "fusion_lat": 0.0, "lon": -76.96374983333334, "name": "643bb4ecbb151030653cb3d4ad8fb7e7"}, {"bike_id": "fd9d9ad9310621a744f65a1aab4fa131", "type": "electric_scooter", "is_disabled": 0, "lat": 38.908226, "rental_uris": {"ios": "https://dc.lft.to/lastmile_qr_scan", "android": "https://dc.lft.to/lastmile_qr_scan"}, "is_reserved": 0, "fusion_lon": 0.0, "fusion_lat": 0.0, "lon": -77.063696, "name": "fd9d9ad9310621a744f65a1aab4fa131"}, {"bike_id": "a2257a5702ebdf069453b4c99144223b", "type": "electric_scooter", "is_disabled": 0, "lat": 38.9216285, "rental_uris": {"ios": "https://dc.lft.to/lastmile_qr_scan", "android": "https://dc.lft.to/lastmile_qr_scan"}, "is_reserved": 0, "fusion_lon": 0.0, "fusion_lat": 0.0, "lon": -77.03384933333334, "name": "a2257a5702ebdf069453b4c99144223b"}, {"bike_id": "8a8c64d19ab718bddf6fc771190c2ee0", "type": "electric_scooter", "is_disabled": 0, "lat": 38.91038666666667, "rental_uris": {"ios": "https://dc.lft.to/lastmile_qr_scan", "android": "https://dc.lft.to/lastmile_qr_scan"}, "is_reserved": 0, "fusion_lon": 0.0, "fusion_lat": 0.0, "lon": -77.03285616666666, "name": "8a8c64d19ab718bddf6fc771190c2ee0"}, {"bike_id": "540a93c197d882a5391a8e1faa641da7", "type": "electric_scooter", "is_disabled": 0, "lat": 38.86689533333333, "rental_uris": {"ios": "https://dc.lft.to/lastmile_qr_scan", "android": "https://dc.lft.to/lastmile_qr_scan"}, "is_reserved": 0, "fusion_lon": 0.0, "fusion_lat": 0.0, "lon": -76.9858495, "name": "540a93c197d882a5391a8e1faa641da7"}, {"bike_id": "5f298ea9e171a4c33e5d288ccd89fe5d", "type": "electric_scooter", "is_disabled": 0, "lat": 38.905294166666664, "rental_uris": {"ios": "https://dc.lft.to/lastmile_qr_scan", "android": "https://dc.lft.to/lastmile_qr_scan"}, "is_reserved": 0, "fusion_lon": 0.0, "fusion_lat": 0.0, "lon": -77.05998016666666, "name": "5f298ea9e171a4c33e5d288ccd89fe5d"}, {"bike_id": "deed9a354781c7f482d1925f71fa5768", "type": "electric_scooter", "is_disabled": 0, "lat": 38.9149225, "rental_uris": {"ios": "https://dc.lft.to/lastmile_qr_scan", "android": "https://dc.lft.to/lastmile_qr_scan"}, "is_reserved": 0, "fusion_lon": 0.0, "fusion_lat": 0.0, "lon": -77.00283616666667, "name": "deed9a354781c7f482d1925f71fa5768"}, {"bike_id": "b28909413ff885f75b399094e65e2b78", "type": "electric_scooter", "is_disabled": 0, "lat": 38.91564866666667, "rental_uris": {"ios": "https://dc.lft.to/lastmile_qr_scan", "android": "https://dc.lft.to/lastmile_qr_scan"}, "is_reserved": 0, "fusion_lon": 0.0, "fusion_lat": 0.0, "lon": -77.02563366666666, "name": "b28909413ff885f75b399094e65e2b78"}, {"bike_id": "1251bbbe00282e7e60443025d4c9bb8f", "type": "electric_scooter", "is_disabled": 0, "lat": 38.86507683333333, "rental_uris": {"ios": "https://dc.lft.to/lastmile_qr_scan", "android": "https://dc.lft.to/lastmile_qr_scan"}, "is_reserved": 0, "fusion_lon": 0.0, "fusion_lat": 0.0, "lon": -76.99001183333333, "name": "1251bbbe00282e7e60443025d4c9bb8f"}, {"bike_id": "c7bf5d05b6796786a3505ce168f716f0", "type": "electric_scooter", "is_disabled": 0, "lat": 38.921229333333336, "rental_uris": {"ios": "https://dc.lft.to/lastmile_qr_scan", "android": "https://dc.lft.to/lastmile_qr_scan"}, "is_reserved": 0, "fusion_lon": 0.0, "fusion_lat": 0.0, "lon": -77.01209716666666, "name": "c7bf5d05b6796786a3505ce168f716f0"}, {"bike_id": "ee9ed8e4634e492d5f46360b662237f6", "type": "electric_scooter", "is_disabled": 0, "lat": 38.875029833333336, "rental_uris": {"ios": "https://dc.lft.to/lastmile_qr_scan", "android": "https://dc.lft.to/lastmile_qr_scan"}, "is_reserved": 0, "fusion_lon": 0.0, "fusion_lat": 0.0, "lon": -77.00093, "name": "ee9ed8e4634e492d5f46360b662237f6"}, {"bike_id": "9eae9e3f28975932cf8a2b16f3ffb165", "type": "electric_bike", "is_disabled": 0, "lat": 38.85357333333333, "rental_uris": {"ios": "https://dc.lft.to/lastmile_qr_scan", "android": "https://dc.lft.to/lastmile_qr_scan"}, "is_reserved": 0, "fusion_lon": 0.0, "fusion_lat": 0.0, "lon": -77.08692083333334, "name": "9eae9e3f28975932cf8a2b16f3ffb165"}, {"bike_id": "28d3c7a600c29f70ac578ce8547de30b", "type": "electric_scooter", "is_disabled": 0, "lat": 38.92156666666666, "rental_uris": {"ios": "https://dc.lft.to/lastmile_qr_scan", "android": "https://dc.lft.to/lastmile_qr_scan"}, "is_reserved": 0, "fusion_lon": 0.0, "fusion_lat": 0.0, "lon": -77.03514583333333, "name": "28d3c7a600c29f70ac578ce8547de30b"}, {"bike_id": "abdcdbc7ba326b978fc89202ddab5870", "type": "electric_scooter", "is_disabled": 0, "lat": 38.957360333333334, "rental_uris": {"ios": "https://dc.lft.to/lastmile_qr_scan", "android": "https://dc.lft.to/lastmile_qr_scan"}, "is_reserved": 0, "fusion_lon": 0.0, "fusion_lat": 0.0, "lon": -77.02800466666666, "name": "abdcdbc7ba326b978fc89202ddab5870"}, {"bike_id": "e798b433e95c8fefd300708732704d14", "type": "electric_scooter", "is_disabled": 0, "lat": 38.898296333333334, "rental_uris": {"ios": "https://dc.lft.to/lastmile_qr_scan", "android": "https://dc.lft.to/lastmile_qr_scan"}, "is_reserved": 0, "fusion_lon": 0.0, "fusion_lat": 0.0, "lon": -77.03200383333333, "name": "e798b433e95c8fefd300708732704d14"}, {"bike_id": "813201f4171199bbd09ff3036e523c87", "type": "electric_scooter", "is_disabled": 0, "lat": 38.925328, "rental_uris": {"ios": "https://dc.lft.to/lastmile_qr_scan", "android": "https://dc.lft.to/lastmile_qr_scan"}, "is_reserved": 0, "fusion_lon": 0.0, "fusion_lat": 0.0, "lon": -77.04130066666667, "name": "813201f4171199bbd09ff3036e523c87"}, {"bike_id": "492ebf04ce165d8aa5373599b3d23076", "type": "electric_scooter", "is_disabled": 0, "lat": 38.9166935, "rental_uris": {"ios": "https://dc.lft.to/lastmile_qr_scan", "android": "https://dc.lft.to/lastmile_qr_scan"}, "is_reserved": 0, "fusion_lon": 0.0, "fusion_lat": 0.0, "lon": -77.03188433333334, "name": "492ebf04ce165d8aa5373599b3d23076"}, {"bike_id": "a08ca9134dc9842771ac79ace70847a1", "type": "electric_bike", "is_disabled": 0, "lat": 38.91014883333333, "rental_uris": {"ios": "https://dc.lft.to/lastmile_qr_scan", "android": "https://dc.lft.to/lastmile_qr_scan"}, "is_reserved": 0, "fusion_lon": 0.0, "fusion_lat": 0.0, "lon": -77.04444833333334, "name": "a08ca9134dc9842771ac79ace70847a1"}, {"bike_id": "df9fa6d05d2a95e8acbf57474814c63e", "type": "electric_bike", "is_disabled": 0, "lat": 38.81941, "rental_uris": {"ios": "https://dc.lft.to/lastmile_qr_scan", "android": "https://dc.lft.to/lastmile_qr_scan"}, "is_reserved": 0, "fusion_lon": 0.0, "fusion_lat": 0.0, "lon": -77.0020225, "name": "df9fa6d05d2a95e8acbf57474814c63e"}, {"bike_id": "03f51bf5899704f8940d09fcff33f53c", "type": "electric_scooter", "is_disabled": 0, "lat": 38.914629833333336, "rental_uris": {"ios": "https://dc.lft.to/lastmile_qr_scan", "android": "https://dc.lft.to/lastmile_qr_scan"}, "is_reserved": 0, "fusion_lon": 0.0, "fusion_lat": 0.0, "lon": -77.07104616666666, "name": "03f51bf5899704f8940d09fcff33f53c"}, {"bike_id": "412a3789a3b0f450ef24e12e9f122aed", "type": "electric_scooter", "is_disabled": 0, "lat": 38.92202233333333, "rental_uris": {"ios": "https://dc.lft.to/lastmile_qr_scan", "android": "https://dc.lft.to/lastmile_qr_scan"}, "is_reserved": 0, "fusion_lon": 0.0, "fusion_lat": 0.0, "lon": -77.02032033333333, "name": "412a3789a3b0f450ef24e12e9f122aed"}, {"bike_id": "db8383294f02360cfc6b44b7f20fe49f", "type": "electric_bike", "is_disabled": 0, "lat": 38.92870416666667, "rental_uris": {"ios": "https://dc.lft.to/lastmile_qr_scan", "android": "https://dc.lft.to/lastmile_qr_scan"}, "is_reserved": 0, "fusion_lon": 0.0, "fusion_lat": 0.0, "lon": -77.03744366666666, "name": "db8383294f02360cfc6b44b7f20fe49f"}, {"bike_id": "c4aa0cac85d3d75453ea04061f696915", "type": "electric_scooter", "is_disabled": 0, "lat": 38.956544666666666, "rental_uris": {"ios": "https://dc.lft.to/lastmile_qr_scan", "android": "https://dc.lft.to/lastmile_qr_scan"}, "is_reserved": 0, "fusion_lon": 0.0, "fusion_lat": 0.0, "lon": -77.023938, "name": "c4aa0cac85d3d75453ea04061f696915"}, {"bike_id": "fd168087fd416cddee9e49cfd3973c46", "type": "electric_scooter", "is_disabled": 0, "lat": 38.898919, "rental_uris": {"ios": "https://dc.lft.to/lastmile_qr_scan", "android": "https://dc.lft.to/lastmile_qr_scan"}, "is_reserved": 0, "fusion_lon": 0.0, "fusion_lat": 0.0, "lon": -76.97693683333334, "name": "fd168087fd416cddee9e49cfd3973c46"}, {"bike_id": "664a158e8bf15701707c0cd345d3d8ae", "type": "electric_scooter", "is_disabled": 0, "lat": 38.8729285, "rental_uris": {"ios": "https://dc.lft.to/lastmile_qr_scan", "android": "https://dc.lft.to/lastmile_qr_scan"}, "is_reserved": 0, "fusion_lon": 0.0, "fusion_lat": 0.0, "lon": -77.009859, "name": "664a158e8bf15701707c0cd345d3d8ae"}, {"bike_id": "dd811059671da74f0b1d8004a5c7a847", "type": "electric_scooter", "is_disabled": 0, "lat": 38.907222833333336, "rental_uris": {"ios": "https://dc.lft.to/lastmile_qr_scan", "android": "https://dc.lft.to/lastmile_qr_scan"}, "is_reserved": 0, "fusion_lon": 0.0, "fusion_lat": 0.0, "lon": -77.05015116666667, "name": "dd811059671da74f0b1d8004a5c7a847"}, {"bike_id": "55dc06df262848653d63e863f865455d", "type": "electric_scooter", "is_disabled": 0, "lat": 38.907317666666664, "rental_uris": {"ios": "https://dc.lft.to/lastmile_qr_scan", "android": "https://dc.lft.to/lastmile_qr_scan"}, "is_reserved": 0, "fusion_lon": 0.0, "fusion_lat": 0.0, "lon": -77.04820066666667, "name": "55dc06df262848653d63e863f865455d"}, {"bike_id": "30ee79933ccf538e03894a34d1c8850e", "type": "electric_scooter", "is_disabled": 0, "lat": 38.892306833333336, "rental_uris": {"ios": "https://dc.lft.to/lastmile_qr_scan", "android": "https://dc.lft.to/lastmile_qr_scan"}, "is_reserved": 0, "fusion_lon": 0.0, "fusion_lat": 0.0, "lon": -77.046457, "name": "30ee79933ccf538e03894a34d1c8850e"}, {"bike_id": "dcd9e78fd0c1baff5a9e49d043667e8e", "type": "electric_scooter", "is_disabled": 0, "lat": 38.8923175, "rental_uris": {"ios": "https://dc.lft.to/lastmile_qr_scan", "android": "https://dc.lft.to/lastmile_qr_scan"}, "is_reserved": 0, "fusion_lon": 0.0, "fusion_lat": 0.0, "lon": -77.04673566666666, "name": "dcd9e78fd0c1baff5a9e49d043667e8e"}, {"bike_id": "251e669ac1c40011d23003622b5647e1", "type": "electric_scooter", "is_disabled": 0, "lat": 38.91186866666666, "rental_uris": {"ios": "https://dc.lft.to/lastmile_qr_scan", "android": "https://dc.lft.to/lastmile_qr_scan"}, "is_reserved": 0, "fusion_lon": 0.0, "fusion_lat": 0.0, "lon": -77.038649, "name": "251e669ac1c40011d23003622b5647e1"}, {"bike_id": "226d5bca95ff85164694286973b5c000", "type": "electric_scooter", "is_disabled": 0, "lat": 38.91625883333333, "rental_uris": {"ios": "https://dc.lft.to/lastmile_qr_scan", "android": "https://dc.lft.to/lastmile_qr_scan"}, "is_reserved": 0, "fusion_lon": 0.0, "fusion_lat": 0.0, "lon": -77.0230545, "name": "226d5bca95ff85164694286973b5c000"}, {"bike_id": "2cc384c4216542ef905a48f9b3a1ea8e", "type": "electric_scooter", "is_disabled": 0, "lat": 38.9300585, "rental_uris": {"ios": "https://dc.lft.to/lastmile_qr_scan", "android": "https://dc.lft.to/lastmile_qr_scan"}, "is_reserved": 0, "fusion_lon": 0.0, "fusion_lat": 0.0, "lon": -77.03225733333333, "name": "2cc384c4216542ef905a48f9b3a1ea8e"}, {"bike_id": "bec9ec3bd79a55b36ec6fecd8ddaabca", "type": "electric_scooter", "is_disabled": 0, "lat": 38.9287165, "rental_uris": {"ios": "https://dc.lft.to/lastmile_qr_scan", "android": "https://dc.lft.to/lastmile_qr_scan"}, "is_reserved": 0, "fusion_lon": 0.0, "fusion_lat": 0.0, "lon": -77.03453683333333, "name": "bec9ec3bd79a55b36ec6fecd8ddaabca"}, {"bike_id": "2e95a9602ac56d9e71a3154eef23b666", "type": "electric_scooter", "is_disabled": 0, "lat": 38.9177055, "rental_uris": {"ios": "https://dc.lft.to/lastmile_qr_scan", "android": "https://dc.lft.to/lastmile_qr_scan"}, "is_reserved": 0, "fusion_lon": 0.0, "fusion_lat": 0.0, "lon": -77.04055466666667, "name": "2e95a9602ac56d9e71a3154eef23b666"}, {"bike_id": "c318fd8f482dea0995411bca814b0c7d", "type": "electric_scooter", "is_disabled": 0, "lat": 38.95689083333333, "rental_uris": {"ios": "https://dc.lft.to/lastmile_qr_scan", "android": "https://dc.lft.to/lastmile_qr_scan"}, "is_reserved": 0, "fusion_lon": 0.0, "fusion_lat": 0.0, "lon": -77.02396783333333, "name": "c318fd8f482dea0995411bca814b0c7d"}, {"bike_id": "16b09e7fabe630b19fad87db6518e139", "type": "electric_scooter", "is_disabled": 0, "lat": 38.901228, "rental_uris": {"ios": "https://dc.lft.to/lastmile_qr_scan", "android": "https://dc.lft.to/lastmile_qr_scan"}, "is_reserved": 0, "fusion_lon": 0.0, "fusion_lat": 0.0, "lon": -77.036505, "name": "16b09e7fabe630b19fad87db6518e139"}, {"bike_id": "e1d381837fa8f977a0a0f092746df166", "type": "electric_scooter", "is_disabled": 0, "lat": 38.890088666666664, "rental_uris": {"ios": "https://dc.lft.to/lastmile_qr_scan", "android": "https://dc.lft.to/lastmile_qr_scan"}, "is_reserved": 0, "fusion_lon": 0.0, "fusion_lat": 0.0, "lon": -76.9374625, "name": "e1d381837fa8f977a0a0f092746df166"}, {"bike_id": "fdff3a9dead04a2677bcf123b49eed78", "type": "electric_scooter", "is_disabled": 0, "lat": 38.919260333333334, "rental_uris": {"ios": "https://dc.lft.to/lastmile_qr_scan", "android": "https://dc.lft.to/lastmile_qr_scan"}, "is_reserved": 0, "fusion_lon": 0.0, "fusion_lat": 0.0, "lon": -77.02573116666667, "name": "fdff3a9dead04a2677bcf123b49eed78"}, {"bike_id": "fae8f38c8b7624385713c30345251e78", "type": "electric_scooter", "is_disabled": 0, "lat": 38.907323166666664, "rental_uris": {"ios": "https://dc.lft.to/lastmile_qr_scan", "android": "https://dc.lft.to/lastmile_qr_scan"}, "is_reserved": 0, "fusion_lon": 0.0, "fusion_lat": 0.0, "lon": -77.046496, "name": "fae8f38c8b7624385713c30345251e78"}, {"bike_id": "676fae3c517fed4ff806a9cd55199f6b", "type": "electric_scooter", "is_disabled": 0, "lat": 38.906865833333335, "rental_uris": {"ios": "https://dc.lft.to/lastmile_qr_scan", "android": "https://dc.lft.to/lastmile_qr_scan"}, "is_reserved": 0, "fusion_lon": 0.0, "fusion_lat": 0.0, "lon": -77.0269865, "name": "676fae3c517fed4ff806a9cd55199f6b"}, {"bike_id": "612f3166ccc4eb09e64661d161f1b4e7", "type": "electric_scooter", "is_disabled": 0, "lat": 38.88640983333333, "rental_uris": {"ios": "https://dc.lft.to/lastmile_qr_scan", "android": "https://dc.lft.to/lastmile_qr_scan"}, "is_reserved": 0, "fusion_lon": 0.0, "fusion_lat": 0.0, "lon": -77.02136016666667, "name": "612f3166ccc4eb09e64661d161f1b4e7"}, {"bike_id": "440b56e215800d16f012e0f183ea3d44", "type": "electric_scooter", "is_disabled": 0, "lat": 38.87178566666667, "rental_uris": {"ios": "https://dc.lft.to/lastmile_qr_scan", "android": "https://dc.lft.to/lastmile_qr_scan"}, "is_reserved": 0, "fusion_lon": 0.0, "fusion_lat": 0.0, "lon": -77.00613683333333, "name": "440b56e215800d16f012e0f183ea3d44"}, {"bike_id": "58f1e5a01771e7d14387b2da4d945449", "type": "electric_scooter", "is_disabled": 0, "lat": 38.891984, "rental_uris": {"ios": "https://dc.lft.to/lastmile_qr_scan", "android": "https://dc.lft.to/lastmile_qr_scan"}, "is_reserved": 0, "fusion_lon": 0.0, "fusion_lat": 0.0, "lon": -77.02498966666667, "name": "58f1e5a01771e7d14387b2da4d945449"}, {"bike_id": "a450bfd2590c9414c09fabe36eafaa02", "type": "electric_scooter", "is_disabled": 0, "lat": 38.93361433333333, "rental_uris": {"ios": "https://dc.lft.to/lastmile_qr_scan", "android": "https://dc.lft.to/lastmile_qr_scan"}, "is_reserved": 0, "fusion_lon": 0.0, "fusion_lat": 0.0, "lon": -77.08855166666666, "name": "a450bfd2590c9414c09fabe36eafaa02"}, {"bike_id": "a1821006c7aeab7d1ab4e77496970fc8", "type": "electric_scooter", "is_disabled": 0, "lat": 38.90725616666667, "rental_uris": {"ios": "https://dc.lft.to/lastmile_qr_scan", "android": "https://dc.lft.to/lastmile_qr_scan"}, "is_reserved": 0, "fusion_lon": 0.0, "fusion_lat": 0.0, "lon": -77.02515816666667, "name": "a1821006c7aeab7d1ab4e77496970fc8"}, {"bike_id": "d1d0e4a9faa62fa53cedef115aec598c", "type": "electric_bike", "is_disabled": 0, "lat": 38.86330566666667, "rental_uris": {"ios": "https://dc.lft.to/lastmile_qr_scan", "android": "https://dc.lft.to/lastmile_qr_scan"}, "is_reserved": 0, "fusion_lon": 0.0, "fusion_lat": 0.0, "lon": -77.06346383333333, "name": "d1d0e4a9faa62fa53cedef115aec598c"}, {"bike_id": "d63c58d55eeaee576a0bc655ac045826", "type": "electric_scooter", "is_disabled": 0, "lat": 38.97208116666667, "rental_uris": {"ios": "https://dc.lft.to/lastmile_qr_scan", "android": "https://dc.lft.to/lastmile_qr_scan"}, "is_reserved": 0, "fusion_lon": 0.0, "fusion_lat": 0.0, "lon": -77.026627, "name": "d63c58d55eeaee576a0bc655ac045826"}, {"bike_id": "1eff4ac7fd3a809bf6567784e432c295", "type": "electric_scooter", "is_disabled": 0, "lat": 38.9147365, "rental_uris": {"ios": "https://dc.lft.to/lastmile_qr_scan", "android": "https://dc.lft.to/lastmile_qr_scan"}, "is_reserved": 0, "fusion_lon": 0.0, "fusion_lat": 0.0, "lon": -77.01984183333333, "name": "1eff4ac7fd3a809bf6567784e432c295"}, {"bike_id": "a54cc53c9b8407a62759ee4fc2f61c17", "type": "electric_scooter", "is_disabled": 0, "lat": 38.913428833333334, "rental_uris": {"ios": "https://dc.lft.to/lastmile_qr_scan", "android": "https://dc.lft.to/lastmile_qr_scan"}, "is_reserved": 0, "fusion_lon": 0.0, "fusion_lat": 0.0, "lon": -77.03185333333333, "name": "a54cc53c9b8407a62759ee4fc2f61c17"}, {"bike_id": "174f5132ebbf5f0bad9c5faf5a19daf3", "type": "electric_scooter", "is_disabled": 0, "lat": 38.905372, "rental_uris": {"ios": "https://dc.lft.to/lastmile_qr_scan", "android": "https://dc.lft.to/lastmile_qr_scan"}, "is_reserved": 0, "fusion_lon": 0.0, "fusion_lat": 0.0, "lon": -77.04406083333333, "name": "174f5132ebbf5f0bad9c5faf5a19daf3"}, {"bike_id": "1102926bf9b953133dfd6c6f98e0e451", "type": "electric_scooter", "is_disabled": 0, "lat": 38.866276, "rental_uris": {"ios": "https://dc.lft.to/lastmile_qr_scan", "android": "https://dc.lft.to/lastmile_qr_scan"}, "is_reserved": 0, "fusion_lon": 0.0, "fusion_lat": 0.0, "lon": -76.98710933333334, "name": "1102926bf9b953133dfd6c6f98e0e451"}, {"bike_id": "94a44539f928e843bbca03f254b558a3", "type": "electric_scooter", "is_disabled": 0, "lat": 38.87511583333333, "rental_uris": {"ios": "https://dc.lft.to/lastmile_qr_scan", "android": "https://dc.lft.to/lastmile_qr_scan"}, "is_reserved": 0, "fusion_lon": 0.0, "fusion_lat": 0.0, "lon": -77.00057116666666, "name": "94a44539f928e843bbca03f254b558a3"}, {"bike_id": "2d2e2bac2f3ec3b1547878f5882eb01f", "type": "electric_scooter", "is_disabled": 0, "lat": 38.915516333333336, "rental_uris": {"ios": "https://dc.lft.to/lastmile_qr_scan", "android": "https://dc.lft.to/lastmile_qr_scan"}, "is_reserved": 0, "fusion_lon": 0.0, "fusion_lat": 0.0, "lon": -77.021941, "name": "2d2e2bac2f3ec3b1547878f5882eb01f"}, {"bike_id": "a3046076ac84268c8c7dce9a0a7e58ae", "type": "electric_scooter", "is_disabled": 0, "lat": 38.917171333333336, "rental_uris": {"ios": "https://dc.lft.to/lastmile_qr_scan", "android": "https://dc.lft.to/lastmile_qr_scan"}, "is_reserved": 0, "fusion_lon": 0.0, "fusion_lat": 0.0, "lon": -77.03169733333333, "name": "a3046076ac84268c8c7dce9a0a7e58ae"}, {"bike_id": "b185d0fb72d500c17f1332f6048819af", "type": "electric_scooter", "is_disabled": 0, "lat": 38.9024005, "rental_uris": {"ios": "https://dc.lft.to/lastmile_qr_scan", "android": "https://dc.lft.to/lastmile_qr_scan"}, "is_reserved": 0, "fusion_lon": 0.0, "fusion_lat": 0.0, "lon": -77.04053516666667, "name": "b185d0fb72d500c17f1332f6048819af"}, {"bike_id": "d47702f2ce548b7ba3718590b99097d3", "type": "electric_scooter", "is_disabled": 0, "lat": 38.87425366666667, "rental_uris": {"ios": "https://dc.lft.to/lastmile_qr_scan", "android": "https://dc.lft.to/lastmile_qr_scan"}, "is_reserved": 0, "fusion_lon": 0.0, "fusion_lat": 0.0, "lon": -77.00061566666666, "name": "d47702f2ce548b7ba3718590b99097d3"}, {"bike_id": "60e534c352de4fc6c6871aea7140108e", "type": "electric_scooter", "is_disabled": 0, "lat": 38.91671383333333, "rental_uris": {"ios": "https://dc.lft.to/lastmile_qr_scan", "android": "https://dc.lft.to/lastmile_qr_scan"}, "is_reserved": 0, "fusion_lon": 0.0, "fusion_lat": 0.0, "lon": -77.023817, "name": "60e534c352de4fc6c6871aea7140108e"}, {"bike_id": "ff94adfe179ed6e6dcad0ae755d5c118", "type": "electric_scooter", "is_disabled": 0, "lat": 38.965501333333336, "rental_uris": {"ios": "https://dc.lft.to/lastmile_qr_scan", "android": "https://dc.lft.to/lastmile_qr_scan"}, "is_reserved": 0, "fusion_lon": 0.0, "fusion_lat": 0.0, "lon": -77.03619833333333, "name": "ff94adfe179ed6e6dcad0ae755d5c118"}, {"bike_id": "3a2b9695c094f95b4983d8412a532d9a", "type": "electric_scooter", "is_disabled": 0, "lat": 38.91904516666666, "rental_uris": {"ios": "https://dc.lft.to/lastmile_qr_scan", "android": "https://dc.lft.to/lastmile_qr_scan"}, "is_reserved": 0, "fusion_lon": 0.0, "fusion_lat": 0.0, "lon": -77.03143316666667, "name": "3a2b9695c094f95b4983d8412a532d9a"}, {"bike_id": "dce335ac57a4a166139ccddfad01f57f", "type": "electric_scooter", "is_disabled": 0, "lat": 38.907541, "rental_uris": {"ios": "https://dc.lft.to/lastmile_qr_scan", "android": "https://dc.lft.to/lastmile_qr_scan"}, "is_reserved": 0, "fusion_lon": 0.0, "fusion_lat": 0.0, "lon": -76.99883683333333, "name": "dce335ac57a4a166139ccddfad01f57f"}, {"bike_id": "ec48951c8c8a2490d30a95b5fe285f74", "type": "electric_scooter", "is_disabled": 0, "lat": 38.900141166666664, "rental_uris": {"ios": "https://dc.lft.to/lastmile_qr_scan", "android": "https://dc.lft.to/lastmile_qr_scan"}, "is_reserved": 0, "fusion_lon": 0.0, "fusion_lat": 0.0, "lon": -76.98534683333334, "name": "ec48951c8c8a2490d30a95b5fe285f74"}, {"bike_id": "5d6ae872ffacc794d944970c08589060", "type": "electric_scooter", "is_disabled": 0, "lat": 38.9169095, "rental_uris": {"ios": "https://dc.lft.to/lastmile_qr_scan", "android": "https://dc.lft.to/lastmile_qr_scan"}, "is_reserved": 0, "fusion_lon": 0.0, "fusion_lat": 0.0, "lon": -77.0377085, "name": "5d6ae872ffacc794d944970c08589060"}, {"bike_id": "be721dcd227d22817297681b3d7a6da7", "type": "electric_scooter", "is_disabled": 0, "lat": 38.9036195, "rental_uris": {"ios": "https://dc.lft.to/lastmile_qr_scan", "android": "https://dc.lft.to/lastmile_qr_scan"}, "is_reserved": 0, "fusion_lon": 0.0, "fusion_lat": 0.0, "lon": -77.02200466666666, "name": "be721dcd227d22817297681b3d7a6da7"}, {"bike_id": "6d621dacf086cb4a44cf785884d8ecea", "type": "electric_scooter", "is_disabled": 0, "lat": 38.921646833333334, "rental_uris": {"ios": "https://dc.lft.to/lastmile_qr_scan", "android": "https://dc.lft.to/lastmile_qr_scan"}, "is_reserved": 0, "fusion_lon": 0.0, "fusion_lat": 0.0, "lon": -77.03341466666667, "name": "6d621dacf086cb4a44cf785884d8ecea"}, {"bike_id": "6a0dd8a579b9b58461a396f62d13393c", "type": "electric_scooter", "is_disabled": 0, "lat": 38.9172165, "rental_uris": {"ios": "https://dc.lft.to/lastmile_qr_scan", "android": "https://dc.lft.to/lastmile_qr_scan"}, "is_reserved": 0, "fusion_lon": 0.0, "fusion_lat": 0.0, "lon": -77.01201116666667, "name": "6a0dd8a579b9b58461a396f62d13393c"}, {"bike_id": "3465103b4aecef8d42b6f1dcd3d4ab27", "type": "electric_scooter", "is_disabled": 0, "lat": 38.90577283333333, "rental_uris": {"ios": "https://dc.lft.to/lastmile_qr_scan", "android": "https://dc.lft.to/lastmile_qr_scan"}, "is_reserved": 0, "fusion_lon": 0.0, "fusion_lat": 0.0, "lon": -77.05699616666666, "name": "3465103b4aecef8d42b6f1dcd3d4ab27"}, {"bike_id": "b2db74cdc468a01bbcc77fd54cc36c80", "type": "electric_scooter", "is_disabled": 0, "lat": 38.90414166666667, "rental_uris": {"ios": "https://dc.lft.to/lastmile_qr_scan", "android": "https://dc.lft.to/lastmile_qr_scan"}, "is_reserved": 0, "fusion_lon": 0.0, "fusion_lat": 0.0, "lon": -77.0694395, "name": "b2db74cdc468a01bbcc77fd54cc36c80"}, {"bike_id": "166d2371fd9466bee0579f597c807096", "type": "electric_bike", "is_disabled": 0, "lat": 38.84970783333333, "rental_uris": {"ios": "https://dc.lft.to/lastmile_qr_scan", "android": "https://dc.lft.to/lastmile_qr_scan"}, "is_reserved": 0, "fusion_lon": 0.0, "fusion_lat": 0.0, "lon": -77.07759333333334, "name": "166d2371fd9466bee0579f597c807096"}, {"bike_id": "7db552f291b71345be5d874152301a7f", "type": "electric_scooter", "is_disabled": 0, "lat": 38.906012, "rental_uris": {"ios": "https://dc.lft.to/lastmile_qr_scan", "android": "https://dc.lft.to/lastmile_qr_scan"}, "is_reserved": 0, "fusion_lon": 0.0, "fusion_lat": 0.0, "lon": -77.027016, "name": "7db552f291b71345be5d874152301a7f"}, {"bike_id": "7132d3e176969979dbf2c7cfd9357590", "type": "electric_scooter", "is_disabled": 0, "lat": 38.897338, "rental_uris": {"ios": "https://dc.lft.to/lastmile_qr_scan", "android": "https://dc.lft.to/lastmile_qr_scan"}, "is_reserved": 0, "fusion_lon": 0.0, "fusion_lat": 0.0, "lon": -77.05475783333333, "name": "7132d3e176969979dbf2c7cfd9357590"}, {"bike_id": "ec7f447a3283d85c5363ccde149e8b4d", "type": "electric_scooter", "is_disabled": 0, "lat": 38.91511966666667, "rental_uris": {"ios": "https://dc.lft.to/lastmile_qr_scan", "android": "https://dc.lft.to/lastmile_qr_scan"}, "is_reserved": 0, "fusion_lon": 0.0, "fusion_lat": 0.0, "lon": -77.01773616666667, "name": "ec7f447a3283d85c5363ccde149e8b4d"}, {"bike_id": "8c41b34c1c78135e5a89f51149e2517b", "type": "electric_scooter", "is_disabled": 0, "lat": 38.912225666666664, "rental_uris": {"ios": "https://dc.lft.to/lastmile_qr_scan", "android": "https://dc.lft.to/lastmile_qr_scan"}, "is_reserved": 0, "fusion_lon": 0.0, "fusion_lat": 0.0, "lon": -76.98800216666666, "name": "8c41b34c1c78135e5a89f51149e2517b"}, {"bike_id": "c52203a41083856d3861cde8abab32e6", "type": "electric_scooter", "is_disabled": 0, "lat": 38.9041115, "rental_uris": {"ios": "https://dc.lft.to/lastmile_qr_scan", "android": "https://dc.lft.to/lastmile_qr_scan"}, "is_reserved": 0, "fusion_lon": 0.0, "fusion_lat": 0.0, "lon": -76.97332016666667, "name": "c52203a41083856d3861cde8abab32e6"}, {"bike_id": "77b12de40169f153c62b015c2e3ab4a7", "type": "electric_bike", "is_disabled": 0, "lat": 38.94473133333334, "rental_uris": {"ios": "https://dc.lft.to/lastmile_qr_scan", "android": "https://dc.lft.to/lastmile_qr_scan"}, "is_reserved": 0, "fusion_lon": 0.0, "fusion_lat": 0.0, "lon": -76.986874, "name": "77b12de40169f153c62b015c2e3ab4a7"}, {"bike_id": "054946238b794bafd9466415c408b8be", "type": "electric_scooter", "is_disabled": 0, "lat": 38.922403, "rental_uris": {"ios": "https://dc.lft.to/lastmile_qr_scan", "android": "https://dc.lft.to/lastmile_qr_scan"}, "is_reserved": 0, "fusion_lon": 0.0, "fusion_lat": 0.0, "lon": -77.037047, "name": "054946238b794bafd9466415c408b8be"}, {"bike_id": "57f4d6f77854eda74f5f62c827fdaee3", "type": "electric_scooter", "is_disabled": 0, "lat": 38.86660083333334, "rental_uris": {"ios": "https://dc.lft.to/lastmile_qr_scan", "android": "https://dc.lft.to/lastmile_qr_scan"}, "is_reserved": 0, "fusion_lon": 0.0, "fusion_lat": 0.0, "lon": -76.9888435, "name": "57f4d6f77854eda74f5f62c827fdaee3"}, {"bike_id": "708a226ffe5e6a1c5d9ac2ae234856cf", "type": "electric_scooter", "is_disabled": 0, "lat": 38.91759883333334, "rental_uris": {"ios": "https://dc.lft.to/lastmile_qr_scan", "android": "https://dc.lft.to/lastmile_qr_scan"}, "is_reserved": 0, "fusion_lon": 0.0, "fusion_lat": 0.0, "lon": -77.0385515, "name": "708a226ffe5e6a1c5d9ac2ae234856cf"}, {"bike_id": "928fa77b34bac8583335253a84613aee", "type": "electric_bike", "is_disabled": 0, "lat": 38.897416, "rental_uris": {"ios": "https://dc.lft.to/lastmile_qr_scan", "android": "https://dc.lft.to/lastmile_qr_scan"}, "is_reserved": 0, "fusion_lon": 0.0, "fusion_lat": 0.0, "lon": -76.9204605, "name": "928fa77b34bac8583335253a84613aee"}, {"bike_id": "4cd4a0cadf919f29af91cf8aa0c6d397", "type": "electric_scooter", "is_disabled": 0, "lat": 38.91171333333333, "rental_uris": {"ios": "https://dc.lft.to/lastmile_qr_scan", "android": "https://dc.lft.to/lastmile_qr_scan"}, "is_reserved": 0, "fusion_lon": 0.0, "fusion_lat": 0.0, "lon": -77.03187433333333, "name": "4cd4a0cadf919f29af91cf8aa0c6d397"}, {"bike_id": "a4d5024b9961d102a394ae0dbbc37e15", "type": "electric_scooter", "is_disabled": 0, "lat": 38.8919605, "rental_uris": {"ios": "https://dc.lft.to/lastmile_qr_scan", "android": "https://dc.lft.to/lastmile_qr_scan"}, "is_reserved": 0, "fusion_lon": 0.0, "fusion_lat": 0.0, "lon": -77.02507983333334, "name": "a4d5024b9961d102a394ae0dbbc37e15"}, {"bike_id": "38148c477419acb10afd364c45259598", "type": "electric_scooter", "is_disabled": 0, "lat": 38.927963, "rental_uris": {"ios": "https://dc.lft.to/lastmile_qr_scan", "android": "https://dc.lft.to/lastmile_qr_scan"}, "is_reserved": 0, "fusion_lon": 0.0, "fusion_lat": 0.0, "lon": -77.04322733333333, "name": "38148c477419acb10afd364c45259598"}, {"bike_id": "d462f23ab87dbce7a7e2d2ee434bd933", "type": "electric_scooter", "is_disabled": 0, "lat": 38.914258333333336, "rental_uris": {"ios": "https://dc.lft.to/lastmile_qr_scan", "android": "https://dc.lft.to/lastmile_qr_scan"}, "is_reserved": 0, "fusion_lon": 0.0, "fusion_lat": 0.0, "lon": -77.02205016666667, "name": "d462f23ab87dbce7a7e2d2ee434bd933"}, {"bike_id": "3a0facf49e84779eda451adac58c8620", "type": "electric_scooter", "is_disabled": 0, "lat": 38.9182105, "rental_uris": {"ios": "https://dc.lft.to/lastmile_qr_scan", "android": "https://dc.lft.to/lastmile_qr_scan"}, "is_reserved": 0, "fusion_lon": 0.0, "fusion_lat": 0.0, "lon": -77.04942366666667, "name": "3a0facf49e84779eda451adac58c8620"}, {"bike_id": "c34c556c3a5dfead31697eed4a94952c", "type": "electric_scooter", "is_disabled": 0, "lat": 38.90873283333333, "rental_uris": {"ios": "https://dc.lft.to/lastmile_qr_scan", "android": "https://dc.lft.to/lastmile_qr_scan"}, "is_reserved": 0, "fusion_lon": 0.0, "fusion_lat": 0.0, "lon": -76.99787, "name": "c34c556c3a5dfead31697eed4a94952c"}, {"bike_id": "085e94c6475b97c805647a821cdb7875", "type": "electric_scooter", "is_disabled": 0, "lat": 38.909608166666665, "rental_uris": {"ios": "https://dc.lft.to/lastmile_qr_scan", "android": "https://dc.lft.to/lastmile_qr_scan"}, "is_reserved": 0, "fusion_lon": 0.0, "fusion_lat": 0.0, "lon": -77.034704, "name": "085e94c6475b97c805647a821cdb7875"}, {"bike_id": "7e2b5df49e2c14849e94322ffdd92d10", "type": "electric_scooter", "is_disabled": 0, "lat": 38.9431905, "rental_uris": {"ios": "https://dc.lft.to/lastmile_qr_scan", "android": "https://dc.lft.to/lastmile_qr_scan"}, "is_reserved": 0, "fusion_lon": 0.0, "fusion_lat": 0.0, "lon": -77.06206166666666, "name": "7e2b5df49e2c14849e94322ffdd92d10"}, {"bike_id": "086c76c3c8edbcda6df71b19924264fc", "type": "electric_scooter", "is_disabled": 0, "lat": 38.892222833333335, "rental_uris": {"ios": "https://dc.lft.to/lastmile_qr_scan", "android": "https://dc.lft.to/lastmile_qr_scan"}, "is_reserved": 0, "fusion_lon": 0.0, "fusion_lat": 0.0, "lon": -77.04369833333334, "name": "086c76c3c8edbcda6df71b19924264fc"}, {"bike_id": "935f86ad1aa11bbc0578a495a3ae6e2e", "type": "electric_scooter", "is_disabled": 0, "lat": 38.9219415, "rental_uris": {"ios": "https://dc.lft.to/lastmile_qr_scan", "android": "https://dc.lft.to/lastmile_qr_scan"}, "is_reserved": 0, "fusion_lon": 0.0, "fusion_lat": 0.0, "lon": -77.01975416666667, "name": "935f86ad1aa11bbc0578a495a3ae6e2e"}, {"bike_id": "07eaaad35f21810ec46581ad66d10181", "type": "electric_scooter", "is_disabled": 0, "lat": 38.928413666666664, "rental_uris": {"ios": "https://dc.lft.to/lastmile_qr_scan", "android": "https://dc.lft.to/lastmile_qr_scan"}, "is_reserved": 0, "fusion_lon": 0.0, "fusion_lat": 0.0, "lon": -77.05504683333334, "name": "07eaaad35f21810ec46581ad66d10181"}, {"bike_id": "6c4b07c0947d335c6309025be2841db7", "type": "electric_scooter", "is_disabled": 0, "lat": 38.9184865, "rental_uris": {"ios": "https://dc.lft.to/lastmile_qr_scan", "android": "https://dc.lft.to/lastmile_qr_scan"}, "is_reserved": 0, "fusion_lon": 0.0, "fusion_lat": 0.0, "lon": -76.9655495, "name": "6c4b07c0947d335c6309025be2841db7"}, {"bike_id": "3759a59de2048839bea05084baecfdcf", "type": "electric_scooter", "is_disabled": 0, "lat": 38.92214966666667, "rental_uris": {"ios": "https://dc.lft.to/lastmile_qr_scan", "android": "https://dc.lft.to/lastmile_qr_scan"}, "is_reserved": 0, "fusion_lon": 0.0, "fusion_lat": 0.0, "lon": -77.0329755, "name": "3759a59de2048839bea05084baecfdcf"}, {"bike_id": "427ffb1ba5c922c5a7909acc9022f32d", "type": "electric_scooter", "is_disabled": 0, "lat": 38.897105, "rental_uris": {"ios": "https://dc.lft.to/lastmile_qr_scan", "android": "https://dc.lft.to/lastmile_qr_scan"}, "is_reserved": 0, "fusion_lon": 0.0, "fusion_lat": 0.0, "lon": -77.024198, "name": "427ffb1ba5c922c5a7909acc9022f32d"}, {"bike_id": "972737bf74dc58acc4f3ec46df85de52", "type": "electric_scooter", "is_disabled": 0, "lat": 38.91130233333333, "rental_uris": {"ios": "https://dc.lft.to/lastmile_qr_scan", "android": "https://dc.lft.to/lastmile_qr_scan"}, "is_reserved": 0, "fusion_lon": 0.0, "fusion_lat": 0.0, "lon": -77.03781133333334, "name": "972737bf74dc58acc4f3ec46df85de52"}, {"bike_id": "907adafd064e41e1a7bc1df3ca374b2d", "type": "electric_scooter", "is_disabled": 0, "lat": 38.902938166666665, "rental_uris": {"ios": "https://dc.lft.to/lastmile_qr_scan", "android": "https://dc.lft.to/lastmile_qr_scan"}, "is_reserved": 0, "fusion_lon": 0.0, "fusion_lat": 0.0, "lon": -77.052011, "name": "907adafd064e41e1a7bc1df3ca374b2d"}, {"bike_id": "fe5dd5047ed6f3c54fdf79f01fbd56dd", "type": "electric_scooter", "is_disabled": 0, "lat": 38.91872633333333, "rental_uris": {"ios": "https://dc.lft.to/lastmile_qr_scan", "android": "https://dc.lft.to/lastmile_qr_scan"}, "is_reserved": 0, "fusion_lon": 0.0, "fusion_lat": 0.0, "lon": -77.03524816666666, "name": "fe5dd5047ed6f3c54fdf79f01fbd56dd"}, {"bike_id": "a4b6756efe4729bf10361cddbe4544be", "type": "electric_scooter", "is_disabled": 0, "lat": 38.89221966666667, "rental_uris": {"ios": "https://dc.lft.to/lastmile_qr_scan", "android": "https://dc.lft.to/lastmile_qr_scan"}, "is_reserved": 0, "fusion_lon": 0.0, "fusion_lat": 0.0, "lon": -77.04310583333333, "name": "a4b6756efe4729bf10361cddbe4544be"}, {"bike_id": "c0febec110c960a6f1c3568d7d43e98c", "type": "electric_scooter", "is_disabled": 0, "lat": 38.92072816666666, "rental_uris": {"ios": "https://dc.lft.to/lastmile_qr_scan", "android": "https://dc.lft.to/lastmile_qr_scan"}, "is_reserved": 0, "fusion_lon": 0.0, "fusion_lat": 0.0, "lon": -77.03151616666666, "name": "c0febec110c960a6f1c3568d7d43e98c"}, {"bike_id": "bb3b3b709764ecf8b9c8c04fd3c70ff8", "type": "electric_scooter", "is_disabled": 0, "lat": 38.9215315, "rental_uris": {"ios": "https://dc.lft.to/lastmile_qr_scan", "android": "https://dc.lft.to/lastmile_qr_scan"}, "is_reserved": 0, "fusion_lon": 0.0, "fusion_lat": 0.0, "lon": -77.0386265, "name": "bb3b3b709764ecf8b9c8c04fd3c70ff8"}, {"bike_id": "bd33033f8c3c2c0abdc32e29fd0211ce", "type": "electric_scooter", "is_disabled": 0, "lat": 38.88859033333333, "rental_uris": {"ios": "https://dc.lft.to/lastmile_qr_scan", "android": "https://dc.lft.to/lastmile_qr_scan"}, "is_reserved": 0, "fusion_lon": 0.0, "fusion_lat": 0.0, "lon": -77.00047833333333, "name": "bd33033f8c3c2c0abdc32e29fd0211ce"}, {"bike_id": "2c5696f06c49e64e9b3e5c76e6ed69bc", "type": "electric_scooter", "is_disabled": 0, "lat": 38.892116, "rental_uris": {"ios": "https://dc.lft.to/lastmile_qr_scan", "android": "https://dc.lft.to/lastmile_qr_scan"}, "is_reserved": 0, "fusion_lon": 0.0, "fusion_lat": 0.0, "lon": -76.99932383333334, "name": "2c5696f06c49e64e9b3e5c76e6ed69bc"}, {"bike_id": "794beb901232cdabc220e8daffcd894e", "type": "electric_scooter", "is_disabled": 0, "lat": 38.880626666666664, "rental_uris": {"ios": "https://dc.lft.to/lastmile_qr_scan", "android": "https://dc.lft.to/lastmile_qr_scan"}, "is_reserved": 0, "fusion_lon": 0.0, "fusion_lat": 0.0, "lon": -76.93215283333333, "name": "794beb901232cdabc220e8daffcd894e"}, {"bike_id": "79120cb6bf786785c4052f619687cf12", "type": "electric_scooter", "is_disabled": 0, "lat": 38.89224333333333, "rental_uris": {"ios": "https://dc.lft.to/lastmile_qr_scan", "android": "https://dc.lft.to/lastmile_qr_scan"}, "is_reserved": 0, "fusion_lon": 0.0, "fusion_lat": 0.0, "lon": -77.03979566666666, "name": "79120cb6bf786785c4052f619687cf12"}, {"bike_id": "a7a39cd24d4682293656c2c13ffb6387", "type": "electric_scooter", "is_disabled": 0, "lat": 38.860262166666665, "rental_uris": {"ios": "https://dc.lft.to/lastmile_qr_scan", "android": "https://dc.lft.to/lastmile_qr_scan"}, "is_reserved": 0, "fusion_lon": 0.0, "fusion_lat": 0.0, "lon": -76.99685433333333, "name": "a7a39cd24d4682293656c2c13ffb6387"}, {"bike_id": "a6823e6a33c401d370fd1c9a938b218f", "type": "electric_scooter", "is_disabled": 0, "lat": 38.92060983333333, "rental_uris": {"ios": "https://dc.lft.to/lastmile_qr_scan", "android": "https://dc.lft.to/lastmile_qr_scan"}, "is_reserved": 0, "fusion_lon": 0.0, "fusion_lat": 0.0, "lon": -77.0348045, "name": "a6823e6a33c401d370fd1c9a938b218f"}, {"bike_id": "c770af70810a541e5dc9f0836e7d3ff7", "type": "electric_scooter", "is_disabled": 0, "lat": 38.91866316666667, "rental_uris": {"ios": "https://dc.lft.to/lastmile_qr_scan", "android": "https://dc.lft.to/lastmile_qr_scan"}, "is_reserved": 0, "fusion_lon": 0.0, "fusion_lat": 0.0, "lon": -77.04760233333333, "name": "c770af70810a541e5dc9f0836e7d3ff7"}, {"bike_id": "d9841ee90a6f5eaaba314e25c1a44e61", "type": "electric_bike", "is_disabled": 0, "lat": 38.87985183333333, "rental_uris": {"ios": "https://dc.lft.to/lastmile_qr_scan", "android": "https://dc.lft.to/lastmile_qr_scan"}, "is_reserved": 0, "fusion_lon": 0.0, "fusion_lat": 0.0, "lon": -76.9159975, "name": "d9841ee90a6f5eaaba314e25c1a44e61"}, {"bike_id": "aff598ba978421aa156d1956c8f9c96b", "type": "electric_scooter", "is_disabled": 0, "lat": 38.89809916666667, "rental_uris": {"ios": "https://dc.lft.to/lastmile_qr_scan", "android": "https://dc.lft.to/lastmile_qr_scan"}, "is_reserved": 0, "fusion_lon": 0.0, "fusion_lat": 0.0, "lon": -77.0236055, "name": "aff598ba978421aa156d1956c8f9c96b"}, {"bike_id": "ecadafdcf123d9b6226312dd0b16e519", "type": "electric_scooter", "is_disabled": 0, "lat": 38.93718166666667, "rental_uris": {"ios": "https://dc.lft.to/lastmile_qr_scan", "android": "https://dc.lft.to/lastmile_qr_scan"}, "is_reserved": 0, "fusion_lon": 0.0, "fusion_lat": 0.0, "lon": -76.99051316666667, "name": "ecadafdcf123d9b6226312dd0b16e519"}, {"bike_id": "5a1ded4a38121fd2eaffa9882783de1f", "type": "electric_scooter", "is_disabled": 0, "lat": 38.91282866666667, "rental_uris": {"ios": "https://dc.lft.to/lastmile_qr_scan", "android": "https://dc.lft.to/lastmile_qr_scan"}, "is_reserved": 0, "fusion_lon": 0.0, "fusion_lat": 0.0, "lon": -77.0515995, "name": "5a1ded4a38121fd2eaffa9882783de1f"}, {"bike_id": "7251d8367701fff967e3a13069a3852a", "type": "electric_scooter", "is_disabled": 0, "lat": 38.920221, "rental_uris": {"ios": "https://dc.lft.to/lastmile_qr_scan", "android": "https://dc.lft.to/lastmile_qr_scan"}, "is_reserved": 0, "fusion_lon": 0.0, "fusion_lat": 0.0, "lon": -77.02006783333333, "name": "7251d8367701fff967e3a13069a3852a"}, {"bike_id": "3289560fb2d57e611154c7ab1b97745f", "type": "electric_scooter", "is_disabled": 0, "lat": 38.882677666666666, "rental_uris": {"ios": "https://dc.lft.to/lastmile_qr_scan", "android": "https://dc.lft.to/lastmile_qr_scan"}, "is_reserved": 0, "fusion_lon": 0.0, "fusion_lat": 0.0, "lon": -76.99256233333334, "name": "3289560fb2d57e611154c7ab1b97745f"}, {"bike_id": "49cd70b1a23d6214f6ccf25e529faaae", "type": "electric_scooter", "is_disabled": 0, "lat": 38.921702333333336, "rental_uris": {"ios": "https://dc.lft.to/lastmile_qr_scan", "android": "https://dc.lft.to/lastmile_qr_scan"}, "is_reserved": 0, "fusion_lon": 0.0, "fusion_lat": 0.0, "lon": -77.03319833333333, "name": "49cd70b1a23d6214f6ccf25e529faaae"}, {"bike_id": "d91eecab3be74618c288ab836a2af555", "type": "electric_scooter", "is_disabled": 0, "lat": 38.91337683333333, "rental_uris": {"ios": "https://dc.lft.to/lastmile_qr_scan", "android": "https://dc.lft.to/lastmile_qr_scan"}, "is_reserved": 0, "fusion_lon": 0.0, "fusion_lat": 0.0, "lon": -77.03183766666666, "name": "d91eecab3be74618c288ab836a2af555"}, {"bike_id": "1ed41010caf8980b2297b9ee09d139e8", "type": "electric_scooter", "is_disabled": 0, "lat": 38.931493, "rental_uris": {"ios": "https://dc.lft.to/lastmile_qr_scan", "android": "https://dc.lft.to/lastmile_qr_scan"}, "is_reserved": 0, "fusion_lon": 0.0, "fusion_lat": 0.0, "lon": -77.03354033333333, "name": "1ed41010caf8980b2297b9ee09d139e8"}, {"bike_id": "daff0bc934c18101915921987ab7f0a6", "type": "electric_scooter", "is_disabled": 0, "lat": 38.943288, "rental_uris": {"ios": "https://dc.lft.to/lastmile_qr_scan", "android": "https://dc.lft.to/lastmile_qr_scan"}, "is_reserved": 0, "fusion_lon": 0.0, "fusion_lat": 0.0, "lon": -77.0147905, "name": "daff0bc934c18101915921987ab7f0a6"}, {"bike_id": "02a800a8862df409fc7fb678195986d2", "type": "electric_scooter", "is_disabled": 0, "lat": 38.916998, "rental_uris": {"ios": "https://dc.lft.to/lastmile_qr_scan", "android": "https://dc.lft.to/lastmile_qr_scan"}, "is_reserved": 0, "fusion_lon": 0.0, "fusion_lat": 0.0, "lon": -77.03208333333333, "name": "02a800a8862df409fc7fb678195986d2"}, {"bike_id": "1f3a23ca681697d419deeac3916922cc", "type": "electric_scooter", "is_disabled": 0, "lat": 38.911385833333334, "rental_uris": {"ios": "https://dc.lft.to/lastmile_qr_scan", "android": "https://dc.lft.to/lastmile_qr_scan"}, "is_reserved": 0, "fusion_lon": 0.0, "fusion_lat": 0.0, "lon": -77.06531766666667, "name": "1f3a23ca681697d419deeac3916922cc"}, {"bike_id": "b97464230ea1f99e1f4e6a80a1dc4a5a", "type": "electric_scooter", "is_disabled": 0, "lat": 38.90389283333333, "rental_uris": {"ios": "https://dc.lft.to/lastmile_qr_scan", "android": "https://dc.lft.to/lastmile_qr_scan"}, "is_reserved": 0, "fusion_lon": 0.0, "fusion_lat": 0.0, "lon": -77.0686105, "name": "b97464230ea1f99e1f4e6a80a1dc4a5a"}, {"bike_id": "636af58622a37babddb43f020ee00ce3", "type": "electric_scooter", "is_disabled": 0, "lat": 38.897208166666665, "rental_uris": {"ios": "https://dc.lft.to/lastmile_qr_scan", "android": "https://dc.lft.to/lastmile_qr_scan"}, "is_reserved": 0, "fusion_lon": 0.0, "fusion_lat": 0.0, "lon": -77.02293683333333, "name": "636af58622a37babddb43f020ee00ce3"}, {"bike_id": "768cde4ee05a6b173c7eaf24941f08ae", "type": "electric_bike", "is_disabled": 0, "lat": 38.955250166666666, "rental_uris": {"ios": "https://dc.lft.to/lastmile_qr_scan", "android": "https://dc.lft.to/lastmile_qr_scan"}, "is_reserved": 0, "fusion_lon": 0.0, "fusion_lat": 0.0, "lon": -76.93915433333333, "name": "768cde4ee05a6b173c7eaf24941f08ae"}, {"bike_id": "c533af4dbf959de565b69a3b7b45cd14", "type": "electric_scooter", "is_disabled": 0, "lat": 38.903197, "rental_uris": {"ios": "https://dc.lft.to/lastmile_qr_scan", "android": "https://dc.lft.to/lastmile_qr_scan"}, "is_reserved": 0, "fusion_lon": 0.0, "fusion_lat": 0.0, "lon": -76.991294, "name": "c533af4dbf959de565b69a3b7b45cd14"}, {"bike_id": "fda474623be214951dfb7a46991717e9", "type": "electric_scooter", "is_disabled": 0, "lat": 38.91172433333333, "rental_uris": {"ios": "https://dc.lft.to/lastmile_qr_scan", "android": "https://dc.lft.to/lastmile_qr_scan"}, "is_reserved": 0, "fusion_lon": 0.0, "fusion_lat": 0.0, "lon": -77.031876, "name": "fda474623be214951dfb7a46991717e9"}, {"bike_id": "4b2c31a40a2615775ec0aecf9a474efb", "type": "electric_scooter", "is_disabled": 0, "lat": 38.88164366666667, "rental_uris": {"ios": "https://dc.lft.to/lastmile_qr_scan", "android": "https://dc.lft.to/lastmile_qr_scan"}, "is_reserved": 0, "fusion_lon": 0.0, "fusion_lat": 0.0, "lon": -77.027676, "name": "4b2c31a40a2615775ec0aecf9a474efb"}, {"bike_id": "a25391415a8eef85f19258e139c0c0ef", "type": "electric_scooter", "is_disabled": 0, "lat": 38.955805, "rental_uris": {"ios": "https://dc.lft.to/lastmile_qr_scan", "android": "https://dc.lft.to/lastmile_qr_scan"}, "is_reserved": 0, "fusion_lon": 0.0, "fusion_lat": 0.0, "lon": -77.08040516666667, "name": "a25391415a8eef85f19258e139c0c0ef"}, {"bike_id": "0a8be82d1d0fd31750f2024ac8f9c27f", "type": "electric_scooter", "is_disabled": 0, "lat": 38.92718633333333, "rental_uris": {"ios": "https://dc.lft.to/lastmile_qr_scan", "android": "https://dc.lft.to/lastmile_qr_scan"}, "is_reserved": 0, "fusion_lon": 0.0, "fusion_lat": 0.0, "lon": -77.0208385, "name": "0a8be82d1d0fd31750f2024ac8f9c27f"}, {"bike_id": "739531824804c27422a1fe24a0bcceb3", "type": "electric_scooter", "is_disabled": 0, "lat": 38.86379516666667, "rental_uris": {"ios": "https://dc.lft.to/lastmile_qr_scan", "android": "https://dc.lft.to/lastmile_qr_scan"}, "is_reserved": 0, "fusion_lon": 0.0, "fusion_lat": 0.0, "lon": -76.99061633333334, "name": "739531824804c27422a1fe24a0bcceb3"}, {"bike_id": "1e5cce256adfb962d5b63fb075b0bbce", "type": "electric_scooter", "is_disabled": 0, "lat": 38.928638, "rental_uris": {"ios": "https://dc.lft.to/lastmile_qr_scan", "android": "https://dc.lft.to/lastmile_qr_scan"}, "is_reserved": 0, "fusion_lon": 0.0, "fusion_lat": 0.0, "lon": -77.03716466666667, "name": "1e5cce256adfb962d5b63fb075b0bbce"}, {"bike_id": "04f5bf178b60ac7f5b767b2f25c324d8", "type": "electric_scooter", "is_disabled": 0, "lat": 38.9025755, "rental_uris": {"ios": "https://dc.lft.to/lastmile_qr_scan", "android": "https://dc.lft.to/lastmile_qr_scan"}, "is_reserved": 0, "fusion_lon": 0.0, "fusion_lat": 0.0, "lon": -77.00581333333334, "name": "04f5bf178b60ac7f5b767b2f25c324d8"}, {"bike_id": "83ace8a548c5b05fe14cc3db6899ceeb", "type": "electric_scooter", "is_disabled": 0, "lat": 38.912658666666665, "rental_uris": {"ios": "https://dc.lft.to/lastmile_qr_scan", "android": "https://dc.lft.to/lastmile_qr_scan"}, "is_reserved": 0, "fusion_lon": 0.0, "fusion_lat": 0.0, "lon": -77.04181516666667, "name": "83ace8a548c5b05fe14cc3db6899ceeb"}, {"bike_id": "abf205df17201554ff267b99b9f1852a", "type": "electric_bike", "is_disabled": 0, "lat": 38.8098055, "rental_uris": {"ios": "https://dc.lft.to/lastmile_qr_scan", "android": "https://dc.lft.to/lastmile_qr_scan"}, "is_reserved": 0, "fusion_lon": 0.0, "fusion_lat": 0.0, "lon": -77.08627933333334, "name": "abf205df17201554ff267b99b9f1852a"}, {"bike_id": "0965b0c13e50a261b9eb0b4776b60294", "type": "electric_scooter", "is_disabled": 0, "lat": 38.892163, "rental_uris": {"ios": "https://dc.lft.to/lastmile_qr_scan", "android": "https://dc.lft.to/lastmile_qr_scan"}, "is_reserved": 0, "fusion_lon": 0.0, "fusion_lat": 0.0, "lon": -77.03170783333333, "name": "0965b0c13e50a261b9eb0b4776b60294"}, {"bike_id": "8a58dfdce8a0e09a7e0ede621c693f7a", "type": "electric_scooter", "is_disabled": 0, "lat": 38.917716166666665, "rental_uris": {"ios": "https://dc.lft.to/lastmile_qr_scan", "android": "https://dc.lft.to/lastmile_qr_scan"}, "is_reserved": 0, "fusion_lon": 0.0, "fusion_lat": 0.0, "lon": -77.04755283333333, "name": "8a58dfdce8a0e09a7e0ede621c693f7a"}, {"bike_id": "2bccdf784af1cc2e4d21ccd59f9ba219", "type": "electric_scooter", "is_disabled": 0, "lat": 38.88657233333333, "rental_uris": {"ios": "https://dc.lft.to/lastmile_qr_scan", "android": "https://dc.lft.to/lastmile_qr_scan"}, "is_reserved": 0, "fusion_lon": 0.0, "fusion_lat": 0.0, "lon": -77.02822, "name": "2bccdf784af1cc2e4d21ccd59f9ba219"},