{"data": {"bikes": [{"rental_uris": {"ios": "https://dc.lft.to/lastmile_qr_scan", "android": "https://dc.lft.to/lastmile_qr_scan"}, "is_reserved": 0, "fusion_lat": 0.0, "type": "electric_bike", "bike_id": "96651086fa9a69a248debb450e16965f", "is_disabled": 0, "lon": -76.98093916666667, "fusion_lon": 0.0, "name": "96651086fa9a69a248debb450e16965f", "lat": 38.95358433333333}, {"rental_uris": {"ios": "https://dc.lft.to/lastmile_qr_scan", "android": "https://dc.lft.to/lastmile_qr_scan"}, "is_reserved": 0, "fusion_lat": 0.0, "type": "electric_scooter", "bike_id": "301a784069601f7d686aa6ebe8387bcd", "is_disabled": 0, "lon": -77.01621183333333, "fusion_lon": 0.0, "name": "301a784069601f7d686aa6ebe8387bcd", "lat": 38.896959333333335}, {"rental_uris": {"ios": "https://dc.lft.to/lastmile_qr_scan", "android": "https://dc.lft.to/lastmile_qr_scan"}, "is_reserved": 0, "fusion_lat": 0.0, "type": "electric_scooter", "bike_id": "565dabc52e8846527dce607ba7529be8", "is_disabled": 0, "lon": -77.03829683333333, "fusion_lon": 0.0, "name": "565dabc52e8846527dce607ba7529be8", "lat": 38.91111933333333}, {"rental_uris": {"ios": "https://dc.lft.to/lastmile_qr_scan", "android": "https://dc.lft.to/lastmile_qr_scan"}, "is_reserved": 0, "fusion_lat": 0.0, "type": "electric_scooter", "bike_id": "1e0f9a9a7f1fce84fd6d65177b32830c", "is_disabled": 0, "lon": -76.93929166666666, "fusion_lon": 0.0, "name": "1e0f9a9a7f1fce84fd6d65177b32830c", "lat": 38.89331216666667}, {"rental_uris": {"ios": "https://dc.lft.to/lastmile_qr_scan", "android": "https://dc.lft.to/lastmile_qr_scan"}, "is_reserved": 0, "fusion_lat": 0.0, "type": "electric_scooter", "bike_id": "6d565ea205a643e854ebea57146bf733", "is_disabled": 0, "lon": -77.03187116666666, "fusion_lon": 0.0, "name": "6d565ea205a643e854ebea57146bf733", "lat": 38.916776666666664}, {"rental_uris": {"ios": "https://dc.lft.to/lastmile_qr_scan", "android": "https://dc.lft.to/lastmile_qr_scan"}, "is_reserved": 0, "fusion_lat": 0.0, "type": "electric_scooter", "bike_id": "81995c2f0c5191c2cfdbb8e3f72f9c27", "is_disabled": 0, "lon": -77.04678733333333, "fusion_lon": 0.0, "name": "81995c2f0c5191c2cfdbb8e3f72f9c27", "lat": 38.9027475}, {"rental_uris": {"ios": "https://dc.lft.to/lastmile_qr_scan", "android": "https://dc.lft.to/lastmile_qr_scan"}, "is_reserved": 0, "fusion_lat": 0.0, "type": "electric_scooter", "bike_id": "cb2726c1c88f1d4c1b9d6ab596d57c55", "is_disabled": 0, "lon": -77.03173416666667, "fusion_lon": 0.0, "name": "cb2726c1c88f1d4c1b9d6ab596d57c55", "lat": 38.91421016666666}, {"rental_uris": {"ios": "https://dc.lft.to/lastmile_qr_scan", "android": "https://dc.lft.to/lastmile_qr_scan"}, "is_reserved": 0, "fusion_lat": 0.0, "type": "electric_scooter", "bike_id": "5859cd10b8de9f416748f1ab6623a88d", "is_disabled": 0, "lon": -77.008302, "fusion_lon": 0.0, "name": "5859cd10b8de9f416748f1ab6623a88d", "lat": 38.874917333333336}, {"rental_uris": {"ios": "https://dc.lft.to/lastmile_qr_scan", "android": "https://dc.lft.to/lastmile_qr_scan"}, "is_reserved": 0, "fusion_lat": 0.0, "type": "electric_scooter", "bike_id": "b2bba06a285de2d559af68d58454e109", "is_disabled": 0, "lon": -77.02190333333333, "fusion_lon": 0.0, "name": "b2bba06a285de2d559af68d58454e109", "lat": 38.911361166666666}, {"rental_uris": {"ios": "https://dc.lft.to/lastmile_qr_scan", "android": "https://dc.lft.to/lastmile_qr_scan"}, "is_reserved": 0, "fusion_lat": 0.0, "type": "electric_scooter", "bike_id": "1d48b42548c68edb296009b8dd5fb574", "is_disabled": 0, "lon": -77.00607083333334, "fusion_lon": 0.0, "name": "1d48b42548c68edb296009b8dd5fb574", "lat": 38.908081}, {"rental_uris": {"ios": "https://dc.lft.to/lastmile_qr_scan", "android": "https://dc.lft.to/lastmile_qr_scan"}, "is_reserved": 0, "fusion_lat": 0.0, "type": "electric_scooter", "bike_id": "8f4b867ebbd8fc257728d961951528d5", "is_disabled": 0, "lon": -77.027197, "fusion_lon": 0.0, "name": "8f4b867ebbd8fc257728d961951528d5", "lat": 38.923744166666665}, {"rental_uris": {"ios": "https://dc.lft.to/lastmile_qr_scan", "android": "https://dc.lft.to/lastmile_qr_scan"}, "is_reserved": 0, "fusion_lat": 0.0, "type": "electric_scooter", "bike_id": "395b8cc4319cb06128fe234577d68521", "is_disabled": 0, "lon": -77.005798, "fusion_lon": 0.0, "name": "395b8cc4319cb06128fe234577d68521", "lat": 38.88520116666667}, {"rental_uris": {"ios": "https://dc.lft.to/lastmile_qr_scan", "android": "https://dc.lft.to/lastmile_qr_scan"}, "is_reserved": 0, "fusion_lat": 0.0, "type": "electric_bike", "bike_id": "7110e4936c2f9f580e787a23ba3bb7af", "is_disabled": 0, "lon": -77.06738666666666, "fusion_lon": 0.0, "name": "7110e4936c2f9f580e787a23ba3bb7af", "lat": 38.92454083333333}, {"rental_uris": {"ios": "https://dc.lft.to/lastmile_qr_scan", "android": "https://dc.lft.to/lastmile_qr_scan"}, "is_reserved": 0, "fusion_lat": 0.0, "type": "electric_scooter", "bike_id": "b0bae81b1040cd0b2d01a025d17fd2d8", "is_disabled": 0, "lon": -77.041002, "fusion_lon": 0.0, "name": "b0bae81b1040cd0b2d01a025d17fd2d8", "lat": 38.9177645}, {"rental_uris": {"ios": "https://dc.lft.to/lastmile_qr_scan", "android": "https://dc.lft.to/lastmile_qr_scan"}, "is_reserved": 0, "fusion_lat": 0.0, "type": "electric_scooter", "bike_id": "d6c298bf8c50c0f90003e046d5041ff4", "is_disabled": 0, "lon": -77.03943416666667, "fusion_lon": 0.0, "name": "d6c298bf8c50c0f90003e046d5041ff4", "lat": 38.908334333333336}, {"rental_uris": {"ios": "https://dc.lft.to/lastmile_qr_scan", "android": "https://dc.lft.to/lastmile_qr_scan"}, "is_reserved": 0, "fusion_lat": 0.0, "type": "electric_scooter", "bike_id": "d678f0dd4b8cf7cd591403792eab4dd0", "is_disabled": 0, "lon": -77.03121583333333, "fusion_lon": 0.0, "name": "d678f0dd4b8cf7cd591403792eab4dd0", "lat": 38.90534816666667}, {"rental_uris": {"ios": "https://dc.lft.to/lastmile_qr_scan", "android": "https://dc.lft.to/lastmile_qr_scan"}, "is_reserved": 0, "fusion_lat": 0.0, "type": "electric_scooter", "bike_id": "c1ae0cbe22629cb7d05959aa378ebd82", "is_disabled": 0, "lon": -77.02112916666667, "fusion_lon": 0.0, "name": "c1ae0cbe22629cb7d05959aa378ebd82", "lat": 38.909385666666665}, {"rental_uris": {"ios": "https://dc.lft.to/lastmile_qr_scan", "android": "https://dc.lft.to/lastmile_qr_scan"}, "is_reserved": 0, "fusion_lat": 0.0, "type": "electric_scooter", "bike_id": "b5fee35ad968e9877e701a172a4ecae5", "is_disabled": 0, "lon": -76.98432266666667, "fusion_lon": 0.0, "name": "b5fee35ad968e9877e701a172a4ecae5", "lat": 38.905801}, {"rental_uris": {"ios": "https://dc.lft.to/lastmile_qr_scan", "android": "https://dc.lft.to/lastmile_qr_scan"}, "is_reserved": 0, "fusion_lat": 0.0, "type": "electric_scooter", "bike_id": "f64e9c6e1bf394dec235193a9e0442da", "is_disabled": 0, "lon": -77.03147533333333, "fusion_lon": 0.0, "name": "f64e9c6e1bf394dec235193a9e0442da", "lat": 38.8983275}, {"rental_uris": {"ios": "https://dc.lft.to/lastmile_qr_scan", "android": "https://dc.lft.to/lastmile_qr_scan"}, "is_reserved": 0, "fusion_lat": 0.0, "type": "electric_scooter", "bike_id": "53b4baf6675c660b1a903e9fda9da158", "is_disabled": 0, "lon": -77.02583066666666, "fusion_lon": 0.0, "name": "53b4baf6675c660b1a903e9fda9da158", "lat": 38.887343666666666}, {"rental_uris": {"ios": "https://dc.lft.to/lastmile_qr_scan", "android": "https://dc.lft.to/lastmile_qr_scan"}, "is_reserved": 0, "fusion_lat": 0.0, "type": "electric_scooter", "bike_id": "ccc7b5cc414619445a1954f20f416299", "is_disabled": 0, "lon": -77.03387916666667, "fusion_lon": 0.0, "name": "ccc7b5cc414619445a1954f20f416299", "lat": 38.90199066666667}, {"rental_uris": {"ios": "https://dc.lft.to/lastmile_qr_scan", "android": "https://dc.lft.to/lastmile_qr_scan"}, "is_reserved": 0, "fusion_lat": 0.0, "type": "electric_scooter", "bike_id": "e7dd3c482c0efd9c18f7d4f1f893ff09", "is_disabled": 0, "lon": -77.02443866666667, "fusion_lon": 0.0, "name": "e7dd3c482c0efd9c18f7d4f1f893ff09", "lat": 38.92303783333333}, {"rental_uris": {"ios": "https://dc.lft.to/lastmile_qr_scan", "android": "https://dc.lft.to/lastmile_qr_scan"}, "is_reserved": 0, "fusion_lat": 0.0, "type": "electric_scooter", "bike_id": "7907f9a571ad5b370ce0c1afbdfca5bc", "is_disabled": 0, "lon": -77.02413283333334, "fusion_lon": 0.0, "name": "7907f9a571ad5b370ce0c1afbdfca5bc", "lat": 38.94401966666667}, {"rental_uris": {"ios": "https://dc.lft.to/lastmile_qr_scan", "android": "https://dc.lft.to/lastmile_qr_scan"}, "is_reserved": 0, "fusion_lat": 0.0, "type": "electric_bike", "bike_id": "77314eb5bfcfbaffb52b817e5af2bd1c", "is_disabled": 0, "lon": -77.016875, "fusion_lon": 0.0, "name": "77314eb5bfcfbaffb52b817e5af2bd1c", "lat": 38.97539916666667}, {"rental_uris": {"ios": "https://dc.lft.to/lastmile_qr_scan", "android": "https://dc.lft.to/lastmile_qr_scan"}, "is_reserved": 0, "fusion_lat": 0.0, "type": "electric_scooter", "bike_id": "42ec83bb1c80eb7d6f8ee173fdeeb239", "is_disabled": 0, "lon": -76.985651, "fusion_lon": 0.0, "name": "42ec83bb1c80eb7d6f8ee173fdeeb239", "lat": 38.86683633333333}, {"rental_uris": {"ios": "https://dc.lft.to/lastmile_qr_scan", "android": "https://dc.lft.to/lastmile_qr_scan"}, "is_reserved": 0, "fusion_lat": 0.0, "type": "electric_scooter", "bike_id": "e89372f2d89a32b10eb833a704ee2725", "is_disabled": 0, "lon": -77.04180316666667, "fusion_lon": 0.0, "name": "e89372f2d89a32b10eb833a704ee2725", "lat": 38.9198855}, {"rental_uris": {"ios": "https://dc.lft.to/lastmile_qr_scan", "android": "https://dc.lft.to/lastmile_qr_scan"}, "is_reserved": 0, "fusion_lat": 0.0, "type": "electric_scooter", "bike_id": "c464e10cc6118ca9a6b60f4059799c23", "is_disabled": 0, "lon": -77.00431233333333, "fusion_lon": 0.0, "name": "c464e10cc6118ca9a6b60f4059799c23", "lat": 38.8771895}, {"rental_uris": {"ios": "https://dc.lft.to/lastmile_qr_scan", "android": "https://dc.lft.to/lastmile_qr_scan"}, "is_reserved": 0, "fusion_lat": 0.0, "type": "electric_bike", "bike_id": "46d96bd655e2b342e4fad7a537dbf6ad", "is_disabled": 0, "lon": -77.0205455, "fusion_lon": 0.0, "name": "46d96bd655e2b342e4fad7a537dbf6ad", "lat": 38.946788166666664}, {"rental_uris": {"ios": "https://dc.lft.to/lastmile_qr_scan", "android": "https://dc.lft.to/lastmile_qr_scan"}, "is_reserved": 0, "fusion_lat": 0.0, "type": "electric_scooter", "bike_id": "5c705d0383f576431222e1d8218b04d6", "is_disabled": 0, "lon": -77.0503045, "fusion_lon": 0.0, "name": "5c705d0383f576431222e1d8218b04d6", "lat": 38.923689833333334}, {"rental_uris": {"ios": "https://dc.lft.to/lastmile_qr_scan", "android": "https://dc.lft.to/lastmile_qr_scan"}, "is_reserved": 0, "fusion_lat": 0.0, "type": "electric_scooter", "bike_id": "4b1137179214787caba9799f51098e38", "is_disabled": 0, "lon": -76.9902855, "fusion_lon": 0.0, "name": "4b1137179214787caba9799f51098e38", "lat": 38.9248875}, {"rental_uris": {"ios": "https://dc.lft.to/lastmile_qr_scan", "android": "https://dc.lft.to/lastmile_qr_scan"}, "is_reserved": 0, "fusion_lat": 0.0, "type": "electric_scooter", "bike_id": "02fef7620cdf696a43c41196b4639eda", "is_disabled": 0, "lon": -76.98194333333333, "fusion_lon": 0.0, "name": "02fef7620cdf696a43c41196b4639eda", "lat": 38.920646166666664}, {"rental_uris": {"ios": "https://dc.lft.to/lastmile_qr_scan", "android": "https://dc.lft.to/lastmile_qr_scan"}, "is_reserved": 0, "fusion_lat": 0.0, "type": "electric_bike", "bike_id": "e59292fcc3f62d923a1023437c1c89ed", "is_disabled": 0, "lon": -76.9936825, "fusion_lon": 0.0, "name": "e59292fcc3f62d923a1023437c1c89ed", "lat": 38.991033}, {"rental_uris": {"ios": "https://dc.lft.to/lastmile_qr_scan", "android": "https://dc.lft.to/lastmile_qr_scan"}, "is_reserved": 0, "fusion_lat": 0.0, "type": "electric_scooter", "bike_id": "6cddb78ff8cceb8124c7b5a80fe8aff3", "is_disabled": 0, "lon": -76.994917, "fusion_lon": 0.0, "name": "6cddb78ff8cceb8124c7b5a80fe8aff3", "lat": 38.89972083333333}, {"rental_uris": {"ios": "https://dc.lft.to/lastmile_qr_scan", "android": "https://dc.lft.to/lastmile_qr_scan"}, "is_reserved": 0, "fusion_lat": 0.0, "type": "electric_scooter", "bike_id": "b4e6465b02ca3b19ba0c38882264a6bf", "is_disabled": 0, "lon": -77.02207416666667, "fusion_lon": 0.0, "name": "b4e6465b02ca3b19ba0c38882264a6bf", "lat": 38.892295}, {"rental_uris": {"ios": "https://dc.lft.to/lastmile_qr_scan", "android": "https://dc.lft.to/lastmile_qr_scan"}, "is_reserved": 0, "fusion_lat": 0.0, "type": "electric_scooter", "bike_id": "ae23f44c7d17c0a00f0db8f9b3959597", "is_disabled": 0, "lon": -77.04660533333333, "fusion_lon": 0.0, "name": "ae23f44c7d17c0a00f0db8f9b3959597", "lat": 38.910060333333334}, {"rental_uris": {"ios": "https://dc.lft.to/lastmile_qr_scan", "android": "https://dc.lft.to/lastmile_qr_scan"}, "is_reserved": 0, "fusion_lat": 0.0, "type": "electric_scooter", "bike_id": "c717c75f7ab799b8a321e1b46a137a16", "is_disabled": 0, "lon": -77.03272016666666, "fusion_lon": 0.0, "name": "c717c75f7ab799b8a321e1b46a137a16", "lat": 38.904588}, {"rental_uris": {"ios": "https://dc.lft.to/lastmile_qr_scan", "android": "https://dc.lft.to/lastmile_qr_scan"}, "is_reserved": 0, "fusion_lat": 0.0, "type": "electric_scooter", "bike_id": "8602f6561d87e8619a1608b00d902b6a", "is_disabled": 0, "lon": -77.00580766666667, "fusion_lon": 0.0, "name": "8602f6561d87e8619a1608b00d902b6a", "lat": 38.90257}, {"rental_uris": {"ios": "https://dc.lft.to/lastmile_qr_scan", "android": "https://dc.lft.to/lastmile_qr_scan"}, "is_reserved": 0, "fusion_lat": 0.0, "type": "electric_scooter", "bike_id": "8e705930fbd21cc094d8831562e87c96", "is_disabled": 0, "lon": -77.0453945, "fusion_lon": 0.0, "name": "8e705930fbd21cc094d8831562e87c96", "lat": 38.909657833333334}, {"rental_uris": {"ios": "https://dc.lft.to/lastmile_qr_scan", "android": "https://dc.lft.to/lastmile_qr_scan"}, "is_reserved": 0, "fusion_lat": 0.0, "type": "electric_scooter", "bike_id": "15f93fc01b4a9eda1a81a3d9dd6cdd27", "is_disabled": 0, "lon": -76.9901475, "fusion_lon": 0.0, "name": "15f93fc01b4a9eda1a81a3d9dd6cdd27", "lat": 38.88600683333333}, {"rental_uris": {"ios": "https://dc.lft.to/lastmile_qr_scan", "android": "https://dc.lft.to/lastmile_qr_scan"}, "is_reserved": 0, "fusion_lat": 0.0, "type": "electric_scooter", "bike_id": "bd2638d00a02f2a3f8002b4cace4d97b", "is_disabled": 0, "lon": -77.02532783333334, "fusion_lon": 0.0, "name": "bd2638d00a02f2a3f8002b4cace4d97b", "lat": 38.9210365}, {"rental_uris": {"ios": "https://dc.lft.to/lastmile_qr_scan", "android": "https://dc.lft.to/lastmile_qr_scan"}, "is_reserved": 0, "fusion_lat": 0.0, "type": "electric_scooter", "bike_id": "6de13a1a05a7e77523e23c1e15fdc6e1", "is_disabled": 0, "lon": -77.023943, "fusion_lon": 0.0, "name": "6de13a1a05a7e77523e23c1e15fdc6e1", "lat": 38.919379}, {"rental_uris": {"ios": "https://dc.lft.to/lastmile_qr_scan", "android": "https://dc.lft.to/lastmile_qr_scan"}, "is_reserved": 0, "fusion_lat": 0.0, "type": "electric_scooter", "bike_id": "bc0a1c3778085cf2ef7f66ad6b99a15b", "is_disabled": 0, "lon": -77.0312065, "fusion_lon": 0.0, "name": "bc0a1c3778085cf2ef7f66ad6b99a15b", "lat": 38.95934066666667}, {"rental_uris": {"ios": "https://dc.lft.to/lastmile_qr_scan", "android": "https://dc.lft.to/lastmile_qr_scan"}, "is_reserved": 0, "fusion_lat": 0.0, "type": "electric_scooter", "bike_id": "62eda6fd91d8fb79e7218686cd159ae1", "is_disabled": 0, "lon": -77.04459633333333, "fusion_lon": 0.0, "name": "62eda6fd91d8fb79e7218686cd159ae1", "lat": 38.911191333333335}, {"rental_uris": {"ios": "https://dc.lft.to/lastmile_qr_scan", "android": "https://dc.lft.to/lastmile_qr_scan"}, "is_reserved": 0, "fusion_lat": 0.0, "type": "electric_scooter", "bike_id": "8dfebdf35c442bea524b79202fff264f", "is_disabled": 0, "lon": -76.986566, "fusion_lon": 0.0, "name": "8dfebdf35c442bea524b79202fff264f", "lat": 38.8580895}, {"rental_uris": {"ios": "https://dc.lft.to/lastmile_qr_scan", "android": "https://dc.lft.to/lastmile_qr_scan"}, "is_reserved": 0, "fusion_lat": 0.0, "type": "electric_scooter", "bike_id": "665075c4a50dc3b46120b058f61ed4b5", "is_disabled": 0, "lon": -77.023744, "fusion_lon": 0.0, "name": "665075c4a50dc3b46120b058f61ed4b5", "lat": 38.924063}, {"rental_uris": {"ios": "https://dc.lft.to/lastmile_qr_scan", "android": "https://dc.lft.to/lastmile_qr_scan"}, "is_reserved": 0, "fusion_lat": 0.0, "type": "electric_scooter", "bike_id": "2d7b5c6abb2498b5fbd61e02009aa923", "is_disabled": 0, "lon": -77.021534, "fusion_lon": 0.0, "name": "2d7b5c6abb2498b5fbd61e02009aa923", "lat": 38.9244975}, {"rental_uris": {"ios": "https://dc.lft.to/lastmile_qr_scan", "android": "https://dc.lft.to/lastmile_qr_scan"}, "is_reserved": 0, "fusion_lat": 0.0, "type": "electric_scooter", "bike_id": "d29219156daf74e81b3dab35036611d7", "is_disabled": 0, "lon": -77.04113433333333, "fusion_lon": 0.0, "name": "d29219156daf74e81b3dab35036611d7", "lat": 38.91070833333333}, {"rental_uris": {"ios": "https://dc.lft.to/lastmile_qr_scan", "android": "https://dc.lft.to/lastmile_qr_scan"}, "is_reserved": 0, "fusion_lat": 0.0, "type": "electric_scooter", "bike_id": "c89bedb6333a1ea880e7b6cb8c1c9ded", "is_disabled": 0, "lon": -77.02208933333333, "fusion_lon": 0.0, "name": "c89bedb6333a1ea880e7b6cb8c1c9ded", "lat": 38.892272166666665}, {"rental_uris": {"ios": "https://dc.lft.to/lastmile_qr_scan", "android": "https://dc.lft.to/lastmile_qr_scan"}, "is_reserved": 0, "fusion_lat": 0.0, "type": "electric_scooter", "bike_id": "2a6fcd0c5364fe59f1daa58d735c3d82", "is_disabled": 0, "lon": -76.98713583333333, "fusion_lon": 0.0, "name": "2a6fcd0c5364fe59f1daa58d735c3d82", "lat": 38.866311}, {"rental_uris": {"ios": "https://dc.lft.to/lastmile_qr_scan", "android": "https://dc.lft.to/lastmile_qr_scan"}, "is_reserved": 0, "fusion_lat": 0.0, "type": "electric_scooter", "bike_id": "bfdbdd4714428007eb7c311f94962ec9", "is_disabled": 0, "lon": -76.98570633333334, "fusion_lon": 0.0, "name": "bfdbdd4714428007eb7c311f94962ec9", "lat": 38.8668855}, {"rental_uris": {"ios": "https://dc.lft.to/lastmile_qr_scan", "android": "https://dc.lft.to/lastmile_qr_scan"}, "is_reserved": 0, "fusion_lat": 0.0, "type": "electric_scooter", "bike_id": "ada1f75937154532a399fa8ab5c0b7e9", "is_disabled": 0, "lon": -77.01506933333333, "fusion_lon": 0.0, "name": "ada1f75937154532a399fa8ab5c0b7e9", "lat": 38.88420833333333}, {"rental_uris": {"ios": "https://dc.lft.to/lastmile_qr_scan", "android": "https://dc.lft.to/lastmile_qr_scan"}, "is_reserved": 0, "fusion_lat": 0.0, "type": "electric_scooter", "bike_id": "57164a3763c7cd6f544506cbacc04858", "is_disabled": 0, "lon": -77.06604166666666, "fusion_lon": 0.0, "name": "57164a3763c7cd6f544506cbacc04858", "lat": 38.909953333333334}, {"rental_uris": {"ios": "https://dc.lft.to/lastmile_qr_scan", "android": "https://dc.lft.to/lastmile_qr_scan"}, "is_reserved": 0, "fusion_lat": 0.0, "type": "electric_scooter", "bike_id": "fb963e5622b4f3fef54cdfe9e283a91d", "is_disabled": 0, "lon": -77.03201316666667, "fusion_lon": 0.0, "name": "fb963e5622b4f3fef54cdfe9e283a91d", "lat": 38.8980765}, {"rental_uris": {"ios": "https://dc.lft.to/lastmile_qr_scan", "android": "https://dc.lft.to/lastmile_qr_scan"}, "is_reserved": 0, "fusion_lat": 0.0, "type": "electric_bike", "bike_id": "d0a4a37db46fbacaa504939bf0175f38", "is_disabled": 0, "lon": -77.12487383333334, "fusion_lon": 0.0, "name": "d0a4a37db46fbacaa504939bf0175f38", "lat": 38.828011000000004}, {"rental_uris": {"ios": "https://dc.lft.to/lastmile_qr_scan", "android": "https://dc.lft.to/lastmile_qr_scan"}, "is_reserved": 0, "fusion_lat": 0.0, "type": "electric_bike", "bike_id": "3325ca2f190c5db75e3b159f80809332", "is_disabled": 0, "lon": -76.9732365, "fusion_lon": 0.0, "name": "3325ca2f190c5db75e3b159f80809332", "lat": 38.865216333333336}, {"rental_uris": {"ios": "https://dc.lft.to/lastmile_qr_scan", "android": "https://dc.lft.to/lastmile_qr_scan"}, "is_reserved": 0, "fusion_lat": 0.0, "type": "electric_scooter", "bike_id": "d6306dc001b1796b2c8d504ea93d1efa", "is_disabled": 0, "lon": -77.03335433333334, "fusion_lon": 0.0, "name": "d6306dc001b1796b2c8d504ea93d1efa", "lat": 38.898267833333335}, {"rental_uris": {"ios": "https://dc.lft.to/lastmile_qr_scan", "android": "https://dc.lft.to/lastmile_qr_scan"}, "is_reserved": 0, "fusion_lat": 0.0, "type": "electric_scooter", "bike_id": "52a6a6e62364a2d9d477c2a5e7aa67f7", "is_disabled": 0, "lon": -77.006907, "fusion_lon": 0.0, "name": "52a6a6e62364a2d9d477c2a5e7aa67f7", "lat": 38.90004533333333}, {"rental_uris": {"ios": "https://dc.lft.to/lastmile_qr_scan", "android": "https://dc.lft.to/lastmile_qr_scan"}, "is_reserved": 0, "fusion_lat": 0.0, "type": "electric_bike", "bike_id": "74f1005dc22bfc17143d3a2ba30e0210", "is_disabled": 0, "lon": -76.9844405, "fusion_lon": 0.0, "name": "74f1005dc22bfc17143d3a2ba30e0210", "lat": 38.909602666666665}, {"rental_uris": {"ios": "https://dc.lft.to/lastmile_qr_scan", "android": "https://dc.lft.to/lastmile_qr_scan"}, "is_reserved": 0, "fusion_lat": 0.0, "type": "electric_scooter", "bike_id": "5b3ce479c619ff384b0c70d536cda900", "is_disabled": 0, "lon": -77.02102133333334, "fusion_lon": 0.0, "name": "5b3ce479c619ff384b0c70d536cda900", "lat": 38.9159355}, {"rental_uris": {"ios": "https://dc.lft.to/lastmile_qr_scan", "android": "https://dc.lft.to/lastmile_qr_scan"}, "is_reserved": 0, "fusion_lat": 0.0, "type": "electric_scooter", "bike_id": "ce1846d8cb85ab970b2b5937f91044b6", "is_disabled": 0, "lon": -77.02413733333333, "fusion_lon": 0.0, "name": "ce1846d8cb85ab970b2b5937f91044b6", "lat": 38.89961233333333}, {"rental_uris": {"ios": "https://dc.lft.to/lastmile_qr_scan", "android": "https://dc.lft.to/lastmile_qr_scan"}, "is_reserved": 0, "fusion_lat": 0.0, "type": "electric_scooter", "bike_id": "3a63f6895dfc0fb3d8f7861038be0235", "is_disabled": 0, "lon": -77.00200516666666, "fusion_lon": 0.0, "name": "3a63f6895dfc0fb3d8f7861038be0235", "lat": 38.906093166666665}, {"rental_uris": {"ios": "https://dc.lft.to/lastmile_qr_scan", "android": "https://dc.lft.to/lastmile_qr_scan"}, "is_reserved": 0, "fusion_lat": 0.0, "type": "electric_scooter", "bike_id": "9323e6d4865a900b16394e11140afb9e", "is_disabled": 0, "lon": -77.02459866666666, "fusion_lon": 0.0, "name": "9323e6d4865a900b16394e11140afb9e", "lat": 38.93727883333333}, {"rental_uris": {"ios": "https://dc.lft.to/lastmile_qr_scan", "android": "https://dc.lft.to/lastmile_qr_scan"}, "is_reserved": 0, "fusion_lat": 0.0, "type": "electric_scooter", "bike_id": "284ae6976fbb3ec4bd09b6a23dd4a236", "is_disabled": 0, "lon": -77.01726316666667, "fusion_lon": 0.0, "name": "284ae6976fbb3ec4bd09b6a23dd4a236", "lat": 38.887483}, {"rental_uris": {"ios": "https://dc.lft.to/lastmile_qr_scan", "android": "https://dc.lft.to/lastmile_qr_scan"}, "is_reserved": 0, "fusion_lat": 0.0, "type": "electric_scooter", "bike_id": "1d4f9d46c66ce764a9a64fe05e91fbfd", "is_disabled": 0, "lon": -77.02201383333333, "fusion_lon": 0.0, "name": "1d4f9d46c66ce764a9a64fe05e91fbfd", "lat": 38.87908683333333}, {"rental_uris": {"ios": "https://dc.lft.to/lastmile_qr_scan", "android": "https://dc.lft.to/lastmile_qr_scan"}, "is_reserved": 0, "fusion_lat": 0.0, "type": "electric_scooter", "bike_id": "2dbe136b7241aeb99fa0f59fa0575b42", "is_disabled": 0, "lon": -77.01535933333334, "fusion_lon": 0.0, "name": "2dbe136b7241aeb99fa0f59fa0575b42", "lat": 38.8862945}, {"rental_uris": {"ios": "https://dc.lft.to/lastmile_qr_scan", "android": "https://dc.lft.to/lastmile_qr_scan"}, "is_reserved": 0, "fusion_lat": 0.0, "type": "electric_scooter", "bike_id": "e80b094705b19da39ff1ca4802f56c5f", "is_disabled": 0, "lon": -77.019514, "fusion_lon": 0.0, "name": "e80b094705b19da39ff1ca4802f56c5f", "lat": 38.9232505}, {"rental_uris": {"ios": "https://dc.lft.to/lastmile_qr_scan", "android": "https://dc.lft.to/lastmile_qr_scan"}, "is_reserved": 0, "fusion_lat": 0.0, "type": "electric_bike", "bike_id": "a1da5a1211925ab94380028594bec2c8", "is_disabled": 0, "lon": -77.03870483333333, "fusion_lon": 0.0, "name": "a1da5a1211925ab94380028594bec2c8", "lat": 38.990565}, {"rental_uris": {"ios": "https://dc.lft.to/lastmile_qr_scan", "android": "https://dc.lft.to/lastmile_qr_scan"}, "is_reserved": 0, "fusion_lat": 0.0, "type": "electric_scooter", "bike_id": "47eca2d7f6147432df68f7d00e4c1e3d", "is_disabled": 0, "lon": -77.04253466666667, "fusion_lon": 0.0, "name": "47eca2d7f6147432df68f7d00e4c1e3d", "lat": 38.907777833333334}, {"rental_uris": {"ios": "https://dc.lft.to/lastmile_qr_scan", "android": "https://dc.lft.to/lastmile_qr_scan"}, "is_reserved": 0, "fusion_lat": 0.0, "type": "electric_scooter", "bike_id": "2533b8d5fd5dc1affb1b9b770b85d50c", "is_disabled": 0, "lon": -77.047743, "fusion_lon": 0.0, "name": "2533b8d5fd5dc1affb1b9b770b85d50c", "lat": 38.89223633333334}, {"rental_uris": {"ios": "https://dc.lft.to/lastmile_qr_scan", "android": "https://dc.lft.to/lastmile_qr_scan"}, "is_reserved": 0, "fusion_lat": 0.0, "type": "electric_scooter", "bike_id": "c79fad34f215c6f8b019f8e72a0128ed", "is_disabled": 0, "lon": -77.03612566666666, "fusion_lon": 0.0, "name": "c79fad34f215c6f8b019f8e72a0128ed", "lat": 38.923406666666665}, {"rental_uris": {"ios": "https://dc.lft.to/lastmile_qr_scan", "android": "https://dc.lft.to/lastmile_qr_scan"}, "is_reserved": 0, "fusion_lat": 0.0, "type": "electric_scooter", "bike_id": "63d80d8add2ac6f109c239c91cf30f1b", "is_disabled": 0, "lon": -77.03444883333333, "fusion_lon": 0.0, "name": "63d80d8add2ac6f109c239c91cf30f1b", "lat": 38.9173625}, {"rental_uris": {"ios": "https://dc.lft.to/lastmile_qr_scan", "android": "https://dc.lft.to/lastmile_qr_scan"}, "is_reserved": 0, "fusion_lat": 0.0, "type": "electric_scooter", "bike_id": "5b862f3ebf8978f89bcff566e00534d2", "is_disabled": 0, "lon": -77.012027, "fusion_lon": 0.0, "name": "5b862f3ebf8978f89bcff566e00534d2", "lat": 38.91690783333333}, {"rental_uris": {"ios": "https://dc.lft.to/lastmile_qr_scan", "android": "https://dc.lft.to/lastmile_qr_scan"}, "is_reserved": 0, "fusion_lat": 0.0, "type": "electric_scooter", "bike_id": "94735bc302a93dd51d78b2c309a5c598", "is_disabled": 0, "lon": -76.9879525, "fusion_lon": 0.0, "name": "94735bc302a93dd51d78b2c309a5c598", "lat": 38.844944}, {"rental_uris": {"ios": "https://dc.lft.to/lastmile_qr_scan", "android": "https://dc.lft.to/lastmile_qr_scan"}, "is_reserved": 0, "fusion_lat": 0.0, "type": "electric_bike", "bike_id": "b43722d330084c9f4cbc40a2c70a5e0b", "is_disabled": 0, "lon": -76.98727283333334, "fusion_lon": 0.0, "name": "b43722d330084c9f4cbc40a2c70a5e0b", "lat": 38.835489}, {"rental_uris": {"ios": "https://dc.lft.to/lastmile_qr_scan", "android": "https://dc.lft.to/lastmile_qr_scan"}, "is_reserved": 0, "fusion_lat": 0.0, "type": "electric_scooter", "bike_id": "2a38c04688a082f4a701008f1711f3bc", "is_disabled": 0, "lon": -77.03208666666667, "fusion_lon": 0.0, "name": "2a38c04688a082f4a701008f1711f3bc", "lat": 38.90777583333333}, {"rental_uris": {"ios": "https://dc.lft.to/lastmile_qr_scan", "android": "https://dc.lft.to/lastmile_qr_scan"}, "is_reserved": 0, "fusion_lat": 0.0, "type": "electric_scooter", "bike_id": "b5105e7d5840f6282df7f87a1a54778e", "is_disabled": 0, "lon": -77.03173633333333, "fusion_lon": 0.0, "name": "b5105e7d5840f6282df7f87a1a54778e", "lat": 38.915873833333336}, {"rental_uris": {"ios": "https://dc.lft.to/lastmile_qr_scan", "android": "https://dc.lft.to/lastmile_qr_scan"}, "is_reserved": 0, "fusion_lat": 0.0, "type": "electric_scooter", "bike_id": "99e500e256192797c0a7cd786ecd15f5", "is_disabled": 0, "lon": -76.996688, "fusion_lon": 0.0, "name": "99e500e256192797c0a7cd786ecd15f5", "lat": 38.8565455}, {"rental_uris": {"ios": "https://dc.lft.to/lastmile_qr_scan", "android": "https://dc.lft.to/lastmile_qr_scan"}, "is_reserved": 0, "fusion_lat": 0.0, "type": "electric_scooter", "bike_id": "8ebd6c76dc8bc6465d73314bf003dc25", "is_disabled": 0, "lon": -77.00361233333334, "fusion_lon": 0.0, "name": "8ebd6c76dc8bc6465d73314bf003dc25", "lat": 38.90722483333333}, {"rental_uris": {"ios": "https://dc.lft.to/lastmile_qr_scan", "android": "https://dc.lft.to/lastmile_qr_scan"}, "is_reserved": 0, "fusion_lat": 0.0, "type": "electric_scooter", "bike_id": "b6d0afb9d1a67f4cfd9d8cf112369a4e", "is_disabled": 0, "lon": -77.00561516666667, "fusion_lon": 0.0, "name": "b6d0afb9d1a67f4cfd9d8cf112369a4e", "lat": 38.87468583333333}, {"rental_uris": {"ios": "https://dc.lft.to/lastmile_qr_scan", "android": "https://dc.lft.to/lastmile_qr_scan"}, "is_reserved": 0, "fusion_lat": 0.0, "type": "electric_scooter", "bike_id": "518fe5837a256dae52022ce933faeb4d", "is_disabled": 0, "lon": -77.03187183333333, "fusion_lon": 0.0, "name": "518fe5837a256dae52022ce933faeb4d", "lat": 38.908365333333336}, {"rental_uris": {"ios": "https://dc.lft.to/lastmile_qr_scan", "android": "https://dc.lft.to/lastmile_qr_scan"}, "is_reserved": 0, "fusion_lat": 0.0, "type": "electric_scooter", "bike_id": "80ff3d51fa153f5b4ee5ab50c032c2b7", "is_disabled": 0, "lon": -77.0037245, "fusion_lon": 0.0, "name": "80ff3d51fa153f5b4ee5ab50c032c2b7", "lat": 38.897338833333336}, {"rental_uris": {"ios": "https://dc.lft.to/lastmile_qr_scan", "android": "https://dc.lft.to/lastmile_qr_scan"}, "is_reserved": 0, "fusion_lat": 0.0, "type": "electric_scooter", "bike_id": "3f69594707e70ed9ca30bb26ff00d837", "is_disabled": 0, "lon": -77.01928916666667, "fusion_lon": 0.0, "name": "3f69594707e70ed9ca30bb26ff00d837", "lat": 38.956896}, {"rental_uris": {"ios": "https://dc.lft.to/lastmile_qr_scan", "android": "https://dc.lft.to/lastmile_qr_scan"}, "is_reserved": 0, "fusion_lat": 0.0, "type": "electric_scooter", "bike_id": "cf9e80c491654cfa2f34a2b68cf1180c", "is_disabled": 0, "lon": -77.044905, "fusion_lon": 0.0, "name": "cf9e80c491654cfa2f34a2b68cf1180c", "lat": 38.901337166666664}, {"rental_uris": {"ios": "https://dc.lft.to/lastmile_qr_scan", "android": "https://dc.lft.to/lastmile_qr_scan"}, "is_reserved": 0, "fusion_lat": 0.0, "type": "electric_scooter", "bike_id": "6fd5545ce3631bf70173dc8d985e6cf0", "is_disabled": 0, "lon": -76.93021383333334, "fusion_lon": 0.0, "name": "6fd5545ce3631bf70173dc8d985e6cf0", "lat": 38.901717833333336}, {"rental_uris": {"ios": "https://dc.lft.to/lastmile_qr_scan", "android": "https://dc.lft.to/lastmile_qr_scan"}, "is_reserved": 0, "fusion_lat": 0.0, "type": "electric_bike", "bike_id": "e1222885cbded0d6db34934e9f8df3ed", "is_disabled": 0, "lon": -76.92046783333333, "fusion_lon": 0.0, "name": "e1222885cbded0d6db34934e9f8df3ed", "lat": 38.897366}, {"rental_uris": {"ios": "https://dc.lft.to/lastmile_qr_scan", "android": "https://dc.lft.to/lastmile_qr_scan"}, "is_reserved": 0, "fusion_lat": 0.0, "type": "electric_scooter", "bike_id": "a6275d891e7c86655e3794c476f240a3", "is_disabled": 0, "lon": -77.03190366666666, "fusion_lon": 0.0, "name": "a6275d891e7c86655e3794c476f240a3", "lat": 38.9083065}, {"rental_uris": {"ios": "https://dc.lft.to/lastmile_qr_scan", "android": "https://dc.lft.to/lastmile_qr_scan"}, "is_reserved": 0, "fusion_lat": 0.0, "type": "electric_scooter", "bike_id": "b2038a8965e5657d2cebb0866a7471bd", "is_disabled": 0, "lon": -77.0020545, "fusion_lon": 0.0, "name": "b2038a8965e5657d2cebb0866a7471bd", "lat": 38.88746316666667}, {"rental_uris": {"ios": "https://dc.lft.to/lastmile_qr_scan", "android": "https://dc.lft.to/lastmile_qr_scan"}, "is_reserved": 0, "fusion_lat": 0.0, "type": "electric_scooter", "bike_id": "9053c550a800281a56a9ae5fd2dcb921", "is_disabled": 0, "lon": -77.00221416666666, "fusion_lon": 0.0, "name": "9053c550a800281a56a9ae5fd2dcb921", "lat": 38.9524455}, {"rental_uris": {"ios": "https://dc.lft.to/lastmile_qr_scan", "android": "https://dc.lft.to/lastmile_qr_scan"}, "is_reserved": 0, "fusion_lat": 0.0, "type": "electric_scooter", "bike_id": "74872c64b0bf3cdc74761d3616c160f6", "is_disabled": 0, "lon": -77.0505275, "fusion_lon": 0.0, "name": "74872c64b0bf3cdc74761d3616c160f6", "lat": 38.92363983333333}, {"rental_uris": {"ios": "https://dc.lft.to/lastmile_qr_scan", "android": "https://dc.lft.to/lastmile_qr_scan"}, "is_reserved": 0, "fusion_lat": 0.0, "type": "electric_scooter", "bike_id": "b0663c5cb588c07ce9f073283000a2a4", "is_disabled": 0, "lon": -77.04008566666667, "fusion_lon": 0.0, "name": "b0663c5cb588c07ce9f073283000a2a4", "lat": 38.896394666666666}, {"rental_uris": {"ios": "https://dc.lft.to/lastmile_qr_scan", "android": "https://dc.lft.to/lastmile_qr_scan"}, "is_reserved": 0, "fusion_lat": 0.0, "type": "electric_scooter", "bike_id": "d5fa1d46bd2b5de171f7cc36a5499b0c", "is_disabled": 0, "lon": -77.0432055, "fusion_lon": 0.0, "name": "d5fa1d46bd2b5de171f7cc36a5499b0c", "lat": 38.90345516666667}, {"rental_uris": {"ios": "https://dc.lft.to/lastmile_qr_scan", "android": "https://dc.lft.to/lastmile_qr_scan"}, "is_reserved": 0, "fusion_lat": 0.0, "type": "electric_scooter", "bike_id": "0b5c2cb08b221eb6454fdddbefa9a820", "is_disabled": 0, "lon": -76.98277, "fusion_lon": 0.0, "name": "0b5c2cb08b221eb6454fdddbefa9a820", "lat": 38.867595333333334}, {"rental_uris": {"ios": "https://dc.lft.to/lastmile_qr_scan", "android": "https://dc.lft.to/lastmile_qr_scan"}, "is_reserved": 0, "fusion_lat": 0.0, "type": "electric_scooter", "bike_id": "33fee004faf57a05a856343145cc7444", "is_disabled": 0, "lon": -77.0034015, "fusion_lon": 0.0, "name": "33fee004faf57a05a856343145cc7444", "lat": 38.91681066666666}, {"rental_uris": {"ios": "https://dc.lft.to/lastmile_qr_scan", "android": "https://dc.lft.to/lastmile_qr_scan"}, "is_reserved": 0, "fusion_lat": 0.0, "type": "electric_scooter", "bike_id": "5688eb43f548743a410d83fdaabcf52f", "is_disabled": 0, "lon": -77.02702166666667, "fusion_lon": 0.0, "name": "5688eb43f548743a410d83fdaabcf52f", "lat": 38.88151533333333}, {"rental_uris": {"ios": "https://dc.lft.to/lastmile_qr_scan", "android": "https://dc.lft.to/lastmile_qr_scan"}, "is_reserved": 0, "fusion_lat": 0.0, "type": "electric_scooter", "bike_id": "116928a3f5a92dc00994e1979cd7cb2a", "is_disabled": 0, "lon": -77.0463165, "fusion_lon": 0.0, "name": "116928a3f5a92dc00994e1979cd7cb2a", "lat": 38.9158225}, {"rental_uris": {"ios": "https://dc.lft.to/lastmile_qr_scan", "android": "https://dc.lft.to/lastmile_qr_scan"}, "is_reserved": 0, "fusion_lat": 0.0, "type": "electric_scooter", "bike_id": "a7cec21c1226295f5223752aee669e3f", "is_disabled": 0, "lon": -77.03838866666666, "fusion_lon": 0.0, "name": "a7cec21c1226295f5223752aee669e3f", "lat": 38.9114335}, {"rental_uris": {"ios": "https://dc.lft.to/lastmile_qr_scan", "android": "https://dc.lft.to/lastmile_qr_scan"}, "is_reserved": 0, "fusion_lat": 0.0, "type": "electric_scooter", "bike_id": "dfbae33e3f4618b6724c3537a3179a6a", "is_disabled": 0, "lon": -77.0137815, "fusion_lon": 0.0, "name": "dfbae33e3f4618b6724c3537a3179a6a", "lat": 38.95235233333333}, {"rental_uris": {"ios": "https://dc.lft.to/lastmile_qr_scan", "android": "https://dc.lft.to/lastmile_qr_scan"}, "is_reserved": 0, "fusion_lat": 0.0, "type": "electric_scooter", "bike_id": "71416ef4c89aa196290894d785db80a2", "is_disabled": 0, "lon": -77.04171616666666, "fusion_lon": 0.0, "name": "71416ef4c89aa196290894d785db80a2", "lat": 38.92002466666667}, {"rental_uris": {"ios": "https://dc.lft.to/lastmile_qr_scan", "android": "https://dc.lft.to/lastmile_qr_scan"}, "is_reserved": 0, "fusion_lat": 0.0, "type": "electric_scooter", "bike_id": "cadc86fc40ba9773302047d2c1a2f725", "is_disabled": 0, "lon": -77.0071535, "fusion_lon": 0.0, "name": "cadc86fc40ba9773302047d2c1a2f725", "lat": 38.8848555}, {"rental_uris": {"ios": "https://dc.lft.to/lastmile_qr_scan", "android": "https://dc.lft.to/lastmile_qr_scan"}, "is_reserved": 0, "fusion_lat": 0.0, "type": "electric_scooter", "bike_id": "40922208286efa5fb648c1b5c5b619ac", "is_disabled": 0, "lon": -77.02647683333333, "fusion_lon": 0.0, "name": "40922208286efa5fb648c1b5c5b619ac", "lat": 38.92484683333333}, {"rental_uris": {"ios": "https://dc.lft.to/lastmile_qr_scan", "android": "https://dc.lft.to/lastmile_qr_scan"}, "is_reserved": 0, "fusion_lat": 0.0, "type": "electric_scooter", "bike_id": "30c0b5517ec7002be72ed4fa6bf3c86f", "is_disabled": 0, "lon": -77.0260875, "fusion_lon": 0.0, "name": "30c0b5517ec7002be72ed4fa6bf3c86f", "lat": 38.90676533333333}, {"rental_uris": {"ios": "https://dc.lft.to/lastmile_qr_scan", "android": "https://dc.lft.to/lastmile_qr_scan"}, "is_reserved": 0, "fusion_lat": 0.0, "type": "electric_scooter", "bike_id": "036b9dc9ff2f8252fa7bca7b431aa5fc", "is_disabled": 0, "lon": -77.02328183333333, "fusion_lon": 0.0, "name": "036b9dc9ff2f8252fa7bca7b431aa5fc", "lat": 38.92092516666666}, {"rental_uris": {"ios": "https://dc.lft.to/lastmile_qr_scan", "android": "https://dc.lft.to/lastmile_qr_scan"}, "is_reserved": 0, "fusion_lat": 0.0, "type": "electric_scooter", "bike_id": "111107a314931f9baf8eb4aea9ce675b", "is_disabled": 0, "lon": -77.04342033333333, "fusion_lon": 0.0, "name": "111107a314931f9baf8eb4aea9ce675b", "lat": 38.9042045}, {"rental_uris": {"ios": "https://dc.lft.to/lastmile_qr_scan", "android": "https://dc.lft.to/lastmile_qr_scan"}, "is_reserved": 0, "fusion_lat": 0.0, "type": "electric_scooter", "bike_id": "673a7e37ccc6bb73b4ce8136c4edd9d1", "is_disabled": 0, "lon": -76.99900983333333, "fusion_lon": 0.0, "name": "673a7e37ccc6bb73b4ce8136c4edd9d1", "lat": 38.9001795}, {"rental_uris": {"ios": "https://dc.lft.to/lastmile_qr_scan", "android": "https://dc.lft.to/lastmile_qr_scan"}, "is_reserved": 0, "fusion_lat": 0.0, "type": "electric_scooter", "bike_id": "07fb8965a8d8122212a5cd8016bd5bc3", "is_disabled": 0, "lon": -77.00070366666667, "fusion_lon": 0.0, "name": "07fb8965a8d8122212a5cd8016bd5bc3", "lat": 38.925534}, {"rental_uris": {"ios": "https://dc.lft.to/lastmile_qr_scan", "android": "https://dc.lft.to/lastmile_qr_scan"}, "is_reserved": 0, "fusion_lat": 0.0, "type": "electric_scooter", "bike_id": "a898c14c935b642600f3cbd5f90f2084", "is_disabled": 0, "lon": -77.01482666666666, "fusion_lon": 0.0, "name": "a898c14c935b642600f3cbd5f90f2084", "lat": 38.91413033333333}, {"rental_uris": {"ios": "https://dc.lft.to/lastmile_qr_scan", "android": "https://dc.lft.to/lastmile_qr_scan"}, "is_reserved": 0, "fusion_lat": 0.0, "type": "electric_scooter", "bike_id": "46e1dfa33609da47e5816c5b5683929f", "is_disabled": 0, "lon": -77.02008866666667, "fusion_lon": 0.0, "name": "46e1dfa33609da47e5816c5b5683929f", "lat": 38.89742}, {"rental_uris": {"ios": "https://dc.lft.to/lastmile_qr_scan", "android": "https://dc.lft.to/lastmile_qr_scan"}, "is_reserved": 0, "fusion_lat": 0.0, "type": "electric_scooter", "bike_id": "f4d57811c3b06ec3c93c9915a87a9dfe", "is_disabled": 0, "lon": -77.00112883333334, "fusion_lon": 0.0, "name": "f4d57811c3b06ec3c93c9915a87a9dfe", "lat": 38.900347}, {"rental_uris": {"ios": "https://dc.lft.to/lastmile_qr_scan", "android": "https://dc.lft.to/lastmile_qr_scan"}, "is_reserved": 0, "fusion_lat": 0.0, "type": "electric_bike", "bike_id": "6a3544bba26de626b07fdd627432caa1", "is_disabled": 0, "lon": -76.97254383333333, "fusion_lon": 0.0, "name": "6a3544bba26de626b07fdd627432caa1", "lat": 38.95739833333333}, {"rental_uris": {"ios": "https://dc.lft.to/lastmile_qr_scan", "android": "https://dc.lft.to/lastmile_qr_scan"}, "is_reserved": 0, "fusion_lat": 0.0, "type": "electric_scooter", "bike_id": "f9161d34d81b96c06c0f07ea98a6587a", "is_disabled": 0, "lon": -77.04011383333334, "fusion_lon": 0.0, "name": "f9161d34d81b96c06c0f07ea98a6587a", "lat": 38.90556483333334}, {"rental_uris": {"ios": "https://dc.lft.to/lastmile_qr_scan", "android": "https://dc.lft.to/lastmile_qr_scan"}, "is_reserved": 0, "fusion_lat": 0.0, "type": "electric_scooter", "bike_id": "2487a588dd3e29dfc3a6f2a6a44b5e67", "is_disabled": 0, "lon": -76.99956866666666, "fusion_lon": 0.0, "name": "2487a588dd3e29dfc3a6f2a6a44b5e67", "lat": 38.874215166666666}, {"rental_uris": {"ios": "https://dc.lft.to/lastmile_qr_scan", "android": "https://dc.lft.to/lastmile_qr_scan"}, "is_reserved": 0, "fusion_lat": 0.0, "type": "electric_scooter", "bike_id": "f13123a6e63e086ed4e57da4df746351", "is_disabled": 0, "lon": -77.04165616666667, "fusion_lon": 0.0, "name": "f13123a6e63e086ed4e57da4df746351", "lat": 38.90746583333333}, {"rental_uris": {"ios": "https://dc.lft.to/lastmile_qr_scan", "android": "https://dc.lft.to/lastmile_qr_scan"}, "is_reserved": 0, "fusion_lat": 0.0, "type": "electric_bike", "bike_id": "1dacd933d3c94b67d202d1943584ce1d", "is_disabled": 0, "lon": -76.97255133333333, "fusion_lon": 0.0, "name": "1dacd933d3c94b67d202d1943584ce1d", "lat": 38.9574705}, {"rental_uris": {"ios": "https://dc.lft.to/lastmile_qr_scan", "android": "https://dc.lft.to/lastmile_qr_scan"}, "is_reserved": 0, "fusion_lat": 0.0, "type": "electric_scooter", "bike_id": "7bef43169827deb7f96ec9f583132e83", "is_disabled": 0, "lon": -77.0263465, "fusion_lon": 0.0, "name": "7bef43169827deb7f96ec9f583132e83", "lat": 38.89440233333333}, {"rental_uris": {"ios": "https://dc.lft.to/lastmile_qr_scan", "android": "https://dc.lft.to/lastmile_qr_scan"}, "is_reserved": 0, "fusion_lat": 0.0, "type": "electric_scooter", "bike_id": "e4fb77a31a732d4796c999898e28dc8c", "is_disabled": 0, "lon": -77.00207483333334, "fusion_lon": 0.0, "name": "e4fb77a31a732d4796c999898e28dc8c", "lat": 38.89528816666667}, {"rental_uris": {"ios": "https://dc.lft.to/lastmile_qr_scan", "android": "https://dc.lft.to/lastmile_qr_scan"}, "is_reserved": 0, "fusion_lat": 0.0, "type": "electric_scooter", "bike_id": "e5f6c06a84819be5f62c11575c5c8f3e", "is_disabled": 0, "lon": -77.01922433333333, "fusion_lon": 0.0, "name": "e5f6c06a84819be5f62c11575c5c8f3e", "lat": 38.9177115}, {"rental_uris": {"ios": "https://dc.lft.to/lastmile_qr_scan", "android": "https://dc.lft.to/lastmile_qr_scan"}, "is_reserved": 0, "fusion_lat": 0.0, "type": "electric_scooter", "bike_id": "e9fd13df312019e14b7f07a1f4d263e0", "is_disabled": 0, "lon": -76.98633816666667, "fusion_lon": 0.0, "name": "e9fd13df312019e14b7f07a1f4d263e0", "lat": 38.909155166666665}, {"rental_uris": {"ios": "https://dc.lft.to/lastmile_qr_scan", "android": "https://dc.lft.to/lastmile_qr_scan"}, "is_reserved": 0, "fusion_lat": 0.0, "type": "electric_bike", "bike_id": "5164c7b93560ab8f8f3b572e812ce1d0", "is_disabled": 0, "lon": -76.996553, "fusion_lon": 0.0, "name": "5164c7b93560ab8f8f3b572e812ce1d0", "lat": 38.81613883333333}, {"rental_uris": {"ios": "https://dc.lft.to/lastmile_qr_scan", "android": "https://dc.lft.to/lastmile_qr_scan"}, "is_reserved": 0, "fusion_lat": 0.0, "type": "electric_bike", "bike_id": "80456a1cd9f96430f9804862585e161c", "is_disabled": 0, "lon": -77.09962483333334, "fusion_lon": 0.0, "name": "80456a1cd9f96430f9804862585e161c", "lat": 38.8579285}, {"rental_uris": {"ios": "https://dc.lft.to/lastmile_qr_scan", "android": "https://dc.lft.to/lastmile_qr_scan"}, "is_reserved": 0, "fusion_lat": 0.0, "type": "electric_scooter", "bike_id": "811f7a7c7a7032bd37642a3b8b47f094", "is_disabled": 0, "lon": -77.00946083333334, "fusion_lon": 0.0, "name": "811f7a7c7a7032bd37642a3b8b47f094", "lat": 38.96116}, {"rental_uris": {"ios": "https://dc.lft.to/lastmile_qr_scan", "android": "https://dc.lft.to/lastmile_qr_scan"}, "is_reserved": 0, "fusion_lat": 0.0, "type": "electric_bike", "bike_id": "7321d26ece448a8f1e2a77b276d60e51", "is_disabled": 0, "lon": -77.04500966666667, "fusion_lon": 0.0, "name": "7321d26ece448a8f1e2a77b276d60e51", "lat": 39.0141775}, {"rental_uris": {"ios": "https://dc.lft.to/lastmile_qr_scan", "android": "https://dc.lft.to/lastmile_qr_scan"}, "is_reserved": 0, "fusion_lat": 0.0, "type": "electric_bike", "bike_id": "e1ae1a1b0f18138f885fa1851b45b851", "is_disabled": 0, "lon": -77.15245033333333, "fusion_lon": 0.0, "name": "e1ae1a1b0f18138f885fa1851b45b851", "lat": 39.08604283333333}, {"rental_uris": {"ios": "https://dc.lft.to/lastmile_qr_scan", "android": "https://dc.lft.to/lastmile_qr_scan"}, "is_reserved": 0, "fusion_lat": 0.0, "type": "electric_bike", "bike_id": "c33f81ba03317439e015e1bb820a9997", "is_disabled": 0, "lon": -76.95836016666667, "fusion_lon": 0.0, "name": "c33f81ba03317439e015e1bb820a9997", "lat": 38.93048433333333}, {"rental_uris": {"ios": "https://dc.lft.to/lastmile_qr_scan", "android": "https://dc.lft.to/lastmile_qr_scan"}, "is_reserved": 0, "fusion_lat": 0.0, "type": "electric_bike", "bike_id": "2dadf263ebbbd70cf167424dd7d9e841", "is_disabled": 0, "lon": -76.99063733333334, "fusion_lon": 0.0, "name": "2dadf263ebbbd70cf167424dd7d9e841", "lat": 38.898207}, {"rental_uris": {"ios": "https://dc.lft.to/lastmile_qr_scan", "android": "https://dc.lft.to/lastmile_qr_scan"}, "is_reserved": 0, "fusion_lat": 0.0, "type": "electric_bike", "bike_id": "82d3ad5976bc54e6011499d0617edd22", "is_disabled": 0, "lon": -77.02124266666667, "fusion_lon": 0.0, "name": "82d3ad5976bc54e6011499d0617edd22", "lat": 38.899767}, {"rental_uris": {"ios": "https://dc.lft.to/lastmile_qr_scan", "android": "https://dc.lft.to/lastmile_qr_scan"}, "is_reserved": 0, "fusion_lat": 0.0, "type": "electric_scooter", "bike_id": "9defb46b13f0da32216f982fbe877b42", "is_disabled": 0, "lon": -76.99753066666666, "fusion_lon": 0.0, "name": "9defb46b13f0da32216f982fbe877b42", "lat": 38.885080333333335}, {"rental_uris": {"ios": "https://dc.lft.to/lastmile_qr_scan", "android": "https://dc.lft.to/lastmile_qr_scan"}, "is_reserved": 0, "fusion_lat": 0.0, "type": "electric_scooter", "bike_id": "1645525de647dcd874e04eb9cb1ede94", "is_disabled": 0, "lon": -77.057472, "fusion_lon": 0.0, "name": "1645525de647dcd874e04eb9cb1ede94", "lat": 38.93402833333333}, {"rental_uris": {"ios": "https://dc.lft.to/lastmile_qr_scan", "android": "https://dc.lft.to/lastmile_qr_scan"}, "is_reserved": 0, "fusion_lat": 0.0, "type": "electric_scooter", "bike_id": "b8cfc14eb575c76ea013473cfafd727a", "is_disabled": 0, "lon": -77.03794083333334, "fusion_lon": 0.0, "name": "b8cfc14eb575c76ea013473cfafd727a", "lat": 38.926806666666664}, {"rental_uris": {"ios": "https://dc.lft.to/lastmile_qr_scan", "android": "https://dc.lft.to/lastmile_qr_scan"}, "is_reserved": 0, "fusion_lat": 0.0, "type": "electric_scooter", "bike_id": "bd7bbbd046b2798b7003769e53d31658", "is_disabled": 0, "lon": -77.0281255, "fusion_lon": 0.0, "name": "bd7bbbd046b2798b7003769e53d31658", "lat": 38.91765}, {"rental_uris": {"ios": "https://dc.lft.to/lastmile_qr_scan", "android": "https://dc.lft.to/lastmile_qr_scan"}, "is_reserved": 0, "fusion_lat": 0.0, "type": "electric_scooter", "bike_id": "c7fb4ee66dc170368f711ff599be1012", "is_disabled": 0, "lon": -77.02767333333334, "fusion_lon": 0.0, "name": "c7fb4ee66dc170368f711ff599be1012", "lat": 38.898684333333335}, {"rental_uris": {"ios": "https://dc.lft.to/lastmile_qr_scan", "android": "https://dc.lft.to/lastmile_qr_scan"}, "is_reserved": 0, "fusion_lat": 0.0, "type": "electric_scooter", "bike_id": "c4db99e493847b69c46564cf90d73b5f", "is_disabled": 0, "lon": -77.0462905, "fusion_lon": 0.0, "name": "c4db99e493847b69c46564cf90d73b5f", "lat": 38.91593783333333}, {"rental_uris": {"ios": "https://dc.lft.to/lastmile_qr_scan", "android": "https://dc.lft.to/lastmile_qr_scan"}, "is_reserved": 0, "fusion_lat": 0.0, "type": "electric_scooter", "bike_id": "f2d12fe855f9a26e7f669599cf865590", "is_disabled": 0, "lon": -77.02693, "fusion_lon": 0.0, "name": "f2d12fe855f9a26e7f669599cf865590", "lat": 38.90845016666667}, {"rental_uris": {"ios": "https://dc.lft.to/lastmile_qr_scan", "android": "https://dc.lft.to/lastmile_qr_scan"}, "is_reserved": 0, "fusion_lat": 0.0, "type": "electric_scooter", "bike_id": "86433bb216a7361a77fadbca28377831", "is_disabled": 0, "lon": -77.00109966666666, "fusion_lon": 0.0, "name": "86433bb216a7361a77fadbca28377831", "lat": 38.87373516666667}, {"rental_uris": {"ios": "https://dc.lft.to/lastmile_qr_scan", "android": "https://dc.lft.to/lastmile_qr_scan"}, "is_reserved": 0, "fusion_lat": 0.0, "type": "electric_scooter", "bike_id": "ec9e9c246b72202d7220e0cbdf04e92f", "is_disabled": 0, "lon": -77.04997683333333, "fusion_lon": 0.0, "name": "ec9e9c246b72202d7220e0cbdf04e92f", "lat": 38.89827966666667}, {"rental_uris": {"ios": "https://dc.lft.to/lastmile_qr_scan", "android": "https://dc.lft.to/lastmile_qr_scan"}, "is_reserved": 0, "fusion_lat": 0.0, "type": "electric_scooter", "bike_id": "3cb1b6137db96cf223dc6a1061ba249d", "is_disabled": 0, "lon": -77.03230016666667, "fusion_lon": 0.0, "name": "3cb1b6137db96cf223dc6a1061ba249d", "lat": 38.912005666666666}, {"rental_uris": {"ios": "https://dc.lft.to/lastmile_qr_scan", "android": "https://dc.lft.to/lastmile_qr_scan"}, "is_reserved": 0, "fusion_lat": 0.0, "type": "electric_scooter", "bike_id": "daef90f0e56f80d2eec97877f80db259", "is_disabled": 0, "lon": -76.99038683333333, "fusion_lon": 0.0, "name": "daef90f0e56f80d2eec97877f80db259", "lat": 38.863911333333334}, {"rental_uris": {"ios": "https://dc.lft.to/lastmile_qr_scan", "android": "https://dc.lft.to/lastmile_qr_scan"}, "is_reserved": 0, "fusion_lat": 0.0, "type": "electric_scooter", "bike_id": "9ec96e527f1bc0d435eb31d6bf835c42", "is_disabled": 0, "lon": -77.00929016666667, "fusion_lon": 0.0, "name": "9ec96e527f1bc0d435eb31d6bf835c42", "lat": 38.896051166666666}, {"rental_uris": {"ios": "https://dc.lft.to/lastmile_qr_scan", "android": "https://dc.lft.to/lastmile_qr_scan"}, "is_reserved": 0, "fusion_lat": 0.0, "type": "electric_scooter", "bike_id": "29256d5c6bd569e3d9e50c1bb7687073", "is_disabled": 0, "lon": -77.02488683333333, "fusion_lon": 0.0, "name": "29256d5c6bd569e3d9e50c1bb7687073", "lat": 38.902593}, {"rental_uris": {"ios": "https://dc.lft.to/lastmile_qr_scan", "android": "https://dc.lft.to/lastmile_qr_scan"}, "is_reserved": 0, "fusion_lat": 0.0, "type": "electric_scooter", "bike_id": "cf8dd2795bfd163c96601e0f7e603a37", "is_disabled": 0, "lon": -76.98376816666666, "fusion_lon": 0.0, "name": "cf8dd2795bfd163c96601e0f7e603a37", "lat": 38.86031166666667}, {"rental_uris": {"ios": "https://dc.lft.to/lastmile_qr_scan", "android": "https://dc.lft.to/lastmile_qr_scan"}, "is_reserved": 0, "fusion_lat": 0.0, "type": "electric_scooter", "bike_id": "6268990d99c1bc7b2e4da3cd74a5afbe", "is_disabled": 0, "lon": -77.02955066666667, "fusion_lon": 0.0, "name": "6268990d99c1bc7b2e4da3cd74a5afbe", "lat": 38.89626716666667}, {"rental_uris": {"ios": "https://dc.lft.to/lastmile_qr_scan", "android": "https://dc.lft.to/lastmile_qr_scan"}, "is_reserved": 0, "fusion_lat": 0.0, "type": "electric_scooter", "bike_id": "1097c65bd17d9115cc36fb2ccc7db538", "is_disabled": 0, "lon": -76.94700483333334, "fusion_lon": 0.0, "name": "1097c65bd17d9115cc36fb2ccc7db538", "lat": 38.89731366666667}, {"rental_uris": {"ios": "https://dc.lft.to/lastmile_qr_scan", "android": "https://dc.lft.to/lastmile_qr_scan"}, "is_reserved": 0, "fusion_lat": 0.0, "type": "electric_scooter", "bike_id": "3463ec6bcc765d1572cd65d39348e52e", "is_disabled": 0, "lon": -77.043427, "fusion_lon": 0.0, "name": "3463ec6bcc765d1572cd65d39348e52e", "lat": 38.90421116666667}, {"rental_uris": {"ios": "https://dc.lft.to/lastmile_qr_scan", "android": "https://dc.lft.to/lastmile_qr_scan"}, "is_reserved": 0, "fusion_lat": 0.0, "type": "electric_scooter", "bike_id": "bd7ec21df88560e0456339d5b6e798ed", "is_disabled": 0, "lon": -77.03947766666667, "fusion_lon": 0.0, "name": "bd7ec21df88560e0456339d5b6e798ed", "lat": 38.9023355}, {"rental_uris": {"ios": "https://dc.lft.to/lastmile_qr_scan", "android": "https://dc.lft.to/lastmile_qr_scan"}, "is_reserved": 0, "fusion_lat": 0.0, "type": "electric_scooter", "bike_id": "306230b312f20233df50e1988bc6279d", "is_disabled": 0, "lon": -76.99486, "fusion_lon": 0.0, "name": "306230b312f20233df50e1988bc6279d", "lat": 38.904620666666666}, {"rental_uris": {"ios": "https://dc.lft.to/lastmile_qr_scan", "android": "https://dc.lft.to/lastmile_qr_scan"}, "is_reserved": 0, "fusion_lat": 0.0, "type": "electric_scooter", "bike_id": "132610b5802db49f83a9b0ad195bc37d", "is_disabled": 0, "lon": -77.03503266666667, "fusion_lon": 0.0, "name": "132610b5802db49f83a9b0ad195bc37d", "lat": 38.92874416666667}, {"rental_uris": {"ios": "https://dc.lft.to/lastmile_qr_scan", "android": "https://dc.lft.to/lastmile_qr_scan"}, "is_reserved": 0, "fusion_lat": 0.0, "type": "electric_bike", "bike_id": "e6d5a534fabbea51962ae778f7d51e69", "is_disabled": 0, "lon": -76.960517, "fusion_lon": 0.0, "name": "e6d5a534fabbea51962ae778f7d51e69", "lat": 38.88405133333333}, {"rental_uris": {"ios": "https://dc.lft.to/lastmile_qr_scan", "android": "https://dc.lft.to/lastmile_qr_scan"}, "is_reserved": 0, "fusion_lat": 0.0, "type": "electric_scooter", "bike_id": "b74fce2557a233422675f73bb6c73ede", "is_disabled": 0, "lon": -77.03832916666667, "fusion_lon": 0.0, "name": "b74fce2557a233422675f73bb6c73ede", "lat": 38.90282933333334}, {"rental_uris": {"ios": "https://dc.lft.to/lastmile_qr_scan", "android": "https://dc.lft.to/lastmile_qr_scan"}, "is_reserved": 0, "fusion_lat": 0.0, "type": "electric_scooter", "bike_id": "d5151e44aa6872bb989a97d7ddf257df", "is_disabled": 0, "lon": -77.05130233333334, "fusion_lon": 0.0, "name": "d5151e44aa6872bb989a97d7ddf257df", "lat": 38.92521166666667}, {"rental_uris": {"ios": "https://dc.lft.to/lastmile_qr_scan", "android": "https://dc.lft.to/lastmile_qr_scan"}, "is_reserved": 0, "fusion_lat": 0.0, "type": "electric_scooter", "bike_id": "1e4ee80c68e97b32367f6d7c99c3ab18", "is_disabled": 0, "lon": -77.02678783333333, "fusion_lon": 0.0, "name": "1e4ee80c68e97b32367f6d7c99c3ab18", "lat": 38.89711883333333}, {"rental_uris": {"ios": "https://dc.lft.to/lastmile_qr_scan", "android": "https://dc.lft.to/lastmile_qr_scan"}, "is_reserved": 0, "fusion_lat": 0.0, "type": "electric_scooter", "bike_id": "c481bbc26e24a3799cd010e07054fc3d", "is_disabled": 0, "lon": -77.04353583333334, "fusion_lon": 0.0, "name": "c481bbc26e24a3799cd010e07054fc3d", "lat": 38.92825416666667}, {"rental_uris": {"ios": "https://dc.lft.to/lastmile_qr_scan", "android": "https://dc.lft.to/lastmile_qr_scan"}, "is_reserved": 0, "fusion_lat": 0.0, "type": "electric_scooter", "bike_id": "2322cc5803c8f0c5d475f7452c1bc5e0", "is_disabled": 0, "lon": -77.03600783333333, "fusion_lon": 0.0, "name": "2322cc5803c8f0c5d475f7452c1bc5e0", "lat": 38.928609}, {"rental_uris": {"ios": "https://dc.lft.to/lastmile_qr_scan", "android": "https://dc.lft.to/lastmile_qr_scan"}, "is_reserved": 0, "fusion_lat": 0.0, "type": "electric_scooter", "bike_id": "8d6f7e73fbe8f9b21cc899fc0c637984", "is_disabled": 0, "lon": -77.02313416666667, "fusion_lon": 0.0, "name": "8d6f7e73fbe8f9b21cc899fc0c637984", "lat": 38.927912666666664}, {"rental_uris": {"ios": "https://dc.lft.to/lastmile_qr_scan", "android": "https://dc.lft.to/lastmile_qr_scan"}, "is_reserved": 0, "fusion_lat": 0.0, "type": "electric_scooter", "bike_id": "415a6480f59fd16fe419136699ad2362", "is_disabled": 0, "lon": -77.015469, "fusion_lon": 0.0, "name": "415a6480f59fd16fe419136699ad2362", "lat": 38.9412985}, {"rental_uris": {"ios": "https://dc.lft.to/lastmile_qr_scan", "android": "https://dc.lft.to/lastmile_qr_scan"}, "is_reserved": 0, "fusion_lat": 0.0, "type": "electric_scooter", "bike_id": "ca3c15a71011951a95cdfb0cf8719cdb", "is_disabled": 0, "lon": -77.01503583333333, "fusion_lon": 0.0, "name": "ca3c15a71011951a95cdfb0cf8719cdb", "lat": 38.88452066666667}, {"rental_uris": {"ios": "https://dc.lft.to/lastmile_qr_scan", "android": "https://dc.lft.to/lastmile_qr_scan"}, "is_reserved": 0, "fusion_lat": 0.0, "type": "electric_scooter", "bike_id": "16fb95626cf87c092c1deb9e5cd7777d", "is_disabled": 0, "lon": -77.03213433333333, "fusion_lon": 0.0, "name": "16fb95626cf87c092c1deb9e5cd7777d", "lat": 38.92787916666666}, {"rental_uris": {"ios": "https://dc.lft.to/lastmile_qr_scan", "android": "https://dc.lft.to/lastmile_qr_scan"}, "is_reserved": 0, "fusion_lat": 0.0, "type": "electric_scooter", "bike_id": "02efa76d203f4d7b59023f2fc4e6f59e", "is_disabled": 0, "lon": -77.00196166666667, "fusion_lon": 0.0, "name": "02efa76d203f4d7b59023f2fc4e6f59e", "lat": 38.902441}, {"rental_uris": {"ios": "https://dc.lft.to/lastmile_qr_scan", "android": "https://dc.lft.to/lastmile_qr_scan"}, "is_reserved": 0, "fusion_lat": 0.0, "type": "electric_scooter", "bike_id": "80f4ae115899c3f39d0f1d5c604ff12a", "is_disabled": 0, "lon": -76.98907083333333, "fusion_lon": 0.0, "name": "80f4ae115899c3f39d0f1d5c604ff12a", "lat": 38.90020783333333}, {"rental_uris": {"ios": "https://dc.lft.to/lastmile_qr_scan", "android": "https://dc.lft.to/lastmile_qr_scan"}, "is_reserved": 0, "fusion_lat": 0.0, "type": "electric_scooter", "bike_id": "7bf491b5b6c6e2f0c6c54da53528772e", "is_disabled": 0, "lon": -77.032604, "fusion_lon": 0.0, "name": "7bf491b5b6c6e2f0c6c54da53528772e", "lat": 38.9321825}, {"rental_uris": {"ios": "https://dc.lft.to/lastmile_qr_scan", "android": "https://dc.lft.to/lastmile_qr_scan"}, "is_reserved": 0, "fusion_lat": 0.0, "type": "electric_scooter", "bike_id": "fdecf388b4bc75b887216e7344dd04e7", "is_disabled": 0, "lon": -77.00210733333333, "fusion_lon": 0.0, "name": "fdecf388b4bc75b887216e7344dd04e7", "lat": 38.90017133333333}, {"rental_uris": {"ios": "https://dc.lft.to/lastmile_qr_scan", "android": "https://dc.lft.to/lastmile_qr_scan"}, "is_reserved": 0, "fusion_lat": 0.0, "type": "electric_scooter", "bike_id": "fc3b80c7480e26a4cd3fcb711acd6904", "is_disabled": 0, "lon": -77.0547595, "fusion_lon": 0.0, "name": "fc3b80c7480e26a4cd3fcb711acd6904", "lat": 38.908161}, {"rental_uris": {"ios": "https://dc.lft.to/lastmile_qr_scan", "android": "https://dc.lft.to/lastmile_qr_scan"}, "is_reserved": 0, "fusion_lat": 0.0, "type": "electric_bike", "bike_id": "12c621062b226f7022f7791cd32244f0", "is_disabled": 0, "lon": -77.00648433333333, "fusion_lon": 0.0, "name": "12c621062b226f7022f7791cd32244f0", "lat": 38.949215}, {"rental_uris": {"ios": "https://dc.lft.to/lastmile_qr_scan", "android": "https://dc.lft.to/lastmile_qr_scan"}, "is_reserved": 0, "fusion_lat": 0.0, "type": "electric_scooter", "bike_id": "8283bb05a453c9fe02bb201e49fc9f50", "is_disabled": 0, "lon": -77.03450933333333, "fusion_lon": 0.0, "name": "8283bb05a453c9fe02bb201e49fc9f50", "lat": 38.9055755}, {"rental_uris": {"ios": "https://dc.lft.to/lastmile_qr_scan", "android": "https://dc.lft.to/lastmile_qr_scan"}, "is_reserved": 0, "fusion_lat": 0.0, "type": "electric_scooter", "bike_id": "637b4107f4facef5de95cbccb9b2d0d9", "is_disabled": 0, "lon": -77.04357433333334, "fusion_lon": 0.0, "name": "637b4107f4facef5de95cbccb9b2d0d9", "lat": 38.898219833333336}, {"rental_uris": {"ios": "https://dc.lft.to/lastmile_qr_scan", "android": "https://dc.lft.to/lastmile_qr_scan"}, "is_reserved": 0, "fusion_lat": 0.0, "type": "electric_bike", "bike_id": "61d15dcf6beb980667e2b619e0d7a584", "is_disabled": 0, "lon": -76.98843216666667, "fusion_lon": 0.0, "name": "61d15dcf6beb980667e2b619e0d7a584", "lat": 38.84280833333333}, {"rental_uris": {"ios": "https://dc.lft.to/lastmile_qr_scan", "android": "https://dc.lft.to/lastmile_qr_scan"}, "is_reserved": 0, "fusion_lat": 0.0, "type": "electric_scooter", "bike_id": "81cfab21392af3fb838d5033fd39c70f", "is_disabled": 0, "lon": -76.99006266666666, "fusion_lon": 0.0, "name": "81cfab21392af3fb838d5033fd39c70f", "lat": 38.8651155}, {"rental_uris": {"ios": "https://dc.lft.to/lastmile_qr_scan", "android": "https://dc.lft.to/lastmile_qr_scan"}, "is_reserved": 0, "fusion_lat": 0.0, "type": "electric_scooter", "bike_id": "e40d5e034e386ca47a028a437a2873b7", "is_disabled": 0, "lon": -77.04063416666666, "fusion_lon": 0.0, "name": "e40d5e034e386ca47a028a437a2873b7", "lat": 38.917669833333335}, {"rental_uris": {"ios": "https://dc.lft.to/lastmile_qr_scan", "android": "https://dc.lft.to/lastmile_qr_scan"}, "is_reserved": 0, "fusion_lat": 0.0, "type": "electric_scooter", "bike_id": "ba41c8159b786d4c470c6fc1873a1b46", "is_disabled": 0, "lon": -76.98250933333334, "fusion_lon": 0.0, "name": "ba41c8159b786d4c470c6fc1873a1b46", "lat": 38.90453933333333}, {"rental_uris": {"ios": "https://dc.lft.to/lastmile_qr_scan", "android": "https://dc.lft.to/lastmile_qr_scan"}, "is_reserved": 0, "fusion_lat": 0.0, "type": "electric_bike", "bike_id": "70ab6d48022a19caca7858421a7f0f34", "is_disabled": 0, "lon": -77.015188, "fusion_lon": 0.0, "name": "70ab6d48022a19caca7858421a7f0f34", "lat": 38.89883066666667}, {"rental_uris": {"ios": "https://dc.lft.to/lastmile_qr_scan", "android": "https://dc.lft.to/lastmile_qr_scan"}, "is_reserved": 0, "fusion_lat": 0.0, "type": "electric_scooter", "bike_id": "32a2e210c44979c58eae9e771c29f627", "is_disabled": 0, "lon": -77.031776, "fusion_lon": 0.0, "name": "32a2e210c44979c58eae9e771c29f627", "lat": 38.901059333333336}, {"rental_uris": {"ios": "https://dc.lft.to/lastmile_qr_scan", "android": "https://dc.lft.to/lastmile_qr_scan"}, "is_reserved": 0, "fusion_lat": 0.0, "type": "electric_scooter", "bike_id": "2c2d9b18eded92d5d618cecc2f2b4969", "is_disabled": 0, "lon": -76.99809583333334, "fusion_lon": 0.0, "name": "2c2d9b18eded92d5d618cecc2f2b4969", "lat": 38.900277}, {"rental_uris": {"ios": "https://dc.lft.to/lastmile_qr_scan", "android": "https://dc.lft.to/lastmile_qr_scan"}, "is_reserved": 0, "fusion_lat": 0.0, "type": "electric_scooter", "bike_id": "d47d50e43f2b335c512d679039c477ae", "is_disabled": 0, "lon": -76.98809033333333, "fusion_lon": 0.0, "name": "d47d50e43f2b335c512d679039c477ae", "lat": 38.90031}, {"rental_uris": {"ios": "https://dc.lft.to/lastmile_qr_scan", "android": "https://dc.lft.to/lastmile_qr_scan"}, "is_reserved": 0, "fusion_lat": 0.0, "type": "electric_scooter", "bike_id": "d6f16adadd1ab45d25c2265f56406f42", "is_disabled": 0, "lon": -77.03230983333333, "fusion_lon": 0.0, "name": "d6f16adadd1ab45d25c2265f56406f42", "lat": 38.937104}, {"rental_uris": {"ios": "https://dc.lft.to/lastmile_qr_scan", "android": "https://dc.lft.to/lastmile_qr_scan"}, "is_reserved": 0, "fusion_lat": 0.0, "type": "electric_bike", "bike_id": "38a504eca6218b4de601fed27744b2c5", "is_disabled": 0, "lon": -77.05359666666666, "fusion_lon": 0.0, "name": "38a504eca6218b4de601fed27744b2c5", "lat": 38.92790333333333}, {"rental_uris": {"ios": "https://dc.lft.to/lastmile_qr_scan", "android": "https://dc.lft.to/lastmile_qr_scan"}, "is_reserved": 0, "fusion_lat": 0.0, "type": "electric_scooter", "bike_id": "e1ea3cb6117b095b2afa40dcb93d7801", "is_disabled": 0, "lon": -76.97547766666666, "fusion_lon": 0.0, "name": "e1ea3cb6117b095b2afa40dcb93d7801", "lat": 38.903225}, {"rental_uris": {"ios": "https://dc.lft.to/lastmile_qr_scan", "android": "https://dc.lft.to/lastmile_qr_scan"}, "is_reserved": 0, "fusion_lat": 0.0, "type": "electric_scooter", "bike_id": "d0e553c3a39b23bbedfbf7286cb0fb61", "is_disabled": 0, "lon": -77.022909, "fusion_lon": 0.0, "name": "d0e553c3a39b23bbedfbf7286cb0fb61", "lat": 38.917215666666664}, {"rental_uris": {"ios": "https://dc.lft.to/lastmile_qr_scan", "android": "https://dc.lft.to/lastmile_qr_scan"}, "is_reserved": 0, "fusion_lat": 0.0, "type": "electric_scooter", "bike_id": "d1f3a804a20751c2d42f46a02ce0f3c8", "is_disabled": 0, "lon": -76.985646, "fusion_lon": 0.0, "name": "d1f3a804a20751c2d42f46a02ce0f3c8", "lat": 38.866835333333334}, {"rental_uris": {"ios": "https://dc.lft.to/lastmile_qr_scan", "android": "https://dc.lft.to/lastmile_qr_scan"}, "is_reserved": 0, "fusion_lat": 0.0, "type": "electric_bike", "bike_id": "e35366671154f4917cc38b26326b6395", "is_disabled": 0, "lon": -77.041752, "fusion_lon": 0.0, "name": "e35366671154f4917cc38b26326b6395", "lat": 38.91703666666667}, {"rental_uris": {"ios": "https://dc.lft.to/lastmile_qr_scan", "android": "https://dc.lft.to/lastmile_qr_scan"}, "is_reserved": 0, "fusion_lat": 0.0, "type": "electric_scooter", "bike_id": "272ee31aec6efcea8568bf36ccfbf804", "is_disabled": 0, "lon": -76.94640416666667, "fusion_lon": 0.0, "name": "272ee31aec6efcea8568bf36ccfbf804", "lat": 38.898581166666666}, {"rental_uris": {"ios": "https://dc.lft.to/lastmile_qr_scan", "android": "https://dc.lft.to/lastmile_qr_scan"}, "is_reserved": 0, "fusion_lat": 0.0, "type": "electric_scooter", "bike_id": "d5b6601900d26bc971046d385f552730", "is_disabled": 0, "lon": -77.02511033333333, "fusion_lon": 0.0, "name": "d5b6601900d26bc971046d385f552730", "lat": 38.92084883333333}, {"rental_uris": {"ios": "https://dc.lft.to/lastmile_qr_scan", "android": "https://dc.lft.to/lastmile_qr_scan"}, "is_reserved": 0, "fusion_lat": 0.0, "type": "electric_scooter", "bike_id": "87304f60e31e4daa4a6457d570d84e77", "is_disabled": 0, "lon": -77.01991216666667, "fusion_lon": 0.0, "name": "87304f60e31e4daa4a6457d570d84e77", "lat": 38.93998466666667}, {"rental_uris": {"ios": "https://dc.lft.to/lastmile_qr_scan", "android": "https://dc.lft.to/lastmile_qr_scan"}, "is_reserved": 0, "fusion_lat": 0.0, "type": "electric_scooter", "bike_id": "1a471e91a39bfe7862e79ae511f3f5f2", "is_disabled": 0, "lon": -77.00716183333333, "fusion_lon": 0.0, "name": "1a471e91a39bfe7862e79ae511f3f5f2", "lat": 38.88484566666666}, {"rental_uris": {"ios": "https://dc.lft.to/lastmile_qr_scan", "android": "https://dc.lft.to/lastmile_qr_scan"}, "is_reserved": 0, "fusion_lat": 0.0, "type": "electric_scooter", "bike_id": "913bc6c0b3fc6af3f9b5da248d264ca3", "is_disabled": 0, "lon": -77.035212, "fusion_lon": 0.0, "name": "913bc6c0b3fc6af3f9b5da248d264ca3", "lat": 38.92254533333333}, {"rental_uris": {"ios": "https://dc.lft.to/lastmile_qr_scan", "android": "https://dc.lft.to/lastmile_qr_scan"}, "is_reserved": 0, "fusion_lat": 0.0, "type": "electric_scooter", "bike_id": "cdfe600da644c90f8a0b94a1c52e09a0", "is_disabled": 0, "lon": -77.03087783333334, "fusion_lon": 0.0, "name": "cdfe600da644c90f8a0b94a1c52e09a0", "lat": 38.899862}, {"rental_uris": {"ios": "https://dc.lft.to/lastmile_qr_scan", "android": "https://dc.lft.to/lastmile_qr_scan"}, "is_reserved": 0, "fusion_lat": 0.0, "type": "electric_scooter", "bike_id": "79244ef6a07ece8bcb3f3204db7ebf61", "is_disabled": 0, "lon": -77.043933, "fusion_lon": 0.0, "name": "79244ef6a07ece8bcb3f3204db7ebf61", "lat": 38.9235085}, {"rental_uris": {"ios": "https://dc.lft.to/lastmile_qr_scan", "android": "https://dc.lft.to/lastmile_qr_scan"}, "is_reserved": 0, "fusion_lat": 0.0, "type": "electric_scooter", "bike_id": "b7f2519dc3d10bc58f787b7b8dd97686", "is_disabled": 0, "lon": -77.034438, "fusion_lon": 0.0, "name": "b7f2519dc3d10bc58f787b7b8dd97686", "lat": 38.9204925}, {"rental_uris": {"ios": "https://dc.lft.to/lastmile_qr_scan", "android": "https://dc.lft.to/lastmile_qr_scan"}, "is_reserved": 0, "fusion_lat": 0.0, "type": "electric_scooter", "bike_id": "8e36e599726ccfe45b20547daf0aab42", "is_disabled": 0, "lon": -77.0281665, "fusion_lon": 0.0, "name": "8e36e599726ccfe45b20547daf0aab42", "lat": 38.898986666666666}, {"rental_uris": {"ios": "https://dc.lft.to/lastmile_qr_scan", "android": "https://dc.lft.to/lastmile_qr_scan"}, "is_reserved": 0, "fusion_lat": 0.0, "type": "electric_scooter", "bike_id": "24ca128fef94d6207f391da1592f4031", "is_disabled": 0, "lon": -77.03839283333333, "fusion_lon": 0.0, "name": "24ca128fef94d6207f391da1592f4031", "lat": 38.9077}, {"rental_uris": {"ios": "https://dc.lft.to/lastmile_qr_scan", "android": "https://dc.lft.to/lastmile_qr_scan"}, "is_reserved": 0, "fusion_lat": 0.0, "type": "electric_scooter", "bike_id": "2816b4741b0074bcb2ed12fba62d02c2", "is_disabled": 0, "lon": -77.00151866666667, "fusion_lon": 0.0, "name": "2816b4741b0074bcb2ed12fba62d02c2", "lat": 38.90744316666667}, {"rental_uris": {"ios": "https://dc.lft.to/lastmile_qr_scan", "android": "https://dc.lft.to/lastmile_qr_scan"}, "is_reserved": 0, "fusion_lat": 0.0, "type": "electric_scooter", "bike_id": "fbddfed06f8c2a868bb5eff9b012169a", "is_disabled": 0, "lon": -77.0363395, "fusion_lon": 0.0, "name": "fbddfed06f8c2a868bb5eff9b012169a", "lat": 38.903687166666664}, {"rental_uris": {"ios": "https://dc.lft.to/lastmile_qr_scan", "android": "https://dc.lft.to/lastmile_qr_scan"}, "is_reserved": 0, "fusion_lat": 0.0, "type": "electric_scooter", "bike_id": "34e10ca332122f9b8ae946d4b9ccde15", "is_disabled": 0, "lon": -77.04153866666667, "fusion_lon": 0.0, "name": "34e10ca332122f9b8ae946d4b9ccde15", "lat": 38.8994475}, {"rental_uris": {"ios": "https://dc.lft.to/lastmile_qr_scan", "android": "https://dc.lft.to/lastmile_qr_scan"}, "is_reserved": 0, "fusion_lat": 0.0, "type": "electric_scooter", "bike_id": "7c409e24e7a35115e7a58336fd3869a6", "is_disabled": 0, "lon": -77.0714375, "fusion_lon": 0.0, "name": "7c409e24e7a35115e7a58336fd3869a6", "lat": 38.90776416666667}, {"rental_uris": {"ios": "https://dc.lft.to/lastmile_qr_scan", "android": "https://dc.lft.to/lastmile_qr_scan"}, "is_reserved": 0, "fusion_lat": 0.0, "type": "electric_scooter", "bike_id": "f2728958b60f6d3b9194ad3074545d87", "is_disabled": 0, "lon": -77.0279025, "fusion_lon": 0.0, "name": "f2728958b60f6d3b9194ad3074545d87", "lat": 38.91705866666667}, {"rental_uris": {"ios": "https://dc.lft.to/lastmile_qr_scan", "android": "https://dc.lft.to/lastmile_qr_scan"}, "is_reserved": 0, "fusion_lat": 0.0, "type": "electric_scooter", "bike_id": "d8aecddf7e5c6683e1e72062a7e84c79", "is_disabled": 0, "lon": -77.0592685, "fusion_lon": 0.0, "name": "d8aecddf7e5c6683e1e72062a7e84c79", "lat": 38.90147316666667}, {"rental_uris": {"ios": "https://dc.lft.to/lastmile_qr_scan", "android": "https://dc.lft.to/lastmile_qr_scan"}, "is_reserved": 0, "fusion_lat": 0.0, "type": "electric_scooter", "bike_id": "e1a58e349013dc83ce44f266c5361566", "is_disabled": 0, "lon": -77.04877383333333, "fusion_lon": 0.0, "name": "e1a58e349013dc83ce44f266c5361566", "lat": 38.89241083333334}, {"rental_uris": {"ios": "https://dc.lft.to/lastmile_qr_scan", "android": "https://dc.lft.to/lastmile_qr_scan"}, "is_reserved": 0, "fusion_lat": 0.0, "type": "electric_scooter", "bike_id": "79b3740d30e383bab582d448e05ba1e7", "is_disabled": 0, "lon": -77.0045445, "fusion_lon": 0.0, "name": "79b3740d30e383bab582d448e05ba1e7", "lat": 38.9106345}, {"rental_uris": {"ios": "https://dc.lft.to/lastmile_qr_scan", "android": "https://dc.lft.to/lastmile_qr_scan"}, "is_reserved": 0, "fusion_lat": 0.0, "type": "electric_scooter", "bike_id": "b97b6e47609e8be51b037764d94ed1ec", "is_disabled": 0, "lon": -77.0332045, "fusion_lon": 0.0, "name": "b97b6e47609e8be51b037764d94ed1ec", "lat": 38.9288085}, {"rental_uris": {"ios": "https://dc.lft.to/lastmile_qr_scan", "android": "https://dc.lft.to/lastmile_qr_scan"}, "is_reserved": 0, "fusion_lat": 0.0, "type": "electric_scooter", "bike_id": "21095d4ff6f05a6b38ea07505649bb09", "is_disabled": 0, "lon": -76.994105, "fusion_lon": 0.0, "name": "21095d4ff6f05a6b38ea07505649bb09", "lat": 38.8778455}, {"rental_uris": {"ios": "https://dc.lft.to/lastmile_qr_scan", "android": "https://dc.lft.to/lastmile_qr_scan"}, "is_reserved": 0, "fusion_lat": 0.0, "type": "electric_scooter", "bike_id": "54880a41fe9b28bd9f1d422f35becbec", "is_disabled": 0, "lon": -77.01968233333334, "fusion_lon": 0.0, "name": "54880a41fe9b28bd9f1d422f35becbec", "lat": 38.90857666666667}, {"rental_uris": {"ios": "https://dc.lft.to/lastmile_qr_scan", "android": "https://dc.lft.to/lastmile_qr_scan"}, "is_reserved": 0, "fusion_lat": 0.0, "type": "electric_scooter", "bike_id": "c9b98a067a4b049ff3d190aab8bf7e32", "is_disabled": 0, "lon": -77.03663316666666, "fusion_lon": 0.0, "name": "c9b98a067a4b049ff3d190aab8bf7e32", "lat": 38.917329}, {"rental_uris": {"ios": "https://dc.lft.to/lastmile_qr_scan", "android": "https://dc.lft.to/lastmile_qr_scan"}, "is_reserved": 0, "fusion_lat": 0.0, "type": "electric_scooter", "bike_id": "bf86e3278a774a6a3871c009bd7c167b", "is_disabled": 0, "lon": -76.9969035, "fusion_lon": 0.0, "name": "bf86e3278a774a6a3871c009bd7c167b", "lat": 38.9083715}, {"rental_uris": {"ios": "https://dc.lft.to/lastmile_qr_scan", "android": "https://dc.lft.to/lastmile_qr_scan"}, "is_reserved": 0, "fusion_lat": 0.0, "type": "electric_scooter", "bike_id": "fc85703a4ea6601765a9c1f1d7bd5152", "is_disabled": 0, "lon": -77.0135875, "fusion_lon": 0.0, "name": "fc85703a4ea6601765a9c1f1d7bd5152", "lat": 38.919371166666664}, {"rental_uris": {"ios": "https://dc.lft.to/lastmile_qr_scan", "android": "https://dc.lft.to/lastmile_qr_scan"}, "is_reserved": 0, "fusion_lat": 0.0, "type": "electric_bike", "bike_id": "224b5de25a6b82156dd9bdd2217e47e2", "is_disabled": 0, "lon": -76.95173966666667, "fusion_lon": 0.0, "name": "224b5de25a6b82156dd9bdd2217e47e2", "lat": 38.88506016666667}, {"rental_uris": {"ios": "https://dc.lft.to/lastmile_qr_scan", "android": "https://dc.lft.to/lastmile_qr_scan"}, "is_reserved": 0, "fusion_lat": 0.0, "type": "electric_scooter", "bike_id": "8c38be452be7007b62458d0d8266e183", "is_disabled": 0, "lon": -76.94855616666666, "fusion_lon": 0.0, "name": "8c38be452be7007b62458d0d8266e183", "lat": 38.882986}, {"rental_uris": {"ios": "https://dc.lft.to/lastmile_qr_scan", "android": "https://dc.lft.to/lastmile_qr_scan"}, "is_reserved": 0, "fusion_lat": 0.0, "type": "electric_scooter", "bike_id": "8cad36aadde644849b475bcd051720e0", "is_disabled": 0, "lon": -77.0427365, "fusion_lon": 0.0, "name": "8cad36aadde644849b475bcd051720e0", "lat": 38.908237166666666}, {"rental_uris": {"ios": "https://dc.lft.to/lastmile_qr_scan", "android": "https://dc.lft.to/lastmile_qr_scan"}, "is_reserved": 0, "fusion_lat": 0.0, "type": "electric_scooter", "bike_id": "3becc8f60a788ddb46e49369089c3a1b", "is_disabled": 0, "lon": -76.9900935, "fusion_lon": 0.0, "name": "3becc8f60a788ddb46e49369089c3a1b", "lat": 38.864272166666666}, {"rental_uris": {"ios": "https://dc.lft.to/lastmile_qr_scan", "android": "https://dc.lft.to/lastmile_qr_scan"}, "is_reserved": 0, "fusion_lat": 0.0, "type": "electric_scooter", "bike_id": "0b65553d4cc20af8635260581647d309", "is_disabled": 0, "lon": -76.99481933333334, "fusion_lon": 0.0, "name": "0b65553d4cc20af8635260581647d309", "lat": 38.882681}, {"rental_uris": {"ios": "https://dc.lft.to/lastmile_qr_scan", "android": "https://dc.lft.to/lastmile_qr_scan"}, "is_reserved": 0, "fusion_lat": 0.0, "type": "electric_scooter", "bike_id": "c5e4f14777e69c390f437f0a16cd6879", "is_disabled": 0, "lon": -76.94779633333333, "fusion_lon": 0.0, "name": "c5e4f14777e69c390f437f0a16cd6879", "lat": 38.89626883333333}, {"rental_uris": {"ios": "https://dc.lft.to/lastmile_qr_scan", "android": "https://dc.lft.to/lastmile_qr_scan"}, "is_reserved": 0, "fusion_lat": 0.0, "type": "electric_scooter", "bike_id": "2546eb9a52df02879a2bc3c5e710ac80", "is_disabled": 0, "lon": -77.0328295, "fusion_lon": 0.0, "name": "2546eb9a52df02879a2bc3c5e710ac80", "lat": 38.93686316666667}, {"rental_uris": {"ios": "https://dc.lft.to/lastmile_qr_scan", "android": "https://dc.lft.to/lastmile_qr_scan"}, "is_reserved": 0, "fusion_lat": 0.0, "type": "electric_scooter", "bike_id": "3327f9e90c23b878071f352db2855dd9", "is_disabled": 0, "lon": -77.034406, "fusion_lon": 0.0, "name": "3327f9e90c23b878071f352db2855dd9", "lat": 38.908007833333336}, {"rental_uris": {"ios": "https://dc.lft.to/lastmile_qr_scan", "android": "https://dc.lft.to/lastmile_qr_scan"}, "is_reserved": 0, "fusion_lat": 0.0, "type": "electric_scooter", "bike_id": "25520d25a8469976ec930d2c8d9b958f", "is_disabled": 0, "lon": -77.02196866666667, "fusion_lon": 0.0, "name": "25520d25a8469976ec930d2c8d9b958f", "lat": 38.921067666666666}, {"rental_uris": {"ios": "https://dc.lft.to/lastmile_qr_scan", "android": "https://dc.lft.to/lastmile_qr_scan"}, "is_reserved": 0, "fusion_lat": 0.0, "type": "electric_scooter", "bike_id": "ddd2a3a62ecebf71a56f25fc38d4b8ad", "is_disabled": 0, "lon": -77.04160616666667, "fusion_lon": 0.0, "name": "ddd2a3a62ecebf71a56f25fc38d4b8ad", "lat": 38.89233633333333}, {"rental_uris": {"ios": "https://dc.lft.to/lastmile_qr_scan", "android": "https://dc.lft.to/lastmile_qr_scan"}, "is_reserved": 0, "fusion_lat": 0.0, "type": "electric_bike", "bike_id": "f04aa5e63f6fa1af5c62322fad868c63", "is_disabled": 0, "lon": -76.99031683333334, "fusion_lon": 0.0, "name": "f04aa5e63f6fa1af5c62322fad868c63", "lat": 38.93882983333334}, {"rental_uris": {"ios": "https://dc.lft.to/lastmile_qr_scan", "android": "https://dc.lft.to/lastmile_qr_scan"}, "is_reserved": 0, "fusion_lat": 0.0, "type": "electric_scooter", "bike_id": "417456106cf71764cb0e72c6a1518c2b", "is_disabled": 0, "lon": -76.92894533333333, "fusion_lon": 0.0, "name": "417456106cf71764cb0e72c6a1518c2b", "lat": 38.883723833333335}, {"rental_uris": {"ios": "https://dc.lft.to/lastmile_qr_scan", "android": "https://dc.lft.to/lastmile_qr_scan"}, "is_reserved": 0, "fusion_lat": 0.0, "type": "electric_scooter", "bike_id": "6dec0587b8c522b50dee2a5311a5d68c", "is_disabled": 0, "lon": -77.02761983333333, "fusion_lon": 0.0, "name": "6dec0587b8c522b50dee2a5311a5d68c", "lat": 38.95786966666667}, {"rental_uris": {"ios": "https://dc.lft.to/lastmile_qr_scan", "android": "https://dc.lft.to/lastmile_qr_scan"}, "is_reserved": 0, "fusion_lat": 0.0, "type": "electric_scooter", "bike_id": "67a117ade46c9e67289f0168dfca4dfd", "is_disabled": 0, "lon": -76.98371716666666, "fusion_lon": 0.0, "name": "67a117ade46c9e67289f0168dfca4dfd", "lat": 38.915992}, {"rental_uris": {"ios": "https://dc.lft.to/lastmile_qr_scan", "android": "https://dc.lft.to/lastmile_qr_scan"}, "is_reserved": 0, "fusion_lat": 0.0, "type": "electric_bike", "bike_id": "dfc62c140aa7b8e344624ebcf91d8726", "is_disabled": 0, "lon": -77.12191166666666, "fusion_lon": 0.0, "name": "dfc62c140aa7b8e344624ebcf91d8726", "lat": 38.88530883333333}, {"rental_uris": {"ios": "https://dc.lft.to/lastmile_qr_scan", "android": "https://dc.lft.to/lastmile_qr_scan"}, "is_reserved": 0, "fusion_lat": 0.0, "type": "electric_scooter", "bike_id": "e13b4c7624a19fa96934170aa0a1bb45", "is_disabled": 0, "lon": -77.02156183333334, "fusion_lon": 0.0, "name": "e13b4c7624a19fa96934170aa0a1bb45", "lat": 38.92605533333333}, {"rental_uris": {"ios": "https://dc.lft.to/lastmile_qr_scan", "android": "https://dc.lft.to/lastmile_qr_scan"}, "is_reserved": 0, "fusion_lat": 0.0, "type": "electric_scooter", "bike_id": "d3e1935e5763e0dc799ccdaadf355eca", "is_disabled": 0, "lon": -76.9823995, "fusion_lon": 0.0, "name": "d3e1935e5763e0dc799ccdaadf355eca", "lat": 38.89988133333333}, {"rental_uris": {"ios": "https://dc.lft.to/lastmile_qr_scan", "android": "https://dc.lft.to/lastmile_qr_scan"}, "is_reserved": 0, "fusion_lat": 0.0, "type": "electric_scooter", "bike_id": "0dd7ecaea3aface134f3a5b8c75dba22", "is_disabled": 0, "lon": -77.0036195, "fusion_lon": 0.0, "name": "0dd7ecaea3aface134f3a5b8c75dba22", "lat": 38.892656333333335}, {"rental_uris": {"ios": "https://dc.lft.to/lastmile_qr_scan", "android": "https://dc.lft.to/lastmile_qr_scan"}, "is_reserved": 0, "fusion_lat": 0.0, "type": "electric_scooter", "bike_id": "3b009415e6c1afb03c20d2e587bdd97b", "is_disabled": 0, "lon": -77.04305433333333, "fusion_lon": 0.0, "name": "3b009415e6c1afb03c20d2e587bdd97b", "lat": 38.9239835}, {"rental_uris": {"ios": "https://dc.lft.to/lastmile_qr_scan", "android": "https://dc.lft.to/lastmile_qr_scan"}, "is_reserved": 0, "fusion_lat": 0.0, "type": "electric_bike", "bike_id": "27fff160ac523a74bdf8c0200b0db441", "is_disabled": 0, "lon": -77.0640055, "fusion_lon": 0.0, "name": "27fff160ac523a74bdf8c0200b0db441", "lat": 38.84336866666666}, {"rental_uris": {"ios": "https://dc.lft.to/lastmile_qr_scan", "android": "https://dc.lft.to/lastmile_qr_scan"}, "is_reserved": 0, "fusion_lat": 0.0, "type": "electric_scooter", "bike_id": "9c334f50342e072b049620e105aa4652", "is_disabled": 0, "lon": -77.02718416666667, "fusion_lon": 0.0, "name": "9c334f50342e072b049620e105aa4652", "lat": 38.9229705}, {"rental_uris": {"ios": "https://dc.lft.to/lastmile_qr_scan", "android": "https://dc.lft.to/lastmile_qr_scan"}, "is_reserved": 0, "fusion_lat": 0.0, "type": "electric_scooter", "bike_id": "ad6c21c71b25dcbd3799360fc83ed0a7", "is_disabled": 0, "lon": -77.03176866666666, "fusion_lon": 0.0, "name": "ad6c21c71b25dcbd3799360fc83ed0a7", "lat": 38.898442}, {"rental_uris": {"ios": "https://dc.lft.to/lastmile_qr_scan", "android": "https://dc.lft.to/lastmile_qr_scan"}, "is_reserved": 0, "fusion_lat": 0.0, "type": "electric_scooter", "bike_id": "f1398744d8fa537f124ca1a5128bdf0f", "is_disabled": 0, "lon": -76.97915483333334, "fusion_lon": 0.0, "name": "f1398744d8fa537f124ca1a5128bdf0f", "lat": 38.91653183333333}, {"rental_uris": {"ios": "https://dc.lft.to/lastmile_qr_scan", "android": "https://dc.lft.to/lastmile_qr_scan"}, "is_reserved": 0, "fusion_lat": 0.0, "type": "electric_scooter", "bike_id": "35a6cf49e447ec9d78d35a3e97ce08ce", "is_disabled": 0, "lon": -77.0099275, "fusion_lon": 0.0, "name": "35a6cf49e447ec9d78d35a3e97ce08ce", "lat": 38.87286533333334}, {"rental_uris": {"ios": "https://dc.lft.to/lastmile_qr_scan", "android": "https://dc.lft.to/lastmile_qr_scan"}, "is_reserved": 0, "fusion_lat": 0.0, "type": "electric_bike", "bike_id": "3e080a61ab6d9ef7e2e0bad090cb6be9", "is_disabled": 0, "lon": -76.90733933333334, "fusion_lon": 0.0, "name": "3e080a61ab6d9ef7e2e0bad090cb6be9", "lat": 38.89618266666667}, {"rental_uris": {"ios": "https://dc.lft.to/lastmile_qr_scan", "android": "https://dc.lft.to/lastmile_qr_scan"}, "is_reserved": 0, "fusion_lat": 0.0, "type": "electric_bike", "bike_id": "07a2492644bfc1d72a405f29077c3a08", "is_disabled": 0, "lon": -76.969143, "fusion_lon": 0.0, "name": "07a2492644bfc1d72a405f29077c3a08", "lat": 38.846114166666666}, {"rental_uris": {"ios": "https://dc.lft.to/lastmile_qr_scan", "android": "https://dc.lft.to/lastmile_qr_scan"}, "is_reserved": 0, "fusion_lat": 0.0, "type": "electric_bike", "bike_id": "de45cde973abfd00d9475e255a8af788", "is_disabled": 0, "lon": -77.085676, "fusion_lon": 0.0, "name": "de45cde973abfd00d9475e255a8af788", "lat": 38.87427433333333}, {"rental_uris": {"ios": "https://dc.lft.to/lastmile_qr_scan", "android": "https://dc.lft.to/lastmile_qr_scan"}, "is_reserved": 0, "fusion_lat": 0.0, "type": "electric_scooter", "bike_id": "a0f6c98bb3463c8e6e07de7237148824", "is_disabled": 0, "lon": -77.031821, "fusion_lon": 0.0, "name": "a0f6c98bb3463c8e6e07de7237148824", "lat": 38.9016145}, {"rental_uris": {"ios": "https://dc.lft.to/lastmile_qr_scan", "android": "https://dc.lft.to/lastmile_qr_scan"}, "is_reserved": 0, "fusion_lat": 0.0, "type": "electric_scooter", "bike_id": "b89d8ce454c09439aa7463a3f3ca0463", "is_disabled": 0, "lon": -77.02097883333333, "fusion_lon": 0.0, "name": "b89d8ce454c09439aa7463a3f3ca0463", "lat": 38.932649166666664}, {"rental_uris": {"ios": "https://dc.lft.to/lastmile_qr_scan", "android": "https://dc.lft.to/lastmile_qr_scan"}, "is_reserved": 0, "fusion_lat": 0.0, "type": "electric_bike", "bike_id": "8c5011f2aea3d5ce9a3f8f59205276ae", "is_disabled": 0, "lon": -77.0104635, "fusion_lon": 0.0, "name": "8c5011f2aea3d5ce9a3f8f59205276ae", "lat": 38.920231}, {"rental_uris": {"ios": "https://dc.lft.to/lastmile_qr_scan", "android": "https://dc.lft.to/lastmile_qr_scan"}, "is_reserved": 0, "fusion_lat": 0.0, "type": "electric_scooter", "bike_id": "4b52782caea05b2d4395b0d87eba6f28", "is_disabled": 0, "lon": -77.0150505, "fusion_lon": 0.0, "name": "4b52782caea05b2d4395b0d87eba6f28", "lat": 38.917657166666665}, {"rental_uris": {"ios": "https://dc.lft.to/lastmile_qr_scan", "android": "https://dc.lft.to/lastmile_qr_scan"}, "is_reserved": 0, "fusion_lat": 0.0, "type": "electric_scooter", "bike_id": "e7d964c3acfeb7049867ad27ca387ed9", "is_disabled": 0, "lon": -77.03729033333333, "fusion_lon": 0.0, "name": "e7d964c3acfeb7049867ad27ca387ed9", "lat": 38.92657233333333}, {"rental_uris": {"ios": "https://dc.lft.to/lastmile_qr_scan", "android": "https://dc.lft.to/lastmile_qr_scan"}, "is_reserved": 0, "fusion_lat": 0.0, "type": "electric_bike", "bike_id": "4b917535031589a5429d8970f4de866a", "is_disabled": 0, "lon": -77.0283975, "fusion_lon": 0.0, "name": "4b917535031589a5429d8970f4de866a", "lat": 38.921411}, {"rental_uris": {"ios": "https://dc.lft.to/lastmile_qr_scan", "android": "https://dc.lft.to/lastmile_qr_scan"}, "is_reserved": 0, "fusion_lat": 0.0, "type": "electric_scooter", "bike_id": "210c01c2064a1591b74e6cf6d6ec5536", "is_disabled": 0, "lon": -77.02305666666666, "fusion_lon": 0.0, "name": "210c01c2064a1591b74e6cf6d6ec5536", "lat": 38.9172305}, {"rental_uris": {"ios": "https://dc.lft.to/lastmile_qr_scan", "android": "https://dc.lft.to/lastmile_qr_scan"}, "is_reserved": 0, "fusion_lat": 0.0, "type": "electric_scooter", "bike_id": "ca2849ab81e05742a597ac3163219a6f", "is_disabled": 0, "lon": -77.05757133333333, "fusion_lon": 0.0, "name": "ca2849ab81e05742a597ac3163219a6f", "lat": 38.92502566666667}, {"rental_uris": {"ios": "https://dc.lft.to/lastmile_qr_scan", "android": "https://dc.lft.to/lastmile_qr_scan"}, "is_reserved": 0, "fusion_lat": 0.0, "type": "electric_scooter", "bike_id": "08e6404c45f47252cae0082e696746ee", "is_disabled": 0, "lon": -77.02556683333333, "fusion_lon": 0.0, "name": "08e6404c45f47252cae0082e696746ee", "lat": 38.91635466666666}, {"rental_uris": {"ios": "https://dc.lft.to/lastmile_qr_scan", "android": "https://dc.lft.to/lastmile_qr_scan"}, "is_reserved": 0, "fusion_lat": 0.0, "type": "electric_bike", "bike_id": "a498ff79c1db7f2d5bf0c013bedf7159", "is_disabled": 0, "lon": -77.131575, "fusion_lon": 0.0, "name": "a498ff79c1db7f2d5bf0c013bedf7159", "lat": 38.86945516666667}, {"rental_uris": {"ios": "https://dc.lft.to/lastmile_qr_scan", "android": "https://dc.lft.to/lastmile_qr_scan"}, "is_reserved": 0, "fusion_lat": 0.0, "type": "electric_bike", "bike_id": "87c686bf346a2c334d0e4992684c6a42", "is_disabled": 0, "lon": -77.21127833333334, "fusion_lon": 0.0, "name": "87c686bf346a2c334d0e4992684c6a42", "lat": 38.87490966666667}, {"rental_uris": {"ios": "https://dc.lft.to/lastmile_qr_scan", "android": "https://dc.lft.to/lastmile_qr_scan"}, "is_reserved": 0, "fusion_lat": 0.0, "type": "electric_scooter", "bike_id": "e815ace96908ba708306a41b5dc1968c", "is_disabled": 0, "lon": -77.04103066666667, "fusion_lon": 0.0, "name": "e815ace96908ba708306a41b5dc1968c", "lat": 38.91775466666667}, {"rental_uris": {"ios": "https://dc.lft.to/lastmile_qr_scan", "android": "https://dc.lft.to/lastmile_qr_scan"}, "is_reserved": 0, "fusion_lat": 0.0, "type": "electric_scooter", "bike_id": "b2983e5c8e121b8f6fe7657bf48614b4", "is_disabled": 0, "lon": -77.04805216666666, "fusion_lon": 0.0, "name": "b2983e5c8e121b8f6fe7657bf48614b4", "lat": 38.892242}, {"rental_uris": {"ios": "https://dc.lft.to/lastmile_qr_scan", "android": "https://dc.lft.to/lastmile_qr_scan"}, "is_reserved": 0, "fusion_lat": 0.0, "type": "electric_scooter", "bike_id": "6191eab67cadc2bc9af926776539c6e2", "is_disabled": 0, "lon": -77.03150483333333, "fusion_lon": 0.0, "name": "6191eab67cadc2bc9af926776539c6e2", "lat": 38.9111705}, {"rental_uris": {"ios": "https://dc.lft.to/lastmile_qr_scan", "android": "https://dc.lft.to/lastmile_qr_scan"}, "is_reserved": 0, "fusion_lat": 0.0, "type": "electric_scooter", "bike_id": "8488bc0a201be665b0080f99cd539229", "is_disabled": 0, "lon": -77.04196766666666, "fusion_lon": 0.0, "name": "8488bc0a201be665b0080f99cd539229", "lat": 38.923371}, {"rental_uris": {"ios": "https://dc.lft.to/lastmile_qr_scan", "android": "https://dc.lft.to/lastmile_qr_scan"}, "is_reserved": 0, "fusion_lat": 0.0, "type": "electric_scooter", "bike_id": "0dc8bf57a63b605c5b617e1bb50d4df0", "is_disabled": 0, "lon": -77.02533033333333, "fusion_lon": 0.0, "name": "0dc8bf57a63b605c5b617e1bb50d4df0", "lat": 38.9249325}, {"rental_uris": {"ios": "https://dc.lft.to/lastmile_qr_scan", "android": "https://dc.lft.to/lastmile_qr_scan"}, "is_reserved": 0, "fusion_lat": 0.0, "type": "electric_scooter", "bike_id": "53f8b80aa4f0138eaba6bce2456e6239", "is_disabled": 0, "lon": -77.00199483333333, "fusion_lon": 0.0, "name": "53f8b80aa4f0138eaba6bce2456e6239", "lat": 38.902437166666665}, {"rental_uris": {"ios": "https://dc.lft.to/lastmile_qr_scan", "android": "https://dc.lft.to/lastmile_qr_scan"}, "is_reserved": 0, "fusion_lat": 0.0, "type": "electric_scooter", "bike_id": "05d5b15659f87eae8e165b01a2198944", "is_disabled": 0, "lon": -76.99623183333334, "fusion_lon": 0.0, "name": "05d5b15659f87eae8e165b01a2198944", "lat": 38.88449883333333}, {"rental_uris": {"ios": "https://dc.lft.to/lastmile_qr_scan", "android": "https://dc.lft.to/lastmile_qr_scan"}, "is_reserved": 0, "fusion_lat": 0.0, "type": "electric_scooter", "bike_id": "21f59f053b2eb8e702c844458ca1bc7c", "is_disabled": 0, "lon": -76.9289775, "fusion_lon": 0.0, "name": "21f59f053b2eb8e702c844458ca1bc7c", "lat": 38.90183866666667}, {"rental_uris": {"ios": "https://dc.lft.to/lastmile_qr_scan", "android": "https://dc.lft.to/lastmile_qr_scan"}, "is_reserved": 0, "fusion_lat": 0.0, "type": "electric_scooter", "bike_id": "4f60db4a277dbc01110f2c6f7c31873f", "is_disabled": 0, "lon": -77.0180105, "fusion_lon": 0.0, "name": "4f60db4a277dbc01110f2c6f7c31873f", "lat": 38.887476666666664}, {"rental_uris": {"ios": "https://dc.lft.to/lastmile_qr_scan", "android": "https://dc.lft.to/lastmile_qr_scan"}, "is_reserved": 0, "fusion_lat": 0.0, "type": "electric_scooter", "bike_id": "506df4484da2da0548e34e34bfe16420", "is_disabled": 0, "lon": -76.99482783333333, "fusion_lon": 0.0, "name": "506df4484da2da0548e34e34bfe16420", "lat": 38.88270333333333}, {"rental_uris": {"ios": "https://dc.lft.to/lastmile_qr_scan", "android": "https://dc.lft.to/lastmile_qr_scan"}, "is_reserved": 0, "fusion_lat": 0.0, "type": "electric_scooter", "bike_id": "f0f8b0ad3fadec42e19b0436f4b8e46b", "is_disabled": 0, "lon": -77.04286633333334, "fusion_lon": 0.0, "name": "f0f8b0ad3fadec42e19b0436f4b8e46b", "lat": 38.89739183333333}, {"rental_uris": {"ios": "https://dc.lft.to/lastmile_qr_scan", "android": "https://dc.lft.to/lastmile_qr_scan"}, "is_reserved": 0, "fusion_lat": 0.0, "type": "electric_bike", "bike_id": "ac0eab347866c3f5d435e5d3e4cda845", "is_disabled": 0, "lon": -77.14056833333333, "fusion_lon": 0.0, "name": "ac0eab347866c3f5d435e5d3e4cda845", "lat": 38.987723}, {"rental_uris": {"ios": "https://dc.lft.to/lastmile_qr_scan", "android": "https://dc.lft.to/lastmile_qr_scan"}, "is_reserved": 0, "fusion_lat": 0.0, "type": "electric_scooter", "bike_id": "2ee2e0fb1d1ca226bbc1e556e05f79f2", "is_disabled": 0, "lon": -77.0071495, "fusion_lon": 0.0, "name": "2ee2e0fb1d1ca226bbc1e556e05f79f2", "lat": 38.884847}, {"rental_uris": {"ios": "https://dc.lft.to/lastmile_qr_scan", "android": "https://dc.lft.to/lastmile_qr_scan"}, "is_reserved": 0, "fusion_lat": 0.0, "type": "electric_scooter", "bike_id": "b4809adf62f2906ed71efc17b502219a", "is_disabled": 0, "lon": -77.04459583333333, "fusion_lon": 0.0, "name": "b4809adf62f2906ed71efc17b502219a", "lat": 38.90241566666667}, {"rental_uris": {"ios": "https://dc.lft.to/lastmile_qr_scan", "android": "https://dc.lft.to/lastmile_qr_scan"}, "is_reserved": 0, "fusion_lat": 0.0, "type": "electric_scooter", "bike_id": "f30a12bd5eeb20cd1651c1b7918e5882", "is_disabled": 0, "lon": -77.03325883333333, "fusion_lon": 0.0, "name": "f30a12bd5eeb20cd1651c1b7918e5882", "lat": 38.92155116666667}, {"rental_uris": {"ios": "https://dc.lft.to/lastmile_qr_scan", "android": "https://dc.lft.to/lastmile_qr_scan"}, "is_reserved": 0, "fusion_lat": 0.0, "type": "electric_scooter", "bike_id": "69664c175bae01d7494dff364f8579c5", "is_disabled": 0, "lon": -77.02675166666667, "fusion_lon": 0.0, "name": "69664c175bae01d7494dff364f8579c5", "lat": 38.89536783333333}, {"rental_uris": {"ios": "https://dc.lft.to/lastmile_qr_scan", "android": "https://dc.lft.to/lastmile_qr_scan"}, "is_reserved": 0, "fusion_lat": 0.0, "type": "electric_scooter", "bike_id": "446cb2444eebd7d7d7937f22bf8a65e0", "is_disabled": 0, "lon": -76.977273, "fusion_lon": 0.0, "name": "446cb2444eebd7d7d7937f22bf8a65e0", "lat": 38.872445}, {"rental_uris": {"ios": "https://dc.lft.to/lastmile_qr_scan", "android": "https://dc.lft.to/lastmile_qr_scan"}, "is_reserved": 0, "fusion_lat": 0.0, "type": "electric_scooter", "bike_id": "dc57611ee4ea2c1638d5f2a0e0386b12", "is_disabled": 0, "lon": -77.03793783333333, "fusion_lon": 0.0, "name": "dc57611ee4ea2c1638d5f2a0e0386b12", "lat": 38.920705833333336}, {"rental_uris": {"ios": "https://dc.lft.to/lastmile_qr_scan", "android": "https://dc.lft.to/lastmile_qr_scan"}, "is_reserved": 0, "fusion_lat": 0.0, "type": "electric_scooter", "bike_id": "0fec1ab8111c7367b839dc4c74086af5", "is_disabled": 0, "lon": -77.00306366666666, "fusion_lon": 0.0, "name": "0fec1ab8111c7367b839dc4c74086af5", "lat": 38.9202845}, {"rental_uris": {"ios": "https://dc.lft.to/lastmile_qr_scan", "android": "https://dc.lft.to/lastmile_qr_scan"}, "is_reserved": 0, "fusion_lat": 0.0, "type": "electric_scooter", "bike_id": "2be1d097caaae78685f3e9e71a23446e", "is_disabled": 0, "lon": -77.03188133333333, "fusion_lon": 0.0, "name": "2be1d097caaae78685f3e9e71a23446e", "lat": 38.91097466666667}, {"rental_uris": {"ios": "https://dc.lft.to/lastmile_qr_scan", "android": "https://dc.lft.to/lastmile_qr_scan"}, "is_reserved": 0, "fusion_lat": 0.0, "type": "electric_scooter", "bike_id": "f67fa895f925d9aee2b1825d99dbc3b8", "is_disabled": 0, "lon": -77.01213333333334, "fusion_lon": 0.0, "name": "f67fa895f925d9aee2b1825d99dbc3b8", "lat": 38.8988525}, {"rental_uris": {"ios": "https://dc.lft.to/lastmile_qr_scan", "android": "https://dc.lft.to/lastmile_qr_scan"}, "is_reserved": 0, "fusion_lat": 0.0, "type": "electric_scooter", "bike_id": "611b25d39ba902a3c1662b5ba94e2492", "is_disabled": 0, "lon": -76.9870085, "fusion_lon": 0.0, "name": "611b25d39ba902a3c1662b5ba94e2492", "lat": 38.867224}, {"rental_uris": {"ios": "https://dc.lft.to/lastmile_qr_scan", "android": "https://dc.lft.to/lastmile_qr_scan"}, "is_reserved": 0, "fusion_lat": 0.0, "type": "electric_scooter", "bike_id": "ce6f29447df61b509ebb9e5cc051bf72", "is_disabled": 0, "lon": -77.0071155, "fusion_lon": 0.0, "name": "ce6f29447df61b509ebb9e5cc051bf72", "lat": 38.88487166666667}, {"rental_uris": {"ios": "https://dc.lft.to/lastmile_qr_scan", "android": "https://dc.lft.to/lastmile_qr_scan"}, "is_reserved": 0, "fusion_lat": 0.0, "type": "electric_scooter", "bike_id": "f14c3e989b7ccb05efb83b7093adaaf3", "is_disabled": 0, "lon": -77.02225516666667, "fusion_lon": 0.0, "name": "f14c3e989b7ccb05efb83b7093adaaf3", "lat": 38.9260755}, {"rental_uris": {"ios": "https://dc.lft.to/lastmile_qr_scan", "android": "https://dc.lft.to/lastmile_qr_scan"}, "is_reserved": 0, "fusion_lat": 0.0, "type": "electric_scooter", "bike_id": "b24099c45e4b044de3743e09601d3f0c", "is_disabled": 0, "lon": -77.03794683333334, "fusion_lon": 0.0, "name": "b24099c45e4b044de3743e09601d3f0c", "lat": 38.918134333333334}, {"rental_uris": {"ios": "https://dc.lft.to/lastmile_qr_scan", "android": "https://dc.lft.to/lastmile_qr_scan"}, "is_reserved": 0, "fusion_lat": 0.0, "type": "electric_scooter", "bike_id": "66b4cc9949e9daf683ff3c94cb92f941", "is_disabled": 0, "lon": -77.033375, "fusion_lon": 0.0, "name": "66b4cc9949e9daf683ff3c94cb92f941", "lat": 38.9170435}, {"rental_uris": {"ios": "https://dc.lft.to/lastmile_qr_scan", "android": "https://dc.lft.to/lastmile_qr_scan"}, "is_reserved": 0, "fusion_lat": 0.0, "type": "electric_scooter", "bike_id": "610f0bc481f5d341250b088ec5254b15", "is_disabled": 0, "lon": -77.04154633333333, "fusion_lon": 0.0, "name": "610f0bc481f5d341250b088ec5254b15", "lat": 38.908972}, {"rental_uris": {"ios": "https://dc.lft.to/lastmile_qr_scan", "android": "https://dc.lft.to/lastmile_qr_scan"}, "is_reserved": 0, "fusion_lat": 0.0, "type": "electric_scooter", "bike_id": "00ed2527a8c56102c09764d726fefe36", "is_disabled": 0, "lon": -77.0433245, "fusion_lon": 0.0, "name": "00ed2527a8c56102c09764d726fefe36", "lat": 38.9024405}, {"rental_uris": {"ios": "https://dc.lft.to/lastmile_qr_scan", "android": "https://dc.lft.to/lastmile_qr_scan"}, "is_reserved": 0, "fusion_lat": 0.0, "type": "electric_bike", "bike_id": "118cac053e2a0b730e330282aeb68a87", "is_disabled": 0, "lon": -77.04229883333333, "fusion_lon": 0.0, "name": "118cac053e2a0b730e330282aeb68a87", "lat": 38.921569166666664}, {"rental_uris": {"ios": "https://dc.lft.to/lastmile_qr_scan", "android": "https://dc.lft.to/lastmile_qr_scan"}, "is_reserved": 0, "fusion_lat": 0.0, "type": "electric_scooter", "bike_id": "902ac064623ab3f0cad008e87cd033bd", "is_disabled": 0, "lon": -77.01677766666667, "fusion_lon": 0.0, "name": "902ac064623ab3f0cad008e87cd033bd", "lat": 38.9204105}, {"rental_uris": {"ios": "https://dc.lft.to/lastmile_qr_scan", "android": "https://dc.lft.to/lastmile_qr_scan"}, "is_reserved": 0, "fusion_lat": 0.0, "type": "electric_bike", "bike_id": "11a02f1a191821cdfa41dc120b3adf46", "is_disabled": 0, "lon": -77.01424216666666, "fusion_lon": 0.0, "name": "11a02f1a191821cdfa41dc120b3adf46", "lat": 38.97219716666667}, {"rental_uris": {"ios": "https://dc.lft.to/lastmile_qr_scan", "android": "https://dc.lft.to/lastmile_qr_scan"}, "is_reserved": 0, "fusion_lat": 0.0, "type": "electric_scooter", "bike_id": "73e5a288d10860fbeea802ef32fb05ae", "is_disabled": 0, "lon": -77.0023065, "fusion_lon": 0.0, "name": "73e5a288d10860fbeea802ef32fb05ae", "lat": 38.900439166666665}, {"rental_uris": {"ios": "https://dc.lft.to/lastmile_qr_scan", "android": "https://dc.lft.to/lastmile_qr_scan"}, "is_reserved": 0, "fusion_lat": 0.0, "type": "electric_bike", "bike_id": "1524ffd59b138b643b405b823cc89133", "is_disabled": 0, "lon": -76.99248133333333, "fusion_lon": 0.0, "name": "1524ffd59b138b643b405b823cc89133", "lat": 38.794695833333336}, {"rental_uris": {"ios": "https://dc.lft.to/lastmile_qr_scan", "android": "https://dc.lft.to/lastmile_qr_scan"}, "is_reserved": 0, "fusion_lat": 0.0, "type": "electric_scooter", "bike_id": "ef9eba159150e260cf613f2c0181e4cf", "is_disabled": 0, "lon": -77.02350666666666, "fusion_lon": 0.0, "name": "ef9eba159150e260cf613f2c0181e4cf", "lat": 38.9319785}, {"rental_uris": {"ios": "https://dc.lft.to/lastmile_qr_scan", "android": "https://dc.lft.to/lastmile_qr_scan"}, "is_reserved": 0, "fusion_lat": 0.0, "type": "electric_scooter", "bike_id": "408f8005dcd59aac8e43b4d028c68648", "is_disabled": 0, "lon": -77.05825216666666, "fusion_lon": 0.0, "name": "408f8005dcd59aac8e43b4d028c68648", "lat": 38.9003205}, {"rental_uris": {"ios": "https://dc.lft.to/lastmile_qr_scan", "android": "https://dc.lft.to/lastmile_qr_scan"}, "is_reserved": 0, "fusion_lat": 0.0, "type": "electric_scooter", "bike_id": "6366f02d1634a4ed75b092da6490ad37", "is_disabled": 0, "lon": -77.077016, "fusion_lon": 0.0, "name": "6366f02d1634a4ed75b092da6490ad37", "lat": 38.9438305}, {"rental_uris": {"ios": "https://dc.lft.to/lastmile_qr_scan", "android": "https://dc.lft.to/lastmile_qr_scan"}, "is_reserved": 0, "fusion_lat": 0.0, "type": "electric_scooter", "bike_id": "1b4ab13e0f867d937604ddf3d8298cb4", "is_disabled": 0, "lon": -77.033521, "fusion_lon": 0.0, "name": "1b4ab13e0f867d937604ddf3d8298cb4", "lat": 38.945176000000004}, {"rental_uris": {"ios": "https://dc.lft.to/lastmile_qr_scan", "android": "https://dc.lft.to/lastmile_qr_scan"}, "is_reserved": 0, "fusion_lat": 0.0, "type": "electric_scooter", "bike_id": "fff3bbacf4e04f915488f0d35c5439a3", "is_disabled": 0, "lon": -76.9854385, "fusion_lon": 0.0, "name": "fff3bbacf4e04f915488f0d35c5439a3", "lat": 38.86692733333334}, {"rental_uris": {"ios": "https://dc.lft.to/lastmile_qr_scan", "android": "https://dc.lft.to/lastmile_qr_scan"}, "is_reserved": 0, "fusion_lat": 0.0, "type": "electric_scooter", "bike_id": "05ca0fb77dd117cde6d2f58af9f6f462", "is_disabled": 0, "lon": -77.0419505, "fusion_lon": 0.0, "name": "05ca0fb77dd117cde6d2f58af9f6f462", "lat": 38.892255166666665}, {"rental_uris": {"ios": "https://dc.lft.to/lastmile_qr_scan", "android": "https://dc.lft.to/lastmile_qr_scan"}, "is_reserved": 0, "fusion_lat": 0.0, "type": "electric_scooter", "bike_id": "add31a58b879e6e81ac098bee17ce859", "is_disabled": 0, "lon": -77.01905883333333, "fusion_lon": 0.0, "name": "add31a58b879e6e81ac098bee17ce859", "lat": 38.923749}, {"rental_uris": {"ios": "https://dc.lft.to/lastmile_qr_scan", "android": "https://dc.lft.to/lastmile_qr_scan"}, "is_reserved": 0, "fusion_lat": 0.0, "type": "electric_scooter", "bike_id": "afe1a3707660161debdeae2f3eefec75", "is_disabled": 0, "lon": -77.01407366666666, "fusion_lon": 0.0, "name": "afe1a3707660161debdeae2f3eefec75", "lat": 38.928506}, {"rental_uris": {"ios": "https://dc.lft.to/lastmile_qr_scan", "android": "https://dc.lft.to/lastmile_qr_scan"}, "is_reserved": 0, "fusion_lat": 0.0, "type": "electric_scooter", "bike_id": "116bcf437f87100ef9bfa1e6547473e0", "is_disabled": 0, "lon": -77.01726366666666, "fusion_lon": 0.0, "name": "116bcf437f87100ef9bfa1e6547473e0", "lat": 38.954960166666666}, {"rental_uris": {"ios": "https://dc.lft.to/lastmile_qr_scan", "android": "https://dc.lft.to/lastmile_qr_scan"}, "is_reserved": 0, "fusion_lat": 0.0, "type": "electric_scooter", "bike_id": "3ca1ada0d0e2cbd56e9633a0a33f35d1", "is_disabled": 0, "lon": -77.03823516666667, "fusion_lon": 0.0, "name": "3ca1ada0d0e2cbd56e9633a0a33f35d1", "lat": 38.92476583333333}, {"rental_uris": {"ios": "https://dc.lft.to/lastmile_qr_scan", "android": "https://dc.lft.to/lastmile_qr_scan"},