{"data": {"bikes": [{"is_reserved": 0, "fusion_lat": 0.0, "name": "1f45c5889fd5cc74efbe63eff4aae178", "is_disabled": 0, "lat": 38.89735133333333, "rental_uris": {"ios": "https://dc.lft.to/lastmile_qr_scan", "android": "https://dc.lft.to/lastmile_qr_scan"}, "type": "electric_scooter", "lon": -77.04148983333333, "bike_id": "1f45c5889fd5cc74efbe63eff4aae178", "fusion_lon": 0.0}, {"is_reserved": 0, "fusion_lat": 0.0, "name": "f4f66fba2eb58871ed773a712be4301e", "is_disabled": 0, "lat": 38.9002105, "rental_uris": {"ios": "https://dc.lft.to/lastmile_qr_scan", "android": "https://dc.lft.to/lastmile_qr_scan"}, "type": "electric_scooter", "lon": -77.04520333333333, "bike_id": "f4f66fba2eb58871ed773a712be4301e", "fusion_lon": 0.0}, {"is_reserved": 0, "fusion_lat": 0.0, "name": "96c0a7810ff664d90ccbc6ded5976f72", "is_disabled": 0, "lat": 38.947510666666666, "rental_uris": {"ios": "https://dc.lft.to/lastmile_qr_scan", "android": "https://dc.lft.to/lastmile_qr_scan"}, "type": "electric_scooter", "lon": -77.03281616666666, "bike_id": "96c0a7810ff664d90ccbc6ded5976f72", "fusion_lon": 0.0}, {"is_reserved": 0, "fusion_lat": 0.0, "name": "88d334e40f678cc3d31e93aba3bfb740", "is_disabled": 0, "lat": 38.888725, "rental_uris": {"ios": "https://dc.lft.to/lastmile_qr_scan", "android": "https://dc.lft.to/lastmile_qr_scan"}, "type": "electric_scooter", "lon": -76.9999925, "bike_id": "88d334e40f678cc3d31e93aba3bfb740", "fusion_lon": 0.0}, {"is_reserved": 0, "fusion_lat": 0.0, "name": "e72604ef4c5eb25f5ecb33afb4da06c9", "is_disabled": 0, "lat": 38.92019883333333, "rental_uris": {"ios": "https://dc.lft.to/lastmile_qr_scan", "android": "https://dc.lft.to/lastmile_qr_scan"}, "type": "electric_scooter", "lon": -77.07134483333333, "bike_id": "e72604ef4c5eb25f5ecb33afb4da06c9", "fusion_lon": 0.0}, {"is_reserved": 0, "fusion_lat": 0.0, "name": "8719958b59b771eb776611fd1b6d9e14", "is_disabled": 0, "lat": 38.90309333333333, "rental_uris": {"ios": "https://dc.lft.to/lastmile_qr_scan", "android": "https://dc.lft.to/lastmile_qr_scan"}, "type": "electric_scooter", "lon": -77.0345055, "bike_id": "8719958b59b771eb776611fd1b6d9e14", "fusion_lon": 0.0}, {"is_reserved": 0, "fusion_lat": 0.0, "name": "b9180dedf1072a793d712fd5e6e0e560", "is_disabled": 0, "lat": 38.901521833333334, "rental_uris": {"ios": "https://dc.lft.to/lastmile_qr_scan", "android": "https://dc.lft.to/lastmile_qr_scan"}, "type": "electric_scooter", "lon": -77.04161066666667, "bike_id": "b9180dedf1072a793d712fd5e6e0e560", "fusion_lon": 0.0}, {"is_reserved": 0, "fusion_lat": 0.0, "name": "d81ac46417693efc0e0c018445a627c1", "is_disabled": 0, "lat": 38.928260333333334, "rental_uris": {"ios": "https://dc.lft.to/lastmile_qr_scan", "android": "https://dc.lft.to/lastmile_qr_scan"}, "type": "electric_scooter", "lon": -77.02256, "bike_id": "d81ac46417693efc0e0c018445a627c1", "fusion_lon": 0.0}, {"is_reserved": 0, "fusion_lat": 0.0, "name": "828f8aaa499aebae29eeedb7624d2580", "is_disabled": 0, "lat": 38.91361966666667, "rental_uris": {"ios": "https://dc.lft.to/lastmile_qr_scan", "android": "https://dc.lft.to/lastmile_qr_scan"}, "type": "electric_scooter", "lon": -77.044775, "bike_id": "828f8aaa499aebae29eeedb7624d2580", "fusion_lon": 0.0}, {"is_reserved": 0, "fusion_lat": 0.0, "name": "8ba872d517886498f235968caf5d8d26", "is_disabled": 0, "lat": 38.92288166666667, "rental_uris": {"ios": "https://dc.lft.to/lastmile_qr_scan", "android": "https://dc.lft.to/lastmile_qr_scan"}, "type": "electric_scooter", "lon": -77.022425, "bike_id": "8ba872d517886498f235968caf5d8d26", "fusion_lon": 0.0}, {"is_reserved": 0, "fusion_lat": 0.0, "name": "0da1c8842b210e8de8b8b88b5132fd03", "is_disabled": 0, "lat": 38.9247325, "rental_uris": {"ios": "https://dc.lft.to/lastmile_qr_scan", "android": "https://dc.lft.to/lastmile_qr_scan"}, "type": "electric_scooter", "lon": -77.022142, "bike_id": "0da1c8842b210e8de8b8b88b5132fd03", "fusion_lon": 0.0}, {"is_reserved": 0, "fusion_lat": 0.0, "name": "fab63b700ac502e76b31ad217a024e59", "is_disabled": 0, "lat": 38.90020466666667, "rental_uris": {"ios": "https://dc.lft.to/lastmile_qr_scan", "android": "https://dc.lft.to/lastmile_qr_scan"}, "type": "electric_scooter", "lon": -76.998637, "bike_id": "fab63b700ac502e76b31ad217a024e59", "fusion_lon": 0.0}, {"is_reserved": 0, "fusion_lat": 0.0, "name": "384d81608247cadb25bafae35f1e07b5", "is_disabled": 0, "lat": 38.935727666666665, "rental_uris": {"ios": "https://dc.lft.to/lastmile_qr_scan", "android": "https://dc.lft.to/lastmile_qr_scan"}, "type": "electric_scooter", "lon": -77.03261533333334, "bike_id": "384d81608247cadb25bafae35f1e07b5", "fusion_lon": 0.0}, {"is_reserved": 0, "fusion_lat": 0.0, "name": "57706b36b3636657aad51a0fac7093ae", "is_disabled": 0, "lat": 38.89269316666667, "rental_uris": {"ios": "https://dc.lft.to/lastmile_qr_scan", "android": "https://dc.lft.to/lastmile_qr_scan"}, "type": "electric_scooter", "lon": -77.00350866666666, "bike_id": "57706b36b3636657aad51a0fac7093ae", "fusion_lon": 0.0}, {"is_reserved": 0, "fusion_lat": 0.0, "name": "aa041547ab38ad0e072df9b18bd508fa", "is_disabled": 0, "lat": 38.924168, "rental_uris": {"ios": "https://dc.lft.to/lastmile_qr_scan", "android": "https://dc.lft.to/lastmile_qr_scan"}, "type": "electric_scooter", "lon": -77.02039033333334, "bike_id": "aa041547ab38ad0e072df9b18bd508fa", "fusion_lon": 0.0}, {"is_reserved": 0, "fusion_lat": 0.0, "name": "433f40d5162e75ca9a91ff42106f50a2", "is_disabled": 0, "lat": 38.919313833333334, "rental_uris": {"ios": "https://dc.lft.to/lastmile_qr_scan", "android": "https://dc.lft.to/lastmile_qr_scan"}, "type": "electric_scooter", "lon": -77.01786283333334, "bike_id": "433f40d5162e75ca9a91ff42106f50a2", "fusion_lon": 0.0}, {"is_reserved": 0, "fusion_lat": 0.0, "name": "6bdbe91ded49ca2c820b07c1c0e9c031", "is_disabled": 0, "lat": 38.92987983333333, "rental_uris": {"ios": "https://dc.lft.to/lastmile_qr_scan", "android": "https://dc.lft.to/lastmile_qr_scan"}, "type": "electric_scooter", "lon": -77.03231683333334, "bike_id": "6bdbe91ded49ca2c820b07c1c0e9c031", "fusion_lon": 0.0}, {"is_reserved": 0, "fusion_lat": 0.0, "name": "a8077b7b753044cc72f2856fd857077c", "is_disabled": 0, "lat": 38.93534116666667, "rental_uris": {"ios": "https://dc.lft.to/lastmile_qr_scan", "android": "https://dc.lft.to/lastmile_qr_scan"}, "type": "electric_scooter", "lon": -77.02347533333334, "bike_id": "a8077b7b753044cc72f2856fd857077c", "fusion_lon": 0.0}, {"is_reserved": 0, "fusion_lat": 0.0, "name": "27c9ce7dd0efa66edf8565b3a4f0026c", "is_disabled": 0, "lat": 38.887114, "rental_uris": {"ios": "https://dc.lft.to/lastmile_qr_scan", "android": "https://dc.lft.to/lastmile_qr_scan"}, "type": "electric_scooter", "lon": -76.9838085, "bike_id": "27c9ce7dd0efa66edf8565b3a4f0026c", "fusion_lon": 0.0}, {"is_reserved": 0, "fusion_lat": 0.0, "name": "5fa75f410714e92bdc2a6466b5d6f672", "is_disabled": 0, "lat": 38.89979866666667, "rental_uris": {"ios": "https://dc.lft.to/lastmile_qr_scan", "android": "https://dc.lft.to/lastmile_qr_scan"}, "type": "electric_scooter", "lon": -77.04186466666667, "bike_id": "5fa75f410714e92bdc2a6466b5d6f672", "fusion_lon": 0.0}, {"is_reserved": 0, "fusion_lat": 0.0, "name": "6c28bad86a771a059b426705c091bd79", "is_disabled": 0, "lat": 38.91705116666667, "rental_uris": {"ios": "https://dc.lft.to/lastmile_qr_scan", "android": "https://dc.lft.to/lastmile_qr_scan"}, "type": "electric_scooter", "lon": -77.0230055, "bike_id": "6c28bad86a771a059b426705c091bd79", "fusion_lon": 0.0}, {"is_reserved": 0, "fusion_lat": 0.0, "name": "652b58e0fa7a2844eb76db31b2907c12", "is_disabled": 0, "lat": 38.88852133333333, "rental_uris": {"ios": "https://dc.lft.to/lastmile_qr_scan", "android": "https://dc.lft.to/lastmile_qr_scan"}, "type": "electric_scooter", "lon": -76.9773265, "bike_id": "652b58e0fa7a2844eb76db31b2907c12", "fusion_lon": 0.0}, {"is_reserved": 0, "fusion_lat": 0.0, "name": "b7da6d3d15b7fb002664c9402f26f6bf", "is_disabled": 0, "lat": 38.877926, "rental_uris": {"ios": "https://dc.lft.to/lastmile_qr_scan", "android": "https://dc.lft.to/lastmile_qr_scan"}, "type": "electric_scooter", "lon": -76.9960455, "bike_id": "b7da6d3d15b7fb002664c9402f26f6bf", "fusion_lon": 0.0}, {"is_reserved": 0, "fusion_lat": 0.0, "name": "a8c6155d44fab8a26184d6a2f12d4b9d", "is_disabled": 0, "lat": 38.924049833333335, "rental_uris": {"ios": "https://dc.lft.to/lastmile_qr_scan", "android": "https://dc.lft.to/lastmile_qr_scan"}, "type": "electric_scooter", "lon": -77.04046416666667, "bike_id": "a8c6155d44fab8a26184d6a2f12d4b9d", "fusion_lon": 0.0}, {"is_reserved": 0, "fusion_lat": 0.0, "name": "afe4a6a9943e14abc1e930f85ef388df", "is_disabled": 0, "lat": 38.918905, "rental_uris": {"ios": "https://dc.lft.to/lastmile_qr_scan", "android": "https://dc.lft.to/lastmile_qr_scan"}, "type": "electric_scooter", "lon": -76.96897233333334, "bike_id": "afe4a6a9943e14abc1e930f85ef388df", "fusion_lon": 0.0}, {"is_reserved": 0, "fusion_lat": 0.0, "name": "ac7ec741a9c29902b66250497123bff9", "is_disabled": 0, "lat": 38.91944316666667, "rental_uris": {"ios": "https://dc.lft.to/lastmile_qr_scan", "android": "https://dc.lft.to/lastmile_qr_scan"}, "type": "electric_scooter", "lon": -77.025075, "bike_id": "ac7ec741a9c29902b66250497123bff9", "fusion_lon": 0.0}, {"is_reserved": 0, "fusion_lat": 0.0, "name": "dbacff51f71290acb924f9e8a8453aab", "is_disabled": 0, "lat": 38.89482566666667, "rental_uris": {"ios": "https://dc.lft.to/lastmile_qr_scan", "android": "https://dc.lft.to/lastmile_qr_scan"}, "type": "electric_scooter", "lon": -76.9951425, "bike_id": "dbacff51f71290acb924f9e8a8453aab", "fusion_lon": 0.0}, {"is_reserved": 0, "fusion_lat": 0.0, "name": "a12f71a8a7cc251fe07032b67b25fb33", "is_disabled": 0, "lat": 38.906929, "rental_uris": {"ios": "https://dc.lft.to/lastmile_qr_scan", "android": "https://dc.lft.to/lastmile_qr_scan"}, "type": "electric_scooter", "lon": -77.0271575, "bike_id": "a12f71a8a7cc251fe07032b67b25fb33", "fusion_lon": 0.0}, {"is_reserved": 0, "fusion_lat": 0.0, "name": "f4aa35f3ef2103b5b46310cd712e1a54", "is_disabled": 0, "lat": 38.919849666666664, "rental_uris": {"ios": "https://dc.lft.to/lastmile_qr_scan", "android": "https://dc.lft.to/lastmile_qr_scan"}, "type": "electric_scooter", "lon": -77.04163116666666, "bike_id": "f4aa35f3ef2103b5b46310cd712e1a54", "fusion_lon": 0.0}, {"is_reserved": 0, "fusion_lat": 0.0, "name": "204d2b6709c233b731aa188fa5902204", "is_disabled": 0, "lat": 38.916178, "rental_uris": {"ios": "https://dc.lft.to/lastmile_qr_scan", "android": "https://dc.lft.to/lastmile_qr_scan"}, "type": "electric_scooter", "lon": -77.02798533333333, "bike_id": "204d2b6709c233b731aa188fa5902204", "fusion_lon": 0.0}, {"is_reserved": 0, "fusion_lat": 0.0, "name": "ebc583d9e8587f8557969bdfe7f6593b", "is_disabled": 0, "lat": 38.88575933333333, "rental_uris": {"ios": "https://dc.lft.to/lastmile_qr_scan", "android": "https://dc.lft.to/lastmile_qr_scan"}, "type": "electric_scooter", "lon": -76.95428616666666, "bike_id": "ebc583d9e8587f8557969bdfe7f6593b", "fusion_lon": 0.0}, {"is_reserved": 0, "fusion_lat": 0.0, "name": "f0dcf0ce5dccaf8817ad4036009e3443", "is_disabled": 0, "lat": 38.907112833333336, "rental_uris": {"ios": "https://dc.lft.to/lastmile_qr_scan", "android": "https://dc.lft.to/lastmile_qr_scan"}, "type": "electric_scooter", "lon": -77.03196783333334, "bike_id": "f0dcf0ce5dccaf8817ad4036009e3443", "fusion_lon": 0.0}, {"is_reserved": 0, "fusion_lat": 0.0, "name": "0fb8adad71c0e737a557965ca7177822", "is_disabled": 0, "lat": 38.924622166666666, "rental_uris": {"ios": "https://dc.lft.to/lastmile_qr_scan", "android": "https://dc.lft.to/lastmile_qr_scan"}, "type": "electric_scooter", "lon": -77.0223675, "bike_id": "0fb8adad71c0e737a557965ca7177822", "fusion_lon": 0.0}, {"is_reserved": 0, "fusion_lat": 0.0, "name": "a4ef4f98fb6ba9fc4a5d41a3422ee9e5", "is_disabled": 0, "lat": 38.93754533333333, "rental_uris": {"ios": "https://dc.lft.to/lastmile_qr_scan", "android": "https://dc.lft.to/lastmile_qr_scan"}, "type": "electric_scooter", "lon": -77.032608, "bike_id": "a4ef4f98fb6ba9fc4a5d41a3422ee9e5", "fusion_lon": 0.0}, {"is_reserved": 0, "fusion_lat": 0.0, "name": "914bc02ebb3c10df3dba0343bacfce3d", "is_disabled": 0, "lat": 38.90073916666667, "rental_uris": {"ios": "https://dc.lft.to/lastmile_qr_scan", "android": "https://dc.lft.to/lastmile_qr_scan"}, "type": "electric_scooter", "lon": -77.02690216666667, "bike_id": "914bc02ebb3c10df3dba0343bacfce3d", "fusion_lon": 0.0}, {"is_reserved": 0, "fusion_lat": 0.0, "name": "47aad25b822707ef5dddec0ed39f0d63", "is_disabled": 0, "lat": 38.90397316666667, "rental_uris": {"ios": "https://dc.lft.to/lastmile_qr_scan", "android": "https://dc.lft.to/lastmile_qr_scan"}, "type": "electric_scooter", "lon": -77.03278316666666, "bike_id": "47aad25b822707ef5dddec0ed39f0d63", "fusion_lon": 0.0}, {"is_reserved": 0, "fusion_lat": 0.0, "name": "0623ae802bc635e491f944d163e711bc", "is_disabled": 0, "lat": 38.92407433333333, "rental_uris": {"ios": "https://dc.lft.to/lastmile_qr_scan", "android": "https://dc.lft.to/lastmile_qr_scan"}, "type": "electric_scooter", "lon": -77.02701266666666, "bike_id": "0623ae802bc635e491f944d163e711bc", "fusion_lon": 0.0}, {"is_reserved": 0, "fusion_lat": 0.0, "name": "9894ed3476fd34857c4cf7e653921872", "is_disabled": 0, "lat": 38.919763833333334, "rental_uris": {"ios": "https://dc.lft.to/lastmile_qr_scan", "android": "https://dc.lft.to/lastmile_qr_scan"}, "type": "electric_scooter", "lon": -77.0234865, "bike_id": "9894ed3476fd34857c4cf7e653921872", "fusion_lon": 0.0}, {"is_reserved": 0, "fusion_lat": 0.0, "name": "727a9453a7e00740d12c388c586b6599", "is_disabled": 0, "lat": 38.896029666666664, "rental_uris": {"ios": "https://dc.lft.to/lastmile_qr_scan", "android": "https://dc.lft.to/lastmile_qr_scan"}, "type": "electric_scooter", "lon": -77.0254245, "bike_id": "727a9453a7e00740d12c388c586b6599", "fusion_lon": 0.0}, {"is_reserved": 0, "fusion_lat": 0.0, "name": "0a3ef6516e0ad44805066376bd0cba8c", "is_disabled": 0, "lat": 38.91009433333333, "rental_uris": {"ios": "https://dc.lft.to/lastmile_qr_scan", "android": "https://dc.lft.to/lastmile_qr_scan"}, "type": "electric_scooter", "lon": -76.99387083333333, "bike_id": "0a3ef6516e0ad44805066376bd0cba8c", "fusion_lon": 0.0}, {"is_reserved": 0, "fusion_lat": 0.0, "name": "c44a2319e664ad164b2beb58806f0b6e", "is_disabled": 0, "lat": 38.903144833333336, "rental_uris": {"ios": "https://dc.lft.to/lastmile_qr_scan", "android": "https://dc.lft.to/lastmile_qr_scan"}, "type": "electric_scooter", "lon": -77.021229, "bike_id": "c44a2319e664ad164b2beb58806f0b6e", "fusion_lon": 0.0}, {"is_reserved": 0, "fusion_lat": 0.0, "name": "fbf4d18f8e8527c05049e7c1f880c4d3", "is_disabled": 0, "lat": 38.9235805, "rental_uris": {"ios": "https://dc.lft.to/lastmile_qr_scan", "android": "https://dc.lft.to/lastmile_qr_scan"}, "type": "electric_scooter", "lon": -77.02056966666666, "bike_id": "fbf4d18f8e8527c05049e7c1f880c4d3", "fusion_lon": 0.0}, {"is_reserved": 0, "fusion_lat": 0.0, "name": "4c0077965721998dc36548ce803f97da", "is_disabled": 0, "lat": 38.899620166666665, "rental_uris": {"ios": "https://dc.lft.to/lastmile_qr_scan", "android": "https://dc.lft.to/lastmile_qr_scan"}, "type": "electric_scooter", "lon": -77.0150165, "bike_id": "4c0077965721998dc36548ce803f97da", "fusion_lon": 0.0}, {"is_reserved": 0, "fusion_lat": 0.0, "name": "daee58d3685b754afa61b6cbd580a4c1", "is_disabled": 0, "lat": 38.899370166666664, "rental_uris": {"ios": "https://dc.lft.to/lastmile_qr_scan", "android": "https://dc.lft.to/lastmile_qr_scan"}, "type": "electric_scooter", "lon": -77.02804683333333, "bike_id": "daee58d3685b754afa61b6cbd580a4c1", "fusion_lon": 0.0}, {"is_reserved": 0, "fusion_lat": 0.0, "name": "ecc28dd195e92898c6acc563879b962c", "is_disabled": 0, "lat": 38.915728666666666, "rental_uris": {"ios": "https://dc.lft.to/lastmile_qr_scan", "android": "https://dc.lft.to/lastmile_qr_scan"}, "type": "electric_scooter", "lon": -77.01987766666667, "bike_id": "ecc28dd195e92898c6acc563879b962c", "fusion_lon": 0.0}, {"is_reserved": 0, "fusion_lat": 0.0, "name": "7053dd444b0e3e24e69a73015dc1ef39", "is_disabled": 0, "lat": 38.897308333333335, "rental_uris": {"ios": "https://dc.lft.to/lastmile_qr_scan", "android": "https://dc.lft.to/lastmile_qr_scan"}, "type": "electric_scooter", "lon": -77.02454533333334, "bike_id": "7053dd444b0e3e24e69a73015dc1ef39", "fusion_lon": 0.0}, {"is_reserved": 0, "fusion_lat": 0.0, "name": "a66b48a941b6377c89d7a7e70ed99254", "is_disabled": 0, "lat": 38.890562333333335, "rental_uris": {"ios": "https://dc.lft.to/lastmile_qr_scan", "android": "https://dc.lft.to/lastmile_qr_scan"}, "type": "electric_scooter", "lon": -77.01504266666667, "bike_id": "a66b48a941b6377c89d7a7e70ed99254", "fusion_lon": 0.0}, {"is_reserved": 0, "fusion_lat": 0.0, "name": "13dfd0f32e64f038f99d7d75edcc6f1b", "is_disabled": 0, "lat": 38.91415333333333, "rental_uris": {"ios": "https://dc.lft.to/lastmile_qr_scan", "android": "https://dc.lft.to/lastmile_qr_scan"}, "type": "electric_scooter", "lon": -77.02213616666667, "bike_id": "13dfd0f32e64f038f99d7d75edcc6f1b", "fusion_lon": 0.0}, {"is_reserved": 0, "fusion_lat": 0.0, "name": "6650b575aa23e14992cd4f19b2cb551a", "is_disabled": 0, "lat": 38.907119333333334, "rental_uris": {"ios": "https://dc.lft.to/lastmile_qr_scan", "android": "https://dc.lft.to/lastmile_qr_scan"}, "type": "electric_scooter", "lon": -77.05131916666667, "bike_id": "6650b575aa23e14992cd4f19b2cb551a", "fusion_lon": 0.0}, {"is_reserved": 0, "fusion_lat": 0.0, "name": "1b201ac91cebc7cc067f30b32ad137c5", "is_disabled": 0, "lat": 38.897396, "rental_uris": {"ios": "https://dc.lft.to/lastmile_qr_scan", "android": "https://dc.lft.to/lastmile_qr_scan"}, "type": "electric_scooter", "lon": -76.9921195, "bike_id": "1b201ac91cebc7cc067f30b32ad137c5", "fusion_lon": 0.0}, {"is_reserved": 0, "fusion_lat": 0.0, "name": "8cf655f1ef3f430aa0df3b59c899cd78", "is_disabled": 0, "lat": 38.89508583333333, "rental_uris": {"ios": "https://dc.lft.to/lastmile_qr_scan", "android": "https://dc.lft.to/lastmile_qr_scan"}, "type": "electric_scooter", "lon": -77.04675083333333, "bike_id": "8cf655f1ef3f430aa0df3b59c899cd78", "fusion_lon": 0.0}, {"is_reserved": 0, "fusion_lat": 0.0, "name": "726c4389b31931172d1cfa8811ebf35f", "is_disabled": 0, "lat": 38.8990625, "rental_uris": {"ios": "https://dc.lft.to/lastmile_qr_scan", "android": "https://dc.lft.to/lastmile_qr_scan"}, "type": "electric_scooter", "lon": -77.03281883333334, "bike_id": "726c4389b31931172d1cfa8811ebf35f", "fusion_lon": 0.0}, {"is_reserved": 0, "fusion_lat": 0.0, "name": "299da70d9c8dd39b0e52f8c0e133033a", "is_disabled": 0, "lat": 38.92172133333333, "rental_uris": {"ios": "https://dc.lft.to/lastmile_qr_scan", "android": "https://dc.lft.to/lastmile_qr_scan"}, "type": "electric_scooter", "lon": -77.04015233333334, "bike_id": "299da70d9c8dd39b0e52f8c0e133033a", "fusion_lon": 0.0}, {"is_reserved": 0, "fusion_lat": 0.0, "name": "e65d00ca349df8940385d50f8362caec", "is_disabled": 0, "lat": 38.9520565, "rental_uris": {"ios": "https://dc.lft.to/lastmile_qr_scan", "android": "https://dc.lft.to/lastmile_qr_scan"}, "type": "electric_bike", "lon": -77.01175466666666, "bike_id": "e65d00ca349df8940385d50f8362caec", "fusion_lon": 0.0}, {"is_reserved": 0, "fusion_lat": 0.0, "name": "48ecbc03b32bb2ea3365096705b46f0c", "is_disabled": 0, "lat": 38.90724783333334, "rental_uris": {"ios": "https://dc.lft.to/lastmile_qr_scan", "android": "https://dc.lft.to/lastmile_qr_scan"}, "type": "electric_scooter", "lon": -77.0079895, "bike_id": "48ecbc03b32bb2ea3365096705b46f0c", "fusion_lon": 0.0}, {"is_reserved": 0, "fusion_lat": 0.0, "name": "794a8639268951d9da2fe268612eae5c", "is_disabled": 0, "lat": 38.89772833333333, "rental_uris": {"ios": "https://dc.lft.to/lastmile_qr_scan", "android": "https://dc.lft.to/lastmile_qr_scan"}, "type": "electric_scooter", "lon": -77.01183633333333, "bike_id": "794a8639268951d9da2fe268612eae5c", "fusion_lon": 0.0}, {"is_reserved": 0, "fusion_lat": 0.0, "name": "240b7c0d08d146296a6ab5948b013e5b", "is_disabled": 0, "lat": 38.967915, "rental_uris": {"ios": "https://dc.lft.to/lastmile_qr_scan", "android": "https://dc.lft.to/lastmile_qr_scan"}, "type": "electric_scooter", "lon": -77.0242835, "bike_id": "240b7c0d08d146296a6ab5948b013e5b", "fusion_lon": 0.0}, {"is_reserved": 0, "fusion_lat": 0.0, "name": "d1088d9c5f6158ce38d8d0b8551648af", "is_disabled": 0, "lat": 38.90947933333333, "rental_uris": {"ios": "https://dc.lft.to/lastmile_qr_scan", "android": "https://dc.lft.to/lastmile_qr_scan"}, "type": "electric_scooter", "lon": -77.034442, "bike_id": "d1088d9c5f6158ce38d8d0b8551648af", "fusion_lon": 0.0}, {"is_reserved": 0, "fusion_lat": 0.0, "name": "1b0bfcd8dd992102b6addd22a0819495", "is_disabled": 0, "lat": 38.887744, "rental_uris": {"ios": "https://dc.lft.to/lastmile_qr_scan", "android": "https://dc.lft.to/lastmile_qr_scan"}, "type": "electric_scooter", "lon": -76.93265033333333, "bike_id": "1b0bfcd8dd992102b6addd22a0819495", "fusion_lon": 0.0}, {"is_reserved": 0, "fusion_lat": 0.0, "name": "e3d02415ab8d56c3de2443d5e9b1541d", "is_disabled": 0, "lat": 38.89734333333333, "rental_uris": {"ios": "https://dc.lft.to/lastmile_qr_scan", "android": "https://dc.lft.to/lastmile_qr_scan"}, "type": "electric_scooter", "lon": -77.02451833333333, "bike_id": "e3d02415ab8d56c3de2443d5e9b1541d", "fusion_lon": 0.0}, {"is_reserved": 0, "fusion_lat": 0.0, "name": "f303f82fcc53c87aa5e0ff78d0fd5c79", "is_disabled": 0, "lat": 38.895573166666665, "rental_uris": {"ios": "https://dc.lft.to/lastmile_qr_scan", "android": "https://dc.lft.to/lastmile_qr_scan"}, "type": "electric_scooter", "lon": -77.00912383333333, "bike_id": "f303f82fcc53c87aa5e0ff78d0fd5c79", "fusion_lon": 0.0}, {"is_reserved": 0, "fusion_lat": 0.0, "name": "4d080e759579704f813073f5099cc8b3", "is_disabled": 0, "lat": 38.9003795, "rental_uris": {"ios": "https://dc.lft.to/lastmile_qr_scan", "android": "https://dc.lft.to/lastmile_qr_scan"}, "type": "electric_scooter", "lon": -77.01998416666666, "bike_id": "4d080e759579704f813073f5099cc8b3", "fusion_lon": 0.0}, {"is_reserved": 0, "fusion_lat": 0.0, "name": "f33736b5c755afd02914ce19456c84b2", "is_disabled": 0, "lat": 38.921380666666664, "rental_uris": {"ios": "https://dc.lft.to/lastmile_qr_scan", "android": "https://dc.lft.to/lastmile_qr_scan"}, "type": "electric_scooter", "lon": -77.01784533333333, "bike_id": "f33736b5c755afd02914ce19456c84b2", "fusion_lon": 0.0}, {"is_reserved": 0, "fusion_lat": 0.0, "name": "e3a5a7756ddcc4194d6d1abdc03a6396", "is_disabled": 0, "lat": 38.90513816666667, "rental_uris": {"ios": "https://dc.lft.to/lastmile_qr_scan", "android": "https://dc.lft.to/lastmile_qr_scan"}, "type": "electric_scooter", "lon": -77.02795066666667, "bike_id": "e3a5a7756ddcc4194d6d1abdc03a6396", "fusion_lon": 0.0}, {"is_reserved": 0, "fusion_lat": 0.0, "name": "efaef76c5c7f061fe6017596b2401633", "is_disabled": 0, "lat": 38.911106, "rental_uris": {"ios": "https://dc.lft.to/lastmile_qr_scan", "android": "https://dc.lft.to/lastmile_qr_scan"}, "type": "electric_scooter", "lon": -77.03644466666667, "bike_id": "efaef76c5c7f061fe6017596b2401633", "fusion_lon": 0.0}, {"is_reserved": 0, "fusion_lat": 0.0, "name": "01565be7606ea41c186bc8757e411448", "is_disabled": 0, "lat": 38.897119833333335, "rental_uris": {"ios": "https://dc.lft.to/lastmile_qr_scan", "android": "https://dc.lft.to/lastmile_qr_scan"}, "type": "electric_scooter", "lon": -77.0079655, "bike_id": "01565be7606ea41c186bc8757e411448", "fusion_lon": 0.0}, {"is_reserved": 0, "fusion_lat": 0.0, "name": "3ca9dda81f5026a4ed8eb0aad978a6cb", "is_disabled": 0, "lat": 38.937032333333335, "rental_uris": {"ios": "https://dc.lft.to/lastmile_qr_scan", "android": "https://dc.lft.to/lastmile_qr_scan"}, "type": "electric_scooter", "lon": -77.0240055, "bike_id": "3ca9dda81f5026a4ed8eb0aad978a6cb", "fusion_lon": 0.0}, {"is_reserved": 0, "fusion_lat": 0.0, "name": "a7c69adf4feb50f9e91c121dc172a177", "is_disabled": 0, "lat": 38.92256833333333, "rental_uris": {"ios": "https://dc.lft.to/lastmile_qr_scan", "android": "https://dc.lft.to/lastmile_qr_scan"}, "type": "electric_scooter", "lon": -77.019534, "bike_id": "a7c69adf4feb50f9e91c121dc172a177", "fusion_lon": 0.0}, {"is_reserved": 0, "fusion_lat": 0.0, "name": "fc6456e66cbfca437ee17a2b95852228", "is_disabled": 0, "lat": 38.988860833333334, "rental_uris": {"ios": "https://dc.lft.to/lastmile_qr_scan", "android": "https://dc.lft.to/lastmile_qr_scan"}, "type": "electric_bike", "lon": -76.9880045, "bike_id": "fc6456e66cbfca437ee17a2b95852228", "fusion_lon": 0.0}, {"is_reserved": 0, "fusion_lat": 0.0, "name": "fe38405888f490f08b21e706e70db623", "is_disabled": 0, "lat": 38.902151333333336, "rental_uris": {"ios": "https://dc.lft.to/lastmile_qr_scan", "android": "https://dc.lft.to/lastmile_qr_scan"}, "type": "electric_scooter", "lon": -77.04163133333333, "bike_id": "fe38405888f490f08b21e706e70db623", "fusion_lon": 0.0}, {"is_reserved": 0, "fusion_lat": 0.0, "name": "7247098cf17671f52dc4d689d55e3e95", "is_disabled": 0, "lat": 38.9407565, "rental_uris": {"ios": "https://dc.lft.to/lastmile_qr_scan", "android": "https://dc.lft.to/lastmile_qr_scan"}, "type": "electric_scooter", "lon": -77.02910583333333, "bike_id": "7247098cf17671f52dc4d689d55e3e95", "fusion_lon": 0.0}, {"is_reserved": 0, "fusion_lat": 0.0, "name": "1f11b106f7684a68c9a78b5aae4a494b", "is_disabled": 0, "lat": 38.91250383333333, "rental_uris": {"ios": "https://dc.lft.to/lastmile_qr_scan", "android": "https://dc.lft.to/lastmile_qr_scan"}, "type": "electric_scooter", "lon": -77.028075, "bike_id": "1f11b106f7684a68c9a78b5aae4a494b", "fusion_lon": 0.0}, {"is_reserved": 0, "fusion_lat": 0.0, "name": "14dcd8068e07358f9d933d9484744329", "is_disabled": 0, "lat": 38.95255433333333, "rental_uris": {"ios": "https://dc.lft.to/lastmile_qr_scan", "android": "https://dc.lft.to/lastmile_qr_scan"}, "type": "electric_scooter", "lon": -77.02069283333333, "bike_id": "14dcd8068e07358f9d933d9484744329", "fusion_lon": 0.0}, {"is_reserved": 0, "fusion_lat": 0.0, "name": "55fcf5b1898debef6af59b9b9ea0f147", "is_disabled": 0, "lat": 38.917521, "rental_uris": {"ios": "https://dc.lft.to/lastmile_qr_scan", "android": "https://dc.lft.to/lastmile_qr_scan"}, "type": "electric_scooter", "lon": -77.0211225, "bike_id": "55fcf5b1898debef6af59b9b9ea0f147", "fusion_lon": 0.0}, {"is_reserved": 0, "fusion_lat": 0.0, "name": "3d319b1c3910feeb43f30977e31a315f", "is_disabled": 0, "lat": 38.8991565, "rental_uris": {"ios": "https://dc.lft.to/lastmile_qr_scan", "android": "https://dc.lft.to/lastmile_qr_scan"}, "type": "electric_scooter", "lon": -77.02307916666666, "bike_id": "3d319b1c3910feeb43f30977e31a315f", "fusion_lon": 0.0}, {"is_reserved": 0, "fusion_lat": 0.0, "name": "788aafc157ff49e55e01eb9135f3a667", "is_disabled": 0, "lat": 38.89331833333333, "rental_uris": {"ios": "https://dc.lft.to/lastmile_qr_scan", "android": "https://dc.lft.to/lastmile_qr_scan"}, "type": "electric_scooter", "lon": -76.93923983333333, "bike_id": "788aafc157ff49e55e01eb9135f3a667", "fusion_lon": 0.0}, {"is_reserved": 0, "fusion_lat": 0.0, "name": "2bc54d251deb19cb744f3ce96b13e183", "is_disabled": 0, "lat": 38.8754525, "rental_uris": {"ios": "https://dc.lft.to/lastmile_qr_scan", "android": "https://dc.lft.to/lastmile_qr_scan"}, "type": "electric_scooter", "lon": -77.00479566666667, "bike_id": "2bc54d251deb19cb744f3ce96b13e183", "fusion_lon": 0.0}, {"is_reserved": 0, "fusion_lat": 0.0, "name": "c720d6df0808d1338119bce3b5483e74", "is_disabled": 0, "lat": 38.907541, "rental_uris": {"ios": "https://dc.lft.to/lastmile_qr_scan", "android": "https://dc.lft.to/lastmile_qr_scan"}, "type": "electric_scooter", "lon": -77.041599, "bike_id": "c720d6df0808d1338119bce3b5483e74", "fusion_lon": 0.0}, {"is_reserved": 0, "fusion_lat": 0.0, "name": "409503269965070fe69e3fed37b56a1e", "is_disabled": 0, "lat": 38.898952666666666, "rental_uris": {"ios": "https://dc.lft.to/lastmile_qr_scan", "android": "https://dc.lft.to/lastmile_qr_scan"}, "type": "electric_scooter", "lon": -77.04032866666667, "bike_id": "409503269965070fe69e3fed37b56a1e", "fusion_lon": 0.0}, {"is_reserved": 0, "fusion_lat": 0.0, "name": "a8737df62fd78c29ee8bd50c88fb7356", "is_disabled": 0, "lat": 38.89739216666667, "rental_uris": {"ios": "https://dc.lft.to/lastmile_qr_scan", "android": "https://dc.lft.to/lastmile_qr_scan"}, "type": "electric_scooter", "lon": -77.027152, "bike_id": "a8737df62fd78c29ee8bd50c88fb7356", "fusion_lon": 0.0}, {"is_reserved": 0, "fusion_lat": 0.0, "name": "3e0b4e8d264d66934d098b94797aeba4", "is_disabled": 0, "lat": 38.922322, "rental_uris": {"ios": "https://dc.lft.to/lastmile_qr_scan", "android": "https://dc.lft.to/lastmile_qr_scan"}, "type": "electric_scooter", "lon": -77.04249716666666, "bike_id": "3e0b4e8d264d66934d098b94797aeba4", "fusion_lon": 0.0}, {"is_reserved": 0, "fusion_lat": 0.0, "name": "b1094c20a787971aa936237863bf74af", "is_disabled": 0, "lat": 38.9069505, "rental_uris": {"ios": "https://dc.lft.to/lastmile_qr_scan", "android": "https://dc.lft.to/lastmile_qr_scan"}, "type": "electric_scooter", "lon": -77.02712883333334, "bike_id": "b1094c20a787971aa936237863bf74af", "fusion_lon": 0.0}, {"is_reserved": 0, "fusion_lat": 0.0, "name": "d53fc205183379ed8085a41b37f61c96", "is_disabled": 0, "lat": 38.918159333333335, "rental_uris": {"ios": "https://dc.lft.to/lastmile_qr_scan", "android": "https://dc.lft.to/lastmile_qr_scan"}, "type": "electric_scooter", "lon": -77.02477233333333, "bike_id": "d53fc205183379ed8085a41b37f61c96", "fusion_lon": 0.0}, {"is_reserved": 0, "fusion_lat": 0.0, "name": "89924b4e4a4ebb5448f02e85cd44cae5", "is_disabled": 0, "lat": 38.9203595, "rental_uris": {"ios": "https://dc.lft.to/lastmile_qr_scan", "android": "https://dc.lft.to/lastmile_qr_scan"}, "type": "electric_bike", "lon": -76.97949283333334, "bike_id": "89924b4e4a4ebb5448f02e85cd44cae5", "fusion_lon": 0.0}, {"is_reserved": 0, "fusion_lat": 0.0, "name": "a6c8aaf46e6409d3159a57939ed329aa", "is_disabled": 0, "lat": 38.842941333333336, "rental_uris": {"ios": "https://dc.lft.to/lastmile_qr_scan", "android": "https://dc.lft.to/lastmile_qr_scan"}, "type": "electric_bike", "lon": -77.06378816666667, "bike_id": "a6c8aaf46e6409d3159a57939ed329aa", "fusion_lon": 0.0}, {"is_reserved": 0, "fusion_lat": 0.0, "name": "0a9bff0cfebdad9fb5f71776dfb3cb65", "is_disabled": 0, "lat": 38.94373983333333, "rental_uris": {"ios": "https://dc.lft.to/lastmile_qr_scan", "android": "https://dc.lft.to/lastmile_qr_scan"}, "type": "electric_bike", "lon": -77.07745383333334, "bike_id": "0a9bff0cfebdad9fb5f71776dfb3cb65", "fusion_lon": 0.0}, {"is_reserved": 0, "fusion_lat": 0.0, "name": "00ce3f4dfb4575c62b048e69213291df", "is_disabled": 0, "lat": 38.95248866666667, "rental_uris": {"ios": "https://dc.lft.to/lastmile_qr_scan", "android": "https://dc.lft.to/lastmile_qr_scan"}, "type": "electric_bike", "lon": -77.09624183333334, "bike_id": "00ce3f4dfb4575c62b048e69213291df", "fusion_lon": 0.0}, {"is_reserved": 0, "fusion_lat": 0.0, "name": "a89164731b2fbd001c3d2b19034ab8d0", "is_disabled": 0, "lat": 38.9211305, "rental_uris": {"ios": "https://dc.lft.to/lastmile_qr_scan", "android": "https://dc.lft.to/lastmile_qr_scan"}, "type": "electric_scooter", "lon": -77.042098, "bike_id": "a89164731b2fbd001c3d2b19034ab8d0", "fusion_lon": 0.0}, {"is_reserved": 0, "fusion_lat": 0.0, "name": "3a198d8af3b227eb6b38cbabe5199495", "is_disabled": 0, "lat": 38.93223666666667, "rental_uris": {"ios": "https://dc.lft.to/lastmile_qr_scan", "android": "https://dc.lft.to/lastmile_qr_scan"}, "type": "electric_bike", "lon": -76.99875033333333, "bike_id": "3a198d8af3b227eb6b38cbabe5199495", "fusion_lon": 0.0}, {"is_reserved": 0, "fusion_lat": 0.0, "name": "6276f99db843d09b947f4fc440e02839", "is_disabled": 0, "lat": 38.913720166666664, "rental_uris": {"ios": "https://dc.lft.to/lastmile_qr_scan", "android": "https://dc.lft.to/lastmile_qr_scan"}, "type": "electric_scooter", "lon": -77.02196683333334, "bike_id": "6276f99db843d09b947f4fc440e02839", "fusion_lon": 0.0}, {"is_reserved": 0, "fusion_lat": 0.0, "name": "20cf47915ea52e9049b224077ea07e29", "is_disabled": 0, "lat": 38.904095, "rental_uris": {"ios": "https://dc.lft.to/lastmile_qr_scan", "android": "https://dc.lft.to/lastmile_qr_scan"}, "type": "electric_scooter", "lon": -77.03443333333334, "bike_id": "20cf47915ea52e9049b224077ea07e29", "fusion_lon": 0.0}, {"is_reserved": 0, "fusion_lat": 0.0, "name": "4db30e73cc1a0818631d129cf500c33e", "is_disabled": 0, "lat": 38.8578075, "rental_uris": {"ios": "https://dc.lft.to/lastmile_qr_scan", "android": "https://dc.lft.to/lastmile_qr_scan"}, "type": "electric_bike", "lon": -76.9875945, "bike_id": "4db30e73cc1a0818631d129cf500c33e", "fusion_lon": 0.0}, {"is_reserved": 0, "fusion_lat": 0.0, "name": "850c5d978639e60cf5453f6246cee4d6", "is_disabled": 0, "lat": 38.94722566666667, "rental_uris": {"ios": "https://dc.lft.to/lastmile_qr_scan", "android": "https://dc.lft.to/lastmile_qr_scan"}, "type": "electric_bike", "lon": -77.09874183333334, "bike_id": "850c5d978639e60cf5453f6246cee4d6", "fusion_lon": 0.0}, {"is_reserved": 0, "fusion_lat": 0.0, "name": "0fda2c7cffdcc2e59ee0ade9893dad9c", "is_disabled": 0, "lat": 38.926347, "rental_uris": {"ios": "https://dc.lft.to/lastmile_qr_scan", "android": "https://dc.lft.to/lastmile_qr_scan"}, "type": "electric_scooter", "lon": -77.02712733333334, "bike_id": "0fda2c7cffdcc2e59ee0ade9893dad9c", "fusion_lon": 0.0}, {"is_reserved": 0, "fusion_lat": 0.0, "name": "18e74efdb8db7d5abdd7335ffd672a80", "is_disabled": 0, "lat": 38.92756083333333, "rental_uris": {"ios": "https://dc.lft.to/lastmile_qr_scan", "android": "https://dc.lft.to/lastmile_qr_scan"}, "type": "electric_scooter", "lon": -77.033582, "bike_id": "18e74efdb8db7d5abdd7335ffd672a80", "fusion_lon": 0.0}, {"is_reserved": 0, "fusion_lat": 0.0, "name": "9c78f95164c229a8858b39697a5fa991", "is_disabled": 0, "lat": 38.90029633333333, "rental_uris": {"ios": "https://dc.lft.to/lastmile_qr_scan", "android": "https://dc.lft.to/lastmile_qr_scan"}, "type": "electric_scooter", "lon": -77.011503, "bike_id": "9c78f95164c229a8858b39697a5fa991", "fusion_lon": 0.0}, {"is_reserved": 0, "fusion_lat": 0.0, "name": "456257cf9cbc8d7970c9978bc9ff901d", "is_disabled": 0, "lat": 38.88986516666667, "rental_uris": {"ios": "https://dc.lft.to/lastmile_qr_scan", "android": "https://dc.lft.to/lastmile_qr_scan"}, "type": "electric_scooter", "lon": -76.98811566666667, "bike_id": "456257cf9cbc8d7970c9978bc9ff901d", "fusion_lon": 0.0}, {"is_reserved": 0, "fusion_lat": 0.0, "name": "8b236a1e299ecc1dc02e09df1bd636ff", "is_disabled": 0, "lat": 38.896459, "rental_uris": {"ios": "https://dc.lft.to/lastmile_qr_scan", "android": "https://dc.lft.to/lastmile_qr_scan"}, "type": "electric_scooter", "lon": -77.00918116666666, "bike_id": "8b236a1e299ecc1dc02e09df1bd636ff", "fusion_lon": 0.0}, {"is_reserved": 0, "fusion_lat": 0.0, "name": "7136c26ce022bf838418ca9813327f78", "is_disabled": 0, "lat": 38.89654383333333, "rental_uris": {"ios": "https://dc.lft.to/lastmile_qr_scan", "android": "https://dc.lft.to/lastmile_qr_scan"}, "type": "electric_scooter", "lon": -77.0337365, "bike_id": "7136c26ce022bf838418ca9813327f78", "fusion_lon": 0.0}, {"is_reserved": 0, "fusion_lat": 0.0, "name": "6d3df3552b8291bf5afed735e236ca00", "is_disabled": 0, "lat": 38.98011433333333, "rental_uris": {"ios": "https://dc.lft.to/lastmile_qr_scan", "android": "https://dc.lft.to/lastmile_qr_scan"}, "type": "electric_bike", "lon": -77.06405033333333, "bike_id": "6d3df3552b8291bf5afed735e236ca00", "fusion_lon": 0.0}, {"is_reserved": 0, "fusion_lat": 0.0, "name": "463063322f3ac86f0f05f0312207a795", "is_disabled": 0, "lat": 38.9440545, "rental_uris": {"ios": "https://dc.lft.to/lastmile_qr_scan", "android": "https://dc.lft.to/lastmile_qr_scan"}, "type": "electric_scooter", "lon": -77.09412366666666, "bike_id": "463063322f3ac86f0f05f0312207a795", "fusion_lon": 0.0}, {"is_reserved": 0, "fusion_lat": 0.0, "name": "38474c270c9e44b711e3dd88cbdc4ac9", "is_disabled": 0, "lat": 38.922895, "rental_uris": {"ios": "https://dc.lft.to/lastmile_qr_scan", "android": "https://dc.lft.to/lastmile_qr_scan"}, "type": "electric_scooter", "lon": -77.03190983333333, "bike_id": "38474c270c9e44b711e3dd88cbdc4ac9", "fusion_lon": 0.0}, {"is_reserved": 0, "fusion_lat": 0.0, "name": "5bad0c1275543c8014ef3a6d7672c91f", "is_disabled": 0, "lat": 38.90030733333333, "rental_uris": {"ios": "https://dc.lft.to/lastmile_qr_scan", "android": "https://dc.lft.to/lastmile_qr_scan"}, "type": "electric_scooter", "lon": -77.01182983333334, "bike_id": "5bad0c1275543c8014ef3a6d7672c91f", "fusion_lon": 0.0}, {"is_reserved": 0, "fusion_lat": 0.0, "name": "f2fcfc1276ae776b98977021dab1d765", "is_disabled": 0, "lat": 38.88505683333333, "rental_uris": {"ios": "https://dc.lft.to/lastmile_qr_scan", "android": "https://dc.lft.to/lastmile_qr_scan"}, "type": "electric_scooter", "lon": -77.00565566666667, "bike_id": "f2fcfc1276ae776b98977021dab1d765", "fusion_lon": 0.0}, {"is_reserved": 0, "fusion_lat": 0.0, "name": "9e2fceb3b1737df2bcb1098ddfbb25a4", "is_disabled": 0, "lat": 38.90242766666667, "rental_uris": {"ios": "https://dc.lft.to/lastmile_qr_scan", "android": "https://dc.lft.to/lastmile_qr_scan"}, "type": "electric_scooter", "lon": -77.04563983333334, "bike_id": "9e2fceb3b1737df2bcb1098ddfbb25a4", "fusion_lon": 0.0}, {"is_reserved": 0, "fusion_lat": 0.0, "name": "422292efb9c3bd8da1290bc0d6ce00a7", "is_disabled": 0, "lat": 38.9187115, "rental_uris": {"ios": "https://dc.lft.to/lastmile_qr_scan", "android": "https://dc.lft.to/lastmile_qr_scan"}, "type": "electric_scooter", "lon": -77.04483816666666, "bike_id": "422292efb9c3bd8da1290bc0d6ce00a7", "fusion_lon": 0.0}, {"is_reserved": 0, "fusion_lat": 0.0, "name": "17ece3f5801f37bb47c40dff10771e0d", "is_disabled": 0, "lat": 38.916058166666666, "rental_uris": {"ios": "https://dc.lft.to/lastmile_qr_scan", "android": "https://dc.lft.to/lastmile_qr_scan"}, "type": "electric_scooter", "lon": -77.02964683333333, "bike_id": "17ece3f5801f37bb47c40dff10771e0d", "fusion_lon": 0.0}, {"is_reserved": 0, "fusion_lat": 0.0, "name": "80ae0cddf1a8dcfdf0b3acd0af91621a", "is_disabled": 0, "lat": 38.92110683333333, "rental_uris": {"ios": "https://dc.lft.to/lastmile_qr_scan", "android": "https://dc.lft.to/lastmile_qr_scan"}, "type": "electric_scooter", "lon": -77.04379316666666, "bike_id": "80ae0cddf1a8dcfdf0b3acd0af91621a", "fusion_lon": 0.0}, {"is_reserved": 0, "fusion_lat": 0.0, "name": "aff433c30ddf7abdc77784e587cbf77c", "is_disabled": 0, "lat": 38.886685166666666, "rental_uris": {"ios": "https://dc.lft.to/lastmile_qr_scan", "android": "https://dc.lft.to/lastmile_qr_scan"}, "type": "electric_scooter", "lon": -76.99142283333333, "bike_id": "aff433c30ddf7abdc77784e587cbf77c", "fusion_lon": 0.0}, {"is_reserved": 0, "fusion_lat": 0.0, "name": "ba69aa28e0828315b181f115511872a0", "is_disabled": 0, "lat": 38.90315483333333, "rental_uris": {"ios": "https://dc.lft.to/lastmile_qr_scan", "android": "https://dc.lft.to/lastmile_qr_scan"}, "type": "electric_scooter", "lon": -76.9824465, "bike_id": "ba69aa28e0828315b181f115511872a0", "fusion_lon": 0.0}, {"is_reserved": 0, "fusion_lat": 0.0, "name": "cb32a4ac8ee1fb4794fb65594e7dbbb9", "is_disabled": 0, "lat": 38.926817666666665, "rental_uris": {"ios": "https://dc.lft.to/lastmile_qr_scan", "android": "https://dc.lft.to/lastmile_qr_scan"}, "type": "electric_scooter", "lon": -77.01462983333333, "bike_id": "cb32a4ac8ee1fb4794fb65594e7dbbb9", "fusion_lon": 0.0}, {"is_reserved": 0, "fusion_lat": 0.0, "name": "5b85c0044e71055206c11fde4ed72196", "is_disabled": 0, "lat": 38.9170795, "rental_uris": {"ios": "https://dc.lft.to/lastmile_qr_scan", "android": "https://dc.lft.to/lastmile_qr_scan"}, "type": "electric_scooter", "lon": -77.02408216666667, "bike_id": "5b85c0044e71055206c11fde4ed72196", "fusion_lon": 0.0}, {"is_reserved": 0, "fusion_lat": 0.0, "name": "8d748cda0c6a60b1504a0c0576e22b00", "is_disabled": 0, "lat": 38.8991705, "rental_uris": {"ios": "https://dc.lft.to/lastmile_qr_scan", "android": "https://dc.lft.to/lastmile_qr_scan"}, "type": "electric_scooter", "lon": -77.0329885, "bike_id": "8d748cda0c6a60b1504a0c0576e22b00", "fusion_lon": 0.0}, {"is_reserved": 0, "fusion_lat": 0.0, "name": "0a44e32325fff3f8e0c1d147b7e86fc2", "is_disabled": 0, "lat": 38.8923185, "rental_uris": {"ios": "https://dc.lft.to/lastmile_qr_scan", "android": "https://dc.lft.to/lastmile_qr_scan"}, "type": "electric_scooter", "lon": -77.049956, "bike_id": "0a44e32325fff3f8e0c1d147b7e86fc2", "fusion_lon": 0.0}, {"is_reserved": 0, "fusion_lat": 0.0, "name": "83a2e8af72836a3899e157d8235efd94", "is_disabled": 0, "lat": 38.95054483333333, "rental_uris": {"ios": "https://dc.lft.to/lastmile_qr_scan", "android": "https://dc.lft.to/lastmile_qr_scan"}, "type": "electric_scooter", "lon": -77.0541245, "bike_id": "83a2e8af72836a3899e157d8235efd94", "fusion_lon": 0.0}, {"is_reserved": 0, "fusion_lat": 0.0, "name": "46181f47dcce82a2cb0ec2b159c8a1a3", "is_disabled": 0, "lat": 38.8662425, "rental_uris": {"ios": "https://dc.lft.to/lastmile_qr_scan", "android": "https://dc.lft.to/lastmile_qr_scan"}, "type": "electric_bike", "lon": -76.99001983333333, "bike_id": "46181f47dcce82a2cb0ec2b159c8a1a3", "fusion_lon": 0.0}, {"is_reserved": 0, "fusion_lat": 0.0, "name": "c994c8d048205fe6796ecbef81c65480", "is_disabled": 0, "lat": 38.879081166666666, "rental_uris": {"ios": "https://dc.lft.to/lastmile_qr_scan", "android": "https://dc.lft.to/lastmile_qr_scan"}, "type": "electric_scooter", "lon": -76.9447465, "bike_id": "c994c8d048205fe6796ecbef81c65480", "fusion_lon": 0.0}, {"is_reserved": 0, "fusion_lat": 0.0, "name": "384af54d3fbd0a46ee21169bf35503cc", "is_disabled": 0, "lat": 38.9909565, "rental_uris": {"ios": "https://dc.lft.to/lastmile_qr_scan", "android": "https://dc.lft.to/lastmile_qr_scan"}, "type": "electric_bike", "lon": -76.9937085, "bike_id": "384af54d3fbd0a46ee21169bf35503cc", "fusion_lon": 0.0}, {"is_reserved": 0, "fusion_lat": 0.0, "name": "46a3d86eb7ef92aa9f90d3212a4f8bd7", "is_disabled": 0, "lat": 38.9169085, "rental_uris": {"ios": "https://dc.lft.to/lastmile_qr_scan", "android": "https://dc.lft.to/lastmile_qr_scan"}, "type": "electric_scooter", "lon": -77.02592933333334, "bike_id": "46a3d86eb7ef92aa9f90d3212a4f8bd7", "fusion_lon": 0.0}, {"is_reserved": 0, "fusion_lat": 0.0, "name": "1e8b02041cbe96bb59451e131a31f0e3", "is_disabled": 0, "lat": 38.90959933333333, "rental_uris": {"ios": "https://dc.lft.to/lastmile_qr_scan", "android": "https://dc.lft.to/lastmile_qr_scan"}, "type": "electric_scooter", "lon": -77.03343133333334, "bike_id": "1e8b02041cbe96bb59451e131a31f0e3", "fusion_lon": 0.0}, {"is_reserved": 0, "fusion_lat": 0.0, "name": "600144291a41a6e128e53e861b30c879", "is_disabled": 0, "lat": 38.9222435, "rental_uris": {"ios": "https://dc.lft.to/lastmile_qr_scan", "android": "https://dc.lft.to/lastmile_qr_scan"}, "type": "electric_scooter", "lon": -77.02125, "bike_id": "600144291a41a6e128e53e861b30c879", "fusion_lon": 0.0}, {"is_reserved": 0, "fusion_lat": 0.0, "name": "e598026097b035a11d971a6b0b70d12c", "is_disabled": 0, "lat": 38.88151583333333, "rental_uris": {"ios": "https://dc.lft.to/lastmile_qr_scan", "android": "https://dc.lft.to/lastmile_qr_scan"}, "type": "electric_scooter", "lon": -77.02708683333333, "bike_id": "e598026097b035a11d971a6b0b70d12c", "fusion_lon": 0.0}, {"is_reserved": 0, "fusion_lat": 0.0, "name": "f3998e33eb595a180343851cea24867a", "is_disabled": 0, "lat": 38.92326716666667, "rental_uris": {"ios": "https://dc.lft.to/lastmile_qr_scan", "android": "https://dc.lft.to/lastmile_qr_scan"}, "type": "electric_scooter", "lon": -77.01956666666666, "bike_id": "f3998e33eb595a180343851cea24867a", "fusion_lon": 0.0}, {"is_reserved": 0, "fusion_lat": 0.0, "name": "5e1d05b92cf690b21c48674b446a6de7", "is_disabled": 0, "lat": 38.924652, "rental_uris": {"ios": "https://dc.lft.to/lastmile_qr_scan", "android": "https://dc.lft.to/lastmile_qr_scan"}, "type": "electric_scooter", "lon": -77.02241516666666, "bike_id": "5e1d05b92cf690b21c48674b446a6de7", "fusion_lon": 0.0}, {"is_reserved": 0, "fusion_lat": 0.0, "name": "34c9c22cea1f020d224ab010a1b78a5f", "is_disabled": 0, "lat": 38.942760666666665, "rental_uris": {"ios": "https://dc.lft.to/lastmile_qr_scan", "android": "https://dc.lft.to/lastmile_qr_scan"}, "type": "electric_scooter", "lon": -77.029274, "bike_id": "34c9c22cea1f020d224ab010a1b78a5f", "fusion_lon": 0.0}, {"is_reserved": 0, "fusion_lat": 0.0, "name": "34459705cd248725fa7a17c626b269f3", "is_disabled": 0, "lat": 38.943428833333336, "rental_uris": {"ios": "https://dc.lft.to/lastmile_qr_scan", "android": "https://dc.lft.to/lastmile_qr_scan"}, "type": "electric_scooter", "lon": -77.02592583333333, "bike_id": "34459705cd248725fa7a17c626b269f3", "fusion_lon": 0.0}, {"is_reserved": 0, "fusion_lat": 0.0, "name": "180fa1b250d60c083b6654ac258ada02", "is_disabled": 0, "lat": 38.922306166666665, "rental_uris": {"ios": "https://dc.lft.to/lastmile_qr_scan", "android": "https://dc.lft.to/lastmile_qr_scan"}, "type": "electric_scooter", "lon": -77.02826933333333, "bike_id": "180fa1b250d60c083b6654ac258ada02", "fusion_lon": 0.0}, {"is_reserved": 0, "fusion_lat": 0.0, "name": "c190a7d1865e5d5bfc638a2ffcb0c6ff", "is_disabled": 0, "lat": 38.912673, "rental_uris": {"ios": "https://dc.lft.to/lastmile_qr_scan", "android": "https://dc.lft.to/lastmile_qr_scan"}, "type": "electric_scooter", "lon": -77.022264, "bike_id": "c190a7d1865e5d5bfc638a2ffcb0c6ff", "fusion_lon": 0.0}, {"is_reserved": 0, "fusion_lat": 0.0, "name": "8729abe3704c1c8d2a70974ca7a0dbb7", "is_disabled": 0, "lat": 38.89676433333333, "rental_uris": {"ios": "https://dc.lft.to/lastmile_qr_scan", "android": "https://dc.lft.to/lastmile_qr_scan"}, "type": "electric_scooter", "lon": -77.0051475, "bike_id": "8729abe3704c1c8d2a70974ca7a0dbb7", "fusion_lon": 0.0}, {"is_reserved": 0, "fusion_lat": 0.0, "name": "088a94a0e4b37c6714fa8c0e019232c7", "is_disabled": 0, "lat": 38.918198833333335, "rental_uris": {"ios": "https://dc.lft.to/lastmile_qr_scan", "android": "https://dc.lft.to/lastmile_qr_scan"}, "type": "electric_scooter", "lon": -77.02480966666667, "bike_id": "088a94a0e4b37c6714fa8c0e019232c7", "fusion_lon": 0.0}, {"is_reserved": 0, "fusion_lat": 0.0, "name": "a660ab0a6d60c5388a61502b4399ea1a", "is_disabled": 0, "lat": 38.8791425, "rental_uris": {"ios": "https://dc.lft.to/lastmile_qr_scan", "android": "https://dc.lft.to/lastmile_qr_scan"}, "type": "electric_scooter", "lon": -77.0235375, "bike_id": "a660ab0a6d60c5388a61502b4399ea1a", "fusion_lon": 0.0}, {"is_reserved": 0, "fusion_lat": 0.0, "name": "88164954847f84f90ea4474d1ebde669", "is_disabled": 0, "lat": 38.94461883333334, "rental_uris": {"ios": "https://dc.lft.to/lastmile_qr_scan", "android": "https://dc.lft.to/lastmile_qr_scan"}, "type": "electric_scooter", "lon": -77.00657933333333, "bike_id": "88164954847f84f90ea4474d1ebde669", "fusion_lon": 0.0}, {"is_reserved": 0, "fusion_lat": 0.0, "name": "77e8777d0bd3f1df176c2b268855689e", "is_disabled": 0, "lat": 38.908920333333334, "rental_uris": {"ios": "https://dc.lft.to/lastmile_qr_scan", "android": "https://dc.lft.to/lastmile_qr_scan"}, "type": "electric_scooter", "lon": -77.0314015, "bike_id": "77e8777d0bd3f1df176c2b268855689e", "fusion_lon": 0.0}, {"is_reserved": 0, "fusion_lat": 0.0, "name": "d560ca82efa27aea7d25d3bf10f4ab06", "is_disabled": 0, "lat": 38.90776616666667, "rental_uris": {"ios": "https://dc.lft.to/lastmile_qr_scan", "android": "https://dc.lft.to/lastmile_qr_scan"}, "type": "electric_scooter", "lon": -77.07251916666667, "bike_id": "d560ca82efa27aea7d25d3bf10f4ab06", "fusion_lon": 0.0}, {"is_reserved": 0, "fusion_lat": 0.0, "name": "cf892ffa9dde27386a077f55a2a20d59", "is_disabled": 0, "lat": 38.902081833333334, "rental_uris": {"ios": "https://dc.lft.to/lastmile_qr_scan", "android": "https://dc.lft.to/lastmile_qr_scan"}, "type": "electric_scooter", "lon": -77.05030516666666, "bike_id": "cf892ffa9dde27386a077f55a2a20d59", "fusion_lon": 0.0}, {"is_reserved": 0, "fusion_lat": 0.0, "name": "13477b6153d28dccd44f293ede2e226c", "is_disabled": 0, "lat": 38.89889066666667, "rental_uris": {"ios": "https://dc.lft.to/lastmile_qr_scan", "android": "https://dc.lft.to/lastmile_qr_scan"}, "type": "electric_scooter", "lon": -77.03321166666667, "bike_id": "13477b6153d28dccd44f293ede2e226c", "fusion_lon": 0.0}, {"is_reserved": 0, "fusion_lat": 0.0, "name": "0fa6e7a1baabbee77ebbf4402611eaa0", "is_disabled": 0, "lat": 38.9154045, "rental_uris": {"ios": "https://dc.lft.to/lastmile_qr_scan", "android": "https://dc.lft.to/lastmile_qr_scan"}, "type": "electric_scooter", "lon": -77.044207, "bike_id": "0fa6e7a1baabbee77ebbf4402611eaa0", "fusion_lon": 0.0}, {"is_reserved": 0, "fusion_lat": 0.0, "name": "26393d824ca2ac825b5b590d9ce6631c", "is_disabled": 0, "lat": 38.91941333333333, "rental_uris": {"ios": "https://dc.lft.to/lastmile_qr_scan", "android": "https://dc.lft.to/lastmile_qr_scan"}, "type": "electric_scooter", "lon": -77.01791583333333, "bike_id": "26393d824ca2ac825b5b590d9ce6631c", "fusion_lon": 0.0}, {"is_reserved": 0, "fusion_lat": 0.0, "name": "81642bf1adba09a4946ca31c77f43249", "is_disabled": 0, "lat": 38.9560515, "rental_uris": {"ios": "https://dc.lft.to/lastmile_qr_scan", "android": "https://dc.lft.to/lastmile_qr_scan"}, "type": "electric_scooter", "lon": -77.08036683333333, "bike_id": "81642bf1adba09a4946ca31c77f43249", "fusion_lon": 0.0}, {"is_reserved": 0, "fusion_lat": 0.0, "name": "ca1fa05cccd524e87957d4679946ca7d", "is_disabled": 0, "lat": 38.96737233333333, "rental_uris": {"ios": "https://dc.lft.to/lastmile_qr_scan", "android": "https://dc.lft.to/lastmile_qr_scan"}, "type": "electric_bike", "lon": -76.96041716666667, "bike_id": "ca1fa05cccd524e87957d4679946ca7d", "fusion_lon": 0.0}, {"is_reserved": 0, "fusion_lat": 0.0, "name": "75de3b802c9a9e92b24344a35e29a4bf", "is_disabled": 0, "lat": 38.932507666666666, "rental_uris": {"ios": "https://dc.lft.to/lastmile_qr_scan", "android": "https://dc.lft.to/lastmile_qr_scan"}, "type": "electric_scooter", "lon": -77.03279616666667, "bike_id": "75de3b802c9a9e92b24344a35e29a4bf", "fusion_lon": 0.0}, {"is_reserved": 0, "fusion_lat": 0.0, "name": "fc9537ce55b479e63f4839506fafbb17", "is_disabled": 0, "lat": 38.93511866666667, "rental_uris": {"ios": "https://dc.lft.to/lastmile_qr_scan", "android": "https://dc.lft.to/lastmile_qr_scan"}, "type": "electric_scooter", "lon": -77.03323116666667, "bike_id": "fc9537ce55b479e63f4839506fafbb17", "fusion_lon": 0.0}, {"is_reserved": 0, "fusion_lat": 0.0, "name": "77b02dd236ef47e901440d089afe1f1c", "is_disabled": 0, "lat": 38.91874383333333, "rental_uris": {"ios": "https://dc.lft.to/lastmile_qr_scan", "android": "https://dc.lft.to/lastmile_qr_scan"}, "type": "electric_scooter", "lon": -77.03500583333333, "bike_id": "77b02dd236ef47e901440d089afe1f1c", "fusion_lon": 0.0}, {"is_reserved": 0, "fusion_lat": 0.0, "name": "5f711d4177d675fb6e6ebc3d54ec04b7", "is_disabled": 0, "lat": 38.916927666666666, "rental_uris": {"ios": "https://dc.lft.to/lastmile_qr_scan", "android": "https://dc.lft.to/lastmile_qr_scan"}, "type": "electric_scooter", "lon": -77.037745, "bike_id": "5f711d4177d675fb6e6ebc3d54ec04b7", "fusion_lon": 0.0}, {"is_reserved": 0, "fusion_lat": 0.0, "name": "26cc0d210a2bea002820a95855eb0e93", "is_disabled": 0, "lat": 38.90818316666667, "rental_uris": {"ios": "https://dc.lft.to/lastmile_qr_scan", "android": "https://dc.lft.to/lastmile_qr_scan"}, "type": "electric_scooter", "lon": -77.043405, "bike_id": "26cc0d210a2bea002820a95855eb0e93", "fusion_lon": 0.0}, {"is_reserved": 0, "fusion_lat": 0.0, "name": "907ad6b7234805d527458a69f7784af9", "is_disabled": 0, "lat": 38.898846666666664, "rental_uris": {"ios": "https://dc.lft.to/lastmile_qr_scan", "android": "https://dc.lft.to/lastmile_qr_scan"}, "type": "electric_scooter", "lon": -76.93175666666667, "bike_id": "907ad6b7234805d527458a69f7784af9", "fusion_lon": 0.0}, {"is_reserved": 0, "fusion_lat": 0.0, "name": "7fd581ed8fcab530b4306a1ca6a7656e", "is_disabled": 0, "lat": 38.97366383333333, "rental_uris": {"ios": "https://dc.lft.to/lastmile_qr_scan", "android": "https://dc.lft.to/lastmile_qr_scan"}, "type": "electric_scooter", "lon": -77.01861533333333, "bike_id": "7fd581ed8fcab530b4306a1ca6a7656e", "fusion_lon": 0.0}, {"is_reserved": 0, "fusion_lat": 0.0, "name": "9668979e7ecc8e26930b864d37821a0f", "is_disabled": 0, "lat": 38.928844833333336, "rental_uris": {"ios": "https://dc.lft.to/lastmile_qr_scan", "android": "https://dc.lft.to/lastmile_qr_scan"}, "type": "electric_bike", "lon": -77.07368916666667, "bike_id": "9668979e7ecc8e26930b864d37821a0f", "fusion_lon": 0.0}, {"is_reserved": 0, "fusion_lat": 0.0, "name": "c25d414769720105a0e0da71aa46e88d", "is_disabled": 0, "lat": 38.94474, "rental_uris": {"ios": "https://dc.lft.to/lastmile_qr_scan", "android": "https://dc.lft.to/lastmile_qr_scan"}, "type": "electric_scooter", "lon": -77.0231925, "bike_id": "c25d414769720105a0e0da71aa46e88d", "fusion_lon": 0.0}, {"is_reserved": 0, "fusion_lat": 0.0, "name": "cb003497cd2bddb5c3f766bf3d2876b7", "is_disabled": 0, "lat": 38.9223635, "rental_uris": {"ios": "https://dc.lft.to/lastmile_qr_scan", "android": "https://dc.lft.to/lastmile_qr_scan"}, "type": "electric_scooter", "lon": -77.03514583333333, "bike_id": "cb003497cd2bddb5c3f766bf3d2876b7", "fusion_lon": 0.0}, {"is_reserved": 0, "fusion_lat": 0.0, "name": "aacb99bfd8362ade4411dc3832e90d43", "is_disabled": 0, "lat": 38.90605766666667, "rental_uris": {"ios": "https://dc.lft.to/lastmile_qr_scan", "android": "https://dc.lft.to/lastmile_qr_scan"}, "type": "electric_scooter", "lon": -77.03244233333334, "bike_id": "aacb99bfd8362ade4411dc3832e90d43", "fusion_lon": 0.0}, {"is_reserved": 0, "fusion_lat": 0.0, "name": "a7f403221014e48870dfaf315014477a", "is_disabled": 0, "lat": 38.87470533333333, "rental_uris": {"ios": "https://dc.lft.to/lastmile_qr_scan", "android": "https://dc.lft.to/lastmile_qr_scan"}, "type": "electric_scooter", "lon": -77.00531666666667, "bike_id": "a7f403221014e48870dfaf315014477a", "fusion_lon": 0.0}, {"is_reserved": 0, "fusion_lat": 0.0, "name": "23a2dad7286c5c668d466bf93feb7a29", "is_disabled": 0, "lat": 38.9025445, "rental_uris": {"ios": "https://dc.lft.to/lastmile_qr_scan", "android": "https://dc.lft.to/lastmile_qr_scan"}, "type": "electric_scooter", "lon": -77.051621, "bike_id": "23a2dad7286c5c668d466bf93feb7a29", "fusion_lon": 0.0}, {"is_reserved": 0, "fusion_lat": 0.0, "name": "38f46f4d4243ad41765c229ce41ab057", "is_disabled": 0, "lat": 38.92341666666667, "rental_uris": {"ios": "https://dc.lft.to/lastmile_qr_scan", "android": "https://dc.lft.to/lastmile_qr_scan"}, "type": "electric_scooter", "lon": -77.0091825, "bike_id": "38f46f4d4243ad41765c229ce41ab057", "fusion_lon": 0.0}, {"is_reserved": 0, "fusion_lat": 0.0, "name": "45cf26c78a48ab08de2bbab4249e7554", "is_disabled": 0, "lat": 38.8843205, "rental_uris": {"ios": "https://dc.lft.to/lastmile_qr_scan", "android": "https://dc.lft.to/lastmile_qr_scan"}, "type": "electric_scooter", "lon": -77.03040316666667, "bike_id": "45cf26c78a48ab08de2bbab4249e7554", "fusion_lon": 0.0}, {"is_reserved": 0, "fusion_lat": 0.0, "name": "985a27d1d60df97d97ece45ebaac6437", "is_disabled": 0, "lat": 38.940348666666665, "rental_uris": {"ios": "https://dc.lft.to/lastmile_qr_scan", "android": "https://dc.lft.to/lastmile_qr_scan"}, "type": "electric_scooter", "lon": -77.083901, "bike_id": "985a27d1d60df97d97ece45ebaac6437", "fusion_lon": 0.0}, {"is_reserved": 0, "fusion_lat": 0.0, "name": "b3fc5ed4440deb545d9f1524a12a4985", "is_disabled": 0, "lat": 38.900623, "rental_uris": {"ios": "https://dc.lft.to/lastmile_qr_scan", "android": "https://dc.lft.to/lastmile_qr_scan"}, "type": "electric_scooter", "lon": -77.03470566666667, "bike_id": "b3fc5ed4440deb545d9f1524a12a4985", "fusion_lon": 0.0}, {"is_reserved": 0, "fusion_lat": 0.0, "name": "9d944da7d14230fee80a9fbc22045a55", "is_disabled": 0, "lat": 38.90740316666667, "rental_uris": {"ios": "https://dc.lft.to/lastmile_qr_scan", "android": "https://dc.lft.to/lastmile_qr_scan"}, "type": "electric_scooter", "lon": -77.04164533333334, "bike_id": "9d944da7d14230fee80a9fbc22045a55", "fusion_lon": 0.0}, {"is_reserved": 0, "fusion_lat": 0.0, "name": "2c879426c4dac622859051896d07a47b", "is_disabled": 0, "lat": 38.839153833333334, "rental_uris": {"ios": "https://dc.lft.to/lastmile_qr_scan", "android": "https://dc.lft.to/lastmile_qr_scan"}, "type": "electric_bike", "lon": -76.99835983333334, "bike_id": "2c879426c4dac622859051896d07a47b", "fusion_lon": 0.0}, {"is_reserved": 0, "fusion_lat": 0.0, "name": "ea104530b5d5aefbda48b5d19786f6ab", "is_disabled": 0, "lat": 38.94365883333333, "rental_uris": {"ios": "https://dc.lft.to/lastmile_qr_scan", "android": "https://dc.lft.to/lastmile_qr_scan"}, "type": "electric_scooter", "lon": -77.0258435, "bike_id": "ea104530b5d5aefbda48b5d19786f6ab", "fusion_lon": 0.0}, {"is_reserved": 0, "fusion_lat": 0.0, "name": "065b3935f6e8dbad9aaae16dfe1ede5b", "is_disabled": 0, "lat": 38.907524, "rental_uris": {"ios": "https://dc.lft.to/lastmile_qr_scan", "android": "https://dc.lft.to/lastmile_qr_scan"}, "type": "electric_scooter", "lon": -77.04546333333333, "bike_id": "065b3935f6e8dbad9aaae16dfe1ede5b", "fusion_lon": 0.0}, {"is_reserved": 0, "fusion_lat": 0.0, "name": "18037b22bde7c613c4856c1568e7cb9a", "is_disabled": 0, "lat": 38.911129, "rental_uris": {"ios": "https://dc.lft.to/lastmile_qr_scan", "android": "https://dc.lft.to/lastmile_qr_scan"}, "type": "electric_scooter", "lon": -77.006073, "bike_id": "18037b22bde7c613c4856c1568e7cb9a", "fusion_lon": 0.0}, {"is_reserved": 0, "fusion_lat": 0.0, "name": "2636f92421822f7039c706bce0f9435e", "is_disabled": 0, "lat": 38.895466666666664, "rental_uris": {"ios": "https://dc.lft.to/lastmile_qr_scan", "android": "https://dc.lft.to/lastmile_qr_scan"}, "type": "electric_scooter", "lon": -76.983387, "bike_id": "2636f92421822f7039c706bce0f9435e", "fusion_lon": 0.0}, {"is_reserved": 0, "fusion_lat": 0.0, "name": "b98e2b2decd1d3ddf1658603b51892bc", "is_disabled": 0, "lat": 38.87664983333333, "rental_uris": {"ios": "https://dc.lft.to/lastmile_qr_scan", "android": "https://dc.lft.to/lastmile_qr_scan"}, "type": "electric_scooter", "lon": -77.00065666666667, "bike_id": "b98e2b2decd1d3ddf1658603b51892bc", "fusion_lon": 0.0}, {"is_reserved": 0, "fusion_lat": 0.0, "name": "93114945cc8b147753e24b5d753d4229", "is_disabled": 0, "lat": 38.89844866666667, "rental_uris": {"ios": "https://dc.lft.to/lastmile_qr_scan", "android": "https://dc.lft.to/lastmile_qr_scan"}, "type": "electric_scooter", "lon": -77.02209233333333, "bike_id": "93114945cc8b147753e24b5d753d4229", "fusion_lon": 0.0}, {"is_reserved": 0, "fusion_lat": 0.0, "name": "3553292f38aae92c8dad3efe93e95474", "is_disabled": 0, "lat": 38.807388, "rental_uris": {"ios": "https://dc.lft.to/lastmile_qr_scan", "android": "https://dc.lft.to/lastmile_qr_scan"}, "type": "electric_bike", "lon": -77.09688016666666, "bike_id": "3553292f38aae92c8dad3efe93e95474", "fusion_lon": 0.0}, {"is_reserved": 0, "fusion_lat": 0.0, "name": "403cc0a39e6c64675c332b0e4f8d26a9", "is_disabled": 0, "lat": 38.9094235, "rental_uris": {"ios": "https://dc.lft.to/lastmile_qr_scan", "android": "https://dc.lft.to/lastmile_qr_scan"}, "type": "electric_scooter", "lon": -77.032016, "bike_id": "403cc0a39e6c64675c332b0e4f8d26a9", "fusion_lon": 0.0}, {"is_reserved": 0, "fusion_lat": 0.0, "name": "30995d7e1665ab6c0e3cc08d46c76378", "is_disabled": 0, "lat": 38.898506833333336, "rental_uris": {"ios": "https://dc.lft.to/lastmile_qr_scan", "android": "https://dc.lft.to/lastmile_qr_scan"}, "type": "electric_scooter", "lon": -76.9903235, "bike_id": "30995d7e1665ab6c0e3cc08d46c76378", "fusion_lon": 0.0}, {"is_reserved": 0, "fusion_lat": 0.0, "name": "16fec8af6a4e1b9fc80a3f1e68ac8dd7", "is_disabled": 0, "lat": 38.871742, "rental_uris": {"ios": "https://dc.lft.to/lastmile_qr_scan", "android": "https://dc.lft.to/lastmile_qr_scan"}, "type": "electric_bike", "lon": -77.23393083333333, "bike_id": "16fec8af6a4e1b9fc80a3f1e68ac8dd7", "fusion_lon": 0.0}, {"is_reserved": 0, "fusion_lat": 0.0, "name": "8f8cc6f4a82696d43764c59d9504468d", "is_disabled": 0, "lat": 38.92401783333333, "rental_uris": {"ios": "https://dc.lft.to/lastmile_qr_scan", "android": "https://dc.lft.to/lastmile_qr_scan"}, "type": "electric_scooter", "lon": -77.0254815, "bike_id": "8f8cc6f4a82696d43764c59d9504468d", "fusion_lon": 0.0}, {"is_reserved": 0, "fusion_lat": 0.0, "name": "64eed008a18cf2dc6c2b5ae3bfa7c447", "is_disabled": 0, "lat": 38.906588666666664, "rental_uris": {"ios": "https://dc.lft.to/lastmile_qr_scan", "android": "https://dc.lft.to/lastmile_qr_scan"}, "type": "electric_scooter", "lon": -77.05310216666666, "bike_id": "64eed008a18cf2dc6c2b5ae3bfa7c447", "fusion_lon": 0.0}, {"is_reserved": 0, "fusion_lat": 0.0, "name": "f91a5ee7aa04b0bd47c6fb0ed7cac35a", "is_disabled": 0, "lat": 39.01075016666667, "rental_uris": {"ios": "https://dc.lft.to/lastmile_qr_scan", "android": "https://dc.lft.to/lastmile_qr_scan"}, "type": "electric_bike", "lon": -76.9106445, "bike_id": "f91a5ee7aa04b0bd47c6fb0ed7cac35a", "fusion_lon": 0.0}, {"is_reserved": 0, "fusion_lat": 0.0, "name": "aaa65c2f4a93dacfb8f5121988c9a92f", "is_disabled": 0, "lat": 38.92172816666667, "rental_uris": {"ios": "https://dc.lft.to/lastmile_qr_scan", "android": "https://dc.lft.to/lastmile_qr_scan"}, "type": "electric_scooter", "lon": -77.04357766666666, "bike_id": "aaa65c2f4a93dacfb8f5121988c9a92f", "fusion_lon": 0.0}, {"is_reserved": 0, "fusion_lat": 0.0, "name": "bbaef752404519c1528b2a8b17bc59c2", "is_disabled": 0, "lat": 38.891249333333334, "rental_uris": {"ios": "https://dc.lft.to/lastmile_qr_scan", "android": "https://dc.lft.to/lastmile_qr_scan"}, "type": "electric_scooter", "lon": -76.99162616666666, "bike_id": "bbaef752404519c1528b2a8b17bc59c2", "fusion_lon": 0.0}, {"is_reserved": 0, "fusion_lat": 0.0, "name": "247fdc653915240c04023b55aab8f89f", "is_disabled": 0, "lat": 38.96428433333333, "rental_uris": {"ios": "https://dc.lft.to/lastmile_qr_scan", "android": "https://dc.lft.to/lastmile_qr_scan"}, "type": "electric_scooter", "lon": -77.074255, "bike_id": "247fdc653915240c04023b55aab8f89f", "fusion_lon": 0.0}, {"is_reserved": 0, "fusion_lat": 0.0, "name": "434297e61bde8b52845859650270908b", "is_disabled": 0, "lat": 38.95812983333333, "rental_uris": {"ios": "https://dc.lft.to/lastmile_qr_scan", "android": "https://dc.lft.to/lastmile_qr_scan"}, "type": "electric_scooter", "lon": -77.0145295, "bike_id": "434297e61bde8b52845859650270908b", "fusion_lon": 0.0}, {"is_reserved": 0, "fusion_lat": 0.0, "name": "1afc36a302246f72af62b972a13584ce", "is_disabled": 0, "lat": 38.9463405, "rental_uris": {"ios": "https://dc.lft.to/lastmile_qr_scan", "android": "https://dc.lft.to/lastmile_qr_scan"}, "type": "electric_scooter", "lon": -77.02273733333334, "bike_id": "1afc36a302246f72af62b972a13584ce", "fusion_lon": 0.0}, {"is_reserved": 0, "fusion_lat": 0.0, "name": "88e86d6f64a4306aef428aadf61e5f45", "is_disabled": 0, "lat": 38.88709983333333, "rental_uris": {"ios": "https://dc.lft.to/lastmile_qr_scan", "android": "https://dc.lft.to/lastmile_qr_scan"}, "type": "electric_scooter", "lon": -76.983389, "bike_id": "88e86d6f64a4306aef428aadf61e5f45", "fusion_lon": 0.0}, {"is_reserved": 0, "fusion_lat": 0.0, "name": "ce1f412fd4477a3f641da442b261ca8b", "is_disabled": 0, "lat": 38.927999, "rental_uris": {"ios": "https://dc.lft.to/lastmile_qr_scan", "android": "https://dc.lft.to/lastmile_qr_scan"}, "type": "electric_bike", "lon": -77.22942716666667, "bike_id": "ce1f412fd4477a3f641da442b261ca8b", "fusion_lon": 0.0}, {"is_reserved": 0, "fusion_lat": 0.0, "name": "f2912d19059868359c99601b75ef05a9", "is_disabled": 0, "lat": 38.90621733333333, "rental_uris": {"ios": "https://dc.lft.to/lastmile_qr_scan", "android": "https://dc.lft.to/lastmile_qr_scan"}, "type": "electric_bike", "lon": -77.02404416666667, "bike_id": "f2912d19059868359c99601b75ef05a9", "fusion_lon": 0.0}, {"is_reserved": 0, "fusion_lat": 0.0, "name": "343d7870f07dac7b2e21112021cdef40", "is_disabled": 0, "lat": 38.92051283333333, "rental_uris": {"ios": "https://dc.lft.to/lastmile_qr_scan", "android": "https://dc.lft.to/lastmile_qr_scan"}, "type": "electric_scooter", "lon": -77.041843, "bike_id": "343d7870f07dac7b2e21112021cdef40", "fusion_lon": 0.0}, {"is_reserved": 0, "fusion_lat": 0.0, "name": "d248d13a5dfc8bcfd3d968a1530a6b3e", "is_disabled": 0, "lat": 38.898847333333336, "rental_uris": {"ios": "https://dc.lft.to/lastmile_qr_scan", "android": "https://dc.lft.to/lastmile_qr_scan"}, "type": "electric_scooter", "lon": -76.9317385, "bike_id": "d248d13a5dfc8bcfd3d968a1530a6b3e", "fusion_lon": 0.0}, {"is_reserved": 0, "fusion_lat": 0.0, "name": "dab0c95c80fe8901e30bbe1cb688ceca", "is_disabled": 0, "lat": 38.879150833333334, "rental_uris": {"ios": "https://dc.lft.to/lastmile_qr_scan", "android": "https://dc.lft.to/lastmile_qr_scan"}, "type": "electric_scooter", "lon": -77.01735516666666, "bike_id": "dab0c95c80fe8901e30bbe1cb688ceca", "fusion_lon": 0.0}, {"is_reserved": 0, "fusion_lat": 0.0, "name": "e855017ae8a2ce6ced2f9f0256f42fe2", "is_disabled": 0, "lat": 38.884898, "rental_uris": {"ios": "https://dc.lft.to/lastmile_qr_scan", "android": "https://dc.lft.to/lastmile_qr_scan"}, "type": "electric_scooter", "lon": -77.04497733333334, "bike_id": "e855017ae8a2ce6ced2f9f0256f42fe2", "fusion_lon": 0.0}, {"is_reserved": 0, "fusion_lat": 0.0, "name": "aed2210493f4e6bcf86fa983a38fcae1", "is_disabled": 0, "lat": 38.928196666666665, "rental_uris": {"ios": "https://dc.lft.to/lastmile_qr_scan", "android": "https://dc.lft.to/lastmile_qr_scan"}, "type": "electric_scooter", "lon": -77.036347, "bike_id": "aed2210493f4e6bcf86fa983a38fcae1", "fusion_lon": 0.0}, {"is_reserved": 0, "fusion_lat": 0.0, "name": "853d701ca77f19369db9e7a08eafb04c", "is_disabled": 0, "lat": 38.9103885, "rental_uris": {"ios": "https://dc.lft.to/lastmile_qr_scan", "android": "https://dc.lft.to/lastmile_qr_scan"}, "type": "electric_scooter", "lon": -77.04408033333333, "bike_id": "853d701ca77f19369db9e7a08eafb04c", "fusion_lon": 0.0}, {"is_reserved": 0, "fusion_lat": 0.0, "name": "58e97a42912c19518c4093bfdc477ce4", "is_disabled": 0, "lat": 38.945540333333334, "rental_uris": {"ios": "https://dc.lft.to/lastmile_qr_scan", "android": "https://dc.lft.to/lastmile_qr_scan"}, "type": "electric_scooter", "lon": -77.064063, "bike_id": "58e97a42912c19518c4093bfdc477ce4", "fusion_lon": 0.0}, {"is_reserved": 0, "fusion_lat": 0.0, "name": "f3236d87e7a0a20db6fc6cb155de63f2", "is_disabled": 0, "lat": 38.93250783333333, "rental_uris": {"ios": "https://dc.lft.to/lastmile_qr_scan", "android": "https://dc.lft.to/lastmile_qr_scan"}, "type": "electric_scooter", "lon": -77.03274383333333, "bike_id": "f3236d87e7a0a20db6fc6cb155de63f2", "fusion_lon": 0.0}, {"is_reserved": 0, "fusion_lat": 0.0, "name": "6ed7c5ed0960c3d499773726ddc94e72", "is_disabled": 0, "lat": 38.909987, "rental_uris": {"ios": "https://dc.lft.to/lastmile_qr_scan", "android": "https://dc.lft.to/lastmile_qr_scan"}, "type": "electric_scooter", "lon": -77.005141, "bike_id": "6ed7c5ed0960c3d499773726ddc94e72", "fusion_lon": 0.0}, {"is_reserved": 0, "fusion_lat": 0.0, "name": "09979a09b3585ef0a06f8257c12a742a", "is_disabled": 0, "lat": 38.92594066666667, "rental_uris": {"ios": "https://dc.lft.to/lastmile_qr_scan", "android": "https://dc.lft.to/lastmile_qr_scan"}, "type": "electric_scooter", "lon": -77.02492266666667, "bike_id": "09979a09b3585ef0a06f8257c12a742a", "fusion_lon": 0.0}, {"is_reserved": 0, "fusion_lat": 0.0, "name": "1f09c6e5d951a7ccbda9b99d7c58cc52", "is_disabled": 0, "lat": 38.864379666666665, "rental_uris": {"ios": "https://dc.lft.to/lastmile_qr_scan", "android": "https://dc.lft.to/lastmile_qr_scan"}, "type": "electric_scooter", "lon": -76.974334, "bike_id": "1f09c6e5d951a7ccbda9b99d7c58cc52", "fusion_lon": 0.0}, {"is_reserved": 0, "fusion_lat": 0.0, "name": "a6274bffdce6c3dd7d0f74b6ea9417f3", "is_disabled": 0, "lat": 38.90183283333333, "rental_uris": {"ios": "https://dc.lft.to/lastmile_qr_scan", "android": "https://dc.lft.to/lastmile_qr_scan"}, "type": "electric_scooter", "lon": -76.97667133333333, "bike_id": "a6274bffdce6c3dd7d0f74b6ea9417f3", "fusion_lon": 0.0}, {"is_reserved": 0, "fusion_lat": 0.0, "name": "8fa096f2e5b8e74b8eec88864b60b329", "is_disabled": 0, "lat": 38.874713666666665, "rental_uris": {"ios": "https://dc.lft.to/lastmile_qr_scan", "android": "https://dc.lft.to/lastmile_qr_scan"}, "type": "electric_scooter", "lon": -77.00535566666667, "bike_id": "8fa096f2e5b8e74b8eec88864b60b329", "fusion_lon": 0.0}, {"is_reserved": 0, "fusion_lat": 0.0, "name": "8e5c1bc3203890e8aefdfc1819f828e3", "is_disabled": 0, "lat": 38.90049716666667, "rental_uris": {"ios": "https://dc.lft.to/lastmile_qr_scan", "android": "https://dc.lft.to/lastmile_qr_scan"}, "type": "electric_scooter", "lon": -76.99145, "bike_id": "8e5c1bc3203890e8aefdfc1819f828e3", "fusion_lon": 0.0}, {"is_reserved": 0, "fusion_lat": 0.0, "name": "0a65c5370fcc910e65712f87ccb50a35", "is_disabled": 0, "lat": 38.924264666666666, "rental_uris": {"ios": "https://dc.lft.to/lastmile_qr_scan", "android": "https://dc.lft.to/lastmile_qr_scan"}, "type": "electric_scooter", "lon": -77.04042166666666, "bike_id": "0a65c5370fcc910e65712f87ccb50a35", "fusion_lon": 0.0}, {"is_reserved": 0, "fusion_lat": 0.0, "name": "ffc86df33b2957e1834bdaf8f4238cea", "is_disabled": 0, "lat": 38.922742666666664, "rental_uris": {"ios": "https://dc.lft.to/lastmile_qr_scan", "android": "https://dc.lft.to/lastmile_qr_scan"}, "type": "electric_scooter", "lon": -77.02127683333333, "bike_id": "ffc86df33b2957e1834bdaf8f4238cea", "fusion_lon": 0.0}, {"is_reserved": 0, "fusion_lat": 0.0, "name": "b38a89c21da8d448a403aac6cbf86b15", "is_disabled": 0, "lat": 38.94335216666666, "rental_uris": {"ios": "https://dc.lft.to/lastmile_qr_scan", "android": "https://dc.lft.to/lastmile_qr_scan"}, "type": "electric_scooter", "lon": -77.032614, "bike_id": "b38a89c21da8d448a403aac6cbf86b15", "fusion_lon": 0.0}, {"is_reserved": 0, "fusion_lat": 0.0, "name": "ac160248fde8f313fa5ceece5ef92321", "is_disabled": 0, "lat": 38.920091666666664, "rental_uris": {"ios": "https://dc.lft.to/lastmile_qr_scan", "android": "https://dc.lft.to/lastmile_qr_scan"}, "type": "electric_scooter", "lon": -77.02135833333334, "bike_id": "ac160248fde8f313fa5ceece5ef92321", "fusion_lon": 0.0}, {"is_reserved": 0, "fusion_lat": 0.0, "name": "ecafe2fbcc9e1236e23ea2e24a2f88ad", "is_disabled": 0, "lat": 38.887080166666664, "rental_uris": {"ios": "https://dc.lft.to/lastmile_qr_scan", "android": "https://dc.lft.to/lastmile_qr_scan"}, "type": "electric_scooter", "lon": -76.9838335, "bike_id": "ecafe2fbcc9e1236e23ea2e24a2f88ad", "fusion_lon": 0.0}, {"is_reserved": 0, "fusion_lat": 0.0, "name": "6c8806764ffc74e1bb026389a8d306b9", "is_disabled": 0, "lat": 38.90157466666667, "rental_uris": {"ios": "https://dc.lft.to/lastmile_qr_scan", "android": "https://dc.lft.to/lastmile_qr_scan"}, "type": "electric_scooter", "lon": -77.02231233333333, "bike_id": "6c8806764ffc74e1bb026389a8d306b9", "fusion_lon": 0.0}, {"is_reserved": 0, "fusion_lat": 0.0, "name": "b7d35777bdfdc39e5c7311a60cf33856", "is_disabled": 0, "lat": 38.924169166666665, "rental_uris": {"ios": "https://dc.lft.to/lastmile_qr_scan", "android": "https://dc.lft.to/lastmile_qr_scan"}, "type": "electric_scooter", "lon": -77.02006633333333, "bike_id": "b7d35777bdfdc39e5c7311a60cf33856", "fusion_lon": 0.0}, {"is_reserved": 0, "fusion_lat": 0.0, "name": "5cbb79affa36cab26884081f3d198b8f", "is_disabled": 0, "lat": 38.88726033333333, "rental_uris": {"ios": "https://dc.lft.to/lastmile_qr_scan", "android": "https://dc.lft.to/lastmile_qr_scan"}, "type": "electric_scooter", "lon": -77.0319035, "bike_id": "5cbb79affa36cab26884081f3d198b8f", "fusion_lon": 0.0}, {"is_reserved": 0, "fusion_lat": 0.0, "name": "f1e4fd4eca3e0d599af2b6fcf39c10bc", "is_disabled": 0, "lat": 38.88529, "rental_uris": {"ios": "https://dc.lft.to/lastmile_qr_scan", "android": "https://dc.lft.to/lastmile_qr_scan"}, "type": "electric_scooter", "lon": -76.98048616666667, "bike_id": "f1e4fd4eca3e0d599af2b6fcf39c10bc", "fusion_lon": 0.0}, {"is_reserved": 0, "fusion_lat": 0.0, "name": "ef39d7448cb04fae13e445f6405c73af", "is_disabled": 0, "lat": 38.896202833333334, "rental_uris": {"ios": "https://dc.lft.to/lastmile_qr_scan", "android": "https://dc.lft.to/lastmile_qr_scan"}, "type": "electric_bike", "lon": -76.90744733333334, "bike_id": "ef39d7448cb04fae13e445f6405c73af", "fusion_lon": 0.0}, {"is_reserved": 0, "fusion_lat": 0.0, "name": "b66d19e4981eb02756e40dc4fcd50c8a", "is_disabled": 0, "lat": 38.88514116666666, "rental_uris": {"ios": "https://dc.lft.to/lastmile_qr_scan", "android": "https://dc.lft.to/lastmile_qr_scan"}, "type": "electric_scooter", "lon": -76.9243995, "bike_id": "b66d19e4981eb02756e40dc4fcd50c8a", "fusion_lon": 0.0}, {"is_reserved": 0, "fusion_lat": 0.0, "name": "6cd48ea30cb8818219fed46cd0974c17", "is_disabled": 0, "lat": 38.902507666666665, "rental_uris": {"ios": "https://dc.lft.to/lastmile_qr_scan", "android": "https://dc.lft.to/lastmile_qr_scan"}, "type": "electric_scooter", "lon": -76.97702583333333, "bike_id": "6cd48ea30cb8818219fed46cd0974c17", "fusion_lon": 0.0}, {"is_reserved": 0, "fusion_lat": 0.0, "name": "aa275d8e26fbdc302105ae99f37d17f0", "is_disabled": 0, "lat": 38.92174833333333, "rental_uris": {"ios": "https://dc.lft.to/lastmile_qr_scan", "android": "https://dc.lft.to/lastmile_qr_scan"}, "type": "electric_scooter", "lon": -77.04017233333333, "bike_id": "aa275d8e26fbdc302105ae99f37d17f0", "fusion_lon": 0.0}, {"is_reserved": 0, "fusion_lat": 0.0, "name": "044e00c46390858e6615226fdd56a700", "is_disabled": 0, "lat": 38.905971666666666, "rental_uris": {"ios": "https://dc.lft.to/lastmile_qr_scan", "android": "https://dc.lft.to/lastmile_qr_scan"}, "type": "electric_scooter", "lon": -77.07005533333333, "bike_id": "044e00c46390858e6615226fdd56a700", "fusion_lon": 0.0}, {"is_reserved": 0, "fusion_lat": 0.0, "name": "498ac52dd71f7ad41889eabdc76f1c41", "is_disabled": 0, "lat": 38.9575185, "rental_uris": {"ios": "https://dc.lft.to/lastmile_qr_scan", "android": "https://dc.lft.to/lastmile_qr_scan"}, "type": "electric_scooter", "lon": -77.0220445, "bike_id": "498ac52dd71f7ad41889eabdc76f1c41", "fusion_lon": 0.0}, {"is_reserved": 0, "fusion_lat": 0.0, "name": "31bcd5bbb3b9539fc193dda3ff498c6d", "is_disabled": 0, "lat": 38.935377333333335, "rental_uris": {"ios": "https://dc.lft.to/lastmile_qr_scan", "android": "https://dc.lft.to/lastmile_qr_scan"}, "type": "electric_scooter", "lon": -77.03483266666667, "bike_id": "31bcd5bbb3b9539fc193dda3ff498c6d", "fusion_lon": 0.0}, {"is_reserved": 0, "fusion_lat": 0.0, "name": "a53f1cf0348230b00c02c5a22d91465e", "is_disabled": 0, "lat": 38.901729, "rental_uris": {"ios": "https://dc.lft.to/lastmile_qr_scan", "android": "https://dc.lft.to/lastmile_qr_scan"}, "type": "electric_scooter", "lon": -77.047335, "bike_id": "a53f1cf0348230b00c02c5a22d91465e", "fusion_lon": 0.0}, {"is_reserved": 0, "fusion_lat": 0.0, "name": "d4aa55f0f94ac5ae3ab932e76cb6fe8f", "is_disabled": 0, "lat": 38.924138166666665, "rental_uris": {"ios": "https://dc.lft.to/lastmile_qr_scan", "android": "https://dc.lft.to/lastmile_qr_scan"}, "type": "electric_scooter", "lon": -77.0212685, "bike_id": "d4aa55f0f94ac5ae3ab932e76cb6fe8f", "fusion_lon": 0.0}, {"is_reserved": 0, "fusion_lat": 0.0, "name": "3e5c69249a6b4c265050f50fb71a4691", "is_disabled": 0, "lat": 38.89961066666667, "rental_uris": {"ios": "https://dc.lft.to/lastmile_qr_scan", "android": "https://dc.lft.to/lastmile_qr_scan"}, "type": "electric_scooter", "lon": -77.04499633333333, "bike_id": "3e5c69249a6b4c265050f50fb71a4691", "fusion_lon": 0.0}, {"is_reserved": 0, "fusion_lat": 0.0, "name": "ca0cfa6b44f1543cbbe25dba248bcaf2", "is_disabled": 0, "lat": 38.905300833333335, "rental_uris": {"ios": "https://dc.lft.to/lastmile_qr_scan", "android": "https://dc.lft.to/lastmile_qr_scan"}, "type": "electric_scooter", "lon": -77.04331233333333, "bike_id": "ca0cfa6b44f1543cbbe25dba248bcaf2", "fusion_lon": 0.0}, {"is_reserved": 0, "fusion_lat": 0.0, "name": "a93972655aeb9fe12d28b9d05b403650", "is_disabled": 0, "lat": 38.92476633333333, "rental_uris": {"ios": "https://dc.lft.to/lastmile_qr_scan", "android": "https://dc.lft.to/lastmile_qr_scan"}, "type": "electric_scooter", "lon": -77.0222815, "bike_id": "a93972655aeb9fe12d28b9d05b403650", "fusion_lon": 0.0}, {"is_reserved": 0, "fusion_lat": 0.0, "name": "2e4952b7c75d9cdca30dac011fb4a095", "is_disabled": 0, "lat": 38.91028983333333, "rental_uris": {"ios": "https://dc.lft.to/lastmile_qr_scan", "android": "https://dc.lft.to/lastmile_qr_scan"}, "type": "electric_scooter", "lon": -77.01210016666667, "bike_id": "2e4952b7c75d9cdca30dac011fb4a095", "fusion_lon": 0.0}, {"is_reserved": 0, "fusion_lat": 0.0, "name": "99e22d8742d6d1dec3d8e0ab92cc5877", "is_disabled": 0, "lat": 38.89564133333333, "rental_uris": {"ios": "https://dc.lft.to/lastmile_qr_scan", "android": "https://dc.lft.to/lastmile_qr_scan"}, "type": "electric_scooter", "lon": -77.02177, "bike_id": "99e22d8742d6d1dec3d8e0ab92cc5877", "fusion_lon": 0.0}, {"is_reserved": 0, "fusion_lat": 0.0, "name": "d096d24337b276db3337cf2914247a9c", "is_disabled": 0, "lat": 38.89275583333333, "rental_uris": {"ios": "https://dc.lft.to/lastmile_qr_scan", "android": "https://dc.lft.to/lastmile_qr_scan"}, "type": "electric_scooter", "lon": -77.0152055, "bike_id": "d096d24337b276db3337cf2914247a9c", "fusion_lon": 0.0}, {"is_reserved": 0, "fusion_lat": 0.0, "name": "a8c86e307fe5e27e9d114e91d5e2e4e2", "is_disabled": 0, "lat": 38.91035083333333, "rental_uris": {"ios": "https://dc.lft.to/lastmile_qr_scan", "android": "https://dc.lft.to/lastmile_qr_scan"}, "type": "electric_scooter", "lon": -77.03434683333333, "bike_id": "a8c86e307fe5e27e9d114e91d5e2e4e2", "fusion_lon": 0.0}, {"is_reserved": 0, "fusion_lat": 0.0, "name": "9eff26b5185c6ac13ab2a083f3798404", "is_disabled": 0, "lat": 38.921375833333336, "rental_uris": {"ios": "https://dc.lft.to/lastmile_qr_scan", "android": "https://dc.lft.to/lastmile_qr_scan"}, "type": "electric_scooter", "lon": -77.02055416666667, "bike_id": "9eff26b5185c6ac13ab2a083f3798404", "fusion_lon": 0.0}, {"is_reserved": 0, "fusion_lat": 0.0, "name": "90a71e14e4c606f3cdfe34777f2c4710", "is_disabled": 0, "lat": 38.902454666666664, "rental_uris": {"ios": "https://dc.lft.to/lastmile_qr_scan", "android": "https://dc.lft.to/lastmile_qr_scan"}, "type": "electric_scooter", "lon": -77.0388095, "bike_id": "90a71e14e4c606f3cdfe34777f2c4710", "fusion_lon": 0.0}, {"is_reserved": 0, "fusion_lat": 0.0, "name": "37daa5c4bf21f03abc019b4731c0479c", "is_disabled": 0, "lat": 38.927982166666666, "rental_uris": {"ios": "https://dc.lft.to/lastmile_qr_scan", "android": "https://dc.lft.to/lastmile_qr_scan"}, "type": "electric_scooter", "lon": -77.02594983333333, "bike_id": "37daa5c4bf21f03abc019b4731c0479c", "fusion_lon": 0.0}, {"is_reserved": 0, "fusion_lat": 0.0, "name": "c656b20be328d6fe4ea98c2df789efa6", "is_disabled": 0, "lat": 38.896301, "rental_uris": {"ios": "https://dc.lft.to/lastmile_qr_scan", "android": "https://dc.lft.to/lastmile_qr_scan"}, "type": "electric_scooter", "lon": -77.00346466666667, "bike_id": "c656b20be328d6fe4ea98c2df789efa6", "fusion_lon": 0.0}, {"is_reserved": 0, "fusion_lat": 0.0, "name": "252c3e3d84a3b7fa6f8c48b2fc82e6a1", "is_disabled": 0, "lat": 38.8940395, "rental_uris": {"ios": "https://dc.lft.to/lastmile_qr_scan", "android": "https://dc.lft.to/lastmile_qr_scan"}, "type": "electric_scooter", "lon": -77.02441, "bike_id": "252c3e3d84a3b7fa6f8c48b2fc82e6a1", "fusion_lon": 0.0}, {"is_reserved": 0, "fusion_lat": 0.0, "name": "ce5b74413f6a405269e153094c69ddd6", "is_disabled": 0, "lat": 38.90308433333333, "rental_uris": {"ios": "https://dc.lft.to/lastmile_qr_scan", "android": "https://dc.lft.to/lastmile_qr_scan"}, "type": "electric_scooter", "lon": -77.03192933333334, "bike_id": "ce5b74413f6a405269e153094c69ddd6", "fusion_lon": 0.0}, {"is_reserved": 0, "fusion_lat": 0.0, "name": "7c88bf78fe3b1ab4c598ffe4093b04c3", "is_disabled": 0, "lat": 38.9279305, "rental_uris": {"ios": "https://dc.lft.to/lastmile_qr_scan", "android": "https://dc.lft.to/lastmile_qr_scan"}, "type": "electric_scooter", "lon": -77.03646366666666, "bike_id": "7c88bf78fe3b1ab4c598ffe4093b04c3", "fusion_lon": 0.0}, {"is_reserved": 0, "fusion_lat": 0.0, "name": "113dce4f818e8e0e28520191d7f0a5f5", "is_disabled": 0, "lat": 38.89836283333333, "rental_uris": {"ios": "https://dc.lft.to/lastmile_qr_scan", "android": "https://dc.lft.to/lastmile_qr_scan"}, "type": "electric_scooter", "lon": -77.03140366666666, "bike_id": "113dce4f818e8e0e28520191d7f0a5f5", "fusion_lon": 0.0}, {"is_reserved": 0, "fusion_lat": 0.0, "name": "7c201e1eabcf77fd8b26a501e29d4c96", "is_disabled": 0, "lat": 39.022966, "rental_uris": {"ios": "https://dc.lft.to/lastmile_qr_scan", "android": "https://dc.lft.to/lastmile_qr_scan"}, "type": "electric_bike", "lon": -77.02103183333334, "bike_id": "7c201e1eabcf77fd8b26a501e29d4c96", "fusion_lon": 0.0}, {"is_reserved": 0, "fusion_lat": 0.0, "name": "c4552aaeada39babe7801de7a66d29e8", "is_disabled": 0, "lat": 38.935491, "rental_uris": {"ios": "https://dc.lft.to/lastmile_qr_scan", "android": "https://dc.lft.to/lastmile_qr_scan"}, "type": "electric_scooter", "lon": -77.02501366666667, "bike_id": "c4552aaeada39babe7801de7a66d29e8", "fusion_lon": 0.0}, {"is_reserved": 0, "fusion_lat": 0.0, "name": "01faa4a34260d9e46921b44a3e47c296", "is_disabled": 0, "lat": 38.9747665, "rental_uris": {"ios": "https://dc.lft.to/lastmile_qr_scan", "android": "https://dc.lft.to/lastmile_qr_scan"}, "type": "electric_bike", "lon": -76.98668766666667, "bike_id": "01faa4a34260d9e46921b44a3e47c296", "fusion_lon": 0.0}, {"is_reserved": 0, "fusion_lat": 0.0, "name": "68a68c2f5f0422832da7902d460c1a00", "is_disabled": 0, "lat": 38.8942455, "rental_uris": {"ios": "https://dc.lft.to/lastmile_qr_scan", "android": "https://dc.lft.to/lastmile_qr_scan"}, "type": "electric_bike", "lon": -77.09444933333333, "bike_id": "68a68c2f5f0422832da7902d460c1a00", "fusion_lon": 0.0}, {"is_reserved": 0, "fusion_lat": 0.0, "name": "18b9d108da510f1806a9e1d5af5d02f5", "is_disabled": 0, "lat": 38.91332883333333, "rental_uris": {"ios": "https://dc.lft.to/lastmile_qr_scan", "android": "https://dc.lft.to/lastmile_qr_scan"}, "type": "electric_scooter", "lon": -77.02184466666667, "bike_id": "18b9d108da510f1806a9e1d5af5d02f5", "fusion_lon": 0.0}, {"is_reserved": 0, "fusion_lat": 0.0, "name": "3d0b1248360f34ba5e38236edf116815", "is_disabled": 0, "lat": 38.92948633333334, "rental_uris": {"ios": "https://dc.lft.to/lastmile_qr_scan", "android": "https://dc.lft.to/lastmile_qr_scan"}, "type": "electric_scooter", "lon": -77.0550965, "bike_id": "3d0b1248360f34ba5e38236edf116815", "fusion_lon": 0.0}, {"is_reserved": 0, "fusion_lat": 0.0, "name": "ca0d3d6e505117bd8b48f0dc85ae3324", "is_disabled": 0, "lat": 38.90195466666667, "rental_uris": {"ios": "https://dc.lft.to/lastmile_qr_scan", "android": "https://dc.lft.to/lastmile_qr_scan"}, "type": "electric_scooter", "lon": -77.0234915, "bike_id": "ca0d3d6e505117bd8b48f0dc85ae3324", "fusion_lon": 0.0}, {"is_reserved": 0, "fusion_lat": 0.0, "name": "8751ed1bef966afc4dbb2b4c5e261252", "is_disabled": 0, "lat": 38.89613116666666, "rental_uris": {"ios": "https://dc.lft.to/lastmile_qr_scan", "android": "https://dc.lft.to/lastmile_qr_scan"}, "type": "electric_scooter", "lon": -77.02209166666667, "bike_id": "8751ed1bef966afc4dbb2b4c5e261252", "fusion_lon": 0.0}, {"is_reserved": 0, "fusion_lat": 0.0, "name": "a1abc0b9c64b43c5882ed5d38efbbf54", "is_disabled": 0, "lat": 38.9307225, "rental_uris": {"ios": "https://dc.lft.to/lastmile_qr_scan", "android": "https://dc.lft.to/lastmile_qr_scan"}, "type": "electric_scooter", "lon": -77.02158966666667, "bike_id": "a1abc0b9c64b43c5882ed5d38efbbf54", "fusion_lon": 0.0}, {"is_reserved": 0, "fusion_lat": 0.0, "name": "d76ac99a04f1902560764b7f2c0dbf92", "is_disabled": 0, "lat": 38.922409333333334, "rental_uris": {"ios": "https://dc.lft.to/lastmile_qr_scan", "android": "https://dc.lft.to/lastmile_qr_scan"}, "type": "electric_scooter", "lon": -77.02817033333334, "bike_id": "d76ac99a04f1902560764b7f2c0dbf92", "fusion_lon": 0.0}, {"is_reserved": 0, "fusion_lat": 0.0, "name": "d1a3796a80bb37f1b631d5605f396857", "is_disabled": 0, "lat": 38.893253333333334, "rental_uris": {"ios": "https://dc.lft.to/lastmile_qr_scan", "android": "https://dc.lft.to/lastmile_qr_scan"}, "type": "electric_scooter", "lon": -77.01966433333334, "bike_id": "d1a3796a80bb37f1b631d5605f396857", "fusion_lon": 0.0}, {"is_reserved": 0, "fusion_lat": 0.0, "name": "554eac79cfbbfdd3439f863d6353d36c", "is_disabled": 0, "lat": 38.920989666666664, "rental_uris": {"ios": "https://dc.lft.to/lastmile_qr_scan", "android": "https://dc.lft.to/lastmile_qr_scan"}, "type": "electric_scooter", "lon": -77.0818935, "bike_id": "554eac79cfbbfdd3439f863d6353d36c", "fusion_lon": 0.0}, {"is_reserved": 0, "fusion_lat": 0.0, "name": "44693cbe8d16d49813264a6bfb651183", "is_disabled": 0, "lat": 38.92090783333333, "rental_uris": {"ios": "https://dc.lft.to/lastmile_qr_scan", "android": "https://dc.lft.to/lastmile_qr_scan"}, "type": "electric_scooter", "lon": -77.022262, "bike_id": "44693cbe8d16d49813264a6bfb651183", "fusion_lon": 0.0}, {"is_reserved": 0, "fusion_lat": 0.0, "name": "79fbfb5fc3ff5a1f75cdd2c77bb3cd20", "is_disabled": 0, "lat": 38.9169035, "rental_uris": {"ios": "https://dc.lft.to/lastmile_qr_scan", "android": "https://dc.lft.to/lastmile_qr_scan"}, "type": "electric_scooter", "lon": -77.01753133333334, "bike_id": "79fbfb5fc3ff5a1f75cdd2c77bb3cd20", "fusion_lon": 0.0}, {"is_reserved": 0, "fusion_lat": 0.0, "name": "77348ef1ec73c489d0afd20c6b0ed7f7", "is_disabled": 0, "lat": 38.901582833333336, "rental_uris": {"ios": "https://dc.lft.to/lastmile_qr_scan", "android": "https://dc.lft.to/lastmile_qr_scan"}, "type": "electric_scooter", "lon": -77.05314433333334, "bike_id": "77348ef1ec73c489d0afd20c6b0ed7f7", "fusion_lon": 0.0}, {"is_reserved": 0, "fusion_lat": 0.0, "name": "7a10515283a296854a48c7089f1d832e", "is_disabled": 0, "lat": 38.913295166666664, "rental_uris": {"ios": "https://dc.lft.to/lastmile_qr_scan", "android": "https://dc.lft.to/lastmile_qr_scan"}, "type": "electric_scooter", "lon": -77.014643, "bike_id": "7a10515283a296854a48c7089f1d832e", "fusion_lon": 0.0}, {"is_reserved": 0, "fusion_lat": 0.0, "name": "1e008fbb41ecb8ce201dffd3b15650df", "is_disabled": 0, "lat": 38.888598333333334, "rental_uris": {"ios": "https://dc.lft.to/lastmile_qr_scan", "android": "https://dc.lft.to/lastmile_qr_scan"}, "type": "electric_scooter", "lon": -76.97905516666667, "bike_id": "1e008fbb41ecb8ce201dffd3b15650df", "fusion_lon": 0.0}, {"is_reserved": 0, "fusion_lat": 0.0, "name": "9edb5f27c7c676e087ca0f6802fd8045", "is_disabled": 0, "lat": 38.91488983333333, "rental_uris": {"ios": "https://dc.lft.to/lastmile_qr_scan", "android": "https://dc.lft.to/lastmile_qr_scan"}, "type": "electric_scooter", "lon": -77.02286966666667, "bike_id": "9edb5f27c7c676e087ca0f6802fd8045", "fusion_lon": 0.0}, {"is_reserved": 0, "fusion_lat": 0.0, "name": "d98715c8e26eba17e83a8ca3a144e61a", "is_disabled": 0, "lat": 38.92237083333333, "rental_uris": {"ios": "https://dc.lft.to/lastmile_qr_scan", "android": "https://dc.lft.to/lastmile_qr_scan"}, "type": "electric_scooter", "lon": -77.02983383333333, "bike_id": "d98715c8e26eba17e83a8ca3a144e61a", "fusion_lon": 0.0}, {"is_reserved": 0, "fusion_lat": 0.0, "name": "f9b5c102517b291aa2f3a80b9dc57809", "is_disabled": 0, "lat": 38.911160833333334, "rental_uris": {"ios": "https://dc.lft.to/lastmile_qr_scan", "android": "https://dc.lft.to/lastmile_qr_scan"}, "type": "electric_scooter", "lon": -77.00602116666667, "bike_id": "f9b5c102517b291aa2f3a80b9dc57809", "fusion_lon": 0.0}, {"is_reserved": 0, "fusion_lat": 0.0, "name": "d8c4d3ad50da7f3fa447e7c2a835a8f0", "is_disabled": 0, "lat": 38.944306166666664, "rental_uris": {"ios": "https://dc.lft.to/lastmile_qr_scan", "android": "https://dc.lft.to/lastmile_qr_scan"}, "type": "electric_scooter", "lon": -77.028775, "bike_id": "d8c4d3ad50da7f3fa447e7c2a835a8f0", "fusion_lon": 0.0}, {"is_reserved": 0, "fusion_lat": 0.0, "name": "c103d8496ac846da4a5c7a856756caa1", "is_disabled": 0, "lat": 38.92240533333333, "rental_uris": {"ios": "https://dc.lft.to/lastmile_qr_scan", "android": "https://dc.lft.to/lastmile_qr_scan"}, "type": "electric_scooter", "lon": -77.02982366666667, "bike_id": "c103d8496ac846da4a5c7a856756caa1", "fusion_lon": 0.0}, {"is_reserved": 0, "fusion_lat": 0.0, "name": "5d203843f3a7f4182c1d066187776bcd", "is_disabled": 0, "lat": 38.89727516666667, "rental_uris": {"ios": "https://dc.lft.to/lastmile_qr_scan", "android": "https://dc.lft.to/lastmile_qr_scan"}, "type": "electric_scooter", "lon": -77.00334183333334, "bike_id": "5d203843f3a7f4182c1d066187776bcd", "fusion_lon": 0.0}, {"is_reserved": 0, "fusion_lat": 0.0, "name": "4e0122c9c002f49222ed076df72775dc", "is_disabled": 0, "lat": 38.9181305, "rental_uris": {"ios": "https://dc.lft.to/lastmile_qr_scan", "android": "https://dc.lft.to/lastmile_qr_scan"}, "type": "electric_scooter", "lon": -77.03216033333334, "bike_id": "4e0122c9c002f49222ed076df72775dc", "fusion_lon": 0.0}, {"is_reserved": 0, "fusion_lat": 0.0, "name": "b2b6d430f226907ebbc257feae949801", "is_disabled": 0, "lat": 38.8922655, "rental_uris": {"ios": "https://dc.lft.to/lastmile_qr_scan", "android": "https://dc.lft.to/lastmile_qr_scan"}, "type": "electric_scooter", "lon": -77.04657783333333, "bike_id": "b2b6d430f226907ebbc257feae949801", "fusion_lon": 0.0}, {"is_reserved": 0, "fusion_lat": 0.0, "name": "5809849afe27ac5ae6edb39aa6a78ae9", "is_disabled": 0, "lat": 38.8767935, "rental_uris": {"ios": "https://dc.lft.to/lastmile_qr_scan", "android": "https://dc.lft.to/lastmile_qr_scan"}, "type": "electric_scooter", "lon": -77.00744783333333, "bike_id": "5809849afe27ac5ae6edb39aa6a78ae9", "fusion_lon": 0.0}, {"is_reserved": 0, "fusion_lat": 0.0, "name": "a3f75b47dabc467c8c4b8302246e642f", "is_disabled": 0, "lat": 38.87881, "rental_uris": {"ios": "https://dc.lft.to/lastmile_qr_scan", "android": "https://dc.lft.to/lastmile_qr_scan"}, "type": "electric_scooter", "lon": -77.02317283333333, "bike_id": "a3f75b47dabc467c8c4b8302246e642f", "fusion_lon": 0.0}, {"is_reserved": 0, "fusion_lat": 0.0, "name": "a3c073fafe31181e7fdcb45a1f1e3b1c", "is_disabled": 0, "lat": 38.9239235, "rental_uris": {"ios": "https://dc.lft.to/lastmile_qr_scan", "android": "https://dc.lft.to/lastmile_qr_scan"}, "type": "electric_scooter", "lon": -77.0430125, "bike_id": "a3c073fafe31181e7fdcb45a1f1e3b1c", "fusion_lon": 0.0}, {"is_reserved": 0, "fusion_lat": 0.0, "name": "072984f3d359dac3b53969f4465625cf", "is_disabled": 0, "lat": 38.8962375, "rental_uris": {"ios": "https://dc.lft.to/lastmile_qr_scan", "android": "https://dc.lft.to/lastmile_qr_scan"}, "type": "electric_scooter", "lon": -77.0262055, "bike_id": "072984f3d359dac3b53969f4465625cf", "fusion_lon": 0.0}, {"is_reserved": 0, "fusion_lat": 0.0, "name": "ea79b0a20d76f263aadc8fd0379f7d9e", "is_disabled": 0, "lat": 38.893285666666664, "rental_uris": {"ios": "https://dc.lft.to/lastmile_qr_scan", "android": "https://dc.lft.to/lastmile_qr_scan"}, "type": "electric_scooter", "lon": -76.93927666666667, "bike_id": "ea79b0a20d76f263aadc8fd0379f7d9e", "fusion_lon": 0.0}, {"is_reserved": 0, "fusion_lat": 0.0, "name": "7aeac08ff00ac17cc4d37931d83903ce", "is_disabled": 0, "lat": 38.875453666666665, "rental_uris": {"ios": "https://dc.lft.to/lastmile_qr_scan", "android": "https://dc.lft.to/lastmile_qr_scan"}, "type": "electric_scooter", "lon": -77.0053645, "bike_id": "7aeac08ff00ac17cc4d37931d83903ce", "fusion_lon": 0.0}, {"is_reserved": 0, "fusion_lat": 0.0, "name": "3c166085bd5a3109b29e7104ca6fd6ab", "is_disabled": 0, "lat": 38.9244415, "rental_uris": {"ios": "https://dc.lft.to/lastmile_qr_scan", "android": "https://dc.lft.to/lastmile_qr_scan"}, "type": "electric_scooter", "lon": -77.04241216666667, "bike_id": "3c166085bd5a3109b29e7104ca6fd6ab", "fusion_lon": 0.0}, {"is_reserved": 0, "fusion_lat": 0.0, "name": "0d40c51daca080d68cf281b85dd6e098", "is_disabled": 0, "lat": 38.89980083333333, "rental_uris": {"ios": "https://dc.lft.to/lastmile_qr_scan", "android": "https://dc.lft.to/lastmile_qr_scan"}, "type": "electric_scooter", "lon": -77.02150666666667, "bike_id": "0d40c51daca080d68cf281b85dd6e098", "fusion_lon": 0.0}, {"is_reserved": 0, "fusion_lat": 0.0, "name": "edbac83a220b6e491c3fda249fd47d12", "is_disabled": 0, "lat": 38.8758275, "rental_uris": {"ios": "https://dc.lft.to/lastmile_qr_scan", "android": "https://dc.lft.to/lastmile_qr_scan"}, "type": "electric_bike", "lon": -77.23411416666667, "bike_id": "edbac83a220b6e491c3fda249fd47d12", "fusion_lon": 0.0}, {"is_reserved": 0, "fusion_lat": 0.0, "name": "d8d0885ead26430ad2aab8e79922d463", "is_disabled": 0, "lat": 38.9020465, "rental_uris": {"ios": "https://dc.lft.to/lastmile_qr_scan", "android": "https://dc.lft.to/lastmile_qr_scan"}, "type": "electric_scooter", "lon": -77.023618, "bike_id": "d8d0885ead26430ad2aab8e79922d463", "fusion_lon": 0.0}, {"is_reserved": 0, "fusion_lat": 0.0, "name": "a9a24e2a1f97ce9a4e8c2e34e7870281", "is_disabled": 0, "lat": 38.93755516666667, "rental_uris": {"ios": "https://dc.lft.to/lastmile_qr_scan", "android": "https://dc.lft.to/lastmile_qr_scan"}, "type": "electric_scooter", "lon": -77.0326055, "bike_id": "a9a24e2a1f97ce9a4e8c2e34e7870281", "fusion_lon": 0.0}, {"is_reserved": 0, "fusion_lat": 0.0, "name": "56e89f5cebfe2e053abbe56455344a4a", "is_disabled": 0, "lat": 38.911900333333335, "rental_uris": {"ios": "https://dc.lft.to/lastmile_qr_scan", "android": "https://dc.lft.to/lastmile_qr_scan"}, "type": "electric_scooter", "lon": -77.018122, "bike_id": "56e89f5cebfe2e053abbe56455344a4a", "fusion_lon": 0.0}, {"is_reserved": 0, "fusion_lat": 0.0, "name": "3d4195562de1f2bdb5b3fc1bcc6d9f0e", "is_disabled": 0, "lat": 38.894782166666666, "rental_uris": {"ios": "https://dc.lft.to/lastmile_qr_scan", "android": "https://dc.lft.to/lastmile_qr_scan"}, "type": "electric_scooter", "lon": -77.04532316666666, "bike_id": "3d4195562de1f2bdb5b3fc1bcc6d9f0e", "fusion_lon": 0.0}, {"is_reserved": 0, "fusion_lat": 0.0, "name": "57a0a13b58af2cc7fce5529f5846d82a", "is_disabled": 0, "lat": 38.95627533333333, "rental_uris": {"ios": "https://dc.lft.to/lastmile_qr_scan", "android": "https://dc.lft.to/lastmile_qr_scan"}, "type": "electric_scooter", "lon": -77.02431633333333, "bike_id": "57a0a13b58af2cc7fce5529f5846d82a", "fusion_lon": 0.0}, {"is_reserved": 0, "fusion_lat": 0.0, "name": "351e58126c4275147fca1fbfe501f6fa", "is_disabled": 0, "lat": 38.83380833333333, "rental_uris": {"ios": "https://dc.lft.to/lastmile_qr_scan", "android": "https://dc.lft.to/lastmile_qr_scan"}, "type": "electric_scooter", "lon": -77.00296466666667, "bike_id": "351e58126c4275147fca1fbfe501f6fa", "fusion_lon": 0.0}, {"is_reserved": 0, "fusion_lat": 0.0, "name": "25ff031c2a43b4639e54a1cea1542dd6", "is_disabled": 0, "lat": 38.9096285, "rental_uris": {"ios": "https://dc.lft.to/lastmile_qr_scan", "android": "https://dc.lft.to/lastmile_qr_scan"}, "type": "electric_scooter", "lon": -77.04811783333334, "bike_id": "25ff031c2a43b4639e54a1cea1542dd6", "fusion_lon": 0.0}, {"is_reserved": 0, "fusion_lat": 0.0, "name": "715055f31b034265e95205479a6b1754", "is_disabled": 0, "lat": 38.91490966666667, "rental_uris": {"ios": "https://dc.lft.to/lastmile_qr_scan", "android": "https://dc.lft.to/lastmile_qr_scan"}, "type": "electric_scooter", "lon": -77.01779583333334, "bike_id": "715055f31b034265e95205479a6b1754", "fusion_lon": 0.0}, {"is_reserved": 0, "fusion_lat": 0.0, "name": "c968e0f3c032445cf0982e9053d6d9a1", "is_disabled": 0, "lat": 38.899689, "rental_uris": {"ios": "https://dc.lft.to/lastmile_qr_scan", "android": "https://dc.lft.to/lastmile_qr_scan"}, "type": "electric_scooter", "lon": -77.0471945, "bike_id": "c968e0f3c032445cf0982e9053d6d9a1", "fusion_lon": 0.0}, {"is_reserved": 0, "fusion_lat": 0.0, "name": "328c9fbe9e88d8ca0ff1c07c064bfba0", "is_disabled": 0, "lat": 38.91870483333334, "rental_uris": {"ios": "https://dc.lft.to/lastmile_qr_scan", "android": "https://dc.lft.to/lastmile_qr_scan"}, "type": "electric_scooter", "lon": -77.04490333333334, "bike_id": "328c9fbe9e88d8ca0ff1c07c064bfba0", "fusion_lon": 0.0}, {"is_reserved": 0, "fusion_lat": 0.0, "name": "49f9193f9e307173ad71818df3291066", "is_disabled": 0, "lat": 38.90784033333333, "rental_uris": {"ios": "https://dc.lft.to/lastmile_qr_scan", "android": "https://dc.lft.to/lastmile_qr_scan"}, "type": "electric_scooter", "lon": -77.01077416666666, "bike_id": "49f9193f9e307173ad71818df3291066", "fusion_lon": 0.0}, {"is_reserved": 0, "fusion_lat": 0.0, "name": "9da7ee61c02a8fad8df2f59166ea1432", "is_disabled": 0, "lat": 38.883886333333336, "rental_uris": {"ios": "https://dc.lft.to/lastmile_qr_scan", "android": "https://dc.lft.to/lastmile_qr_scan"}, "type": "electric_scooter", "lon": -76.99503883333334, "bike_id": "9da7ee61c02a8fad8df2f59166ea1432", "fusion_lon": 0.0}, {"is_reserved": 0, "fusion_lat": 0.0, "name": "0dbe049fb8d52063621d4fa3c1940a7f", "is_disabled": 0, "lat": 38.96387333333333, "rental_uris": {"ios": "https://dc.lft.to/lastmile_qr_scan", "android": "https://dc.lft.to/lastmile_qr_scan"}, "type": "electric_scooter", "lon": -77.02766783333334, "bike_id": "0dbe049fb8d52063621d4fa3c1940a7f", "fusion_lon": 0.0}, {"is_reserved": 0, "fusion_lat": 0.0, "name": "b1017a91fa54917c47c9b7508312de8b", "is_disabled": 0, "lat": 38.8360665, "rental_uris": {"ios": "https://dc.lft.to/lastmile_qr_scan", "android": "https://dc.lft.to/lastmile_qr_scan"}, "type": "electric_bike", "lon": -77.0037655, "bike_id": "b1017a91fa54917c47c9b7508312de8b", "fusion_lon": 0.0}, {"is_reserved": 0, "fusion_lat": 0.0, "name": "375b4d6d05cc623848f4cb081248511a", "is_disabled": 0, "lat": 38.9156925, "rental_uris": {"ios": "https://dc.lft.to/lastmile_qr_scan", "android": "https://dc.lft.to/lastmile_qr_scan"}, "type": "electric_scooter", "lon": -77.0462385, "bike_id": "375b4d6d05cc623848f4cb081248511a", "fusion_lon": 0.0}, {"is_reserved": 0, "fusion_lat": 0.0, "name": "80a48a6aa466d1958a56b0a597008acd", "is_disabled": 0, "lat": 38.9029065, "rental_uris": {"ios": "https://dc.lft.to/lastmile_qr_scan", "android": "https://dc.lft.to/lastmile_qr_scan"}, "type": "electric_scooter", "lon": -77.0278455, "bike_id": "80a48a6aa466d1958a56b0a597008acd", "fusion_lon": 0.0}, {"is_reserved": 0, "fusion_lat": 0.0, "name": "04a7718793e6c57f2b82f8126106b19c", "is_disabled": 0, "lat": 38.917076333333334, "rental_uris": {"ios": "https://dc.lft.to/lastmile_qr_scan", "android": "https://dc.lft.to/lastmile_qr_scan"}, "type": "electric_scooter", "lon": -77.0265285, "bike_id": "04a7718793e6c57f2b82f8126106b19c", "fusion_lon": 0.0}, {"is_reserved": 0, "fusion_lat": 0.0, "name": "4f2afa5d27f8035295f0ba092bb0b684", "is_disabled": 0, "lat": 38.908948333333335, "rental_uris": {"ios": "https://dc.lft.to/lastmile_qr_scan", "android": "https://dc.lft.to/lastmile_qr_scan"}, "type": "electric_scooter", "lon": -77.02300316666667, "bike_id": "4f2afa5d27f8035295f0ba092bb0b684", "fusion_lon": 0.0}, {"is_reserved": 0, "fusion_lat": 0.0, "name": "2bcbaa3c44bae34cb090e8b2e26ef6d6", "is_disabled": 0, "lat": 38.92508516666667, "rental_uris": {"ios": "https://dc.lft.to/lastmile_qr_scan", "android": "https://dc.lft.to/lastmile_qr_scan"}, "type": "electric_scooter", "lon": -77.021663, "bike_id": "2bcbaa3c44bae34cb090e8b2e26ef6d6", "fusion_lon": 0.0}, {"is_reserved": 0, "fusion_lat": 0.0, "name": "3271d477784d2b7b315bbe1b370e3cb5", "is_disabled": 0, "lat": 38.9002995, "rental_uris": {"ios": "https://dc.lft.to/lastmile_qr_scan", "android": "https://dc.lft.to/lastmile_qr_scan"}, "type": "electric_scooter", "lon": -77.0115555, "bike_id": "3271d477784d2b7b315bbe1b370e3cb5", "fusion_lon": 0.0}, {"is_reserved": 0, "fusion_lat": 0.0, "name": "3eb3db675cda08bc05b3ad389b85944f", "is_disabled": 0, "lat": 38.89797816666667, "rental_uris": {"ios": "https://dc.lft.to/lastmile_qr_scan", "android": "https://dc.lft.to/lastmile_qr_scan"}, "type": "electric_scooter", "lon": -77.01186866666667, "bike_id": "3eb3db675cda08bc05b3ad389b85944f", "fusion_lon": 0.0},