{"data": {"bikes": [{"lon": -77.05648266666667, "lat": 38.90767666666667, "rental_uris": {"ios": "https://dc.lft.to/lastmile_qr_scan", "android": "https://dc.lft.to/lastmile_qr_scan"}, "bike_id": "6b244c1ec211d5084ea34b81b6c63ff8", "type": "electric_scooter", "is_disabled": 0, "fusion_lat": 0.0, "fusion_lon": 0.0, "is_reserved": 0, "name": "6b244c1ec211d5084ea34b81b6c63ff8"}, {"lon": -76.99714483333334, "lat": 38.908197666666666, "rental_uris": {"ios": "https://dc.lft.to/lastmile_qr_scan", "android": "https://dc.lft.to/lastmile_qr_scan"}, "bike_id": "1f22c3e4eb29cd0f68d3c6de95846eb9", "type": "electric_scooter", "is_disabled": 0, "fusion_lat": 0.0, "fusion_lon": 0.0, "is_reserved": 0, "name": "1f22c3e4eb29cd0f68d3c6de95846eb9"}, {"lon": -77.0486505, "lat": 38.90196533333334, "rental_uris": {"ios": "https://dc.lft.to/lastmile_qr_scan", "android": "https://dc.lft.to/lastmile_qr_scan"}, "bike_id": "433c1466e7e7bd3524fe949d5472b0fb", "type": "electric_scooter", "is_disabled": 0, "fusion_lat": 0.0, "fusion_lon": 0.0, "is_reserved": 0, "name": "433c1466e7e7bd3524fe949d5472b0fb"}, {"lon": -77.20840383333334, "lat": 38.924709666666665, "rental_uris": {"ios": "https://dc.lft.to/lastmile_qr_scan", "android": "https://dc.lft.to/lastmile_qr_scan"}, "bike_id": "b0baa6c5e40f4beb2f14de3dcdcac4b4", "type": "electric_bike", "is_disabled": 0, "fusion_lat": 0.0, "fusion_lon": 0.0, "is_reserved": 0, "name": "b0baa6c5e40f4beb2f14de3dcdcac4b4"}, {"lon": -76.99783816666667, "lat": 38.84431433333334, "rental_uris": {"ios": "https://dc.lft.to/lastmile_qr_scan", "android": "https://dc.lft.to/lastmile_qr_scan"}, "bike_id": "cb0c0c9dd8d3155d934e94a307c857d4", "type": "electric_scooter", "is_disabled": 0, "fusion_lat": 0.0, "fusion_lon": 0.0, "is_reserved": 0, "name": "cb0c0c9dd8d3155d934e94a307c857d4"}, {"lon": -77.02850233333334, "lat": 38.92241416666667, "rental_uris": {"ios": "https://dc.lft.to/lastmile_qr_scan", "android": "https://dc.lft.to/lastmile_qr_scan"}, "bike_id": "7a650dfded3596cc7f4328709527b5bf", "type": "electric_scooter", "is_disabled": 0, "fusion_lat": 0.0, "fusion_lon": 0.0, "is_reserved": 0, "name": "7a650dfded3596cc7f4328709527b5bf"}, {"lon": -77.017653, "lat": 38.8769005, "rental_uris": {"ios": "https://dc.lft.to/lastmile_qr_scan", "android": "https://dc.lft.to/lastmile_qr_scan"}, "bike_id": "0c94084748baebcb73f213d263cc9218", "type": "electric_scooter", "is_disabled": 0, "fusion_lat": 0.0, "fusion_lon": 0.0, "is_reserved": 0, "name": "0c94084748baebcb73f213d263cc9218"}, {"lon": -76.99882916666667, "lat": 38.92055283333333, "rental_uris": {"ios": "https://dc.lft.to/lastmile_qr_scan", "android": "https://dc.lft.to/lastmile_qr_scan"}, "bike_id": "f96cc63979fbcf1f5561edc33f0fd608", "type": "electric_scooter", "is_disabled": 0, "fusion_lat": 0.0, "fusion_lon": 0.0, "is_reserved": 0, "name": "f96cc63979fbcf1f5561edc33f0fd608"}, {"lon": -77.009497, "lat": 38.89742316666667, "rental_uris": {"ios": "https://dc.lft.to/lastmile_qr_scan", "android": "https://dc.lft.to/lastmile_qr_scan"}, "bike_id": "e4d631e405ca407c2238ec295fe3b59e", "type": "electric_scooter", "is_disabled": 0, "fusion_lat": 0.0, "fusion_lon": 0.0, "is_reserved": 0, "name": "e4d631e405ca407c2238ec295fe3b59e"}, {"lon": -77.05256916666667, "lat": 38.900151666666666, "rental_uris": {"ios": "https://dc.lft.to/lastmile_qr_scan", "android": "https://dc.lft.to/lastmile_qr_scan"}, "bike_id": "c1105830a82b27559822d335cea694dc", "type": "electric_scooter", "is_disabled": 0, "fusion_lat": 0.0, "fusion_lon": 0.0, "is_reserved": 0, "name": "c1105830a82b27559822d335cea694dc"}, {"lon": -77.0271535, "lat": 38.9180355, "rental_uris": {"ios": "https://dc.lft.to/lastmile_qr_scan", "android": "https://dc.lft.to/lastmile_qr_scan"}, "bike_id": "e4e756c5c49ea726fed7bd2035251ba0", "type": "electric_scooter", "is_disabled": 0, "fusion_lat": 0.0, "fusion_lon": 0.0, "is_reserved": 0, "name": "e4e756c5c49ea726fed7bd2035251ba0"}, {"lon": -77.04146016666667, "lat": 38.892221666666664, "rental_uris": {"ios": "https://dc.lft.to/lastmile_qr_scan", "android": "https://dc.lft.to/lastmile_qr_scan"}, "bike_id": "47ac0194c23efb692729db3cdb04b01d", "type": "electric_scooter", "is_disabled": 0, "fusion_lat": 0.0, "fusion_lon": 0.0, "is_reserved": 0, "name": "47ac0194c23efb692729db3cdb04b01d"}, {"lon": -77.0666715, "lat": 38.94958316666666, "rental_uris": {"ios": "https://dc.lft.to/lastmile_qr_scan", "android": "https://dc.lft.to/lastmile_qr_scan"}, "bike_id": "acb06b2b112c36c163ba0153a8b3b2d2", "type": "electric_scooter", "is_disabled": 0, "fusion_lat": 0.0, "fusion_lon": 0.0, "is_reserved": 0, "name": "acb06b2b112c36c163ba0153a8b3b2d2"}, {"lon": -77.03430366666667, "lat": 38.919474, "rental_uris": {"ios": "https://dc.lft.to/lastmile_qr_scan", "android": "https://dc.lft.to/lastmile_qr_scan"}, "bike_id": "d0b11c980cde23e4ba563e4730c736b1", "type": "electric_scooter", "is_disabled": 0, "fusion_lat": 0.0, "fusion_lon": 0.0, "is_reserved": 0, "name": "d0b11c980cde23e4ba563e4730c736b1"}, {"lon": -77.05038516666667, "lat": 38.90049, "rental_uris": {"ios": "https://dc.lft.to/lastmile_qr_scan", "android": "https://dc.lft.to/lastmile_qr_scan"}, "bike_id": "5d8058dc50fd3b2cd982f868a5d23359", "type": "electric_scooter", "is_disabled": 0, "fusion_lat": 0.0, "fusion_lon": 0.0, "is_reserved": 0, "name": "5d8058dc50fd3b2cd982f868a5d23359"}, {"lon": -76.99837333333333, "lat": 38.890828666666664, "rental_uris": {"ios": "https://dc.lft.to/lastmile_qr_scan", "android": "https://dc.lft.to/lastmile_qr_scan"}, "bike_id": "2ebfa9c94ae3802f5b24383260badcdf", "type": "electric_scooter", "is_disabled": 0, "fusion_lat": 0.0, "fusion_lon": 0.0, "is_reserved": 0, "name": "2ebfa9c94ae3802f5b24383260badcdf"}, {"lon": -77.05890033333333, "lat": 38.93641366666667, "rental_uris": {"ios": "https://dc.lft.to/lastmile_qr_scan", "android": "https://dc.lft.to/lastmile_qr_scan"}, "bike_id": "b4395a79af137eb4ecd7b4c719d1bcb7", "type": "electric_scooter", "is_disabled": 0, "fusion_lat": 0.0, "fusion_lon": 0.0, "is_reserved": 0, "name": "b4395a79af137eb4ecd7b4c719d1bcb7"}, {"lon": -77.02539016666667, "lat": 38.9240435, "rental_uris": {"ios": "https://dc.lft.to/lastmile_qr_scan", "android": "https://dc.lft.to/lastmile_qr_scan"}, "bike_id": "826274f60612d2f8bcad1ee6d64b5be7", "type": "electric_scooter", "is_disabled": 0, "fusion_lat": 0.0, "fusion_lon": 0.0, "is_reserved": 0, "name": "826274f60612d2f8bcad1ee6d64b5be7"}, {"lon": -76.9810295, "lat": 38.9039495, "rental_uris": {"ios": "https://dc.lft.to/lastmile_qr_scan", "android": "https://dc.lft.to/lastmile_qr_scan"}, "bike_id": "520830bbe182be06301789610aaaccd8", "type": "electric_scooter", "is_disabled": 0, "fusion_lat": 0.0, "fusion_lon": 0.0, "is_reserved": 0, "name": "520830bbe182be06301789610aaaccd8"}, {"lon": -76.9753115, "lat": 38.903312, "rental_uris": {"ios": "https://dc.lft.to/lastmile_qr_scan", "android": "https://dc.lft.to/lastmile_qr_scan"}, "bike_id": "323cc63fa1838d40998b229d370ef564", "type": "electric_bike", "is_disabled": 0, "fusion_lat": 0.0, "fusion_lon": 0.0, "is_reserved": 0, "name": "323cc63fa1838d40998b229d370ef564"}, {"lon": -77.04238166666667, "lat": 38.9035585, "rental_uris": {"ios": "https://dc.lft.to/lastmile_qr_scan", "android": "https://dc.lft.to/lastmile_qr_scan"}, "bike_id": "8386cb7aa2349c9fd09a0595b6901295", "type": "electric_scooter", "is_disabled": 0, "fusion_lat": 0.0, "fusion_lon": 0.0, "is_reserved": 0, "name": "8386cb7aa2349c9fd09a0595b6901295"}, {"lon": -76.99779433333333, "lat": 38.84432783333333, "rental_uris": {"ios": "https://dc.lft.to/lastmile_qr_scan", "android": "https://dc.lft.to/lastmile_qr_scan"}, "bike_id": "d476a135bff22794d37abb401364f854", "type": "electric_scooter", "is_disabled": 0, "fusion_lat": 0.0, "fusion_lon": 0.0, "is_reserved": 0, "name": "d476a135bff22794d37abb401364f854"}, {"lon": -77.02704383333334, "lat": 38.90843183333333, "rental_uris": {"ios": "https://dc.lft.to/lastmile_qr_scan", "android": "https://dc.lft.to/lastmile_qr_scan"}, "bike_id": "d8114fcf7254ee38eb7deffd872e9ee5", "type": "electric_scooter", "is_disabled": 0, "fusion_lat": 0.0, "fusion_lon": 0.0, "is_reserved": 0, "name": "d8114fcf7254ee38eb7deffd872e9ee5"}, {"lon": -77.01401916666667, "lat": 38.905778166666664, "rental_uris": {"ios": "https://dc.lft.to/lastmile_qr_scan", "android": "https://dc.lft.to/lastmile_qr_scan"}, "bike_id": "2a094eab0052295cd75e2dde09e616bb", "type": "electric_scooter", "is_disabled": 0, "fusion_lat": 0.0, "fusion_lon": 0.0, "is_reserved": 0, "name": "2a094eab0052295cd75e2dde09e616bb"}, {"lon": -77.02971716666667, "lat": 38.9169, "rental_uris": {"ios": "https://dc.lft.to/lastmile_qr_scan", "android": "https://dc.lft.to/lastmile_qr_scan"}, "bike_id": "8e6b5b53c8d6c03f81bbaf7b91a51eed", "type": "electric_scooter", "is_disabled": 0, "fusion_lat": 0.0, "fusion_lon": 0.0, "is_reserved": 0, "name": "8e6b5b53c8d6c03f81bbaf7b91a51eed"}, {"lon": -77.02713266666666, "lat": 38.896000666666666, "rental_uris": {"ios": "https://dc.lft.to/lastmile_qr_scan", "android": "https://dc.lft.to/lastmile_qr_scan"}, "bike_id": "72648b69197ecabe4dbd0fe75df37cba", "type": "electric_scooter", "is_disabled": 0, "fusion_lat": 0.0, "fusion_lon": 0.0, "is_reserved": 0, "name": "72648b69197ecabe4dbd0fe75df37cba"}, {"lon": -77.044578, "lat": 38.9083125, "rental_uris": {"ios": "https://dc.lft.to/lastmile_qr_scan", "android": "https://dc.lft.to/lastmile_qr_scan"}, "bike_id": "b6052d09f2399df4c19a82869e6728a3", "type": "electric_scooter", "is_disabled": 0, "fusion_lat": 0.0, "fusion_lon": 0.0, "is_reserved": 0, "name": "b6052d09f2399df4c19a82869e6728a3"}, {"lon": -77.03175333333333, "lat": 38.913380333333336, "rental_uris": {"ios": "https://dc.lft.to/lastmile_qr_scan", "android": "https://dc.lft.to/lastmile_qr_scan"}, "bike_id": "99de11ee4ffb02aa1d1b95a61d27a79d", "type": "electric_scooter", "is_disabled": 0, "fusion_lat": 0.0, "fusion_lon": 0.0, "is_reserved": 0, "name": "99de11ee4ffb02aa1d1b95a61d27a79d"}, {"lon": -77.02208466666667, "lat": 38.92085683333333, "rental_uris": {"ios": "https://dc.lft.to/lastmile_qr_scan", "android": "https://dc.lft.to/lastmile_qr_scan"}, "bike_id": "659b13845c44d2a1a8e22dc68b5ed463", "type": "electric_bike", "is_disabled": 0, "fusion_lat": 0.0, "fusion_lon": 0.0, "is_reserved": 0, "name": "659b13845c44d2a1a8e22dc68b5ed463"}, {"lon": -77.046586, "lat": 38.91365416666667, "rental_uris": {"ios": "https://dc.lft.to/lastmile_qr_scan", "android": "https://dc.lft.to/lastmile_qr_scan"}, "bike_id": "83f5685b770f30991d1bbac91d2ebccc", "type": "electric_scooter", "is_disabled": 0, "fusion_lat": 0.0, "fusion_lon": 0.0, "is_reserved": 0, "name": "83f5685b770f30991d1bbac91d2ebccc"}, {"lon": -77.02952183333333, "lat": 38.8941705, "rental_uris": {"ios": "https://dc.lft.to/lastmile_qr_scan", "android": "https://dc.lft.to/lastmile_qr_scan"}, "bike_id": "4de182b065da91b96d19f624f4fc5bf6", "type": "electric_scooter", "is_disabled": 0, "fusion_lat": 0.0, "fusion_lon": 0.0, "is_reserved": 0, "name": "4de182b065da91b96d19f624f4fc5bf6"}, {"lon": -76.9937855, "lat": 38.923784166666664, "rental_uris": {"ios": "https://dc.lft.to/lastmile_qr_scan", "android": "https://dc.lft.to/lastmile_qr_scan"}, "bike_id": "257187a7aba738c8fe49abe6539acb98", "type": "electric_scooter", "is_disabled": 0, "fusion_lat": 0.0, "fusion_lon": 0.0, "is_reserved": 0, "name": "257187a7aba738c8fe49abe6539acb98"}, {"lon": -77.03742616666666, "lat": 38.92206616666667, "rental_uris": {"ios": "https://dc.lft.to/lastmile_qr_scan", "android": "https://dc.lft.to/lastmile_qr_scan"}, "bike_id": "0b9873b82c7ace4059f2e8c02b72ca48", "type": "electric_scooter", "is_disabled": 0, "fusion_lat": 0.0, "fusion_lon": 0.0, "is_reserved": 0, "name": "0b9873b82c7ace4059f2e8c02b72ca48"}, {"lon": -76.98359666666667, "lat": 38.887449833333335, "rental_uris": {"ios": "https://dc.lft.to/lastmile_qr_scan", "android": "https://dc.lft.to/lastmile_qr_scan"}, "bike_id": "0010f550dfe1c15363d63e761faa5f9f", "type": "electric_scooter", "is_disabled": 0, "fusion_lat": 0.0, "fusion_lon": 0.0, "is_reserved": 0, "name": "0010f550dfe1c15363d63e761faa5f9f"}, {"lon": -76.98269533333334, "lat": 38.885313833333335, "rental_uris": {"ios": "https://dc.lft.to/lastmile_qr_scan", "android": "https://dc.lft.to/lastmile_qr_scan"}, "bike_id": "dfe373bac6eae1f47c394429de2ff5b0", "type": "electric_scooter", "is_disabled": 0, "fusion_lat": 0.0, "fusion_lon": 0.0, "is_reserved": 0, "name": "dfe373bac6eae1f47c394429de2ff5b0"}, {"lon": -77.03177916666667, "lat": 38.919261, "rental_uris": {"ios": "https://dc.lft.to/lastmile_qr_scan", "android": "https://dc.lft.to/lastmile_qr_scan"}, "bike_id": "7ae358092982a63ed8fb55532ca0472a", "type": "electric_scooter", "is_disabled": 0, "fusion_lat": 0.0, "fusion_lon": 0.0, "is_reserved": 0, "name": "7ae358092982a63ed8fb55532ca0472a"}, {"lon": -77.03385266666666, "lat": 38.899204, "rental_uris": {"ios": "https://dc.lft.to/lastmile_qr_scan", "android": "https://dc.lft.to/lastmile_qr_scan"}, "bike_id": "bbfefb3cb38f623d4feab045775e00dc", "type": "electric_scooter", "is_disabled": 0, "fusion_lat": 0.0, "fusion_lon": 0.0, "is_reserved": 0, "name": "bbfefb3cb38f623d4feab045775e00dc"}, {"lon": -76.98624816666667, "lat": 38.90115633333333, "rental_uris": {"ios": "https://dc.lft.to/lastmile_qr_scan", "android": "https://dc.lft.to/lastmile_qr_scan"}, "bike_id": "5e9537f0d3059de47defc904e06cbb33", "type": "electric_scooter", "is_disabled": 0, "fusion_lat": 0.0, "fusion_lon": 0.0, "is_reserved": 0, "name": "5e9537f0d3059de47defc904e06cbb33"}, {"lon": -77.04349866666666, "lat": 38.90728516666667, "rental_uris": {"ios": "https://dc.lft.to/lastmile_qr_scan", "android": "https://dc.lft.to/lastmile_qr_scan"}, "bike_id": "2521247188e6dbbddd857d9f43d50d00", "type": "electric_scooter", "is_disabled": 0, "fusion_lat": 0.0, "fusion_lon": 0.0, "is_reserved": 0, "name": "2521247188e6dbbddd857d9f43d50d00"}, {"lon": -77.02285933333333, "lat": 38.916869166666665, "rental_uris": {"ios": "https://dc.lft.to/lastmile_qr_scan", "android": "https://dc.lft.to/lastmile_qr_scan"}, "bike_id": "6a564bdb1012adf540ecdad70eef55bb", "type": "electric_scooter", "is_disabled": 0, "fusion_lat": 0.0, "fusion_lon": 0.0, "is_reserved": 0, "name": "6a564bdb1012adf540ecdad70eef55bb"}, {"lon": -77.02160566666667, "lat": 38.914193, "rental_uris": {"ios": "https://dc.lft.to/lastmile_qr_scan", "android": "https://dc.lft.to/lastmile_qr_scan"}, "bike_id": "f5aa9103c9b054698b0ce48566da33f2", "type": "electric_bike", "is_disabled": 0, "fusion_lat": 0.0, "fusion_lon": 0.0, "is_reserved": 0, "name": "f5aa9103c9b054698b0ce48566da33f2"}, {"lon": -77.03230033333334, "lat": 38.915570833333334, "rental_uris": {"ios": "https://dc.lft.to/lastmile_qr_scan", "android": "https://dc.lft.to/lastmile_qr_scan"}, "bike_id": "fedcf85c48f54f9da9cf7c02510911c8", "type": "electric_scooter", "is_disabled": 0, "fusion_lat": 0.0, "fusion_lon": 0.0, "is_reserved": 0, "name": "fedcf85c48f54f9da9cf7c02510911c8"}, {"lon": -77.000099, "lat": 38.893052833333336, "rental_uris": {"ios": "https://dc.lft.to/lastmile_qr_scan", "android": "https://dc.lft.to/lastmile_qr_scan"}, "bike_id": "ddca78ddc79abf64d8fd83a33f98fb51", "type": "electric_scooter", "is_disabled": 0, "fusion_lat": 0.0, "fusion_lon": 0.0, "is_reserved": 0, "name": "ddca78ddc79abf64d8fd83a33f98fb51"}, {"lon": -76.99774883333333, "lat": 38.844294833333336, "rental_uris": {"ios": "https://dc.lft.to/lastmile_qr_scan", "android": "https://dc.lft.to/lastmile_qr_scan"}, "bike_id": "c5d6c32e75c65f767f4286cba34f023d", "type": "electric_scooter", "is_disabled": 0, "fusion_lat": 0.0, "fusion_lon": 0.0, "is_reserved": 0, "name": "c5d6c32e75c65f767f4286cba34f023d"}, {"lon": -76.97425283333334, "lat": 38.904022833333336, "rental_uris": {"ios": "https://dc.lft.to/lastmile_qr_scan", "android": "https://dc.lft.to/lastmile_qr_scan"}, "bike_id": "a2a65851ed1debd158b4b049c73c5144", "type": "electric_scooter", "is_disabled": 0, "fusion_lat": 0.0, "fusion_lon": 0.0, "is_reserved": 0, "name": "a2a65851ed1debd158b4b049c73c5144"}, {"lon": -76.94384483333333, "lat": 38.89322833333333, "rental_uris": {"ios": "https://dc.lft.to/lastmile_qr_scan", "android": "https://dc.lft.to/lastmile_qr_scan"}, "bike_id": "afaec5c4080146918ba0b975f608d163", "type": "electric_scooter", "is_disabled": 0, "fusion_lat": 0.0, "fusion_lon": 0.0, "is_reserved": 0, "name": "afaec5c4080146918ba0b975f608d163"}, {"lon": -77.02425566666666, "lat": 38.937167333333335, "rental_uris": {"ios": "https://dc.lft.to/lastmile_qr_scan", "android": "https://dc.lft.to/lastmile_qr_scan"}, "bike_id": "65a9f2877aede7149b483acfd78d5baf", "type": "electric_scooter", "is_disabled": 0, "fusion_lat": 0.0, "fusion_lon": 0.0, "is_reserved": 0, "name": "65a9f2877aede7149b483acfd78d5baf"}, {"lon": -77.0906605, "lat": 38.862614666666666, "rental_uris": {"ios": "https://dc.lft.to/lastmile_qr_scan", "android": "https://dc.lft.to/lastmile_qr_scan"}, "bike_id": "d68763cd89e5c4c876df626c0554691c", "type": "electric_bike", "is_disabled": 0, "fusion_lat": 0.0, "fusion_lon": 0.0, "is_reserved": 0, "name": "d68763cd89e5c4c876df626c0554691c"}, {"lon": -76.93750833333333, "lat": 38.8904835, "rental_uris": {"ios": "https://dc.lft.to/lastmile_qr_scan", "android": "https://dc.lft.to/lastmile_qr_scan"}, "bike_id": "ce2bd315382e89de216309a495745c1f", "type": "electric_scooter", "is_disabled": 0, "fusion_lat": 0.0, "fusion_lon": 0.0, "is_reserved": 0, "name": "ce2bd315382e89de216309a495745c1f"}, {"lon": -76.97835433333333, "lat": 38.84364333333333, "rental_uris": {"ios": "https://dc.lft.to/lastmile_qr_scan", "android": "https://dc.lft.to/lastmile_qr_scan"}, "bike_id": "a3942c350769ba39d45f8147e3449a6a", "type": "electric_bike", "is_disabled": 0, "fusion_lat": 0.0, "fusion_lon": 0.0, "is_reserved": 0, "name": "a3942c350769ba39d45f8147e3449a6a"}, {"lon": -77.02657833333333, "lat": 38.892203, "rental_uris": {"ios": "https://dc.lft.to/lastmile_qr_scan", "android": "https://dc.lft.to/lastmile_qr_scan"}, "bike_id": "52414ca4a3da1dafe94a00f2ee512a2e", "type": "electric_scooter", "is_disabled": 0, "fusion_lat": 0.0, "fusion_lon": 0.0, "is_reserved": 0, "name": "52414ca4a3da1dafe94a00f2ee512a2e"}, {"lon": -77.03539533333333, "lat": 38.908301333333334, "rental_uris": {"ios": "https://dc.lft.to/lastmile_qr_scan", "android": "https://dc.lft.to/lastmile_qr_scan"}, "bike_id": "f5a7f7c798a4b63e9ecae0e626f8186d", "type": "electric_scooter", "is_disabled": 0, "fusion_lat": 0.0, "fusion_lon": 0.0, "is_reserved": 0, "name": "f5a7f7c798a4b63e9ecae0e626f8186d"}, {"lon": -76.990083, "lat": 38.903923166666665, "rental_uris": {"ios": "https://dc.lft.to/lastmile_qr_scan", "android": "https://dc.lft.to/lastmile_qr_scan"}, "bike_id": "cef0432c18922be166b4ce6afcaff227", "type": "electric_scooter", "is_disabled": 0, "fusion_lat": 0.0, "fusion_lon": 0.0, "is_reserved": 0, "name": "cef0432c18922be166b4ce6afcaff227"}, {"lon": -76.97120083333333, "lat": 38.9196285, "rental_uris": {"ios": "https://dc.lft.to/lastmile_qr_scan", "android": "https://dc.lft.to/lastmile_qr_scan"}, "bike_id": "20637589cca977585b3b5959624859f9", "type": "electric_bike", "is_disabled": 0, "fusion_lat": 0.0, "fusion_lon": 0.0, "is_reserved": 0, "name": "20637589cca977585b3b5959624859f9"}, {"lon": -77.02084733333334, "lat": 38.881782333333334, "rental_uris": {"ios": "https://dc.lft.to/lastmile_qr_scan", "android": "https://dc.lft.to/lastmile_qr_scan"}, "bike_id": "c624a5140f542c22e4f63a0c6638fc59", "type": "electric_scooter", "is_disabled": 0, "fusion_lat": 0.0, "fusion_lon": 0.0, "is_reserved": 0, "name": "c624a5140f542c22e4f63a0c6638fc59"}, {"lon": -77.17842, "lat": 39.088553166666664, "rental_uris": {"ios": "https://dc.lft.to/lastmile_qr_scan", "android": "https://dc.lft.to/lastmile_qr_scan"}, "bike_id": "418cd7071f852a1c5621860d5e1f91b2", "type": "electric_bike", "is_disabled": 0, "fusion_lat": 0.0, "fusion_lon": 0.0, "is_reserved": 0, "name": "418cd7071f852a1c5621860d5e1f91b2"}, {"lon": -76.95649516666667, "lat": 38.89559083333333, "rental_uris": {"ios": "https://dc.lft.to/lastmile_qr_scan", "android": "https://dc.lft.to/lastmile_qr_scan"}, "bike_id": "00394b283bed2befb58283c859b85718", "type": "electric_scooter", "is_disabled": 0, "fusion_lat": 0.0, "fusion_lon": 0.0, "is_reserved": 0, "name": "00394b283bed2befb58283c859b85718"}, {"lon": -77.0294505, "lat": 38.90501883333334, "rental_uris": {"ios": "https://dc.lft.to/lastmile_qr_scan", "android": "https://dc.lft.to/lastmile_qr_scan"}, "bike_id": "0d477f7703487545a59d4960a858c668", "type": "electric_scooter", "is_disabled": 0, "fusion_lat": 0.0, "fusion_lon": 0.0, "is_reserved": 0, "name": "0d477f7703487545a59d4960a858c668"}, {"lon": -76.99943566666667, "lat": 38.89741333333333, "rental_uris": {"ios": "https://dc.lft.to/lastmile_qr_scan", "android": "https://dc.lft.to/lastmile_qr_scan"}, "bike_id": "c9430adff2173ba126b4da9fd9629a22", "type": "electric_scooter", "is_disabled": 0, "fusion_lat": 0.0, "fusion_lon": 0.0, "is_reserved": 0, "name": "c9430adff2173ba126b4da9fd9629a22"}, {"lon": -77.0140775, "lat": 38.887471166666664, "rental_uris": {"ios": "https://dc.lft.to/lastmile_qr_scan", "android": "https://dc.lft.to/lastmile_qr_scan"}, "bike_id": "f99df1b22d395d43773385f983cb1eff", "type": "electric_scooter", "is_disabled": 0, "fusion_lat": 0.0, "fusion_lon": 0.0, "is_reserved": 0, "name": "f99df1b22d395d43773385f983cb1eff"}, {"lon": -77.04161483333333, "lat": 38.918881, "rental_uris": {"ios": "https://dc.lft.to/lastmile_qr_scan", "android": "https://dc.lft.to/lastmile_qr_scan"}, "bike_id": "5d0c9ac80b9113e11048d99dedc824d5", "type": "electric_scooter", "is_disabled": 0, "fusion_lat": 0.0, "fusion_lon": 0.0, "is_reserved": 0, "name": "5d0c9ac80b9113e11048d99dedc824d5"}, {"lon": -76.98937166666667, "lat": 38.9285975, "rental_uris": {"ios": "https://dc.lft.to/lastmile_qr_scan", "android": "https://dc.lft.to/lastmile_qr_scan"}, "bike_id": "912784a34f79003f49614635a6492218", "type": "electric_bike", "is_disabled": 0, "fusion_lat": 0.0, "fusion_lon": 0.0, "is_reserved": 0, "name": "912784a34f79003f49614635a6492218"}, {"lon": -77.02438383333333, "lat": 38.894610166666666, "rental_uris": {"ios": "https://dc.lft.to/lastmile_qr_scan", "android": "https://dc.lft.to/lastmile_qr_scan"}, "bike_id": "05b10f2bd38a61505ab5c68d9051a7cc", "type": "electric_scooter", "is_disabled": 0, "fusion_lat": 0.0, "fusion_lon": 0.0, "is_reserved": 0, "name": "05b10f2bd38a61505ab5c68d9051a7cc"}, {"lon": -77.06116966666667, "lat": 38.901973, "rental_uris": {"ios": "https://dc.lft.to/lastmile_qr_scan", "android": "https://dc.lft.to/lastmile_qr_scan"}, "bike_id": "fba39109d407d8bc6d47776771bdebad", "type": "electric_scooter", "is_disabled": 0, "fusion_lat": 0.0, "fusion_lon": 0.0, "is_reserved": 0, "name": "fba39109d407d8bc6d47776771bdebad"}, {"lon": -77.02597433333334, "lat": 38.91693866666667, "rental_uris": {"ios": "https://dc.lft.to/lastmile_qr_scan", "android": "https://dc.lft.to/lastmile_qr_scan"}, "bike_id": "bfd309131eaa5f9519be97b827fc0f35", "type": "electric_scooter", "is_disabled": 0, "fusion_lat": 0.0, "fusion_lon": 0.0, "is_reserved": 0, "name": "bfd309131eaa5f9519be97b827fc0f35"}, {"lon": -77.03693566666666, "lat": 38.916760333333336, "rental_uris": {"ios": "https://dc.lft.to/lastmile_qr_scan", "android": "https://dc.lft.to/lastmile_qr_scan"}, "bike_id": "fbace8f7387217db2abb2a7744d8b884", "type": "electric_scooter", "is_disabled": 0, "fusion_lat": 0.0, "fusion_lon": 0.0, "is_reserved": 0, "name": "fbace8f7387217db2abb2a7744d8b884"}, {"lon": -76.94879133333333, "lat": 38.895503833333336, "rental_uris": {"ios": "https://dc.lft.to/lastmile_qr_scan", "android": "https://dc.lft.to/lastmile_qr_scan"}, "bike_id": "2efee773ac04f79058f8f637f7b1aa6f", "type": "electric_scooter", "is_disabled": 0, "fusion_lat": 0.0, "fusion_lon": 0.0, "is_reserved": 0, "name": "2efee773ac04f79058f8f637f7b1aa6f"}, {"lon": -76.98241266666666, "lat": 38.904558, "rental_uris": {"ios": "https://dc.lft.to/lastmile_qr_scan", "android": "https://dc.lft.to/lastmile_qr_scan"}, "bike_id": "6194fb107c66f45b9884b9f5e1e3a259", "type": "electric_scooter", "is_disabled": 0, "fusion_lat": 0.0, "fusion_lon": 0.0, "is_reserved": 0, "name": "6194fb107c66f45b9884b9f5e1e3a259"}, {"lon": -77.026942, "lat": 38.89820666666667, "rental_uris": {"ios": "https://dc.lft.to/lastmile_qr_scan", "android": "https://dc.lft.to/lastmile_qr_scan"}, "bike_id": "a3ba77623eaccfab04ea6b35085aad32", "type": "electric_scooter", "is_disabled": 0, "fusion_lat": 0.0, "fusion_lon": 0.0, "is_reserved": 0, "name": "a3ba77623eaccfab04ea6b35085aad32"}, {"lon": -77.02698233333334, "lat": 38.954055, "rental_uris": {"ios": "https://dc.lft.to/lastmile_qr_scan", "android": "https://dc.lft.to/lastmile_qr_scan"}, "bike_id": "f75b7feeb958af738cb238dd1f27faac", "type": "electric_scooter", "is_disabled": 0, "fusion_lat": 0.0, "fusion_lon": 0.0, "is_reserved": 0, "name": "f75b7feeb958af738cb238dd1f27faac"}, {"lon": -76.94633566666667, "lat": 38.89841966666667, "rental_uris": {"ios": "https://dc.lft.to/lastmile_qr_scan", "android": "https://dc.lft.to/lastmile_qr_scan"}, "bike_id": "33d7e097db83c22749b3221859f1628e", "type": "electric_scooter", "is_disabled": 0, "fusion_lat": 0.0, "fusion_lon": 0.0, "is_reserved": 0, "name": "33d7e097db83c22749b3221859f1628e"}, {"lon": -77.05077666666666, "lat": 38.89672016666667, "rental_uris": {"ios": "https://dc.lft.to/lastmile_qr_scan", "android": "https://dc.lft.to/lastmile_qr_scan"}, "bike_id": "34243e6e57028fb55a9315048e585841", "type": "electric_scooter", "is_disabled": 0, "fusion_lat": 0.0, "fusion_lon": 0.0, "is_reserved": 0, "name": "34243e6e57028fb55a9315048e585841"}, {"lon": -77.02246066666666, "lat": 38.9228665, "rental_uris": {"ios": "https://dc.lft.to/lastmile_qr_scan", "android": "https://dc.lft.to/lastmile_qr_scan"}, "bike_id": "d561194ba9ac5c6d5066dd2be36794e9", "type": "electric_scooter", "is_disabled": 0, "fusion_lat": 0.0, "fusion_lon": 0.0, "is_reserved": 0, "name": "d561194ba9ac5c6d5066dd2be36794e9"}, {"lon": -77.007265, "lat": 38.88492216666667, "rental_uris": {"ios": "https://dc.lft.to/lastmile_qr_scan", "android": "https://dc.lft.to/lastmile_qr_scan"}, "bike_id": "bdbff92f6fd3ec93aa0a400ccef60779", "type": "electric_scooter", "is_disabled": 0, "fusion_lat": 0.0, "fusion_lon": 0.0, "is_reserved": 0, "name": "bdbff92f6fd3ec93aa0a400ccef60779"}, {"lon": -77.045121, "lat": 38.9014555, "rental_uris": {"ios": "https://dc.lft.to/lastmile_qr_scan", "android": "https://dc.lft.to/lastmile_qr_scan"}, "bike_id": "edbad7ff9d1b583279e9e3992d9bcb33", "type": "electric_scooter", "is_disabled": 0, "fusion_lat": 0.0, "fusion_lon": 0.0, "is_reserved": 0, "name": "edbad7ff9d1b583279e9e3992d9bcb33"}, {"lon": -77.02232933333333, "lat": 38.892225, "rental_uris": {"ios": "https://dc.lft.to/lastmile_qr_scan", "android": "https://dc.lft.to/lastmile_qr_scan"}, "bike_id": "0c0bcf6a15675838873fc34c4696c9f2", "type": "electric_scooter", "is_disabled": 0, "fusion_lat": 0.0, "fusion_lon": 0.0, "is_reserved": 0, "name": "0c0bcf6a15675838873fc34c4696c9f2"}, {"lon": -77.02724116666667, "lat": 38.93252616666667, "rental_uris": {"ios": "https://dc.lft.to/lastmile_qr_scan", "android": "https://dc.lft.to/lastmile_qr_scan"}, "bike_id": "1cec4e8526ca9661a451ede56c629b66", "type": "electric_scooter", "is_disabled": 0, "fusion_lat": 0.0, "fusion_lon": 0.0, "is_reserved": 0, "name": "1cec4e8526ca9661a451ede56c629b66"}, {"lon": -77.04471183333334, "lat": 38.910231333333336, "rental_uris": {"ios": "https://dc.lft.to/lastmile_qr_scan", "android": "https://dc.lft.to/lastmile_qr_scan"}, "bike_id": "05dacdb584a190fdfd816e2abf5e44b9", "type": "electric_scooter", "is_disabled": 0, "fusion_lat": 0.0, "fusion_lon": 0.0, "is_reserved": 0, "name": "05dacdb584a190fdfd816e2abf5e44b9"}, {"lon": -77.0258835, "lat": 38.905033333333336, "rental_uris": {"ios": "https://dc.lft.to/lastmile_qr_scan", "android": "https://dc.lft.to/lastmile_qr_scan"}, "bike_id": "5c1c3853483903decbb939dd0a04b2dd", "type": "electric_scooter", "is_disabled": 0, "fusion_lat": 0.0, "fusion_lon": 0.0, "is_reserved": 0, "name": "5c1c3853483903decbb939dd0a04b2dd"}, {"lon": -77.02624316666666, "lat": 38.8943145, "rental_uris": {"ios": "https://dc.lft.to/lastmile_qr_scan", "android": "https://dc.lft.to/lastmile_qr_scan"}, "bike_id": "77e27f2b9d0f4b6be578b776422fbb8c", "type": "electric_scooter", "is_disabled": 0, "fusion_lat": 0.0, "fusion_lon": 0.0, "is_reserved": 0, "name": "77e27f2b9d0f4b6be578b776422fbb8c"}, {"lon": -77.04173783333333, "lat": 38.90665333333333, "rental_uris": {"ios": "https://dc.lft.to/lastmile_qr_scan", "android": "https://dc.lft.to/lastmile_qr_scan"}, "bike_id": "a1f120940bfcfa01c3afed75429b44ab", "type": "electric_scooter", "is_disabled": 0, "fusion_lat": 0.0, "fusion_lon": 0.0, "is_reserved": 0, "name": "a1f120940bfcfa01c3afed75429b44ab"}, {"lon": -77.02016066666667, "lat": 38.901543333333336, "rental_uris": {"ios": "https://dc.lft.to/lastmile_qr_scan", "android": "https://dc.lft.to/lastmile_qr_scan"}, "bike_id": "6a06e521a6e53139852141e3d43fc6cc", "type": "electric_scooter", "is_disabled": 0, "fusion_lat": 0.0, "fusion_lon": 0.0, "is_reserved": 0, "name": "6a06e521a6e53139852141e3d43fc6cc"}, {"lon": -76.97615966666666, "lat": 38.91292333333333, "rental_uris": {"ios": "https://dc.lft.to/lastmile_qr_scan", "android": "https://dc.lft.to/lastmile_qr_scan"}, "bike_id": "3f72f26b8f88fc1ff9bc3b0b70507286", "type": "electric_scooter", "is_disabled": 0, "fusion_lat": 0.0, "fusion_lon": 0.0, "is_reserved": 0, "name": "3f72f26b8f88fc1ff9bc3b0b70507286"}, {"lon": -77.00197383333334, "lat": 38.90240416666666, "rental_uris": {"ios": "https://dc.lft.to/lastmile_qr_scan", "android": "https://dc.lft.to/lastmile_qr_scan"}, "bike_id": "11d2876e435256624ce90530c69311dc", "type": "electric_scooter", "is_disabled": 0, "fusion_lat": 0.0, "fusion_lon": 0.0, "is_reserved": 0, "name": "11d2876e435256624ce90530c69311dc"}, {"lon": -77.02058983333333, "lat": 38.92194033333333, "rental_uris": {"ios": "https://dc.lft.to/lastmile_qr_scan", "android": "https://dc.lft.to/lastmile_qr_scan"}, "bike_id": "410d7547b0a3c0202c042b05d91ffb91", "type": "electric_scooter", "is_disabled": 0, "fusion_lat": 0.0, "fusion_lon": 0.0, "is_reserved": 0, "name": "410d7547b0a3c0202c042b05d91ffb91"}, {"lon": -77.07818316666666, "lat": 38.9364175, "rental_uris": {"ios": "https://dc.lft.to/lastmile_qr_scan", "android": "https://dc.lft.to/lastmile_qr_scan"}, "bike_id": "bea56a52a8fc43aaf82391e0e36b418f", "type": "electric_bike", "is_disabled": 0, "fusion_lat": 0.0, "fusion_lon": 0.0, "is_reserved": 0, "name": "bea56a52a8fc43aaf82391e0e36b418f"}, {"lon": -77.015446, "lat": 38.902649833333335, "rental_uris": {"ios": "https://dc.lft.to/lastmile_qr_scan", "android": "https://dc.lft.to/lastmile_qr_scan"}, "bike_id": "246122d4d06549a82db7b6d71b594f96", "type": "electric_scooter", "is_disabled": 0, "fusion_lat": 0.0, "fusion_lon": 0.0, "is_reserved": 0, "name": "246122d4d06549a82db7b6d71b594f96"}, {"lon": -76.99419083333333, "lat": 38.92108983333333, "rental_uris": {"ios": "https://dc.lft.to/lastmile_qr_scan", "android": "https://dc.lft.to/lastmile_qr_scan"}, "bike_id": "d36f6b048c41d6666d74618b5272305c", "type": "electric_scooter", "is_disabled": 0, "fusion_lat": 0.0, "fusion_lon": 0.0, "is_reserved": 0, "name": "d36f6b048c41d6666d74618b5272305c"}, {"lon": -76.98839683333334, "lat": 38.842768166666666, "rental_uris": {"ios": "https://dc.lft.to/lastmile_qr_scan", "android": "https://dc.lft.to/lastmile_qr_scan"}, "bike_id": "5daa926429075b1c75850be652d69354", "type": "electric_bike", "is_disabled": 0, "fusion_lat": 0.0, "fusion_lon": 0.0, "is_reserved": 0, "name": "5daa926429075b1c75850be652d69354"}, {"lon": -77.032022, "lat": 38.9071975, "rental_uris": {"ios": "https://dc.lft.to/lastmile_qr_scan", "android": "https://dc.lft.to/lastmile_qr_scan"}, "bike_id": "df429d92a6bcb827f3e629cbd38b3cdd", "type": "electric_scooter", "is_disabled": 0, "fusion_lat": 0.0, "fusion_lon": 0.0, "is_reserved": 0, "name": "df429d92a6bcb827f3e629cbd38b3cdd"}, {"lon": -77.03436016666667, "lat": 38.919397000000004, "rental_uris": {"ios": "https://dc.lft.to/lastmile_qr_scan", "android": "https://dc.lft.to/lastmile_qr_scan"}, "bike_id": "8549e355169ec3f5613995dac17325df", "type": "electric_scooter", "is_disabled": 0, "fusion_lat": 0.0, "fusion_lon": 0.0, "is_reserved": 0, "name": "8549e355169ec3f5613995dac17325df"}, {"lon": -77.04336916666666, "lat": 38.8922745, "rental_uris": {"ios": "https://dc.lft.to/lastmile_qr_scan", "android": "https://dc.lft.to/lastmile_qr_scan"}, "bike_id": "df25feda6c9f51f60abca817c5466425", "type": "electric_scooter", "is_disabled": 0, "fusion_lat": 0.0, "fusion_lon": 0.0, "is_reserved": 0, "name": "df25feda6c9f51f60abca817c5466425"}, {"lon": -77.00338633333334, "lat": 38.89928066666667, "rental_uris": {"ios": "https://dc.lft.to/lastmile_qr_scan", "android": "https://dc.lft.to/lastmile_qr_scan"}, "bike_id": "8d8116fdb002287fedad512cb9c7f9c7", "type": "electric_scooter", "is_disabled": 0, "fusion_lat": 0.0, "fusion_lon": 0.0, "is_reserved": 0, "name": "8d8116fdb002287fedad512cb9c7f9c7"}, {"lon": -77.05916516666667, "lat": 38.90166333333333, "rental_uris": {"ios": "https://dc.lft.to/lastmile_qr_scan", "android": "https://dc.lft.to/lastmile_qr_scan"}, "bike_id": "15213e9f2a2f0b40e8ad6b81ab37b231", "type": "electric_scooter", "is_disabled": 0, "fusion_lat": 0.0, "fusion_lon": 0.0, "is_reserved": 0, "name": "15213e9f2a2f0b40e8ad6b81ab37b231"}, {"lon": -77.03347483333333, "lat": 38.9223355, "rental_uris": {"ios": "https://dc.lft.to/lastmile_qr_scan", "android": "https://dc.lft.to/lastmile_qr_scan"}, "bike_id": "2067b5aa62c511bacdfd6c5988cd62b0", "type": "electric_scooter", "is_disabled": 0, "fusion_lat": 0.0, "fusion_lon": 0.0, "is_reserved": 0, "name": "2067b5aa62c511bacdfd6c5988cd62b0"}, {"lon": -77.01966083333333, "lat": 38.95020866666667, "rental_uris": {"ios": "https://dc.lft.to/lastmile_qr_scan", "android": "https://dc.lft.to/lastmile_qr_scan"}, "bike_id": "9ea0ef39debe304f657328ee20271f94", "type": "electric_scooter", "is_disabled": 0, "fusion_lat": 0.0, "fusion_lon": 0.0, "is_reserved": 0, "name": "9ea0ef39debe304f657328ee20271f94"}, {"lon": -77.05000833333334, "lat": 38.9056225, "rental_uris": {"ios": "https://dc.lft.to/lastmile_qr_scan", "android": "https://dc.lft.to/lastmile_qr_scan"}, "bike_id": "a78be70d5c30a284162f6a6e9dbdf1e7", "type": "electric_scooter", "is_disabled": 0, "fusion_lat": 0.0, "fusion_lon": 0.0, "is_reserved": 0, "name": "a78be70d5c30a284162f6a6e9dbdf1e7"}, {"lon": -76.95404233333333, "lat": 38.884722, "rental_uris": {"ios": "https://dc.lft.to/lastmile_qr_scan", "android": "https://dc.lft.to/lastmile_qr_scan"}, "bike_id": "c0e0ea0104dbe23158d8efd09bfcc9bd", "type": "electric_scooter", "is_disabled": 0, "fusion_lat": 0.0, "fusion_lon": 0.0, "is_reserved": 0, "name": "c0e0ea0104dbe23158d8efd09bfcc9bd"}, {"lon": -77.02212783333333, "lat": 38.91041166666667, "rental_uris": {"ios": "https://dc.lft.to/lastmile_qr_scan", "android": "https://dc.lft.to/lastmile_qr_scan"}, "bike_id": "e13d11250ff56fe61134a008a4f29592", "type": "electric_scooter", "is_disabled": 0, "fusion_lat": 0.0, "fusion_lon": 0.0, "is_reserved": 0, "name": "e13d11250ff56fe61134a008a4f29592"}, {"lon": -76.98711833333333, "lat": 38.86629766666667, "rental_uris": {"ios": "https://dc.lft.to/lastmile_qr_scan", "android": "https://dc.lft.to/lastmile_qr_scan"}, "bike_id": "95a9de393ad724df240a3a1beb5a3a26", "type": "electric_scooter", "is_disabled": 0, "fusion_lat": 0.0, "fusion_lon": 0.0, "is_reserved": 0, "name": "95a9de393ad724df240a3a1beb5a3a26"}, {"lon": -77.0283275, "lat": 38.887317333333336, "rental_uris": {"ios": "https://dc.lft.to/lastmile_qr_scan", "android": "https://dc.lft.to/lastmile_qr_scan"}, "bike_id": "d09af7984cf4d866b83aa7331ceec255", "type": "electric_scooter", "is_disabled": 0, "fusion_lat": 0.0, "fusion_lon": 0.0, "is_reserved": 0, "name": "d09af7984cf4d866b83aa7331ceec255"}, {"lon": -76.917997, "lat": 39.000003666666665, "rental_uris": {"ios": "https://dc.lft.to/lastmile_qr_scan", "android": "https://dc.lft.to/lastmile_qr_scan"}, "bike_id": "ade1519dac92b73d690e945cf070bda7", "type": "electric_bike", "is_disabled": 0, "fusion_lat": 0.0, "fusion_lon": 0.0, "is_reserved": 0, "name": "ade1519dac92b73d690e945cf070bda7"}, {"lon": -77.02707083333334, "lat": 38.90670083333333, "rental_uris": {"ios": "https://dc.lft.to/lastmile_qr_scan", "android": "https://dc.lft.to/lastmile_qr_scan"}, "bike_id": "6d647be92aa4567f245abeea9c94d157", "type": "electric_scooter", "is_disabled": 0, "fusion_lat": 0.0, "fusion_lon": 0.0, "is_reserved": 0, "name": "6d647be92aa4567f245abeea9c94d157"}, {"lon": -76.99340983333333, "lat": 38.920453333333334, "rental_uris": {"ios": "https://dc.lft.to/lastmile_qr_scan", "android": "https://dc.lft.to/lastmile_qr_scan"}, "bike_id": "027d1ea1edffd2c9dfdcf55d7d171947", "type": "electric_bike", "is_disabled": 0, "fusion_lat": 0.0, "fusion_lon": 0.0, "is_reserved": 0, "name": "027d1ea1edffd2c9dfdcf55d7d171947"}, {"lon": -77.04184233333334, "lat": 38.89960966666666, "rental_uris": {"ios": "https://dc.lft.to/lastmile_qr_scan", "android": "https://dc.lft.to/lastmile_qr_scan"}, "bike_id": "bc75442c21ca2ff703eeb6db4fad6674", "type": "electric_scooter", "is_disabled": 0, "fusion_lat": 0.0, "fusion_lon": 0.0, "is_reserved": 0, "name": "bc75442c21ca2ff703eeb6db4fad6674"}, {"lon": -77.05051816666666, "lat": 38.90537066666667, "rental_uris": {"ios": "https://dc.lft.to/lastmile_qr_scan", "android": "https://dc.lft.to/lastmile_qr_scan"}, "bike_id": "f096c073d84194c50293ebb8e44d55a6", "type": "electric_scooter", "is_disabled": 0, "fusion_lat": 0.0, "fusion_lon": 0.0, "is_reserved": 0, "name": "f096c073d84194c50293ebb8e44d55a6"}, {"lon": -77.003348, "lat": 38.89357533333333, "rental_uris": {"ios": "https://dc.lft.to/lastmile_qr_scan", "android": "https://dc.lft.to/lastmile_qr_scan"}, "bike_id": "cfc0574746f4fd0b0f21ec4c71c370ce", "type": "electric_scooter", "is_disabled": 0, "fusion_lat": 0.0, "fusion_lon": 0.0, "is_reserved": 0, "name": "cfc0574746f4fd0b0f21ec4c71c370ce"}, {"lon": -76.97396483333333, "lat": 38.9029735, "rental_uris": {"ios": "https://dc.lft.to/lastmile_qr_scan", "android": "https://dc.lft.to/lastmile_qr_scan"}, "bike_id": "0bb847037ba6f62b071d90ea027c94e5", "type": "electric_scooter", "is_disabled": 0, "fusion_lat": 0.0, "fusion_lon": 0.0, "is_reserved": 0, "name": "0bb847037ba6f62b071d90ea027c94e5"}, {"lon": -77.03910633333334, "lat": 38.91870766666667, "rental_uris": {"ios": "https://dc.lft.to/lastmile_qr_scan", "android": "https://dc.lft.to/lastmile_qr_scan"}, "bike_id": "e1c2abc0f8d806698b59c70afa39747b", "type": "electric_scooter", "is_disabled": 0, "fusion_lat": 0.0, "fusion_lon": 0.0, "is_reserved": 0, "name": "e1c2abc0f8d806698b59c70afa39747b"}, {"lon": -77.07422583333333, "lat": 38.928876833333334, "rental_uris": {"ios": "https://dc.lft.to/lastmile_qr_scan", "android": "https://dc.lft.to/lastmile_qr_scan"}, "bike_id": "e8a8251149791b67ecfe6f15ab3fc1c1", "type": "electric_scooter", "is_disabled": 0, "fusion_lat": 0.0, "fusion_lon": 0.0, "is_reserved": 0, "name": "e8a8251149791b67ecfe6f15ab3fc1c1"}, {"lon": -77.02619833333334, "lat": 38.898322666666665, "rental_uris": {"ios": "https://dc.lft.to/lastmile_qr_scan", "android": "https://dc.lft.to/lastmile_qr_scan"}, "bike_id": "4a09eef6fd333b77a5728355d0ed2cb1", "type": "electric_scooter", "is_disabled": 0, "fusion_lat": 0.0, "fusion_lon": 0.0, "is_reserved": 0, "name": "4a09eef6fd333b77a5728355d0ed2cb1"}, {"lon": -76.9860015, "lat": 38.90014016666667, "rental_uris": {"ios": "https://dc.lft.to/lastmile_qr_scan", "android": "https://dc.lft.to/lastmile_qr_scan"}, "bike_id": "df41e1449e1941040a4120f4de63f39f", "type": "electric_scooter", "is_disabled": 0, "fusion_lat": 0.0, "fusion_lon": 0.0, "is_reserved": 0, "name": "df41e1449e1941040a4120f4de63f39f"}, {"lon": -77.02291316666667, "lat": 38.916285, "rental_uris": {"ios": "https://dc.lft.to/lastmile_qr_scan", "android": "https://dc.lft.to/lastmile_qr_scan"}, "bike_id": "39f78b0dea8d15e13fa8feb49526141f", "type": "electric_scooter", "is_disabled": 0, "fusion_lat": 0.0, "fusion_lon": 0.0, "is_reserved": 0, "name": "39f78b0dea8d15e13fa8feb49526141f"}, {"lon": -77.03890883333334, "lat": 38.90640966666667, "rental_uris": {"ios": "https://dc.lft.to/lastmile_qr_scan", "android": "https://dc.lft.to/lastmile_qr_scan"}, "bike_id": "ebc42cd3f53b8fc2215128106a1691b3", "type": "electric_scooter", "is_disabled": 0, "fusion_lat": 0.0, "fusion_lon": 0.0, "is_reserved": 0, "name": "ebc42cd3f53b8fc2215128106a1691b3"}, {"lon": -76.98923066666667, "lat": 38.86492616666666, "rental_uris": {"ios": "https://dc.lft.to/lastmile_qr_scan", "android": "https://dc.lft.to/lastmile_qr_scan"}, "bike_id": "f87d52e4ba1da6bd40b1b67736761aab", "type": "electric_scooter", "is_disabled": 0, "fusion_lat": 0.0, "fusion_lon": 0.0, "is_reserved": 0, "name": "f87d52e4ba1da6bd40b1b67736761aab"}, {"lon": -76.93479683333334, "lat": 38.90586183333333, "rental_uris": {"ios": "https://dc.lft.to/lastmile_qr_scan", "android": "https://dc.lft.to/lastmile_qr_scan"}, "bike_id": "3a48b3d4ca815a3e85c29545719cc1cf", "type": "electric_scooter", "is_disabled": 0, "fusion_lat": 0.0, "fusion_lon": 0.0, "is_reserved": 0, "name": "3a48b3d4ca815a3e85c29545719cc1cf"}, {"lon": -77.0337365, "lat": 38.89235716666666, "rental_uris": {"ios": "https://dc.lft.to/lastmile_qr_scan", "android": "https://dc.lft.to/lastmile_qr_scan"}, "bike_id": "10dde5e70022fd39994f2780b3998c93", "type": "electric_scooter", "is_disabled": 0, "fusion_lat": 0.0, "fusion_lon": 0.0, "is_reserved": 0, "name": "10dde5e70022fd39994f2780b3998c93"}, {"lon": -77.063447, "lat": 38.907386833333334, "rental_uris": {"ios": "https://dc.lft.to/lastmile_qr_scan", "android": "https://dc.lft.to/lastmile_qr_scan"}, "bike_id": "6c20cae2434ebcde11d0be5d5f265ec0", "type": "electric_scooter", "is_disabled": 0, "fusion_lat": 0.0, "fusion_lon": 0.0, "is_reserved": 0, "name": "6c20cae2434ebcde11d0be5d5f265ec0"}, {"lon": -76.94595066666666, "lat": 38.901508666666665, "rental_uris": {"ios": "https://dc.lft.to/lastmile_qr_scan", "android": "https://dc.lft.to/lastmile_qr_scan"}, "bike_id": "c5a82832d27be8809b53c9830a47fe6d", "type": "electric_scooter", "is_disabled": 0, "fusion_lat": 0.0, "fusion_lon": 0.0, "is_reserved": 0, "name": "c5a82832d27be8809b53c9830a47fe6d"}, {"lon": -77.01245116666666, "lat": 38.9157195, "rental_uris": {"ios": "https://dc.lft.to/lastmile_qr_scan", "android": "https://dc.lft.to/lastmile_qr_scan"}, "bike_id": "6f2b87f1b7b8e77bef6ec8b85757a0f6", "type": "electric_scooter", "is_disabled": 0, "fusion_lat": 0.0, "fusion_lon": 0.0, "is_reserved": 0, "name": "6f2b87f1b7b8e77bef6ec8b85757a0f6"}, {"lon": -77.01817033333333, "lat": 38.93042116666667, "rental_uris": {"ios": "https://dc.lft.to/lastmile_qr_scan", "android": "https://dc.lft.to/lastmile_qr_scan"}, "bike_id": "fd21a786b5373929fe5faa5035ba8233", "type": "electric_scooter", "is_disabled": 0, "fusion_lat": 0.0, "fusion_lon": 0.0, "is_reserved": 0, "name": "fd21a786b5373929fe5faa5035ba8233"}, {"lon": -77.02433183333333, "lat": 38.9309035, "rental_uris": {"ios": "https://dc.lft.to/lastmile_qr_scan", "android": "https://dc.lft.to/lastmile_qr_scan"}, "bike_id": "fae85071252569d70a5f599f06a83c6b", "type": "electric_scooter", "is_disabled": 0, "fusion_lat": 0.0, "fusion_lon": 0.0, "is_reserved": 0, "name": "fae85071252569d70a5f599f06a83c6b"}, {"lon": -77.0399885, "lat": 38.934349, "rental_uris": {"ios": "https://dc.lft.to/lastmile_qr_scan", "android": "https://dc.lft.to/lastmile_qr_scan"}, "bike_id": "00fcdc7311ceec6d3f53a1569c5dc9a1", "type": "electric_scooter", "is_disabled": 0, "fusion_lat": 0.0, "fusion_lon": 0.0, "is_reserved": 0, "name": "00fcdc7311ceec6d3f53a1569c5dc9a1"}, {"lon": -77.027113, "lat": 38.924700333333334, "rental_uris": {"ios": "https://dc.lft.to/lastmile_qr_scan", "android": "https://dc.lft.to/lastmile_qr_scan"}, "bike_id": "476701181fa897b3de07a0b468c31bef", "type": "electric_scooter", "is_disabled": 0, "fusion_lat": 0.0, "fusion_lon": 0.0, "is_reserved": 0, "name": "476701181fa897b3de07a0b468c31bef"}, {"lon": -76.98014733333333, "lat": 38.90084066666667, "rental_uris": {"ios": "https://dc.lft.to/lastmile_qr_scan", "android": "https://dc.lft.to/lastmile_qr_scan"}, "bike_id": "dfa4dd8e455bea622e293a07276ca7d7", "type": "electric_scooter", "is_disabled": 0, "fusion_lat": 0.0, "fusion_lon": 0.0, "is_reserved": 0, "name": "dfa4dd8e455bea622e293a07276ca7d7"}, {"lon": -77.03857633333334, "lat": 38.90822333333333, "rental_uris": {"ios": "https://dc.lft.to/lastmile_qr_scan", "android": "https://dc.lft.to/lastmile_qr_scan"}, "bike_id": "290634bd9521124155e3c58255ff77c3", "type": "electric_scooter", "is_disabled": 0, "fusion_lat": 0.0, "fusion_lon": 0.0, "is_reserved": 0, "name": "290634bd9521124155e3c58255ff77c3"}, {"lon": -77.0302285, "lat": 38.90490616666666, "rental_uris": {"ios": "https://dc.lft.to/lastmile_qr_scan", "android": "https://dc.lft.to/lastmile_qr_scan"}, "bike_id": "40ddc1b17f3e12bad982e22a94818cc3", "type": "electric_scooter", "is_disabled": 0, "fusion_lat": 0.0, "fusion_lon": 0.0, "is_reserved": 0, "name": "40ddc1b17f3e12bad982e22a94818cc3"}, {"lon": -77.00054466666667, "lat": 38.9000585, "rental_uris": {"ios": "https://dc.lft.to/lastmile_qr_scan", "android": "https://dc.lft.to/lastmile_qr_scan"}, "bike_id": "88f958d9cf3cbbbb3e5be6e08cd4cf16", "type": "electric_scooter", "is_disabled": 0, "fusion_lat": 0.0, "fusion_lon": 0.0, "is_reserved": 0, "name": "88f958d9cf3cbbbb3e5be6e08cd4cf16"}, {"lon": -76.97296483333334, "lat": 38.9164705, "rental_uris": {"ios": "https://dc.lft.to/lastmile_qr_scan", "android": "https://dc.lft.to/lastmile_qr_scan"}, "bike_id": "2e617987bfe8a2b85c97e403a2fadb15", "type": "electric_bike", "is_disabled": 0, "fusion_lat": 0.0, "fusion_lon": 0.0, "is_reserved": 0, "name": "2e617987bfe8a2b85c97e403a2fadb15"}, {"lon": -77.23330283333334, "lat": 38.87276933333333, "rental_uris": {"ios": "https://dc.lft.to/lastmile_qr_scan", "android": "https://dc.lft.to/lastmile_qr_scan"}, "bike_id": "a692ff0fab553e41afe6771e14b543dd", "type": "electric_bike", "is_disabled": 0, "fusion_lat": 0.0, "fusion_lon": 0.0, "is_reserved": 0, "name": "a692ff0fab553e41afe6771e14b543dd"}, {"lon": -77.02130766666667, "lat": 38.92414083333333, "rental_uris": {"ios": "https://dc.lft.to/lastmile_qr_scan", "android": "https://dc.lft.to/lastmile_qr_scan"}, "bike_id": "337f357c0d1b0671002fbc2ad98e77c4", "type": "electric_scooter", "is_disabled": 0, "fusion_lat": 0.0, "fusion_lon": 0.0, "is_reserved": 0, "name": "337f357c0d1b0671002fbc2ad98e77c4"}, {"lon": -77.04482733333333, "lat": 38.9242385, "rental_uris": {"ios": "https://dc.lft.to/lastmile_qr_scan", "android": "https://dc.lft.to/lastmile_qr_scan"}, "bike_id": "9359ab81810afa80b64e7c6c8ff66802", "type": "electric_scooter", "is_disabled": 0, "fusion_lat": 0.0, "fusion_lon": 0.0, "is_reserved": 0, "name": "9359ab81810afa80b64e7c6c8ff66802"}, {"lon": -77.0485595, "lat": 38.90579616666667, "rental_uris": {"ios": "https://dc.lft.to/lastmile_qr_scan", "android": "https://dc.lft.to/lastmile_qr_scan"}, "bike_id": "d593482f65adfd30e03b411175a2b3fb", "type": "electric_scooter", "is_disabled": 0, "fusion_lat": 0.0, "fusion_lon": 0.0, "is_reserved": 0, "name": "d593482f65adfd30e03b411175a2b3fb"}, {"lon": -77.02813833333333, "lat": 38.9169235, "rental_uris": {"ios": "https://dc.lft.to/lastmile_qr_scan", "android": "https://dc.lft.to/lastmile_qr_scan"}, "bike_id": "fce979ca12da11303edd4a1c3701e707", "type": "electric_scooter", "is_disabled": 0, "fusion_lat": 0.0, "fusion_lon": 0.0, "is_reserved": 0, "name": "fce979ca12da11303edd4a1c3701e707"}, {"lon": -76.985339, "lat": 38.853593000000004, "rental_uris": {"ios": "https://dc.lft.to/lastmile_qr_scan", "android": "https://dc.lft.to/lastmile_qr_scan"}, "bike_id": "2a649251db9bb57f2e341a56e7f6de23", "type": "electric_scooter", "is_disabled": 0, "fusion_lat": 0.0, "fusion_lon": 0.0, "is_reserved": 0, "name": "2a649251db9bb57f2e341a56e7f6de23"}, {"lon": -77.03175433333334, "lat": 38.90376116666667, "rental_uris": {"ios": "https://dc.lft.to/lastmile_qr_scan", "android": "https://dc.lft.to/lastmile_qr_scan"}, "bike_id": "262952d5467fbce7bcf1bce6c2a0b695", "type": "electric_scooter", "is_disabled": 0, "fusion_lat": 0.0, "fusion_lon": 0.0, "is_reserved": 0, "name": "262952d5467fbce7bcf1bce6c2a0b695"}, {"lon": -76.93754733333333, "lat": 38.89050116666667, "rental_uris": {"ios": "https://dc.lft.to/lastmile_qr_scan", "android": "https://dc.lft.to/lastmile_qr_scan"}, "bike_id": "414051cb287048c1e36b781d75be7cb9", "type": "electric_scooter", "is_disabled": 0, "fusion_lat": 0.0, "fusion_lon": 0.0, "is_reserved": 0, "name": "414051cb287048c1e36b781d75be7cb9"}, {"lon": -77.02882233333334, "lat": 38.904215, "rental_uris": {"ios": "https://dc.lft.to/lastmile_qr_scan", "android": "https://dc.lft.to/lastmile_qr_scan"}, "bike_id": "0ee3001ec4b5d65efb0fa9b5b526298e", "type": "electric_scooter", "is_disabled": 0, "fusion_lat": 0.0, "fusion_lon": 0.0, "is_reserved": 0, "name": "0ee3001ec4b5d65efb0fa9b5b526298e"}, {"lon": -77.04311, "lat": 38.91880483333333, "rental_uris": {"ios": "https://dc.lft.to/lastmile_qr_scan", "android": "https://dc.lft.to/lastmile_qr_scan"}, "bike_id": "1385b4e9d4d94ea154e04a90bf253eef", "type": "electric_scooter", "is_disabled": 0, "fusion_lat": 0.0, "fusion_lon": 0.0, "is_reserved": 0, "name": "1385b4e9d4d94ea154e04a90bf253eef"}, {"lon": -77.00887183333333, "lat": 38.92279, "rental_uris": {"ios": "https://dc.lft.to/lastmile_qr_scan", "android": "https://dc.lft.to/lastmile_qr_scan"}, "bike_id": "34239db9f8d92928100b72bd2a8b0c75", "type": "electric_scooter", "is_disabled": 0, "fusion_lat": 0.0, "fusion_lon": 0.0, "is_reserved": 0, "name": "34239db9f8d92928100b72bd2a8b0c75"}, {"lon": -77.06240566666666, "lat": 38.9437145, "rental_uris": {"ios": "https://dc.lft.to/lastmile_qr_scan", "android": "https://dc.lft.to/lastmile_qr_scan"}, "bike_id": "d826686e1a83eecb72d7ae74d67e5aaa", "type": "electric_bike", "is_disabled": 0, "fusion_lat": 0.0, "fusion_lon": 0.0, "is_reserved": 0, "name": "d826686e1a83eecb72d7ae74d67e5aaa"}, {"lon": -77.0216075, "lat": 38.903074833333335, "rental_uris": {"ios": "https://dc.lft.to/lastmile_qr_scan", "android": "https://dc.lft.to/lastmile_qr_scan"}, "bike_id": "09859859360767f3fe20800ea7146ab1", "type": "electric_scooter", "is_disabled": 0, "fusion_lat": 0.0, "fusion_lon": 0.0, "is_reserved": 0, "name": "09859859360767f3fe20800ea7146ab1"}, {"lon": -77.0240935, "lat": 38.89780583333334, "rental_uris": {"ios": "https://dc.lft.to/lastmile_qr_scan", "android": "https://dc.lft.to/lastmile_qr_scan"}, "bike_id": "25a9dead0f80374f32c4508555b1df3f", "type": "electric_scooter", "is_disabled": 0, "fusion_lat": 0.0, "fusion_lon": 0.0, "is_reserved": 0, "name": "25a9dead0f80374f32c4508555b1df3f"}, {"lon": -77.032124, "lat": 38.916517166666665, "rental_uris": {"ios": "https://dc.lft.to/lastmile_qr_scan", "android": "https://dc.lft.to/lastmile_qr_scan"}, "bike_id": "bb5437825346ce144ba5286abd840a9f", "type": "electric_scooter", "is_disabled": 0, "fusion_lat": 0.0, "fusion_lon": 0.0, "is_reserved": 0, "name": "bb5437825346ce144ba5286abd840a9f"}, {"lon": -77.02229633333333, "lat": 38.8922295, "rental_uris": {"ios": "https://dc.lft.to/lastmile_qr_scan", "android": "https://dc.lft.to/lastmile_qr_scan"}, "bike_id": "256391695a0da3aa857d28fd0c22c576", "type": "electric_scooter", "is_disabled": 0, "fusion_lat": 0.0, "fusion_lon": 0.0, "is_reserved": 0, "name": "256391695a0da3aa857d28fd0c22c576"}, {"lon": -76.986557, "lat": 38.86718883333333, "rental_uris": {"ios": "https://dc.lft.to/lastmile_qr_scan", "android": "https://dc.lft.to/lastmile_qr_scan"}, "bike_id": "4fe0367d0a966e77fe44ea2029c36d51", "type": "electric_scooter", "is_disabled": 0, "fusion_lat": 0.0, "fusion_lon": 0.0, "is_reserved": 0, "name": "4fe0367d0a966e77fe44ea2029c36d51"}, {"lon": -76.945348, "lat": 38.867576666666665, "rental_uris": {"ios": "https://dc.lft.to/lastmile_qr_scan", "android": "https://dc.lft.to/lastmile_qr_scan"}, "bike_id": "4cf53d5d01815cc15aca8e79a2d425a0", "type": "electric_bike", "is_disabled": 0, "fusion_lat": 0.0, "fusion_lon": 0.0, "is_reserved": 0, "name": "4cf53d5d01815cc15aca8e79a2d425a0"}, {"lon": -77.00665516666666, "lat": 38.90033833333333, "rental_uris": {"ios": "https://dc.lft.to/lastmile_qr_scan", "android": "https://dc.lft.to/lastmile_qr_scan"}, "bike_id": "121bd8f988731a2d535fd77a4db53cd2", "type": "electric_scooter", "is_disabled": 0, "fusion_lat": 0.0, "fusion_lon": 0.0, "is_reserved": 0, "name": "121bd8f988731a2d535fd77a4db53cd2"}, {"lon": -77.00051933333333, "lat": 38.896301, "rental_uris": {"ios": "https://dc.lft.to/lastmile_qr_scan", "android": "https://dc.lft.to/lastmile_qr_scan"}, "bike_id": "b2aa6aeb76dcd9102b7154c1190debff", "type": "electric_scooter", "is_disabled": 0, "fusion_lat": 0.0, "fusion_lon": 0.0, "is_reserved": 0, "name": "b2aa6aeb76dcd9102b7154c1190debff"}, {"lon": -76.9547265, "lat": 38.8864335, "rental_uris": {"ios": "https://dc.lft.to/lastmile_qr_scan", "android": "https://dc.lft.to/lastmile_qr_scan"}, "bike_id": "99923321235d5445f0491a511538eba9", "type": "electric_scooter", "is_disabled": 0, "fusion_lat": 0.0, "fusion_lon": 0.0, "is_reserved": 0, "name": "99923321235d5445f0491a511538eba9"}, {"lon": -77.04360666666666, "lat": 38.911213833333335, "rental_uris": {"ios": "https://dc.lft.to/lastmile_qr_scan", "android": "https://dc.lft.to/lastmile_qr_scan"}, "bike_id": "940b6ac8eaa70877503d3c99f0ba7f08", "type": "electric_scooter", "is_disabled": 0, "fusion_lat": 0.0, "fusion_lon": 0.0, "is_reserved": 0, "name": "940b6ac8eaa70877503d3c99f0ba7f08"}, {"lon": -77.04332183333334, "lat": 38.9056425, "rental_uris": {"ios": "https://dc.lft.to/lastmile_qr_scan", "android": "https://dc.lft.to/lastmile_qr_scan"}, "bike_id": "4ec39b314a0aae791d594e5f0118ae6a", "type": "electric_scooter", "is_disabled": 0, "fusion_lat": 0.0, "fusion_lon": 0.0, "is_reserved": 0, "name": "4ec39b314a0aae791d594e5f0118ae6a"}, {"lon": -77.0450445, "lat": 38.9097205, "rental_uris": {"ios": "https://dc.lft.to/lastmile_qr_scan", "android": "https://dc.lft.to/lastmile_qr_scan"}, "bike_id": "0161e3add05593ac27c8b95f17da5206", "type": "electric_scooter", "is_disabled": 0, "fusion_lat": 0.0, "fusion_lon": 0.0, "is_reserved": 0, "name": "0161e3add05593ac27c8b95f17da5206"}, {"lon": -77.02295766666667, "lat": 38.901746, "rental_uris": {"ios": "https://dc.lft.to/lastmile_qr_scan", "android": "https://dc.lft.to/lastmile_qr_scan"}, "bike_id": "9f80f58082c5015265e4d5a17b972dae", "type": "electric_scooter", "is_disabled": 0, "fusion_lat": 0.0, "fusion_lon": 0.0, "is_reserved": 0, "name": "9f80f58082c5015265e4d5a17b972dae"}, {"lon": -77.0324925, "lat": 38.909616666666665, "rental_uris": {"ios": "https://dc.lft.to/lastmile_qr_scan", "android": "https://dc.lft.to/lastmile_qr_scan"}, "bike_id": "96dcaa54b486a1b35e8411d2ad8c8413", "type": "electric_scooter", "is_disabled": 0, "fusion_lat": 0.0, "fusion_lon": 0.0, "is_reserved": 0, "name": "96dcaa54b486a1b35e8411d2ad8c8413"}, {"lon": -77.0039905, "lat": 38.911107666666666, "rental_uris": {"ios": "https://dc.lft.to/lastmile_qr_scan", "android": "https://dc.lft.to/lastmile_qr_scan"}, "bike_id": "2617b607cf4e4ba8c6582a1eb2d88283", "type": "electric_scooter", "is_disabled": 0, "fusion_lat": 0.0, "fusion_lon": 0.0, "is_reserved": 0, "name": "2617b607cf4e4ba8c6582a1eb2d88283"}, {"lon": -77.04327133333334, "lat": 38.892235666666664, "rental_uris": {"ios": "https://dc.lft.to/lastmile_qr_scan", "android": "https://dc.lft.to/lastmile_qr_scan"}, "bike_id": "e9cd71f38a22b66c7f7a6bfa783ce381", "type": "electric_scooter", "is_disabled": 0, "fusion_lat": 0.0, "fusion_lon": 0.0, "is_reserved": 0, "name": "e9cd71f38a22b66c7f7a6bfa783ce381"}, {"lon": -77.07703916666667, "lat": 38.8408965, "rental_uris": {"ios": "https://dc.lft.to/lastmile_qr_scan", "android": "https://dc.lft.to/lastmile_qr_scan"}, "bike_id": "9ab4de141840de2125b352bc6d4b7b9a", "type": "electric_bike", "is_disabled": 0, "fusion_lat": 0.0, "fusion_lon": 0.0, "is_reserved": 0, "name": "9ab4de141840de2125b352bc6d4b7b9a"}, {"lon": -77.040014, "lat": 38.91811883333333, "rental_uris": {"ios": "https://dc.lft.to/lastmile_qr_scan", "android": "https://dc.lft.to/lastmile_qr_scan"}, "bike_id": "d5818b66cce1981577be8243db886c1b", "type": "electric_scooter", "is_disabled": 0, "fusion_lat": 0.0, "fusion_lon": 0.0, "is_reserved": 0, "name": "d5818b66cce1981577be8243db886c1b"}, {"lon": -77.027152, "lat": 38.9169355, "rental_uris": {"ios": "https://dc.lft.to/lastmile_qr_scan", "android": "https://dc.lft.to/lastmile_qr_scan"}, "bike_id": "f7d5748cc0eb0c51fa6a4263bef673a4", "type": "electric_scooter", "is_disabled": 0, "fusion_lat": 0.0, "fusion_lon": 0.0, "is_reserved": 0, "name": "f7d5748cc0eb0c51fa6a4263bef673a4"}, {"lon": -76.9575745, "lat": 38.8843695, "rental_uris": {"ios": "https://dc.lft.to/lastmile_qr_scan", "android": "https://dc.lft.to/lastmile_qr_scan"}, "bike_id": "97cf517bea1f92d24084416a0a6750c5", "type": "electric_scooter", "is_disabled": 0, "fusion_lat": 0.0, "fusion_lon": 0.0, "is_reserved": 0, "name": "97cf517bea1f92d24084416a0a6750c5"}, {"lon": -76.97641133333333, "lat": 38.86457583333333, "rental_uris": {"ios": "https://dc.lft.to/lastmile_qr_scan", "android": "https://dc.lft.to/lastmile_qr_scan"}, "bike_id": "d30e76f190e56a72fb20ec88b4664ad2", "type": "electric_scooter", "is_disabled": 0, "fusion_lat": 0.0, "fusion_lon": 0.0, "is_reserved": 0, "name": "d30e76f190e56a72fb20ec88b4664ad2"}, {"lon": -77.00922066666666, "lat": 38.89608416666667, "rental_uris": {"ios": "https://dc.lft.to/lastmile_qr_scan", "android": "https://dc.lft.to/lastmile_qr_scan"}, "bike_id": "57990924832dc415a4e65097cac6984d", "type": "electric_scooter", "is_disabled": 0, "fusion_lat": 0.0, "fusion_lon": 0.0, "is_reserved": 0, "name": "57990924832dc415a4e65097cac6984d"}, {"lon": -76.99931683333334, "lat": 38.9076445, "rental_uris": {"ios": "https://dc.lft.to/lastmile_qr_scan", "android": "https://dc.lft.to/lastmile_qr_scan"}, "bike_id": "758a94e45345dbd99a710d51085018a0", "type": "electric_scooter", "is_disabled": 0, "fusion_lat": 0.0, "fusion_lon": 0.0, "is_reserved": 0, "name": "758a94e45345dbd99a710d51085018a0"}, {"lon": -77.04863116666667, "lat": 38.892221, "rental_uris": {"ios": "https://dc.lft.to/lastmile_qr_scan", "android": "https://dc.lft.to/lastmile_qr_scan"}, "bike_id": "c4d231eff05c462c343470715e1a6007", "type": "electric_scooter", "is_disabled": 0, "fusion_lat": 0.0, "fusion_lon": 0.0, "is_reserved": 0, "name": "c4d231eff05c462c343470715e1a6007"}, {"lon": -77.03002383333333, "lat": 38.92041116666667, "rental_uris": {"ios": "https://dc.lft.to/lastmile_qr_scan", "android": "https://dc.lft.to/lastmile_qr_scan"}, "bike_id": "dfc6ad8daaad035840bfb56317a9fd91", "type": "electric_scooter", "is_disabled": 0, "fusion_lat": 0.0, "fusion_lon": 0.0, "is_reserved": 0, "name": "dfc6ad8daaad035840bfb56317a9fd91"}, {"lon": -77.04340533333334, "lat": 38.9076535, "rental_uris": {"ios": "https://dc.lft.to/lastmile_qr_scan", "android": "https://dc.lft.to/lastmile_qr_scan"}, "bike_id": "0e1ab3294708d220c5ef125b32616ef0", "type": "electric_scooter", "is_disabled": 0, "fusion_lat": 0.0, "fusion_lon": 0.0, "is_reserved": 0, "name": "0e1ab3294708d220c5ef125b32616ef0"}, {"lon": -77.04337166666667, "lat": 38.9035215, "rental_uris": {"ios": "https://dc.lft.to/lastmile_qr_scan", "android": "https://dc.lft.to/lastmile_qr_scan"}, "bike_id": "d6feed968b1f9aad6b5f5633c77db2e5", "type": "electric_scooter", "is_disabled": 0, "fusion_lat": 0.0, "fusion_lon": 0.0, "is_reserved": 0, "name": "d6feed968b1f9aad6b5f5633c77db2e5"}, {"lon": -77.02119516666667, "lat": 38.922402, "rental_uris": {"ios": "https://dc.lft.to/lastmile_qr_scan", "android": "https://dc.lft.to/lastmile_qr_scan"}, "bike_id": "0e893afa51e28978e113ff5b8afd43d2", "type": "electric_scooter", "is_disabled": 0, "fusion_lat": 0.0, "fusion_lon": 0.0, "is_reserved": 0, "name": "0e893afa51e28978e113ff5b8afd43d2"}, {"lon": -77.0317605, "lat": 38.91804333333333, "rental_uris": {"ios": "https://dc.lft.to/lastmile_qr_scan", "android": "https://dc.lft.to/lastmile_qr_scan"}, "bike_id": "7f803d9902e97dcb89bb10cbbc34a0a3", "type": "electric_scooter", "is_disabled": 0, "fusion_lat": 0.0, "fusion_lon": 0.0, "is_reserved": 0, "name": "7f803d9902e97dcb89bb10cbbc34a0a3"}, {"lon": -76.99508066666667, "lat": 38.878370833333335, "rental_uris": {"ios": "https://dc.lft.to/lastmile_qr_scan", "android": "https://dc.lft.to/lastmile_qr_scan"}, "bike_id": "46b8614875582a1844e72f633cedb885", "type": "electric_scooter", "is_disabled": 0, "fusion_lat": 0.0, "fusion_lon": 0.0, "is_reserved": 0, "name": "46b8614875582a1844e72f633cedb885"}, {"lon": -77.05320616666667, "lat": 38.915542333333335, "rental_uris": {"ios": "https://dc.lft.to/lastmile_qr_scan", "android": "https://dc.lft.to/lastmile_qr_scan"}, "bike_id": "04cf0ee58c01e517ad35f6061d133632", "type": "electric_scooter", "is_disabled": 0, "fusion_lat": 0.0, "fusion_lon": 0.0, "is_reserved": 0, "name": "04cf0ee58c01e517ad35f6061d133632"}, {"lon": -77.06354716666667, "lat": 38.90683833333333, "rental_uris": {"ios": "https://dc.lft.to/lastmile_qr_scan", "android": "https://dc.lft.to/lastmile_qr_scan"}, "bike_id": "360050e8583b4576116e7be0c1bef7be", "type": "electric_scooter", "is_disabled": 0, "fusion_lat": 0.0, "fusion_lon": 0.0, "is_reserved": 0, "name": "360050e8583b4576116e7be0c1bef7be"}, {"lon": -76.95195266666667, "lat": 38.900019, "rental_uris": {"ios": "https://dc.lft.to/lastmile_qr_scan", "android": "https://dc.lft.to/lastmile_qr_scan"}, "bike_id": "9dc83f0141b7bf49fdfca2ebc6d72f45", "type": "electric_scooter", "is_disabled": 0, "fusion_lat": 0.0, "fusion_lon": 0.0, "is_reserved": 0, "name": "9dc83f0141b7bf49fdfca2ebc6d72f45"}, {"lon": -76.93367816666667, "lat": 38.899154833333334, "rental_uris": {"ios": "https://dc.lft.to/lastmile_qr_scan", "android": "https://dc.lft.to/lastmile_qr_scan"}, "bike_id": "ac205dddcec96f60ddd6b25e4bc78a6b", "type": "electric_scooter", "is_disabled": 0, "fusion_lat": 0.0, "fusion_lon": 0.0, "is_reserved": 0, "name": "ac205dddcec96f60ddd6b25e4bc78a6b"}, {"lon": -76.98836983333334, "lat": 38.89249683333333, "rental_uris": {"ios": "https://dc.lft.to/lastmile_qr_scan", "android": "https://dc.lft.to/lastmile_qr_scan"}, "bike_id": "ecc38f7f4075c4cc6c030115cc26ae46", "type": "electric_scooter", "is_disabled": 0, "fusion_lat": 0.0, "fusion_lon": 0.0, "is_reserved": 0, "name": "ecc38f7f4075c4cc6c030115cc26ae46"}, {"lon": -77.043573, "lat": 38.90237416666667, "rental_uris": {"ios": "https://dc.lft.to/lastmile_qr_scan", "android": "https://dc.lft.to/lastmile_qr_scan"}, "bike_id": "b44afc371bdf5493284568694c80ace9", "type": "electric_scooter", "is_disabled": 0, "fusion_lat": 0.0, "fusion_lon": 0.0, "is_reserved": 0, "name": "b44afc371bdf5493284568694c80ace9"}, {"lon": -77.03822583333333, "lat": 38.931405166666664, "rental_uris": {"ios": "https://dc.lft.to/lastmile_qr_scan", "android": "https://dc.lft.to/lastmile_qr_scan"}, "bike_id": "8b12b6d6959d9e19ca8d86a2dfb17ed0", "type": "electric_scooter", "is_disabled": 0, "fusion_lat": 0.0, "fusion_lon": 0.0, "is_reserved": 0, "name": "8b12b6d6959d9e19ca8d86a2dfb17ed0"}, {"lon": -77.026811, "lat": 38.902548333333336, "rental_uris": {"ios": "https://dc.lft.to/lastmile_qr_scan", "android": "https://dc.lft.to/lastmile_qr_scan"}, "bike_id": "1b1020253086c20a58ff65ba3edbac3f", "type": "electric_scooter", "is_disabled": 0, "fusion_lat": 0.0, "fusion_lon": 0.0, "is_reserved": 0, "name": "1b1020253086c20a58ff65ba3edbac3f"}, {"lon": -76.986838, "lat": 38.87996016666666, "rental_uris": {"ios": "https://dc.lft.to/lastmile_qr_scan", "android": "https://dc.lft.to/lastmile_qr_scan"}, "bike_id": "6c05e997dd7ceb1ec222fd9d883b400a", "type": "electric_scooter", "is_disabled": 0, "fusion_lat": 0.0, "fusion_lon": 0.0, "is_reserved": 0, "name": "6c05e997dd7ceb1ec222fd9d883b400a"}, {"lon": -77.04804566666667, "lat": 38.908653666666666, "rental_uris": {"ios": "https://dc.lft.to/lastmile_qr_scan", "android": "https://dc.lft.to/lastmile_qr_scan"}, "bike_id": "0c597a0d80965dd1bc2ff0b3d341822d", "type": "electric_scooter", "is_disabled": 0, "fusion_lat": 0.0, "fusion_lon": 0.0, "is_reserved": 0, "name": "0c597a0d80965dd1bc2ff0b3d341822d"}, {"lon": -76.99475533333333, "lat": 38.86215716666667, "rental_uris": {"ios": "https://dc.lft.to/lastmile_qr_scan", "android": "https://dc.lft.to/lastmile_qr_scan"}, "bike_id": "885e6ceabb7bfe9c4e22da522da34e29", "type": "electric_scooter", "is_disabled": 0, "fusion_lat": 0.0, "fusion_lon": 0.0, "is_reserved": 0, "name": "885e6ceabb7bfe9c4e22da522da34e29"}, {"lon": -77.0057945, "lat": 38.87907, "rental_uris": {"ios": "https://dc.lft.to/lastmile_qr_scan", "android": "https://dc.lft.to/lastmile_qr_scan"}, "bike_id": "8689571e1e5c238c016c3d164488eafc", "type": "electric_scooter", "is_disabled": 0, "fusion_lat": 0.0, "fusion_lon": 0.0, "is_reserved": 0, "name": "8689571e1e5c238c016c3d164488eafc"}, {"lon": -77.05136733333333, "lat": 38.905369666666665, "rental_uris": {"ios": "https://dc.lft.to/lastmile_qr_scan", "android": "https://dc.lft.to/lastmile_qr_scan"}, "bike_id": "98aab5833698cd90adcfc4c8823df1e4", "type": "electric_scooter", "is_disabled": 0, "fusion_lat": 0.0, "fusion_lon": 0.0, "is_reserved": 0, "name": "98aab5833698cd90adcfc4c8823df1e4"}, {"lon": -77.041629, "lat": 38.904528166666665, "rental_uris": {"ios": "https://dc.lft.to/lastmile_qr_scan", "android": "https://dc.lft.to/lastmile_qr_scan"}, "bike_id": "5ded76f91e8fcc4f288e9834e09703db", "type": "electric_scooter", "is_disabled": 0, "fusion_lat": 0.0, "fusion_lon": 0.0, "is_reserved": 0, "name": "5ded76f91e8fcc4f288e9834e09703db"}, {"lon": -77.02389466666666, "lat": 38.918373833333334, "rental_uris": {"ios": "https://dc.lft.to/lastmile_qr_scan", "android": "https://dc.lft.to/lastmile_qr_scan"}, "bike_id": "6450043100e47a6ad8a3769f61b3f3ec", "type": "electric_scooter", "is_disabled": 0, "fusion_lat": 0.0, "fusion_lon": 0.0, "is_reserved": 0, "name": "6450043100e47a6ad8a3769f61b3f3ec"}, {"lon": -76.99368916666667, "lat": 38.88340383333333, "rental_uris": {"ios": "https://dc.lft.to/lastmile_qr_scan", "android": "https://dc.lft.to/lastmile_qr_scan"}, "bike_id": "ca3facc5f2c4982a7ea88ed4df8f37b3", "type": "electric_scooter", "is_disabled": 0, "fusion_lat": 0.0, "fusion_lon": 0.0, "is_reserved": 0, "name": "ca3facc5f2c4982a7ea88ed4df8f37b3"}, {"lon": -76.94970433333333, "lat": 38.894586333333336, "rental_uris": {"ios": "https://dc.lft.to/lastmile_qr_scan", "android": "https://dc.lft.to/lastmile_qr_scan"}, "bike_id": "7dd9e81b03c455cd375a059d67c88743", "type": "electric_scooter", "is_disabled": 0, "fusion_lat": 0.0, "fusion_lon": 0.0, "is_reserved": 0, "name": "7dd9e81b03c455cd375a059d67c88743"}, {"lon": -77.0419595, "lat": 38.926173166666665, "rental_uris": {"ios": "https://dc.lft.to/lastmile_qr_scan", "android": "https://dc.lft.to/lastmile_qr_scan"}, "bike_id": "c16d032285a060aa4ed0f16072e6613a", "type": "electric_scooter", "is_disabled": 0, "fusion_lat": 0.0, "fusion_lon": 0.0, "is_reserved": 0, "name": "c16d032285a060aa4ed0f16072e6613a"}, {"lon": -76.98093533333333, "lat": 38.881359, "rental_uris": {"ios": "https://dc.lft.to/lastmile_qr_scan", "android": "https://dc.lft.to/lastmile_qr_scan"}, "bike_id": "2fc1cef12ca5423482d0bfc6c4d5dd51", "type": "electric_bike", "is_disabled": 0, "fusion_lat": 0.0, "fusion_lon": 0.0, "is_reserved": 0, "name": "2fc1cef12ca5423482d0bfc6c4d5dd51"}, {"lon": -77.00047883333333, "lat": 38.876646, "rental_uris": {"ios": "https://dc.lft.to/lastmile_qr_scan", "android": "https://dc.lft.to/lastmile_qr_scan"}, "bike_id": "d31342ea48b03be2646590866fb2467e", "type": "electric_scooter", "is_disabled": 0, "fusion_lat": 0.0, "fusion_lon": 0.0, "is_reserved": 0, "name": "d31342ea48b03be2646590866fb2467e"}, {"lon": -77.03957283333334, "lat": 38.89249433333333, "rental_uris": {"ios": "https://dc.lft.to/lastmile_qr_scan", "android": "https://dc.lft.to/lastmile_qr_scan"}, "bike_id": "fa6d1bb468080db1de664b83305a69ec", "type": "electric_scooter", "is_disabled": 0, "fusion_lat": 0.0, "fusion_lon": 0.0, "is_reserved": 0, "name": "fa6d1bb468080db1de664b83305a69ec"}, {"lon": -76.9836425, "lat": 38.914971, "rental_uris": {"ios": "https://dc.lft.to/lastmile_qr_scan", "android": "https://dc.lft.to/lastmile_qr_scan"}, "bike_id": "6db98c72a54fb5e1d6c0f6700c31c5da", "type": "electric_scooter", "is_disabled": 0, "fusion_lat": 0.0, "fusion_lon": 0.0, "is_reserved": 0, "name": "6db98c72a54fb5e1d6c0f6700c31c5da"}, {"lon": -77.03719166666667, "lat": 38.91689733333333, "rental_uris": {"ios": "https://dc.lft.to/lastmile_qr_scan", "android": "https://dc.lft.to/lastmile_qr_scan"}, "bike_id": "0a1363dcc7ad6865a7efa922c35ab0a4", "type": "electric_scooter", "is_disabled": 0, "fusion_lat": 0.0, "fusion_lon": 0.0, "is_reserved": 0, "name": "0a1363dcc7ad6865a7efa922c35ab0a4"}, {"lon": -77.03490016666667, "lat": 38.92481433333333, "rental_uris": {"ios": "https://dc.lft.to/lastmile_qr_scan", "android": "https://dc.lft.to/lastmile_qr_scan"}, "bike_id": "fd98b839ac63b479be1e9bb56a8bd982", "type": "electric_scooter", "is_disabled": 0, "fusion_lat": 0.0, "fusion_lon": 0.0, "is_reserved": 0, "name": "fd98b839ac63b479be1e9bb56a8bd982"}, {"lon": -77.03666116666666, "lat": 38.93060883333333, "rental_uris": {"ios": "https://dc.lft.to/lastmile_qr_scan", "android": "https://dc.lft.to/lastmile_qr_scan"}, "bike_id": "bc6c0b44dac41bd8f644f95a1e9867ff", "type": "electric_scooter", "is_disabled": 0, "fusion_lat": 0.0, "fusion_lon": 0.0, "is_reserved": 0, "name": "bc6c0b44dac41bd8f644f95a1e9867ff"}, {"lon": -77.046912, "lat": 39.02393883333333, "rental_uris": {"ios": "https://dc.lft.to/lastmile_qr_scan", "android": "https://dc.lft.to/lastmile_qr_scan"}, "bike_id": "f9eb771c8537709ae2257bbe1d73dda5", "type": "electric_bike", "is_disabled": 0, "fusion_lat": 0.0, "fusion_lon": 0.0, "is_reserved": 0, "name": "f9eb771c8537709ae2257bbe1d73dda5"}, {"lon": -77.11159566666667, "lat": 38.855127333333336, "rental_uris": {"ios": "https://dc.lft.to/lastmile_qr_scan", "android": "https://dc.lft.to/lastmile_qr_scan"}, "bike_id": "6d42824d2c5858bdfa83bfe5350882bc", "type": "electric_bike", "is_disabled": 0, "fusion_lat": 0.0, "fusion_lon": 0.0, "is_reserved": 0, "name": "6d42824d2c5858bdfa83bfe5350882bc"}, {"lon": -77.01585433333334, "lat": 38.8861455, "rental_uris": {"ios": "https://dc.lft.to/lastmile_qr_scan", "android": "https://dc.lft.to/lastmile_qr_scan"}, "bike_id": "5541cb4666f0c23feb6fa135de523785", "type": "electric_scooter", "is_disabled": 0, "fusion_lat": 0.0, "fusion_lon": 0.0, "is_reserved": 0, "name": "5541cb4666f0c23feb6fa135de523785"}, {"lon": -77.18741566666667, "lat": 38.89354016666667, "rental_uris": {"ios": "https://dc.lft.to/lastmile_qr_scan", "android": "https://dc.lft.to/lastmile_qr_scan"}, "bike_id": "2d5c98249a3450a2fbb2d1a6eeabee33", "type": "electric_bike", "is_disabled": 0, "fusion_lat": 0.0, "fusion_lon": 0.0, "is_reserved": 0, "name": "2d5c98249a3450a2fbb2d1a6eeabee33"}, {"lon": -77.02862133333333, "lat": 38.88744966666667, "rental_uris": {"ios": "https://dc.lft.to/lastmile_qr_scan", "android": "https://dc.lft.to/lastmile_qr_scan"}, "bike_id": "a10829233ba6809275af34587f3d066b", "type": "electric_scooter", "is_disabled": 0, "fusion_lat": 0.0, "fusion_lon": 0.0, "is_reserved": 0, "name": "a10829233ba6809275af34587f3d066b"}, {"lon": -77.02796366666666, "lat": 38.8842655, "rental_uris": {"ios": "https://dc.lft.to/lastmile_qr_scan", "android": "https://dc.lft.to/lastmile_qr_scan"}, "bike_id": "73b7c31179a4c6606240aaa952149c99", "type": "electric_scooter", "is_disabled": 0, "fusion_lat": 0.0, "fusion_lon": 0.0, "is_reserved": 0, "name": "73b7c31179a4c6606240aaa952149c99"}, {"lon": -77.053344, "lat": 38.90452616666666, "rental_uris": {"ios": "https://dc.lft.to/lastmile_qr_scan", "android": "https://dc.lft.to/lastmile_qr_scan"}, "bike_id": "c1edbd964fc3d7ccf00eee9905f15b35", "type": "electric_scooter", "is_disabled": 0, "fusion_lat": 0.0, "fusion_lon": 0.0, "is_reserved": 0, "name": "c1edbd964fc3d7ccf00eee9905f15b35"}, {"lon": -77.06464333333334, "lat": 38.9274785, "rental_uris": {"ios": "https://dc.lft.to/lastmile_qr_scan", "android": "https://dc.lft.to/lastmile_qr_scan"}, "bike_id": "6c622d618fbb53f5e6fe104668397a95", "type": "electric_scooter", "is_disabled": 0, "fusion_lat": 0.0, "fusion_lon": 0.0, "is_reserved": 0, "name": "6c622d618fbb53f5e6fe104668397a95"}, {"lon": -77.0318985, "lat": 38.91744816666667, "rental_uris": {"ios": "https://dc.lft.to/lastmile_qr_scan", "android": "https://dc.lft.to/lastmile_qr_scan"}, "bike_id": "b6786bced259caf76dcdf1a0ee6891f4", "type": "electric_scooter", "is_disabled": 0, "fusion_lat": 0.0, "fusion_lon": 0.0, "is_reserved": 0, "name": "b6786bced259caf76dcdf1a0ee6891f4"}, {"lon": -76.982301, "lat": 38.886478833333335, "rental_uris": {"ios": "https://dc.lft.to/lastmile_qr_scan", "android": "https://dc.lft.to/lastmile_qr_scan"}, "bike_id": "e3b049677cab4497be67f81c1d3e64a5", "type": "electric_scooter", "is_disabled": 0, "fusion_lat": 0.0, "fusion_lon": 0.0, "is_reserved": 0, "name": "e3b049677cab4497be67f81c1d3e64a5"}, {"lon": -77.0628655, "lat": 38.904358333333334, "rental_uris": {"ios": "https://dc.lft.to/lastmile_qr_scan", "android": "https://dc.lft.to/lastmile_qr_scan"}, "bike_id": "4e31d6279784bd98c19cda301e510709", "type": "electric_scooter", "is_disabled": 0, "fusion_lat": 0.0, "fusion_lon": 0.0, "is_reserved": 0, "name": "4e31d6279784bd98c19cda301e510709"}, {"lon": -76.97354783333333, "lat": 38.865485166666666, "rental_uris": {"ios": "https://dc.lft.to/lastmile_qr_scan", "android": "https://dc.lft.to/lastmile_qr_scan"}, "bike_id": "02af03d9e0d8d2943c54461df28b9e90", "type": "electric_scooter", "is_disabled": 0, "fusion_lat": 0.0, "fusion_lon": 0.0, "is_reserved": 0, "name": "02af03d9e0d8d2943c54461df28b9e90"}, {"lon": -77.03155066666666, "lat": 38.91915083333333, "rental_uris": {"ios": "https://dc.lft.to/lastmile_qr_scan", "android": "https://dc.lft.to/lastmile_qr_scan"}, "bike_id": "687e9f2aad12938bae62318dac2381dc", "type": "electric_scooter", "is_disabled": 0, "fusion_lat": 0.0, "fusion_lon": 0.0, "is_reserved": 0, "name": "687e9f2aad12938bae62318dac2381dc"}, {"lon": -77.0186315, "lat": 38.97367633333333, "rental_uris": {"ios": "https://dc.lft.to/lastmile_qr_scan", "android": "https://dc.lft.to/lastmile_qr_scan"}, "bike_id": "7b89b335eb48ee2c05af731334aa33ed", "type": "electric_scooter", "is_disabled": 0, "fusion_lat": 0.0, "fusion_lon": 0.0, "is_reserved": 0, "name": "7b89b335eb48ee2c05af731334aa33ed"}, {"lon": -77.023047, "lat": 38.92709266666667, "rental_uris": {"ios": "https://dc.lft.to/lastmile_qr_scan", "android": "https://dc.lft.to/lastmile_qr_scan"}, "bike_id": "e5794a626c047a50088c30ad31951605", "type": "electric_scooter", "is_disabled": 0, "fusion_lat": 0.0, "fusion_lon": 0.0, "is_reserved": 0, "name": "e5794a626c047a50088c30ad31951605"}, {"lon": -77.038693, "lat": 38.921538, "rental_uris": {"ios": "https://dc.lft.to/lastmile_qr_scan", "android": "https://dc.lft.to/lastmile_qr_scan"}, "bike_id": "b7013f0ebb7149e8cc709d50e1eaf1ce", "type": "electric_scooter", "is_disabled": 0, "fusion_lat": 0.0, "fusion_lon": 0.0, "is_reserved": 0, "name": "b7013f0ebb7149e8cc709d50e1eaf1ce"}, {"lon": -77.04360966666667, "lat": 38.920642666666666, "rental_uris": {"ios": "https://dc.lft.to/lastmile_qr_scan", "android": "https://dc.lft.to/lastmile_qr_scan"}, "bike_id": "b6ced94c55c38f598738cbff42d5d798", "type": "electric_scooter", "is_disabled": 0, "fusion_lat": 0.0, "fusion_lon": 0.0, "is_reserved": 0, "name": "b6ced94c55c38f598738cbff42d5d798"}, {"lon": -77.0442915, "lat": 38.90583383333333, "rental_uris": {"ios": "https://dc.lft.to/lastmile_qr_scan", "android": "https://dc.lft.to/lastmile_qr_scan"}, "bike_id": "3dc37a7bbe1895fddd867652518a5f6d", "type": "electric_scooter", "is_disabled": 0, "fusion_lat": 0.0, "fusion_lon": 0.0, "is_reserved": 0, "name": "3dc37a7bbe1895fddd867652518a5f6d"}, {"lon": -77.03425683333333, "lat": 38.907202833333336, "rental_uris": {"ios": "https://dc.lft.to/lastmile_qr_scan", "android": "https://dc.lft.to/lastmile_qr_scan"}, "bike_id": "b98ee21b60e3c0c9d6233737d5f71f53", "type": "electric_scooter", "is_disabled": 0, "fusion_lat": 0.0, "fusion_lon": 0.0, "is_reserved": 0, "name": "b98ee21b60e3c0c9d6233737d5f71f53"}, {"lon": -77.02658233333334, "lat": 38.89222816666667, "rental_uris": {"ios": "https://dc.lft.to/lastmile_qr_scan", "android": "https://dc.lft.to/lastmile_qr_scan"}, "bike_id": "593ebfbad1fac532280311ed1af382ce", "type": "electric_scooter", "is_disabled": 0, "fusion_lat": 0.0, "fusion_lon": 0.0, "is_reserved": 0, "name": "593ebfbad1fac532280311ed1af382ce"}, {"lon": -77.027724, "lat": 38.954308833333336, "rental_uris": {"ios": "https://dc.lft.to/lastmile_qr_scan", "android": "https://dc.lft.to/lastmile_qr_scan"}, "bike_id": "ebfecc5ca56ba38076088c5f074ed2f5", "type": "electric_scooter", "is_disabled": 0, "fusion_lat": 0.0, "fusion_lon": 0.0, "is_reserved": 0, "name": "ebfecc5ca56ba38076088c5f074ed2f5"}, {"lon": -77.03221933333333, "lat": 38.8922475, "rental_uris": {"ios": "https://dc.lft.to/lastmile_qr_scan", "android": "https://dc.lft.to/lastmile_qr_scan"}, "bike_id": "5c5d6c297a83f3b384b13173e1f65f02", "type": "electric_scooter", "is_disabled": 0, "fusion_lat": 0.0, "fusion_lon": 0.0, "is_reserved": 0, "name": "5c5d6c297a83f3b384b13173e1f65f02"}, {"lon": -77.04354883333333, "lat": 38.892346333333336, "rental_uris": {"ios": "https://dc.lft.to/lastmile_qr_scan", "android": "https://dc.lft.to/lastmile_qr_scan"}, "bike_id": "a511f542def35cc81a27aee3110c7e11", "type": "electric_scooter", "is_disabled": 0, "fusion_lat": 0.0, "fusion_lon": 0.0, "is_reserved": 0, "name": "a511f542def35cc81a27aee3110c7e11"}, {"lon": -76.99084533333334, "lat": 38.86237716666667, "rental_uris": {"ios": "https://dc.lft.to/lastmile_qr_scan", "android": "https://dc.lft.to/lastmile_qr_scan"}, "bike_id": "c488af15001e06efa31e5f3b89f2c57d", "type": "electric_bike", "is_disabled": 0, "fusion_lat": 0.0, "fusion_lon": 0.0, "is_reserved": 0, "name": "c488af15001e06efa31e5f3b89f2c57d"}, {"lon": -76.98086783333333, "lat": 38.907117, "rental_uris": {"ios": "https://dc.lft.to/lastmile_qr_scan", "android": "https://dc.lft.to/lastmile_qr_scan"}, "bike_id": "1fa173699790447fa179b8cabeaff893", "type": "electric_scooter", "is_disabled": 0, "fusion_lat": 0.0, "fusion_lon": 0.0, "is_reserved": 0, "name": "1fa173699790447fa179b8cabeaff893"}, {"lon": -77.03309666666667, "lat": 38.9564275, "rental_uris": {"ios": "https://dc.lft.to/lastmile_qr_scan", "android": "https://dc.lft.to/lastmile_qr_scan"}, "bike_id": "3f074a979bc1969a3db7c02f4678d406", "type": "electric_scooter", "is_disabled": 0, "fusion_lat": 0.0, "fusion_lon": 0.0, "is_reserved": 0, "name": "3f074a979bc1969a3db7c02f4678d406"}, {"lon": -77.058822, "lat": 38.942967, "rental_uris": {"ios": "https://dc.lft.to/lastmile_qr_scan", "android": "https://dc.lft.to/lastmile_qr_scan"}, "bike_id": "6b88411e94af06056985406f79423353", "type": "electric_scooter", "is_disabled": 0, "fusion_lat": 0.0, "fusion_lon": 0.0, "is_reserved": 0, "name": "6b88411e94af06056985406f79423353"}, {"lon": -77.02957016666667, "lat": 38.8964265, "rental_uris": {"ios": "https://dc.lft.to/lastmile_qr_scan", "android": "https://dc.lft.to/lastmile_qr_scan"}, "bike_id": "4437409a05a48c182b09cef4eb838f66", "type": "electric_scooter", "is_disabled": 0, "fusion_lat": 0.0, "fusion_lon": 0.0, "is_reserved": 0, "name": "4437409a05a48c182b09cef4eb838f66"}, {"lon": -77.06834033333334, "lat": 38.805686333333334, "rental_uris": {"ios": "https://dc.lft.to/lastmile_qr_scan", "android": "https://dc.lft.to/lastmile_qr_scan"}, "bike_id": "245f90205abbb99158029989392d459c", "type": "electric_bike", "is_disabled": 0, "fusion_lat": 0.0, "fusion_lon": 0.0, "is_reserved": 0, "name": "245f90205abbb99158029989392d459c"}, {"lon": -77.06002766666667, "lat": 38.902699166666665, "rental_uris": {"ios": "https://dc.lft.to/lastmile_qr_scan", "android": "https://dc.lft.to/lastmile_qr_scan"}, "bike_id": "ff6f38629567ccc7ddd0cc3e62014108", "type": "electric_scooter", "is_disabled": 0, "fusion_lat": 0.0, "fusion_lon": 0.0, "is_reserved": 0, "name": "ff6f38629567ccc7ddd0cc3e62014108"}, {"lon": -77.025995, "lat": 38.91694316666667, "rental_uris": {"ios": "https://dc.lft.to/lastmile_qr_scan", "android": "https://dc.lft.to/lastmile_qr_scan"}, "bike_id": "cdfb8e655305ac1e48efa2206f644927", "type": "electric_scooter", "is_disabled": 0, "fusion_lat": 0.0, "fusion_lon": 0.0, "is_reserved": 0, "name": "cdfb8e655305ac1e48efa2206f644927"}, {"lon": -76.99392633333333, "lat": 38.92300066666667, "rental_uris": {"ios": "https://dc.lft.to/lastmile_qr_scan", "android": "https://dc.lft.to/lastmile_qr_scan"}, "bike_id": "36d9f0ba5acacf7d8e9eed68f8e75d94", "type": "electric_bike", "is_disabled": 0, "fusion_lat": 0.0, "fusion_lon": 0.0, "is_reserved": 0, "name": "36d9f0ba5acacf7d8e9eed68f8e75d94"}, {"lon": -77.03905933333333, "lat": 38.92418333333333, "rental_uris": {"ios": "https://dc.lft.to/lastmile_qr_scan", "android": "https://dc.lft.to/lastmile_qr_scan"}, "bike_id": "9717dc64a33802b87f80299c6c5ce8d6", "type": "electric_scooter", "is_disabled": 0, "fusion_lat": 0.0, "fusion_lon": 0.0, "is_reserved": 0, "name": "9717dc64a33802b87f80299c6c5ce8d6"}, {"lon": -77.03478283333334, "lat": 38.906549166666665, "rental_uris": {"ios": "https://dc.lft.to/lastmile_qr_scan", "android": "https://dc.lft.to/lastmile_qr_scan"}, "bike_id": "f0933e171f8286187e6819eb59d0f4ee", "type": "electric_scooter", "is_disabled": 0, "fusion_lat": 0.0, "fusion_lon": 0.0, "is_reserved": 0, "name": "f0933e171f8286187e6819eb59d0f4ee"}, {"lon": -77.03715916666667, "lat": 38.90364966666667, "rental_uris": {"ios": "https://dc.lft.to/lastmile_qr_scan", "android": "https://dc.lft.to/lastmile_qr_scan"}, "bike_id": "81a46a3a6c404e69750dca1bb255feee", "type": "electric_scooter", "is_disabled": 0, "fusion_lat": 0.0, "fusion_lon": 0.0, "is_reserved": 0, "name": "81a46a3a6c404e69750dca1bb255feee"}, {"lon": -77.03229166666667, "lat": 38.92865583333333, "rental_uris": {"ios": "https://dc.lft.to/lastmile_qr_scan", "android": "https://dc.lft.to/lastmile_qr_scan"}, "bike_id": "993ae46aa84b9ccedb0f1c90589853a2", "type": "electric_scooter", "is_disabled": 0, "fusion_lat": 0.0, "fusion_lon": 0.0, "is_reserved": 0, "name": "993ae46aa84b9ccedb0f1c90589853a2"}, {"lon": -77.00737933333333, "lat": 38.89833383333333, "rental_uris": {"ios": "https://dc.lft.to/lastmile_qr_scan", "android": "https://dc.lft.to/lastmile_qr_scan"}, "bike_id": "35014f779f17cf319e6983bfadf361b4", "type": "electric_scooter", "is_disabled": 0, "fusion_lat": 0.0, "fusion_lon": 0.0, "is_reserved": 0, "name": "35014f779f17cf319e6983bfadf361b4"}, {"lon": -76.9375665, "lat": 38.89046966666667, "rental_uris": {"ios": "https://dc.lft.to/lastmile_qr_scan", "android": "https://dc.lft.to/lastmile_qr_scan"}, "bike_id": "fc53f0cf0ecbf3cb34c3ba0712ec1c0a", "type": "electric_scooter", "is_disabled": 0, "fusion_lat": 0.0, "fusion_lon": 0.0, "is_reserved": 0, "name": "fc53f0cf0ecbf3cb34c3ba0712ec1c0a"}, {"lon": -76.919707, "lat": 38.9002665, "rental_uris": {"ios": "https://dc.lft.to/lastmile_qr_scan", "android": "https://dc.lft.to/lastmile_qr_scan"}, "bike_id": "90449c0d7c7db9b5cec4e54090517c9d", "type": "electric_scooter", "is_disabled": 0, "fusion_lat": 0.0, "fusion_lon": 0.0, "is_reserved": 0, "name": "90449c0d7c7db9b5cec4e54090517c9d"}, {"lon": -77.006337, "lat": 38.83271516666667, "rental_uris": {"ios": "https://dc.lft.to/lastmile_qr_scan", "android": "https://dc.lft.to/lastmile_qr_scan"}, "bike_id": "220e4503c3dacb22731be5a321a50cc7", "type": "electric_scooter", "is_disabled": 0, "fusion_lat": 0.0, "fusion_lon": 0.0, "is_reserved": 0, "name": "220e4503c3dacb22731be5a321a50cc7"}, {"lon": -77.02825216666666, "lat": 38.89832616666666, "rental_uris": {"ios": "https://dc.lft.to/lastmile_qr_scan", "android": "https://dc.lft.to/lastmile_qr_scan"}, "bike_id": "26475b0a4a12706a46533cf1ef041259", "type": "electric_scooter", "is_disabled": 0, "fusion_lat": 0.0, "fusion_lon": 0.0, "is_reserved": 0, "name": "26475b0a4a12706a46533cf1ef041259"}, {"lon": -77.04020583333333, "lat": 38.89540066666667, "rental_uris": {"ios": "https://dc.lft.to/lastmile_qr_scan", "android": "https://dc.lft.to/lastmile_qr_scan"}, "bike_id": "5fb2b083fd513ec79b14e80e89346961", "type": "electric_scooter", "is_disabled": 0, "fusion_lat": 0.0, "fusion_lon": 0.0, "is_reserved": 0, "name": "5fb2b083fd513ec79b14e80e89346961"}, {"lon": -77.045345, "lat": 38.900618333333334, "rental_uris": {"ios": "https://dc.lft.to/lastmile_qr_scan", "android": "https://dc.lft.to/lastmile_qr_scan"}, "bike_id": "5de5ba077d02c8deaf91561eb1dadb05", "type": "electric_scooter", "is_disabled": 0, "fusion_lat": 0.0, "fusion_lon": 0.0, "is_reserved": 0, "name": "5de5ba077d02c8deaf91561eb1dadb05"}, {"lon": -77.026387, "lat": 38.90246916666667, "rental_uris": {"ios": "https://dc.lft.to/lastmile_qr_scan", "android": "https://dc.lft.to/lastmile_qr_scan"}, "bike_id": "e6cbd0c17abb60ecc3a59e469996e771", "type": "electric_scooter", "is_disabled": 0, "fusion_lat": 0.0, "fusion_lon": 0.0, "is_reserved": 0, "name": "e6cbd0c17abb60ecc3a59e469996e771"}, {"lon": -77.00294716666667, "lat": 38.89493183333333, "rental_uris": {"ios": "https://dc.lft.to/lastmile_qr_scan", "android": "https://dc.lft.to/lastmile_qr_scan"}, "bike_id": "cce5c61fdf4bee2650f8f515f70e1081", "type": "electric_scooter", "is_disabled": 0, "fusion_lat": 0.0, "fusion_lon": 0.0, "is_reserved": 0, "name": "cce5c61fdf4bee2650f8f515f70e1081"}, {"lon": -77.0342665, "lat": 38.90722683333333, "rental_uris": {"ios": "https://dc.lft.to/lastmile_qr_scan", "android": "https://dc.lft.to/lastmile_qr_scan"}, "bike_id": "c5853579326036e11f82f72e47d6c1e1", "type": "electric_scooter", "is_disabled": 0, "fusion_lat": 0.0, "fusion_lon": 0.0, "is_reserved": 0, "name": "c5853579326036e11f82f72e47d6c1e1"}, {"lon": -76.99642933333334, "lat": 38.900379, "rental_uris": {"ios": "https://dc.lft.to/lastmile_qr_scan", "android": "https://dc.lft.to/lastmile_qr_scan"}, "bike_id": "cbab2303d739d69ef34e79b30d962d54", "type": "electric_scooter", "is_disabled": 0, "fusion_lat": 0.0, "fusion_lon": 0.0, "is_reserved": 0, "name": "cbab2303d739d69ef34e79b30d962d54"}, {"lon": -77.02006383333334, "lat": 38.901594, "rental_uris": {"ios": "https://dc.lft.to/lastmile_qr_scan", "android": "https://dc.lft.to/lastmile_qr_scan"}, "bike_id": "d85cd03b500f0e2285d6207c9599850d", "type": "electric_scooter", "is_disabled": 0, "fusion_lat": 0.0, "fusion_lon": 0.0, "is_reserved": 0, "name": "d85cd03b500f0e2285d6207c9599850d"}, {"lon": -77.04566066666666, "lat": 38.905474166666664, "rental_uris": {"ios": "https://dc.lft.to/lastmile_qr_scan", "android": "https://dc.lft.to/lastmile_qr_scan"}, "bike_id": "2daf9c46dd4a521fe298d2ce9f5dba40", "type": "electric_scooter", "is_disabled": 0, "fusion_lat": 0.0, "fusion_lon": 0.0, "is_reserved": 0, "name": "2daf9c46dd4a521fe298d2ce9f5dba40"}, {"lon": -76.9894005, "lat": 38.918419666666665, "rental_uris": {"ios": "https://dc.lft.to/lastmile_qr_scan", "android": "https://dc.lft.to/lastmile_qr_scan"}, "bike_id": "f6ab66bfc41cf8908e353b8a33f8909c", "type": "electric_scooter", "is_disabled": 0, "fusion_lat": 0.0, "fusion_lon": 0.0, "is_reserved": 0, "name": "f6ab66bfc41cf8908e353b8a33f8909c"}, {"lon": -77.02598566666667, "lat": 38.90498383333333, "rental_uris": {"ios": "https://dc.lft.to/lastmile_qr_scan", "android": "https://dc.lft.to/lastmile_qr_scan"}, "bike_id": "320c74e4ae27f37ad788c8a49b6f9875", "type": "electric_scooter", "is_disabled": 0, "fusion_lat": 0.0, "fusion_lon": 0.0, "is_reserved": 0, "name": "320c74e4ae27f37ad788c8a49b6f9875"}, {"lon": -77.046525, "lat": 38.9055, "rental_uris": {"ios": "https://dc.lft.to/lastmile_qr_scan", "android": "https://dc.lft.to/lastmile_qr_scan"}, "bike_id": "09786bbc22cd00ea599e45b502cdd754", "type": "electric_scooter", "is_disabled": 0, "fusion_lat": 0.0, "fusion_lon": 0.0, "is_reserved": 0, "name": "09786bbc22cd00ea599e45b502cdd754"}, {"lon": -77.02493183333333, "lat": 38.938651666666665, "rental_uris": {"ios": "https://dc.lft.to/lastmile_qr_scan", "android": "https://dc.lft.to/lastmile_qr_scan"}, "bike_id": "d4c1b863d63f1a92c323bc059f28131f", "type": "electric_scooter", "is_disabled": 0, "fusion_lat": 0.0, "fusion_lon": 0.0, "is_reserved": 0, "name": "d4c1b863d63f1a92c323bc059f28131f"}, {"lon": -77.022814, "lat": 38.898381, "rental_uris": {"ios": "https://dc.lft.to/lastmile_qr_scan", "android": "https://dc.lft.to/lastmile_qr_scan"}, "bike_id": "7f14591d21ecc6a88ad2a2c9952c3709", "type": "electric_scooter", "is_disabled": 0, "fusion_lat": 0.0, "fusion_lon": 0.0, "is_reserved": 0, "name": "7f14591d21ecc6a88ad2a2c9952c3709"}, {"lon": -77.022279, "lat": 38.89222866666667, "rental_uris": {"ios": "https://dc.lft.to/lastmile_qr_scan", "android": "https://dc.lft.to/lastmile_qr_scan"}, "bike_id": "e9985754386b60b6c23eb21e8a667934", "type": "electric_scooter", "is_disabled": 0, "fusion_lat": 0.0, "fusion_lon": 0.0, "is_reserved": 0, "name": "e9985754386b60b6c23eb21e8a667934"}, {"lon": -77.024855, "lat": 38.895959500000004, "rental_uris": {"ios": "https://dc.lft.to/lastmile_qr_scan", "android": "https://dc.lft.to/lastmile_qr_scan"}, "bike_id": "64c379069d0d3c8fd636dc3faff2b07a", "type": "electric_scooter", "is_disabled": 0, "fusion_lat": 0.0, "fusion_lon": 0.0, "is_reserved": 0, "name": "64c379069d0d3c8fd636dc3faff2b07a"}, {"lon": -77.01053033333334, "lat": 38.963536833333336, "rental_uris": {"ios": "https://dc.lft.to/lastmile_qr_scan", "android": "https://dc.lft.to/lastmile_qr_scan"}, "bike_id": "47f5ff1385ecdc676b1853c1135a061a", "type": "electric_scooter", "is_disabled": 0, "fusion_lat": 0.0, "fusion_lon": 0.0, "is_reserved": 0, "name": "47f5ff1385ecdc676b1853c1135a061a"}, {"lon": -77.03475266666666, "lat": 38.903227333333334, "rental_uris": {"ios": "https://dc.lft.to/lastmile_qr_scan", "android": "https://dc.lft.to/lastmile_qr_scan"}, "bike_id": "da0322647ff3d33a003a88f379d71f85", "type": "electric_scooter", "is_disabled": 0, "fusion_lat": 0.0, "fusion_lon": 0.0, "is_reserved": 0, "name": "da0322647ff3d33a003a88f379d71f85"}, {"lon": -77.007557, "lat": 38.926729, "rental_uris": {"ios": "https://dc.lft.to/lastmile_qr_scan", "android": "https://dc.lft.to/lastmile_qr_scan"}, "bike_id": "a6b6b19947091d4afe2e1a4b14ef2865", "type": "electric_scooter", "is_disabled": 0, "fusion_lat": 0.0, "fusion_lon": 0.0, "is_reserved": 0, "name": "a6b6b19947091d4afe2e1a4b14ef2865"}, {"lon": -77.03167466666666, "lat": 38.887703333333334, "rental_uris": {"ios": "https://dc.lft.to/lastmile_qr_scan", "android": "https://dc.lft.to/lastmile_qr_scan"}, "bike_id": "cf152c9dc452dbae2eb5c0777c178cfd", "type": "electric_scooter", "is_disabled": 0, "fusion_lat": 0.0, "fusion_lon": 0.0, "is_reserved": 0, "name": "cf152c9dc452dbae2eb5c0777c178cfd"}, {"lon": -77.017725, "lat": 38.8721895, "rental_uris": {"ios": "https://dc.lft.to/lastmile_qr_scan", "android": "https://dc.lft.to/lastmile_qr_scan"}, "bike_id": "23dc844dc8109bdc09bcc60bc1a72262", "type": "electric_scooter", "is_disabled": 0, "fusion_lat": 0.0, "fusion_lon": 0.0, "is_reserved": 0, "name": "23dc844dc8109bdc09bcc60bc1a72262"}, {"lon": -77.02403116666666, "lat": 38.917629, "rental_uris": {"ios": "https://dc.lft.to/lastmile_qr_scan", "android": "https://dc.lft.to/lastmile_qr_scan"}, "bike_id": "cb7df3e70d8be9e0d2e367f8a3acadd8", "type": "electric_scooter", "is_disabled": 0, "fusion_lat": 0.0, "fusion_lon": 0.0, "is_reserved": 0, "name": "cb7df3e70d8be9e0d2e367f8a3acadd8"}, {"lon": -77.01798466666666, "lat": 38.921359833333334, "rental_uris": {"ios": "https://dc.lft.to/lastmile_qr_scan", "android": "https://dc.lft.to/lastmile_qr_scan"}, "bike_id": "96e41110b369614c6329b9582a216536", "type": "electric_scooter", "is_disabled": 0, "fusion_lat": 0.0, "fusion_lon": 0.0, "is_reserved": 0, "name": "96e41110b369614c6329b9582a216536"}, {"lon": -77.11851666666666, "lat": 38.87733433333333, "rental_uris": {"ios": "https://dc.lft.to/lastmile_qr_scan", "android": "https://dc.lft.to/lastmile_qr_scan"}, "bike_id": "5615ad30b5f05c24bd62c1f336c992a5", "type": "electric_bike", "is_disabled": 0, "fusion_lat": 0.0, "fusion_lon": 0.0, "is_reserved": 0, "name": "5615ad30b5f05c24bd62c1f336c992a5"}, {"lon": -77.017658, "lat": 38.877073, "rental_uris": {"ios": "https://dc.lft.to/lastmile_qr_scan", "android": "https://dc.lft.to/lastmile_qr_scan"}, "bike_id": "757c818b8e83db57cfdad93b09c0474d", "type": "electric_scooter", "is_disabled": 0, "fusion_lat": 0.0, "fusion_lon": 0.0, "is_reserved": 0, "name": "757c818b8e83db57cfdad93b09c0474d"}, {"lon": -77.03959266666666, "lat": 38.911885166666664, "rental_uris": {"ios": "https://dc.lft.to/lastmile_qr_scan", "android": "https://dc.lft.to/lastmile_qr_scan"}, "bike_id": "57e0bdf352ad9d06429c80aca3455d1a", "type": "electric_scooter", "is_disabled": 0, "fusion_lat": 0.0, "fusion_lon": 0.0, "is_reserved": 0, "name": "57e0bdf352ad9d06429c80aca3455d1a"}, {"lon": -77.04761183333333, "lat": 38.91991983333333, "rental_uris": {"ios": "https://dc.lft.to/lastmile_qr_scan", "android": "https://dc.lft.to/lastmile_qr_scan"}, "bike_id": "3471c48bdca6c7040dd7df53e6d0365a", "type": "electric_bike", "is_disabled": 0, "fusion_lat": 0.0, "fusion_lon": 0.0, "is_reserved": 0, "name": "3471c48bdca6c7040dd7df53e6d0365a"}, {"lon": -77.03279483333333, "lat": 38.9325615, "rental_uris": {"ios": "https://dc.lft.to/lastmile_qr_scan", "android": "https://dc.lft.to/lastmile_qr_scan"}, "bike_id": "e7a47767e7e1000fd0d28419d6457e71", "type": "electric_scooter", "is_disabled": 0, "fusion_lat": 0.0, "fusion_lon": 0.0, "is_reserved": 0, "name": "e7a47767e7e1000fd0d28419d6457e71"}, {"lon": -77.05918466666667, "lat": 38.90342483333333, "rental_uris": {"ios": "https://dc.lft.to/lastmile_qr_scan", "android": "https://dc.lft.to/lastmile_qr_scan"}, "bike_id": "11864aa5a7410f12461d2167821e8496", "type": "electric_scooter", "is_disabled": 0, "fusion_lat": 0.0, "fusion_lon": 0.0, "is_reserved": 0, "name": "11864aa5a7410f12461d2167821e8496"}, {"lon": -77.03171166666667, "lat": 38.921062166666665, "rental_uris": {"ios": "https://dc.lft.to/lastmile_qr_scan", "android": "https://dc.lft.to/lastmile_qr_scan"}, "bike_id": "fde4659af81daa3d579e5705d879fd5b", "type": "electric_scooter", "is_disabled": 0, "fusion_lat": 0.0, "fusion_lon": 0.0, "is_reserved": 0, "name": "fde4659af81daa3d579e5705d879fd5b"}, {"lon": -77.02154283333333, "lat": 38.930826, "rental_uris": {"ios": "https://dc.lft.to/lastmile_qr_scan", "android": "https://dc.lft.to/lastmile_qr_scan"}, "bike_id": "3a088e624d31279f362eb36fb0f0594d", "type": "electric_scooter", "is_disabled": 0, "fusion_lat": 0.0, "fusion_lon": 0.0, "is_reserved": 0, "name": "3a088e624d31279f362eb36fb0f0594d"}, {"lon": -77.01398466666667, "lat": 38.92866883333333, "rental_uris": {"ios": "https://dc.lft.to/lastmile_qr_scan", "android": "https://dc.lft.to/lastmile_qr_scan"}, "bike_id": "28531aa0d08aec9104bb36211669ea31", "type": "electric_scooter", "is_disabled": 0, "fusion_lat": 0.0, "fusion_lon": 0.0, "is_reserved": 0, "name": "28531aa0d08aec9104bb36211669ea31"}, {"lon": -76.97728183333334, "lat": 38.87289533333333, "rental_uris": {"ios": "https://dc.lft.to/lastmile_qr_scan", "android": "https://dc.lft.to/lastmile_qr_scan"}, "bike_id": "91628de1744e398a57d6fa68de81d390", "type": "electric_scooter", "is_disabled": 0, "fusion_lat": 0.0, "fusion_lon": 0.0, "is_reserved": 0, "name": "91628de1744e398a57d6fa68de81d390"}, {"lon": -77.04150983333334, "lat": 38.91697583333333, "rental_uris": {"ios": "https://dc.lft.to/lastmile_qr_scan", "android": "https://dc.lft.to/lastmile_qr_scan"}, "bike_id": "545df418891fa254da628692b47a785e", "type": "electric_scooter", "is_disabled": 0, "fusion_lat": 0.0, "fusion_lon": 0.0, "is_reserved": 0, "name": "545df418891fa254da628692b47a785e"}, {"lon": -76.99055816666667, "lat": 38.86356683333333, "rental_uris": {"ios": "https://dc.lft.to/lastmile_qr_scan", "android": "https://dc.lft.to/lastmile_qr_scan"}, "bike_id": "c9005bbac061f676d9ff1b450dc3905a", "type": "electric_scooter", "is_disabled": 0, "fusion_lat": 0.0, "fusion_lon": 0.0, "is_reserved": 0, "name": "c9005bbac061f676d9ff1b450dc3905a"}, {"lon": -77.04431716666667, "lat": 38.921677, "rental_uris": {"ios": "https://dc.lft.to/lastmile_qr_scan", "android": "https://dc.lft.to/lastmile_qr_scan"}, "bike_id": "03a65fb646d0c1ae1aad201dc53ba5d2", "type": "electric_scooter", "is_disabled": 0, "fusion_lat": 0.0, "fusion_lon": 0.0, "is_reserved": 0, "name": "03a65fb646d0c1ae1aad201dc53ba5d2"}, {"lon": -77.034752, "lat": 38.90570533333333, "rental_uris": {"ios": "https://dc.lft.to/lastmile_qr_scan", "android": "https://dc.lft.to/lastmile_qr_scan"}, "bike_id": "9a93f2de09fdde6d0d4d97eaf356fb7b", "type": "electric_scooter", "is_disabled": 0, "fusion_lat": 0.0, "fusion_lon": 0.0, "is_reserved": 0, "name": "9a93f2de09fdde6d0d4d97eaf356fb7b"}, {"lon": -77.04236233333333, "lat": 38.91119666666667, "rental_uris": {"ios": "https://dc.lft.to/lastmile_qr_scan", "android": "https://dc.lft.to/lastmile_qr_scan"}, "bike_id": "04ea1d870aa015f518ff79aa2a48e764", "type": "electric_scooter", "is_disabled": 0, "fusion_lat": 0.0, "fusion_lon": 0.0, "is_reserved": 0, "name": "04ea1d870aa015f518ff79aa2a48e764"}, {"lon": -77.02318133333333, "lat": 38.9207625, "rental_uris": {"ios": "https://dc.lft.to/lastmile_qr_scan", "android": "https://dc.lft.to/lastmile_qr_scan"}, "bike_id": "13690f42340417a73f797840bb669505", "type": "electric_scooter", "is_disabled": 0, "fusion_lat": 0.0, "fusion_lon": 0.0, "is_reserved": 0, "name": "13690f42340417a73f797840bb669505"}, {"lon": -77.031941, "lat": 38.918127166666665, "rental_uris": {"ios": "https://dc.lft.to/lastmile_qr_scan", "android": "https://dc.lft.to/lastmile_qr_scan"}, "bike_id": "d597dddd7f54ad483fbfd320e2935d06", "type": "electric_scooter", "is_disabled": 0, "fusion_lat": 0.0, "fusion_lon": 0.0, "is_reserved": 0, "name": "d597dddd7f54ad483fbfd320e2935d06"}, {"lon": -77.051331, "lat": 38.90529466666667, "rental_uris": {"ios": "https://dc.lft.to/lastmile_qr_scan", "android": "https://dc.lft.to/lastmile_qr_scan"}, "bike_id": "7dc50bf49b5cc298e6c7d39b660bb284", "type": "electric_scooter", "is_disabled": 0, "fusion_lat": 0.0, "fusion_lon": 0.0, "is_reserved": 0, "name": "7dc50bf49b5cc298e6c7d39b660bb284"}, {"lon": -77.03824183333333, "lat": 38.906753, "rental_uris": {"ios": "https://dc.lft.to/lastmile_qr_scan", "android": "https://dc.lft.to/lastmile_qr_scan"}, "bike_id": "18e19419706cb515c1ac17beefacea74", "type": "electric_scooter", "is_disabled": 0, "fusion_lat": 0.0, "fusion_lon": 0.0, "is_reserved": 0, "name": "18e19419706cb515c1ac17beefacea74"}, {"lon": -77.0439215, "lat": 38.90899616666667, "rental_uris": {"ios": "https://dc.lft.to/lastmile_qr_scan", "android": "https://dc.lft.to/lastmile_qr_scan"}, "bike_id": "c3b8de50e4204f2dac84cdcad0ec085d", "type": "electric_scooter", "is_disabled": 0, "fusion_lat": 0.0, "fusion_lon": 0.0, "is_reserved": 0, "name": "c3b8de50e4204f2dac84cdcad0ec085d"}, {"lon": -77.01408083333334, "lat": 38.928784, "rental_uris": {"ios": "https://dc.lft.to/lastmile_qr_scan", "android": "https://dc.lft.to/lastmile_qr_scan"}, "bike_id": "aaf442245a6e24935b05dd7613bf531e", "type": "electric_scooter", "is_disabled": 0, "fusion_lat": 0.0, "fusion_lon": 0.0, "is_reserved": 0, "name": "aaf442245a6e24935b05dd7613bf531e"}, {"lon": -77.01117883333333, "lat": 38.885487, "rental_uris": {"ios": "https://dc.lft.to/lastmile_qr_scan", "android": "https://dc.lft.to/lastmile_qr_scan"}, "bike_id": "99fb9af5de68907cb275715de7a2c7b3", "type": "electric_scooter", "is_disabled": 0, "fusion_lat": 0.0, "fusion_lon": 0.0, "is_reserved": 0, "name": "99fb9af5de68907cb275715de7a2c7b3"}, {"lon": -77.028356, "lat": 38.9247345, "rental_uris": {"ios": "https://dc.lft.to/lastmile_qr_scan", "android": "https://dc.lft.to/lastmile_qr_scan"}, "bike_id": "554ca7ab710d02ebeb74a58ac40f517c", "type": "electric_scooter", "is_disabled": 0, "fusion_lat": 0.0, "fusion_lon": 0.0, "is_reserved": 0, "name": "554ca7ab710d02ebeb74a58ac40f517c"},