{"data": {"bikes": [{"name": "7eb2d0f948bd41e5e3b94238565abd0d", "is_reserved": 0, "is_disabled": 0, "lon": -77.02153366666667, "rental_uris": {"android": "https://dc.lft.to/lastmile_qr_scan", "ios": "https://dc.lft.to/lastmile_qr_scan"}, "fusion_lon": 0.0, "lat": 38.926041166666664, "type": "electric_scooter", "fusion_lat": 0.0, "bike_id": "7eb2d0f948bd41e5e3b94238565abd0d"}, {"name": "5a51da1f37ec5241cbffa7c02a824630", "is_reserved": 0, "is_disabled": 0, "lon": -77.030397, "rental_uris": {"android": "https://dc.lft.to/lastmile_qr_scan", "ios": "https://dc.lft.to/lastmile_qr_scan"}, "fusion_lon": 0.0, "lat": 38.939802666666665, "type": "electric_scooter", "fusion_lat": 0.0, "bike_id": "5a51da1f37ec5241cbffa7c02a824630"}, {"name": "0d80bebb95bd43158242b1874921d5a3", "is_reserved": 0, "is_disabled": 0, "lon": -77.03203866666666, "rental_uris": {"android": "https://dc.lft.to/lastmile_qr_scan", "ios": "https://dc.lft.to/lastmile_qr_scan"}, "fusion_lon": 0.0, "lat": 38.93969583333333, "type": "electric_scooter", "fusion_lat": 0.0, "bike_id": "0d80bebb95bd43158242b1874921d5a3"}, {"name": "5a19332b0be0304d9cf7207d52f50b3b", "is_reserved": 0, "is_disabled": 0, "lon": -77.01829983333333, "rental_uris": {"android": "https://dc.lft.to/lastmile_qr_scan", "ios": "https://dc.lft.to/lastmile_qr_scan"}, "fusion_lon": 0.0, "lat": 38.900902333333335, "type": "electric_scooter", "fusion_lat": 0.0, "bike_id": "5a19332b0be0304d9cf7207d52f50b3b"}, {"name": "bb6ec748239891e3b174ebbfb43698a3", "is_reserved": 0, "is_disabled": 0, "lon": -77.06754133333334, "rental_uris": {"android": "https://dc.lft.to/lastmile_qr_scan", "ios": "https://dc.lft.to/lastmile_qr_scan"}, "fusion_lon": 0.0, "lat": 38.94978833333333, "type": "electric_scooter", "fusion_lat": 0.0, "bike_id": "bb6ec748239891e3b174ebbfb43698a3"}, {"name": "cc0d4f53cca0d7bae0de574697bed7b6", "is_reserved": 0, "is_disabled": 0, "lon": -77.03847766666667, "rental_uris": {"android": "https://dc.lft.to/lastmile_qr_scan", "ios": "https://dc.lft.to/lastmile_qr_scan"}, "fusion_lon": 0.0, "lat": 38.92165266666667, "type": "electric_scooter", "fusion_lat": 0.0, "bike_id": "cc0d4f53cca0d7bae0de574697bed7b6"}, {"name": "967e58d2537962af4f08a9b63dae6a21", "is_reserved": 0, "is_disabled": 0, "lon": -76.9721775, "rental_uris": {"android": "https://dc.lft.to/lastmile_qr_scan", "ios": "https://dc.lft.to/lastmile_qr_scan"}, "fusion_lon": 0.0, "lat": 38.84480766666667, "type": "electric_bike", "fusion_lat": 0.0, "bike_id": "967e58d2537962af4f08a9b63dae6a21"}, {"name": "e54d7eeed8cd2018cd70cadcfc41c964", "is_reserved": 0, "is_disabled": 0, "lon": -77.01799166666666, "rental_uris": {"android": "https://dc.lft.to/lastmile_qr_scan", "ios": "https://dc.lft.to/lastmile_qr_scan"}, "fusion_lon": 0.0, "lat": 38.919602, "type": "electric_scooter", "fusion_lat": 0.0, "bike_id": "e54d7eeed8cd2018cd70cadcfc41c964"}, {"name": "d77b8132d547875acc5509b594b5d684", "is_reserved": 0, "is_disabled": 0, "lon": -77.03284116666667, "rental_uris": {"android": "https://dc.lft.to/lastmile_qr_scan", "ios": "https://dc.lft.to/lastmile_qr_scan"}, "fusion_lon": 0.0, "lat": 38.91262183333333, "type": "electric_scooter", "fusion_lat": 0.0, "bike_id": "d77b8132d547875acc5509b594b5d684"}, {"name": "91b4cb1b051028084e052459c64f6839", "is_reserved": 0, "is_disabled": 0, "lon": -76.996131, "rental_uris": {"android": "https://dc.lft.to/lastmile_qr_scan", "ios": "https://dc.lft.to/lastmile_qr_scan"}, "fusion_lon": 0.0, "lat": 38.886198666666665, "type": "electric_scooter", "fusion_lat": 0.0, "bike_id": "91b4cb1b051028084e052459c64f6839"}, {"name": "c6e2edcc30e31e0dbd007c9d03d8fdbf", "is_reserved": 0, "is_disabled": 0, "lon": -77.03594116666666, "rental_uris": {"android": "https://dc.lft.to/lastmile_qr_scan", "ios": "https://dc.lft.to/lastmile_qr_scan"}, "fusion_lon": 0.0, "lat": 38.928554, "type": "electric_scooter", "fusion_lat": 0.0, "bike_id": "c6e2edcc30e31e0dbd007c9d03d8fdbf"}, {"name": "150f1a638fa456237633bf3e55aeef40", "is_reserved": 0, "is_disabled": 0, "lon": -76.98325416666667, "rental_uris": {"android": "https://dc.lft.to/lastmile_qr_scan", "ios": "https://dc.lft.to/lastmile_qr_scan"}, "fusion_lon": 0.0, "lat": 38.966061833333335, "type": "electric_bike", "fusion_lat": 0.0, "bike_id": "150f1a638fa456237633bf3e55aeef40"}, {"name": "b76a76d6300c24f5e25abd91974f8649", "is_reserved": 0, "is_disabled": 0, "lon": -77.1122525, "rental_uris": {"android": "https://dc.lft.to/lastmile_qr_scan", "ios": "https://dc.lft.to/lastmile_qr_scan"}, "fusion_lon": 0.0, "lat": 38.81225383333334, "type": "electric_bike", "fusion_lat": 0.0, "bike_id": "b76a76d6300c24f5e25abd91974f8649"}, {"name": "2104d3d834354872b7f25d21c20b241b", "is_reserved": 0, "is_disabled": 0, "lon": -77.02203633333333, "rental_uris": {"android": "https://dc.lft.to/lastmile_qr_scan", "ios": "https://dc.lft.to/lastmile_qr_scan"}, "fusion_lon": 0.0, "lat": 38.88719733333333, "type": "electric_scooter", "fusion_lat": 0.0, "bike_id": "2104d3d834354872b7f25d21c20b241b"}, {"name": "47f16787eea3cf04882b060521f989d8", "is_reserved": 0, "is_disabled": 0, "lon": -77.03845, "rental_uris": {"android": "https://dc.lft.to/lastmile_qr_scan", "ios": "https://dc.lft.to/lastmile_qr_scan"}, "fusion_lon": 0.0, "lat": 38.93149866666667, "type": "electric_scooter", "fusion_lat": 0.0, "bike_id": "47f16787eea3cf04882b060521f989d8"}, {"name": "a321f6d54c3eec3f4b8273b68bc97371", "is_reserved": 0, "is_disabled": 0, "lon": -76.98269183333333, "rental_uris": {"android": "https://dc.lft.to/lastmile_qr_scan", "ios": "https://dc.lft.to/lastmile_qr_scan"}, "fusion_lon": 0.0, "lat": 38.915745, "type": "electric_scooter", "fusion_lat": 0.0, "bike_id": "a321f6d54c3eec3f4b8273b68bc97371"}, {"name": "9bce267215982df92825c1e0802761b9", "is_reserved": 0, "is_disabled": 0, "lon": -77.0465285, "rental_uris": {"android": "https://dc.lft.to/lastmile_qr_scan", "ios": "https://dc.lft.to/lastmile_qr_scan"}, "fusion_lon": 0.0, "lat": 38.91309533333333, "type": "electric_scooter", "fusion_lat": 0.0, "bike_id": "9bce267215982df92825c1e0802761b9"}, {"name": "ffc063e4ce5bb94627e901bab715f11e", "is_reserved": 0, "is_disabled": 0, "lon": -77.0215715, "rental_uris": {"android": "https://dc.lft.to/lastmile_qr_scan", "ios": "https://dc.lft.to/lastmile_qr_scan"}, "fusion_lon": 0.0, "lat": 38.926058, "type": "electric_scooter", "fusion_lat": 0.0, "bike_id": "ffc063e4ce5bb94627e901bab715f11e"}, {"name": "b454575cb2b436477c2de494b3ad561f", "is_reserved": 0, "is_disabled": 0, "lon": -77.025868, "rental_uris": {"android": "https://dc.lft.to/lastmile_qr_scan", "ios": "https://dc.lft.to/lastmile_qr_scan"}, "fusion_lon": 0.0, "lat": 38.9128035, "type": "electric_scooter", "fusion_lat": 0.0, "bike_id": "b454575cb2b436477c2de494b3ad561f"}, {"name": "41487f795316d18d41e30d29ebb16a91", "is_reserved": 0, "is_disabled": 0, "lon": -77.00339183333334, "rental_uris": {"android": "https://dc.lft.to/lastmile_qr_scan", "ios": "https://dc.lft.to/lastmile_qr_scan"}, "fusion_lon": 0.0, "lat": 38.89361133333333, "type": "electric_scooter", "fusion_lat": 0.0, "bike_id": "41487f795316d18d41e30d29ebb16a91"}, {"name": "654265e989577163b0383a38b0f42718", "is_reserved": 0, "is_disabled": 0, "lon": -77.10183833333333, "rental_uris": {"android": "https://dc.lft.to/lastmile_qr_scan", "ios": "https://dc.lft.to/lastmile_qr_scan"}, "fusion_lon": 0.0, "lat": 38.91808316666667, "type": "electric_bike", "fusion_lat": 0.0, "bike_id": "654265e989577163b0383a38b0f42718"}, {"name": "b5ed9796f2d54ce84e2ca044e3cdf14c", "is_reserved": 0, "is_disabled": 0, "lon": -76.9812025, "rental_uris": {"android": "https://dc.lft.to/lastmile_qr_scan", "ios": "https://dc.lft.to/lastmile_qr_scan"}, "fusion_lon": 0.0, "lat": 38.89669333333333, "type": "electric_bike", "fusion_lat": 0.0, "bike_id": "b5ed9796f2d54ce84e2ca044e3cdf14c"}, {"name": "2f63ddeb899f3e06971a042f792cded0", "is_reserved": 0, "is_disabled": 0, "lon": -77.02226833333333, "rental_uris": {"android": "https://dc.lft.to/lastmile_qr_scan", "ios": "https://dc.lft.to/lastmile_qr_scan"}, "fusion_lon": 0.0, "lat": 38.912716333333336, "type": "electric_scooter", "fusion_lat": 0.0, "bike_id": "2f63ddeb899f3e06971a042f792cded0"}, {"name": "16365ce347f59cbc70f5c93bd182d790", "is_reserved": 0, "is_disabled": 0, "lon": -77.02795666666667, "rental_uris": {"android": "https://dc.lft.to/lastmile_qr_scan", "ios": "https://dc.lft.to/lastmile_qr_scan"}, "fusion_lon": 0.0, "lat": 38.930828166666664, "type": "electric_scooter", "fusion_lat": 0.0, "bike_id": "16365ce347f59cbc70f5c93bd182d790"}, {"name": "b887b2ea921eb08797473e373c6fb568", "is_reserved": 0, "is_disabled": 0, "lon": -77.03988733333334, "rental_uris": {"android": "https://dc.lft.to/lastmile_qr_scan", "ios": "https://dc.lft.to/lastmile_qr_scan"}, "fusion_lon": 0.0, "lat": 38.90590483333333, "type": "electric_scooter", "fusion_lat": 0.0, "bike_id": "b887b2ea921eb08797473e373c6fb568"}, {"name": "33ea062263b8401872404558c6f71eac", "is_reserved": 0, "is_disabled": 0, "lon": -76.93726733333334, "rental_uris": {"android": "https://dc.lft.to/lastmile_qr_scan", "ios": "https://dc.lft.to/lastmile_qr_scan"}, "fusion_lon": 0.0, "lat": 38.89107166666667, "type": "electric_scooter", "fusion_lat": 0.0, "bike_id": "33ea062263b8401872404558c6f71eac"}, {"name": "bc8af0e2bf5896d86d37363e119845ac", "is_reserved": 0, "is_disabled": 0, "lon": -77.017283, "rental_uris": {"android": "https://dc.lft.to/lastmile_qr_scan", "ios": "https://dc.lft.to/lastmile_qr_scan"}, "fusion_lon": 0.0, "lat": 38.8769955, "type": "electric_scooter", "fusion_lat": 0.0, "bike_id": "bc8af0e2bf5896d86d37363e119845ac"}, {"name": "5d94beb5d692da04097eb547d09e3c13", "is_reserved": 0, "is_disabled": 0, "lon": -77.002839, "rental_uris": {"android": "https://dc.lft.to/lastmile_qr_scan", "ios": "https://dc.lft.to/lastmile_qr_scan"}, "fusion_lon": 0.0, "lat": 38.939224333333335, "type": "electric_scooter", "fusion_lat": 0.0, "bike_id": "5d94beb5d692da04097eb547d09e3c13"}, {"name": "af841e623a8590d18457837cca824d1b", "is_reserved": 0, "is_disabled": 0, "lon": -77.04705983333334, "rental_uris": {"android": "https://dc.lft.to/lastmile_qr_scan", "ios": "https://dc.lft.to/lastmile_qr_scan"}, "fusion_lon": 0.0, "lat": 38.912664, "type": "electric_scooter", "fusion_lat": 0.0, "bike_id": "af841e623a8590d18457837cca824d1b"}, {"name": "dda9ea69ae0445eaf5c9c9cd4d83bc7c", "is_reserved": 0, "is_disabled": 0, "lon": -77.02697616666667, "rental_uris": {"android": "https://dc.lft.to/lastmile_qr_scan", "ios": "https://dc.lft.to/lastmile_qr_scan"}, "fusion_lon": 0.0, "lat": 38.908467, "type": "electric_scooter", "fusion_lat": 0.0, "bike_id": "dda9ea69ae0445eaf5c9c9cd4d83bc7c"}, {"name": "e88911db32161d6432bba1926499cca1", "is_reserved": 0, "is_disabled": 0, "lon": -76.93743033333334, "rental_uris": {"android": "https://dc.lft.to/lastmile_qr_scan", "ios": "https://dc.lft.to/lastmile_qr_scan"}, "fusion_lon": 0.0, "lat": 38.890148333333336, "type": "electric_scooter", "fusion_lat": 0.0, "bike_id": "e88911db32161d6432bba1926499cca1"}, {"name": "edc08b5f33c5815a083c4a60083c308a", "is_reserved": 0, "is_disabled": 0, "lon": -76.98845583333333, "rental_uris": {"android": "https://dc.lft.to/lastmile_qr_scan", "ios": "https://dc.lft.to/lastmile_qr_scan"}, "fusion_lon": 0.0, "lat": 38.90199716666667, "type": "electric_scooter", "fusion_lat": 0.0, "bike_id": "edc08b5f33c5815a083c4a60083c308a"}, {"name": "4339d1c364c9ed945ad7a43bce770309", "is_reserved": 0, "is_disabled": 0, "lon": -76.9903895, "rental_uris": {"android": "https://dc.lft.to/lastmile_qr_scan", "ios": "https://dc.lft.to/lastmile_qr_scan"}, "fusion_lon": 0.0, "lat": 38.902785, "type": "electric_scooter", "fusion_lat": 0.0, "bike_id": "4339d1c364c9ed945ad7a43bce770309"}, {"name": "8bdf1b615978cefac39c70787b941427", "is_reserved": 0, "is_disabled": 0, "lon": -77.03332533333334, "rental_uris": {"android": "https://dc.lft.to/lastmile_qr_scan", "ios": "https://dc.lft.to/lastmile_qr_scan"}, "fusion_lon": 0.0, "lat": 38.92878483333333, "type": "electric_scooter", "fusion_lat": 0.0, "bike_id": "8bdf1b615978cefac39c70787b941427"}, {"name": "8e47526aea5935a612490576ef9b0213", "is_reserved": 0, "is_disabled": 0, "lon": -76.99875216666666, "rental_uris": {"android": "https://dc.lft.to/lastmile_qr_scan", "ios": "https://dc.lft.to/lastmile_qr_scan"}, "fusion_lon": 0.0, "lat": 38.920554333333335, "type": "electric_scooter", "fusion_lat": 0.0, "bike_id": "8e47526aea5935a612490576ef9b0213"}, {"name": "f10c0da400da889fa03e07c10112b3a7", "is_reserved": 0, "is_disabled": 0, "lon": -77.04249783333333, "rental_uris": {"android": "https://dc.lft.to/lastmile_qr_scan", "ios": "https://dc.lft.to/lastmile_qr_scan"}, "fusion_lon": 0.0, "lat": 38.91786, "type": "electric_scooter", "fusion_lat": 0.0, "bike_id": "f10c0da400da889fa03e07c10112b3a7"}, {"name": "4b3305fcb1aeef3135b81e758d6bc7aa", "is_reserved": 0, "is_disabled": 0, "lon": -76.948858, "rental_uris": {"android": "https://dc.lft.to/lastmile_qr_scan", "ios": "https://dc.lft.to/lastmile_qr_scan"}, "fusion_lon": 0.0, "lat": 38.895103, "type": "electric_scooter", "fusion_lat": 0.0, "bike_id": "4b3305fcb1aeef3135b81e758d6bc7aa"}, {"name": "bf875ae123b79006e41d3567dde8f69a", "is_reserved": 0, "is_disabled": 0, "lon": -77.02212716666666, "rental_uris": {"android": "https://dc.lft.to/lastmile_qr_scan", "ios": "https://dc.lft.to/lastmile_qr_scan"}, "fusion_lon": 0.0, "lat": 38.90543666666667, "type": "electric_scooter", "fusion_lat": 0.0, "bike_id": "bf875ae123b79006e41d3567dde8f69a"}, {"name": "a433bcddd1099746a58ef7576c0685bd", "is_reserved": 0, "is_disabled": 0, "lon": -77.04225383333333, "rental_uris": {"android": "https://dc.lft.to/lastmile_qr_scan", "ios": "https://dc.lft.to/lastmile_qr_scan"}, "fusion_lon": 0.0, "lat": 38.92174883333333, "type": "electric_scooter", "fusion_lat": 0.0, "bike_id": "a433bcddd1099746a58ef7576c0685bd"}, {"name": "bfff813afbdfaac0bfe5d0e40c1de8b7", "is_reserved": 0, "is_disabled": 0, "lon": -77.04179083333334, "rental_uris": {"android": "https://dc.lft.to/lastmile_qr_scan", "ios": "https://dc.lft.to/lastmile_qr_scan"}, "fusion_lon": 0.0, "lat": 38.91417466666667, "type": "electric_scooter", "fusion_lat": 0.0, "bike_id": "bfff813afbdfaac0bfe5d0e40c1de8b7"}, {"name": "8851090d68cc5c3874dfdfb2b7463d4d", "is_reserved": 0, "is_disabled": 0, "lon": -76.99511333333334, "rental_uris": {"android": "https://dc.lft.to/lastmile_qr_scan", "ios": "https://dc.lft.to/lastmile_qr_scan"}, "fusion_lon": 0.0, "lat": 38.895507333333335, "type": "electric_scooter", "fusion_lat": 0.0, "bike_id": "8851090d68cc5c3874dfdfb2b7463d4d"}, {"name": "16195e7821475740053e4aaad4a93cff", "is_reserved": 0, "is_disabled": 0, "lon": -77.03908966666667, "rental_uris": {"android": "https://dc.lft.to/lastmile_qr_scan", "ios": "https://dc.lft.to/lastmile_qr_scan"}, "fusion_lon": 0.0, "lat": 38.92317833333333, "type": "electric_scooter", "fusion_lat": 0.0, "bike_id": "16195e7821475740053e4aaad4a93cff"}, {"name": "67733f00a14e91c2c4f2058e72a24fde", "is_reserved": 0, "is_disabled": 0, "lon": -76.9912805, "rental_uris": {"android": "https://dc.lft.to/lastmile_qr_scan", "ios": "https://dc.lft.to/lastmile_qr_scan"}, "fusion_lon": 0.0, "lat": 38.93389633333334, "type": "electric_scooter", "fusion_lat": 0.0, "bike_id": "67733f00a14e91c2c4f2058e72a24fde"}, {"name": "8952f0238985ceef1eb8b01518a05be7", "is_reserved": 0, "is_disabled": 0, "lon": -77.03212116666667, "rental_uris": {"android": "https://dc.lft.to/lastmile_qr_scan", "ios": "https://dc.lft.to/lastmile_qr_scan"}, "fusion_lon": 0.0, "lat": 38.88657716666667, "type": "electric_scooter", "fusion_lat": 0.0, "bike_id": "8952f0238985ceef1eb8b01518a05be7"}, {"name": "ef22972e4ea626c382ff3a313dcef67e", "is_reserved": 0, "is_disabled": 0, "lon": -77.01555466666667, "rental_uris": {"android": "https://dc.lft.to/lastmile_qr_scan", "ios": "https://dc.lft.to/lastmile_qr_scan"}, "fusion_lon": 0.0, "lat": 38.91373766666667, "type": "electric_scooter", "fusion_lat": 0.0, "bike_id": "ef22972e4ea626c382ff3a313dcef67e"}, {"name": "4998c2b39616b3011fa0303723eee89b", "is_reserved": 0, "is_disabled": 0, "lon": -77.04168533333333, "rental_uris": {"android": "https://dc.lft.to/lastmile_qr_scan", "ios": "https://dc.lft.to/lastmile_qr_scan"}, "fusion_lon": 0.0, "lat": 38.90727966666667, "type": "electric_scooter", "fusion_lat": 0.0, "bike_id": "4998c2b39616b3011fa0303723eee89b"}, {"name": "24f2ac364953e8a30f7c149f1e196b0a", "is_reserved": 0, "is_disabled": 0, "lon": -77.00760766666667, "rental_uris": {"android": "https://dc.lft.to/lastmile_qr_scan", "ios": "https://dc.lft.to/lastmile_qr_scan"}, "fusion_lon": 0.0, "lat": 38.90056116666667, "type": "electric_scooter", "fusion_lat": 0.0, "bike_id": "24f2ac364953e8a30f7c149f1e196b0a"}, {"name": "3bc5c148b73ecba20e5b564df92c4761", "is_reserved": 0, "is_disabled": 0, "lon": -77.02157216666667, "rental_uris": {"android": "https://dc.lft.to/lastmile_qr_scan", "ios": "https://dc.lft.to/lastmile_qr_scan"}, "fusion_lon": 0.0, "lat": 38.9260545, "type": "electric_scooter", "fusion_lat": 0.0, "bike_id": "3bc5c148b73ecba20e5b564df92c4761"}, {"name": "33a2e6c76f921c5cc76f48a084682ab8", "is_reserved": 0, "is_disabled": 0, "lon": -77.04003316666666, "rental_uris": {"android": "https://dc.lft.to/lastmile_qr_scan", "ios": "https://dc.lft.to/lastmile_qr_scan"}, "fusion_lon": 0.0, "lat": 38.9057965, "type": "electric_scooter", "fusion_lat": 0.0, "bike_id": "33a2e6c76f921c5cc76f48a084682ab8"}, {"name": "42ad26cda458440f2829a9eb1ae73785", "is_reserved": 0, "is_disabled": 0, "lon": -76.99189183333333, "rental_uris": {"android": "https://dc.lft.to/lastmile_qr_scan", "ios": "https://dc.lft.to/lastmile_qr_scan"}, "fusion_lon": 0.0, "lat": 38.89523283333333, "type": "electric_scooter", "fusion_lat": 0.0, "bike_id": "42ad26cda458440f2829a9eb1ae73785"}, {"name": "2eed686429ff31e25fd906cbaddc026c", "is_reserved": 0, "is_disabled": 0, "lon": -77.026713, "rental_uris": {"android": "https://dc.lft.to/lastmile_qr_scan", "ios": "https://dc.lft.to/lastmile_qr_scan"}, "fusion_lon": 0.0, "lat": 38.954909666666666, "type": "electric_bike", "fusion_lat": 0.0, "bike_id": "2eed686429ff31e25fd906cbaddc026c"}, {"name": "b3390493118abbf2641e5bae2ba945a1", "is_reserved": 0, "is_disabled": 0, "lon": -77.02712083333333, "rental_uris": {"android": "https://dc.lft.to/lastmile_qr_scan", "ios": "https://dc.lft.to/lastmile_qr_scan"}, "fusion_lon": 0.0, "lat": 38.881308, "type": "electric_scooter", "fusion_lat": 0.0, "bike_id": "b3390493118abbf2641e5bae2ba945a1"}, {"name": "5f93bc1156c22d0881c21b5be84d5a49", "is_reserved": 0, "is_disabled": 0, "lon": -77.14990416666667, "rental_uris": {"android": "https://dc.lft.to/lastmile_qr_scan", "ios": "https://dc.lft.to/lastmile_qr_scan"}, "fusion_lon": 0.0, "lat": 39.094652833333335, "type": "electric_bike", "fusion_lat": 0.0, "bike_id": "5f93bc1156c22d0881c21b5be84d5a49"}, {"name": "07370be684e0cf58c2b23e8bea481676", "is_reserved": 0, "is_disabled": 0, "lon": -77.04086866666667, "rental_uris": {"android": "https://dc.lft.to/lastmile_qr_scan", "ios": "https://dc.lft.to/lastmile_qr_scan"}, "fusion_lon": 0.0, "lat": 38.92395366666667, "type": "electric_scooter", "fusion_lat": 0.0, "bike_id": "07370be684e0cf58c2b23e8bea481676"}, {"name": "4dd85dd41a93d09505b7810d33a85d90", "is_reserved": 0, "is_disabled": 0, "lon": -77.01865416666666, "rental_uris": {"android": "https://dc.lft.to/lastmile_qr_scan", "ios": "https://dc.lft.to/lastmile_qr_scan"}, "fusion_lon": 0.0, "lat": 38.903993666666665, "type": "electric_scooter", "fusion_lat": 0.0, "bike_id": "4dd85dd41a93d09505b7810d33a85d90"}, {"name": "2f29628d33a73e73461a92e6f6a7d940", "is_reserved": 0, "is_disabled": 0, "lon": -76.94884983333333, "rental_uris": {"android": "https://dc.lft.to/lastmile_qr_scan", "ios": "https://dc.lft.to/lastmile_qr_scan"}, "fusion_lon": 0.0, "lat": 38.89513216666667, "type": "electric_scooter", "fusion_lat": 0.0, "bike_id": "2f29628d33a73e73461a92e6f6a7d940"}, {"name": "d127ec71bec39a107cd12a57da481b51", "is_reserved": 0, "is_disabled": 0, "lon": -77.0901995, "rental_uris": {"android": "https://dc.lft.to/lastmile_qr_scan", "ios": "https://dc.lft.to/lastmile_qr_scan"}, "fusion_lon": 0.0, "lat": 38.841251, "type": "electric_bike", "fusion_lat": 0.0, "bike_id": "d127ec71bec39a107cd12a57da481b51"}, {"name": "2200dc5da5d6168fd16f33a6ef39f623", "is_reserved": 0, "is_disabled": 0, "lon": -76.9922835, "rental_uris": {"android": "https://dc.lft.to/lastmile_qr_scan", "ios": "https://dc.lft.to/lastmile_qr_scan"}, "fusion_lon": 0.0, "lat": 38.8988935, "type": "electric_scooter", "fusion_lat": 0.0, "bike_id": "2200dc5da5d6168fd16f33a6ef39f623"}, {"name": "015b12d44f7b02144a3e449ed65f5ccb", "is_reserved": 0, "is_disabled": 0, "lon": -77.07303933333333, "rental_uris": {"android": "https://dc.lft.to/lastmile_qr_scan", "ios": "https://dc.lft.to/lastmile_qr_scan"}, "fusion_lon": 0.0, "lat": 38.91206, "type": "electric_scooter", "fusion_lat": 0.0, "bike_id": "015b12d44f7b02144a3e449ed65f5ccb"}, {"name": "913f75c588dbf356b2cdcbbd9d1cc356", "is_reserved": 0, "is_disabled": 0, "lon": -77.038365, "rental_uris": {"android": "https://dc.lft.to/lastmile_qr_scan", "ios": "https://dc.lft.to/lastmile_qr_scan"}, "fusion_lon": 0.0, "lat": 38.904044666666664, "type": "electric_scooter", "fusion_lat": 0.0, "bike_id": "913f75c588dbf356b2cdcbbd9d1cc356"}, {"name": "3c4655f24e608ef0897e8445cb76433d", "is_reserved": 0, "is_disabled": 0, "lon": -77.04083466666667, "rental_uris": {"android": "https://dc.lft.to/lastmile_qr_scan", "ios": "https://dc.lft.to/lastmile_qr_scan"}, "fusion_lon": 0.0, "lat": 38.911183333333334, "type": "electric_scooter", "fusion_lat": 0.0, "bike_id": "3c4655f24e608ef0897e8445cb76433d"}, {"name": "3741a609373069c3a583f9a7fb188ce6", "is_reserved": 0, "is_disabled": 0, "lon": -77.19911133333333, "rental_uris": {"android": "https://dc.lft.to/lastmile_qr_scan", "ios": "https://dc.lft.to/lastmile_qr_scan"}, "fusion_lon": 0.0, "lat": 38.87527433333333, "type": "electric_bike", "fusion_lat": 0.0, "bike_id": "3741a609373069c3a583f9a7fb188ce6"}, {"name": "0d416354c28acf2efc11ba1dc3c66707", "is_reserved": 0, "is_disabled": 0, "lon": -77.04664516666666, "rental_uris": {"android": "https://dc.lft.to/lastmile_qr_scan", "ios": "https://dc.lft.to/lastmile_qr_scan"}, "fusion_lon": 0.0, "lat": 38.90437216666667, "type": "electric_scooter", "fusion_lat": 0.0, "bike_id": "0d416354c28acf2efc11ba1dc3c66707"}, {"name": "e236a35141da5716471feca4e31e4fd8", "is_reserved": 0, "is_disabled": 0, "lon": -77.09951683333334, "rental_uris": {"android": "https://dc.lft.to/lastmile_qr_scan", "ios": "https://dc.lft.to/lastmile_qr_scan"}, "fusion_lon": 0.0, "lat": 38.922458, "type": "electric_scooter", "fusion_lat": 0.0, "bike_id": "e236a35141da5716471feca4e31e4fd8"}, {"name": "e040dd7a5eb9ec18e0c9c15630044630", "is_reserved": 0, "is_disabled": 0, "lon": -77.01748666666667, "rental_uris": {"android": "https://dc.lft.to/lastmile_qr_scan", "ios": "https://dc.lft.to/lastmile_qr_scan"}, "fusion_lon": 0.0, "lat": 38.872789833333336, "type": "electric_scooter", "fusion_lat": 0.0, "bike_id": "e040dd7a5eb9ec18e0c9c15630044630"}, {"name": "fd61497242d2742f3598d9392127e48a", "is_reserved": 0, "is_disabled": 0, "lon": -77.0335675, "rental_uris": {"android": "https://dc.lft.to/lastmile_qr_scan", "ios": "https://dc.lft.to/lastmile_qr_scan"}, "fusion_lon": 0.0, "lat": 38.92440533333333, "type": "electric_scooter", "fusion_lat": 0.0, "bike_id": "fd61497242d2742f3598d9392127e48a"}, {"name": "d65881e60f055a6ae24da5986fab74b9", "is_reserved": 0, "is_disabled": 0, "lon": -76.9617905, "rental_uris": {"android": "https://dc.lft.to/lastmile_qr_scan", "ios": "https://dc.lft.to/lastmile_qr_scan"}, "fusion_lon": 0.0, "lat": 38.918614833333336, "type": "electric_bike", "fusion_lat": 0.0, "bike_id": "d65881e60f055a6ae24da5986fab74b9"}, {"name": "24403a4112d5493968a553f66e65dc60", "is_reserved": 0, "is_disabled": 0, "lon": -77.03892516666667, "rental_uris": {"android": "https://dc.lft.to/lastmile_qr_scan", "ios": "https://dc.lft.to/lastmile_qr_scan"}, "fusion_lon": 0.0, "lat": 38.9223535, "type": "electric_scooter", "fusion_lat": 0.0, "bike_id": "24403a4112d5493968a553f66e65dc60"}, {"name": "28733853829b2a616cc83d7d9ccb9fa3", "is_reserved": 0, "is_disabled": 0, "lon": -77.04525416666667, "rental_uris": {"android": "https://dc.lft.to/lastmile_qr_scan", "ios": "https://dc.lft.to/lastmile_qr_scan"}, "fusion_lon": 0.0, "lat": 38.907312, "type": "electric_scooter", "fusion_lat": 0.0, "bike_id": "28733853829b2a616cc83d7d9ccb9fa3"}, {"name": "bf1ec3bd71b0ca81013f682e23095e36", "is_reserved": 0, "is_disabled": 0, "lon": -77.08174466666667, "rental_uris": {"android": "https://dc.lft.to/lastmile_qr_scan", "ios": "https://dc.lft.to/lastmile_qr_scan"}, "fusion_lon": 0.0, "lat": 38.888718833333336, "type": "electric_bike", "fusion_lat": 0.0, "bike_id": "bf1ec3bd71b0ca81013f682e23095e36"}, {"name": "267ec96fae9cb9d798f47ba4893a4a2a", "is_reserved": 0, "is_disabled": 0, "lon": -77.0033305, "rental_uris": {"android": "https://dc.lft.to/lastmile_qr_scan", "ios": "https://dc.lft.to/lastmile_qr_scan"}, "fusion_lon": 0.0, "lat": 38.893562, "type": "electric_scooter", "fusion_lat": 0.0, "bike_id": "267ec96fae9cb9d798f47ba4893a4a2a"}, {"name": "8f9b8d430d506e45a4f127a83ddc9493", "is_reserved": 0, "is_disabled": 0, "lon": -77.01580766666666, "rental_uris": {"android": "https://dc.lft.to/lastmile_qr_scan", "ios": "https://dc.lft.to/lastmile_qr_scan"}, "fusion_lon": 0.0, "lat": 38.87622183333333, "type": "electric_scooter", "fusion_lat": 0.0, "bike_id": "8f9b8d430d506e45a4f127a83ddc9493"}, {"name": "fa141f04a74983f7df48ebc620c88d37", "is_reserved": 0, "is_disabled": 0, "lon": -77.01278833333333, "rental_uris": {"android": "https://dc.lft.to/lastmile_qr_scan", "ios": "https://dc.lft.to/lastmile_qr_scan"}, "fusion_lon": 0.0, "lat": 38.8778895, "type": "electric_bike", "fusion_lat": 0.0, "bike_id": "fa141f04a74983f7df48ebc620c88d37"}, {"name": "989857a109f53cee3ebd8c78786267e5", "is_reserved": 0, "is_disabled": 0, "lon": -77.022718, "rental_uris": {"android": "https://dc.lft.to/lastmile_qr_scan", "ios": "https://dc.lft.to/lastmile_qr_scan"}, "fusion_lon": 0.0, "lat": 38.88739366666667, "type": "electric_scooter", "fusion_lat": 0.0, "bike_id": "989857a109f53cee3ebd8c78786267e5"}, {"name": "6ef5bed0d4d0c8236a5069f9b9459e2a", "is_reserved": 0, "is_disabled": 0, "lon": -77.0258995, "rental_uris": {"android": "https://dc.lft.to/lastmile_qr_scan", "ios": "https://dc.lft.to/lastmile_qr_scan"}, "fusion_lon": 0.0, "lat": 38.975937333333334, "type": "electric_scooter", "fusion_lat": 0.0, "bike_id": "6ef5bed0d4d0c8236a5069f9b9459e2a"}, {"name": "31dc81ab778f0144056bc7d3ad181e0d", "is_reserved": 0, "is_disabled": 0, "lon": -77.025468, "rental_uris": {"android": "https://dc.lft.to/lastmile_qr_scan", "ios": "https://dc.lft.to/lastmile_qr_scan"}, "fusion_lon": 0.0, "lat": 38.92093033333333, "type": "electric_scooter", "fusion_lat": 0.0, "bike_id": "31dc81ab778f0144056bc7d3ad181e0d"}, {"name": "4cb3613f58ca6b49fe1c17584de11a98", "is_reserved": 0, "is_disabled": 0, "lon": -77.04130983333333, "rental_uris": {"android": "https://dc.lft.to/lastmile_qr_scan", "ios": "https://dc.lft.to/lastmile_qr_scan"}, "fusion_lon": 0.0, "lat": 38.90635483333333, "type": "electric_scooter", "fusion_lat": 0.0, "bike_id": "4cb3613f58ca6b49fe1c17584de11a98"}, {"name": "790f367b85cc878b07d66a17fd7f052c", "is_reserved": 0, "is_disabled": 0, "lon": -77.04656133333333, "rental_uris": {"android": "https://dc.lft.to/lastmile_qr_scan", "ios": "https://dc.lft.to/lastmile_qr_scan"}, "fusion_lon": 0.0, "lat": 38.905194, "type": "electric_scooter", "fusion_lat": 0.0, "bike_id": "790f367b85cc878b07d66a17fd7f052c"}, {"name": "85e2f687d9fa20bfac48b069c1f2501f", "is_reserved": 0, "is_disabled": 0, "lon": -77.01732233333334, "rental_uris": {"android": "https://dc.lft.to/lastmile_qr_scan", "ios": "https://dc.lft.to/lastmile_qr_scan"}, "fusion_lon": 0.0, "lat": 38.88636966666667, "type": "electric_scooter", "fusion_lat": 0.0, "bike_id": "85e2f687d9fa20bfac48b069c1f2501f"}, {"name": "fdecc972ef6a8f9e6ec1f013ebf5e813", "is_reserved": 0, "is_disabled": 0, "lon": -77.03087116666667, "rental_uris": {"android": "https://dc.lft.to/lastmile_qr_scan", "ios": "https://dc.lft.to/lastmile_qr_scan"}, "fusion_lon": 0.0, "lat": 38.919152, "type": "electric_scooter", "fusion_lat": 0.0, "bike_id": "fdecc972ef6a8f9e6ec1f013ebf5e813"}, {"name": "1e8fcc9a63e9d9daca02ab58063a9752", "is_reserved": 0, "is_disabled": 0, "lon": -77.03685883333333, "rental_uris": {"android": "https://dc.lft.to/lastmile_qr_scan", "ios": "https://dc.lft.to/lastmile_qr_scan"}, "fusion_lon": 0.0, "lat": 38.916787, "type": "electric_scooter", "fusion_lat": 0.0, "bike_id": "1e8fcc9a63e9d9daca02ab58063a9752"}, {"name": "9a8e545cf20ce7721869fa8dbdbff5e4", "is_reserved": 0, "is_disabled": 0, "lon": -77.02511783333334, "rental_uris": {"android": "https://dc.lft.to/lastmile_qr_scan", "ios": "https://dc.lft.to/lastmile_qr_scan"}, "fusion_lon": 0.0, "lat": 38.9206625, "type": "electric_scooter", "fusion_lat": 0.0, "bike_id": "9a8e545cf20ce7721869fa8dbdbff5e4"}, {"name": "8c331af2eae0eecd659c442b06111d70", "is_reserved": 0, "is_disabled": 0, "lon": -77.01696133333333, "rental_uris": {"android": "https://dc.lft.to/lastmile_qr_scan", "ios": "https://dc.lft.to/lastmile_qr_scan"}, "fusion_lon": 0.0, "lat": 38.9110455, "type": "electric_scooter", "fusion_lat": 0.0, "bike_id": "8c331af2eae0eecd659c442b06111d70"}, {"name": "501116a466a0f9ee4141e11f9c6251ec", "is_reserved": 0, "is_disabled": 0, "lon": -77.048776, "rental_uris": {"android": "https://dc.lft.to/lastmile_qr_scan", "ios": "https://dc.lft.to/lastmile_qr_scan"}, "fusion_lon": 0.0, "lat": 38.909478, "type": "electric_scooter", "fusion_lat": 0.0, "bike_id": "501116a466a0f9ee4141e11f9c6251ec"}, {"name": "b47d0cc332ff96249a548de92a87197a", "is_reserved": 0, "is_disabled": 0, "lon": -77.0234385, "rental_uris": {"android": "https://dc.lft.to/lastmile_qr_scan", "ios": "https://dc.lft.to/lastmile_qr_scan"}, "fusion_lon": 0.0, "lat": 38.922641166666665, "type": "electric_scooter", "fusion_lat": 0.0, "bike_id": "b47d0cc332ff96249a548de92a87197a"}, {"name": "da4cc359488bbe99eba2913f0990001b", "is_reserved": 0, "is_disabled": 0, "lon": -77.0030535, "rental_uris": {"android": "https://dc.lft.to/lastmile_qr_scan", "ios": "https://dc.lft.to/lastmile_qr_scan"}, "fusion_lon": 0.0, "lat": 38.892245, "type": "electric_scooter", "fusion_lat": 0.0, "bike_id": "da4cc359488bbe99eba2913f0990001b"}, {"name": "5f9bd1d1e1b9dade5ba12efa421b7f66", "is_reserved": 0, "is_disabled": 0, "lon": -76.9908765, "rental_uris": {"android": "https://dc.lft.to/lastmile_qr_scan", "ios": "https://dc.lft.to/lastmile_qr_scan"}, "fusion_lon": 0.0, "lat": 38.86355916666667, "type": "electric_scooter", "fusion_lat": 0.0, "bike_id": "5f9bd1d1e1b9dade5ba12efa421b7f66"}, {"name": "9b81f7840f5486752643714d56b382e0", "is_reserved": 0, "is_disabled": 0, "lon": -77.0101755, "rental_uris": {"android": "https://dc.lft.to/lastmile_qr_scan", "ios": "https://dc.lft.to/lastmile_qr_scan"}, "fusion_lon": 0.0, "lat": 38.9063805, "type": "electric_scooter", "fusion_lat": 0.0, "bike_id": "9b81f7840f5486752643714d56b382e0"}, {"name": "e8b067808a7ea454f1e1e2638ef851fb", "is_reserved": 0, "is_disabled": 0, "lon": -77.02297083333333, "rental_uris": {"android": "https://dc.lft.to/lastmile_qr_scan", "ios": "https://dc.lft.to/lastmile_qr_scan"}, "fusion_lon": 0.0, "lat": 38.916087833333336, "type": "electric_scooter", "fusion_lat": 0.0, "bike_id": "e8b067808a7ea454f1e1e2638ef851fb"}, {"name": "666c9efb803906dd0d9f66ba843f34d6", "is_reserved": 0, "is_disabled": 0, "lon": -77.038409, "rental_uris": {"android": "https://dc.lft.to/lastmile_qr_scan", "ios": "https://dc.lft.to/lastmile_qr_scan"}, "fusion_lon": 0.0, "lat": 38.9128135, "type": "electric_scooter", "fusion_lat": 0.0, "bike_id": "666c9efb803906dd0d9f66ba843f34d6"}, {"name": "fa6fb97fa131573d120379a326b7dc7e", "is_reserved": 0, "is_disabled": 0, "lon": -76.98727466666666, "rental_uris": {"android": "https://dc.lft.to/lastmile_qr_scan", "ios": "https://dc.lft.to/lastmile_qr_scan"}, "fusion_lon": 0.0, "lat": 38.86714383333333, "type": "electric_scooter", "fusion_lat": 0.0, "bike_id": "fa6fb97fa131573d120379a326b7dc7e"}, {"name": "99ee154eb7eba261cc8cbb95238c6db5", "is_reserved": 0, "is_disabled": 0, "lon": -77.02726583333333, "rental_uris": {"android": "https://dc.lft.to/lastmile_qr_scan", "ios": "https://dc.lft.to/lastmile_qr_scan"}, "fusion_lon": 0.0, "lat": 38.9398035, "type": "electric_scooter", "fusion_lat": 0.0, "bike_id": "99ee154eb7eba261cc8cbb95238c6db5"}, {"name": "123353726dd57e21a594fa0ae7a02406", "is_reserved": 0, "is_disabled": 0, "lon": -76.95206933333333, "rental_uris": {"android": "https://dc.lft.to/lastmile_qr_scan", "ios": "https://dc.lft.to/lastmile_qr_scan"}, "fusion_lon": 0.0, "lat": 38.936696833333336, "type": "electric_bike", "fusion_lat": 0.0, "bike_id": "123353726dd57e21a594fa0ae7a02406"}, {"name": "53884fb84e9e34276fec31a1a724d08f", "is_reserved": 0, "is_disabled": 0, "lon": -77.010615, "rental_uris": {"android": "https://dc.lft.to/lastmile_qr_scan", "ios": "https://dc.lft.to/lastmile_qr_scan"}, "fusion_lon": 0.0, "lat": 38.872458, "type": "electric_scooter", "fusion_lat": 0.0, "bike_id": "53884fb84e9e34276fec31a1a724d08f"}, {"name": "b38fdaffcabf1d546d1c5d985275e5e4", "is_reserved": 0, "is_disabled": 0, "lon": -77.02479766666667, "rental_uris": {"android": "https://dc.lft.to/lastmile_qr_scan", "ios": "https://dc.lft.to/lastmile_qr_scan"}, "fusion_lon": 0.0, "lat": 38.938846833333336, "type": "electric_scooter", "fusion_lat": 0.0, "bike_id": "b38fdaffcabf1d546d1c5d985275e5e4"}, {"name": "fe00dd6f70f5bb0335be32bf3b932859", "is_reserved": 0, "is_disabled": 0, "lon": -77.00756533333333, "rental_uris": {"android": "https://dc.lft.to/lastmile_qr_scan", "ios": "https://dc.lft.to/lastmile_qr_scan"}, "fusion_lon": 0.0, "lat": 38.89784316666667, "type": "electric_scooter", "fusion_lat": 0.0, "bike_id": "fe00dd6f70f5bb0335be32bf3b932859"}, {"name": "c60c9c9f26201fa777622a6f12fc9fb5", "is_reserved": 0, "is_disabled": 0, "lon": -77.01587266666667, "rental_uris": {"android": "https://dc.lft.to/lastmile_qr_scan", "ios": "https://dc.lft.to/lastmile_qr_scan"}, "fusion_lon": 0.0, "lat": 38.928452666666665, "type": "electric_scooter", "fusion_lat": 0.0, "bike_id": "c60c9c9f26201fa777622a6f12fc9fb5"}, {"name": "aa1d9b3e7cf80dee6add2032da999166", "is_reserved": 0, "is_disabled": 0, "lon": -77.02962433333333, "rental_uris": {"android": "https://dc.lft.to/lastmile_qr_scan", "ios": "https://dc.lft.to/lastmile_qr_scan"}, "fusion_lon": 0.0, "lat": 38.89522383333333, "type": "electric_scooter", "fusion_lat": 0.0, "bike_id": "aa1d9b3e7cf80dee6add2032da999166"}, {"name": "548d1a8cb74e0304244b8a26ff0b301b", "is_reserved": 0, "is_disabled": 0, "lon": -77.04467083333333, "rental_uris": {"android": "https://dc.lft.to/lastmile_qr_scan", "ios": "https://dc.lft.to/lastmile_qr_scan"}, "fusion_lon": 0.0, "lat": 38.905575, "type": "electric_scooter", "fusion_lat": 0.0, "bike_id": "548d1a8cb74e0304244b8a26ff0b301b"}, {"name": "a707ec343faf0d88d02d424fb8a2bbea", "is_reserved": 0, "is_disabled": 0, "lon": -77.04174633333334, "rental_uris": {"android": "https://dc.lft.to/lastmile_qr_scan", "ios": "https://dc.lft.to/lastmile_qr_scan"}, "fusion_lon": 0.0, "lat": 38.91266733333333, "type": "electric_scooter", "fusion_lat": 0.0, "bike_id": "a707ec343faf0d88d02d424fb8a2bbea"}, {"name": "0b40dd375d7868219b9eb4203970e222", "is_reserved": 0, "is_disabled": 0, "lon": -77.0237985, "rental_uris": {"android": "https://dc.lft.to/lastmile_qr_scan", "ios": "https://dc.lft.to/lastmile_qr_scan"}, "fusion_lon": 0.0, "lat": 38.892314166666665, "type": "electric_scooter", "fusion_lat": 0.0, "bike_id": "0b40dd375d7868219b9eb4203970e222"}, {"name": "c21378ba519e8813e48550908eb0de97", "is_reserved": 0, "is_disabled": 0, "lon": -77.02792016666666, "rental_uris": {"android": "https://dc.lft.to/lastmile_qr_scan", "ios": "https://dc.lft.to/lastmile_qr_scan"}, "fusion_lon": 0.0, "lat": 38.92675833333333, "type": "electric_scooter", "fusion_lat": 0.0, "bike_id": "c21378ba519e8813e48550908eb0de97"}, {"name": "c0cfdd4bddb56831f7cba65081a8030a", "is_reserved": 0, "is_disabled": 0, "lon": -77.0361975, "rental_uris": {"android": "https://dc.lft.to/lastmile_qr_scan", "ios": "https://dc.lft.to/lastmile_qr_scan"}, "fusion_lon": 0.0, "lat": 38.91692533333333, "type": "electric_scooter", "fusion_lat": 0.0, "bike_id": "c0cfdd4bddb56831f7cba65081a8030a"}, {"name": "e5d8f1f9157cd99f820b6a7d748fcada", "is_reserved": 0, "is_disabled": 0, "lon": -77.04489866666667, "rental_uris": {"android": "https://dc.lft.to/lastmile_qr_scan", "ios": "https://dc.lft.to/lastmile_qr_scan"}, "fusion_lon": 0.0, "lat": 38.90709616666667, "type": "electric_scooter", "fusion_lat": 0.0, "bike_id": "e5d8f1f9157cd99f820b6a7d748fcada"}, {"name": "0e4788ca2657ad5510f82f7699aa150d", "is_reserved": 0, "is_disabled": 0, "lon": -77.04195616666667, "rental_uris": {"android": "https://dc.lft.to/lastmile_qr_scan", "ios": "https://dc.lft.to/lastmile_qr_scan"}, "fusion_lon": 0.0, "lat": 38.922992666666666, "type": "electric_scooter", "fusion_lat": 0.0, "bike_id": "0e4788ca2657ad5510f82f7699aa150d"}, {"name": "6a936dae7f8d4c3bc34094e3b638dab2", "is_reserved": 0, "is_disabled": 0, "lon": -77.02509616666667, "rental_uris": {"android": "https://dc.lft.to/lastmile_qr_scan", "ios": "https://dc.lft.to/lastmile_qr_scan"}, "fusion_lon": 0.0, "lat": 38.904107333333336, "type": "electric_scooter", "fusion_lat": 0.0, "bike_id": "6a936dae7f8d4c3bc34094e3b638dab2"}, {"name": "550fd01444c59c8308ae9701384a868b", "is_reserved": 0, "is_disabled": 0, "lon": -77.01762183333334, "rental_uris": {"android": "https://dc.lft.to/lastmile_qr_scan", "ios": "https://dc.lft.to/lastmile_qr_scan"}, "fusion_lon": 0.0, "lat": 38.92108133333333, "type": "electric_scooter", "fusion_lat": 0.0, "bike_id": "550fd01444c59c8308ae9701384a868b"}, {"name": "08ed4c7d9e1188bcaff441739b99b2d5", "is_reserved": 0, "is_disabled": 0, "lon": -77.162343, "rental_uris": {"android": "https://dc.lft.to/lastmile_qr_scan", "ios": "https://dc.lft.to/lastmile_qr_scan"}, "fusion_lon": 0.0, "lat": 38.8866135, "type": "electric_bike", "fusion_lat": 0.0, "bike_id": "08ed4c7d9e1188bcaff441739b99b2d5"}, {"name": "a2af18d36e6ecaf7a83e8c0ab3757cea", "is_reserved": 0, "is_disabled": 0, "lon": -76.98927016666667, "rental_uris": {"android": "https://dc.lft.to/lastmile_qr_scan", "ios": "https://dc.lft.to/lastmile_qr_scan"}, "fusion_lon": 0.0, "lat": 38.882050666666665, "type": "electric_scooter", "fusion_lat": 0.0, "bike_id": "a2af18d36e6ecaf7a83e8c0ab3757cea"}, {"name": "093be29acab411f6a5cef95a4be8450b", "is_reserved": 0, "is_disabled": 0, "lon": -77.02479366666667, "rental_uris": {"android": "https://dc.lft.to/lastmile_qr_scan", "ios": "https://dc.lft.to/lastmile_qr_scan"}, "fusion_lon": 0.0, "lat": 38.938818166666664, "type": "electric_scooter", "fusion_lat": 0.0, "bike_id": "093be29acab411f6a5cef95a4be8450b"}, {"name": "45415d2ceef0a19dab5a054fe58a2d25", "is_reserved": 0, "is_disabled": 0, "lon": -76.95531916666667, "rental_uris": {"android": "https://dc.lft.to/lastmile_qr_scan", "ios": "https://dc.lft.to/lastmile_qr_scan"}, "fusion_lon": 0.0, "lat": 38.88765733333334, "type": "electric_scooter", "fusion_lat": 0.0, "bike_id": "45415d2ceef0a19dab5a054fe58a2d25"}, {"name": "fdccec9e0728d1667647a858b8ade035", "is_reserved": 0, "is_disabled": 0, "lon": -77.03033883333333, "rental_uris": {"android": "https://dc.lft.to/lastmile_qr_scan", "ios": "https://dc.lft.to/lastmile_qr_scan"}, "fusion_lon": 0.0, "lat": 38.922434333333335, "type": "electric_scooter", "fusion_lat": 0.0, "bike_id": "fdccec9e0728d1667647a858b8ade035"}, {"name": "c293a9b22f7c049d8c09474577546be2", "is_reserved": 0, "is_disabled": 0, "lon": -77.0271965, "rental_uris": {"android": "https://dc.lft.to/lastmile_qr_scan", "ios": "https://dc.lft.to/lastmile_qr_scan"}, "fusion_lon": 0.0, "lat": 38.90750716666667, "type": "electric_scooter", "fusion_lat": 0.0, "bike_id": "c293a9b22f7c049d8c09474577546be2"}, {"name": "3154d85f0775d3e36c78ee37c2c643c6", "is_reserved": 0, "is_disabled": 0, "lon": -76.90816133333334, "rental_uris": {"android": "https://dc.lft.to/lastmile_qr_scan", "ios": "https://dc.lft.to/lastmile_qr_scan"}, "fusion_lon": 0.0, "lat": 38.99455916666667, "type": "electric_bike", "fusion_lat": 0.0, "bike_id": "3154d85f0775d3e36c78ee37c2c643c6"}, {"name": "23397d3f4b5e11d4ab12bb5cfc0f840f", "is_reserved": 0, "is_disabled": 0, "lon": -77.0623835, "rental_uris": {"android": "https://dc.lft.to/lastmile_qr_scan", "ios": "https://dc.lft.to/lastmile_qr_scan"}, "fusion_lon": 0.0, "lat": 38.905299166666666, "type": "electric_scooter", "fusion_lat": 0.0, "bike_id": "23397d3f4b5e11d4ab12bb5cfc0f840f"}, {"name": "96a203ec9ed3a0e2c9622023543ea6b9", "is_reserved": 0, "is_disabled": 0, "lon": -76.97907816666667, "rental_uris": {"android": "https://dc.lft.to/lastmile_qr_scan", "ios": "https://dc.lft.to/lastmile_qr_scan"}, "fusion_lon": 0.0, "lat": 38.854894, "type": "electric_bike", "fusion_lat": 0.0, "bike_id": "96a203ec9ed3a0e2c9622023543ea6b9"}, {"name": "50d32833cdc57718cbeb4752689d87be", "is_reserved": 0, "is_disabled": 0, "lon": -77.036222, "rental_uris": {"android": "https://dc.lft.to/lastmile_qr_scan", "ios": "https://dc.lft.to/lastmile_qr_scan"}, "fusion_lon": 0.0, "lat": 38.9528645, "type": "electric_scooter", "fusion_lat": 0.0, "bike_id": "50d32833cdc57718cbeb4752689d87be"}, {"name": "397cd6719950067fd1c1338f0552cc05", "is_reserved": 0, "is_disabled": 0, "lon": -77.10175866666667, "rental_uris": {"android": "https://dc.lft.to/lastmile_qr_scan", "ios": "https://dc.lft.to/lastmile_qr_scan"}, "fusion_lon": 0.0, "lat": 38.92546766666667, "type": "electric_scooter", "fusion_lat": 0.0, "bike_id": "397cd6719950067fd1c1338f0552cc05"}, {"name": "e0038429ae683909c5efc2aead08b58e", "is_reserved": 0, "is_disabled": 0, "lon": -76.99460516666667, "rental_uris": {"android": "https://dc.lft.to/lastmile_qr_scan", "ios": "https://dc.lft.to/lastmile_qr_scan"}, "fusion_lon": 0.0, "lat": 38.862222, "type": "electric_scooter", "fusion_lat": 0.0, "bike_id": "e0038429ae683909c5efc2aead08b58e"}, {"name": "4e4f95c2ee17432bf8d50dbc4b20ff6f", "is_reserved": 0, "is_disabled": 0, "lon": -76.987157, "rental_uris": {"android": "https://dc.lft.to/lastmile_qr_scan", "ios": "https://dc.lft.to/lastmile_qr_scan"}, "fusion_lon": 0.0, "lat": 38.89926166666667, "type": "electric_scooter", "fusion_lat": 0.0, "bike_id": "4e4f95c2ee17432bf8d50dbc4b20ff6f"}, {"name": "5ca31b531fd12a630dbdd374e02c9a2c", "is_reserved": 0, "is_disabled": 0, "lon": -77.03293916666667, "rental_uris": {"android": "https://dc.lft.to/lastmile_qr_scan", "ios": "https://dc.lft.to/lastmile_qr_scan"}, "fusion_lon": 0.0, "lat": 38.956434333333334, "type": "electric_scooter", "fusion_lat": 0.0, "bike_id": "5ca31b531fd12a630dbdd374e02c9a2c"}, {"name": "931652f79d65153c3117a028ba1bb30f", "is_reserved": 0, "is_disabled": 0, "lon": -77.03165283333334, "rental_uris": {"android": "https://dc.lft.to/lastmile_qr_scan", "ios": "https://dc.lft.to/lastmile_qr_scan"}, "fusion_lon": 0.0, "lat": 38.897853166666664, "type": "electric_scooter", "fusion_lat": 0.0, "bike_id": "931652f79d65153c3117a028ba1bb30f"}, {"name": "50b6c12983a3c04c9ab7021117b3fe34", "is_reserved": 0, "is_disabled": 0, "lon": -77.06346383333333, "rental_uris": {"android": "https://dc.lft.to/lastmile_qr_scan", "ios": "https://dc.lft.to/lastmile_qr_scan"}, "fusion_lon": 0.0, "lat": 38.908472833333335, "type": "electric_scooter", "fusion_lat": 0.0, "bike_id": "50b6c12983a3c04c9ab7021117b3fe34"}, {"name": "de704f942f62cc5a1abd42233e032628", "is_reserved": 0, "is_disabled": 0, "lon": -76.99727883333334, "rental_uris": {"android": "https://dc.lft.to/lastmile_qr_scan", "ios": "https://dc.lft.to/lastmile_qr_scan"}, "fusion_lon": 0.0, "lat": 38.90794116666667, "type": "electric_scooter", "fusion_lat": 0.0, "bike_id": "de704f942f62cc5a1abd42233e032628"}, {"name": "c707c821cd980b8f65585cbd57248389", "is_reserved": 0, "is_disabled": 0, "lon": -76.99756783333333, "rental_uris": {"android": "https://dc.lft.to/lastmile_qr_scan", "ios": "https://dc.lft.to/lastmile_qr_scan"}, "fusion_lon": 0.0, "lat": 38.92255633333333, "type": "electric_scooter", "fusion_lat": 0.0, "bike_id": "c707c821cd980b8f65585cbd57248389"}, {"name": "46f5a8840506933f9bdb9746f0b1cc8e", "is_reserved": 0, "is_disabled": 0, "lon": -77.04044483333334, "rental_uris": {"android": "https://dc.lft.to/lastmile_qr_scan", "ios": "https://dc.lft.to/lastmile_qr_scan"}, "fusion_lon": 0.0, "lat": 38.924066833333335, "type": "electric_scooter", "fusion_lat": 0.0, "bike_id": "46f5a8840506933f9bdb9746f0b1cc8e"}, {"name": "d9189e4de0c07fca24f9f581c6d4dd54", "is_reserved": 0, "is_disabled": 0, "lon": -76.99765616666667, "rental_uris": {"android": "https://dc.lft.to/lastmile_qr_scan", "ios": "https://dc.lft.to/lastmile_qr_scan"}, "fusion_lon": 0.0, "lat": 39.00595333333333, "type": "electric_bike", "fusion_lat": 0.0, "bike_id": "d9189e4de0c07fca24f9f581c6d4dd54"}, {"name": "d716157a8ac7c3e298bf90ddfc7d4d36", "is_reserved": 0, "is_disabled": 0, "lon": -77.04259016666667, "rental_uris": {"android": "https://dc.lft.to/lastmile_qr_scan", "ios": "https://dc.lft.to/lastmile_qr_scan"}, "fusion_lon": 0.0, "lat": 38.922118166666664, "type": "electric_scooter", "fusion_lat": 0.0, "bike_id": "d716157a8ac7c3e298bf90ddfc7d4d36"}, {"name": "a2f6057ab35f99cbfdbeba82e6cb5d14", "is_reserved": 0, "is_disabled": 0, "lon": -77.00317733333333, "rental_uris": {"android": "https://dc.lft.to/lastmile_qr_scan", "ios": "https://dc.lft.to/lastmile_qr_scan"}, "fusion_lon": 0.0, "lat": 38.90889583333333, "type": "electric_scooter", "fusion_lat": 0.0, "bike_id": "a2f6057ab35f99cbfdbeba82e6cb5d14"}, {"name": "3768a5855c69cc14f13d5791c6517d76", "is_reserved": 0, "is_disabled": 0, "lon": -77.0203645, "rental_uris": {"android": "https://dc.lft.to/lastmile_qr_scan", "ios": "https://dc.lft.to/lastmile_qr_scan"}, "fusion_lon": 0.0, "lat": 38.89272966666667, "type": "electric_scooter", "fusion_lat": 0.0, "bike_id": "3768a5855c69cc14f13d5791c6517d76"}, {"name": "1f9e2996246aad9918302a6834b90d08", "is_reserved": 0, "is_disabled": 0, "lon": -77.11431483333334, "rental_uris": {"android": "https://dc.lft.to/lastmile_qr_scan", "ios": "https://dc.lft.to/lastmile_qr_scan"}, "fusion_lon": 0.0, "lat": 38.852454333333334, "type": "electric_bike", "fusion_lat": 0.0, "bike_id": "1f9e2996246aad9918302a6834b90d08"}, {"name": "5d587866a5bf1c6e71f3ac76c085499c", "is_reserved": 0, "is_disabled": 0, "lon": -77.070028, "rental_uris": {"android": "https://dc.lft.to/lastmile_qr_scan", "ios": "https://dc.lft.to/lastmile_qr_scan"}, "fusion_lon": 0.0, "lat": 38.905853, "type": "electric_scooter", "fusion_lat": 0.0, "bike_id": "5d587866a5bf1c6e71f3ac76c085499c"}, {"name": "69b2557e32c99f391699d330d8586331", "is_reserved": 0, "is_disabled": 0, "lon": -77.001974, "rental_uris": {"android": "https://dc.lft.to/lastmile_qr_scan", "ios": "https://dc.lft.to/lastmile_qr_scan"}, "fusion_lon": 0.0, "lat": 38.902424333333336, "type": "electric_scooter", "fusion_lat": 0.0, "bike_id": "69b2557e32c99f391699d330d8586331"}, {"name": "4730210e98cc3f2f76085bd82d7f48af", "is_reserved": 0, "is_disabled": 0, "lon": -76.9813, "rental_uris": {"android": "https://dc.lft.to/lastmile_qr_scan", "ios": "https://dc.lft.to/lastmile_qr_scan"}, "fusion_lon": 0.0, "lat": 38.88417833333333, "type": "electric_scooter", "fusion_lat": 0.0, "bike_id": "4730210e98cc3f2f76085bd82d7f48af"}, {"name": "56a3a234f59126eb63a542a3d71100cd", "is_reserved": 0, "is_disabled": 0, "lon": -77.00825883333333, "rental_uris": {"android": "https://dc.lft.to/lastmile_qr_scan", "ios": "https://dc.lft.to/lastmile_qr_scan"}, "fusion_lon": 0.0, "lat": 38.877639, "type": "electric_scooter", "fusion_lat": 0.0, "bike_id": "56a3a234f59126eb63a542a3d71100cd"}, {"name": "b3f4c74f1ac954c62dd6f33db0f626a9", "is_reserved": 0, "is_disabled": 0, "lon": -77.02409583333333, "rental_uris": {"android": "https://dc.lft.to/lastmile_qr_scan", "ios": "https://dc.lft.to/lastmile_qr_scan"}, "fusion_lon": 0.0, "lat": 38.937044666666665, "type": "electric_scooter", "fusion_lat": 0.0, "bike_id": "b3f4c74f1ac954c62dd6f33db0f626a9"}, {"name": "5630cdcaa7d4cfb978088becc4a49b45", "is_reserved": 0, "is_disabled": 0, "lon": -77.03335866666667, "rental_uris": {"android": "https://dc.lft.to/lastmile_qr_scan", "ios": "https://dc.lft.to/lastmile_qr_scan"}, "fusion_lon": 0.0, "lat": 38.919229666666666, "type": "electric_scooter", "fusion_lat": 0.0, "bike_id": "5630cdcaa7d4cfb978088becc4a49b45"}, {"name": "820ecdabb3d8e6983f08e25a49f5f78d", "is_reserved": 0, "is_disabled": 0, "lon": -77.02169116666667, "rental_uris": {"android": "https://dc.lft.to/lastmile_qr_scan", "ios": "https://dc.lft.to/lastmile_qr_scan"}, "fusion_lon": 0.0, "lat": 38.8874765, "type": "electric_scooter", "fusion_lat": 0.0, "bike_id": "820ecdabb3d8e6983f08e25a49f5f78d"}, {"name": "2dc57c45bf0d737587fbc0370dcb547b", "is_reserved": 0, "is_disabled": 0, "lon": -76.99482783333333, "rental_uris": {"android": "https://dc.lft.to/lastmile_qr_scan", "ios": "https://dc.lft.to/lastmile_qr_scan"}, "fusion_lon": 0.0, "lat": 38.8621635, "type": "electric_scooter", "fusion_lat": 0.0, "bike_id": "2dc57c45bf0d737587fbc0370dcb547b"}, {"name": "5b5fccc425c103acd139c4eef9420b9b", "is_reserved": 0, "is_disabled": 0, "lon": -77.04064, "rental_uris": {"android": "https://dc.lft.to/lastmile_qr_scan", "ios": "https://dc.lft.to/lastmile_qr_scan"}, "fusion_lon": 0.0, "lat": 38.89895283333333, "type": "electric_scooter", "fusion_lat": 0.0, "bike_id": "5b5fccc425c103acd139c4eef9420b9b"}, {"name": "95a93fce8a6d57fc29c53ba4acb726a3", "is_reserved": 0, "is_disabled": 0, "lon": -77.01959, "rental_uris": {"android": "https://dc.lft.to/lastmile_qr_scan", "ios": "https://dc.lft.to/lastmile_qr_scan"}, "fusion_lon": 0.0, "lat": 38.935834166666666, "type": "electric_scooter", "fusion_lat": 0.0, "bike_id": "95a93fce8a6d57fc29c53ba4acb726a3"}, {"name": "61920bd7f663175e9ff5e0c2d29994a9", "is_reserved": 0, "is_disabled": 0, "lon": -77.03333083333334, "rental_uris": {"android": "https://dc.lft.to/lastmile_qr_scan", "ios": "https://dc.lft.to/lastmile_qr_scan"}, "fusion_lon": 0.0, "lat": 38.91923583333333, "type": "electric_scooter", "fusion_lat": 0.0, "bike_id": "61920bd7f663175e9ff5e0c2d29994a9"}, {"name": "848cd8d31763a621a6b8e28e77c71f63", "is_reserved": 0, "is_disabled": 0, "lon": -77.04128233333333, "rental_uris": {"android": "https://dc.lft.to/lastmile_qr_scan", "ios": "https://dc.lft.to/lastmile_qr_scan"}, "fusion_lon": 0.0, "lat": 38.922357166666664, "type": "electric_scooter", "fusion_lat": 0.0, "bike_id": "848cd8d31763a621a6b8e28e77c71f63"}, {"name": "b9819c504b88fcfd41551e0de7e83a26", "is_reserved": 0, "is_disabled": 0, "lon": -77.04646516666666, "rental_uris": {"android": "https://dc.lft.to/lastmile_qr_scan", "ios": "https://dc.lft.to/lastmile_qr_scan"}, "fusion_lon": 0.0, "lat": 38.9052315, "type": "electric_scooter", "fusion_lat": 0.0, "bike_id": "b9819c504b88fcfd41551e0de7e83a26"}, {"name": "d5e291b8d0ec557b189047e7e87705ab", "is_reserved": 0, "is_disabled": 0, "lon": -77.07997716666667, "rental_uris": {"android": "https://dc.lft.to/lastmile_qr_scan", "ios": "https://dc.lft.to/lastmile_qr_scan"}, "fusion_lon": 0.0, "lat": 38.92368716666667, "type": "electric_scooter", "fusion_lat": 0.0, "bike_id": "d5e291b8d0ec557b189047e7e87705ab"}, {"name": "da966251df424bfaf0e9f450f09a592b", "is_reserved": 0, "is_disabled": 0, "lon": -77.03290266666667, "rental_uris": {"android": "https://dc.lft.to/lastmile_qr_scan", "ios": "https://dc.lft.to/lastmile_qr_scan"}, "fusion_lon": 0.0, "lat": 38.90962916666667, "type": "electric_scooter", "fusion_lat": 0.0, "bike_id": "da966251df424bfaf0e9f450f09a592b"}, {"name": "ae76db6720ca789c674033d9f98318d3", "is_reserved": 0, "is_disabled": 0, "lon": -76.9733045, "rental_uris": {"android": "https://dc.lft.to/lastmile_qr_scan", "ios": "https://dc.lft.to/lastmile_qr_scan"}, "fusion_lon": 0.0, "lat": 38.85067466666667, "type": "electric_bike", "fusion_lat": 0.0, "bike_id": "ae76db6720ca789c674033d9f98318d3"}, {"name": "57ba90c007bd34cf08174de7d05c0ff7", "is_reserved": 0, "is_disabled": 0, "lon": -77.03954466666667, "rental_uris": {"android": "https://dc.lft.to/lastmile_qr_scan", "ios": "https://dc.lft.to/lastmile_qr_scan"}, "fusion_lon": 0.0, "lat": 38.9060635, "type": "electric_scooter", "fusion_lat": 0.0, "bike_id": "57ba90c007bd34cf08174de7d05c0ff7"}, {"name": "274ffd84c109ae55039f72406970ee13", "is_reserved": 0, "is_disabled": 0, "lon": -77.02442383333333, "rental_uris": {"android": "https://dc.lft.to/lastmile_qr_scan", "ios": "https://dc.lft.to/lastmile_qr_scan"}, "fusion_lon": 0.0, "lat": 38.92375633333333, "type": "electric_scooter", "fusion_lat": 0.0, "bike_id": "274ffd84c109ae55039f72406970ee13"}, {"name": "a9a128744d27aff9b7e63fa24e08a538", "is_reserved": 0, "is_disabled": 0, "lon": -77.00855566666667, "rental_uris": {"android": "https://dc.lft.to/lastmile_qr_scan", "ios": "https://dc.lft.to/lastmile_qr_scan"}, "fusion_lon": 0.0, "lat": 38.9065695, "type": "electric_scooter", "fusion_lat": 0.0, "bike_id": "a9a128744d27aff9b7e63fa24e08a538"}, {"name": "568b5544ecea44cd1a3b1b122c2cafb4", "is_reserved": 0, "is_disabled": 0, "lon": -77.04676566666667, "rental_uris": {"android": "https://dc.lft.to/lastmile_qr_scan", "ios": "https://dc.lft.to/lastmile_qr_scan"}, "fusion_lon": 0.0, "lat": 38.903654833333334, "type": "electric_scooter", "fusion_lat": 0.0, "bike_id": "568b5544ecea44cd1a3b1b122c2cafb4"}, {"name": "bf8046d9a5e5c76d01c58b5b13a14d47", "is_reserved": 0, "is_disabled": 0, "lon": -76.98359816666667, "rental_uris": {"android": "https://dc.lft.to/lastmile_qr_scan", "ios": "https://dc.lft.to/lastmile_qr_scan"}, "fusion_lon": 0.0, "lat": 38.9147985, "type": "electric_scooter", "fusion_lat": 0.0, "bike_id": "bf8046d9a5e5c76d01c58b5b13a14d47"}, {"name": "e385dda679c3a83cceaedbd7c95bf644", "is_reserved": 0, "is_disabled": 0, "lon": -77.049855, "rental_uris": {"android": "https://dc.lft.to/lastmile_qr_scan", "ios": "https://dc.lft.to/lastmile_qr_scan"}, "fusion_lon": 0.0, "lat": 38.99244016666667, "type": "electric_bike", "fusion_lat": 0.0, "bike_id": "e385dda679c3a83cceaedbd7c95bf644"}, {"name": "ffc66db4b8318a36afe398fe536d95a1", "is_reserved": 0, "is_disabled": 0, "lon": -77.19549833333333, "rental_uris": {"android": "https://dc.lft.to/lastmile_qr_scan", "ios": "https://dc.lft.to/lastmile_qr_scan"}, "fusion_lon": 0.0, "lat": 39.115091166666666, "type": "electric_bike", "fusion_lat": 0.0, "bike_id": "ffc66db4b8318a36afe398fe536d95a1"}, {"name": "b54fca4e220c35f0c4fe5587ec41291d", "is_reserved": 0, "is_disabled": 0, "lon": -77.0158155, "rental_uris": {"android": "https://dc.lft.to/lastmile_qr_scan", "ios": "https://dc.lft.to/lastmile_qr_scan"}, "fusion_lon": 0.0, "lat": 38.953222333333336, "type": "electric_bike", "fusion_lat": 0.0, "bike_id": "b54fca4e220c35f0c4fe5587ec41291d"}, {"name": "2258b3b6d3ab6fa92fbcfa8018980fa6", "is_reserved": 0, "is_disabled": 0, "lon": -77.00919266666666, "rental_uris": {"android": "https://dc.lft.to/lastmile_qr_scan", "ios": "https://dc.lft.to/lastmile_qr_scan"}, "fusion_lon": 0.0, "lat": 38.87638033333333, "type": "electric_scooter", "fusion_lat": 0.0, "bike_id": "2258b3b6d3ab6fa92fbcfa8018980fa6"}, {"name": "66ab1275348c4a2b1cee91b27ec029dd", "is_reserved": 0, "is_disabled": 0, "lon": -76.96700766666666, "rental_uris": {"android": "https://dc.lft.to/lastmile_qr_scan", "ios": "https://dc.lft.to/lastmile_qr_scan"}, "fusion_lon": 0.0, "lat": 38.8686875, "type": "electric_bike", "fusion_lat": 0.0, "bike_id": "66ab1275348c4a2b1cee91b27ec029dd"}, {"name": "82b115e8f5fa1f22aac6c475aa99322d", "is_reserved": 0, "is_disabled": 0, "lon": -76.9833855, "rental_uris": {"android": "https://dc.lft.to/lastmile_qr_scan", "ios": "https://dc.lft.to/lastmile_qr_scan"}, "fusion_lon": 0.0, "lat": 38.89547066666667, "type": "electric_scooter", "fusion_lat": 0.0, "bike_id": "82b115e8f5fa1f22aac6c475aa99322d"}, {"name": "4976ba83fc203132161217d6ab6ae204", "is_reserved": 0, "is_disabled": 0, "lon": -77.07255816666667, "rental_uris": {"android": "https://dc.lft.to/lastmile_qr_scan", "ios": "https://dc.lft.to/lastmile_qr_scan"}, "fusion_lon": 0.0, "lat": 38.934424666666665, "type": "electric_scooter", "fusion_lat": 0.0, "bike_id": "4976ba83fc203132161217d6ab6ae204"}, {"name": "8d93cb7f650e4a70630475b6d93a6183", "is_reserved": 0, "is_disabled": 0, "lon": -77.04680666666667, "rental_uris": {"android": "https://dc.lft.to/lastmile_qr_scan", "ios": "https://dc.lft.to/lastmile_qr_scan"}, "fusion_lon": 0.0, "lat": 38.91567766666667, "type": "electric_scooter", "fusion_lat": 0.0, "bike_id": "8d93cb7f650e4a70630475b6d93a6183"}, {"name": "690126717a9c12c9b344f2c36e91447c", "is_reserved": 0, "is_disabled": 0, "lon": -77.008122, "rental_uris": {"android": "https://dc.lft.to/lastmile_qr_scan", "ios": "https://dc.lft.to/lastmile_qr_scan"}, "fusion_lon": 0.0, "lat": 38.91566916666667, "type": "electric_scooter", "fusion_lat": 0.0, "bike_id": "690126717a9c12c9b344f2c36e91447c"}, {"name": "3edf6eeeb18156f0617eddaec5bd11de", "is_reserved": 0, "is_disabled": 0, "lon": -77.010844, "rental_uris": {"android": "https://dc.lft.to/lastmile_qr_scan", "ios": "https://dc.lft.to/lastmile_qr_scan"}, "fusion_lon": 0.0, "lat": 38.895062, "type": "electric_scooter", "fusion_lat": 0.0, "bike_id": "3edf6eeeb18156f0617eddaec5bd11de"}, {"name": "b3319a6eb245cb26092bd87f84f3ac77", "is_reserved": 0, "is_disabled": 0, "lon": -76.99029566666667, "rental_uris": {"android": "https://dc.lft.to/lastmile_qr_scan", "ios": "https://dc.lft.to/lastmile_qr_scan"}, "fusion_lon": 0.0, "lat": 38.864081166666665, "type": "electric_scooter", "fusion_lat": 0.0, "bike_id": "b3319a6eb245cb26092bd87f84f3ac77"}, {"name": "e1f7f2080f8bc370ac6bc84e7ebaf950", "is_reserved": 0, "is_disabled": 0, "lon": -77.03025916666667, "rental_uris": {"android": "https://dc.lft.to/lastmile_qr_scan", "ios": "https://dc.lft.to/lastmile_qr_scan"}, "fusion_lon": 0.0, "lat": 38.883871666666664, "type": "electric_scooter", "fusion_lat": 0.0, "bike_id": "e1f7f2080f8bc370ac6bc84e7ebaf950"}, {"name": "000e074378ac4e2828777928935ff701", "is_reserved": 0, "is_disabled": 0, "lon": -77.03390366666666, "rental_uris": {"android": "https://dc.lft.to/lastmile_qr_scan", "ios": "https://dc.lft.to/lastmile_qr_scan"}, "fusion_lon": 0.0, "lat": 38.924449, "type": "electric_scooter", "fusion_lat": 0.0, "bike_id": "000e074378ac4e2828777928935ff701"}, {"name": "8f96397723ed163551d0d5327c28b6c7", "is_reserved": 0, "is_disabled": 0, "lon": -77.00245416666667, "rental_uris": {"android": "https://dc.lft.to/lastmile_qr_scan", "ios": "https://dc.lft.to/lastmile_qr_scan"}, "fusion_lon": 0.0, "lat": 38.880261833333336, "type": "electric_scooter", "fusion_lat": 0.0, "bike_id": "8f96397723ed163551d0d5327c28b6c7"}, {"name": "1098f90aeec00c29cb85fdefe8a67d1f", "is_reserved": 0, "is_disabled": 0, "lon": -77.06091083333334, "rental_uris": {"android": "https://dc.lft.to/lastmile_qr_scan", "ios": "https://dc.lft.to/lastmile_qr_scan"}, "fusion_lon": 0.0, "lat": 38.94374033333333, "type": "electric_scooter", "fusion_lat": 0.0, "bike_id": "1098f90aeec00c29cb85fdefe8a67d1f"}, {"name": "25a4ae3ba387530640b92819eba47490", "is_reserved": 0, "is_disabled": 0, "lon": -77.02026233333333, "rental_uris": {"android": "https://dc.lft.to/lastmile_qr_scan", "ios": "https://dc.lft.to/lastmile_qr_scan"}, "fusion_lon": 0.0, "lat": 38.924501166666666, "type": "electric_scooter", "fusion_lat": 0.0, "bike_id": "25a4ae3ba387530640b92819eba47490"}, {"name": "389cdddb4f5df3f08a48507de38709d0", "is_reserved": 0, "is_disabled": 0, "lon": -76.99726983333333, "rental_uris": {"android": "https://dc.lft.to/lastmile_qr_scan", "ios": "https://dc.lft.to/lastmile_qr_scan"}, "fusion_lon": 0.0, "lat": 38.8989595, "type": "electric_scooter", "fusion_lat": 0.0, "bike_id": "389cdddb4f5df3f08a48507de38709d0"}, {"name": "1ad2bf8cb86b0f7f343be9269d7968a9", "is_reserved": 0, "is_disabled": 0, "lon": -77.02685416666667, "rental_uris": {"android": "https://dc.lft.to/lastmile_qr_scan", "ios": "https://dc.lft.to/lastmile_qr_scan"}, "fusion_lon": 0.0, "lat": 38.9097175, "type": "electric_scooter", "fusion_lat": 0.0, "bike_id": "1ad2bf8cb86b0f7f343be9269d7968a9"}, {"name": "7af66ae4cd5f917f000916dc9eb96a03", "is_reserved": 0, "is_disabled": 0, "lon": -77.06770783333333, "rental_uris": {"android": "https://dc.lft.to/lastmile_qr_scan", "ios": "https://dc.lft.to/lastmile_qr_scan"}, "fusion_lon": 0.0, "lat": 38.903646333333334, "type": "electric_scooter", "fusion_lat": 0.0, "bike_id": "7af66ae4cd5f917f000916dc9eb96a03"}, {"name": "704873951e338cda27d7b55cc277c15a", "is_reserved": 0, "is_disabled": 0, "lon": -77.03864666666666, "rental_uris": {"android": "https://dc.lft.to/lastmile_qr_scan", "ios": "https://dc.lft.to/lastmile_qr_scan"}, "fusion_lon": 0.0, "lat": 38.902786166666665, "type": "electric_scooter", "fusion_lat": 0.0, "bike_id": "704873951e338cda27d7b55cc277c15a"}, {"name": "ae84e213cfd1382d1f59cc9be707b76b", "is_reserved": 0, "is_disabled": 0, "lon": -77.04677216666667, "rental_uris": {"android": "https://dc.lft.to/lastmile_qr_scan", "ios": "https://dc.lft.to/lastmile_qr_scan"}, "fusion_lon": 0.0, "lat": 38.8950675, "type": "electric_scooter", "fusion_lat": 0.0, "bike_id": "ae84e213cfd1382d1f59cc9be707b76b"}, {"name": "10792924be74a294c5052351e96e2886", "is_reserved": 0, "is_disabled": 0, "lon": -77.02664066666667, "rental_uris": {"android": "https://dc.lft.to/lastmile_qr_scan", "ios": "https://dc.lft.to/lastmile_qr_scan"}, "fusion_lon": 0.0, "lat": 38.97942616666667, "type": "electric_scooter", "fusion_lat": 0.0, "bike_id": "10792924be74a294c5052351e96e2886"}, {"name": "9b26c6107bd10972d22b87c3a1a80d95", "is_reserved": 0, "is_disabled": 0, "lon": -77.04579616666666, "rental_uris": {"android": "https://dc.lft.to/lastmile_qr_scan", "ios": "https://dc.lft.to/lastmile_qr_scan"}, "fusion_lon": 0.0, "lat": 38.9214805, "type": "electric_scooter", "fusion_lat": 0.0, "bike_id": "9b26c6107bd10972d22b87c3a1a80d95"}, {"name": "c85143ad3a06f5605aad8152f7a1679b", "is_reserved": 0, "is_disabled": 0, "lon": -77.03471616666667, "rental_uris": {"android": "https://dc.lft.to/lastmile_qr_scan", "ios": "https://dc.lft.to/lastmile_qr_scan"}, "fusion_lon": 0.0, "lat": 38.9048205, "type": "electric_scooter", "fusion_lat": 0.0, "bike_id": "c85143ad3a06f5605aad8152f7a1679b"}, {"name": "45faf690349e4c364a41fd140959a00a", "is_reserved": 0, "is_disabled": 0, "lon": -77.02177133333333, "rental_uris": {"android": "https://dc.lft.to/lastmile_qr_scan", "ios": "https://dc.lft.to/lastmile_qr_scan"}, "fusion_lon": 0.0, "lat": 38.89232333333333, "type": "electric_scooter", "fusion_lat": 0.0, "bike_id": "45faf690349e4c364a41fd140959a00a"}, {"name": "5485e3de9ed195d3ce3c474281cf6c5a", "is_reserved": 0, "is_disabled": 0, "lon": -77.02182666666667, "rental_uris": {"android": "https://dc.lft.to/lastmile_qr_scan", "ios": "https://dc.lft.to/lastmile_qr_scan"}, "fusion_lon": 0.0, "lat": 38.8923315, "type": "electric_scooter", "fusion_lat": 0.0, "bike_id": "5485e3de9ed195d3ce3c474281cf6c5a"}, {"name": "357b49b1549e74e19d52c132404de08b", "is_reserved": 0, "is_disabled": 0, "lon": -77.03259383333334, "rental_uris": {"android": "https://dc.lft.to/lastmile_qr_scan", "ios": "https://dc.lft.to/lastmile_qr_scan"}, "fusion_lon": 0.0, "lat": 38.9321445, "type": "electric_scooter", "fusion_lat": 0.0, "bike_id": "357b49b1549e74e19d52c132404de08b"}, {"name": "b4dd111de05e688fa8a43a17214e4e0b", "is_reserved": 0, "is_disabled": 0, "lon": -77.0250385, "rental_uris": {"android": "https://dc.lft.to/lastmile_qr_scan", "ios": "https://dc.lft.to/lastmile_qr_scan"}, "fusion_lon": 0.0, "lat": 38.907250833333336, "type": "electric_scooter", "fusion_lat": 0.0, "bike_id": "b4dd111de05e688fa8a43a17214e4e0b"}, {"name": "74e855054b4e57c24b38f3366df0a1d3", "is_reserved": 0, "is_disabled": 0, "lon": -76.98830766666667, "rental_uris": {"android": "https://dc.lft.to/lastmile_qr_scan", "ios": "https://dc.lft.to/lastmile_qr_scan"}, "fusion_lon": 0.0, "lat": 38.985633666666665, "type": "electric_bike", "fusion_lat": 0.0, "bike_id": "74e855054b4e57c24b38f3366df0a1d3"}, {"name": "f0062fafbe52dd73c0eddaf48684c50f", "is_reserved": 0, "is_disabled": 0, "lon": -77.02386133333333, "rental_uris": {"android": "https://dc.lft.to/lastmile_qr_scan", "ios": "https://dc.lft.to/lastmile_qr_scan"}, "fusion_lon": 0.0, "lat": 38.93227183333333, "type": "electric_bike", "fusion_lat": 0.0, "bike_id": "f0062fafbe52dd73c0eddaf48684c50f"}, {"name": "08f46a7865fbec50c02b686b46c54593", "is_reserved": 0, "is_disabled": 0, "lon": -77.02909166666667, "rental_uris": {"android": "https://dc.lft.to/lastmile_qr_scan", "ios": "https://dc.lft.to/lastmile_qr_scan"}, "fusion_lon": 0.0, "lat": 38.91713766666667, "type": "electric_scooter", "fusion_lat": 0.0, "bike_id": "08f46a7865fbec50c02b686b46c54593"}, {"name": "6381e8f3d3619fe7bbb7c2125a10345c", "is_reserved": 0, "is_disabled": 0, "lon": -77.048601, "rental_uris": {"android": "https://dc.lft.to/lastmile_qr_scan", "ios": "https://dc.lft.to/lastmile_qr_scan"}, "fusion_lon": 0.0, "lat": 38.900758, "type": "electric_scooter", "fusion_lat": 0.0, "bike_id": "6381e8f3d3619fe7bbb7c2125a10345c"}, {"name": "25d7f2769273a224e0a8035684a99d6a", "is_reserved": 0, "is_disabled": 0, "lon": -76.99660766666666, "rental_uris": {"android": "https://dc.lft.to/lastmile_qr_scan", "ios": "https://dc.lft.to/lastmile_qr_scan"}, "fusion_lon": 0.0, "lat": 38.924484666666665, "type": "electric_bike", "fusion_lat": 0.0, "bike_id": "25d7f2769273a224e0a8035684a99d6a"}, {"name": "0b187edb7ce20bef20717815f540a949", "is_reserved": 0, "is_disabled": 0, "lon": -77.02799016666667, "rental_uris": {"android": "https://dc.lft.to/lastmile_qr_scan", "ios": "https://dc.lft.to/lastmile_qr_scan"}, "fusion_lon": 0.0, "lat": 38.960804, "type": "electric_scooter", "fusion_lat": 0.0, "bike_id": "0b187edb7ce20bef20717815f540a949"}, {"name": "3ab8d4f0511285a8e2323863c6103413", "is_reserved": 0, "is_disabled": 0, "lon": -77.03212266666667, "rental_uris": {"android": "https://dc.lft.to/lastmile_qr_scan", "ios": "https://dc.lft.to/lastmile_qr_scan"}, "fusion_lon": 0.0, "lat": 38.908219, "type": "electric_scooter", "fusion_lat": 0.0, "bike_id": "3ab8d4f0511285a8e2323863c6103413"}, {"name": "57250a836a9e7e470a2cf9ab34d140d3", "is_reserved": 0, "is_disabled": 0, "lon": -77.04237333333333, "rental_uris": {"android": "https://dc.lft.to/lastmile_qr_scan", "ios": "https://dc.lft.to/lastmile_qr_scan"}, "fusion_lon": 0.0, "lat": 38.897453166666665, "type": "electric_scooter", "fusion_lat": 0.0, "bike_id": "57250a836a9e7e470a2cf9ab34d140d3"}, {"name": "3c57cd1ae4244a60747b1c60d8a6a553", "is_reserved": 0, "is_disabled": 0, "lon": -77.00547416666667, "rental_uris": {"android": "https://dc.lft.to/lastmile_qr_scan", "ios": "https://dc.lft.to/lastmile_qr_scan"}, "fusion_lon": 0.0, "lat": 38.87458616666667, "type": "electric_scooter", "fusion_lat": 0.0, "bike_id": "3c57cd1ae4244a60747b1c60d8a6a553"}, {"name": "72bcc0bc25b1407d4719d4f73d3aa29f", "is_reserved": 0, "is_disabled": 0, "lon": -77.05028983333334, "rental_uris": {"android": "https://dc.lft.to/lastmile_qr_scan", "ios": "https://dc.lft.to/lastmile_qr_scan"}, "fusion_lon": 0.0, "lat": 38.896631166666666, "type": "electric_scooter", "fusion_lat": 0.0, "bike_id": "72bcc0bc25b1407d4719d4f73d3aa29f"}, {"name": "44a5f0320fff3459b1c5f9584abbe86d", "is_reserved": 0, "is_disabled": 0, "lon": -77.02962366666667, "rental_uris": {"android": "https://dc.lft.to/lastmile_qr_scan", "ios": "https://dc.lft.to/lastmile_qr_scan"}, "fusion_lon": 0.0, "lat": 38.921429, "type": "electric_scooter", "fusion_lat": 0.0, "bike_id": "44a5f0320fff3459b1c5f9584abbe86d"}, {"name": "042353a293b7bd5ef9ff3c9f429bc1a1", "is_reserved": 0, "is_disabled": 0, "lon": -77.03443216666666, "rental_uris": {"android": "https://dc.lft.to/lastmile_qr_scan", "ios": "https://dc.lft.to/lastmile_qr_scan"}, "fusion_lon": 0.0, "lat": 38.91038266666666, "type": "electric_scooter", "fusion_lat": 0.0, "bike_id": "042353a293b7bd5ef9ff3c9f429bc1a1"}, {"name": "f7c85963f3933e6266663862d38eca46", "is_reserved": 0, "is_disabled": 0, "lon": -77.06280316666667, "rental_uris": {"android": "https://dc.lft.to/lastmile_qr_scan", "ios": "https://dc.lft.to/lastmile_qr_scan"}, "fusion_lon": 0.0, "lat": 38.90583216666667, "type": "electric_scooter", "fusion_lat": 0.0, "bike_id": "f7c85963f3933e6266663862d38eca46"}, {"name": "9fa81b028d649736cb6c7cb88954d2b3", "is_reserved": 0, "is_disabled": 0, "lon": -76.96545766666667, "rental_uris": {"android": "https://dc.lft.to/lastmile_qr_scan", "ios": "https://dc.lft.to/lastmile_qr_scan"}, "fusion_lon": 0.0, "lat": 38.918502833333335, "type": "electric_scooter", "fusion_lat": 0.0, "bike_id": "9fa81b028d649736cb6c7cb88954d2b3"}, {"name": "0ffcab2bb34f94b55fa6babaece80674", "is_reserved": 0, "is_disabled": 0, "lon": -77.0241, "rental_uris": {"android": "https://dc.lft.to/lastmile_qr_scan", "ios": "https://dc.lft.to/lastmile_qr_scan"}, "fusion_lon": 0.0, "lat": 38.937049, "type": "electric_scooter", "fusion_lat": 0.0, "bike_id": "0ffcab2bb34f94b55fa6babaece80674"}, {"name": "1a1657ff54d631a599cb5fa3b5540006", "is_reserved": 0, "is_disabled": 0, "lon": -77.06281333333334, "rental_uris": {"android": "https://dc.lft.to/lastmile_qr_scan", "ios": "https://dc.lft.to/lastmile_qr_scan"}, "fusion_lon": 0.0, "lat": 38.9037365, "type": "electric_scooter", "fusion_lat": 0.0, "bike_id": "1a1657ff54d631a599cb5fa3b5540006"}, {"name": "aa4e0a507f045a3a133b9205723fc1e5", "is_reserved": 0, "is_disabled": 0, "lon": -77.063447, "rental_uris": {"android": "https://dc.lft.to/lastmile_qr_scan", "ios": "https://dc.lft.to/lastmile_qr_scan"}, "fusion_lon": 0.0, "lat": 38.9084455, "type": "electric_scooter", "fusion_lat": 0.0, "bike_id": "aa4e0a507f045a3a133b9205723fc1e5"}, {"name": "333723e3e445aca96667657f70cb82f9", "is_reserved": 0, "is_disabled": 0, "lon": -77.04091233333334, "rental_uris": {"android": "https://dc.lft.to/lastmile_qr_scan", "ios": "https://dc.lft.to/lastmile_qr_scan"}, "fusion_lon": 0.0, "lat": 38.90503233333333, "type": "electric_scooter", "fusion_lat": 0.0, "bike_id": "333723e3e445aca96667657f70cb82f9"}, {"name": "cfa20d7d4bbf738096f9bbb741d570e7", "is_reserved": 0, "is_disabled": 0, "lon": -77.02401066666667, "rental_uris": {"android": "https://dc.lft.to/lastmile_qr_scan", "ios": "https://dc.lft.to/lastmile_qr_scan"}, "fusion_lon": 0.0, "lat": 38.937074333333335, "type": "electric_scooter", "fusion_lat": 0.0, "bike_id": "cfa20d7d4bbf738096f9bbb741d570e7"}, {"name": "e38438ba928a1b0a1ecf5d2085262e7f", "is_reserved": 0, "is_disabled": 0, "lon": -77.021787, "rental_uris": {"android": "https://dc.lft.to/lastmile_qr_scan", "ios": "https://dc.lft.to/lastmile_qr_scan"}, "fusion_lon": 0.0, "lat": 38.943146, "type": "electric_scooter", "fusion_lat": 0.0, "bike_id": "e38438ba928a1b0a1ecf5d2085262e7f"}, {"name": "11a31c6bc744cdb474cc4e804526b49d", "is_reserved": 0, "is_disabled": 0, "lon": -77.0296515, "rental_uris": {"android": "https://dc.lft.to/lastmile_qr_scan", "ios": "https://dc.lft.to/lastmile_qr_scan"}, "fusion_lon": 0.0, "lat": 38.896370833333336, "type": "electric_scooter", "fusion_lat": 0.0, "bike_id": "11a31c6bc744cdb474cc4e804526b49d"}, {"name": "511b747e403123ce632ded4bdfdbe6ad", "is_reserved": 0, "is_disabled": 0, "lon": -77.00514683333333, "rental_uris": {"android": "https://dc.lft.to/lastmile_qr_scan", "ios": "https://dc.lft.to/lastmile_qr_scan"}, "fusion_lon": 0.0, "lat": 38.8747245, "type": "electric_scooter", "fusion_lat": 0.0, "bike_id": "511b747e403123ce632ded4bdfdbe6ad"}, {"name": "fc6d97952a35962fc0403c50f98085e8", "is_reserved": 0, "is_disabled": 0, "lon": -77.09520766666667, "rental_uris": {"android": "https://dc.lft.to/lastmile_qr_scan", "ios": "https://dc.lft.to/lastmile_qr_scan"}, "fusion_lon": 0.0, "lat": 38.83811583333333, "type": "electric_bike", "fusion_lat": 0.0, "bike_id": "fc6d97952a35962fc0403c50f98085e8"}, {"name": "29c94976e7225925c981077675d30394", "is_reserved": 0, "is_disabled": 0, "lon": -77.02957583333334, "rental_uris": {"android": "https://dc.lft.to/lastmile_qr_scan", "ios": "https://dc.lft.to/lastmile_qr_scan"}, "fusion_lon": 0.0, "lat": 38.89324516666667, "type": "electric_scooter", "fusion_lat": 0.0, "bike_id": "29c94976e7225925c981077675d30394"}, {"name": "4dae7c3e20862b5a69658cacabecf40b", "is_reserved": 0, "is_disabled": 0, "lon": -76.92404266666667, "rental_uris": {"android": "https://dc.lft.to/lastmile_qr_scan", "ios": "https://dc.lft.to/lastmile_qr_scan"}, "fusion_lon": 0.0, "lat": 38.889884333333335, "type": "electric_scooter", "fusion_lat": 0.0, "bike_id": "4dae7c3e20862b5a69658cacabecf40b"}, {"name": "65b2cee181a06fc9f7216bc4b8c7835c", "is_reserved": 0, "is_disabled": 0, "lon": -77.00719183333334, "rental_uris": {"android": "https://dc.lft.to/lastmile_qr_scan", "ios": "https://dc.lft.to/lastmile_qr_scan"}, "fusion_lon": 0.0, "lat": 38.877219333333336, "type": "electric_scooter", "fusion_lat": 0.0, "bike_id": "65b2cee181a06fc9f7216bc4b8c7835c"}, {"name": "695debbc818332949df09039b700c249", "is_reserved": 0, "is_disabled": 0, "lon": -76.93412533333333, "rental_uris": {"android": "https://dc.lft.to/lastmile_qr_scan", "ios": "https://dc.lft.to/lastmile_qr_scan"}, "fusion_lon": 0.0, "lat": 38.94625533333333, "type": "electric_bike", "fusion_lat": 0.0, "bike_id": "695debbc818332949df09039b700c249"}, {"name": "fcffb30deceaf215ae71f7fa0b54994b", "is_reserved": 0, "is_disabled": 0, "lon": -77.00581083333333, "rental_uris": {"android": "https://dc.lft.to/lastmile_qr_scan", "ios": "https://dc.lft.to/lastmile_qr_scan"}, "fusion_lon": 0.0, "lat": 38.88532383333333, "type": "electric_scooter", "fusion_lat": 0.0, "bike_id": "fcffb30deceaf215ae71f7fa0b54994b"}, {"name": "0cb771f504864b0de2b1a1afb6b102b2", "is_reserved": 0, "is_disabled": 0, "lon": -77.03278633333333, "rental_uris": {"android": "https://dc.lft.to/lastmile_qr_scan", "ios": "https://dc.lft.to/lastmile_qr_scan"}, "fusion_lon": 0.0, "lat": 38.93102833333333, "type": "electric_scooter", "fusion_lat": 0.0, "bike_id": "0cb771f504864b0de2b1a1afb6b102b2"}, {"name": "b07e76439d9d3f681af1123a91b2c522", "is_reserved": 0, "is_disabled": 0, "lon": -77.00329, "rental_uris": {"android": "https://dc.lft.to/lastmile_qr_scan", "ios": "https://dc.lft.to/lastmile_qr_scan"}, "fusion_lon": 0.0, "lat": 38.89355033333333, "type": "electric_scooter", "fusion_lat": 0.0, "bike_id": "b07e76439d9d3f681af1123a91b2c522"}, {"name": "64e5f0b4e6741c254b3e0c7770f8545d", "is_reserved": 0, "is_disabled": 0, "lon": -77.07189566666666, "rental_uris": {"android": "https://dc.lft.to/lastmile_qr_scan", "ios": "https://dc.lft.to/lastmile_qr_scan"}, "fusion_lon": 0.0, "lat": 38.9210385, "type": "electric_scooter", "fusion_lat": 0.0, "bike_id": "64e5f0b4e6741c254b3e0c7770f8545d"}, {"name": "3fe2de234fe86ff78683b025403befbd", "is_reserved": 0, "is_disabled": 0, "lon": -77.02691716666666, "rental_uris": {"android": "https://dc.lft.to/lastmile_qr_scan", "ios": "https://dc.lft.to/lastmile_qr_scan"}, "fusion_lon": 0.0, "lat": 38.91252133333333, "type": "electric_scooter", "fusion_lat": 0.0, "bike_id": "3fe2de234fe86ff78683b025403befbd"}, {"name": "7842b43fa959cc10b61e1c630537fef1", "is_reserved": 0, "is_disabled": 0, "lon": -76.88907683333333, "rental_uris": {"android": "https://dc.lft.to/lastmile_qr_scan", "ios": "https://dc.lft.to/lastmile_qr_scan"}, "fusion_lon": 0.0, "lat": 38.92592416666667, "type": "electric_bike", "fusion_lat": 0.0, "bike_id": "7842b43fa959cc10b61e1c630537fef1"}, {"name": "4540e607284b16579feb6500d11ada28", "is_reserved": 0, "is_disabled": 0, "lon": -76.952191, "rental_uris": {"android": "https://dc.lft.to/lastmile_qr_scan", "ios": "https://dc.lft.to/lastmile_qr_scan"}, "fusion_lon": 0.0, "lat": 38.89240733333333, "type": "electric_bike", "fusion_lat": 0.0, "bike_id": "4540e607284b16579feb6500d11ada28"}, {"name": "1b39a32247d7a448c0d44510dc0990de", "is_reserved": 0, "is_disabled": 0, "lon": -77.03838583333334, "rental_uris": {"android": "https://dc.lft.to/lastmile_qr_scan", "ios": "https://dc.lft.to/lastmile_qr_scan"}, "fusion_lon": 0.0, "lat": 38.9099315, "type": "electric_scooter", "fusion_lat": 0.0, "bike_id": "1b39a32247d7a448c0d44510dc0990de"}, {"name": "43a9e0660642895712eabb6b36b47687", "is_reserved": 0, "is_disabled": 0, "lon": -77.00828133333333, "rental_uris": {"android": "https://dc.lft.to/lastmile_qr_scan", "ios": "https://dc.lft.to/lastmile_qr_scan"}, "fusion_lon": 0.0, "lat": 38.91261466666667, "type": "electric_scooter", "fusion_lat": 0.0, "bike_id": "43a9e0660642895712eabb6b36b47687"}, {"name": "fb4ecfd34b19390246a14db16977d6ed", "is_reserved": 0, "is_disabled": 0, "lon": -77.03838883333333, "rental_uris": {"android": "https://dc.lft.to/lastmile_qr_scan", "ios": "https://dc.lft.to/lastmile_qr_scan"}, "fusion_lon": 0.0, "lat": 38.9036, "type": "electric_scooter", "fusion_lat": 0.0, "bike_id": "fb4ecfd34b19390246a14db16977d6ed"}, {"name": "58e515430d0eac7b01cdd06867b2fc7f", "is_reserved": 0, "is_disabled": 0, "lon": -77.02975983333333, "rental_uris": {"android": "https://dc.lft.to/lastmile_qr_scan", "ios": "https://dc.lft.to/lastmile_qr_scan"}, "fusion_lon": 0.0, "lat": 38.927504, "type": "electric_scooter", "fusion_lat": 0.0, "bike_id": "58e515430d0eac7b01cdd06867b2fc7f"}, {"name": "2a46317fc52d8ed86697e4a2bb5dd06e", "is_reserved": 0, "is_disabled": 0, "lon": -77.02281233333333, "rental_uris": {"android": "https://dc.lft.to/lastmile_qr_scan", "ios": "https://dc.lft.to/lastmile_qr_scan"}, "fusion_lon": 0.0, "lat": 38.92687033333333, "type": "electric_scooter", "fusion_lat": 0.0, "bike_id": "2a46317fc52d8ed86697e4a2bb5dd06e"}, {"name": "15fcae3179b82bf8c1c79a37c245379c", "is_reserved": 0, "is_disabled": 0, "lon": -76.996205, "rental_uris": {"android": "https://dc.lft.to/lastmile_qr_scan", "ios": "https://dc.lft.to/lastmile_qr_scan"}, "fusion_lon": 0.0, "lat": 38.8803065, "type": "electric_scooter", "fusion_lat": 0.0, "bike_id": "15fcae3179b82bf8c1c79a37c245379c"}, {"name": "cfdca6512ed606597eb5823000c5d5fa", "is_reserved": 0, "is_disabled": 0, "lon": -77.03170733333333, "rental_uris": {"android": "https://dc.lft.to/lastmile_qr_scan", "ios": "https://dc.lft.to/lastmile_qr_scan"}, "fusion_lon": 0.0, "lat": 38.90454016666666, "type": "electric_scooter", "fusion_lat": 0.0, "bike_id": "cfdca6512ed606597eb5823000c5d5fa"}, {"name": "93e3b768190314aced1d628ce6155bae", "is_reserved": 0, "is_disabled": 0, "lon": -77.015582, "rental_uris": {"android": "https://dc.lft.to/lastmile_qr_scan", "ios": "https://dc.lft.to/lastmile_qr_scan"}, "fusion_lon": 0.0, "lat": 38.90243783333333, "type": "electric_scooter", "fusion_lat": 0.0, "bike_id": "93e3b768190314aced1d628ce6155bae"}, {"name": "ea9178cd683fe4b20bc21e5f7825ab64", "is_reserved": 0, "is_disabled": 0, "lon": -76.97551783333333, "rental_uris": {"android": "https://dc.lft.to/lastmile_qr_scan", "ios": "https://dc.lft.to/lastmile_qr_scan"}, "fusion_lon": 0.0, "lat": 38.902596833333334, "type": "electric_scooter", "fusion_lat": 0.0, "bike_id": "ea9178cd683fe4b20bc21e5f7825ab64"}, {"name": "e9f74e3844eda5be5a7a42192c0f3dde", "is_reserved": 0, "is_disabled": 0, "lon": -77.05261466666667, "rental_uris": {"android": "https://dc.lft.to/lastmile_qr_scan", "ios": "https://dc.lft.to/lastmile_qr_scan"}, "fusion_lon": 0.0, "lat": 38.925687333333336, "type": "electric_scooter", "fusion_lat": 0.0, "bike_id": "e9f74e3844eda5be5a7a42192c0f3dde"}, {"name": "3bbb9149bf5f46d5549812894efe0eb1", "is_reserved": 0, "is_disabled": 0, "lon": -77.03989316666667, "rental_uris": {"android": "https://dc.lft.to/lastmile_qr_scan", "ios": "https://dc.lft.to/lastmile_qr_scan"}, "fusion_lon": 0.0, "lat": 38.80301566666667, "type": "electric_bike", "fusion_lat": 0.0, "bike_id": "3bbb9149bf5f46d5549812894efe0eb1"}, {"name": "7ab95ca7a0c907d9743ab74e250b7cc2", "is_reserved": 0, "is_disabled": 0, "lon": -77.01574766666667, "rental_uris": {"android": "https://dc.lft.to/lastmile_qr_scan", "ios": "https://dc.lft.to/lastmile_qr_scan"}, "fusion_lon": 0.0, "lat": 38.87257966666667, "type": "electric_scooter", "fusion_lat": 0.0, "bike_id": "7ab95ca7a0c907d9743ab74e250b7cc2"}, {"name": "980a1e7462ed08253e7167ca7757d458", "is_reserved": 0, "is_disabled": 0, "lon": -77.03243383333333, "rental_uris": {"android": "https://dc.lft.to/lastmile_qr_scan", "ios": "https://dc.lft.to/lastmile_qr_scan"}, "fusion_lon": 0.0, "lat": 38.93040883333333, "type": "electric_scooter", "fusion_lat": 0.0, "bike_id": "980a1e7462ed08253e7167ca7757d458"}, {"name": "f81b7d02e99829e2c59a2063599e689f", "is_reserved": 0, "is_disabled": 0, "lon": -76.98889633333333, "rental_uris": {"android": "https://dc.lft.to/lastmile_qr_scan", "ios": "https://dc.lft.to/lastmile_qr_scan"}, "fusion_lon": 0.0, "lat": 38.90210966666667, "type": "electric_scooter", "fusion_lat": 0.0, "bike_id": "f81b7d02e99829e2c59a2063599e689f"}, {"name": "e3db107b19b56ceac05873b68349bf61", "is_reserved": 0, "is_disabled": 0, "lon": -76.98929033333333, "rental_uris": {"android": "https://dc.lft.to/lastmile_qr_scan", "ios": "https://dc.lft.to/lastmile_qr_scan"}, "fusion_lon": 0.0, "lat": 38.865938666666665, "type": "electric_scooter", "fusion_lat": 0.0, "bike_id": "e3db107b19b56ceac05873b68349bf61"}, {"name": "5a498ea15a177bb3e7713b21b084474b", "is_reserved": 0, "is_disabled": 0, "lon": -77.0410525, "rental_uris": {"android": "https://dc.lft.to/lastmile_qr_scan", "ios": "https://dc.lft.to/lastmile_qr_scan"}, "fusion_lon": 0.0, "lat": 38.914087333333335, "type": "electric_scooter", "fusion_lat": 0.0, "bike_id": "5a498ea15a177bb3e7713b21b084474b"}, {"name": "51cebd0eca4144d1b951a9cc04609aae", "is_reserved": 0, "is_disabled": 0, "lon": -77.01425566666667, "rental_uris": {"android": "https://dc.lft.to/lastmile_qr_scan", "ios": "https://dc.lft.to/lastmile_qr_scan"}, "fusion_lon": 0.0, "lat": 38.9722, "type": "electric_bike", "fusion_lat": 0.0, "bike_id": "51cebd0eca4144d1b951a9cc04609aae"}, {"name": "3f80417a36df5cf46d96f234b9786e18", "is_reserved": 0, "is_disabled": 0, "lon": -77.0390705, "rental_uris": {"android": "https://dc.lft.to/lastmile_qr_scan", "ios": "https://dc.lft.to/lastmile_qr_scan"}, "fusion_lon": 0.0, "lat": 38.91264966666667, "type": "electric_scooter", "fusion_lat": 0.0, "bike_id": "3f80417a36df5cf46d96f234b9786e18"}, {"name": "6e4486003aa9a3465290903672994d4b", "is_reserved": 0, "is_disabled": 0, "lon": -76.99495433333334, "rental_uris": {"android": "https://dc.lft.to/lastmile_qr_scan", "ios": "https://dc.lft.to/lastmile_qr_scan"}, "fusion_lon": 0.0, "lat": 38.9257585, "type": "electric_scooter", "fusion_lat": 0.0, "bike_id": "6e4486003aa9a3465290903672994d4b"}, {"name": "6468fecdc94e7ac236c407da1231229b", "is_reserved": 0, "is_disabled": 0, "lon": -77.00565233333333, "rental_uris": {"android": "https://dc.lft.to/lastmile_qr_scan", "ios": "https://dc.lft.to/lastmile_qr_scan"}, "fusion_lon": 0.0, "lat": 38.905693, "type": "electric_scooter", "fusion_lat": 0.0, "bike_id": "6468fecdc94e7ac236c407da1231229b"}, {"name": "a86395f0328f0ea910525d2275f560bb", "is_reserved": 0, "is_disabled": 0, "lon": -77.02776766666666, "rental_uris": {"android": "https://dc.lft.to/lastmile_qr_scan", "ios": "https://dc.lft.to/lastmile_qr_scan"}, "fusion_lon": 0.0, "lat": 38.892239000000004, "type": "electric_scooter", "fusion_lat": 0.0, "bike_id": "a86395f0328f0ea910525d2275f560bb"}, {"name": "32a39760c99b3ce7946d5ce5ddea6877", "is_reserved": 0, "is_disabled": 0, "lon": -77.18299033333334, "rental_uris": {"android": "https://dc.lft.to/lastmile_qr_scan", "ios": "https://dc.lft.to/lastmile_qr_scan"}, "fusion_lon": 0.0, "lat": 38.88341283333333, "type": "electric_bike", "fusion_lat": 0.0, "bike_id": "32a39760c99b3ce7946d5ce5ddea6877"}, {"name": "b1930337a5a427f83a82eb9c9a0e8a48", "is_reserved": 0, "is_disabled": 0, "lon": -77.02486583333334, "rental_uris": {"android": "https://dc.lft.to/lastmile_qr_scan", "ios": "https://dc.lft.to/lastmile_qr_scan"}, "fusion_lon": 0.0, "lat": 38.93906366666667, "type": "electric_scooter", "fusion_lat": 0.0, "bike_id": "b1930337a5a427f83a82eb9c9a0e8a48"}, {"name": "cf1d8e04e6c8081d03920920cce4c3da", "is_reserved": 0, "is_disabled": 0, "lon": -76.99480716666666, "rental_uris": {"android": "https://dc.lft.to/lastmile_qr_scan", "ios": "https://dc.lft.to/lastmile_qr_scan"}, "fusion_lon": 0.0, "lat": 38.86233466666667, "type": "electric_scooter", "fusion_lat": 0.0, "bike_id": "cf1d8e04e6c8081d03920920cce4c3da"}, {"name": "a25a40c886ab2daf70923d4d8477d9bc", "is_reserved": 0, "is_disabled": 0, "lon": -77.0254605, "rental_uris": {"android": "https://dc.lft.to/lastmile_qr_scan", "ios": "https://dc.lft.to/lastmile_qr_scan"}, "fusion_lon": 0.0, "lat": 38.892217333333335, "type": "electric_scooter", "fusion_lat": 0.0, "bike_id": "a25a40c886ab2daf70923d4d8477d9bc"}, {"name": "a0f075bdcec1856db60ca44f3d0a50c7", "is_reserved": 0, "is_disabled": 0, "lon": -76.9374755, "rental_uris": {"android": "https://dc.lft.to/lastmile_qr_scan", "ios": "https://dc.lft.to/lastmile_qr_scan"}, "fusion_lon": 0.0, "lat": 38.890152666666665, "type": "electric_scooter", "fusion_lat": 0.0, "bike_id": "a0f075bdcec1856db60ca44f3d0a50c7"}, {"name": "f8b2f5fc13357b28e4fd6dc96a8afbcb", "is_reserved": 0, "is_disabled": 0, "lon": -77.06159066666666, "rental_uris": {"android": "https://dc.lft.to/lastmile_qr_scan", "ios": "https://dc.lft.to/lastmile_qr_scan"}, "fusion_lon": 0.0, "lat": 38.90523433333333, "type": "electric_scooter", "fusion_lat": 0.0, "bike_id": "f8b2f5fc13357b28e4fd6dc96a8afbcb"}, {"name": "2ff3d651b0db668cbd478ffbeb997bda", "is_reserved": 0, "is_disabled": 0, "lon": -76.99019916666667, "rental_uris": {"android": "https://dc.lft.to/lastmile_qr_scan", "ios": "https://dc.lft.to/lastmile_qr_scan"}, "fusion_lon": 0.0, "lat": 38.8587035, "type": "electric_scooter", "fusion_lat": 0.0, "bike_id": "2ff3d651b0db668cbd478ffbeb997bda"}, {"name": "6b9e5ced91c8687d1ee434c29a755618", "is_reserved": 0, "is_disabled": 0, "lon": -77.00577833333334, "rental_uris": {"android": "https://dc.lft.to/lastmile_qr_scan", "ios": "https://dc.lft.to/lastmile_qr_scan"}, "fusion_lon": 0.0, "lat": 38.90555333333333, "type": "electric_scooter", "fusion_lat": 0.0, "bike_id": "6b9e5ced91c8687d1ee434c29a755618"}, {"name": "ab771fea3cf0ae8dd71d164779f317dd", "is_reserved": 0, "is_disabled": 0, "lon": -77.0170925, "rental_uris": {"android": "https://dc.lft.to/lastmile_qr_scan", "ios": "https://dc.lft.to/lastmile_qr_scan"}, "fusion_lon": 0.0, "lat": 38.907304, "type": "electric_scooter", "fusion_lat": 0.0, "bike_id": "ab771fea3cf0ae8dd71d164779f317dd"}, {"name": "c09265ffd39d4fbd2346541d8b1c19f7", "is_reserved": 0, "is_disabled": 0, "lon": -77.06100583333334, "rental_uris": {"android": "https://dc.lft.to/lastmile_qr_scan", "ios": "https://dc.lft.to/lastmile_qr_scan"}, "fusion_lon": 0.0, "lat": 38.94320883333333, "type": "electric_scooter", "fusion_lat": 0.0, "bike_id": "c09265ffd39d4fbd2346541d8b1c19f7"}, {"name": "43bcffb5d54dd78040e462b2d3c3814f", "is_reserved": 0, "is_disabled": 0, "lon": -77.08208516666667, "rental_uris": {"android": "https://dc.lft.to/lastmile_qr_scan", "ios": "https://dc.lft.to/lastmile_qr_scan"}, "fusion_lon": 0.0, "lat": 38.935588, "type": "electric_scooter", "fusion_lat": 0.0, "bike_id": "43bcffb5d54dd78040e462b2d3c3814f"}, {"name": "a57e6a4ec714b6004ab234d2639db14b", "is_reserved": 0, "is_disabled": 0, "lon": -77.0344795, "rental_uris": {"android": "https://dc.lft.to/lastmile_qr_scan", "ios": "https://dc.lft.to/lastmile_qr_scan"}, "fusion_lon": 0.0, "lat": 38.903381333333336, "type": "electric_scooter", "fusion_lat": 0.0, "bike_id": "a57e6a4ec714b6004ab234d2639db14b"}, {"name": "55eb936e970573e4f00112579592f160", "is_reserved": 0, "is_disabled": 0, "lon": -77.0262375, "rental_uris": {"android": "https://dc.lft.to/lastmile_qr_scan", "ios": "https://dc.lft.to/lastmile_qr_scan"}, "fusion_lon": 0.0, "lat": 38.900112, "type": "electric_scooter", "fusion_lat": 0.0, "bike_id": "55eb936e970573e4f00112579592f160"}, {"name": "7c605a8dbacbe0ec2d866447d872bc0d", "is_reserved": 0, "is_disabled": 0, "lon": -77.03841933333334, "rental_uris": {"android": "https://dc.lft.to/lastmile_qr_scan", "ios": "https://dc.lft.to/lastmile_qr_scan"}, "fusion_lon": 0.0, "lat": 38.91213466666667, "type": "electric_scooter", "fusion_lat": 0.0, "bike_id": "7c605a8dbacbe0ec2d866447d872bc0d"}, {"name": "5d4c9d4798b7006ab92f4dc0887b7eb0", "is_reserved": 0, "is_disabled": 0, "lon": -77.027106, "rental_uris": {"android": "https://dc.lft.to/lastmile_qr_scan", "ios": "https://dc.lft.to/lastmile_qr_scan"}, "fusion_lon": 0.0, "lat": 38.906697333333334, "type": "electric_scooter", "fusion_lat": 0.0, "bike_id": "5d4c9d4798b7006ab92f4dc0887b7eb0"}, {"name": "4a593d6d57e469ef5c8274c81ed908f3", "is_reserved": 0, "is_disabled": 0, "lon": -77.04306233333334, "rental_uris": {"android": "https://dc.lft.to/lastmile_qr_scan", "ios": "https://dc.lft.to/lastmile_qr_scan"}, "fusion_lon": 0.0, "lat": 39.054485, "type": "electric_bike", "fusion_lat": 0.0, "bike_id": "4a593d6d57e469ef5c8274c81ed908f3"}, {"name": "89caaa24964de3d1e60da14b09987ee1", "is_reserved": 0, "is_disabled": 0, "lon": -77.17850666666666, "rental_uris": {"android": "https://dc.lft.to/lastmile_qr_scan", "ios": "https://dc.lft.to/lastmile_qr_scan"}, "fusion_lon": 0.0, "lat": 39.08900166666667, "type": "electric_bike", "fusion_lat": 0.0, "bike_id": "89caaa24964de3d1e60da14b09987ee1"}, {"name": "6b46bd02e66c750b73eba62c221d128a", "is_reserved": 0, "is_disabled": 0, "lon": -76.99858916666666, "rental_uris": {"android": "https://dc.lft.to/lastmile_qr_scan", "ios": "https://dc.lft.to/lastmile_qr_scan"}, "fusion_lon": 0.0, "lat": 38.90897916666667, "type": "electric_scooter", "fusion_lat": 0.0, "bike_id": "6b46bd02e66c750b73eba62c221d128a"}, {"name": "0a82613f34e46deb7e6ea9a077e1114b", "is_reserved": 0, "is_disabled": 0, "lon": -77.0329765, "rental_uris": {"android": "https://dc.lft.to/lastmile_qr_scan", "ios": "https://dc.lft.to/lastmile_qr_scan"}, "fusion_lon": 0.0, "lat": 38.90966866666667, "type": "electric_scooter", "fusion_lat": 0.0, "bike_id": "0a82613f34e46deb7e6ea9a077e1114b"}, {"name": "5a3f87a073ffe1407a38c546a421689d", "is_reserved": 0, "is_disabled": 0, "lon": -76.98658166666667, "rental_uris": {"android": "https://dc.lft.to/lastmile_qr_scan", "ios": "https://dc.lft.to/lastmile_qr_scan"}, "fusion_lon": 0.0, "lat": 38.90144566666667, "type": "electric_scooter", "fusion_lat": 0.0, "bike_id": "5a3f87a073ffe1407a38c546a421689d"}, {"name": "29ceb9c80dcaa77a9cd0af1bf40eaf7b", "is_reserved": 0, "is_disabled": 0, "lon": -77.03836033333333, "rental_uris": {"android": "https://dc.lft.to/lastmile_qr_scan", "ios": "https://dc.lft.to/lastmile_qr_scan"}, "fusion_lon": 0.0, "lat": 38.90416533333333, "type": "electric_scooter", "fusion_lat": 0.0, "bike_id": "29ceb9c80dcaa77a9cd0af1bf40eaf7b"}, {"name": "6bf4caa40caf1ff0593c36fcb775e839", "is_reserved": 0, "is_disabled": 0, "lon": -76.96522166666666, "rental_uris": {"android": "https://dc.lft.to/lastmile_qr_scan", "ios": "https://dc.lft.to/lastmile_qr_scan"}, "fusion_lon": 0.0, "lat": 38.87483316666667, "type": "electric_scooter", "fusion_lat": 0.0, "bike_id": "6bf4caa40caf1ff0593c36fcb775e839"}, {"name": "223ffa79c207fd7e153275ff00abab44", "is_reserved": 0, "is_disabled": 0, "lon": -77.038262, "rental_uris": {"android": "https://dc.lft.to/lastmile_qr_scan", "ios": "https://dc.lft.to/lastmile_qr_scan"}, "fusion_lon": 0.0, "lat": 38.9112275, "type": "electric_scooter", "fusion_lat": 0.0, "bike_id": "223ffa79c207fd7e153275ff00abab44"}, {"name": "bb94777a88f1fb1560cd61038793c428", "is_reserved": 0, "is_disabled": 0, "lon": -77.02225083333333, "rental_uris": {"android": "https://dc.lft.to/lastmile_qr_scan", "ios": "https://dc.lft.to/lastmile_qr_scan"}, "fusion_lon": 0.0, "lat": 38.912727833333335, "type": "electric_scooter", "fusion_lat": 0.0, "bike_id": "bb94777a88f1fb1560cd61038793c428"}, {"name": "800cb1fe5e8948aeaa068da79448e169", "is_reserved": 0, "is_disabled": 0, "lon": -77.03467983333333, "rental_uris": {"android": "https://dc.lft.to/lastmile_qr_scan", "ios": "https://dc.lft.to/lastmile_qr_scan"}, "fusion_lon": 0.0, "lat": 38.92156416666667, "type": "electric_scooter", "fusion_lat": 0.0, "bike_id": "800cb1fe5e8948aeaa068da79448e169"}, {"name": "2f57a9e94afea48a0bee401e7bcc2d14", "is_reserved": 0, "is_disabled": 0, "lon": -76.98833883333333, "rental_uris": {"android": "https://dc.lft.to/lastmile_qr_scan", "ios": "https://dc.lft.to/lastmile_qr_scan"}, "fusion_lon": 0.0, "lat": 38.900528666666666, "type": "electric_scooter", "fusion_lat": 0.0, "bike_id": "2f57a9e94afea48a0bee401e7bcc2d14"}, {"name": "5e462ea0a078335e13dfa0787b01065b", "is_reserved": 0, "is_disabled": 0, "lon": -77.026334, "rental_uris": {"android": "https://dc.lft.to/lastmile_qr_scan", "ios": "https://dc.lft.to/lastmile_qr_scan"}, "fusion_lon": 0.0, "lat": 38.936837833333335, "type": "electric_bike", "fusion_lat": 0.0, "bike_id": "5e462ea0a078335e13dfa0787b01065b"}, {"name": "5139a5ca6dd1dc18bbc22f7582956d4c", "is_reserved": 0, "is_disabled": 0, "lon": -77.05792283333334, "rental_uris": {"android": "https://dc.lft.to/lastmile_qr_scan", "ios": "https://dc.lft.to/lastmile_qr_scan"}, "fusion_lon": 0.0, "lat": 38.9347965, "type": "electric_scooter", "fusion_lat": 0.0, "bike_id": "5139a5ca6dd1dc18bbc22f7582956d4c"}, {"name": "218d1c9e115ef5a3b2a5d83c664292a8", "is_reserved": 0, "is_disabled": 0, "lon": -77.031152, "rental_uris": {"android": "https://dc.lft.to/lastmile_qr_scan", "ios": "https://dc.lft.to/lastmile_qr_scan"}, "fusion_lon": 0.0, "lat": 38.91923216666667, "type": "electric_scooter", "fusion_lat": 0.0, "bike_id": "218d1c9e115ef5a3b2a5d83c664292a8"}, {"name": "6fef227e39f014f993d415ac233d8b21", "is_reserved": 0, "is_disabled": 0, "lon": -77.03180066666667, "rental_uris": {"android": "https://dc.lft.to/lastmile_qr_scan", "ios": "https://dc.lft.to/lastmile_qr_scan"}, "fusion_lon": 0.0, "lat": 38.90379816666667, "type": "electric_scooter", "fusion_lat": 0.0, "bike_id": "6fef227e39f014f993d415ac233d8b21"}, {"name": "b8498ac277932ccc788994f40ec36ab2", "is_reserved": 0, "is_disabled": 0, "lon": -77.02323366666667, "rental_uris": {"android": "https://dc.lft.to/lastmile_qr_scan", "ios": "https://dc.lft.to/lastmile_qr_scan"}, "fusion_lon": 0.0, "lat": 38.916843666666665, "type": "electric_scooter", "fusion_lat": 0.0, "bike_id": "b8498ac277932ccc788994f40ec36ab2"}, {"name": "d375271fc4317b8f44a0c4d1b3c98ecb", "is_reserved": 0, "is_disabled": 0, "lon": -77.03404833333333, "rental_uris": {"android": "https://dc.lft.to/lastmile_qr_scan", "ios": "https://dc.lft.to/lastmile_qr_scan"}, "fusion_lon": 0.0, "lat": 38.9192355, "type": "electric_scooter", "fusion_lat": 0.0, "bike_id": "d375271fc4317b8f44a0c4d1b3c98ecb"}, {"name": "9b1c09171d9be7116b9b6c206b43f193", "is_reserved": 0, "is_disabled": 0, "lon": -77.04327833333333, "rental_uris": {"android": "https://dc.lft.to/lastmile_qr_scan", "ios": "https://dc.lft.to/lastmile_qr_scan"}, "fusion_lon": 0.0, "lat": 38.911219333333335, "type": "electric_scooter", "fusion_lat": 0.0, "bike_id": "9b1c09171d9be7116b9b6c206b43f193"}, {"name": "bbe0b8af5d72dd00a1f548d4e6589aee", "is_reserved": 0, "is_disabled": 0, "lon": -77.04354533333333, "rental_uris": {"android": "https://dc.lft.to/lastmile_qr_scan", "ios": "https://dc.lft.to/lastmile_qr_scan"}, "fusion_lon": 0.0, "lat": 38.898328666666664, "type": "electric_scooter", "fusion_lat": 0.0, "bike_id": "bbe0b8af5d72dd00a1f548d4e6589aee"}, {"name": "eedbeb00bc4619ef08f82d0bd4892e0c", "is_reserved": 0, "is_disabled": 0, "lon": -77.028538, "rental_uris": {"android": "https://dc.lft.to/lastmile_qr_scan", "ios": "https://dc.lft.to/lastmile_qr_scan"}, "fusion_lon": 0.0, "lat": 38.9327105, "type": "electric_scooter", "fusion_lat": 0.0, "bike_id": "eedbeb00bc4619ef08f82d0bd4892e0c"}, {"name": "ac8730d60640c435eba7b93365499f72", "is_reserved": 0, "is_disabled": 0, "lon": -77.0658045, "rental_uris": {"android": "https://dc.lft.to/lastmile_qr_scan", "ios": "https://dc.lft.to/lastmile_qr_scan"}, "fusion_lon": 0.0, "lat": 38.90363966666666, "type": "electric_scooter", "fusion_lat": 0.0, "bike_id": "ac8730d60640c435eba7b93365499f72"}, {"name": "338a3140d383354c0c0b2a54bb3c931b", "is_reserved": 0, "is_disabled": 0, "lon": -77.01337366666667, "rental_uris": {"android": "https://dc.lft.to/lastmile_qr_scan", "ios": "https://dc.lft.to/lastmile_qr_scan"}, "fusion_lon": 0.0, "lat": 38.88136166666666, "type": "electric_scooter", "fusion_lat": 0.0, "bike_id": "338a3140d383354c0c0b2a54bb3c931b"}, {"name": "df3fc5350885fffc4fcdae9b0d5d8623", "is_reserved": 0, "is_disabled": 0, "lon": -77.028177, "rental_uris": {"android": "https://dc.lft.to/lastmile_qr_scan", "ios": "https://dc.lft.to/lastmile_qr_scan"}, "fusion_lon": 0.0, "lat": 38.930686, "type": "electric_scooter", "fusion_lat": 0.0, "bike_id": "df3fc5350885fffc4fcdae9b0d5d8623"}, {"name": "e3db6e1afb3aab9b6b197389f0bbde6d", "is_reserved": 0, "is_disabled": 0, "lon": -77.07269033333333, "rental_uris": {"android": "https://dc.lft.to/lastmile_qr_scan", "ios": "https://dc.lft.to/lastmile_qr_scan"}, "fusion_lon": 0.0, "lat": 38.91327583333333, "type": "electric_scooter", "fusion_lat": 0.0, "bike_id": "e3db6e1afb3aab9b6b197389f0bbde6d"}, {"name": "c5b072f6c2b00e5869b6a04300f1d74b", "is_reserved": 0, "is_disabled": 0, "lon": -77.02864633333333, "rental_uris": {"android": "https://dc.lft.to/lastmile_qr_scan", "ios": "https://dc.lft.to/lastmile_qr_scan"}, "fusion_lon": 0.0, "lat": 38.9014915, "type": "electric_scooter", "fusion_lat": 0.0, "bike_id": "c5b072f6c2b00e5869b6a04300f1d74b"}, {"name": "0dfeff90a8d029dcfd85b4494b1fd798", "is_reserved": 0, "is_disabled": 0, "lon": -77.015816, "rental_uris": {"android": "https://dc.lft.to/lastmile_qr_scan", "ios": "https://dc.lft.to/lastmile_qr_scan"}, "fusion_lon": 0.0, "lat": 38.876886999999996, "type": "electric_scooter", "fusion_lat": 0.0, "bike_id": "0dfeff90a8d029dcfd85b4494b1fd798"}, {"name": "f6711b69dce4374423dd12aad4de8f6a", "is_reserved": 0, "is_disabled": 0, "lon": -77.042841, "rental_uris": {"android": "https://dc.lft.to/lastmile_qr_scan", "ios": "https://dc.lft.to/lastmile_qr_scan"}, "fusion_lon": 0.0, "lat": 38.901184, "type": "electric_scooter", "fusion_lat": 0.0, "bike_id": "f6711b69dce4374423dd12aad4de8f6a"}, {"name": "7d6a7fdd71a2d6ffef8e5a5d26ba1853", "is_reserved": 0, "is_disabled": 0, "lon": -77.042504, "rental_uris": {"android": "https://dc.lft.to/lastmile_qr_scan", "ios": "https://dc.lft.to/lastmile_qr_scan"}, "fusion_lon": 0.0, "lat": 38.917857, "type": "electric_scooter", "fusion_lat": 0.0, "bike_id": "7d6a7fdd71a2d6ffef8e5a5d26ba1853"}, {"name": "330151fbc14cc30ade6a1b177a94389f", "is_reserved": 0, "is_disabled": 0, "lon": -77.095525, "rental_uris": {"android": "https://dc.lft.to/lastmile_qr_scan", "ios": "https://dc.lft.to/lastmile_qr_scan"}, "fusion_lon": 0.0, "lat": 38.83810733333333, "type": "electric_bike", "fusion_lat": 0.0, "bike_id": "330151fbc14cc30ade6a1b177a94389f"}, {"name": "5c44402073ecb798fb10ef0d9d1658e6", "is_reserved": 0, "is_disabled": 0, "lon": -77.1050545, "rental_uris": {"android": "https://dc.lft.to/lastmile_qr_scan", "ios": "https://dc.lft.to/lastmile_qr_scan"}, "fusion_lon": 0.0, "lat": 38.92849366666667, "type": "electric_bike", "fusion_lat": 0.0, "bike_id": "5c44402073ecb798fb10ef0d9d1658e6"}, {"name": "22a9ea5829e430f5ef995849d0e9f1a1", "is_reserved": 0, "is_disabled": 0, "lon": -77.036255, "rental_uris": {"android": "https://dc.lft.to/lastmile_qr_scan", "ios": "https://dc.lft.to/lastmile_qr_scan"}, "fusion_lon": 0.0, "lat": 38.902698, "type": "electric_scooter", "fusion_lat": 0.0, "bike_id": "22a9ea5829e430f5ef995849d0e9f1a1"}, {"name": "35da4c759917471638b744e8598fb21b", "is_reserved": 0, "is_disabled": 0, "lon": -77.01897266666667, "rental_uris": {"android": "https://dc.lft.to/lastmile_qr_scan", "ios": "https://dc.lft.to/lastmile_qr_scan"}, "fusion_lon": 0.0, "lat": 38.939176333333336, "type": "electric_scooter", "fusion_lat": 0.0, "bike_id": "35da4c759917471638b744e8598fb21b"},