{"data": {"bikes": [{"rental_uris": {"ios": "https://dc.lft.to/lastmile_qr_scan", "android": "https://dc.lft.to/lastmile_qr_scan"}, "type": "electric_scooter", "name": "e97a975a543418790cebe05381dff50c", "is_reserved": 0, "lon": -77.03355583333334, "is_disabled": 0, "fusion_lat": 0.0, "lat": 38.954805, "bike_id": "e97a975a543418790cebe05381dff50c", "fusion_lon": 0.0}, {"rental_uris": {"ios": "https://dc.lft.to/lastmile_qr_scan", "android": "https://dc.lft.to/lastmile_qr_scan"}, "type": "electric_scooter", "name": "53f713b77e9fb204ec2253efa8086194", "is_reserved": 0, "lon": -77.03869566666667, "is_disabled": 0, "fusion_lat": 0.0, "lat": 38.911190500000004, "bike_id": "53f713b77e9fb204ec2253efa8086194", "fusion_lon": 0.0}, {"rental_uris": {"ios": "https://dc.lft.to/lastmile_qr_scan", "android": "https://dc.lft.to/lastmile_qr_scan"}, "type": "electric_bike", "name": "5cb39e8bbf0bd2e102d753b2e7a6efe2", "is_reserved": 0, "lon": -77.04686583333333, "is_disabled": 0, "fusion_lat": 0.0, "lat": 38.907343833333336, "bike_id": "5cb39e8bbf0bd2e102d753b2e7a6efe2", "fusion_lon": 0.0}, {"rental_uris": {"ios": "https://dc.lft.to/lastmile_qr_scan", "android": "https://dc.lft.to/lastmile_qr_scan"}, "type": "electric_scooter", "name": "371a994adff13e78520f6c6f055e4a6e", "is_reserved": 0, "lon": -77.0385605, "is_disabled": 0, "fusion_lat": 0.0, "lat": 38.903963, "bike_id": "371a994adff13e78520f6c6f055e4a6e", "fusion_lon": 0.0}, {"rental_uris": {"ios": "https://dc.lft.to/lastmile_qr_scan", "android": "https://dc.lft.to/lastmile_qr_scan"}, "type": "electric_scooter", "name": "50700fa5d558d2b9d60ab8512b41bcf7", "is_reserved": 0, "lon": -77.01224083333334, "is_disabled": 0, "fusion_lat": 0.0, "lat": 38.91685416666667, "bike_id": "50700fa5d558d2b9d60ab8512b41bcf7", "fusion_lon": 0.0}, {"rental_uris": {"ios": "https://dc.lft.to/lastmile_qr_scan", "android": "https://dc.lft.to/lastmile_qr_scan"}, "type": "electric_scooter", "name": "d5019952af5b6122bca3a9ab0289ff22", "is_reserved": 0, "lon": -77.02173283333333, "is_disabled": 0, "fusion_lat": 0.0, "lat": 38.894834, "bike_id": "d5019952af5b6122bca3a9ab0289ff22", "fusion_lon": 0.0}, {"rental_uris": {"ios": "https://dc.lft.to/lastmile_qr_scan", "android": "https://dc.lft.to/lastmile_qr_scan"}, "type": "electric_scooter", "name": "5ccfd5f11d632f91faa5a06b8a47d3b5", "is_reserved": 0, "lon": -77.04816133333334, "is_disabled": 0, "fusion_lat": 0.0, "lat": 38.89749966666667, "bike_id": "5ccfd5f11d632f91faa5a06b8a47d3b5", "fusion_lon": 0.0}, {"rental_uris": {"ios": "https://dc.lft.to/lastmile_qr_scan", "android": "https://dc.lft.to/lastmile_qr_scan"}, "type": "electric_scooter", "name": "fd4e1ac5540157987105da9b6b8662b6", "is_reserved": 0, "lon": -77.0385875, "is_disabled": 0, "fusion_lat": 0.0, "lat": 38.907767166666666, "bike_id": "fd4e1ac5540157987105da9b6b8662b6", "fusion_lon": 0.0}, {"rental_uris": {"ios": "https://dc.lft.to/lastmile_qr_scan", "android": "https://dc.lft.to/lastmile_qr_scan"}, "type": "electric_scooter", "name": "97aed5c2ec9d5bb62ff3b618a946dca4", "is_reserved": 0, "lon": -76.949281, "is_disabled": 0, "fusion_lat": 0.0, "lat": 38.8954905, "bike_id": "97aed5c2ec9d5bb62ff3b618a946dca4", "fusion_lon": 0.0}, {"rental_uris": {"ios": "https://dc.lft.to/lastmile_qr_scan", "android": "https://dc.lft.to/lastmile_qr_scan"}, "type": "electric_scooter", "name": "311625b6808de13f7fece0162e8c167e", "is_reserved": 0, "lon": -77.042752, "is_disabled": 0, "fusion_lat": 0.0, "lat": 38.917852333333336, "bike_id": "311625b6808de13f7fece0162e8c167e", "fusion_lon": 0.0}, {"rental_uris": {"ios": "https://dc.lft.to/lastmile_qr_scan", "android": "https://dc.lft.to/lastmile_qr_scan"}, "type": "electric_scooter", "name": "5f565b138f8dacf75c45caeeac4efe84", "is_reserved": 0, "lon": -77.0816775, "is_disabled": 0, "fusion_lat": 0.0, "lat": 38.91955683333333, "bike_id": "5f565b138f8dacf75c45caeeac4efe84", "fusion_lon": 0.0}, {"rental_uris": {"ios": "https://dc.lft.to/lastmile_qr_scan", "android": "https://dc.lft.to/lastmile_qr_scan"}, "type": "electric_scooter", "name": "287cc2346cc81a2a1ec020e3e5e9f47c", "is_reserved": 0, "lon": -77.00191966666667, "is_disabled": 0, "fusion_lat": 0.0, "lat": 38.911866833333335, "bike_id": "287cc2346cc81a2a1ec020e3e5e9f47c", "fusion_lon": 0.0}, {"rental_uris": {"ios": "https://dc.lft.to/lastmile_qr_scan", "android": "https://dc.lft.to/lastmile_qr_scan"}, "type": "electric_scooter", "name": "09b33c717ae9d94039d9d9189a157890", "is_reserved": 0, "lon": -76.982128, "is_disabled": 0, "fusion_lat": 0.0, "lat": 38.89544, "bike_id": "09b33c717ae9d94039d9d9189a157890", "fusion_lon": 0.0}, {"rental_uris": {"ios": "https://dc.lft.to/lastmile_qr_scan", "android": "https://dc.lft.to/lastmile_qr_scan"}, "type": "electric_scooter", "name": "3b1c282d7ad4fc89b8d397964b3b66cf", "is_reserved": 0, "lon": -77.03344566666667, "is_disabled": 0, "fusion_lat": 0.0, "lat": 38.914077166666665, "bike_id": "3b1c282d7ad4fc89b8d397964b3b66cf", "fusion_lon": 0.0}, {"rental_uris": {"ios": "https://dc.lft.to/lastmile_qr_scan", "android": "https://dc.lft.to/lastmile_qr_scan"}, "type": "electric_scooter", "name": "21ca2f1ddf46004a07501f9689197823", "is_reserved": 0, "lon": -77.02309133333333, "is_disabled": 0, "fusion_lat": 0.0, "lat": 38.9613075, "bike_id": "21ca2f1ddf46004a07501f9689197823", "fusion_lon": 0.0}, {"rental_uris": {"ios": "https://dc.lft.to/lastmile_qr_scan", "android": "https://dc.lft.to/lastmile_qr_scan"}, "type": "electric_scooter", "name": "79ea4d7145eaf1e48a71fae18deacef9", "is_reserved": 0, "lon": -77.03213316666667, "is_disabled": 0, "fusion_lat": 0.0, "lat": 38.91643916666666, "bike_id": "79ea4d7145eaf1e48a71fae18deacef9", "fusion_lon": 0.0}, {"rental_uris": {"ios": "https://dc.lft.to/lastmile_qr_scan", "android": "https://dc.lft.to/lastmile_qr_scan"}, "type": "electric_scooter", "name": "d41d20121c0bcc74da9546970bfa788b", "is_reserved": 0, "lon": -77.03173033333333, "is_disabled": 0, "fusion_lat": 0.0, "lat": 38.920067, "bike_id": "d41d20121c0bcc74da9546970bfa788b", "fusion_lon": 0.0}, {"rental_uris": {"ios": "https://dc.lft.to/lastmile_qr_scan", "android": "https://dc.lft.to/lastmile_qr_scan"}, "type": "electric_scooter", "name": "17e3326613e49bd4856b37c934316389", "is_reserved": 0, "lon": -77.02286233333334, "is_disabled": 0, "fusion_lat": 0.0, "lat": 38.9079405, "bike_id": "17e3326613e49bd4856b37c934316389", "fusion_lon": 0.0}, {"rental_uris": {"ios": "https://dc.lft.to/lastmile_qr_scan", "android": "https://dc.lft.to/lastmile_qr_scan"}, "type": "electric_scooter", "name": "ac10e50a1c7e67d8a263914f7b8db46c", "is_reserved": 0, "lon": -77.04138933333333, "is_disabled": 0, "fusion_lat": 0.0, "lat": 38.9346875, "bike_id": "ac10e50a1c7e67d8a263914f7b8db46c", "fusion_lon": 0.0}, {"rental_uris": {"ios": "https://dc.lft.to/lastmile_qr_scan", "android": "https://dc.lft.to/lastmile_qr_scan"}, "type": "electric_scooter", "name": "77bdbe8ab9568d88c3ffc608f017e770", "is_reserved": 0, "lon": -77.033765, "is_disabled": 0, "fusion_lat": 0.0, "lat": 38.9104125, "bike_id": "77bdbe8ab9568d88c3ffc608f017e770", "fusion_lon": 0.0}, {"rental_uris": {"ios": "https://dc.lft.to/lastmile_qr_scan", "android": "https://dc.lft.to/lastmile_qr_scan"}, "type": "electric_scooter", "name": "d48ece12b613a61a3518ed1bfcb0ff77", "is_reserved": 0, "lon": -77.03404433333333, "is_disabled": 0, "fusion_lat": 0.0, "lat": 38.91975683333333, "bike_id": "d48ece12b613a61a3518ed1bfcb0ff77", "fusion_lon": 0.0}, {"rental_uris": {"ios": "https://dc.lft.to/lastmile_qr_scan", "android": "https://dc.lft.to/lastmile_qr_scan"}, "type": "electric_scooter", "name": "310666dc165074e27c7afdc9b6fe9edf", "is_reserved": 0, "lon": -77.03662533333333, "is_disabled": 0, "fusion_lat": 0.0, "lat": 38.917250333333335, "bike_id": "310666dc165074e27c7afdc9b6fe9edf", "fusion_lon": 0.0}, {"rental_uris": {"ios": "https://dc.lft.to/lastmile_qr_scan", "android": "https://dc.lft.to/lastmile_qr_scan"}, "type": "electric_scooter", "name": "17c05b23ad52f5170856f1b88e98f925", "is_reserved": 0, "lon": -77.02396566666667, "is_disabled": 0, "fusion_lat": 0.0, "lat": 38.927032, "bike_id": "17c05b23ad52f5170856f1b88e98f925", "fusion_lon": 0.0}, {"rental_uris": {"ios": "https://dc.lft.to/lastmile_qr_scan", "android": "https://dc.lft.to/lastmile_qr_scan"}, "type": "electric_scooter", "name": "e8970c45b4101ee7bfd238687a4da7c4", "is_reserved": 0, "lon": -77.008851, "is_disabled": 0, "fusion_lat": 0.0, "lat": 38.92245583333333, "bike_id": "e8970c45b4101ee7bfd238687a4da7c4", "fusion_lon": 0.0}, {"rental_uris": {"ios": "https://dc.lft.to/lastmile_qr_scan", "android": "https://dc.lft.to/lastmile_qr_scan"}, "type": "electric_scooter", "name": "051968fa9dae14aedd2f4576b9407485", "is_reserved": 0, "lon": -77.02472233333333, "is_disabled": 0, "fusion_lat": 0.0, "lat": 38.939049, "bike_id": "051968fa9dae14aedd2f4576b9407485", "fusion_lon": 0.0}, {"rental_uris": {"ios": "https://dc.lft.to/lastmile_qr_scan", "android": "https://dc.lft.to/lastmile_qr_scan"}, "type": "electric_bike", "name": "9a5c25bb6c675469bd630ae40615c5d1", "is_reserved": 0, "lon": -76.973223, "is_disabled": 0, "fusion_lat": 0.0, "lat": 38.857799, "bike_id": "9a5c25bb6c675469bd630ae40615c5d1", "fusion_lon": 0.0}, {"rental_uris": {"ios": "https://dc.lft.to/lastmile_qr_scan", "android": "https://dc.lft.to/lastmile_qr_scan"}, "type": "electric_scooter", "name": "7aeebfb07cd4db7d5540aeae89a462e8", "is_reserved": 0, "lon": -77.03842266666666, "is_disabled": 0, "fusion_lat": 0.0, "lat": 38.910434333333335, "bike_id": "7aeebfb07cd4db7d5540aeae89a462e8", "fusion_lon": 0.0}, {"rental_uris": {"ios": "https://dc.lft.to/lastmile_qr_scan", "android": "https://dc.lft.to/lastmile_qr_scan"}, "type": "electric_scooter", "name": "1fde2ecd22da5f0f5d29189160e057e6", "is_reserved": 0, "lon": -77.03182366666667, "is_disabled": 0, "fusion_lat": 0.0, "lat": 38.92003066666667, "bike_id": "1fde2ecd22da5f0f5d29189160e057e6", "fusion_lon": 0.0}, {"rental_uris": {"ios": "https://dc.lft.to/lastmile_qr_scan", "android": "https://dc.lft.to/lastmile_qr_scan"}, "type": "electric_scooter", "name": "f403ff65354334f56322d072be0f02f5", "is_reserved": 0, "lon": -77.0227935, "is_disabled": 0, "fusion_lat": 0.0, "lat": 38.8952835, "bike_id": "f403ff65354334f56322d072be0f02f5", "fusion_lon": 0.0}, {"rental_uris": {"ios": "https://dc.lft.to/lastmile_qr_scan", "android": "https://dc.lft.to/lastmile_qr_scan"}, "type": "electric_scooter", "name": "c48407a57b76d29039be85480340fb0d", "is_reserved": 0, "lon": -77.009225, "is_disabled": 0, "fusion_lat": 0.0, "lat": 38.88200716666667, "bike_id": "c48407a57b76d29039be85480340fb0d", "fusion_lon": 0.0}, {"rental_uris": {"ios": "https://dc.lft.to/lastmile_qr_scan", "android": "https://dc.lft.to/lastmile_qr_scan"}, "type": "electric_scooter", "name": "f7980a0fe32ce5251456813eb2b8e3c3", "is_reserved": 0, "lon": -77.0260595, "is_disabled": 0, "fusion_lat": 0.0, "lat": 38.905815, "bike_id": "f7980a0fe32ce5251456813eb2b8e3c3", "fusion_lon": 0.0}, {"rental_uris": {"ios": "https://dc.lft.to/lastmile_qr_scan", "android": "https://dc.lft.to/lastmile_qr_scan"}, "type": "electric_scooter", "name": "f78a28c784829bc406113d457846b70c", "is_reserved": 0, "lon": -77.0190405, "is_disabled": 0, "fusion_lat": 0.0, "lat": 38.923464833333334, "bike_id": "f78a28c784829bc406113d457846b70c", "fusion_lon": 0.0}, {"rental_uris": {"ios": "https://dc.lft.to/lastmile_qr_scan", "android": "https://dc.lft.to/lastmile_qr_scan"}, "type": "electric_scooter", "name": "45a98e26713910125e8f5ccae9b56042", "is_reserved": 0, "lon": -77.02218566666667, "is_disabled": 0, "fusion_lat": 0.0, "lat": 38.92468383333333, "bike_id": "45a98e26713910125e8f5ccae9b56042", "fusion_lon": 0.0}, {"rental_uris": {"ios": "https://dc.lft.to/lastmile_qr_scan", "android": "https://dc.lft.to/lastmile_qr_scan"}, "type": "electric_scooter", "name": "34271490a706d1b0daf4820a8e0f4791", "is_reserved": 0, "lon": -77.0415025, "is_disabled": 0, "fusion_lat": 0.0, "lat": 38.9056315, "bike_id": "34271490a706d1b0daf4820a8e0f4791", "fusion_lon": 0.0}, {"rental_uris": {"ios": "https://dc.lft.to/lastmile_qr_scan", "android": "https://dc.lft.to/lastmile_qr_scan"}, "type": "electric_scooter", "name": "d485dcde4672fc99f1cc913c81d03efc", "is_reserved": 0, "lon": -77.0449245, "is_disabled": 0, "fusion_lat": 0.0, "lat": 38.91407516666666, "bike_id": "d485dcde4672fc99f1cc913c81d03efc", "fusion_lon": 0.0}, {"rental_uris": {"ios": "https://dc.lft.to/lastmile_qr_scan", "android": "https://dc.lft.to/lastmile_qr_scan"}, "type": "electric_scooter", "name": "6163b89cd339817e823f311df324293b", "is_reserved": 0, "lon": -76.995095, "is_disabled": 0, "fusion_lat": 0.0, "lat": 38.9033495, "bike_id": "6163b89cd339817e823f311df324293b", "fusion_lon": 0.0}, {"rental_uris": {"ios": "https://dc.lft.to/lastmile_qr_scan", "android": "https://dc.lft.to/lastmile_qr_scan"}, "type": "electric_scooter", "name": "cf4489b6eac5c118680dfa17399325b9", "is_reserved": 0, "lon": -77.05330916666666, "is_disabled": 0, "fusion_lat": 0.0, "lat": 38.904574333333336, "bike_id": "cf4489b6eac5c118680dfa17399325b9", "fusion_lon": 0.0}, {"rental_uris": {"ios": "https://dc.lft.to/lastmile_qr_scan", "android": "https://dc.lft.to/lastmile_qr_scan"}, "type": "electric_scooter", "name": "7da50095f3ffd344783fea668836a9d7", "is_reserved": 0, "lon": -77.0405705, "is_disabled": 0, "fusion_lat": 0.0, "lat": 38.930156333333336, "bike_id": "7da50095f3ffd344783fea668836a9d7", "fusion_lon": 0.0}, {"rental_uris": {"ios": "https://dc.lft.to/lastmile_qr_scan", "android": "https://dc.lft.to/lastmile_qr_scan"}, "type": "electric_scooter", "name": "708e0c16e58b7ee26e6a311ba2ca6863", "is_reserved": 0, "lon": -77.04875666666666, "is_disabled": 0, "fusion_lat": 0.0, "lat": 38.91026133333333, "bike_id": "708e0c16e58b7ee26e6a311ba2ca6863", "fusion_lon": 0.0}, {"rental_uris": {"ios": "https://dc.lft.to/lastmile_qr_scan", "android": "https://dc.lft.to/lastmile_qr_scan"}, "type": "electric_scooter", "name": "f58a4f9a14cfcf2c6d900a53b5c14fde", "is_reserved": 0, "lon": -77.02301216666666, "is_disabled": 0, "fusion_lat": 0.0, "lat": 38.9168615, "bike_id": "f58a4f9a14cfcf2c6d900a53b5c14fde", "fusion_lon": 0.0}, {"rental_uris": {"ios": "https://dc.lft.to/lastmile_qr_scan", "android": "https://dc.lft.to/lastmile_qr_scan"}, "type": "electric_scooter", "name": "4079894bfdfa65845e23fac9f952e8e9", "is_reserved": 0, "lon": -77.03459983333333, "is_disabled": 0, "fusion_lat": 0.0, "lat": 38.907295833333336, "bike_id": "4079894bfdfa65845e23fac9f952e8e9", "fusion_lon": 0.0}, {"rental_uris": {"ios": "https://dc.lft.to/lastmile_qr_scan", "android": "https://dc.lft.to/lastmile_qr_scan"}, "type": "electric_scooter", "name": "cf9bfffd65920ad9ffcfe98f8753e003", "is_reserved": 0, "lon": -77.02548966666667, "is_disabled": 0, "fusion_lat": 0.0, "lat": 38.95171033333333, "bike_id": "cf9bfffd65920ad9ffcfe98f8753e003", "fusion_lon": 0.0}, {"rental_uris": {"ios": "https://dc.lft.to/lastmile_qr_scan", "android": "https://dc.lft.to/lastmile_qr_scan"}, "type": "electric_bike", "name": "66e47f5b314979ce164db2bbd06fc159", "is_reserved": 0, "lon": -77.1269745, "is_disabled": 0, "fusion_lat": 0.0, "lat": 38.8957295, "bike_id": "66e47f5b314979ce164db2bbd06fc159", "fusion_lon": 0.0}, {"rental_uris": {"ios": "https://dc.lft.to/lastmile_qr_scan", "android": "https://dc.lft.to/lastmile_qr_scan"}, "type": "electric_scooter", "name": "27dddc2664a1cdbd0c2a106594e982c2", "is_reserved": 0, "lon": -77.0255895, "is_disabled": 0, "fusion_lat": 0.0, "lat": 38.93863916666667, "bike_id": "27dddc2664a1cdbd0c2a106594e982c2", "fusion_lon": 0.0}, {"rental_uris": {"ios": "https://dc.lft.to/lastmile_qr_scan", "android": "https://dc.lft.to/lastmile_qr_scan"}, "type": "electric_scooter", "name": "da5751826584d62b9646db5c9a6d81f6", "is_reserved": 0, "lon": -76.98583883333333, "is_disabled": 0, "fusion_lat": 0.0, "lat": 38.86187533333333, "bike_id": "da5751826584d62b9646db5c9a6d81f6", "fusion_lon": 0.0}, {"rental_uris": {"ios": "https://dc.lft.to/lastmile_qr_scan", "android": "https://dc.lft.to/lastmile_qr_scan"}, "type": "electric_bike", "name": "948fdb9f543262f4ffa57dd50e13d3e5", "is_reserved": 0, "lon": -77.09014233333333, "is_disabled": 0, "fusion_lat": 0.0, "lat": 38.92660766666667, "bike_id": "948fdb9f543262f4ffa57dd50e13d3e5", "fusion_lon": 0.0}, {"rental_uris": {"ios": "https://dc.lft.to/lastmile_qr_scan", "android": "https://dc.lft.to/lastmile_qr_scan"}, "type": "electric_scooter", "name": "b6354f2b2dd68badaf97d2c74178b333", "is_reserved": 0, "lon": -77.00761983333334, "is_disabled": 0, "fusion_lat": 0.0, "lat": 38.92530633333333, "bike_id": "b6354f2b2dd68badaf97d2c74178b333", "fusion_lon": 0.0}, {"rental_uris": {"ios": "https://dc.lft.to/lastmile_qr_scan", "android": "https://dc.lft.to/lastmile_qr_scan"}, "type": "electric_bike", "name": "22753174ed1e02f66a0bf94f2ff0e38d", "is_reserved": 0, "lon": -76.95692466666667, "is_disabled": 0, "fusion_lat": 0.0, "lat": 38.850869833333334, "bike_id": "22753174ed1e02f66a0bf94f2ff0e38d", "fusion_lon": 0.0}, {"rental_uris": {"ios": "https://dc.lft.to/lastmile_qr_scan", "android": "https://dc.lft.to/lastmile_qr_scan"}, "type": "electric_scooter", "name": "c48c20eefd1b22187ed05ad23b8366bd", "is_reserved": 0, "lon": -76.95887216666667, "is_disabled": 0, "fusion_lat": 0.0, "lat": 38.85841416666667, "bike_id": "c48c20eefd1b22187ed05ad23b8366bd", "fusion_lon": 0.0}, {"rental_uris": {"ios": "https://dc.lft.to/lastmile_qr_scan", "android": "https://dc.lft.to/lastmile_qr_scan"}, "type": "electric_scooter", "name": "5005d0843e860e3dfef63cde4a22a92e", "is_reserved": 0, "lon": -77.02526383333333, "is_disabled": 0, "fusion_lat": 0.0, "lat": 38.898329, "bike_id": "5005d0843e860e3dfef63cde4a22a92e", "fusion_lon": 0.0}, {"rental_uris": {"ios": "https://dc.lft.to/lastmile_qr_scan", "android": "https://dc.lft.to/lastmile_qr_scan"}, "type": "electric_scooter", "name": "f14af59daf05eb4f88733de4b68b0f3d", "is_reserved": 0, "lon": -77.02015533333334, "is_disabled": 0, "fusion_lat": 0.0, "lat": 38.89961016666667, "bike_id": "f14af59daf05eb4f88733de4b68b0f3d", "fusion_lon": 0.0}, {"rental_uris": {"ios": "https://dc.lft.to/lastmile_qr_scan", "android": "https://dc.lft.to/lastmile_qr_scan"}, "type": "electric_scooter", "name": "e7ab9ff13d85f4b81cdd50b249316c16", "is_reserved": 0, "lon": -77.039327, "is_disabled": 0, "fusion_lat": 0.0, "lat": 38.89867183333333, "bike_id": "e7ab9ff13d85f4b81cdd50b249316c16", "fusion_lon": 0.0}, {"rental_uris": {"ios": "https://dc.lft.to/lastmile_qr_scan", "android": "https://dc.lft.to/lastmile_qr_scan"}, "type": "electric_scooter", "name": "49fa3034524a178ad28eb127d06befce", "is_reserved": 0, "lon": -77.03943383333333, "is_disabled": 0, "fusion_lat": 0.0, "lat": 38.898573, "bike_id": "49fa3034524a178ad28eb127d06befce", "fusion_lon": 0.0}, {"rental_uris": {"ios": "https://dc.lft.to/lastmile_qr_scan", "android": "https://dc.lft.to/lastmile_qr_scan"}, "type": "electric_scooter", "name": "9a4de179ff2f9e98dd771dda3bb48869", "is_reserved": 0, "lon": -77.02305166666666, "is_disabled": 0, "fusion_lat": 0.0, "lat": 38.913583, "bike_id": "9a4de179ff2f9e98dd771dda3bb48869", "fusion_lon": 0.0}, {"rental_uris": {"ios": "https://dc.lft.to/lastmile_qr_scan", "android": "https://dc.lft.to/lastmile_qr_scan"}, "type": "electric_scooter", "name": "e3d6eac036dcf43bfd6dc89858b7fae3", "is_reserved": 0, "lon": -77.0070915, "is_disabled": 0, "fusion_lat": 0.0, "lat": 38.90553283333333, "bike_id": "e3d6eac036dcf43bfd6dc89858b7fae3", "fusion_lon": 0.0}, {"rental_uris": {"ios": "https://dc.lft.to/lastmile_qr_scan", "android": "https://dc.lft.to/lastmile_qr_scan"}, "type": "electric_scooter", "name": "5d880e41a8b2e88d84c8dd2ebeb32643", "is_reserved": 0, "lon": -77.0018945, "is_disabled": 0, "fusion_lat": 0.0, "lat": 38.903818666666666, "bike_id": "5d880e41a8b2e88d84c8dd2ebeb32643", "fusion_lon": 0.0}, {"rental_uris": {"ios": "https://dc.lft.to/lastmile_qr_scan", "android": "https://dc.lft.to/lastmile_qr_scan"}, "type": "electric_scooter", "name": "5a226a1e85b0f484ea258a19889e0817", "is_reserved": 0, "lon": -77.03595066666666, "is_disabled": 0, "fusion_lat": 0.0, "lat": 38.90828616666667, "bike_id": "5a226a1e85b0f484ea258a19889e0817", "fusion_lon": 0.0}, {"rental_uris": {"ios": "https://dc.lft.to/lastmile_qr_scan", "android": "https://dc.lft.to/lastmile_qr_scan"}, "type": "electric_scooter", "name": "37b5aacf57e40145641c4fe251bb9aea", "is_reserved": 0, "lon": -77.0531905, "is_disabled": 0, "fusion_lat": 0.0, "lat": 38.90652816666667, "bike_id": "37b5aacf57e40145641c4fe251bb9aea", "fusion_lon": 0.0}, {"rental_uris": {"ios": "https://dc.lft.to/lastmile_qr_scan", "android": "https://dc.lft.to/lastmile_qr_scan"}, "type": "electric_scooter", "name": "d8f03462a48e20f34f61906f682f6259", "is_reserved": 0, "lon": -77.02336216666667, "is_disabled": 0, "fusion_lat": 0.0, "lat": 38.922307, "bike_id": "d8f03462a48e20f34f61906f682f6259", "fusion_lon": 0.0}, {"rental_uris": {"ios": "https://dc.lft.to/lastmile_qr_scan", "android": "https://dc.lft.to/lastmile_qr_scan"}, "type": "electric_scooter", "name": "f199225c4ac405f5f8fa4c7272ec6817", "is_reserved": 0, "lon": -77.0062015, "is_disabled": 0, "fusion_lat": 0.0, "lat": 38.905617666666664, "bike_id": "f199225c4ac405f5f8fa4c7272ec6817", "fusion_lon": 0.0}, {"rental_uris": {"ios": "https://dc.lft.to/lastmile_qr_scan", "android": "https://dc.lft.to/lastmile_qr_scan"}, "type": "electric_scooter", "name": "2c2fedaf83ca5cdfdb9bacf5fb914e5c", "is_reserved": 0, "lon": -77.03394216666666, "is_disabled": 0, "fusion_lat": 0.0, "lat": 38.90273533333333, "bike_id": "2c2fedaf83ca5cdfdb9bacf5fb914e5c", "fusion_lon": 0.0}, {"rental_uris": {"ios": "https://dc.lft.to/lastmile_qr_scan", "android": "https://dc.lft.to/lastmile_qr_scan"}, "type": "electric_scooter", "name": "ea70b67b17511626cf4dae27620d5be3", "is_reserved": 0, "lon": -77.02483883333333, "is_disabled": 0, "fusion_lat": 0.0, "lat": 38.902482666666664, "bike_id": "ea70b67b17511626cf4dae27620d5be3", "fusion_lon": 0.0}, {"rental_uris": {"ios": "https://dc.lft.to/lastmile_qr_scan", "android": "https://dc.lft.to/lastmile_qr_scan"}, "type": "electric_scooter", "name": "1b3927a06ff4f5e5e8f0f6175d299437", "is_reserved": 0, "lon": -77.03898583333333, "is_disabled": 0, "fusion_lat": 0.0, "lat": 38.90376283333333, "bike_id": "1b3927a06ff4f5e5e8f0f6175d299437", "fusion_lon": 0.0}, {"rental_uris": {"ios": "https://dc.lft.to/lastmile_qr_scan", "android": "https://dc.lft.to/lastmile_qr_scan"}, "type": "electric_bike", "name": "c9671ac2422c39ac3c4b26173951bc01", "is_reserved": 0, "lon": -77.05089933333333, "is_disabled": 0, "fusion_lat": 0.0, "lat": 38.81331133333333, "bike_id": "c9671ac2422c39ac3c4b26173951bc01", "fusion_lon": 0.0}, {"rental_uris": {"ios": "https://dc.lft.to/lastmile_qr_scan", "android": "https://dc.lft.to/lastmile_qr_scan"}, "type": "electric_scooter", "name": "7b6b65e187582872cd38a9bd40e72a63", "is_reserved": 0, "lon": -77.03210183333333, "is_disabled": 0, "fusion_lat": 0.0, "lat": 38.91389066666667, "bike_id": "7b6b65e187582872cd38a9bd40e72a63", "fusion_lon": 0.0}, {"rental_uris": {"ios": "https://dc.lft.to/lastmile_qr_scan", "android": "https://dc.lft.to/lastmile_qr_scan"}, "type": "electric_bike", "name": "dde374e386c1b29c945dc7ebfaa86c9e", "is_reserved": 0, "lon": -76.97347866666667, "is_disabled": 0, "fusion_lat": 0.0, "lat": 38.865251666666666, "bike_id": "dde374e386c1b29c945dc7ebfaa86c9e", "fusion_lon": 0.0}, {"rental_uris": {"ios": "https://dc.lft.to/lastmile_qr_scan", "android": "https://dc.lft.to/lastmile_qr_scan"}, "type": "electric_scooter", "name": "00cc7f5e767b3f82136e7f95f84b7c21", "is_reserved": 0, "lon": -77.04782266666666, "is_disabled": 0, "fusion_lat": 0.0, "lat": 38.908667666666666, "bike_id": "00cc7f5e767b3f82136e7f95f84b7c21", "fusion_lon": 0.0}, {"rental_uris": {"ios": "https://dc.lft.to/lastmile_qr_scan", "android": "https://dc.lft.to/lastmile_qr_scan"}, "type": "electric_scooter", "name": "93d308a5553a98090b1a9e4426c0ddfe", "is_reserved": 0, "lon": -77.01485133333334, "is_disabled": 0, "fusion_lat": 0.0, "lat": 38.8874435, "bike_id": "93d308a5553a98090b1a9e4426c0ddfe", "fusion_lon": 0.0}, {"rental_uris": {"ios": "https://dc.lft.to/lastmile_qr_scan", "android": "https://dc.lft.to/lastmile_qr_scan"}, "type": "electric_scooter", "name": "909b7be12d8035c2fd6bd2db4ee703fb", "is_reserved": 0, "lon": -76.988649, "is_disabled": 0, "fusion_lat": 0.0, "lat": 38.9308295, "bike_id": "909b7be12d8035c2fd6bd2db4ee703fb", "fusion_lon": 0.0}, {"rental_uris": {"ios": "https://dc.lft.to/lastmile_qr_scan", "android": "https://dc.lft.to/lastmile_qr_scan"}, "type": "electric_scooter", "name": "9ca8766276b408742425251aa8a5aed8", "is_reserved": 0, "lon": -77.0022365, "is_disabled": 0, "fusion_lat": 0.0, "lat": 38.89455, "bike_id": "9ca8766276b408742425251aa8a5aed8", "fusion_lon": 0.0}, {"rental_uris": {"ios": "https://dc.lft.to/lastmile_qr_scan", "android": "https://dc.lft.to/lastmile_qr_scan"}, "type": "electric_bike", "name": "6d13decf2bbf7476495f81031c9588b1", "is_reserved": 0, "lon": -77.034727, "is_disabled": 0, "fusion_lat": 0.0, "lat": 38.92974383333333, "bike_id": "6d13decf2bbf7476495f81031c9588b1", "fusion_lon": 0.0}, {"rental_uris": {"ios": "https://dc.lft.to/lastmile_qr_scan", "android": "https://dc.lft.to/lastmile_qr_scan"}, "type": "electric_scooter", "name": "9a7066265a2e8912d524a1afbf680637", "is_reserved": 0, "lon": -77.04369416666667, "is_disabled": 0, "fusion_lat": 0.0, "lat": 38.921540666666665, "bike_id": "9a7066265a2e8912d524a1afbf680637", "fusion_lon": 0.0}, {"rental_uris": {"ios": "https://dc.lft.to/lastmile_qr_scan", "android": "https://dc.lft.to/lastmile_qr_scan"}, "type": "electric_scooter", "name": "346af7dc87c51157b717dc61f1e1904e", "is_reserved": 0, "lon": -77.03853333333333, "is_disabled": 0, "fusion_lat": 0.0, "lat": 38.91287633333334, "bike_id": "346af7dc87c51157b717dc61f1e1904e", "fusion_lon": 0.0}, {"rental_uris": {"ios": "https://dc.lft.to/lastmile_qr_scan", "android": "https://dc.lft.to/lastmile_qr_scan"}, "type": "electric_scooter", "name": "017cb7d504861824b01227fba374094c", "is_reserved": 0, "lon": -77.00750466666666, "is_disabled": 0, "fusion_lat": 0.0, "lat": 38.8984435, "bike_id": "017cb7d504861824b01227fba374094c", "fusion_lon": 0.0}, {"rental_uris": {"ios": "https://dc.lft.to/lastmile_qr_scan", "android": "https://dc.lft.to/lastmile_qr_scan"}, "type": "electric_scooter", "name": "300782cce2702e1cfdd4772a5734fbfb", "is_reserved": 0, "lon": -77.024963, "is_disabled": 0, "fusion_lat": 0.0, "lat": 38.92595583333333, "bike_id": "300782cce2702e1cfdd4772a5734fbfb", "fusion_lon": 0.0}, {"rental_uris": {"ios": "https://dc.lft.to/lastmile_qr_scan", "android": "https://dc.lft.to/lastmile_qr_scan"}, "type": "electric_scooter", "name": "0a48544529fe2344de19cbe88d31984b", "is_reserved": 0, "lon": -76.99155983333333, "is_disabled": 0, "fusion_lat": 0.0, "lat": 38.90040066666667, "bike_id": "0a48544529fe2344de19cbe88d31984b", "fusion_lon": 0.0}, {"rental_uris": {"ios": "https://dc.lft.to/lastmile_qr_scan", "android": "https://dc.lft.to/lastmile_qr_scan"}, "type": "electric_scooter", "name": "abb6e2fdaaa8e7ae31cb235f3c6b2fe5", "is_reserved": 0, "lon": -77.07272216666667, "is_disabled": 0, "fusion_lat": 0.0, "lat": 38.93541666666667, "bike_id": "abb6e2fdaaa8e7ae31cb235f3c6b2fe5", "fusion_lon": 0.0}, {"rental_uris": {"ios": "https://dc.lft.to/lastmile_qr_scan", "android": "https://dc.lft.to/lastmile_qr_scan"}, "type": "electric_scooter", "name": "ea1dc01b1bdd01d2d4ca1288f43f15b5", "is_reserved": 0, "lon": -77.03176983333333, "is_disabled": 0, "fusion_lat": 0.0, "lat": 38.892295, "bike_id": "ea1dc01b1bdd01d2d4ca1288f43f15b5", "fusion_lon": 0.0}, {"rental_uris": {"ios": "https://dc.lft.to/lastmile_qr_scan", "android": "https://dc.lft.to/lastmile_qr_scan"}, "type": "electric_bike", "name": "777246e94f3614d9b9fa9b9d0bee58a8", "is_reserved": 0, "lon": -77.0073005, "is_disabled": 0, "fusion_lat": 0.0, "lat": 38.89788766666667, "bike_id": "777246e94f3614d9b9fa9b9d0bee58a8", "fusion_lon": 0.0}, {"rental_uris": {"ios": "https://dc.lft.to/lastmile_qr_scan", "android": "https://dc.lft.to/lastmile_qr_scan"}, "type": "electric_scooter", "name": "2d32221130a0983d49d7c94c8a37e7ef", "is_reserved": 0, "lon": -77.03851766666666, "is_disabled": 0, "fusion_lat": 0.0, "lat": 38.91074883333334, "bike_id": "2d32221130a0983d49d7c94c8a37e7ef", "fusion_lon": 0.0}, {"rental_uris": {"ios": "https://dc.lft.to/lastmile_qr_scan", "android": "https://dc.lft.to/lastmile_qr_scan"}, "type": "electric_scooter", "name": "587a65ed5aee8ea75841b477e0e291df", "is_reserved": 0, "lon": -77.05023683333333, "is_disabled": 0, "fusion_lat": 0.0, "lat": 38.923601, "bike_id": "587a65ed5aee8ea75841b477e0e291df", "fusion_lon": 0.0}, {"rental_uris": {"ios": "https://dc.lft.to/lastmile_qr_scan", "android": "https://dc.lft.to/lastmile_qr_scan"}, "type": "electric_scooter", "name": "520b9143a1ec2e6449fc204b90743bc6", "is_reserved": 0, "lon": -77.02416366666667, "is_disabled": 0, "fusion_lat": 0.0, "lat": 38.9096375, "bike_id": "520b9143a1ec2e6449fc204b90743bc6", "fusion_lon": 0.0}, {"rental_uris": {"ios": "https://dc.lft.to/lastmile_qr_scan", "android": "https://dc.lft.to/lastmile_qr_scan"}, "type": "electric_scooter", "name": "597d01c7d83b274dd34196fad00b88ab", "is_reserved": 0, "lon": -77.01757933333333, "is_disabled": 0, "fusion_lat": 0.0, "lat": 38.883247833333336, "bike_id": "597d01c7d83b274dd34196fad00b88ab", "fusion_lon": 0.0}, {"rental_uris": {"ios": "https://dc.lft.to/lastmile_qr_scan", "android": "https://dc.lft.to/lastmile_qr_scan"}, "type": "electric_scooter", "name": "729a3be30a3bb6cd58337df42e670044", "is_reserved": 0, "lon": -77.007139, "is_disabled": 0, "fusion_lat": 0.0, "lat": 38.8849155, "bike_id": "729a3be30a3bb6cd58337df42e670044", "fusion_lon": 0.0}, {"rental_uris": {"ios": "https://dc.lft.to/lastmile_qr_scan", "android": "https://dc.lft.to/lastmile_qr_scan"}, "type": "electric_scooter", "name": "c31254763d4cb7fd0c734b7c18619c04", "is_reserved": 0, "lon": -77.04489166666667, "is_disabled": 0, "fusion_lat": 0.0, "lat": 38.893376, "bike_id": "c31254763d4cb7fd0c734b7c18619c04", "fusion_lon": 0.0}, {"rental_uris": {"ios": "https://dc.lft.to/lastmile_qr_scan", "android": "https://dc.lft.to/lastmile_qr_scan"}, "type": "electric_scooter", "name": "3f4cbed40077a99a8e406807c2277d5a", "is_reserved": 0, "lon": -77.035451, "is_disabled": 0, "fusion_lat": 0.0, "lat": 38.90479766666667, "bike_id": "3f4cbed40077a99a8e406807c2277d5a", "fusion_lon": 0.0}, {"rental_uris": {"ios": "https://dc.lft.to/lastmile_qr_scan", "android": "https://dc.lft.to/lastmile_qr_scan"}, "type": "electric_scooter", "name": "bae5c45593f8be0a0e55bd8d2f573c07", "is_reserved": 0, "lon": -77.01088016666667, "is_disabled": 0, "fusion_lat": 0.0, "lat": 38.9033715, "bike_id": "bae5c45593f8be0a0e55bd8d2f573c07", "fusion_lon": 0.0}, {"rental_uris": {"ios": "https://dc.lft.to/lastmile_qr_scan", "android": "https://dc.lft.to/lastmile_qr_scan"}, "type": "electric_scooter", "name": "bf038d2e40edf6be7b0d48a241453839", "is_reserved": 0, "lon": -77.056025, "is_disabled": 0, "fusion_lat": 0.0, "lat": 38.93700533333333, "bike_id": "bf038d2e40edf6be7b0d48a241453839", "fusion_lon": 0.0}, {"rental_uris": {"ios": "https://dc.lft.to/lastmile_qr_scan", "android": "https://dc.lft.to/lastmile_qr_scan"}, "type": "electric_scooter", "name": "7c4d1db97407a2946555fe168154288e", "is_reserved": 0, "lon": -77.03663733333333, "is_disabled": 0, "fusion_lat": 0.0, "lat": 38.917634666666665, "bike_id": "7c4d1db97407a2946555fe168154288e", "fusion_lon": 0.0}, {"rental_uris": {"ios": "https://dc.lft.to/lastmile_qr_scan", "android": "https://dc.lft.to/lastmile_qr_scan"}, "type": "electric_scooter", "name": "c3439009eba40a3a556634053e408856", "is_reserved": 0, "lon": -77.00765833333334, "is_disabled": 0, "fusion_lat": 0.0, "lat": 38.9268005, "bike_id": "c3439009eba40a3a556634053e408856", "fusion_lon": 0.0}, {"rental_uris": {"ios": "https://dc.lft.to/lastmile_qr_scan", "android": "https://dc.lft.to/lastmile_qr_scan"}, "type": "electric_scooter", "name": "9ca0dbb03ff2b764eb39b4899a7193da", "is_reserved": 0, "lon": -76.99413966666667, "is_disabled": 0, "fusion_lat": 0.0, "lat": 38.921014666666665, "bike_id": "9ca0dbb03ff2b764eb39b4899a7193da", "fusion_lon": 0.0}, {"rental_uris": {"ios": "https://dc.lft.to/lastmile_qr_scan", "android": "https://dc.lft.to/lastmile_qr_scan"}, "type": "electric_scooter", "name": "64e12b802f32f84559d1ced66aaa1a4f", "is_reserved": 0, "lon": -77.05333966666667, "is_disabled": 0, "fusion_lat": 0.0, "lat": 38.904629666666665, "bike_id": "64e12b802f32f84559d1ced66aaa1a4f", "fusion_lon": 0.0}, {"rental_uris": {"ios": "https://dc.lft.to/lastmile_qr_scan", "android": "https://dc.lft.to/lastmile_qr_scan"}, "type": "electric_scooter", "name": "09e39c42b42d83925a6a36bb39ed7aa4", "is_reserved": 0, "lon": -77.025874, "is_disabled": 0, "fusion_lat": 0.0, "lat": 38.92037533333333, "bike_id": "09e39c42b42d83925a6a36bb39ed7aa4", "fusion_lon": 0.0}, {"rental_uris": {"ios": "https://dc.lft.to/lastmile_qr_scan", "android": "https://dc.lft.to/lastmile_qr_scan"}, "type": "electric_scooter", "name": "ddc4badb1d7194be5db02f93a7f49e1a", "is_reserved": 0, "lon": -77.001366, "is_disabled": 0, "fusion_lat": 0.0, "lat": 38.8737665, "bike_id": "ddc4badb1d7194be5db02f93a7f49e1a", "fusion_lon": 0.0}, {"rental_uris": {"ios": "https://dc.lft.to/lastmile_qr_scan", "android": "https://dc.lft.to/lastmile_qr_scan"}, "type": "electric_scooter", "name": "fb4994a90d12e5aab9156a6f20fd1750", "is_reserved": 0, "lon": -77.04603333333333, "is_disabled": 0, "fusion_lat": 0.0, "lat": 38.9186585, "bike_id": "fb4994a90d12e5aab9156a6f20fd1750", "fusion_lon": 0.0}, {"rental_uris": {"ios": "https://dc.lft.to/lastmile_qr_scan", "android": "https://dc.lft.to/lastmile_qr_scan"}, "type": "electric_scooter", "name": "e8bc81314068a0c47536afbd7b550df1", "is_reserved": 0, "lon": -77.052289, "is_disabled": 0, "fusion_lat": 0.0, "lat": 38.89851566666667, "bike_id": "e8bc81314068a0c47536afbd7b550df1", "fusion_lon": 0.0}, {"rental_uris": {"ios": "https://dc.lft.to/lastmile_qr_scan", "android": "https://dc.lft.to/lastmile_qr_scan"}, "type": "electric_scooter", "name": "1ead398832099297eb06ef9c842ec12c", "is_reserved": 0, "lon": -77.03701166666667, "is_disabled": 0, "fusion_lat": 0.0, "lat": 38.932795666666664, "bike_id": "1ead398832099297eb06ef9c842ec12c", "fusion_lon": 0.0}, {"rental_uris": {"ios": "https://dc.lft.to/lastmile_qr_scan", "android": "https://dc.lft.to/lastmile_qr_scan"}, "type": "electric_scooter", "name": "9d79ad828fe7df20593be5e3341b14e2", "is_reserved": 0, "lon": -77.02484283333334, "is_disabled": 0, "fusion_lat": 0.0, "lat": 38.90167366666667, "bike_id": "9d79ad828fe7df20593be5e3341b14e2", "fusion_lon": 0.0}, {"rental_uris": {"ios": "https://dc.lft.to/lastmile_qr_scan", "android": "https://dc.lft.to/lastmile_qr_scan"}, "type": "electric_scooter", "name": "5fc7157eb9110b70e603efb98f7482bb", "is_reserved": 0, "lon": -77.03208133333334, "is_disabled": 0, "fusion_lat": 0.0, "lat": 38.89899616666667, "bike_id": "5fc7157eb9110b70e603efb98f7482bb", "fusion_lon": 0.0}, {"rental_uris": {"ios": "https://dc.lft.to/lastmile_qr_scan", "android": "https://dc.lft.to/lastmile_qr_scan"}, "type": "electric_scooter", "name": "12a90b2f2bae304b46a259f13e9912f8", "is_reserved": 0, "lon": -76.97410233333333, "is_disabled": 0, "fusion_lat": 0.0, "lat": 38.90141333333333, "bike_id": "12a90b2f2bae304b46a259f13e9912f8", "fusion_lon": 0.0}, {"rental_uris": {"ios": "https://dc.lft.to/lastmile_qr_scan", "android": "https://dc.lft.to/lastmile_qr_scan"}, "type": "electric_scooter", "name": "37c0ef9d5407564b4f13234042928965", "is_reserved": 0, "lon": -77.036424, "is_disabled": 0, "fusion_lat": 0.0, "lat": 38.92441, "bike_id": "37c0ef9d5407564b4f13234042928965", "fusion_lon": 0.0}, {"rental_uris": {"ios": "https://dc.lft.to/lastmile_qr_scan", "android": "https://dc.lft.to/lastmile_qr_scan"}, "type": "electric_scooter", "name": "96a0cd26ce0dffafd94418bb377403b0", "is_reserved": 0, "lon": -77.03215316666666, "is_disabled": 0, "fusion_lat": 0.0, "lat": 38.8923695, "bike_id": "96a0cd26ce0dffafd94418bb377403b0", "fusion_lon": 0.0}, {"rental_uris": {"ios": "https://dc.lft.to/lastmile_qr_scan", "android": "https://dc.lft.to/lastmile_qr_scan"}, "type": "electric_scooter", "name": "4c1dbe37e00ed43405d6d27dd78ed92c", "is_reserved": 0, "lon": -77.02303183333333, "is_disabled": 0, "fusion_lat": 0.0, "lat": 38.917799333333335, "bike_id": "4c1dbe37e00ed43405d6d27dd78ed92c", "fusion_lon": 0.0}, {"rental_uris": {"ios": "https://dc.lft.to/lastmile_qr_scan", "android": "https://dc.lft.to/lastmile_qr_scan"}, "type": "electric_scooter", "name": "dd593b99eaf3194832a5431a75899330", "is_reserved": 0, "lon": -77.04500533333334, "is_disabled": 0, "fusion_lat": 0.0, "lat": 38.9141235, "bike_id": "dd593b99eaf3194832a5431a75899330", "fusion_lon": 0.0}, {"rental_uris": {"ios": "https://dc.lft.to/lastmile_qr_scan", "android": "https://dc.lft.to/lastmile_qr_scan"}, "type": "electric_scooter", "name": "0869efc0a45cdd4a59bcefa4e89cbb56", "is_reserved": 0, "lon": -76.92993033333333, "is_disabled": 0, "fusion_lat": 0.0, "lat": 38.892959, "bike_id": "0869efc0a45cdd4a59bcefa4e89cbb56", "fusion_lon": 0.0}, {"rental_uris": {"ios": "https://dc.lft.to/lastmile_qr_scan", "android": "https://dc.lft.to/lastmile_qr_scan"}, "type": "electric_scooter", "name": "158d594bffa7dfee3aa71f2f4a23101e", "is_reserved": 0, "lon": -77.00669916666666, "is_disabled": 0, "fusion_lat": 0.0, "lat": 38.900209333333336, "bike_id": "158d594bffa7dfee3aa71f2f4a23101e", "fusion_lon": 0.0}, {"rental_uris": {"ios": "https://dc.lft.to/lastmile_qr_scan", "android": "https://dc.lft.to/lastmile_qr_scan"}, "type": "electric_scooter", "name": "7ddac74f39b89f72c6b23a90b3bc48b6", "is_reserved": 0, "lon": -77.0505935, "is_disabled": 0, "fusion_lat": 0.0, "lat": 38.925873, "bike_id": "7ddac74f39b89f72c6b23a90b3bc48b6", "fusion_lon": 0.0}, {"rental_uris": {"ios": "https://dc.lft.to/lastmile_qr_scan", "android": "https://dc.lft.to/lastmile_qr_scan"}, "type": "electric_scooter", "name": "52ecff4cbed428e48682dd820c9139d4", "is_reserved": 0, "lon": -77.02219283333334, "is_disabled": 0, "fusion_lat": 0.0, "lat": 38.9247015, "bike_id": "52ecff4cbed428e48682dd820c9139d4", "fusion_lon": 0.0}, {"rental_uris": {"ios": "https://dc.lft.to/lastmile_qr_scan", "android": "https://dc.lft.to/lastmile_qr_scan"}, "type": "electric_bike", "name": "cb4088ea760a1335997a48c36cdd07a6", "is_reserved": 0, "lon": -77.1323275, "is_disabled": 0, "fusion_lat": 0.0, "lat": 38.80447516666667, "bike_id": "cb4088ea760a1335997a48c36cdd07a6", "fusion_lon": 0.0}, {"rental_uris": {"ios": "https://dc.lft.to/lastmile_qr_scan", "android": "https://dc.lft.to/lastmile_qr_scan"}, "type": "electric_scooter", "name": "89db0cd64067f77cf5e672056bc925fb", "is_reserved": 0, "lon": -77.03081033333333, "is_disabled": 0, "fusion_lat": 0.0, "lat": 38.9352665, "bike_id": "89db0cd64067f77cf5e672056bc925fb", "fusion_lon": 0.0}, {"rental_uris": {"ios": "https://dc.lft.to/lastmile_qr_scan", "android": "https://dc.lft.to/lastmile_qr_scan"}, "type": "electric_scooter", "name": "0ec5fc157f8bc5bea998eb1662bbe58b", "is_reserved": 0, "lon": -77.02411833333333, "is_disabled": 0, "fusion_lat": 0.0, "lat": 38.90036833333333, "bike_id": "0ec5fc157f8bc5bea998eb1662bbe58b", "fusion_lon": 0.0}, {"rental_uris": {"ios": "https://dc.lft.to/lastmile_qr_scan", "android": "https://dc.lft.to/lastmile_qr_scan"}, "type": "electric_scooter", "name": "d7443af845e8444e3470b76388eb2436", "is_reserved": 0, "lon": -77.03830283333333, "is_disabled": 0, "fusion_lat": 0.0, "lat": 38.912577, "bike_id": "d7443af845e8444e3470b76388eb2436", "fusion_lon": 0.0}, {"rental_uris": {"ios": "https://dc.lft.to/lastmile_qr_scan", "android": "https://dc.lft.to/lastmile_qr_scan"}, "type": "electric_scooter", "name": "8fbc03a76caf7a2e7ab6c9b70c7a43f2", "is_reserved": 0, "lon": -77.025762, "is_disabled": 0, "fusion_lat": 0.0, "lat": 38.925269166666666, "bike_id": "8fbc03a76caf7a2e7ab6c9b70c7a43f2", "fusion_lon": 0.0}, {"rental_uris": {"ios": "https://dc.lft.to/lastmile_qr_scan", "android": "https://dc.lft.to/lastmile_qr_scan"}, "type": "electric_scooter", "name": "d79ff668c6a52d52272d7724a3bb834b", "is_reserved": 0, "lon": -77.04367016666667, "is_disabled": 0, "fusion_lat": 0.0, "lat": 38.892222333333336, "bike_id": "d79ff668c6a52d52272d7724a3bb834b", "fusion_lon": 0.0}, {"rental_uris": {"ios": "https://dc.lft.to/lastmile_qr_scan", "android": "https://dc.lft.to/lastmile_qr_scan"}, "type": "electric_scooter", "name": "f68f917bbc28263270bb829c8171154b", "is_reserved": 0, "lon": -77.00187666666666, "is_disabled": 0, "fusion_lat": 0.0, "lat": 38.90026983333333, "bike_id": "f68f917bbc28263270bb829c8171154b", "fusion_lon": 0.0}, {"rental_uris": {"ios": "https://dc.lft.to/lastmile_qr_scan", "android": "https://dc.lft.to/lastmile_qr_scan"}, "type": "electric_scooter", "name": "4806e5d3e53c8c1719abccafb7062d69", "is_reserved": 0, "lon": -77.04568616666667, "is_disabled": 0, "fusion_lat": 0.0, "lat": 38.913250166666664, "bike_id": "4806e5d3e53c8c1719abccafb7062d69", "fusion_lon": 0.0}, {"rental_uris": {"ios": "https://dc.lft.to/lastmile_qr_scan", "android": "https://dc.lft.to/lastmile_qr_scan"}, "type": "electric_bike", "name": "f1479d4e4476ff7195477f0df5ac74b3", "is_reserved": 0, "lon": -76.97779633333333, "is_disabled": 0, "fusion_lat": 0.0, "lat": 38.85721866666667, "bike_id": "f1479d4e4476ff7195477f0df5ac74b3", "fusion_lon": 0.0}, {"rental_uris": {"ios": "https://dc.lft.to/lastmile_qr_scan", "android": "https://dc.lft.to/lastmile_qr_scan"}, "type": "electric_scooter", "name": "ba1a5ecacbbeca427b5857621363d656", "is_reserved": 0, "lon": -77.025135, "is_disabled": 0, "fusion_lat": 0.0, "lat": 38.94212566666667, "bike_id": "ba1a5ecacbbeca427b5857621363d656", "fusion_lon": 0.0}, {"rental_uris": {"ios": "https://dc.lft.to/lastmile_qr_scan", "android": "https://dc.lft.to/lastmile_qr_scan"}, "type": "electric_scooter", "name": "b7d4c38c8a689b889a2b158ebe67e568", "is_reserved": 0, "lon": -77.02648066666667, "is_disabled": 0, "fusion_lat": 0.0, "lat": 38.907270833333335, "bike_id": "b7d4c38c8a689b889a2b158ebe67e568", "fusion_lon": 0.0}, {"rental_uris": {"ios": "https://dc.lft.to/lastmile_qr_scan", "android": "https://dc.lft.to/lastmile_qr_scan"}, "type": "electric_bike", "name": "0b7e7aac7729d4d7215e6b8a6f28c732", "is_reserved": 0, "lon": -77.12840733333333, "is_disabled": 0, "fusion_lat": 0.0, "lat": 38.800543833333336, "bike_id": "0b7e7aac7729d4d7215e6b8a6f28c732", "fusion_lon": 0.0}, {"rental_uris": {"ios": "https://dc.lft.to/lastmile_qr_scan", "android": "https://dc.lft.to/lastmile_qr_scan"}, "type": "electric_scooter", "name": "55707f8f7ee23a8ebb8ac1cfd18a16e2", "is_reserved": 0, "lon": -77.03275566666667, "is_disabled": 0, "fusion_lat": 0.0, "lat": 38.898287833333335, "bike_id": "55707f8f7ee23a8ebb8ac1cfd18a16e2", "fusion_lon": 0.0}, {"rental_uris": {"ios": "https://dc.lft.to/lastmile_qr_scan", "android": "https://dc.lft.to/lastmile_qr_scan"}, "type": "electric_scooter", "name": "9dee6a63c9169f0e187d0f397e59db0e", "is_reserved": 0, "lon": -77.00724016666666, "is_disabled": 0, "fusion_lat": 0.0, "lat": 38.911093, "bike_id": "9dee6a63c9169f0e187d0f397e59db0e", "fusion_lon": 0.0}, {"rental_uris": {"ios": "https://dc.lft.to/lastmile_qr_scan", "android": "https://dc.lft.to/lastmile_qr_scan"}, "type": "electric_scooter", "name": "a6b08b6e4ef7481224f532f83e5d3f2b", "is_reserved": 0, "lon": -77.04677933333333, "is_disabled": 0, "fusion_lat": 0.0, "lat": 38.89233983333333, "bike_id": "a6b08b6e4ef7481224f532f83e5d3f2b", "fusion_lon": 0.0}, {"rental_uris": {"ios": "https://dc.lft.to/lastmile_qr_scan", "android": "https://dc.lft.to/lastmile_qr_scan"}, "type": "electric_bike", "name": "a906e5630a52d6469ba5b5107cf5aeb3", "is_reserved": 0, "lon": -77.02527333333333, "is_disabled": 0, "fusion_lat": 0.0, "lat": 38.940374166666665, "bike_id": "a906e5630a52d6469ba5b5107cf5aeb3", "fusion_lon": 0.0}, {"rental_uris": {"ios": "https://dc.lft.to/lastmile_qr_scan", "android": "https://dc.lft.to/lastmile_qr_scan"}, "type": "electric_scooter", "name": "5cb5888f1e07e9c34c9e0e39d4558504", "is_reserved": 0, "lon": -77.02692283333333, "is_disabled": 0, "fusion_lat": 0.0, "lat": 38.9024785, "bike_id": "5cb5888f1e07e9c34c9e0e39d4558504", "fusion_lon": 0.0}, {"rental_uris": {"ios": "https://dc.lft.to/lastmile_qr_scan", "android": "https://dc.lft.to/lastmile_qr_scan"}, "type": "electric_bike", "name": "dc0eb6a1648df5ed87b84697f50d902b", "is_reserved": 0, "lon": -77.02668616666666, "is_disabled": 0, "fusion_lat": 0.0, "lat": 38.902636, "bike_id": "dc0eb6a1648df5ed87b84697f50d902b", "fusion_lon": 0.0}, {"rental_uris": {"ios": "https://dc.lft.to/lastmile_qr_scan", "android": "https://dc.lft.to/lastmile_qr_scan"}, "type": "electric_scooter", "name": "8e9ad0f15e80a9dc96cface352316f2d", "is_reserved": 0, "lon": -77.0120795, "is_disabled": 0, "fusion_lat": 0.0, "lat": 38.911967833333335, "bike_id": "8e9ad0f15e80a9dc96cface352316f2d", "fusion_lon": 0.0}, {"rental_uris": {"ios": "https://dc.lft.to/lastmile_qr_scan", "android": "https://dc.lft.to/lastmile_qr_scan"}, "type": "electric_scooter", "name": "9083ad5bad5a3cfc77f8818faf9b68dc", "is_reserved": 0, "lon": -76.98511133333334, "is_disabled": 0, "fusion_lat": 0.0, "lat": 38.879926, "bike_id": "9083ad5bad5a3cfc77f8818faf9b68dc", "fusion_lon": 0.0}, {"rental_uris": {"ios": "https://dc.lft.to/lastmile_qr_scan", "android": "https://dc.lft.to/lastmile_qr_scan"}, "type": "electric_scooter", "name": "87ee06156744c408ca09ed2de6b12008", "is_reserved": 0, "lon": -77.04034666666666, "is_disabled": 0, "fusion_lat": 0.0, "lat": 38.90394916666666, "bike_id": "87ee06156744c408ca09ed2de6b12008", "fusion_lon": 0.0}, {"rental_uris": {"ios": "https://dc.lft.to/lastmile_qr_scan", "android": "https://dc.lft.to/lastmile_qr_scan"}, "type": "electric_scooter", "name": "1bd9967aae37337a2f1136cc5b953c80", "is_reserved": 0, "lon": -77.04627216666667, "is_disabled": 0, "fusion_lat": 0.0, "lat": 38.90210533333333, "bike_id": "1bd9967aae37337a2f1136cc5b953c80", "fusion_lon": 0.0}, {"rental_uris": {"ios": "https://dc.lft.to/lastmile_qr_scan", "android": "https://dc.lft.to/lastmile_qr_scan"}, "type": "electric_scooter", "name": "dfbfccdd9a83078f65579a4f0b01cdfe", "is_reserved": 0, "lon": -77.01216716666667, "is_disabled": 0, "fusion_lat": 0.0, "lat": 38.921230666666666, "bike_id": "dfbfccdd9a83078f65579a4f0b01cdfe", "fusion_lon": 0.0}, {"rental_uris": {"ios": "https://dc.lft.to/lastmile_qr_scan", "android": "https://dc.lft.to/lastmile_qr_scan"}, "type": "electric_bike", "name": "4fc5667f3a0744300df1d4fd6f3bdbf8", "is_reserved": 0, "lon": -76.93666216666666, "is_disabled": 0, "fusion_lat": 0.0, "lat": 38.89454466666667, "bike_id": "4fc5667f3a0744300df1d4fd6f3bdbf8", "fusion_lon": 0.0}, {"rental_uris": {"ios": "https://dc.lft.to/lastmile_qr_scan", "android": "https://dc.lft.to/lastmile_qr_scan"}, "type": "electric_scooter", "name": "6b0627966ddcde7a197f953b39ce653d", "is_reserved": 0, "lon": -77.04151766666666, "is_disabled": 0, "fusion_lat": 0.0, "lat": 38.9074595, "bike_id": "6b0627966ddcde7a197f953b39ce653d", "fusion_lon": 0.0}, {"rental_uris": {"ios": "https://dc.lft.to/lastmile_qr_scan", "android": "https://dc.lft.to/lastmile_qr_scan"}, "type": "electric_scooter", "name": "09e401e1086b25e4f3bcc0c46d177a44", "is_reserved": 0, "lon": -77.02761783333334, "is_disabled": 0, "fusion_lat": 0.0, "lat": 38.95614833333333, "bike_id": "09e401e1086b25e4f3bcc0c46d177a44", "fusion_lon": 0.0}, {"rental_uris": {"ios": "https://dc.lft.to/lastmile_qr_scan", "android": "https://dc.lft.to/lastmile_qr_scan"}, "type": "electric_bike", "name": "da4a57914b42064536d66f1d88c8f112", "is_reserved": 0, "lon": -76.962648, "is_disabled": 0, "fusion_lat": 0.0, "lat": 38.967878, "bike_id": "da4a57914b42064536d66f1d88c8f112", "fusion_lon": 0.0}, {"rental_uris": {"ios": "https://dc.lft.to/lastmile_qr_scan", "android": "https://dc.lft.to/lastmile_qr_scan"}, "type": "electric_scooter", "name": "a274707d568af7a7f3e7581e5f58cda6", "is_reserved": 0, "lon": -77.0248065, "is_disabled": 0, "fusion_lat": 0.0, "lat": 38.91819666666667, "bike_id": "a274707d568af7a7f3e7581e5f58cda6", "fusion_lon": 0.0}, {"rental_uris": {"ios": "https://dc.lft.to/lastmile_qr_scan", "android": "https://dc.lft.to/lastmile_qr_scan"}, "type": "electric_scooter", "name": "1b857a7073f3c8d6755ef073b01fe4bb", "is_reserved": 0, "lon": -77.0277715, "is_disabled": 0, "fusion_lat": 0.0, "lat": 38.962899666666665, "bike_id": "1b857a7073f3c8d6755ef073b01fe4bb", "fusion_lon": 0.0}, {"rental_uris": {"ios": "https://dc.lft.to/lastmile_qr_scan", "android": "https://dc.lft.to/lastmile_qr_scan"}, "type": "electric_scooter", "name": "3cb0e949043dc3092e3ba6bdc73fb51f", "is_reserved": 0, "lon": -77.03383766666667, "is_disabled": 0, "fusion_lat": 0.0, "lat": 38.89979616666667, "bike_id": "3cb0e949043dc3092e3ba6bdc73fb51f", "fusion_lon": 0.0}, {"rental_uris": {"ios": "https://dc.lft.to/lastmile_qr_scan", "android": "https://dc.lft.to/lastmile_qr_scan"}, "type": "electric_scooter", "name": "256f29d83bf0c9e5e4315d25307dbfc3", "is_reserved": 0, "lon": -77.02037883333334, "is_disabled": 0, "fusion_lat": 0.0, "lat": 38.893047333333335, "bike_id": "256f29d83bf0c9e5e4315d25307dbfc3", "fusion_lon": 0.0}, {"rental_uris": {"ios": "https://dc.lft.to/lastmile_qr_scan", "android": "https://dc.lft.to/lastmile_qr_scan"}, "type": "electric_scooter", "name": "d94bbee29fb0812a83c23886ec3510bf", "is_reserved": 0, "lon": -77.0304105, "is_disabled": 0, "fusion_lat": 0.0, "lat": 38.9224085, "bike_id": "d94bbee29fb0812a83c23886ec3510bf", "fusion_lon": 0.0}, {"rental_uris": {"ios": "https://dc.lft.to/lastmile_qr_scan", "android": "https://dc.lft.to/lastmile_qr_scan"}, "type": "electric_scooter", "name": "8cfaeabb8f361fbeeea6b513fe850ec1", "is_reserved": 0, "lon": -77.04137916666667, "is_disabled": 0, "fusion_lat": 0.0, "lat": 38.921721833333336, "bike_id": "8cfaeabb8f361fbeeea6b513fe850ec1", "fusion_lon": 0.0}, {"rental_uris": {"ios": "https://dc.lft.to/lastmile_qr_scan", "android": "https://dc.lft.to/lastmile_qr_scan"}, "type": "electric_scooter", "name": "e90a5d30011178f59777370cd789dcec", "is_reserved": 0, "lon": -77.01761833333333, "is_disabled": 0, "fusion_lat": 0.0, "lat": 38.904878, "bike_id": "e90a5d30011178f59777370cd789dcec", "fusion_lon": 0.0}, {"rental_uris": {"ios": "https://dc.lft.to/lastmile_qr_scan", "android": "https://dc.lft.to/lastmile_qr_scan"}, "type": "electric_scooter", "name": "fc2629d3f5485a57131ab2827955ff5c", "is_reserved": 0, "lon": -76.95205566666667, "is_disabled": 0, "fusion_lat": 0.0, "lat": 38.905128166666664, "bike_id": "fc2629d3f5485a57131ab2827955ff5c", "fusion_lon": 0.0}, {"rental_uris": {"ios": "https://dc.lft.to/lastmile_qr_scan", "android": "https://dc.lft.to/lastmile_qr_scan"}, "type": "electric_scooter", "name": "7c557a334d1ecea4ee8b0eb7c496681a", "is_reserved": 0, "lon": -77.03447066666666, "is_disabled": 0, "fusion_lat": 0.0, "lat": 38.90736833333333, "bike_id": "7c557a334d1ecea4ee8b0eb7c496681a", "fusion_lon": 0.0}, {"rental_uris": {"ios": "https://dc.lft.to/lastmile_qr_scan", "android": "https://dc.lft.to/lastmile_qr_scan"}, "type": "electric_scooter", "name": "289e8ab4014c9c54eb64e56b6837cb8a", "is_reserved": 0, "lon": -77.03659416666666, "is_disabled": 0, "fusion_lat": 0.0, "lat": 38.9221875, "bike_id": "289e8ab4014c9c54eb64e56b6837cb8a", "fusion_lon": 0.0}, {"rental_uris": {"ios": "https://dc.lft.to/lastmile_qr_scan", "android": "https://dc.lft.to/lastmile_qr_scan"}, "type": "electric_scooter", "name": "e1b0af9231308d63da0f993da5a0e524", "is_reserved": 0, "lon": -77.0061495, "is_disabled": 0, "fusion_lat": 0.0, "lat": 38.9055925, "bike_id": "e1b0af9231308d63da0f993da5a0e524", "fusion_lon": 0.0}, {"rental_uris": {"ios": "https://dc.lft.to/lastmile_qr_scan", "android": "https://dc.lft.to/lastmile_qr_scan"}, "type": "electric_scooter", "name": "ce188ad81b49a2e2a00d43aaaddc2be9", "is_reserved": 0, "lon": -77.01756366666666, "is_disabled": 0, "fusion_lat": 0.0, "lat": 38.87689816666666, "bike_id": "ce188ad81b49a2e2a00d43aaaddc2be9", "fusion_lon": 0.0}, {"rental_uris": {"ios": "https://dc.lft.to/lastmile_qr_scan", "android": "https://dc.lft.to/lastmile_qr_scan"}, "type": "electric_scooter", "name": "9e7a52f123e2592278801d11522524d8", "is_reserved": 0, "lon": -76.92636216666666, "is_disabled": 0, "fusion_lat": 0.0, "lat": 38.901934, "bike_id": "9e7a52f123e2592278801d11522524d8", "fusion_lon": 0.0}, {"rental_uris": {"ios": "https://dc.lft.to/lastmile_qr_scan", "android": "https://dc.lft.to/lastmile_qr_scan"}, "type": "electric_scooter", "name": "8f38e2f32eb44c8fb2b0eb964f1b75a5", "is_reserved": 0, "lon": -77.03257966666666, "is_disabled": 0, "fusion_lat": 0.0, "lat": 38.93979566666667, "bike_id": "8f38e2f32eb44c8fb2b0eb964f1b75a5", "fusion_lon": 0.0}, {"rental_uris": {"ios": "https://dc.lft.to/lastmile_qr_scan", "android": "https://dc.lft.to/lastmile_qr_scan"}, "type": "electric_bike", "name": "dcfe8ac73e3c389fd1949b15f96e89a5", "is_reserved": 0, "lon": -77.00198383333333, "is_disabled": 0, "fusion_lat": 0.0, "lat": 38.94154066666667, "bike_id": "dcfe8ac73e3c389fd1949b15f96e89a5", "fusion_lon": 0.0}, {"rental_uris": {"ios": "https://dc.lft.to/lastmile_qr_scan", "android": "https://dc.lft.to/lastmile_qr_scan"}, "type": "electric_scooter", "name": "b828c4974f598decb312fc03e97ff7f1", "is_reserved": 0, "lon": -77.0435775, "is_disabled": 0, "fusion_lat": 0.0, "lat": 38.92796716666667, "bike_id": "b828c4974f598decb312fc03e97ff7f1", "fusion_lon": 0.0}, {"rental_uris": {"ios": "https://dc.lft.to/lastmile_qr_scan", "android": "https://dc.lft.to/lastmile_qr_scan"}, "type": "electric_scooter", "name": "7774d88c9272577d904f7eda7bd8f88a", "is_reserved": 0, "lon": -77.04382516666666, "is_disabled": 0, "fusion_lat": 0.0, "lat": 38.93427066666667, "bike_id": "7774d88c9272577d904f7eda7bd8f88a", "fusion_lon": 0.0}, {"rental_uris": {"ios": "https://dc.lft.to/lastmile_qr_scan", "android": "https://dc.lft.to/lastmile_qr_scan"}, "type": "electric_scooter", "name": "b833f94c4d5f72ef5b2f492a0353e789", "is_reserved": 0, "lon": -76.9833355, "is_disabled": 0, "fusion_lat": 0.0, "lat": 38.900892, "bike_id": "b833f94c4d5f72ef5b2f492a0353e789", "fusion_lon": 0.0}, {"rental_uris": {"ios": "https://dc.lft.to/lastmile_qr_scan", "android": "https://dc.lft.to/lastmile_qr_scan"}, "type": "electric_scooter", "name": "e95e40893f54bc52e9804eff192379cc", "is_reserved": 0, "lon": -77.07718466666667, "is_disabled": 0, "fusion_lat": 0.0, "lat": 38.942937666666666, "bike_id": "e95e40893f54bc52e9804eff192379cc", "fusion_lon": 0.0}, {"rental_uris": {"ios": "https://dc.lft.to/lastmile_qr_scan", "android": "https://dc.lft.to/lastmile_qr_scan"}, "type": "electric_scooter", "name": "d1eba1324264f31ac9558bf702409a79", "is_reserved": 0, "lon": -76.99387766666666, "is_disabled": 0, "fusion_lat": 0.0, "lat": 38.91015816666667, "bike_id": "d1eba1324264f31ac9558bf702409a79", "fusion_lon": 0.0}, {"rental_uris": {"ios": "https://dc.lft.to/lastmile_qr_scan", "android": "https://dc.lft.to/lastmile_qr_scan"}, "type": "electric_scooter", "name": "57dcff1715efa11e62642e3690af5f0b", "is_reserved": 0, "lon": -77.03209633333333, "is_disabled": 0, "fusion_lat": 0.0, "lat": 38.8985585, "bike_id": "57dcff1715efa11e62642e3690af5f0b", "fusion_lon": 0.0}, {"rental_uris": {"ios": "https://dc.lft.to/lastmile_qr_scan", "android": "https://dc.lft.to/lastmile_qr_scan"}, "type": "electric_scooter", "name": "26c415f40d87459d2e0426785f4671cb", "is_reserved": 0, "lon": -76.99849883333333, "is_disabled": 0, "fusion_lat": 0.0, "lat": 38.900349, "bike_id": "26c415f40d87459d2e0426785f4671cb", "fusion_lon": 0.0}, {"rental_uris": {"ios": "https://dc.lft.to/lastmile_qr_scan", "android": "https://dc.lft.to/lastmile_qr_scan"}, "type": "electric_scooter", "name": "7f47fec6405663a7540603af708248fb", "is_reserved": 0, "lon": -77.0182535, "is_disabled": 0, "fusion_lat": 0.0, "lat": 38.91111383333333, "bike_id": "7f47fec6405663a7540603af708248fb", "fusion_lon": 0.0}, {"rental_uris": {"ios": "https://dc.lft.to/lastmile_qr_scan", "android": "https://dc.lft.to/lastmile_qr_scan"}, "type": "electric_scooter", "name": "5de78932ad525e62b13a07b180e7229f", "is_reserved": 0, "lon": -77.05682883333333, "is_disabled": 0, "fusion_lat": 0.0, "lat": 38.933919833333334, "bike_id": "5de78932ad525e62b13a07b180e7229f", "fusion_lon": 0.0}, {"rental_uris": {"ios": "https://dc.lft.to/lastmile_qr_scan", "android": "https://dc.lft.to/lastmile_qr_scan"}, "type": "electric_scooter", "name": "c94e99a330714cc24cb09d3615ab1cbc", "is_reserved": 0, "lon": -77.02626866666667, "is_disabled": 0, "fusion_lat": 0.0, "lat": 38.8922195, "bike_id": "c94e99a330714cc24cb09d3615ab1cbc", "fusion_lon": 0.0}, {"rental_uris": {"ios": "https://dc.lft.to/lastmile_qr_scan", "android": "https://dc.lft.to/lastmile_qr_scan"}, "type": "electric_scooter", "name": "92b5d7c27d9392664ddbabaf1ee4c115", "is_reserved": 0, "lon": -77.04181516666667, "is_disabled": 0, "fusion_lat": 0.0, "lat": 38.9140785, "bike_id": "92b5d7c27d9392664ddbabaf1ee4c115", "fusion_lon": 0.0}, {"rental_uris": {"ios": "https://dc.lft.to/lastmile_qr_scan", "android": "https://dc.lft.to/lastmile_qr_scan"}, "type": "electric_scooter", "name": "909bdbb50264873bc3cc7e54d0e6276f", "is_reserved": 0, "lon": -77.03182916666667, "is_disabled": 0, "fusion_lat": 0.0, "lat": 38.91928433333333, "bike_id": "909bdbb50264873bc3cc7e54d0e6276f", "fusion_lon": 0.0}, {"rental_uris": {"ios": "https://dc.lft.to/lastmile_qr_scan", "android": "https://dc.lft.to/lastmile_qr_scan"}, "type": "electric_scooter", "name": "a99e8c525d99122b2c03a3a32895aa0a", "is_reserved": 0, "lon": -77.05004933333333, "is_disabled": 0, "fusion_lat": 0.0, "lat": 38.90552133333333, "bike_id": "a99e8c525d99122b2c03a3a32895aa0a", "fusion_lon": 0.0}, {"rental_uris": {"ios": "https://dc.lft.to/lastmile_qr_scan", "android": "https://dc.lft.to/lastmile_qr_scan"}, "type": "electric_scooter", "name": "a7f94f2fa3d4fd444532ebbe32f19027", "is_reserved": 0, "lon": -77.03086816666666, "is_disabled": 0, "fusion_lat": 0.0, "lat": 38.9387735, "bike_id": "a7f94f2fa3d4fd444532ebbe32f19027", "fusion_lon": 0.0}, {"rental_uris": {"ios": "https://dc.lft.to/lastmile_qr_scan", "android": "https://dc.lft.to/lastmile_qr_scan"}, "type": "electric_scooter", "name": "210cc17ad312ae44077a87d48505fcf2", "is_reserved": 0, "lon": -76.99885683333333, "is_disabled": 0, "fusion_lat": 0.0, "lat": 38.9205825, "bike_id": "210cc17ad312ae44077a87d48505fcf2", "fusion_lon": 0.0}, {"rental_uris": {"ios": "https://dc.lft.to/lastmile_qr_scan", "android": "https://dc.lft.to/lastmile_qr_scan"}, "type": "electric_scooter", "name": "bb50843a869a54ba1d37dff1b0e2a5b7", "is_reserved": 0, "lon": -77.022107, "is_disabled": 0, "fusion_lat": 0.0, "lat": 38.88739116666667, "bike_id": "bb50843a869a54ba1d37dff1b0e2a5b7", "fusion_lon": 0.0}, {"rental_uris": {"ios": "https://dc.lft.to/lastmile_qr_scan", "android": "https://dc.lft.to/lastmile_qr_scan"}, "type": "electric_bike", "name": "6f2da4f9eee40c4a05003302157dee70", "is_reserved": 0, "lon": -76.9753025, "is_disabled": 0, "fusion_lat": 0.0, "lat": 38.9033125, "bike_id": "6f2da4f9eee40c4a05003302157dee70", "fusion_lon": 0.0}, {"rental_uris": {"ios": "https://dc.lft.to/lastmile_qr_scan", "android": "https://dc.lft.to/lastmile_qr_scan"}, "type": "electric_scooter", "name": "21538f8361d234e93572b4bffe8587e0", "is_reserved": 0, "lon": -77.023108, "is_disabled": 0, "fusion_lat": 0.0, "lat": 38.91619166666667, "bike_id": "21538f8361d234e93572b4bffe8587e0", "fusion_lon": 0.0}, {"rental_uris": {"ios": "https://dc.lft.to/lastmile_qr_scan", "android": "https://dc.lft.to/lastmile_qr_scan"}, "type": "electric_scooter", "name": "45e34e428b1e5331ba9bc6d114347dd8", "is_reserved": 0, "lon": -77.034534, "is_disabled": 0, "fusion_lat": 0.0, "lat": 38.93439683333333, "bike_id": "45e34e428b1e5331ba9bc6d114347dd8", "fusion_lon": 0.0}, {"rental_uris": {"ios": "https://dc.lft.to/lastmile_qr_scan", "android": "https://dc.lft.to/lastmile_qr_scan"}, "type": "electric_scooter", "name": "45a55b88c81f929227b20f5adb0d24ce", "is_reserved": 0, "lon": -77.0486725, "is_disabled": 0, "fusion_lat": 0.0, "lat": 38.898933666666665, "bike_id": "45a55b88c81f929227b20f5adb0d24ce", "fusion_lon": 0.0}, {"rental_uris": {"ios": "https://dc.lft.to/lastmile_qr_scan", "android": "https://dc.lft.to/lastmile_qr_scan"}, "type": "electric_scooter", "name": "70a05da8382a9cf79dc08346fa2f49a6", "is_reserved": 0, "lon": -77.03217883333333, "is_disabled": 0, "fusion_lat": 0.0, "lat": 38.89240383333333, "bike_id": "70a05da8382a9cf79dc08346fa2f49a6", "fusion_lon": 0.0}, {"rental_uris": {"ios": "https://dc.lft.to/lastmile_qr_scan", "android": "https://dc.lft.to/lastmile_qr_scan"}, "type": "electric_scooter", "name": "7028170b4d70847d8f64833f6d71f340", "is_reserved": 0, "lon": -77.03219666666666, "is_disabled": 0, "fusion_lat": 0.0, "lat": 38.9070485, "bike_id": "7028170b4d70847d8f64833f6d71f340", "fusion_lon": 0.0}, {"rental_uris": {"ios": "https://dc.lft.to/lastmile_qr_scan", "android": "https://dc.lft.to/lastmile_qr_scan"}, "type": "electric_scooter", "name": "bcb2a2473fb783b5abfa7be7a3d942bf", "is_reserved": 0, "lon": -76.99101083333333, "is_disabled": 0, "fusion_lat": 0.0, "lat": 38.85734433333333, "bike_id": "bcb2a2473fb783b5abfa7be7a3d942bf", "fusion_lon": 0.0}, {"rental_uris": {"ios": "https://dc.lft.to/lastmile_qr_scan", "android": "https://dc.lft.to/lastmile_qr_scan"}, "type": "electric_scooter", "name": "8510ea12236715189b79106e6518ed8f", "is_reserved": 0, "lon": -77.0394365, "is_disabled": 0, "fusion_lat": 0.0, "lat": 38.91414733333333, "bike_id": "8510ea12236715189b79106e6518ed8f", "fusion_lon": 0.0}, {"rental_uris": {"ios": "https://dc.lft.to/lastmile_qr_scan", "android": "https://dc.lft.to/lastmile_qr_scan"}, "type": "electric_scooter", "name": "2f28d22776a2bab46e2b79861efbc10a", "is_reserved": 0, "lon": -77.0436765, "is_disabled": 0, "fusion_lat": 0.0, "lat": 38.892245, "bike_id": "2f28d22776a2bab46e2b79861efbc10a", "fusion_lon": 0.0}, {"rental_uris": {"ios": "https://dc.lft.to/lastmile_qr_scan", "android": "https://dc.lft.to/lastmile_qr_scan"}, "type": "electric_scooter", "name": "f66b339a3fa3a3d318b58ad02fd29385", "is_reserved": 0, "lon": -77.02927383333333, "is_disabled": 0, "fusion_lat": 0.0, "lat": 38.924809333333336, "bike_id": "f66b339a3fa3a3d318b58ad02fd29385", "fusion_lon": 0.0}, {"rental_uris": {"ios": "https://dc.lft.to/lastmile_qr_scan", "android": "https://dc.lft.to/lastmile_qr_scan"}, "type": "electric_scooter", "name": "9ef47aaeeaee1c77fe5d2a74112c12f3", "is_reserved": 0, "lon": -77.04184666666667, "is_disabled": 0, "fusion_lat": 0.0, "lat": 38.91125733333333, "bike_id": "9ef47aaeeaee1c77fe5d2a74112c12f3", "fusion_lon": 0.0}, {"rental_uris": {"ios": "https://dc.lft.to/lastmile_qr_scan", "android": "https://dc.lft.to/lastmile_qr_scan"}, "type": "electric_scooter", "name": "3df5187da6f98b43878dbf225184df23", "is_reserved": 0, "lon": -76.98890366666667, "is_disabled": 0, "fusion_lat": 0.0, "lat": 38.89954866666667, "bike_id": "3df5187da6f98b43878dbf225184df23", "fusion_lon": 0.0}, {"rental_uris": {"ios": "https://dc.lft.to/lastmile_qr_scan", "android": "https://dc.lft.to/lastmile_qr_scan"}, "type": "electric_scooter", "name": "3be504fa401a323e6e1f787de8095d9c", "is_reserved": 0, "lon": -77.02227933333333, "is_disabled": 0, "fusion_lat": 0.0, "lat": 38.892232166666666, "bike_id": "3be504fa401a323e6e1f787de8095d9c", "fusion_lon": 0.0}, {"rental_uris": {"ios": "https://dc.lft.to/lastmile_qr_scan", "android": "https://dc.lft.to/lastmile_qr_scan"}, "type": "electric_scooter", "name": "035c5c21287481daa5673e380c2cab62", "is_reserved": 0, "lon": -77.0156075, "is_disabled": 0, "fusion_lat": 0.0, "lat": 38.902416333333335, "bike_id": "035c5c21287481daa5673e380c2cab62", "fusion_lon": 0.0}, {"rental_uris": {"ios": "https://dc.lft.to/lastmile_qr_scan", "android": "https://dc.lft.to/lastmile_qr_scan"}, "type": "electric_scooter", "name": "71032acbe4e9e0eafb27b32780cc820c", "is_reserved": 0, "lon": -77.04500016666667, "is_disabled": 0, "fusion_lat": 0.0, "lat": 38.9194045, "bike_id": "71032acbe4e9e0eafb27b32780cc820c", "fusion_lon": 0.0}, {"rental_uris": {"ios": "https://dc.lft.to/lastmile_qr_scan", "android": "https://dc.lft.to/lastmile_qr_scan"}, "type": "electric_scooter", "name": "ebaccfd3c28a999e16fe465bd51bc799", "is_reserved": 0, "lon": -77.01764166666666, "is_disabled": 0, "fusion_lat": 0.0, "lat": 38.8772655, "bike_id": "ebaccfd3c28a999e16fe465bd51bc799", "fusion_lon": 0.0}, {"rental_uris": {"ios": "https://dc.lft.to/lastmile_qr_scan", "android": "https://dc.lft.to/lastmile_qr_scan"}, "type": "electric_scooter", "name": "968c65935b63d76874baf5ae0b804e32", "is_reserved": 0, "lon": -77.01132883333334, "is_disabled": 0, "fusion_lat": 0.0, "lat": 38.919233, "bike_id": "968c65935b63d76874baf5ae0b804e32", "fusion_lon": 0.0}, {"rental_uris": {"ios": "https://dc.lft.to/lastmile_qr_scan", "android": "https://dc.lft.to/lastmile_qr_scan"}, "type": "electric_scooter", "name": "31f1ad1774880879b03f460dbd8422ac", "is_reserved": 0, "lon": -76.98441566666666, "is_disabled": 0, "fusion_lat": 0.0, "lat": 38.914781, "bike_id": "31f1ad1774880879b03f460dbd8422ac", "fusion_lon": 0.0}, {"rental_uris": {"ios": "https://dc.lft.to/lastmile_qr_scan", "android": "https://dc.lft.to/lastmile_qr_scan"}, "type": "electric_scooter", "name": "8f5543f3c2b185907810923c0098c100", "is_reserved": 0, "lon": -77.02632716666666, "is_disabled": 0, "fusion_lat": 0.0, "lat": 38.8963955, "bike_id": "8f5543f3c2b185907810923c0098c100", "fusion_lon": 0.0}, {"rental_uris": {"ios": "https://dc.lft.to/lastmile_qr_scan", "android": "https://dc.lft.to/lastmile_qr_scan"}, "type": "electric_scooter", "name": "3c376ba6bb35d1ffaeeb5e0b1b043fae", "is_reserved": 0, "lon": -77.02211816666667, "is_disabled": 0, "fusion_lat": 0.0, "lat": 38.92056516666667, "bike_id": "3c376ba6bb35d1ffaeeb5e0b1b043fae", "fusion_lon": 0.0}, {"rental_uris": {"ios": "https://dc.lft.to/lastmile_qr_scan", "android": "https://dc.lft.to/lastmile_qr_scan"}, "type": "electric_scooter", "name": "67303df5edd3a2528dab1da11ffe8777", "is_reserved": 0, "lon": -77.06518933333334, "is_disabled": 0, "fusion_lat": 0.0, "lat": 38.90535466666667, "bike_id": "67303df5edd3a2528dab1da11ffe8777", "fusion_lon": 0.0}, {"rental_uris": {"ios": "https://dc.lft.to/lastmile_qr_scan", "android": "https://dc.lft.to/lastmile_qr_scan"}, "type": "electric_scooter", "name": "bb59d6dfbaac8a5bd19b0f837355ce89", "is_reserved": 0, "lon": -77.02952416666666, "is_disabled": 0, "fusion_lat": 0.0, "lat": 38.88400566666667, "bike_id": "bb59d6dfbaac8a5bd19b0f837355ce89", "fusion_lon": 0.0}, {"rental_uris": {"ios": "https://dc.lft.to/lastmile_qr_scan", "android": "https://dc.lft.to/lastmile_qr_scan"}, "type": "electric_scooter", "name": "9d9570b4630eb742b7c40d4169097772", "is_reserved": 0, "lon": -77.00214633333333, "is_disabled": 0, "fusion_lat": 0.0, "lat": 38.900366166666664, "bike_id": "9d9570b4630eb742b7c40d4169097772", "fusion_lon": 0.0}, {"rental_uris": {"ios": "https://dc.lft.to/lastmile_qr_scan", "android": "https://dc.lft.to/lastmile_qr_scan"}, "type": "electric_scooter", "name": "d3ace0b3a89679a951331f3dbf7dcf87", "is_reserved": 0, "lon": -77.02712466666667, "is_disabled": 0, "fusion_lat": 0.0, "lat": 38.900040833333335, "bike_id": "d3ace0b3a89679a951331f3dbf7dcf87", "fusion_lon": 0.0}, {"rental_uris": {"ios": "https://dc.lft.to/lastmile_qr_scan", "android": "https://dc.lft.to/lastmile_qr_scan"}, "type": "electric_bike", "name": "e3af3481b4ccfe62d06e0bc375cc1f87", "is_reserved": 0, "lon": -76.990345, "is_disabled": 0, "fusion_lat": 0.0, "lat": 38.897756333333334, "bike_id": "e3af3481b4ccfe62d06e0bc375cc1f87", "fusion_lon": 0.0}, {"rental_uris": {"ios": "https://dc.lft.to/lastmile_qr_scan", "android": "https://dc.lft.to/lastmile_qr_scan"}, "type": "electric_bike", "name": "736bda73dcd0d7938e46020f85187e9e", "is_reserved": 0, "lon": -76.96105116666666, "is_disabled": 0, "fusion_lat": 0.0, "lat": 38.9496985, "bike_id": "736bda73dcd0d7938e46020f85187e9e", "fusion_lon": 0.0}, {"rental_uris": {"ios": "https://dc.lft.to/lastmile_qr_scan", "android": "https://dc.lft.to/lastmile_qr_scan"}, "type": "electric_scooter", "name": "17792cf7c87181366c5564f9595c9e63", "is_reserved": 0, "lon": -77.02151316666667, "is_disabled": 0, "fusion_lat": 0.0, "lat": 38.902107666666666, "bike_id": "17792cf7c87181366c5564f9595c9e63", "fusion_lon": 0.0}, {"rental_uris": {"ios": "https://dc.lft.to/lastmile_qr_scan", "android": "https://dc.lft.to/lastmile_qr_scan"}, "type": "electric_scooter", "name": "0140b59540f4ecc0f1f2ec813cc2fa55", "is_reserved": 0, "lon": -77.03596616666667, "is_disabled": 0, "fusion_lat": 0.0, "lat": 38.906543666666664, "bike_id": "0140b59540f4ecc0f1f2ec813cc2fa55", "fusion_lon": 0.0}, {"rental_uris": {"ios": "https://dc.lft.to/lastmile_qr_scan", "android": "https://dc.lft.to/lastmile_qr_scan"}, "type": "electric_scooter", "name": "94a47c8eaea9023864804a473ff13e7d", "is_reserved": 0, "lon": -77.002022, "is_disabled": 0, "fusion_lat": 0.0, "lat": 38.902432166666664, "bike_id": "94a47c8eaea9023864804a473ff13e7d", "fusion_lon": 0.0}, {"rental_uris": {"ios": "https://dc.lft.to/lastmile_qr_scan", "android": "https://dc.lft.to/lastmile_qr_scan"}, "type": "electric_scooter", "name": "4463e03e02123594655cb161ffa57c7a", "is_reserved": 0, "lon": -77.04636283333333, "is_disabled": 0, "fusion_lat": 0.0, "lat": 38.919333333333334, "bike_id": "4463e03e02123594655cb161ffa57c7a", "fusion_lon": 0.0}, {"rental_uris": {"ios": "https://dc.lft.to/lastmile_qr_scan", "android": "https://dc.lft.to/lastmile_qr_scan"}, "type": "electric_scooter", "name": "04d538ca617ce12ec11cb2195b6ff1ac", "is_reserved": 0, "lon": -77.03912333333334, "is_disabled": 0, "fusion_lat": 0.0, "lat": 38.9082335, "bike_id": "04d538ca617ce12ec11cb2195b6ff1ac", "fusion_lon": 0.0}, {"rental_uris": {"ios": "https://dc.lft.to/lastmile_qr_scan", "android": "https://dc.lft.to/lastmile_qr_scan"}, "type": "electric_scooter", "name": "96682b5587d435d011b0bb4b2b6a7ce3", "is_reserved": 0, "lon": -77.0052765, "is_disabled": 0, "fusion_lat": 0.0, "lat": 38.885137, "bike_id": "96682b5587d435d011b0bb4b2b6a7ce3", "fusion_lon": 0.0}, {"rental_uris": {"ios": "https://dc.lft.to/lastmile_qr_scan", "android": "https://dc.lft.to/lastmile_qr_scan"}, "type": "electric_scooter", "name": "83ccc066cb160744f804f9655dbad1c6", "is_reserved": 0, "lon": -77.01102766666666, "is_disabled": 0, "fusion_lat": 0.0, "lat": 38.88540783333333, "bike_id": "83ccc066cb160744f804f9655dbad1c6", "fusion_lon": 0.0}, {"rental_uris": {"ios": "https://dc.lft.to/lastmile_qr_scan", "android": "https://dc.lft.to/lastmile_qr_scan"}, "type": "electric_scooter", "name": "24df15b8185c1c3c15c6fe30998a61e3", "is_reserved": 0, "lon": -77.01496816666666, "is_disabled": 0, "fusion_lat": 0.0, "lat": 38.892233833333336, "bike_id": "24df15b8185c1c3c15c6fe30998a61e3", "fusion_lon": 0.0}, {"rental_uris": {"ios": "https://dc.lft.to/lastmile_qr_scan", "android": "https://dc.lft.to/lastmile_qr_scan"}, "type": "electric_scooter", "name": "cbf263134a919b6c7150537228150053", "is_reserved": 0, "lon": -77.0122265, "is_disabled": 0, "fusion_lat": 0.0, "lat": 38.920390833333336, "bike_id": "cbf263134a919b6c7150537228150053", "fusion_lon": 0.0}, {"rental_uris": {"ios": "https://dc.lft.to/lastmile_qr_scan", "android": "https://dc.lft.to/lastmile_qr_scan"}, "type": "electric_scooter", "name": "dc9ecee16b2265fa5ae584d2d8ba50df", "is_reserved": 0, "lon": -77.00430683333333, "is_disabled": 0, "fusion_lat": 0.0, "lat": 38.8851305, "bike_id": "dc9ecee16b2265fa5ae584d2d8ba50df", "fusion_lon": 0.0}, {"rental_uris": {"ios": "https://dc.lft.to/lastmile_qr_scan", "android": "https://dc.lft.to/lastmile_qr_scan"}, "type": "electric_scooter", "name": "8fed9f07bc31d7365af9e941a9aec625", "is_reserved": 0, "lon": -76.9720825, "is_disabled": 0, "fusion_lat": 0.0, "lat": 38.92460166666667, "bike_id": "8fed9f07bc31d7365af9e941a9aec625", "fusion_lon": 0.0}, {"rental_uris": {"ios": "https://dc.lft.to/lastmile_qr_scan", "android": "https://dc.lft.to/lastmile_qr_scan"}, "type": "electric_scooter", "name": "3ba3f66cb1018e3179a6d5743cc2689e", "is_reserved": 0, "lon": -77.03783933333334, "is_disabled": 0, "fusion_lat": 0.0, "lat": 38.91578066666667, "bike_id": "3ba3f66cb1018e3179a6d5743cc2689e", "fusion_lon": 0.0}, {"rental_uris": {"ios": "https://dc.lft.to/lastmile_qr_scan", "android": "https://dc.lft.to/lastmile_qr_scan"}, "type": "electric_scooter", "name": "06fd6e70a8b08fee125fcb3522d0acca", "is_reserved": 0, "lon": -77.04426733333334, "is_disabled": 0, "fusion_lat": 0.0, "lat": 38.897492, "bike_id": "06fd6e70a8b08fee125fcb3522d0acca", "fusion_lon": 0.0}, {"rental_uris": {"ios": "https://dc.lft.to/lastmile_qr_scan", "android": "https://dc.lft.to/lastmile_qr_scan"}, "type": "electric_scooter", "name": "2f0ceff95d99a39e972e669202776326", "is_reserved": 0, "lon": -77.04051833333334, "is_disabled": 0, "fusion_lat": 0.0, "lat": 38.930207, "bike_id": "2f0ceff95d99a39e972e669202776326", "fusion_lon": 0.0}, {"rental_uris": {"ios": "https://dc.lft.to/lastmile_qr_scan", "android": "https://dc.lft.to/lastmile_qr_scan"}, "type": "electric_scooter", "name": "050660556a4a12c12379e72a66c925f7", "is_reserved": 0, "lon": -77.01866216666667, "is_disabled": 0, "fusion_lat": 0.0, "lat": 38.951528333333336, "bike_id": "050660556a4a12c12379e72a66c925f7", "fusion_lon": 0.0}, {"rental_uris": {"ios": "https://dc.lft.to/lastmile_qr_scan", "android": "https://dc.lft.to/lastmile_qr_scan"}, "type": "electric_scooter", "name": "d960ea44676bd5a1a3e1312f847cb8d6", "is_reserved": 0, "lon": -77.00586066666666, "is_disabled": 0, "fusion_lat": 0.0, "lat": 38.909419, "bike_id": "d960ea44676bd5a1a3e1312f847cb8d6", "fusion_lon": 0.0}, {"rental_uris": {"ios": "https://dc.lft.to/lastmile_qr_scan", "android": "https://dc.lft.to/lastmile_qr_scan"}, "type": "electric_scooter", "name": "80c22df4102f7944eef30f225c4a90a4", "is_reserved": 0, "lon": -77.02229733333333, "is_disabled": 0, "fusion_lat": 0.0, "lat": 38.892249666666665, "bike_id": "80c22df4102f7944eef30f225c4a90a4", "fusion_lon": 0.0}, {"rental_uris": {"ios": "https://dc.lft.to/lastmile_qr_scan", "android": "https://dc.lft.to/lastmile_qr_scan"}, "type": "electric_scooter", "name": "ba93fb89dedfbc36d5c22a34212159f4", "is_reserved": 0, "lon": -77.04677616666666, "is_disabled": 0, "fusion_lat": 0.0, "lat": 38.892349333333335, "bike_id": "ba93fb89dedfbc36d5c22a34212159f4", "fusion_lon": 0.0}, {"rental_uris": {"ios": "https://dc.lft.to/lastmile_qr_scan", "android": "https://dc.lft.to/lastmile_qr_scan"}, "type": "electric_scooter", "name": "77455e2f744854eacb7d4f8e9a9d8d63", "is_reserved": 0, "lon": -77.02790566666667, "is_disabled": 0, "fusion_lat": 0.0, "lat": 38.90614766666667, "bike_id": "77455e2f744854eacb7d4f8e9a9d8d63", "fusion_lon": 0.0}, {"rental_uris": {"ios": "https://dc.lft.to/lastmile_qr_scan", "android": "https://dc.lft.to/lastmile_qr_scan"}, "type": "electric_scooter", "name": "fe9be5d8d3cde86e1ab1cc0d7fa6565b", "is_reserved": 0, "lon": -77.02766233333334, "is_disabled": 0, "fusion_lat": 0.0, "lat": 38.91216766666667, "bike_id": "fe9be5d8d3cde86e1ab1cc0d7fa6565b", "fusion_lon": 0.0}, {"rental_uris": {"ios": "https://dc.lft.to/lastmile_qr_scan", "android": "https://dc.lft.to/lastmile_qr_scan"}, "type": "electric_scooter", "name": "10b23028a5211bebe012e04268d6b329", "is_reserved": 0, "lon": -77.0459285, "is_disabled": 0, "fusion_lat": 0.0, "lat": 38.91424816666667, "bike_id": "10b23028a5211bebe012e04268d6b329", "fusion_lon": 0.0}, {"rental_uris": {"ios": "https://dc.lft.to/lastmile_qr_scan", "android": "https://dc.lft.to/lastmile_qr_scan"}, "type": "electric_scooter", "name": "ddbaa172764199730e07197b05e4a5e8", "is_reserved": 0, "lon": -77.0201305, "is_disabled": 0, "fusion_lat": 0.0, "lat": 38.89873016666667, "bike_id": "ddbaa172764199730e07197b05e4a5e8", "fusion_lon": 0.0}, {"rental_uris": {"ios": "https://dc.lft.to/lastmile_qr_scan", "android": "https://dc.lft.to/lastmile_qr_scan"}, "type": "electric_scooter", "name": "a86ec1e29054b5a65c161b1f7a7edfa5", "is_reserved": 0, "lon": -77.0456915, "is_disabled": 0, "fusion_lat": 0.0, "lat": 38.917806166666665, "bike_id": "a86ec1e29054b5a65c161b1f7a7edfa5", "fusion_lon": 0.0}, {"rental_uris": {"ios": "https://dc.lft.to/lastmile_qr_scan", "android": "https://dc.lft.to/lastmile_qr_scan"}, "type": "electric_scooter", "name": "cfdd938726142eb720e0842cd8bf15df", "is_reserved": 0, "lon": -76.96507883333334, "is_disabled": 0, "fusion_lat": 0.0, "lat": 38.87648316666667, "bike_id": "cfdd938726142eb720e0842cd8bf15df", "fusion_lon": 0.0}, {"rental_uris": {"ios": "https://dc.lft.to/lastmile_qr_scan", "android": "https://dc.lft.to/lastmile_qr_scan"}, "type": "electric_scooter", "name": "2cd3014bec2d53e3bbd8a4c817ff78f5", "is_reserved": 0, "lon": -76.9223885, "is_disabled": 0, "fusion_lat": 0.0, "lat": 38.9000505, "bike_id": "2cd3014bec2d53e3bbd8a4c817ff78f5", "fusion_lon": 0.0}, {"rental_uris": {"ios": "https://dc.lft.to/lastmile_qr_scan", "android": "https://dc.lft.to/lastmile_qr_scan"}, "type": "electric_scooter", "name": "a0977ca3da1c37dc2270136474db833d", "is_reserved": 0, "lon": -77.02035333333333, "is_disabled": 0, "fusion_lat": 0.0, "lat": 38.93647816666667, "bike_id": "a0977ca3da1c37dc2270136474db833d", "fusion_lon": 0.0}, {"rental_uris": {"ios": "https://dc.lft.to/lastmile_qr_scan", "android": "https://dc.lft.to/lastmile_qr_scan"}, "type": "electric_bike", "name": "df2de2aeb9eaa48c19666252e9b51408", "is_reserved": 0, "lon": -77.06647416666667, "is_disabled": 0, "fusion_lat": 0.0, "lat": 38.949673, "bike_id": "df2de2aeb9eaa48c19666252e9b51408", "fusion_lon": 0.0}, {"rental_uris": {"ios": "https://dc.lft.to/lastmile_qr_scan", "android": "https://dc.lft.to/lastmile_qr_scan"}, "type": "electric_scooter", "name": "0d4c48e6cd8ed894f8c7cfd2e0bc62d1", "is_reserved": 0, "lon": -77.03213316666667, "is_disabled": 0, "fusion_lat": 0.0, "lat": 38.909007333333335, "bike_id": "0d4c48e6cd8ed894f8c7cfd2e0bc62d1", "fusion_lon": 0.0}, {"rental_uris": {"ios": "https://dc.lft.to/lastmile_qr_scan", "android": "https://dc.lft.to/lastmile_qr_scan"}, "type": "electric_bike", "name": "8fd8ffc1a0f9182375b605974d966064", "is_reserved": 0, "lon": -76.98689633333333, "is_disabled": 0, "fusion_lat": 0.0, "lat": 38.94475966666667, "bike_id": "8fd8ffc1a0f9182375b605974d966064", "fusion_lon": 0.0}, {"rental_uris": {"ios": "https://dc.lft.to/lastmile_qr_scan", "android": "https://dc.lft.to/lastmile_qr_scan"}, "type": "electric_scooter", "name": "9e6e9a53902eb445f31edeb67e3992a0", "is_reserved": 0, "lon": -77.03220133333333, "is_disabled": 0, "fusion_lat": 0.0, "lat": 38.89631266666667, "bike_id": "9e6e9a53902eb445f31edeb67e3992a0", "fusion_lon": 0.0}, {"rental_uris": {"ios": "https://dc.lft.to/lastmile_qr_scan", "android": "https://dc.lft.to/lastmile_qr_scan"}, "type": "electric_scooter", "name": "02694b3a2a8acb947f899812922a37fa", "is_reserved": 0, "lon": -76.99860083333333, "is_disabled": 0, "fusion_lat": 0.0, "lat": 38.90027883333333, "bike_id": "02694b3a2a8acb947f899812922a37fa", "fusion_lon": 0.0}, {"rental_uris": {"ios": "https://dc.lft.to/lastmile_qr_scan", "android": "https://dc.lft.to/lastmile_qr_scan"}, "type": "electric_scooter", "name": "a1ffed31acc7893f626b6868c884d5f9", "is_reserved": 0, "lon": -77.0380375, "is_disabled": 0, "fusion_lat": 0.0, "lat": 38.915436166666666, "bike_id": "a1ffed31acc7893f626b6868c884d5f9", "fusion_lon": 0.0}, {"rental_uris": {"ios": "https://dc.lft.to/lastmile_qr_scan", "android": "https://dc.lft.to/lastmile_qr_scan"}, "type": "electric_scooter", "name": "d307198b15badd04666d845304e4356d", "is_reserved": 0, "lon": -77.026932, "is_disabled": 0, "fusion_lat": 0.0, "lat": 38.94982366666667, "bike_id": "d307198b15badd04666d845304e4356d", "fusion_lon": 0.0}, {"rental_uris": {"ios": "https://dc.lft.to/lastmile_qr_scan", "android": "https://dc.lft.to/lastmile_qr_scan"}, "type": "electric_bike", "name": "68f83d808efeeb58883f9e6492118a63", "is_reserved": 0, "lon": -76.94185766666666, "is_disabled": 0, "fusion_lat": 0.0, "lat": 38.9606595, "bike_id": "68f83d808efeeb58883f9e6492118a63", "fusion_lon": 0.0}, {"rental_uris": {"ios": "https://dc.lft.to/lastmile_qr_scan", "android": "https://dc.lft.to/lastmile_qr_scan"}, "type": "electric_scooter", "name": "0dd5885a50896c68735c37f9c7f40b33", "is_reserved": 0, "lon": -77.017969, "is_disabled": 0, "fusion_lat": 0.0, "lat": 38.919737833333336, "bike_id": "0dd5885a50896c68735c37f9c7f40b33", "fusion_lon": 0.0}, {"rental_uris": {"ios": "https://dc.lft.to/lastmile_qr_scan", "android": "https://dc.lft.to/lastmile_qr_scan"}, "type": "electric_scooter", "name": "8d6ef92c9ed97d884ee17279b685b944", "is_reserved": 0, "lon": -77.02410816666666, "is_disabled": 0, "fusion_lat": 0.0, "lat": 38.9172185, "bike_id": "8d6ef92c9ed97d884ee17279b685b944", "fusion_lon": 0.0}, {"rental_uris": {"ios": "https://dc.lft.to/lastmile_qr_scan", "android": "https://dc.lft.to/lastmile_qr_scan"}, "type": "electric_scooter", "name": "772dbf0aec90dba89eda64d119a878cf", "is_reserved": 0, "lon": -77.01311333333334, "is_disabled": 0, "fusion_lat": 0.0, "lat": 38.90191883333333, "bike_id": "772dbf0aec90dba89eda64d119a878cf", "fusion_lon": 0.0}, {"rental_uris": {"ios": "https://dc.lft.to/lastmile_qr_scan", "android": "https://dc.lft.to/lastmile_qr_scan"}, "type": "electric_bike", "name": "aac54000100630f9cee728cf3161f46f", "is_reserved": 0, "lon": -77.07623883333333, "is_disabled": 0, "fusion_lat": 0.0, "lat": 38.90613716666667, "bike_id": "aac54000100630f9cee728cf3161f46f", "fusion_lon": 0.0}, {"rental_uris": {"ios": "https://dc.lft.to/lastmile_qr_scan", "android": "https://dc.lft.to/lastmile_qr_scan"}, "type": "electric_scooter", "name": "a50693cc8502674c6f94771dffc2675b", "is_reserved": 0, "lon": -77.045389, "is_disabled": 0, "fusion_lat": 0.0, "lat": 38.89741983333333, "bike_id": "a50693cc8502674c6f94771dffc2675b", "fusion_lon": 0.0}, {"rental_uris": {"ios": "https://dc.lft.to/lastmile_qr_scan", "android": "https://dc.lft.to/lastmile_qr_scan"}, "type": "electric_scooter", "name": "39e7882131f8740acfb1ab90cca4cf7c", "is_reserved": 0, "lon": -77.01963766666667, "is_disabled": 0, "fusion_lat": 0.0, "lat": 38.933914333333334, "bike_id": "39e7882131f8740acfb1ab90cca4cf7c", "fusion_lon": 0.0}, {"rental_uris": {"ios": "https://dc.lft.to/lastmile_qr_scan", "android": "https://dc.lft.to/lastmile_qr_scan"}, "type": "electric_scooter", "name": "dbdb5729d7e747ed29fa1f570bad0a9f", "is_reserved": 0, "lon": -76.9898595, "is_disabled": 0, "fusion_lat": 0.0, "lat": 38.86503666666667, "bike_id": "dbdb5729d7e747ed29fa1f570bad0a9f", "fusion_lon": 0.0}, {"rental_uris": {"ios": "https://dc.lft.to/lastmile_qr_scan", "android": "https://dc.lft.to/lastmile_qr_scan"}, "type": "electric_scooter", "name": "0c915032b76f95b289f570c23f393d1a", "is_reserved": 0, "lon": -77.06524033333334, "is_disabled": 0, "fusion_lat": 0.0, "lat": 38.949900666666665, "bike_id": "0c915032b76f95b289f570c23f393d1a", "fusion_lon": 0.0}, {"rental_uris": {"ios": "https://dc.lft.to/lastmile_qr_scan", "android": "https://dc.lft.to/lastmile_qr_scan"}, "type": "electric_scooter", "name": "3516679a42959307b3d2202ba804700d", "is_reserved": 0, "lon": -77.02588, "is_disabled": 0, "fusion_lat": 0.0, "lat": 38.92037766666667, "bike_id": "3516679a42959307b3d2202ba804700d", "fusion_lon": 0.0}, {"rental_uris": {"ios": "https://dc.lft.to/lastmile_qr_scan", "android": "https://dc.lft.to/lastmile_qr_scan"}, "type": "electric_scooter", "name": "928487549644f71b6a0e7d3d1dac3d07", "is_reserved": 0, "lon": -77.03723, "is_disabled": 0, "fusion_lat": 0.0, "lat": 38.911873666666665, "bike_id": "928487549644f71b6a0e7d3d1dac3d07", "fusion_lon": 0.0}, {"rental_uris": {"ios": "https://dc.lft.to/lastmile_qr_scan", "android": "https://dc.lft.to/lastmile_qr_scan"}, "type": "electric_scooter", "name": "9f65978d29ca6756c9a0d0792bb66fe6", "is_reserved": 0, "lon": -77.04243783333334, "is_disabled": 0, "fusion_lat": 0.0, "lat": 38.9221915, "bike_id": "9f65978d29ca6756c9a0d0792bb66fe6", "fusion_lon": 0.0}, {"rental_uris": {"ios": "https://dc.lft.to/lastmile_qr_scan", "android": "https://dc.lft.to/lastmile_qr_scan"}, "type": "electric_scooter", "name": "ba44f7cb1bcaed7f7f84266510e290f4", "is_reserved": 0, "lon": -77.00797066666667, "is_disabled": 0, "fusion_lat": 0.0, "lat": 38.9126755, "bike_id": "ba44f7cb1bcaed7f7f84266510e290f4", "fusion_lon": 0.0}, {"rental_uris": {"ios": "https://dc.lft.to/lastmile_qr_scan", "android": "https://dc.lft.to/lastmile_qr_scan"}, "type": "electric_scooter", "name": "a4f84737a34d7af03a3cb771538c20ed", "is_reserved": 0, "lon": -77.03211883333333, "is_disabled": 0, "fusion_lat": 0.0, "lat": 38.8871025, "bike_id": "a4f84737a34d7af03a3cb771538c20ed", "fusion_lon": 0.0}, {"rental_uris": {"ios": "https://dc.lft.to/lastmile_qr_scan", "android": "https://dc.lft.to/lastmile_qr_scan"}, "type": "electric_scooter", "name": "234272f074be975d098d75365776759b", "is_reserved": 0, "lon": -77.04028416666667, "is_disabled": 0, "fusion_lat": 0.0, "lat": 38.90477083333333, "bike_id": "234272f074be975d098d75365776759b", "fusion_lon": 0.0}, {"rental_uris": {"ios": "https://dc.lft.to/lastmile_qr_scan", "android": "https://dc.lft.to/lastmile_qr_scan"}, "type": "electric_scooter", "name": "b066f29e74b8992b1ee7ea214d640066", "is_reserved": 0, "lon": -77.04668633333333, "is_disabled": 0, "fusion_lat": 0.0, "lat": 38.9180685, "bike_id": "b066f29e74b8992b1ee7ea214d640066", "fusion_lon": 0.0}, {"rental_uris": {"ios": "https://dc.lft.to/lastmile_qr_scan", "android": "https://dc.lft.to/lastmile_qr_scan"}, "type": "electric_scooter", "name": "7f9fa6b5f748d989a774735aead5b079", "is_reserved": 0, "lon": -77.03660466666666, "is_disabled": 0, "fusion_lat": 0.0, "lat": 38.923900833333335, "bike_id": "7f9fa6b5f748d989a774735aead5b079", "fusion_lon": 0.0}, {"rental_uris": {"ios": "https://dc.lft.to/lastmile_qr_scan", "android": "https://dc.lft.to/lastmile_qr_scan"}, "type": "electric_scooter", "name": "7c43033e5d0c83a3d70ce07ce341012f", "is_reserved": 0, "lon": -76.98215633333334, "is_disabled": 0, "fusion_lat": 0.0, "lat": 38.886427, "bike_id": "7c43033e5d0c83a3d70ce07ce341012f", "fusion_lon": 0.0}, {"rental_uris": {"ios": "https://dc.lft.to/lastmile_qr_scan", "android": "https://dc.lft.to/lastmile_qr_scan"}, "type": "electric_scooter", "name": "c6774c1b84dfc9373211e53cdb0b57e2", "is_reserved": 0, "lon": -77.022034, "is_disabled": 0, "fusion_lat": 0.0, "lat": 38.887156833333336, "bike_id": "c6774c1b84dfc9373211e53cdb0b57e2", "fusion_lon": 0.0}, {"rental_uris": {"ios": "https://dc.lft.to/lastmile_qr_scan", "android": "https://dc.lft.to/lastmile_qr_scan"}, "type": "electric_scooter", "name": "3e612eea9d85120ea466f148548cab0c", "is_reserved": 0, "lon": -77.0366445, "is_disabled": 0, "fusion_lat": 0.0, "lat": 38.91857266666667, "bike_id": "3e612eea9d85120ea466f148548cab0c", "fusion_lon": 0.0}, {"rental_uris": {"ios": "https://dc.lft.to/lastmile_qr_scan", "android": "https://dc.lft.to/lastmile_qr_scan"}, "type": "electric_scooter", "name": "8713fc9d4aaebd8171663baa87e6af93", "is_reserved": 0, "lon": -77.005995, "is_disabled": 0, "fusion_lat": 0.0, "lat": 38.9094515, "bike_id": "8713fc9d4aaebd8171663baa87e6af93", "fusion_lon": 0.0}, {"rental_uris": {"ios": "https://dc.lft.to/lastmile_qr_scan", "android": "https://dc.lft.to/lastmile_qr_scan"}, "type": "electric_scooter", "name": "3bf2d59fb303fde1d8b551d6588ba9c3", "is_reserved": 0, "lon": -77.03265333333333, "is_disabled": 0, "fusion_lat": 0.0, "lat": 38.909734666666665, "bike_id": "3bf2d59fb303fde1d8b551d6588ba9c3", "fusion_lon": 0.0}, {"rental_uris": {"ios": "https://dc.lft.to/lastmile_qr_scan", "android": "https://dc.lft.to/lastmile_qr_scan"}, "type": "electric_scooter", "name": "ee83db98c7646fcb69dc3220d57b4963", "is_reserved": 0, "lon": -77.04365966666667, "is_disabled": 0, "fusion_lat": 0.0, "lat": 38.892236, "bike_id": "ee83db98c7646fcb69dc3220d57b4963", "fusion_lon": 0.0}, {"rental_uris": {"ios": "https://dc.lft.to/lastmile_qr_scan", "android": "https://dc.lft.to/lastmile_qr_scan"}, "type": "electric_bike", "name": "efb509fa1573984f5b51b7dc5794cdba", "is_reserved": 0, "lon": -77.08530866666666, "is_disabled": 0, "fusion_lat": 0.0, "lat": 38.85650533333333, "bike_id": "efb509fa1573984f5b51b7dc5794cdba", "fusion_lon": 0.0}, {"rental_uris": {"ios": "https://dc.lft.to/lastmile_qr_scan", "android": "https://dc.lft.to/lastmile_qr_scan"}, "type": "electric_scooter", "name": "e99a39875e83a3a5982612213d27629a", "is_reserved": 0, "lon": -77.01765483333334, "is_disabled": 0, "fusion_lat": 0.0, "lat": 38.900900666666665, "bike_id": "e99a39875e83a3a5982612213d27629a", "fusion_lon": 0.0}, {"rental_uris": {"ios": "https://dc.lft.to/lastmile_qr_scan", "android": "https://dc.lft.to/lastmile_qr_scan"}, "type": "electric_scooter", "name": "a1b596fb84e090f09f564ac064d00589", "is_reserved": 0, "lon": -77.034289, "is_disabled": 0, "fusion_lat": 0.0, "lat": 38.92213733333333, "bike_id": "a1b596fb84e090f09f564ac064d00589", "fusion_lon": 0.0}, {"rental_uris": {"ios": "https://dc.lft.to/lastmile_qr_scan", "android": "https://dc.lft.to/lastmile_qr_scan"}, "type": "electric_scooter", "name": "7a4217889ea6db29904d09eb7373cea2", "is_reserved": 0, "lon": -77.01948866666666, "is_disabled": 0, "fusion_lat": 0.0, "lat": 38.924227333333334, "bike_id": "7a4217889ea6db29904d09eb7373cea2", "fusion_lon": 0.0}, {"rental_uris": {"ios": "https://dc.lft.to/lastmile_qr_scan", "android": "https://dc.lft.to/lastmile_qr_scan"}, "type": "electric_scooter", "name": "6a8f1af9d4a1ba705c1eb67cc374e283", "is_reserved": 0, "lon": -77.03329733333334, "is_disabled": 0, "fusion_lat": 0.0, "lat": 38.89890616666667, "bike_id": "6a8f1af9d4a1ba705c1eb67cc374e283", "fusion_lon": 0.0}, {"rental_uris": {"ios": "https://dc.lft.to/lastmile_qr_scan", "android": "https://dc.lft.to/lastmile_qr_scan"}, "type": "electric_scooter", "name": "f006591c70ddce6f8381fc1f36772e46", "is_reserved": 0, "lon": -77.04498466666666, "is_disabled": 0, "fusion_lat": 0.0, "lat": 38.90507616666667, "bike_id": "f006591c70ddce6f8381fc1f36772e46", "fusion_lon": 0.0}, {"rental_uris": {"ios": "https://dc.lft.to/lastmile_qr_scan", "android": "https://dc.lft.to/lastmile_qr_scan"}, "type": "electric_scooter", "name": "467c436de8a4683f616ddd0fcb65c9da", "is_reserved": 0, "lon": -76.9697675, "is_disabled": 0, "fusion_lat": 0.0, "lat": 38.86148466666667, "bike_id": "467c436de8a4683f616ddd0fcb65c9da", "fusion_lon": 0.0}, {"rental_uris": {"ios": "https://dc.lft.to/lastmile_qr_scan", "android": "https://dc.lft.to/lastmile_qr_scan"}, "type": "electric_scooter", "name": "9b8f7607870747fe23354759b59d0f90", "is_reserved": 0, "lon": -77.0284465, "is_disabled": 0, "fusion_lat": 0.0, "lat": 38.89221766666667, "bike_id": "9b8f7607870747fe23354759b59d0f90", "fusion_lon": 0.0}, {"rental_uris": {"ios": "https://dc.lft.to/lastmile_qr_scan", "android": "https://dc.lft.to/lastmile_qr_scan"}, "type": "electric_scooter", "name": "92f2bd717d41b581eced71be8e4efe2b", "is_reserved": 0, "lon": -77.02698483333333, "is_disabled": 0, "fusion_lat": 0.0, "lat": 38.92403566666667, "bike_id": "92f2bd717d41b581eced71be8e4efe2b", "fusion_lon": 0.0}, {"rental_uris": {"ios": "https://dc.lft.to/lastmile_qr_scan", "android": "https://dc.lft.to/lastmile_qr_scan"}, "type": "electric_scooter", "name": "6c61786d88e2c7c2d029fd6da94eb77a", "is_reserved": 0, "lon": -77.039737, "is_disabled": 0, "fusion_lat": 0.0, "lat": 38.90143466666667, "bike_id": "6c61786d88e2c7c2d029fd6da94eb77a", "fusion_lon": 0.0}, {"rental_uris": {"ios": "https://dc.lft.to/lastmile_qr_scan", "android": "https://dc.lft.to/lastmile_qr_scan"}, "type": "electric_bike", "name": "8b09ca008d5e7c7f0c8c09d6bc47615a", "is_reserved": 0, "lon": -76.98060783333334, "is_disabled": 0, "fusion_lat": 0.0, "lat": 38.97252683333333, "bike_id": "8b09ca008d5e7c7f0c8c09d6bc47615a", "fusion_lon": 0.0}, {"rental_uris": {"ios": "https://dc.lft.to/lastmile_qr_scan", "android": "https://dc.lft.to/lastmile_qr_scan"}, "type": "electric_scooter", "name": "479bd164b58b1d0139b3e925d64b32a8", "is_reserved": 0, "lon": -77.0240995, "is_disabled": 0, "fusion_lat": 0.0, "lat": 38.945102, "bike_id": "479bd164b58b1d0139b3e925d64b32a8", "fusion_lon": 0.0}, {"rental_uris": {"ios": "https://dc.lft.to/lastmile_qr_scan", "android": "https://dc.lft.to/lastmile_qr_scan"}, "type": "electric_scooter", "name": "967a2892d32cf873943f15deb40b6ad2", "is_reserved": 0, "lon": -77.01772716666666, "is_disabled": 0, "fusion_lat": 0.0, "lat": 38.8803255, "bike_id": "967a2892d32cf873943f15deb40b6ad2", "fusion_lon": 0.0}, {"rental_uris": {"ios": "https://dc.lft.to/lastmile_qr_scan", "android": "https://dc.lft.to/lastmile_qr_scan"}, "type": "electric_scooter", "name": "ed19648ae110c63515d33502aaa15463", "is_reserved": 0, "lon": -77.03379283333334, "is_disabled": 0, "fusion_lat": 0.0, "lat": 38.909592333333336, "bike_id": "ed19648ae110c63515d33502aaa15463", "fusion_lon": 0.0}, {"rental_uris": {"ios": "https://dc.lft.to/lastmile_qr_scan", "android": "https://dc.lft.to/lastmile_qr_scan"}, "type": "electric_scooter", "name": "faad78a88cbdc6487d04011c9d131ada", "is_reserved": 0, "lon": -77.03656783333334, "is_disabled": 0, "fusion_lat": 0.0, "lat": 38.95598716666667, "bike_id": "faad78a88cbdc6487d04011c9d131ada", "fusion_lon": 0.0}, {"rental_uris": {"ios": "https://dc.lft.to/lastmile_qr_scan", "android": "https://dc.lft.to/lastmile_qr_scan"}, "type": "electric_scooter", "name": "cfa83d105d608d7340c589bb2e0f2270", "is_reserved": 0, "lon": -77.02212766666666, "is_disabled": 0, "fusion_lat": 0.0, "lat": 38.92471116666667, "bike_id": "cfa83d105d608d7340c589bb2e0f2270", "fusion_lon": 0.0}, {"rental_uris": {"ios": "https://dc.lft.to/lastmile_qr_scan", "android": "https://dc.lft.to/lastmile_qr_scan"}, "type": "electric_scooter", "name": "d6474f72010fea78523025a7b2dce0e6", "is_reserved": 0, "lon": -77.0677345, "is_disabled": 0, "fusion_lat": 0.0, "lat": 38.904176, "bike_id": "d6474f72010fea78523025a7b2dce0e6", "fusion_lon": 0.0}, {"rental_uris": {"ios": "https://dc.lft.to/lastmile_qr_scan", "android": "https://dc.lft.to/lastmile_qr_scan"}, "type": "electric_scooter", "name": "fdfdac48ee1146979ac8bb8f268e692f", "is_reserved": 0, "lon": -76.92921616666666, "is_disabled": 0, "fusion_lat": 0.0, "lat": 38.886595166666666, "bike_id": "fdfdac48ee1146979ac8bb8f268e692f", "fusion_lon": 0.0}, {"rental_uris": {"ios": "https://dc.lft.to/lastmile_qr_scan", "android": "https://dc.lft.to/lastmile_qr_scan"}, "type": "electric_scooter", "name": "d5f675e9ff60f35efa8b1ecc3afe47a7", "is_reserved": 0, "lon": -76.98733166666666, "is_disabled": 0, "fusion_lat": 0.0, "lat": 38.8422455, "bike_id": "d5f675e9ff60f35efa8b1ecc3afe47a7", "fusion_lon": 0.0}, {"rental_uris": {"ios": "https://dc.lft.to/lastmile_qr_scan", "android": "https://dc.lft.to/lastmile_qr_scan"}, "type": "electric_scooter", "name": "20c92608aaf1159b8d72ac00b3a5e64c", "is_reserved": 0, "lon": -76.99564333333333, "is_disabled": 0, "fusion_lat": 0.0, "lat": 38.92675833333333, "bike_id": "20c92608aaf1159b8d72ac00b3a5e64c", "fusion_lon": 0.0}, {"rental_uris": {"ios": "https://dc.lft.to/lastmile_qr_scan", "android": "https://dc.lft.to/lastmile_qr_scan"}, "type": "electric_scooter", "name": "75695f4a611298fed1b878ae990b1de1", "is_reserved": 0, "lon": -77.02223883333333, "is_disabled": 0, "fusion_lat": 0.0, "lat": 38.89356566666667, "bike_id": "75695f4a611298fed1b878ae990b1de1", "fusion_lon": 0.0}, {"rental_uris": {"ios": "https://dc.lft.to/lastmile_qr_scan", "android": "https://dc.lft.to/lastmile_qr_scan"}, "type": "electric_scooter", "name": "d368c254ece65f1c608159b0e2f03a54", "is_reserved": 0, "lon": -77.03664916666666, "is_disabled": 0, "fusion_lat": 0.0, "lat": 38.9138915, "bike_id": "d368c254ece65f1c608159b0e2f03a54", "fusion_lon": 0.0}, {"rental_uris": {"ios": "https://dc.lft.to/lastmile_qr_scan", "android": "https://dc.lft.to/lastmile_qr_scan"}, "type": "electric_scooter", "name": "3e8b70cf004b19e4c107ad4bf583127f", "is_reserved": 0, "lon": -77.03666733333333, "is_disabled": 0, "fusion_lat": 0.0, "lat": 38.93271933333333, "bike_id": "3e8b70cf004b19e4c107ad4bf583127f", "fusion_lon": 0.0}, {"rental_uris": {"ios": "https://dc.lft.to/lastmile_qr_scan", "android": "https://dc.lft.to/lastmile_qr_scan"}, "type": "electric_scooter", "name": "e4853bd8d1955725f259cad5b1e016c6", "is_reserved": 0, "lon": -77.05629483333334, "is_disabled": 0, "fusion_lat": 0.0, "lat": 38.9242185, "bike_id": "e4853bd8d1955725f259cad5b1e016c6", "fusion_lon": 0.0}, {"rental_uris": {"ios": "https://dc.lft.to/lastmile_qr_scan", "android": "https://dc.lft.to/lastmile_qr_scan"}, "type": "electric_bike", "name": "7146f5311d0cc069b98827340a0328f8", "is_reserved": 0, "lon": -77.07591616666667, "is_disabled": 0, "fusion_lat": 0.0, "lat": 38.90881383333333, "bike_id": "7146f5311d0cc069b98827340a0328f8", "fusion_lon": 0.0}, {"rental_uris": {"ios": "https://dc.lft.to/lastmile_qr_scan", "android": "https://dc.lft.to/lastmile_qr_scan"}, "type": "electric_scooter", "name": "8204cbc5a64320d29d8968a76fcaabf6", "is_reserved": 0, "lon": -77.04187266666666, "is_disabled": 0, "fusion_lat": 0.0, "lat": 38.92204516666666, "bike_id": "8204cbc5a64320d29d8968a76fcaabf6", "fusion_lon": 0.0}, {"rental_uris": {"ios": "https://dc.lft.to/lastmile_qr_scan", "android": "https://dc.lft.to/lastmile_qr_scan"}, "type": "electric_scooter", "name": "c638631ca2085d61e14aae679a1ec5e5", "is_reserved": 0, "lon": -77.0587295, "is_disabled": 0, "fusion_lat": 0.0, "lat": 38.94241733333333, "bike_id": "c638631ca2085d61e14aae679a1ec5e5", "fusion_lon": 0.0}, {"rental_uris": {"ios": "https://dc.lft.to/lastmile_qr_scan", "android": "https://dc.lft.to/lastmile_qr_scan"}, "type": "electric_scooter", "name": "1c1285f88955ad40b44a09a44ca7491a", "is_reserved": 0, "lon": -77.03661783333334, "is_disabled": 0, "fusion_lat": 0.0, "lat": 38.93951083333333, "bike_id": "1c1285f88955ad40b44a09a44ca7491a", "fusion_lon": 0.0}, {"rental_uris": {"ios": "https://dc.lft.to/lastmile_qr_scan", "android": "https://dc.lft.to/lastmile_qr_scan"}, "type": "electric_scooter", "name": "7f91c73aea0f4d4ba59f73ba7e6cc9cd", "is_reserved": 0, "lon": -77.04684216666666, "is_disabled": 0, "fusion_lat": 0.0, "lat": 38.90296766666667, "bike_id": "7f91c73aea0f4d4ba59f73ba7e6cc9cd", "fusion_lon": 0.0}, {"rental_uris": {"ios": "https://dc.lft.to/lastmile_qr_scan", "android": "https://dc.lft.to/lastmile_qr_scan"}, "type": "electric_scooter", "name": "c76072ebc4939b098bcefa56a8403bd6", "is_reserved": 0, "lon": -77.01053616666667, "is_disabled": 0, "fusion_lat": 0.0, "lat": 38.916434833333334, "bike_id": "c76072ebc4939b098bcefa56a8403bd6", "fusion_lon": 0.0}, {"rental_uris": {"ios": "https://dc.lft.to/lastmile_qr_scan", "android": "https://dc.lft.to/lastmile_qr_scan"}, "type": "electric_scooter", "name": "90bfaf756dd958fdaf7486d20dd86e3e", "is_reserved": 0, "lon": -77.02485883333334, "is_disabled": 0, "fusion_lat": 0.0, "lat": 38.9051725, "bike_id": "90bfaf756dd958fdaf7486d20dd86e3e", "fusion_lon": 0.0}, {"rental_uris": {"ios": "https://dc.lft.to/lastmile_qr_scan", "android": "https://dc.lft.to/lastmile_qr_scan"}, "type": "electric_scooter", "name": "6483403e257da2a0be58642f9795e16e", "is_reserved": 0, "lon": -77.037122, "is_disabled": 0, "fusion_lat": 0.0, "lat": 38.926578666666664, "bike_id": "6483403e257da2a0be58642f9795e16e", "fusion_lon": 0.0}, {"rental_uris": {"ios": "https://dc.lft.to/lastmile_qr_scan", "android": "https://dc.lft.to/lastmile_qr_scan"}, "type": "electric_scooter", "name": "aae594bbf5355270b9e08e74b5a0030b", "is_reserved": 0, "lon": -76.93476783333334, "is_disabled": 0, "fusion_lat": 0.0, "lat": 38.89504266666667, "bike_id": "aae594bbf5355270b9e08e74b5a0030b", "fusion_lon": 0.0}, {"rental_uris": {"ios": "https://dc.lft.to/lastmile_qr_scan", "android": "https://dc.lft.to/lastmile_qr_scan"}, "type": "electric_scooter", "name": "2467c773a77e2ced164b260112bf5359", "is_reserved": 0, "lon": -77.04346783333334, "is_disabled": 0, "fusion_lat": 0.0, "lat": 38.90736483333333, "bike_id": "2467c773a77e2ced164b260112bf5359", "fusion_lon": 0.0},