{"data": {"bikes": [{"name": "9979edf5e74284d268d06f166db7df6a", "lon": -77.02408766666667, "lat": 38.90960233333333, "type": "electric_scooter", "fusion_lon": 0.0, "is_reserved": 0, "bike_id": "9979edf5e74284d268d06f166db7df6a", "fusion_lat": 0.0, "is_disabled": 0, "rental_uris": {"ios": "https://dc.lft.to/lastmile_qr_scan", "android": "https://dc.lft.to/lastmile_qr_scan"}}, {"name": "96656fa731137e69a6621f7a9ec0f114", "lon": -77.03053316666667, "lat": 38.923798, "type": "electric_scooter", "fusion_lon": 0.0, "is_reserved": 0, "bike_id": "96656fa731137e69a6621f7a9ec0f114", "fusion_lat": 0.0, "is_disabled": 0, "rental_uris": {"ios": "https://dc.lft.to/lastmile_qr_scan", "android": "https://dc.lft.to/lastmile_qr_scan"}}, {"name": "ae93d6e6d7035fb451ca8a8dbb96ccf5", "lon": -77.046003, "lat": 38.91925966666667, "type": "electric_scooter", "fusion_lon": 0.0, "is_reserved": 0, "bike_id": "ae93d6e6d7035fb451ca8a8dbb96ccf5", "fusion_lat": 0.0, "is_disabled": 0, "rental_uris": {"ios": "https://dc.lft.to/lastmile_qr_scan", "android": "https://dc.lft.to/lastmile_qr_scan"}}, {"name": "c0871c00e5d1dbeb15cba03447cd4f54", "lon": -77.04253183333333, "lat": 38.9207275, "type": "electric_scooter", "fusion_lon": 0.0, "is_reserved": 0, "bike_id": "c0871c00e5d1dbeb15cba03447cd4f54", "fusion_lat": 0.0, "is_disabled": 0, "rental_uris": {"ios": "https://dc.lft.to/lastmile_qr_scan", "android": "https://dc.lft.to/lastmile_qr_scan"}}, {"name": "71fc0d18cc1d956a32973bd48c33e0e2", "lon": -77.012873, "lat": 38.90053666666667, "type": "electric_scooter", "fusion_lon": 0.0, "is_reserved": 0, "bike_id": "71fc0d18cc1d956a32973bd48c33e0e2", "fusion_lat": 0.0, "is_disabled": 0, "rental_uris": {"ios": "https://dc.lft.to/lastmile_qr_scan", "android": "https://dc.lft.to/lastmile_qr_scan"}}, {"name": "4e0c060df32b110e1528a992f66e48c3", "lon": -77.02949216666667, "lat": 38.91568483333333, "type": "electric_scooter", "fusion_lon": 0.0, "is_reserved": 0, "bike_id": "4e0c060df32b110e1528a992f66e48c3", "fusion_lat": 0.0, "is_disabled": 0, "rental_uris": {"ios": "https://dc.lft.to/lastmile_qr_scan", "android": "https://dc.lft.to/lastmile_qr_scan"}}, {"name": "3ec709aff7f5eb159ce8872fb6581348", "lon": -77.0327725, "lat": 38.932549, "type": "electric_scooter", "fusion_lon": 0.0, "is_reserved": 0, "bike_id": "3ec709aff7f5eb159ce8872fb6581348", "fusion_lat": 0.0, "is_disabled": 0, "rental_uris": {"ios": "https://dc.lft.to/lastmile_qr_scan", "android": "https://dc.lft.to/lastmile_qr_scan"}}, {"name": "b4334dd9706f8aea1eae862031250bca", "lon": -77.08287466666667, "lat": 38.930102166666664, "type": "electric_scooter", "fusion_lon": 0.0, "is_reserved": 0, "bike_id": "b4334dd9706f8aea1eae862031250bca", "fusion_lat": 0.0, "is_disabled": 0, "rental_uris": {"ios": "https://dc.lft.to/lastmile_qr_scan", "android": "https://dc.lft.to/lastmile_qr_scan"}}, {"name": "94362fb0bb0853fc462a02f2c6b2ea1b", "lon": -77.04348733333333, "lat": 38.906294333333335, "type": "electric_scooter", "fusion_lon": 0.0, "is_reserved": 0, "bike_id": "94362fb0bb0853fc462a02f2c6b2ea1b", "fusion_lat": 0.0, "is_disabled": 0, "rental_uris": {"ios": "https://dc.lft.to/lastmile_qr_scan", "android": "https://dc.lft.to/lastmile_qr_scan"}}, {"name": "3a1cba3855bc678b805bc469e9252a27", "lon": -77.012181, "lat": 38.92141933333333, "type": "electric_scooter", "fusion_lon": 0.0, "is_reserved": 0, "bike_id": "3a1cba3855bc678b805bc469e9252a27", "fusion_lat": 0.0, "is_disabled": 0, "rental_uris": {"ios": "https://dc.lft.to/lastmile_qr_scan", "android": "https://dc.lft.to/lastmile_qr_scan"}}, {"name": "e705a8dcc5aaa892a9be2fdabb82bf2c", "lon": -77.043482, "lat": 38.91042183333333, "type": "electric_scooter", "fusion_lon": 0.0, "is_reserved": 0, "bike_id": "e705a8dcc5aaa892a9be2fdabb82bf2c", "fusion_lat": 0.0, "is_disabled": 0, "rental_uris": {"ios": "https://dc.lft.to/lastmile_qr_scan", "android": "https://dc.lft.to/lastmile_qr_scan"}}, {"name": "95d61f6106e862478b8862dc86963cdf", "lon": -77.02371433333333, "lat": 38.94503533333334, "type": "electric_bike", "fusion_lon": 0.0, "is_reserved": 0, "bike_id": "95d61f6106e862478b8862dc86963cdf", "fusion_lat": 0.0, "is_disabled": 0, "rental_uris": {"ios": "https://dc.lft.to/lastmile_qr_scan", "android": "https://dc.lft.to/lastmile_qr_scan"}}, {"name": "080c23cf5b2dd9a7722a4f131df4c392", "lon": -76.97155916666667, "lat": 38.85468816666667, "type": "electric_scooter", "fusion_lon": 0.0, "is_reserved": 0, "bike_id": "080c23cf5b2dd9a7722a4f131df4c392", "fusion_lat": 0.0, "is_disabled": 0, "rental_uris": {"ios": "https://dc.lft.to/lastmile_qr_scan", "android": "https://dc.lft.to/lastmile_qr_scan"}}, {"name": "f8339ed73b4e9ed682ef12d5c9ab160d", "lon": -77.07338116666666, "lat": 38.926154, "type": "electric_scooter", "fusion_lon": 0.0, "is_reserved": 0, "bike_id": "f8339ed73b4e9ed682ef12d5c9ab160d", "fusion_lat": 0.0, "is_disabled": 0, "rental_uris": {"ios": "https://dc.lft.to/lastmile_qr_scan", "android": "https://dc.lft.to/lastmile_qr_scan"}}, {"name": "ea7337037b0c334e4b39c6ed3e93c5ad", "lon": -77.0186445, "lat": 38.9737185, "type": "electric_scooter", "fusion_lon": 0.0, "is_reserved": 0, "bike_id": "ea7337037b0c334e4b39c6ed3e93c5ad", "fusion_lat": 0.0, "is_disabled": 0, "rental_uris": {"ios": "https://dc.lft.to/lastmile_qr_scan", "android": "https://dc.lft.to/lastmile_qr_scan"}}, {"name": "35fea08192c30985ffd0c9e261cfe92a", "lon": -77.02491266666667, "lat": 38.937645, "type": "electric_scooter", "fusion_lon": 0.0, "is_reserved": 0, "bike_id": "35fea08192c30985ffd0c9e261cfe92a", "fusion_lat": 0.0, "is_disabled": 0, "rental_uris": {"ios": "https://dc.lft.to/lastmile_qr_scan", "android": "https://dc.lft.to/lastmile_qr_scan"}}, {"name": "cd5bb4fdd459c3cda9e83989c211071c", "lon": -77.021812, "lat": 38.915007833333334, "type": "electric_scooter", "fusion_lon": 0.0, "is_reserved": 0, "bike_id": "cd5bb4fdd459c3cda9e83989c211071c", "fusion_lat": 0.0, "is_disabled": 0, "rental_uris": {"ios": "https://dc.lft.to/lastmile_qr_scan", "android": "https://dc.lft.to/lastmile_qr_scan"}}, {"name": "f9ef5da1cc411b13f63729ceb7b4a508", "lon": -77.05122116666666, "lat": 38.90581366666667, "type": "electric_scooter", "fusion_lon": 0.0, "is_reserved": 0, "bike_id": "f9ef5da1cc411b13f63729ceb7b4a508", "fusion_lat": 0.0, "is_disabled": 0, "rental_uris": {"ios": "https://dc.lft.to/lastmile_qr_scan", "android": "https://dc.lft.to/lastmile_qr_scan"}}, {"name": "3e7c671dfdbe2006d3884d9eedf2b623", "lon": -77.03258616666666, "lat": 38.9427445, "type": "electric_scooter", "fusion_lon": 0.0, "is_reserved": 0, "bike_id": "3e7c671dfdbe2006d3884d9eedf2b623", "fusion_lat": 0.0, "is_disabled": 0, "rental_uris": {"ios": "https://dc.lft.to/lastmile_qr_scan", "android": "https://dc.lft.to/lastmile_qr_scan"}}, {"name": "d2622d41fdfce651feb1d37fc019bb08", "lon": -77.05214233333334, "lat": 38.9248205, "type": "electric_scooter", "fusion_lon": 0.0, "is_reserved": 0, "bike_id": "d2622d41fdfce651feb1d37fc019bb08", "fusion_lat": 0.0, "is_disabled": 0, "rental_uris": {"ios": "https://dc.lft.to/lastmile_qr_scan", "android": "https://dc.lft.to/lastmile_qr_scan"}}, {"name": "e672956fe1cccad78fb53e2a59299b16", "lon": -76.99376, "lat": 38.971858166666664, "type": "electric_bike", "fusion_lon": 0.0, "is_reserved": 0, "bike_id": "e672956fe1cccad78fb53e2a59299b16", "fusion_lat": 0.0, "is_disabled": 0, "rental_uris": {"ios": "https://dc.lft.to/lastmile_qr_scan", "android": "https://dc.lft.to/lastmile_qr_scan"}}, {"name": "b9918b92b9e083daa3e3605a1b9856e7", "lon": -77.027508, "lat": 38.95167816666667, "type": "electric_scooter", "fusion_lon": 0.0, "is_reserved": 0, "bike_id": "b9918b92b9e083daa3e3605a1b9856e7", "fusion_lat": 0.0, "is_disabled": 0, "rental_uris": {"ios": "https://dc.lft.to/lastmile_qr_scan", "android": "https://dc.lft.to/lastmile_qr_scan"}}, {"name": "8ad36b313c76c0cfed9532528d9cc332", "lon": -77.09476516666666, "lat": 39.030449833333336, "type": "electric_bike", "fusion_lon": 0.0, "is_reserved": 0, "bike_id": "8ad36b313c76c0cfed9532528d9cc332", "fusion_lat": 0.0, "is_disabled": 0, "rental_uris": {"ios": "https://dc.lft.to/lastmile_qr_scan", "android": "https://dc.lft.to/lastmile_qr_scan"}}, {"name": "e934d10442780e3c3b6c0faba9d2468c", "lon": -77.01188366666666, "lat": 38.90027333333333, "type": "electric_scooter", "fusion_lon": 0.0, "is_reserved": 0, "bike_id": "e934d10442780e3c3b6c0faba9d2468c", "fusion_lat": 0.0, "is_disabled": 0, "rental_uris": {"ios": "https://dc.lft.to/lastmile_qr_scan", "android": "https://dc.lft.to/lastmile_qr_scan"}}, {"name": "aa3d1dd4426a44c7ebee5651ac392e8c", "lon": -77.03436883333333, "lat": 38.9101535, "type": "electric_scooter", "fusion_lon": 0.0, "is_reserved": 0, "bike_id": "aa3d1dd4426a44c7ebee5651ac392e8c", "fusion_lat": 0.0, "is_disabled": 0, "rental_uris": {"ios": "https://dc.lft.to/lastmile_qr_scan", "android": "https://dc.lft.to/lastmile_qr_scan"}}, {"name": "de5a497f68a51a57f959d8e8018234cc", "lon": -77.02386133333333, "lat": 38.91651516666667, "type": "electric_scooter", "fusion_lon": 0.0, "is_reserved": 0, "bike_id": "de5a497f68a51a57f959d8e8018234cc", "fusion_lat": 0.0, "is_disabled": 0, "rental_uris": {"ios": "https://dc.lft.to/lastmile_qr_scan", "android": "https://dc.lft.to/lastmile_qr_scan"}}, {"name": "661defc660a4286b71406236183d3767", "lon": -77.000713, "lat": 38.90141033333333, "type": "electric_scooter", "fusion_lon": 0.0, "is_reserved": 0, "bike_id": "661defc660a4286b71406236183d3767", "fusion_lat": 0.0, "is_disabled": 0, "rental_uris": {"ios": "https://dc.lft.to/lastmile_qr_scan", "android": "https://dc.lft.to/lastmile_qr_scan"}}, {"name": "9cfe9b8964cc0f9abcbab8b5a5561d78", "lon": -77.02961416666666, "lat": 38.939863833333334, "type": "electric_scooter", "fusion_lon": 0.0, "is_reserved": 0, "bike_id": "9cfe9b8964cc0f9abcbab8b5a5561d78", "fusion_lat": 0.0, "is_disabled": 0, "rental_uris": {"ios": "https://dc.lft.to/lastmile_qr_scan", "android": "https://dc.lft.to/lastmile_qr_scan"}}, {"name": "9757ab86415b5860e144c7a28308cfd8", "lon": -77.03702716666666, "lat": 38.9203605, "type": "electric_bike", "fusion_lon": 0.0, "is_reserved": 0, "bike_id": "9757ab86415b5860e144c7a28308cfd8", "fusion_lat": 0.0, "is_disabled": 0, "rental_uris": {"ios": "https://dc.lft.to/lastmile_qr_scan", "android": "https://dc.lft.to/lastmile_qr_scan"}}, {"name": "d6c9ac17ac7c3a3a18d3f6e8da2dec80", "lon": -77.0258855, "lat": 38.96395066666667, "type": "electric_scooter", "fusion_lon": 0.0, "is_reserved": 0, "bike_id": "d6c9ac17ac7c3a3a18d3f6e8da2dec80", "fusion_lat": 0.0, "is_disabled": 0, "rental_uris": {"ios": "https://dc.lft.to/lastmile_qr_scan", "android": "https://dc.lft.to/lastmile_qr_scan"}}, {"name": "adb67fbd62df8a48c7ff15075b0a2ea1", "lon": -77.01604716666667, "lat": 38.89962366666666, "type": "electric_scooter", "fusion_lon": 0.0, "is_reserved": 0, "bike_id": "adb67fbd62df8a48c7ff15075b0a2ea1", "fusion_lat": 0.0, "is_disabled": 0, "rental_uris": {"ios": "https://dc.lft.to/lastmile_qr_scan", "android": "https://dc.lft.to/lastmile_qr_scan"}}, {"name": "438d8e1a83f140cbbfdb2664573c7cf3", "lon": -77.06075533333333, "lat": 38.885853166666664, "type": "electric_bike", "fusion_lon": 0.0, "is_reserved": 0, "bike_id": "438d8e1a83f140cbbfdb2664573c7cf3", "fusion_lat": 0.0, "is_disabled": 0, "rental_uris": {"ios": "https://dc.lft.to/lastmile_qr_scan", "android": "https://dc.lft.to/lastmile_qr_scan"}}, {"name": "4143370dfbfcf9170cbdc7447c25a135", "lon": -77.13106, "lat": 39.024333, "type": "electric_bike", "fusion_lon": 0.0, "is_reserved": 0, "bike_id": "4143370dfbfcf9170cbdc7447c25a135", "fusion_lat": 0.0, "is_disabled": 0, "rental_uris": {"ios": "https://dc.lft.to/lastmile_qr_scan", "android": "https://dc.lft.to/lastmile_qr_scan"}}, {"name": "a771ad24fd2848ea07544544d256de27", "lon": -77.02544066666667, "lat": 38.9422105, "type": "electric_scooter", "fusion_lon": 0.0, "is_reserved": 0, "bike_id": "a771ad24fd2848ea07544544d256de27", "fusion_lat": 0.0, "is_disabled": 0, "rental_uris": {"ios": "https://dc.lft.to/lastmile_qr_scan", "android": "https://dc.lft.to/lastmile_qr_scan"}}, {"name": "1e809890a61696479fc5d93be68ac9bf", "lon": -76.9652895, "lat": 38.87628433333333, "type": "electric_scooter", "fusion_lon": 0.0, "is_reserved": 0, "bike_id": "1e809890a61696479fc5d93be68ac9bf", "fusion_lat": 0.0, "is_disabled": 0, "rental_uris": {"ios": "https://dc.lft.to/lastmile_qr_scan", "android": "https://dc.lft.to/lastmile_qr_scan"}}, {"name": "97a5f6ef9c1a0e79fbaaa9ed804e3346", "lon": -76.93139316666667, "lat": 38.89334916666667, "type": "electric_scooter", "fusion_lon": 0.0, "is_reserved": 0, "bike_id": "97a5f6ef9c1a0e79fbaaa9ed804e3346", "fusion_lat": 0.0, "is_disabled": 0, "rental_uris": {"ios": "https://dc.lft.to/lastmile_qr_scan", "android": "https://dc.lft.to/lastmile_qr_scan"}}, {"name": "b9172c1935e0a117e1131ce7566a75db", "lon": -77.02687416666667, "lat": 38.904084833333336, "type": "electric_scooter", "fusion_lon": 0.0, "is_reserved": 0, "bike_id": "b9172c1935e0a117e1131ce7566a75db", "fusion_lat": 0.0, "is_disabled": 0, "rental_uris": {"ios": "https://dc.lft.to/lastmile_qr_scan", "android": "https://dc.lft.to/lastmile_qr_scan"}}, {"name": "28f476e943b8257abbbec1ec857555cf", "lon": -77.02759, "lat": 38.95425633333333, "type": "electric_scooter", "fusion_lon": 0.0, "is_reserved": 0, "bike_id": "28f476e943b8257abbbec1ec857555cf", "fusion_lat": 0.0, "is_disabled": 0, "rental_uris": {"ios": "https://dc.lft.to/lastmile_qr_scan", "android": "https://dc.lft.to/lastmile_qr_scan"}}, {"name": "97556c05c6eecb1c8cc675e64b951027", "lon": -77.02782366666666, "lat": 38.899312333333334, "type": "electric_scooter", "fusion_lon": 0.0, "is_reserved": 0, "bike_id": "97556c05c6eecb1c8cc675e64b951027", "fusion_lat": 0.0, "is_disabled": 0, "rental_uris": {"ios": "https://dc.lft.to/lastmile_qr_scan", "android": "https://dc.lft.to/lastmile_qr_scan"}}, {"name": "344b45f156be28425c8bd17cdb3367d1", "lon": -77.03443783333333, "lat": 38.918117333333335, "type": "electric_scooter", "fusion_lon": 0.0, "is_reserved": 0, "bike_id": "344b45f156be28425c8bd17cdb3367d1", "fusion_lat": 0.0, "is_disabled": 0, "rental_uris": {"ios": "https://dc.lft.to/lastmile_qr_scan", "android": "https://dc.lft.to/lastmile_qr_scan"}}, {"name": "006c0f371d3cb5c5cbbc2df38ace03e6", "lon": -77.04795733333333, "lat": 38.893751, "type": "electric_scooter", "fusion_lon": 0.0, "is_reserved": 0, "bike_id": "006c0f371d3cb5c5cbbc2df38ace03e6", "fusion_lat": 0.0, "is_disabled": 0, "rental_uris": {"ios": "https://dc.lft.to/lastmile_qr_scan", "android": "https://dc.lft.to/lastmile_qr_scan"}}, {"name": "75e0dfb1d235b2655c2f4d59b2afcf09", "lon": -77.0714535, "lat": 38.94555783333333, "type": "electric_scooter", "fusion_lon": 0.0, "is_reserved": 0, "bike_id": "75e0dfb1d235b2655c2f4d59b2afcf09", "fusion_lat": 0.0, "is_disabled": 0, "rental_uris": {"ios": "https://dc.lft.to/lastmile_qr_scan", "android": "https://dc.lft.to/lastmile_qr_scan"}}, {"name": "143f7d0fef370cf670d5768f34907b7c", "lon": -77.0217105, "lat": 38.94297016666667, "type": "electric_scooter", "fusion_lon": 0.0, "is_reserved": 0, "bike_id": "143f7d0fef370cf670d5768f34907b7c", "fusion_lat": 0.0, "is_disabled": 0, "rental_uris": {"ios": "https://dc.lft.to/lastmile_qr_scan", "android": "https://dc.lft.to/lastmile_qr_scan"}}, {"name": "83a0e8936d6c3e2e262d05e57114a7ac", "lon": -77.01602033333333, "lat": 38.89962116666667, "type": "electric_scooter", "fusion_lon": 0.0, "is_reserved": 0, "bike_id": "83a0e8936d6c3e2e262d05e57114a7ac", "fusion_lat": 0.0, "is_disabled": 0, "rental_uris": {"ios": "https://dc.lft.to/lastmile_qr_scan", "android": "https://dc.lft.to/lastmile_qr_scan"}}, {"name": "e12b4f381cc890322cee53b8598877b4", "lon": -76.97972116666666, "lat": 38.9537725, "type": "electric_bike", "fusion_lon": 0.0, "is_reserved": 0, "bike_id": "e12b4f381cc890322cee53b8598877b4", "fusion_lat": 0.0, "is_disabled": 0, "rental_uris": {"ios": "https://dc.lft.to/lastmile_qr_scan", "android": "https://dc.lft.to/lastmile_qr_scan"}}, {"name": "2f4559afa26dc34ca69e4bae9a516530", "lon": -77.02629033333334, "lat": 38.962264, "type": "electric_bike", "fusion_lon": 0.0, "is_reserved": 0, "bike_id": "2f4559afa26dc34ca69e4bae9a516530", "fusion_lat": 0.0, "is_disabled": 0, "rental_uris": {"ios": "https://dc.lft.to/lastmile_qr_scan", "android": "https://dc.lft.to/lastmile_qr_scan"}}, {"name": "55db53b2212b3ef8c1b09b057154386f", "lon": -77.07729483333334, "lat": 38.922634, "type": "electric_bike", "fusion_lon": 0.0, "is_reserved": 0, "bike_id": "55db53b2212b3ef8c1b09b057154386f", "fusion_lat": 0.0, "is_disabled": 0, "rental_uris": {"ios": "https://dc.lft.to/lastmile_qr_scan", "android": "https://dc.lft.to/lastmile_qr_scan"}}, {"name": "b9d4c007e6c797c64a22d27b42b6d670", "lon": -77.0439465, "lat": 38.91420266666667, "type": "electric_scooter", "fusion_lon": 0.0, "is_reserved": 0, "bike_id": "b9d4c007e6c797c64a22d27b42b6d670", "fusion_lat": 0.0, "is_disabled": 0, "rental_uris": {"ios": "https://dc.lft.to/lastmile_qr_scan", "android": "https://dc.lft.to/lastmile_qr_scan"}}, {"name": "8a173fc7afedc6a7a8b964e3556c5165", "lon": -77.03266433333333, "lat": 38.9352695, "type": "electric_scooter", "fusion_lon": 0.0, "is_reserved": 0, "bike_id": "8a173fc7afedc6a7a8b964e3556c5165", "fusion_lat": 0.0, "is_disabled": 0, "rental_uris": {"ios": "https://dc.lft.to/lastmile_qr_scan", "android": "https://dc.lft.to/lastmile_qr_scan"}}, {"name": "4489b1907586c1ee0d828d083863f50a", "lon": -77.01760666666667, "lat": 38.90274683333333, "type": "electric_scooter", "fusion_lon": 0.0, "is_reserved": 0, "bike_id": "4489b1907586c1ee0d828d083863f50a", "fusion_lat": 0.0, "is_disabled": 0, "rental_uris": {"ios": "https://dc.lft.to/lastmile_qr_scan", "android": "https://dc.lft.to/lastmile_qr_scan"}}, {"name": "cf5b8d369d764af9cd8b5ebe939f723e", "lon": -77.02283933333334, "lat": 38.91679366666666, "type": "electric_scooter", "fusion_lon": 0.0, "is_reserved": 0, "bike_id": "cf5b8d369d764af9cd8b5ebe939f723e", "fusion_lat": 0.0, "is_disabled": 0, "rental_uris": {"ios": "https://dc.lft.to/lastmile_qr_scan", "android": "https://dc.lft.to/lastmile_qr_scan"}}, {"name": "9945be9d49734f6e83a2da8ba5f5ba06", "lon": -77.032681, "lat": 38.927473, "type": "electric_scooter", "fusion_lon": 0.0, "is_reserved": 0, "bike_id": "9945be9d49734f6e83a2da8ba5f5ba06", "fusion_lat": 0.0, "is_disabled": 0, "rental_uris": {"ios": "https://dc.lft.to/lastmile_qr_scan", "android": "https://dc.lft.to/lastmile_qr_scan"}}, {"name": "9f6525f37ed1c334efd808d2d2179487", "lon": -77.086004, "lat": 38.90867816666667, "type": "electric_scooter", "fusion_lon": 0.0, "is_reserved": 0, "bike_id": "9f6525f37ed1c334efd808d2d2179487", "fusion_lat": 0.0, "is_disabled": 0, "rental_uris": {"ios": "https://dc.lft.to/lastmile_qr_scan", "android": "https://dc.lft.to/lastmile_qr_scan"}}, {"name": "6843bfc7e6c2b08b1cb6236670c4288d", "lon": -77.0338165, "lat": 38.910486, "type": "electric_scooter", "fusion_lon": 0.0, "is_reserved": 0, "bike_id": "6843bfc7e6c2b08b1cb6236670c4288d", "fusion_lat": 0.0, "is_disabled": 0, "rental_uris": {"ios": "https://dc.lft.to/lastmile_qr_scan", "android": "https://dc.lft.to/lastmile_qr_scan"}}, {"name": "7c1c56840e64ac7bf1171dea89f8269f", "lon": -76.999484, "lat": 38.842969333333336, "type": "electric_scooter", "fusion_lon": 0.0, "is_reserved": 0, "bike_id": "7c1c56840e64ac7bf1171dea89f8269f", "fusion_lat": 0.0, "is_disabled": 0, "rental_uris": {"ios": "https://dc.lft.to/lastmile_qr_scan", "android": "https://dc.lft.to/lastmile_qr_scan"}}, {"name": "e2899ab7af1800439d775d4d61171d5f", "lon": -77.0432725, "lat": 38.89520616666667, "type": "electric_scooter", "fusion_lon": 0.0, "is_reserved": 0, "bike_id": "e2899ab7af1800439d775d4d61171d5f", "fusion_lat": 0.0, "is_disabled": 0, "rental_uris": {"ios": "https://dc.lft.to/lastmile_qr_scan", "android": "https://dc.lft.to/lastmile_qr_scan"}}, {"name": "1e371c9f5c479ffd0bac8acd5da10a1a", "lon": -76.95021216666666, "lat": 38.893901166666666, "type": "electric_scooter", "fusion_lon": 0.0, "is_reserved": 0, "bike_id": "1e371c9f5c479ffd0bac8acd5da10a1a", "fusion_lat": 0.0, "is_disabled": 0, "rental_uris": {"ios": "https://dc.lft.to/lastmile_qr_scan", "android": "https://dc.lft.to/lastmile_qr_scan"}}, {"name": "0d58f75d8579557caab58ee6a8661bf4", "lon": -76.98538683333334, "lat": 38.90956366666666, "type": "electric_scooter", "fusion_lon": 0.0, "is_reserved": 0, "bike_id": "0d58f75d8579557caab58ee6a8661bf4", "fusion_lat": 0.0, "is_disabled": 0, "rental_uris": {"ios": "https://dc.lft.to/lastmile_qr_scan", "android": "https://dc.lft.to/lastmile_qr_scan"}}, {"name": "df8059f2335b1cbd3284a0eb91602ca7", "lon": -77.03350283333333, "lat": 38.886269, "type": "electric_scooter", "fusion_lon": 0.0, "is_reserved": 0, "bike_id": "df8059f2335b1cbd3284a0eb91602ca7", "fusion_lat": 0.0, "is_disabled": 0, "rental_uris": {"ios": "https://dc.lft.to/lastmile_qr_scan", "android": "https://dc.lft.to/lastmile_qr_scan"}}, {"name": "3450571053a0114a92fdba637f7d68c6", "lon": -77.0273415, "lat": 38.927676, "type": "electric_scooter", "fusion_lon": 0.0, "is_reserved": 0, "bike_id": "3450571053a0114a92fdba637f7d68c6", "fusion_lat": 0.0, "is_disabled": 0, "rental_uris": {"ios": "https://dc.lft.to/lastmile_qr_scan", "android": "https://dc.lft.to/lastmile_qr_scan"}}, {"name": "4a476184614e7b29c64cbb032f8b2f6f", "lon": -77.02495733333333, "lat": 38.919795666666666, "type": "electric_scooter", "fusion_lon": 0.0, "is_reserved": 0, "bike_id": "4a476184614e7b29c64cbb032f8b2f6f", "fusion_lat": 0.0, "is_disabled": 0, "rental_uris": {"ios": "https://dc.lft.to/lastmile_qr_scan", "android": "https://dc.lft.to/lastmile_qr_scan"}}, {"name": "b6e0786135c6a6d54a4b934e1d16bc4d", "lon": -77.02433966666666, "lat": 38.95640866666667, "type": "electric_scooter", "fusion_lon": 0.0, "is_reserved": 0, "bike_id": "b6e0786135c6a6d54a4b934e1d16bc4d", "fusion_lat": 0.0, "is_disabled": 0, "rental_uris": {"ios": "https://dc.lft.to/lastmile_qr_scan", "android": "https://dc.lft.to/lastmile_qr_scan"}}, {"name": "43d956e3c02885280b70b0b8c489915d", "lon": -76.96464383333333, "lat": 38.934472166666666, "type": "electric_scooter", "fusion_lon": 0.0, "is_reserved": 0, "bike_id": "43d956e3c02885280b70b0b8c489915d", "fusion_lat": 0.0, "is_disabled": 0, "rental_uris": {"ios": "https://dc.lft.to/lastmile_qr_scan", "android": "https://dc.lft.to/lastmile_qr_scan"}}, {"name": "2fb5ed0747c1672d387879f197aa0c0c", "lon": -77.02368433333334, "lat": 38.879243833333334, "type": "electric_scooter", "fusion_lon": 0.0, "is_reserved": 0, "bike_id": "2fb5ed0747c1672d387879f197aa0c0c", "fusion_lat": 0.0, "is_disabled": 0, "rental_uris": {"ios": "https://dc.lft.to/lastmile_qr_scan", "android": "https://dc.lft.to/lastmile_qr_scan"}}, {"name": "0f61bd5e52a955ee520f5e5d3fea65d7", "lon": -77.02216083333333, "lat": 38.905776833333334, "type": "electric_scooter", "fusion_lon": 0.0, "is_reserved": 0, "bike_id": "0f61bd5e52a955ee520f5e5d3fea65d7", "fusion_lat": 0.0, "is_disabled": 0, "rental_uris": {"ios": "https://dc.lft.to/lastmile_qr_scan", "android": "https://dc.lft.to/lastmile_qr_scan"}}, {"name": "d490f1e13cd8b0c67bcf3e5ef17e7fae", "lon": -77.02530866666666, "lat": 38.942598, "type": "electric_scooter", "fusion_lon": 0.0, "is_reserved": 0, "bike_id": "d490f1e13cd8b0c67bcf3e5ef17e7fae", "fusion_lat": 0.0, "is_disabled": 0, "rental_uris": {"ios": "https://dc.lft.to/lastmile_qr_scan", "android": "https://dc.lft.to/lastmile_qr_scan"}}, {"name": "40171cde0eeda13943db60eeda24f948", "lon": -77.03660666666667, "lat": 38.90384916666667, "type": "electric_scooter", "fusion_lon": 0.0, "is_reserved": 0, "bike_id": "40171cde0eeda13943db60eeda24f948", "fusion_lat": 0.0, "is_disabled": 0, "rental_uris": {"ios": "https://dc.lft.to/lastmile_qr_scan", "android": "https://dc.lft.to/lastmile_qr_scan"}}, {"name": "b474a5b5966e7d4dcf7108aa694e28cd", "lon": -77.02883033333333, "lat": 38.91333733333333, "type": "electric_scooter", "fusion_lon": 0.0, "is_reserved": 0, "bike_id": "b474a5b5966e7d4dcf7108aa694e28cd", "fusion_lat": 0.0, "is_disabled": 0, "rental_uris": {"ios": "https://dc.lft.to/lastmile_qr_scan", "android": "https://dc.lft.to/lastmile_qr_scan"}}, {"name": "1665bde8fbe3c0fcc2957c5c2617d565", "lon": -77.03412716666666, "lat": 38.91920566666667, "type": "electric_scooter", "fusion_lon": 0.0, "is_reserved": 0, "bike_id": "1665bde8fbe3c0fcc2957c5c2617d565", "fusion_lat": 0.0, "is_disabled": 0, "rental_uris": {"ios": "https://dc.lft.to/lastmile_qr_scan", "android": "https://dc.lft.to/lastmile_qr_scan"}}, {"name": "92d6144ab79bd864ad73178c12be97dc", "lon": -77.0141965, "lat": 38.9057405, "type": "electric_bike", "fusion_lon": 0.0, "is_reserved": 0, "bike_id": "92d6144ab79bd864ad73178c12be97dc", "fusion_lat": 0.0, "is_disabled": 0, "rental_uris": {"ios": "https://dc.lft.to/lastmile_qr_scan", "android": "https://dc.lft.to/lastmile_qr_scan"}}, {"name": "aac76bccd0af53d482046baee97541b6", "lon": -77.04326383333333, "lat": 38.892269666666664, "type": "electric_scooter", "fusion_lon": 0.0, "is_reserved": 0, "bike_id": "aac76bccd0af53d482046baee97541b6", "fusion_lat": 0.0, "is_disabled": 0, "rental_uris": {"ios": "https://dc.lft.to/lastmile_qr_scan", "android": "https://dc.lft.to/lastmile_qr_scan"}}, {"name": "6cf25716e8bde812375ff8f699289507", "lon": -76.94610083333333, "lat": 38.832365, "type": "electric_bike", "fusion_lon": 0.0, "is_reserved": 0, "bike_id": "6cf25716e8bde812375ff8f699289507", "fusion_lat": 0.0, "is_disabled": 0, "rental_uris": {"ios": "https://dc.lft.to/lastmile_qr_scan", "android": "https://dc.lft.to/lastmile_qr_scan"}}, {"name": "3f8cd6bcfabb28820b8e7d434bc0afb3", "lon": -77.009271, "lat": 38.913452, "type": "electric_scooter", "fusion_lon": 0.0, "is_reserved": 0, "bike_id": "3f8cd6bcfabb28820b8e7d434bc0afb3", "fusion_lat": 0.0, "is_disabled": 0, "rental_uris": {"ios": "https://dc.lft.to/lastmile_qr_scan", "android": "https://dc.lft.to/lastmile_qr_scan"}}, {"name": "75e7ae9f756dfb5c47d6cc10ec633bae", "lon": -77.04980066666667, "lat": 39.06296, "type": "electric_bike", "fusion_lon": 0.0, "is_reserved": 0, "bike_id": "75e7ae9f756dfb5c47d6cc10ec633bae", "fusion_lat": 0.0, "is_disabled": 0, "rental_uris": {"ios": "https://dc.lft.to/lastmile_qr_scan", "android": "https://dc.lft.to/lastmile_qr_scan"}}, {"name": "e81c6780af0f5df36968f5c1dfb13c8a", "lon": -76.94247766666666, "lat": 38.89672083333333, "type": "electric_scooter", "fusion_lon": 0.0, "is_reserved": 0, "bike_id": "e81c6780af0f5df36968f5c1dfb13c8a", "fusion_lat": 0.0, "is_disabled": 0, "rental_uris": {"ios": "https://dc.lft.to/lastmile_qr_scan", "android": "https://dc.lft.to/lastmile_qr_scan"}}, {"name": "66d959e5e31af850a018f98a581f522c", "lon": -77.00887933333334, "lat": 38.924852666666666, "type": "electric_scooter", "fusion_lon": 0.0, "is_reserved": 0, "bike_id": "66d959e5e31af850a018f98a581f522c", "fusion_lat": 0.0, "is_disabled": 0, "rental_uris": {"ios": "https://dc.lft.to/lastmile_qr_scan", "android": "https://dc.lft.to/lastmile_qr_scan"}}, {"name": "8fde02dbcfece462022670ca61562b69", "lon": -77.057548, "lat": 38.925046333333334, "type": "electric_scooter", "fusion_lon": 0.0, "is_reserved": 0, "bike_id": "8fde02dbcfece462022670ca61562b69", "fusion_lat": 0.0, "is_disabled": 0, "rental_uris": {"ios": "https://dc.lft.to/lastmile_qr_scan", "android": "https://dc.lft.to/lastmile_qr_scan"}}, {"name": "4b922d9a20da22a9bdd8e1b57c9eba69", "lon": -77.03537166666666, "lat": 38.92540233333333, "type": "electric_scooter", "fusion_lon": 0.0, "is_reserved": 0, "bike_id": "4b922d9a20da22a9bdd8e1b57c9eba69", "fusion_lat": 0.0, "is_disabled": 0, "rental_uris": {"ios": "https://dc.lft.to/lastmile_qr_scan", "android": "https://dc.lft.to/lastmile_qr_scan"}}, {"name": "62800e3221821cef1a31866a60a6b6b8", "lon": -76.96626633333334, "lat": 38.8710335, "type": "electric_scooter", "fusion_lon": 0.0, "is_reserved": 0, "bike_id": "62800e3221821cef1a31866a60a6b6b8", "fusion_lat": 0.0, "is_disabled": 0, "rental_uris": {"ios": "https://dc.lft.to/lastmile_qr_scan", "android": "https://dc.lft.to/lastmile_qr_scan"}}, {"name": "b44a34a80691696a89ffd5bb493105ae", "lon": -77.001204, "lat": 38.9050635, "type": "electric_scooter", "fusion_lon": 0.0, "is_reserved": 0, "bike_id": "b44a34a80691696a89ffd5bb493105ae", "fusion_lat": 0.0, "is_disabled": 0, "rental_uris": {"ios": "https://dc.lft.to/lastmile_qr_scan", "android": "https://dc.lft.to/lastmile_qr_scan"}}, {"name": "33cf97e791ed77f0829a440c89162f2e", "lon": -77.03285016666666, "lat": 38.956403333333334, "type": "electric_scooter", "fusion_lon": 0.0, "is_reserved": 0, "bike_id": "33cf97e791ed77f0829a440c89162f2e", "fusion_lat": 0.0, "is_disabled": 0, "rental_uris": {"ios": "https://dc.lft.to/lastmile_qr_scan", "android": "https://dc.lft.to/lastmile_qr_scan"}}, {"name": "9dddadfec035d2498777b4766b836277", "lon": -77.03049583333333, "lat": 38.89855166666667, "type": "electric_scooter", "fusion_lon": 0.0, "is_reserved": 0, "bike_id": "9dddadfec035d2498777b4766b836277", "fusion_lat": 0.0, "is_disabled": 0, "rental_uris": {"ios": "https://dc.lft.to/lastmile_qr_scan", "android": "https://dc.lft.to/lastmile_qr_scan"}}, {"name": "d59883d6ed240efceedf88532333dc1d", "lon": -77.02927366666667, "lat": 38.896199833333334, "type": "electric_scooter", "fusion_lon": 0.0, "is_reserved": 0, "bike_id": "d59883d6ed240efceedf88532333dc1d", "fusion_lat": 0.0, "is_disabled": 0, "rental_uris": {"ios": "https://dc.lft.to/lastmile_qr_scan", "android": "https://dc.lft.to/lastmile_qr_scan"}}, {"name": "ce8fac75d392669144959b5927946d0e", "lon": -77.0239495, "lat": 38.92757183333333, "type": "electric_bike", "fusion_lon": 0.0, "is_reserved": 0, "bike_id": "ce8fac75d392669144959b5927946d0e", "fusion_lat": 0.0, "is_disabled": 0, "rental_uris": {"ios": "https://dc.lft.to/lastmile_qr_scan", "android": "https://dc.lft.to/lastmile_qr_scan"}}, {"name": "9effa5d0df057e999f23fa92b81d9365", "lon": -77.03636466666667, "lat": 38.927474, "type": "electric_scooter", "fusion_lon": 0.0, "is_reserved": 0, "bike_id": "9effa5d0df057e999f23fa92b81d9365", "fusion_lat": 0.0, "is_disabled": 0, "rental_uris": {"ios": "https://dc.lft.to/lastmile_qr_scan", "android": "https://dc.lft.to/lastmile_qr_scan"}}, {"name": "e86fb44e7ce4b6530a87e65aee89e5ee", "lon": -77.11047566666667, "lat": 38.870728666666665, "type": "electric_bike", "fusion_lon": 0.0, "is_reserved": 0, "bike_id": "e86fb44e7ce4b6530a87e65aee89e5ee", "fusion_lat": 0.0, "is_disabled": 0, "rental_uris": {"ios": "https://dc.lft.to/lastmile_qr_scan", "android": "https://dc.lft.to/lastmile_qr_scan"}}, {"name": "50ef9f9aa800e3fe35ed95f507a57d71", "lon": -77.04651116666666, "lat": 38.9054735, "type": "electric_scooter", "fusion_lon": 0.0, "is_reserved": 0, "bike_id": "50ef9f9aa800e3fe35ed95f507a57d71", "fusion_lat": 0.0, "is_disabled": 0, "rental_uris": {"ios": "https://dc.lft.to/lastmile_qr_scan", "android": "https://dc.lft.to/lastmile_qr_scan"}}, {"name": "ea79660528de9a3e4aff4592d8b3d81f", "lon": -76.9962275, "lat": 38.900999166666665, "type": "electric_scooter", "fusion_lon": 0.0, "is_reserved": 0, "bike_id": "ea79660528de9a3e4aff4592d8b3d81f", "fusion_lat": 0.0, "is_disabled": 0, "rental_uris": {"ios": "https://dc.lft.to/lastmile_qr_scan", "android": "https://dc.lft.to/lastmile_qr_scan"}}, {"name": "5809ff8de7f23a7ee76366b070e3771f", "lon": -76.9319635, "lat": 38.89880983333333, "type": "electric_scooter", "fusion_lon": 0.0, "is_reserved": 0, "bike_id": "5809ff8de7f23a7ee76366b070e3771f", "fusion_lat": 0.0, "is_disabled": 0, "rental_uris": {"ios": "https://dc.lft.to/lastmile_qr_scan", "android": "https://dc.lft.to/lastmile_qr_scan"}}, {"name": "a7793172e845d9f257a698bc8649eb5f", "lon": -77.11604766666666, "lat": 38.854816166666666, "type": "electric_bike", "fusion_lon": 0.0, "is_reserved": 0, "bike_id": "a7793172e845d9f257a698bc8649eb5f", "fusion_lat": 0.0, "is_disabled": 0, "rental_uris": {"ios": "https://dc.lft.to/lastmile_qr_scan", "android": "https://dc.lft.to/lastmile_qr_scan"}}, {"name": "2cf580bd7ff885296512c85fa32d47ce", "lon": -77.0270295, "lat": 38.92881166666667, "type": "electric_scooter", "fusion_lon": 0.0, "is_reserved": 0, "bike_id": "2cf580bd7ff885296512c85fa32d47ce", "fusion_lat": 0.0, "is_disabled": 0, "rental_uris": {"ios": "https://dc.lft.to/lastmile_qr_scan", "android": "https://dc.lft.to/lastmile_qr_scan"}}, {"name": "d6b2a2ced2ddb251feb555ae8d43775a", "lon": -76.99900566666666, "lat": 38.94816933333333, "type": "electric_scooter", "fusion_lon": 0.0, "is_reserved": 0, "bike_id": "d6b2a2ced2ddb251feb555ae8d43775a", "fusion_lat": 0.0, "is_disabled": 0, "rental_uris": {"ios": "https://dc.lft.to/lastmile_qr_scan", "android": "https://dc.lft.to/lastmile_qr_scan"}}, {"name": "4bfc2a9bedfcc5e231b705cbe99ca4ec", "lon": -77.03263, "lat": 38.935227166666664, "type": "electric_scooter", "fusion_lon": 0.0, "is_reserved": 0, "bike_id": "4bfc2a9bedfcc5e231b705cbe99ca4ec", "fusion_lat": 0.0, "is_disabled": 0, "rental_uris": {"ios": "https://dc.lft.to/lastmile_qr_scan", "android": "https://dc.lft.to/lastmile_qr_scan"}}, {"name": "f3212639195d19ebc52112440614cc2d", "lon": -77.02934266666666, "lat": 38.89947383333333, "type": "electric_scooter", "fusion_lon": 0.0, "is_reserved": 0, "bike_id": "f3212639195d19ebc52112440614cc2d", "fusion_lat": 0.0, "is_disabled": 0, "rental_uris": {"ios": "https://dc.lft.to/lastmile_qr_scan", "android": "https://dc.lft.to/lastmile_qr_scan"}}, {"name": "df57aed069e48cee094b327cabe4b247", "lon": -77.027136, "lat": 38.924603, "type": "electric_scooter", "fusion_lon": 0.0, "is_reserved": 0, "bike_id": "df57aed069e48cee094b327cabe4b247", "fusion_lat": 0.0, "is_disabled": 0, "rental_uris": {"ios": "https://dc.lft.to/lastmile_qr_scan", "android": "https://dc.lft.to/lastmile_qr_scan"}}, {"name": "9a40dd62a3b33d0978c57d2137b38aaf", "lon": -77.02286033333333, "lat": 38.9159595, "type": "electric_scooter", "fusion_lon": 0.0, "is_reserved": 0, "bike_id": "9a40dd62a3b33d0978c57d2137b38aaf", "fusion_lat": 0.0, "is_disabled": 0, "rental_uris": {"ios": "https://dc.lft.to/lastmile_qr_scan", "android": "https://dc.lft.to/lastmile_qr_scan"}}, {"name": "b9247bb45acce3e5b2feb4b3c80c2942", "lon": -77.1273335, "lat": 38.89567016666667, "type": "electric_bike", "fusion_lon": 0.0, "is_reserved": 0, "bike_id": "b9247bb45acce3e5b2feb4b3c80c2942", "fusion_lat": 0.0, "is_disabled": 0, "rental_uris": {"ios": "https://dc.lft.to/lastmile_qr_scan", "android": "https://dc.lft.to/lastmile_qr_scan"}}, {"name": "fd6138e9b41ef7c121da4a3898272a63", "lon": -76.9463955, "lat": 38.89844983333333, "type": "electric_scooter", "fusion_lon": 0.0, "is_reserved": 0, "bike_id": "fd6138e9b41ef7c121da4a3898272a63", "fusion_lat": 0.0, "is_disabled": 0, "rental_uris": {"ios": "https://dc.lft.to/lastmile_qr_scan", "android": "https://dc.lft.to/lastmile_qr_scan"}}, {"name": "1711c874066d28cfc86f205c8088bd31", "lon": -77.01647116666666, "lat": 38.903944833333334, "type": "electric_scooter", "fusion_lon": 0.0, "is_reserved": 0, "bike_id": "1711c874066d28cfc86f205c8088bd31", "fusion_lat": 0.0, "is_disabled": 0, "rental_uris": {"ios": "https://dc.lft.to/lastmile_qr_scan", "android": "https://dc.lft.to/lastmile_qr_scan"}}, {"name": "d26934af32455633e6b52a16d3c66c09", "lon": -77.04179866666666, "lat": 38.91557683333333, "type": "electric_scooter", "fusion_lon": 0.0, "is_reserved": 0, "bike_id": "d26934af32455633e6b52a16d3c66c09", "fusion_lat": 0.0, "is_disabled": 0, "rental_uris": {"ios": "https://dc.lft.to/lastmile_qr_scan", "android": "https://dc.lft.to/lastmile_qr_scan"}}, {"name": "b1fac3536b23faf173e40d4ff7ba2233", "lon": -77.02415416666666, "lat": 38.92085816666667, "type": "electric_scooter", "fusion_lon": 0.0, "is_reserved": 0, "bike_id": "b1fac3536b23faf173e40d4ff7ba2233", "fusion_lat": 0.0, "is_disabled": 0, "rental_uris": {"ios": "https://dc.lft.to/lastmile_qr_scan", "android": "https://dc.lft.to/lastmile_qr_scan"}}, {"name": "a2981980eaddffc8449045c0cd204741", "lon": -76.97628733333333, "lat": 38.90576983333333, "type": "electric_scooter", "fusion_lon": 0.0, "is_reserved": 0, "bike_id": "a2981980eaddffc8449045c0cd204741", "fusion_lat": 0.0, "is_disabled": 0, "rental_uris": {"ios": "https://dc.lft.to/lastmile_qr_scan", "android": "https://dc.lft.to/lastmile_qr_scan"}}, {"name": "4ccac90aa00b14d6179de3d3daaac9da", "lon": -77.1252815, "lat": 39.05634966666667, "type": "electric_bike", "fusion_lon": 0.0, "is_reserved": 0, "bike_id": "4ccac90aa00b14d6179de3d3daaac9da", "fusion_lat": 0.0, "is_disabled": 0, "rental_uris": {"ios": "https://dc.lft.to/lastmile_qr_scan", "android": "https://dc.lft.to/lastmile_qr_scan"}}, {"name": "9d820838809503cf6a9f5ad2b8c997cf", "lon": -77.02677733333333, "lat": 38.927881166666666, "type": "electric_scooter", "fusion_lon": 0.0, "is_reserved": 0, "bike_id": "9d820838809503cf6a9f5ad2b8c997cf", "fusion_lat": 0.0, "is_disabled": 0, "rental_uris": {"ios": "https://dc.lft.to/lastmile_qr_scan", "android": "https://dc.lft.to/lastmile_qr_scan"}}, {"name": "1726dda761bb112396a3647a696e75ec", "lon": -77.00737466666666, "lat": 38.89852283333333, "type": "electric_scooter", "fusion_lon": 0.0, "is_reserved": 0, "bike_id": "1726dda761bb112396a3647a696e75ec", "fusion_lat": 0.0, "is_disabled": 0, "rental_uris": {"ios": "https://dc.lft.to/lastmile_qr_scan", "android": "https://dc.lft.to/lastmile_qr_scan"}}, {"name": "f9e89354c099bca0b4d882edd6c32ffa", "lon": -77.01136833333334, "lat": 38.91703233333333, "type": "electric_scooter", "fusion_lon": 0.0, "is_reserved": 0, "bike_id": "f9e89354c099bca0b4d882edd6c32ffa", "fusion_lat": 0.0, "is_disabled": 0, "rental_uris": {"ios": "https://dc.lft.to/lastmile_qr_scan", "android": "https://dc.lft.to/lastmile_qr_scan"}}, {"name": "434c76b320c4195fe6ab45b52320da2a", "lon": -77.03308233333334, "lat": 38.956170666666665, "type": "electric_scooter", "fusion_lon": 0.0, "is_reserved": 0, "bike_id": "434c76b320c4195fe6ab45b52320da2a", "fusion_lat": 0.0, "is_disabled": 0, "rental_uris": {"ios": "https://dc.lft.to/lastmile_qr_scan", "android": "https://dc.lft.to/lastmile_qr_scan"}}, {"name": "96c793c18dba08cb01b3b7d8ece94550", "lon": -77.05699016666667, "lat": 38.906187333333335, "type": "electric_scooter", "fusion_lon": 0.0, "is_reserved": 0, "bike_id": "96c793c18dba08cb01b3b7d8ece94550", "fusion_lat": 0.0, "is_disabled": 0, "rental_uris": {"ios": "https://dc.lft.to/lastmile_qr_scan", "android": "https://dc.lft.to/lastmile_qr_scan"}}, {"name": "212328e79ebec750436f2ac664c63e1a", "lon": -77.03957483333333, "lat": 38.93060666666667, "type": "electric_scooter", "fusion_lon": 0.0, "is_reserved": 0, "bike_id": "212328e79ebec750436f2ac664c63e1a", "fusion_lat": 0.0, "is_disabled": 0, "rental_uris": {"ios": "https://dc.lft.to/lastmile_qr_scan", "android": "https://dc.lft.to/lastmile_qr_scan"}}, {"name": "97815a322aa8b584294df14ab6ea0503", "lon": -76.98610283333333, "lat": 38.86526933333333, "type": "electric_scooter", "fusion_lon": 0.0, "is_reserved": 0, "bike_id": "97815a322aa8b584294df14ab6ea0503", "fusion_lat": 0.0, "is_disabled": 0, "rental_uris": {"ios": "https://dc.lft.to/lastmile_qr_scan", "android": "https://dc.lft.to/lastmile_qr_scan"}}, {"name": "779beec8b8029ca905fafd58604cec47", "lon": -77.0239465, "lat": 38.9199235, "type": "electric_scooter", "fusion_lon": 0.0, "is_reserved": 0, "bike_id": "779beec8b8029ca905fafd58604cec47", "fusion_lat": 0.0, "is_disabled": 0, "rental_uris": {"ios": "https://dc.lft.to/lastmile_qr_scan", "android": "https://dc.lft.to/lastmile_qr_scan"}}, {"name": "be4d0314a42c83f123134e49cb094410", "lon": -77.03814783333333, "lat": 38.906818, "type": "electric_scooter", "fusion_lon": 0.0, "is_reserved": 0, "bike_id": "be4d0314a42c83f123134e49cb094410", "fusion_lat": 0.0, "is_disabled": 0, "rental_uris": {"ios": "https://dc.lft.to/lastmile_qr_scan", "android": "https://dc.lft.to/lastmile_qr_scan"}}, {"name": "bd2c2902d57f043d5301dc707f3c2949", "lon": -76.99738733333334, "lat": 38.90135183333334, "type": "electric_scooter", "fusion_lon": 0.0, "is_reserved": 0, "bike_id": "bd2c2902d57f043d5301dc707f3c2949", "fusion_lat": 0.0, "is_disabled": 0, "rental_uris": {"ios": "https://dc.lft.to/lastmile_qr_scan", "android": "https://dc.lft.to/lastmile_qr_scan"}}, {"name": "511f95d52ad7e3e7cebb76c294672387", "lon": -77.0629695, "lat": 38.904004, "type": "electric_scooter", "fusion_lon": 0.0, "is_reserved": 0, "bike_id": "511f95d52ad7e3e7cebb76c294672387", "fusion_lat": 0.0, "is_disabled": 0, "rental_uris": {"ios": "https://dc.lft.to/lastmile_qr_scan", "android": "https://dc.lft.to/lastmile_qr_scan"}}, {"name": "8767025ef57ab0c4361fafbc28e87ec3", "lon": -76.986923, "lat": 38.86255883333333, "type": "electric_scooter", "fusion_lon": 0.0, "is_reserved": 0, "bike_id": "8767025ef57ab0c4361fafbc28e87ec3", "fusion_lat": 0.0, "is_disabled": 0, "rental_uris": {"ios": "https://dc.lft.to/lastmile_qr_scan", "android": "https://dc.lft.to/lastmile_qr_scan"}}, {"name": "60f9e112feea2237af9ce530fa527fb9", "lon": -77.02724333333333, "lat": 38.9341965, "type": "electric_scooter", "fusion_lon": 0.0, "is_reserved": 0, "bike_id": "60f9e112feea2237af9ce530fa527fb9", "fusion_lat": 0.0, "is_disabled": 0, "rental_uris": {"ios": "https://dc.lft.to/lastmile_qr_scan", "android": "https://dc.lft.to/lastmile_qr_scan"}}, {"name": "3421e18f17fc109c41898ed97c408111", "lon": -77.02640666666667, "lat": 38.891982166666665, "type": "electric_scooter", "fusion_lon": 0.0, "is_reserved": 0, "bike_id": "3421e18f17fc109c41898ed97c408111", "fusion_lat": 0.0, "is_disabled": 0, "rental_uris": {"ios": "https://dc.lft.to/lastmile_qr_scan", "android": "https://dc.lft.to/lastmile_qr_scan"}}, {"name": "58640a0bfe492977ba3340f9c1c6b9cd", "lon": -77.03272266666667, "lat": 38.93670516666667, "type": "electric_scooter", "fusion_lon": 0.0, "is_reserved": 0, "bike_id": "58640a0bfe492977ba3340f9c1c6b9cd", "fusion_lat": 0.0, "is_disabled": 0, "rental_uris": {"ios": "https://dc.lft.to/lastmile_qr_scan", "android": "https://dc.lft.to/lastmile_qr_scan"}}, {"name": "9b827091eda98a27eeab42446174be84", "lon": -77.01437366666667, "lat": 38.919622833333335, "type": "electric_scooter", "fusion_lon": 0.0, "is_reserved": 0, "bike_id": "9b827091eda98a27eeab42446174be84", "fusion_lat": 0.0, "is_disabled": 0, "rental_uris": {"ios": "https://dc.lft.to/lastmile_qr_scan", "android": "https://dc.lft.to/lastmile_qr_scan"}}, {"name": "32393e27ed5ef973e4fd6b19a6c10fe7", "lon": -77.02764166666667, "lat": 38.95426466666667, "type": "electric_scooter", "fusion_lon": 0.0, "is_reserved": 0, "bike_id": "32393e27ed5ef973e4fd6b19a6c10fe7", "fusion_lat": 0.0, "is_disabled": 0, "rental_uris": {"ios": "https://dc.lft.to/lastmile_qr_scan", "android": "https://dc.lft.to/lastmile_qr_scan"}}, {"name": "3ced0d8d64a5ada796e089b7a34bd31e", "lon": -77.0533515, "lat": 38.92353283333333, "type": "electric_scooter", "fusion_lon": 0.0, "is_reserved": 0, "bike_id": "3ced0d8d64a5ada796e089b7a34bd31e", "fusion_lat": 0.0, "is_disabled": 0, "rental_uris": {"ios": "https://dc.lft.to/lastmile_qr_scan", "android": "https://dc.lft.to/lastmile_qr_scan"}}, {"name": "e38bfe04a07640cfed079bf0c4f95469", "lon": -77.06331583333333, "lat": 38.9076855, "type": "electric_scooter", "fusion_lon": 0.0, "is_reserved": 0, "bike_id": "e38bfe04a07640cfed079bf0c4f95469", "fusion_lat": 0.0, "is_disabled": 0, "rental_uris": {"ios": "https://dc.lft.to/lastmile_qr_scan", "android": "https://dc.lft.to/lastmile_qr_scan"}}, {"name": "9100c8ba2d16d3072e1d0666b6b164ca", "lon": -77.03067383333334, "lat": 38.9225025, "type": "electric_scooter", "fusion_lon": 0.0, "is_reserved": 0, "bike_id": "9100c8ba2d16d3072e1d0666b6b164ca", "fusion_lat": 0.0, "is_disabled": 0, "rental_uris": {"ios": "https://dc.lft.to/lastmile_qr_scan", "android": "https://dc.lft.to/lastmile_qr_scan"}}, {"name": "6fd2a1f222b9aa155c17aacafabccbf9", "lon": -77.02195216666667, "lat": 38.90199616666666, "type": "electric_scooter", "fusion_lon": 0.0, "is_reserved": 0, "bike_id": "6fd2a1f222b9aa155c17aacafabccbf9", "fusion_lat": 0.0, "is_disabled": 0, "rental_uris": {"ios": "https://dc.lft.to/lastmile_qr_scan", "android": "https://dc.lft.to/lastmile_qr_scan"}}, {"name": "ade8cf0b87358467ce6c9407258c7fea", "lon": -77.03211366666666, "lat": 38.9179385, "type": "electric_scooter", "fusion_lon": 0.0, "is_reserved": 0, "bike_id": "ade8cf0b87358467ce6c9407258c7fea", "fusion_lat": 0.0, "is_disabled": 0, "rental_uris": {"ios": "https://dc.lft.to/lastmile_qr_scan", "android": "https://dc.lft.to/lastmile_qr_scan"}}, {"name": "55856af09ba1f0d96d286c6f2c5471a0", "lon": -77.04866733333333, "lat": 38.9063655, "type": "electric_scooter", "fusion_lon": 0.0, "is_reserved": 0, "bike_id": "55856af09ba1f0d96d286c6f2c5471a0", "fusion_lat": 0.0, "is_disabled": 0, "rental_uris": {"ios": "https://dc.lft.to/lastmile_qr_scan", "android": "https://dc.lft.to/lastmile_qr_scan"}}, {"name": "763d38ef08530d674e7736cac1437c7b", "lon": -77.00929133333334, "lat": 38.88236583333333, "type": "electric_scooter", "fusion_lon": 0.0, "is_reserved": 0, "bike_id": "763d38ef08530d674e7736cac1437c7b", "fusion_lat": 0.0, "is_disabled": 0, "rental_uris": {"ios": "https://dc.lft.to/lastmile_qr_scan", "android": "https://dc.lft.to/lastmile_qr_scan"}}, {"name": "988087ec993dd9791a3f91f0c2dfa216", "lon": -77.027175, "lat": 38.9007445, "type": "electric_scooter", "fusion_lon": 0.0, "is_reserved": 0, "bike_id": "988087ec993dd9791a3f91f0c2dfa216", "fusion_lat": 0.0, "is_disabled": 0, "rental_uris": {"ios": "https://dc.lft.to/lastmile_qr_scan", "android": "https://dc.lft.to/lastmile_qr_scan"}}, {"name": "0fdaa8e370c57ba6ea08c3a6d93c14f0", "lon": -77.03659033333334, "lat": 38.93628366666667, "type": "electric_scooter", "fusion_lon": 0.0, "is_reserved": 0, "bike_id": "0fdaa8e370c57ba6ea08c3a6d93c14f0", "fusion_lat": 0.0, "is_disabled": 0, "rental_uris": {"ios": "https://dc.lft.to/lastmile_qr_scan", "android": "https://dc.lft.to/lastmile_qr_scan"}}, {"name": "e9fd870aee533e9fb726d2ce2eb146c5", "lon": -77.04263966666667, "lat": 38.908263833333336, "type": "electric_scooter", "fusion_lon": 0.0, "is_reserved": 0, "bike_id": "e9fd870aee533e9fb726d2ce2eb146c5", "fusion_lat": 0.0, "is_disabled": 0, "rental_uris": {"ios": "https://dc.lft.to/lastmile_qr_scan", "android": "https://dc.lft.to/lastmile_qr_scan"}}, {"name": "8e0bcbb01ee47ea7d070e0fccb7b78d8", "lon": -77.03217433333333, "lat": 38.91781733333333, "type": "electric_scooter", "fusion_lon": 0.0, "is_reserved": 0, "bike_id": "8e0bcbb01ee47ea7d070e0fccb7b78d8", "fusion_lat": 0.0, "is_disabled": 0, "rental_uris": {"ios": "https://dc.lft.to/lastmile_qr_scan", "android": "https://dc.lft.to/lastmile_qr_scan"}}, {"name": "883e14597f0abce060a30bab57cb61d7", "lon": -77.00188866666667, "lat": 38.9003855, "type": "electric_scooter", "fusion_lon": 0.0, "is_reserved": 0, "bike_id": "883e14597f0abce060a30bab57cb61d7", "fusion_lat": 0.0, "is_disabled": 0, "rental_uris": {"ios": "https://dc.lft.to/lastmile_qr_scan", "android": "https://dc.lft.to/lastmile_qr_scan"}}, {"name": "6907d4d63359ccb9984e6fddd98ccf4f", "lon": -77.01745433333333, "lat": 38.8873865, "type": "electric_scooter", "fusion_lon": 0.0, "is_reserved": 0, "bike_id": "6907d4d63359ccb9984e6fddd98ccf4f", "fusion_lat": 0.0, "is_disabled": 0, "rental_uris": {"ios": "https://dc.lft.to/lastmile_qr_scan", "android": "https://dc.lft.to/lastmile_qr_scan"}}, {"name": "e25bd4342e5be48094335cdd3dfef1a9", "lon": -77.04452016666667, "lat": 38.905838, "type": "electric_scooter", "fusion_lon": 0.0, "is_reserved": 0, "bike_id": "e25bd4342e5be48094335cdd3dfef1a9", "fusion_lat": 0.0, "is_disabled": 0, "rental_uris": {"ios": "https://dc.lft.to/lastmile_qr_scan", "android": "https://dc.lft.to/lastmile_qr_scan"}}, {"name": "d033d114f98b8f0636bd06b0db27d2a0", "lon": -77.04925233333333, "lat": 38.90070333333333, "type": "electric_scooter", "fusion_lon": 0.0, "is_reserved": 0, "bike_id": "d033d114f98b8f0636bd06b0db27d2a0", "fusion_lat": 0.0, "is_disabled": 0, "rental_uris": {"ios": "https://dc.lft.to/lastmile_qr_scan", "android": "https://dc.lft.to/lastmile_qr_scan"}}, {"name": "0378d247dfe28c4ba2b1ce3fcc2f37c7", "lon": -77.04329416666667, "lat": 38.89226516666667, "type": "electric_scooter", "fusion_lon": 0.0, "is_reserved": 0, "bike_id": "0378d247dfe28c4ba2b1ce3fcc2f37c7", "fusion_lat": 0.0, "is_disabled": 0, "rental_uris": {"ios": "https://dc.lft.to/lastmile_qr_scan", "android": "https://dc.lft.to/lastmile_qr_scan"}}, {"name": "b4cfd1dde14bb767e8ca1b5697a4d026", "lon": -77.0294765, "lat": 38.90747116666667, "type": "electric_scooter", "fusion_lon": 0.0, "is_reserved": 0, "bike_id": "b4cfd1dde14bb767e8ca1b5697a4d026", "fusion_lat": 0.0, "is_disabled": 0, "rental_uris": {"ios": "https://dc.lft.to/lastmile_qr_scan", "android": "https://dc.lft.to/lastmile_qr_scan"}}, {"name": "59f37eb776c1fb383b109d118b1dd975", "lon": -76.9854025, "lat": 38.8665305, "type": "electric_scooter", "fusion_lon": 0.0, "is_reserved": 0, "bike_id": "59f37eb776c1fb383b109d118b1dd975", "fusion_lat": 0.0, "is_disabled": 0, "rental_uris": {"ios": "https://dc.lft.to/lastmile_qr_scan", "android": "https://dc.lft.to/lastmile_qr_scan"}}, {"name": "08c804639512719a09255edeeef38934", "lon": -77.02276183333333, "lat": 38.9167005, "type": "electric_scooter", "fusion_lon": 0.0, "is_reserved": 0, "bike_id": "08c804639512719a09255edeeef38934", "fusion_lat": 0.0, "is_disabled": 0, "rental_uris": {"ios": "https://dc.lft.to/lastmile_qr_scan", "android": "https://dc.lft.to/lastmile_qr_scan"}}, {"name": "fedfbb0b9779560736c867afb84220cf", "lon": -77.03791633333333, "lat": 38.925085333333335, "type": "electric_scooter", "fusion_lon": 0.0, "is_reserved": 0, "bike_id": "fedfbb0b9779560736c867afb84220cf", "fusion_lat": 0.0, "is_disabled": 0, "rental_uris": {"ios": "https://dc.lft.to/lastmile_qr_scan", "android": "https://dc.lft.to/lastmile_qr_scan"}}, {"name": "2694977eb828a45afaefac454299c0f9", "lon": -77.05323283333334, "lat": 38.927972833333335, "type": "electric_scooter", "fusion_lon": 0.0, "is_reserved": 0, "bike_id": "2694977eb828a45afaefac454299c0f9", "fusion_lat": 0.0, "is_disabled": 0, "rental_uris": {"ios": "https://dc.lft.to/lastmile_qr_scan", "android": "https://dc.lft.to/lastmile_qr_scan"}}, {"name": "997c895ad90590a1905b0356e9c0bb03", "lon": -76.97239316666666, "lat": 38.854509666666665, "type": "electric_bike", "fusion_lon": 0.0, "is_reserved": 0, "bike_id": "997c895ad90590a1905b0356e9c0bb03", "fusion_lat": 0.0, "is_disabled": 0, "rental_uris": {"ios": "https://dc.lft.to/lastmile_qr_scan", "android": "https://dc.lft.to/lastmile_qr_scan"}}, {"name": "510167504386d5f4d56d1db0e22092d6", "lon": -77.00777016666666, "lat": 38.9267065, "type": "electric_scooter", "fusion_lon": 0.0, "is_reserved": 0, "bike_id": "510167504386d5f4d56d1db0e22092d6", "fusion_lat": 0.0, "is_disabled": 0, "rental_uris": {"ios": "https://dc.lft.to/lastmile_qr_scan", "android": "https://dc.lft.to/lastmile_qr_scan"}}, {"name": "3661dd98aac238ea3fbc581e5f2be176", "lon": -76.98509733333333, "lat": 38.866488833333335, "type": "electric_scooter", "fusion_lon": 0.0, "is_reserved": 0, "bike_id": "3661dd98aac238ea3fbc581e5f2be176", "fusion_lat": 0.0, "is_disabled": 0, "rental_uris": {"ios": "https://dc.lft.to/lastmile_qr_scan", "android": "https://dc.lft.to/lastmile_qr_scan"}}, {"name": "8bda7bfb1f20d0d0f465495573cf0201", "lon": -77.01455616666667, "lat": 38.917800666666665, "type": "electric_scooter", "fusion_lon": 0.0, "is_reserved": 0, "bike_id": "8bda7bfb1f20d0d0f465495573cf0201", "fusion_lat": 0.0, "is_disabled": 0, "rental_uris": {"ios": "https://dc.lft.to/lastmile_qr_scan", "android": "https://dc.lft.to/lastmile_qr_scan"}}, {"name": "1f5a55f6cdd68e1d465a7729d260acf6", "lon": -77.034307, "lat": 38.966256333333334, "type": "electric_bike", "fusion_lon": 0.0, "is_reserved": 0, "bike_id": "1f5a55f6cdd68e1d465a7729d260acf6", "fusion_lat": 0.0, "is_disabled": 0, "rental_uris": {"ios": "https://dc.lft.to/lastmile_qr_scan", "android": "https://dc.lft.to/lastmile_qr_scan"}}, {"name": "5f5889ac480cbcadcca4e92a29e0fce7", "lon": -77.03517866666667, "lat": 38.92155616666667, "type": "electric_scooter", "fusion_lon": 0.0, "is_reserved": 0, "bike_id": "5f5889ac480cbcadcca4e92a29e0fce7", "fusion_lat": 0.0, "is_disabled": 0, "rental_uris": {"ios": "https://dc.lft.to/lastmile_qr_scan", "android": "https://dc.lft.to/lastmile_qr_scan"}}, {"name": "9b703373e2eb4d800929e756363b72ef", "lon": -77.025487, "lat": 38.942257833333336, "type": "electric_scooter", "fusion_lon": 0.0, "is_reserved": 0, "bike_id": "9b703373e2eb4d800929e756363b72ef", "fusion_lat": 0.0, "is_disabled": 0, "rental_uris": {"ios": "https://dc.lft.to/lastmile_qr_scan", "android": "https://dc.lft.to/lastmile_qr_scan"}}, {"name": "4b505efe54a8f48c4f59b4996e785ee6", "lon": -77.0250745, "lat": 38.92065983333333, "type": "electric_scooter", "fusion_lon": 0.0, "is_reserved": 0, "bike_id": "4b505efe54a8f48c4f59b4996e785ee6", "fusion_lat": 0.0, "is_disabled": 0, "rental_uris": {"ios": "https://dc.lft.to/lastmile_qr_scan", "android": "https://dc.lft.to/lastmile_qr_scan"}}, {"name": "7f51948fb19b75a51d9ad1ec424941a7", "lon": -77.04596183333334, "lat": 38.916943, "type": "electric_scooter", "fusion_lon": 0.0, "is_reserved": 0, "bike_id": "7f51948fb19b75a51d9ad1ec424941a7", "fusion_lat": 0.0, "is_disabled": 0, "rental_uris": {"ios": "https://dc.lft.to/lastmile_qr_scan", "android": "https://dc.lft.to/lastmile_qr_scan"}}, {"name": "9cce55189e3c6af3815bc8c3127ab1fc", "lon": -77.04482033333333, "lat": 38.919426333333334, "type": "electric_scooter", "fusion_lon": 0.0, "is_reserved": 0, "bike_id": "9cce55189e3c6af3815bc8c3127ab1fc", "fusion_lat": 0.0, "is_disabled": 0, "rental_uris": {"ios": "https://dc.lft.to/lastmile_qr_scan", "android": "https://dc.lft.to/lastmile_qr_scan"}}, {"name": "fe85ba7218cbddf860c191356bac5543", "lon": -77.03276916666667, "lat": 38.9162435, "type": "electric_scooter", "fusion_lon": 0.0, "is_reserved": 0, "bike_id": "fe85ba7218cbddf860c191356bac5543", "fusion_lat": 0.0, "is_disabled": 0, "rental_uris": {"ios": "https://dc.lft.to/lastmile_qr_scan", "android": "https://dc.lft.to/lastmile_qr_scan"}}, {"name": "83c7181983abbcdbbfa75505aa4b8092", "lon": -77.01119433333334, "lat": 38.903542, "type": "electric_scooter", "fusion_lon": 0.0, "is_reserved": 0, "bike_id": "83c7181983abbcdbbfa75505aa4b8092", "fusion_lat": 0.0, "is_disabled": 0, "rental_uris": {"ios": "https://dc.lft.to/lastmile_qr_scan", "android": "https://dc.lft.to/lastmile_qr_scan"}}, {"name": "e2ae9ed9038f549f7005fa6bd0886e52", "lon": -77.09256116666667, "lat": 38.9415145, "type": "electric_scooter", "fusion_lon": 0.0, "is_reserved": 0, "bike_id": "e2ae9ed9038f549f7005fa6bd0886e52", "fusion_lat": 0.0, "is_disabled": 0, "rental_uris": {"ios": "https://dc.lft.to/lastmile_qr_scan", "android": "https://dc.lft.to/lastmile_qr_scan"}}, {"name": "155dbc7be5b731548b35546b7f8f0a94", "lon": -77.031253, "lat": 38.915595, "type": "electric_scooter", "fusion_lon": 0.0, "is_reserved": 0, "bike_id": "155dbc7be5b731548b35546b7f8f0a94", "fusion_lat": 0.0, "is_disabled": 0, "rental_uris": {"ios": "https://dc.lft.to/lastmile_qr_scan", "android": "https://dc.lft.to/lastmile_qr_scan"}}, {"name": "bd65913e544b8c3677b2fe899a7403d6", "lon": -77.0269425, "lat": 38.902394666666666, "type": "electric_scooter", "fusion_lon": 0.0, "is_reserved": 0, "bike_id": "bd65913e544b8c3677b2fe899a7403d6", "fusion_lat": 0.0, "is_disabled": 0, "rental_uris": {"ios": "https://dc.lft.to/lastmile_qr_scan", "android": "https://dc.lft.to/lastmile_qr_scan"}}, {"name": "9a6ff82a0ae520c72a9ab4a4a9d34205", "lon": -76.97568616666666, "lat": 38.840252, "type": "electric_bike", "fusion_lon": 0.0, "is_reserved": 0, "bike_id": "9a6ff82a0ae520c72a9ab4a4a9d34205", "fusion_lat": 0.0, "is_disabled": 0, "rental_uris": {"ios": "https://dc.lft.to/lastmile_qr_scan", "android": "https://dc.lft.to/lastmile_qr_scan"}}, {"name": "9806f28de79177bee457d2a348e8ea36", "lon": -77.02955166666666, "lat": 38.916855, "type": "electric_scooter", "fusion_lon": 0.0, "is_reserved": 0, "bike_id": "9806f28de79177bee457d2a348e8ea36", "fusion_lat": 0.0, "is_disabled": 0, "rental_uris": {"ios": "https://dc.lft.to/lastmile_qr_scan", "android": "https://dc.lft.to/lastmile_qr_scan"}}, {"name": "7ab671f9c5826fed24600461fcafee83", "lon": -77.03729066666666, "lat": 38.935704666666666, "type": "electric_scooter", "fusion_lon": 0.0, "is_reserved": 0, "bike_id": "7ab671f9c5826fed24600461fcafee83", "fusion_lat": 0.0, "is_disabled": 0, "rental_uris": {"ios": "https://dc.lft.to/lastmile_qr_scan", "android": "https://dc.lft.to/lastmile_qr_scan"}}, {"name": "c79aa5c7c09239bc6d233e60acfad32c", "lon": -77.04939133333333, "lat": 38.909728666666666, "type": "electric_scooter", "fusion_lon": 0.0, "is_reserved": 0, "bike_id": "c79aa5c7c09239bc6d233e60acfad32c", "fusion_lat": 0.0, "is_disabled": 0, "rental_uris": {"ios": "https://dc.lft.to/lastmile_qr_scan", "android": "https://dc.lft.to/lastmile_qr_scan"}}, {"name": "69846e3574ca221b256a96559bdf3b0d", "lon": -77.04931733333333, "lat": 38.90086866666667, "type": "electric_scooter", "fusion_lon": 0.0, "is_reserved": 0, "bike_id": "69846e3574ca221b256a96559bdf3b0d", "fusion_lat": 0.0, "is_disabled": 0, "rental_uris": {"ios": "https://dc.lft.to/lastmile_qr_scan", "android": "https://dc.lft.to/lastmile_qr_scan"}}, {"name": "d9dfe1e7fd5c7e0637ad4156ae450a47", "lon": -77.00501533333333, "lat": 38.916895333333336, "type": "electric_scooter", "fusion_lon": 0.0, "is_reserved": 0, "bike_id": "d9dfe1e7fd5c7e0637ad4156ae450a47", "fusion_lat": 0.0, "is_disabled": 0, "rental_uris": {"ios": "https://dc.lft.to/lastmile_qr_scan", "android": "https://dc.lft.to/lastmile_qr_scan"}}, {"name": "6b68de24878cc1feceb05e3da3b51005", "lon": -77.0222365, "lat": 38.95692583333334, "type": "electric_bike", "fusion_lon": 0.0, "is_reserved": 0, "bike_id": "6b68de24878cc1feceb05e3da3b51005", "fusion_lat": 0.0, "is_disabled": 0, "rental_uris": {"ios": "https://dc.lft.to/lastmile_qr_scan", "android": "https://dc.lft.to/lastmile_qr_scan"}}, {"name": "1d594d8a998592297fc4798c6e54f542", "lon": -76.95184, "lat": 38.907405833333335, "type": "electric_scooter", "fusion_lon": 0.0, "is_reserved": 0, "bike_id": "1d594d8a998592297fc4798c6e54f542", "fusion_lat": 0.0, "is_disabled": 0, "rental_uris": {"ios": "https://dc.lft.to/lastmile_qr_scan", "android": "https://dc.lft.to/lastmile_qr_scan"}}, {"name": "23dbefeaa52fec042ff4ea00868698d2", "lon": -76.9883895, "lat": 38.90049416666667, "type": "electric_scooter", "fusion_lon": 0.0, "is_reserved": 0, "bike_id": "23dbefeaa52fec042ff4ea00868698d2", "fusion_lat": 0.0, "is_disabled": 0, "rental_uris": {"ios": "https://dc.lft.to/lastmile_qr_scan", "android": "https://dc.lft.to/lastmile_qr_scan"}}, {"name": "3d30b25b3f49bfe44c244371270283c1", "lon": -77.00352, "lat": 38.88713933333333, "type": "electric_scooter", "fusion_lon": 0.0, "is_reserved": 0, "bike_id": "3d30b25b3f49bfe44c244371270283c1", "fusion_lat": 0.0, "is_disabled": 0, "rental_uris": {"ios": "https://dc.lft.to/lastmile_qr_scan", "android": "https://dc.lft.to/lastmile_qr_scan"}}, {"name": "f286d3df31fee5780f3acbc559de5cad", "lon": -76.996115, "lat": 38.88582783333333, "type": "electric_scooter", "fusion_lon": 0.0, "is_reserved": 0, "bike_id": "f286d3df31fee5780f3acbc559de5cad", "fusion_lat": 0.0, "is_disabled": 0, "rental_uris": {"ios": "https://dc.lft.to/lastmile_qr_scan", "android": "https://dc.lft.to/lastmile_qr_scan"}}, {"name": "a7a9a82ee116ee2bbcfd520b2e6fb448", "lon": -77.00136433333333, "lat": 38.905167666666664, "type": "electric_scooter", "fusion_lon": 0.0, "is_reserved": 0, "bike_id": "a7a9a82ee116ee2bbcfd520b2e6fb448", "fusion_lat": 0.0, "is_disabled": 0, "rental_uris": {"ios": "https://dc.lft.to/lastmile_qr_scan", "android": "https://dc.lft.to/lastmile_qr_scan"}}, {"name": "a9b7a21e98dbc8df3a16fe6996fe105c", "lon": -76.998173, "lat": 38.900214, "type": "electric_scooter", "fusion_lon": 0.0, "is_reserved": 0, "bike_id": "a9b7a21e98dbc8df3a16fe6996fe105c", "fusion_lat": 0.0, "is_disabled": 0, "rental_uris": {"ios": "https://dc.lft.to/lastmile_qr_scan", "android": "https://dc.lft.to/lastmile_qr_scan"}}, {"name": "5888758174fb69e14a0959b337990fbb", "lon": -77.02362816666667, "lat": 38.925151166666666, "type": "electric_scooter", "fusion_lon": 0.0, "is_reserved": 0, "bike_id": "5888758174fb69e14a0959b337990fbb", "fusion_lat": 0.0, "is_disabled": 0, "rental_uris": {"ios": "https://dc.lft.to/lastmile_qr_scan", "android": "https://dc.lft.to/lastmile_qr_scan"}}, {"name": "7f8c9e9b3011adc7d8f25901cc3b977c", "lon": -77.03584933333333, "lat": 38.912608, "type": "electric_scooter", "fusion_lon": 0.0, "is_reserved": 0, "bike_id": "7f8c9e9b3011adc7d8f25901cc3b977c", "fusion_lat": 0.0, "is_disabled": 0, "rental_uris": {"ios": "https://dc.lft.to/lastmile_qr_scan", "android": "https://dc.lft.to/lastmile_qr_scan"}}, {"name": "533baf5c2da917e4c54fc03ba29bc36a", "lon": -76.97791933333333, "lat": 38.8886645, "type": "electric_bike", "fusion_lon": 0.0, "is_reserved": 0, "bike_id": "533baf5c2da917e4c54fc03ba29bc36a", "fusion_lat": 0.0, "is_disabled": 0, "rental_uris": {"ios": "https://dc.lft.to/lastmile_qr_scan", "android": "https://dc.lft.to/lastmile_qr_scan"}}, {"name": "3cdfe53a40632289dd88098fa73e243d", "lon": -76.989777, "lat": 38.865151, "type": "electric_scooter", "fusion_lon": 0.0, "is_reserved": 0, "bike_id": "3cdfe53a40632289dd88098fa73e243d", "fusion_lat": 0.0, "is_disabled": 0, "rental_uris": {"ios": "https://dc.lft.to/lastmile_qr_scan", "android": "https://dc.lft.to/lastmile_qr_scan"}}, {"name": "6c54f78cf546f8b12f1f3c1e00859e07", "lon": -77.02681533333333, "lat": 38.91268133333333, "type": "electric_scooter", "fusion_lon": 0.0, "is_reserved": 0, "bike_id": "6c54f78cf546f8b12f1f3c1e00859e07", "fusion_lat": 0.0, "is_disabled": 0, "rental_uris": {"ios": "https://dc.lft.to/lastmile_qr_scan", "android": "https://dc.lft.to/lastmile_qr_scan"}}, {"name": "29542cd283c2aba780888c836ef39164", "lon": -77.05147566666666, "lat": 38.905365833333335, "type": "electric_scooter", "fusion_lon": 0.0, "is_reserved": 0, "bike_id": "29542cd283c2aba780888c836ef39164", "fusion_lat": 0.0, "is_disabled": 0, "rental_uris": {"ios": "https://dc.lft.to/lastmile_qr_scan", "android": "https://dc.lft.to/lastmile_qr_scan"}}, {"name": "16b433c5f53b4b21cf26f39f4a34b6df", "lon": -77.08187666666667, "lat": 38.85567483333333, "type": "electric_bike", "fusion_lon": 0.0, "is_reserved": 0, "bike_id": "16b433c5f53b4b21cf26f39f4a34b6df", "fusion_lat": 0.0, "is_disabled": 0, "rental_uris": {"ios": "https://dc.lft.to/lastmile_qr_scan", "android": "https://dc.lft.to/lastmile_qr_scan"}}, {"name": "d835d26f6f8313ceacad9aa7f3865224", "lon": -77.02301683333333, "lat": 38.91792366666667, "type": "electric_scooter", "fusion_lon": 0.0, "is_reserved": 0, "bike_id": "d835d26f6f8313ceacad9aa7f3865224", "fusion_lat": 0.0, "is_disabled": 0, "rental_uris": {"ios": "https://dc.lft.to/lastmile_qr_scan", "android": "https://dc.lft.to/lastmile_qr_scan"}}, {"name": "8f2f3d2b5cf1b164ad9d22f803689a8a", "lon": -76.94421866666667, "lat": 38.966174333333335, "type": "electric_bike", "fusion_lon": 0.0, "is_reserved": 0, "bike_id": "8f2f3d2b5cf1b164ad9d22f803689a8a", "fusion_lat": 0.0, "is_disabled": 0, "rental_uris": {"ios": "https://dc.lft.to/lastmile_qr_scan", "android": "https://dc.lft.to/lastmile_qr_scan"}}, {"name": "585b44f6f6ea506f45138fd0c577c47f", "lon": -77.03369433333333, "lat": 38.9287975, "type": "electric_scooter", "fusion_lon": 0.0, "is_reserved": 0, "bike_id": "585b44f6f6ea506f45138fd0c577c47f", "fusion_lat": 0.0, "is_disabled": 0, "rental_uris": {"ios": "https://dc.lft.to/lastmile_qr_scan", "android": "https://dc.lft.to/lastmile_qr_scan"}}, {"name": "a050994e2a4fb3f858479c5abb33b469", "lon": -77.02369083333333, "lat": 38.917360333333335, "type": "electric_scooter", "fusion_lon": 0.0, "is_reserved": 0, "bike_id": "a050994e2a4fb3f858479c5abb33b469", "fusion_lat": 0.0, "is_disabled": 0, "rental_uris": {"ios": "https://dc.lft.to/lastmile_qr_scan", "android": "https://dc.lft.to/lastmile_qr_scan"}}, {"name": "6c00c59133aee72a8acf9be9ce146283", "lon": -76.998696, "lat": 38.900319833333334, "type": "electric_scooter", "fusion_lon": 0.0, "is_reserved": 0, "bike_id": "6c00c59133aee72a8acf9be9ce146283", "fusion_lat": 0.0, "is_disabled": 0, "rental_uris": {"ios": "https://dc.lft.to/lastmile_qr_scan", "android": "https://dc.lft.to/lastmile_qr_scan"}}, {"name": "41610a086c13879774ee880cfbc5d168", "lon": -76.92326466666667, "lat": 38.871093, "type": "electric_bike", "fusion_lon": 0.0, "is_reserved": 0, "bike_id": "41610a086c13879774ee880cfbc5d168", "fusion_lat": 0.0, "is_disabled": 0, "rental_uris": {"ios": "https://dc.lft.to/lastmile_qr_scan", "android": "https://dc.lft.to/lastmile_qr_scan"}}, {"name": "a0709be55e7288234f13b96d655116da", "lon": -77.05131283333333, "lat": 38.90712966666667, "type": "electric_scooter", "fusion_lon": 0.0, "is_reserved": 0, "bike_id": "a0709be55e7288234f13b96d655116da", "fusion_lat": 0.0, "is_disabled": 0, "rental_uris": {"ios": "https://dc.lft.to/lastmile_qr_scan", "android": "https://dc.lft.to/lastmile_qr_scan"}}, {"name": "bf7e0d3afb5a6f9827e462b9ccea9f1d", "lon": -77.00774133333333, "lat": 38.92672366666667, "type": "electric_scooter", "fusion_lon": 0.0, "is_reserved": 0, "bike_id": "bf7e0d3afb5a6f9827e462b9ccea9f1d", "fusion_lat": 0.0, "is_disabled": 0, "rental_uris": {"ios": "https://dc.lft.to/lastmile_qr_scan", "android": "https://dc.lft.to/lastmile_qr_scan"}}, {"name": "935df9fc5329a6b2fb4ef3474762593c", "lon": -77.0234535, "lat": 38.9461275, "type": "electric_scooter", "fusion_lon": 0.0, "is_reserved": 0, "bike_id": "935df9fc5329a6b2fb4ef3474762593c", "fusion_lat": 0.0, "is_disabled": 0, "rental_uris": {"ios": "https://dc.lft.to/lastmile_qr_scan", "android": "https://dc.lft.to/lastmile_qr_scan"}}, {"name": "a04dd1836050fcca0ccca60d6399fccb", "lon": -77.0249355, "lat": 38.9419015, "type": "electric_scooter", "fusion_lon": 0.0, "is_reserved": 0, "bike_id": "a04dd1836050fcca0ccca60d6399fccb", "fusion_lat": 0.0, "is_disabled": 0, "rental_uris": {"ios": "https://dc.lft.to/lastmile_qr_scan", "android": "https://dc.lft.to/lastmile_qr_scan"}}, {"name": "9a1f21b44831ca57ed1167c6570cebf2", "lon": -77.0279935, "lat": 38.93304716666667, "type": "electric_scooter", "fusion_lon": 0.0, "is_reserved": 0, "bike_id": "9a1f21b44831ca57ed1167c6570cebf2", "fusion_lat": 0.0, "is_disabled": 0, "rental_uris": {"ios": "https://dc.lft.to/lastmile_qr_scan", "android": "https://dc.lft.to/lastmile_qr_scan"}}, {"name": "223594e52db8246973c57b89156d9e31", "lon": -77.0425, "lat": 38.91345333333334, "type": "electric_scooter", "fusion_lon": 0.0, "is_reserved": 0, "bike_id": "223594e52db8246973c57b89156d9e31", "fusion_lat": 0.0, "is_disabled": 0, "rental_uris": {"ios": "https://dc.lft.to/lastmile_qr_scan", "android": "https://dc.lft.to/lastmile_qr_scan"}}, {"name": "f651c19f5891b788f13adfba4a53c2e1", "lon": -77.00269266666666, "lat": 38.8872085, "type": "electric_scooter", "fusion_lon": 0.0, "is_reserved": 0, "bike_id": "f651c19f5891b788f13adfba4a53c2e1", "fusion_lat": 0.0, "is_disabled": 0, "rental_uris": {"ios": "https://dc.lft.to/lastmile_qr_scan", "android": "https://dc.lft.to/lastmile_qr_scan"}}, {"name": "5c3925fad366f2d8e67127fd8d448596", "lon": -77.0518035, "lat": 38.9038295, "type": "electric_scooter", "fusion_lon": 0.0, "is_reserved": 0, "bike_id": "5c3925fad366f2d8e67127fd8d448596", "fusion_lat": 0.0, "is_disabled": 0, "rental_uris": {"ios": "https://dc.lft.to/lastmile_qr_scan", "android": "https://dc.lft.to/lastmile_qr_scan"}}, {"name": "fd3bcc3868274ae450db1fb84fcbbca4", "lon": -77.028955, "lat": 38.90431383333333, "type": "electric_scooter", "fusion_lon": 0.0, "is_reserved": 0, "bike_id": "fd3bcc3868274ae450db1fb84fcbbca4", "fusion_lat": 0.0, "is_disabled": 0, "rental_uris": {"ios": "https://dc.lft.to/lastmile_qr_scan", "android": "https://dc.lft.to/lastmile_qr_scan"}}, {"name": "ff49f2da07b3ba13c8e4dd29fc754783", "lon": -77.0465655, "lat": 38.915924833333335, "type": "electric_scooter", "fusion_lon": 0.0, "is_reserved": 0, "bike_id": "ff49f2da07b3ba13c8e4dd29fc754783", "fusion_lat": 0.0, "is_disabled": 0, "rental_uris": {"ios": "https://dc.lft.to/lastmile_qr_scan", "android": "https://dc.lft.to/lastmile_qr_scan"}}, {"name": "e69ad02e3c278c7ec648860462d39dd7", "lon": -77.03440566666667, "lat": 38.910176166666666, "type": "electric_scooter", "fusion_lon": 0.0, "is_reserved": 0, "bike_id": "e69ad02e3c278c7ec648860462d39dd7", "fusion_lat": 0.0, "is_disabled": 0, "rental_uris": {"ios": "https://dc.lft.to/lastmile_qr_scan", "android": "https://dc.lft.to/lastmile_qr_scan"}}, {"name": "3a4d4ccde2cbc6db30570486a99b6100", "lon": -76.96984466666666, "lat": 38.85621616666667, "type": "electric_scooter", "fusion_lon": 0.0, "is_reserved": 0, "bike_id": "3a4d4ccde2cbc6db30570486a99b6100", "fusion_lat": 0.0, "is_disabled": 0, "rental_uris": {"ios": "https://dc.lft.to/lastmile_qr_scan", "android": "https://dc.lft.to/lastmile_qr_scan"}}, {"name": "a8f2b3fd52279bea5fddd95aa4c9223c", "lon": -77.02158566666667, "lat": 38.901761666666665, "type": "electric_scooter", "fusion_lon": 0.0, "is_reserved": 0, "bike_id": "a8f2b3fd52279bea5fddd95aa4c9223c", "fusion_lat": 0.0, "is_disabled": 0, "rental_uris": {"ios": "https://dc.lft.to/lastmile_qr_scan", "android": "https://dc.lft.to/lastmile_qr_scan"}}, {"name": "942bd56e4da79cdd1a1661a82c65e775", "lon": -77.02417633333333, "lat": 38.9573255, "type": "electric_scooter", "fusion_lon": 0.0, "is_reserved": 0, "bike_id": "942bd56e4da79cdd1a1661a82c65e775", "fusion_lat": 0.0, "is_disabled": 0, "rental_uris": {"ios": "https://dc.lft.to/lastmile_qr_scan", "android": "https://dc.lft.to/lastmile_qr_scan"}}, {"name": "ab9525ceebf1712dc1c92ea3ace52599", "lon": -77.03495583333333, "lat": 38.917137833333335, "type": "electric_scooter", "fusion_lon": 0.0, "is_reserved": 0, "bike_id": "ab9525ceebf1712dc1c92ea3ace52599", "fusion_lat": 0.0, "is_disabled": 0, "rental_uris": {"ios": "https://dc.lft.to/lastmile_qr_scan", "android": "https://dc.lft.to/lastmile_qr_scan"}}, {"name": "e687174c4b6f514615ad6069d07a6949", "lon": -76.946355, "lat": 38.898437333333334, "type": "electric_scooter", "fusion_lon": 0.0, "is_reserved": 0, "bike_id": "e687174c4b6f514615ad6069d07a6949", "fusion_lat": 0.0, "is_disabled": 0, "rental_uris": {"ios": "https://dc.lft.to/lastmile_qr_scan", "android": "https://dc.lft.to/lastmile_qr_scan"}}, {"name": "043302fbed969d1d96bb15c526748de8", "lon": -77.02186316666666, "lat": 38.90208633333334, "type": "electric_scooter", "fusion_lon": 0.0, "is_reserved": 0, "bike_id": "043302fbed969d1d96bb15c526748de8", "fusion_lat": 0.0, "is_disabled": 0, "rental_uris": {"ios": "https://dc.lft.to/lastmile_qr_scan", "android": "https://dc.lft.to/lastmile_qr_scan"}}, {"name": "fd8f3c3deaa094a54ff7b835e1e6dba2", "lon": -77.078051, "lat": 38.9245765, "type": "electric_scooter", "fusion_lon": 0.0, "is_reserved": 0, "bike_id": "fd8f3c3deaa094a54ff7b835e1e6dba2", "fusion_lat": 0.0, "is_disabled": 0, "rental_uris": {"ios": "https://dc.lft.to/lastmile_qr_scan", "android": "https://dc.lft.to/lastmile_qr_scan"}}, {"name": "b4d4451dbaee5150d1197ec363dd15de", "lon": -77.041287, "lat": 38.90276633333333, "type": "electric_scooter", "fusion_lon": 0.0, "is_reserved": 0, "bike_id": "b4d4451dbaee5150d1197ec363dd15de", "fusion_lat": 0.0, "is_disabled": 0, "rental_uris": {"ios": "https://dc.lft.to/lastmile_qr_scan", "android": "https://dc.lft.to/lastmile_qr_scan"}}, {"name": "fbdfcb9a9c71431283bfa51a12d81502", "lon": -77.1296395, "lat": 38.85222666666667, "type": "electric_bike", "fusion_lon": 0.0, "is_reserved": 0, "bike_id": "fbdfcb9a9c71431283bfa51a12d81502", "fusion_lat": 0.0, "is_disabled": 0, "rental_uris": {"ios": "https://dc.lft.to/lastmile_qr_scan", "android": "https://dc.lft.to/lastmile_qr_scan"}}, {"name": "fa15d3a490fb8d1badb42e8f517c14d7", "lon": -77.02814516666666, "lat": 38.96078383333333, "type": "electric_scooter", "fusion_lon": 0.0, "is_reserved": 0, "bike_id": "fa15d3a490fb8d1badb42e8f517c14d7", "fusion_lat": 0.0, "is_disabled": 0, "rental_uris": {"ios": "https://dc.lft.to/lastmile_qr_scan", "android": "https://dc.lft.to/lastmile_qr_scan"}}, {"name": "46d62178cd165d113113f526cea54a07", "lon": -77.02568366666667, "lat": 38.904284, "type": "electric_scooter", "fusion_lon": 0.0, "is_reserved": 0, "bike_id": "46d62178cd165d113113f526cea54a07", "fusion_lat": 0.0, "is_disabled": 0, "rental_uris": {"ios": "https://dc.lft.to/lastmile_qr_scan", "android": "https://dc.lft.to/lastmile_qr_scan"}}, {"name": "8ebd5bfe261d3e2eb11857662373d9ea", "lon": -77.03759433333333, "lat": 38.92909383333333, "type": "electric_scooter", "fusion_lon": 0.0, "is_reserved": 0, "bike_id": "8ebd5bfe261d3e2eb11857662373d9ea", "fusion_lat": 0.0, "is_disabled": 0, "rental_uris": {"ios": "https://dc.lft.to/lastmile_qr_scan", "android": "https://dc.lft.to/lastmile_qr_scan"}}, {"name": "6562872f873190c61e1a13073ed3080c", "lon": -77.08934766666667, "lat": 38.862649166666664, "type": "electric_bike", "fusion_lon": 0.0, "is_reserved": 0, "bike_id": "6562872f873190c61e1a13073ed3080c", "fusion_lat": 0.0, "is_disabled": 0, "rental_uris": {"ios": "https://dc.lft.to/lastmile_qr_scan", "android": "https://dc.lft.to/lastmile_qr_scan"}}, {"name": "dcc05225f91cdda2489a91fce8263b11", "lon": -77.03728016666666, "lat": 38.927147166666664, "type": "electric_bike", "fusion_lon": 0.0, "is_reserved": 0, "bike_id": "dcc05225f91cdda2489a91fce8263b11", "fusion_lat": 0.0, "is_disabled": 0, "rental_uris": {"ios": "https://dc.lft.to/lastmile_qr_scan", "android": "https://dc.lft.to/lastmile_qr_scan"}}, {"name": "600cd3d8fcb5c821c6edcd27c092d752", "lon": -76.98362683333333, "lat": 38.91547166666667, "type": "electric_scooter", "fusion_lon": 0.0, "is_reserved": 0, "bike_id": "600cd3d8fcb5c821c6edcd27c092d752", "fusion_lat": 0.0, "is_disabled": 0, "rental_uris": {"ios": "https://dc.lft.to/lastmile_qr_scan", "android": "https://dc.lft.to/lastmile_qr_scan"}}, {"name": "20d8db761dee7361e5e928fb55545103", "lon": -77.01184416666666, "lat": 38.895292, "type": "electric_scooter", "fusion_lon": 0.0, "is_reserved": 0, "bike_id": "20d8db761dee7361e5e928fb55545103", "fusion_lat": 0.0, "is_disabled": 0, "rental_uris": {"ios": "https://dc.lft.to/lastmile_qr_scan", "android": "https://dc.lft.to/lastmile_qr_scan"}}, {"name": "c2a7f28c6d6a95a2659e0b28ed421ed1", "lon": -77.0075235, "lat": 38.92677583333333, "type": "electric_scooter", "fusion_lon": 0.0, "is_reserved": 0, "bike_id": "c2a7f28c6d6a95a2659e0b28ed421ed1", "fusion_lat": 0.0, "is_disabled": 0, "rental_uris": {"ios": "https://dc.lft.to/lastmile_qr_scan", "android": "https://dc.lft.to/lastmile_qr_scan"}}, {"name": "8bf329c94859a0641b0ec3677e9f70fb", "lon": -77.00589116666667, "lat": 38.9056885, "type": "electric_scooter", "fusion_lon": 0.0, "is_reserved": 0, "bike_id": "8bf329c94859a0641b0ec3677e9f70fb", "fusion_lat": 0.0, "is_disabled": 0, "rental_uris": {"ios": "https://dc.lft.to/lastmile_qr_scan", "android": "https://dc.lft.to/lastmile_qr_scan"}}, {"name": "01442afa7a3c60b322f81ac4087e8034", "lon": -76.99692433333334, "lat": 38.908339, "type": "electric_scooter", "fusion_lon": 0.0, "is_reserved": 0, "bike_id": "01442afa7a3c60b322f81ac4087e8034", "fusion_lat": 0.0, "is_disabled": 0, "rental_uris": {"ios": "https://dc.lft.to/lastmile_qr_scan", "android": "https://dc.lft.to/lastmile_qr_scan"}}, {"name": "0d3b08583b96168e6f6ffa6174c3f80a", "lon": -77.04390683333334, "lat": 38.920255166666664, "type": "electric_scooter", "fusion_lon": 0.0, "is_reserved": 0, "bike_id": "0d3b08583b96168e6f6ffa6174c3f80a", "fusion_lat": 0.0, "is_disabled": 0, "rental_uris": {"ios": "https://dc.lft.to/lastmile_qr_scan", "android": "https://dc.lft.to/lastmile_qr_scan"}}, {"name": "de4de133bdb2684bf5fbb635863ffa2b", "lon": -77.05307266666667, "lat": 38.898495833333335, "type": "electric_scooter", "fusion_lon": 0.0, "is_reserved": 0, "bike_id": "de4de133bdb2684bf5fbb635863ffa2b", "fusion_lat": 0.0, "is_disabled": 0, "rental_uris": {"ios": "https://dc.lft.to/lastmile_qr_scan", "android": "https://dc.lft.to/lastmile_qr_scan"}}, {"name": "cc493fdf80c004df05cc5b71d63283b6", "lon": -77.02795766666667, "lat": 38.93084233333333, "type": "electric_scooter", "fusion_lon": 0.0, "is_reserved": 0, "bike_id": "cc493fdf80c004df05cc5b71d63283b6", "fusion_lat": 0.0, "is_disabled": 0, "rental_uris": {"ios": "https://dc.lft.to/lastmile_qr_scan", "android": "https://dc.lft.to/lastmile_qr_scan"}}, {"name": "3e2eb20b15a674b51052903b76ff56e3", "lon": -77.04366133333333, "lat": 38.89856016666667, "type": "electric_scooter", "fusion_lon": 0.0, "is_reserved": 0, "bike_id": "3e2eb20b15a674b51052903b76ff56e3", "fusion_lat": 0.0, "is_disabled": 0, "rental_uris": {"ios": "https://dc.lft.to/lastmile_qr_scan", "android": "https://dc.lft.to/lastmile_qr_scan"}}, {"name": "ea6ca0209791af4b7d260ced43043461", "lon": -76.9961185, "lat": 38.90190316666666, "type": "electric_bike", "fusion_lon": 0.0, "is_reserved": 0, "bike_id": "ea6ca0209791af4b7d260ced43043461", "fusion_lat": 0.0, "is_disabled": 0, "rental_uris": {"ios": "https://dc.lft.to/lastmile_qr_scan", "android": "https://dc.lft.to/lastmile_qr_scan"}}, {"name": "9bb27b8e8f7b7d4a89caeec73ebf685c", "lon": -77.00813866666667, "lat": 38.948002833333334, "type": "electric_bike", "fusion_lon": 0.0, "is_reserved": 0, "bike_id": "9bb27b8e8f7b7d4a89caeec73ebf685c", "fusion_lat": 0.0, "is_disabled": 0, "rental_uris": {"ios": "https://dc.lft.to/lastmile_qr_scan", "android": "https://dc.lft.to/lastmile_qr_scan"}}, {"name": "bb72bddcb93fa343b4f609ac766576bf", "lon": -77.01206516666667, "lat": 38.864175333333336, "type": "electric_scooter", "fusion_lon": 0.0, "is_reserved": 0, "bike_id": "bb72bddcb93fa343b4f609ac766576bf", "fusion_lat": 0.0, "is_disabled": 0, "rental_uris": {"ios": "https://dc.lft.to/lastmile_qr_scan", "android": "https://dc.lft.to/lastmile_qr_scan"}}, {"name": "63eae3db7bd8ceb8b9da25b6b1754ba0", "lon": -77.04333466666667, "lat": 38.90758666666667, "type": "electric_scooter", "fusion_lon": 0.0, "is_reserved": 0, "bike_id": "63eae3db7bd8ceb8b9da25b6b1754ba0", "fusion_lat": 0.0, "is_disabled": 0, "rental_uris": {"ios": "https://dc.lft.to/lastmile_qr_scan", "android": "https://dc.lft.to/lastmile_qr_scan"}}, {"name": "75f5f8dabbac5d812bd08cfac9f111c9", "lon": -76.98496933333334, "lat": 38.9151865, "type": "electric_scooter", "fusion_lon": 0.0, "is_reserved": 0, "bike_id": "75f5f8dabbac5d812bd08cfac9f111c9", "fusion_lat": 0.0, "is_disabled": 0, "rental_uris": {"ios": "https://dc.lft.to/lastmile_qr_scan", "android": "https://dc.lft.to/lastmile_qr_scan"}}, {"name": "26720e0b780805a53f4e76e163b97903", "lon": -76.9723635, "lat": 38.94907, "type": "electric_bike", "fusion_lon": 0.0, "is_reserved": 0, "bike_id": "26720e0b780805a53f4e76e163b97903", "fusion_lat": 0.0, "is_disabled": 0, "rental_uris": {"ios": "https://dc.lft.to/lastmile_qr_scan", "android": "https://dc.lft.to/lastmile_qr_scan"}}, {"name": "024e3c4495af1bfc45139098a9c63a61", "lon": -77.0389205, "lat": 38.92254366666667, "type": "electric_scooter", "fusion_lon": 0.0, "is_reserved": 0, "bike_id": "024e3c4495af1bfc45139098a9c63a61", "fusion_lat": 0.0, "is_disabled": 0, "rental_uris": {"ios": "https://dc.lft.to/lastmile_qr_scan", "android": "https://dc.lft.to/lastmile_qr_scan"}}, {"name": "2453755119d0a4679a9a8008819a20dd", "lon": -77.08585233333334, "lat": 38.84440016666667, "type": "electric_bike", "fusion_lon": 0.0, "is_reserved": 0, "bike_id": "2453755119d0a4679a9a8008819a20dd", "fusion_lat": 0.0, "is_disabled": 0, "rental_uris": {"ios": "https://dc.lft.to/lastmile_qr_scan", "android": "https://dc.lft.to/lastmile_qr_scan"}}, {"name": "2b01d6e46449c8859f893e4ca08bf0ef", "lon": -76.99332166666667, "lat": 38.924469333333334, "type": "electric_scooter", "fusion_lon": 0.0, "is_reserved": 0, "bike_id": "2b01d6e46449c8859f893e4ca08bf0ef", "fusion_lat": 0.0, "is_disabled": 0, "rental_uris": {"ios": "https://dc.lft.to/lastmile_qr_scan", "android": "https://dc.lft.to/lastmile_qr_scan"}}, {"name": "e8e94ca87f2ab5501920604a1a214f9a", "lon": -77.02207466666667, "lat": 38.88643666666667, "type": "electric_scooter", "fusion_lon": 0.0, "is_reserved": 0, "bike_id": "e8e94ca87f2ab5501920604a1a214f9a", "fusion_lat": 0.0, "is_disabled": 0, "rental_uris": {"ios": "https://dc.lft.to/lastmile_qr_scan", "android": "https://dc.lft.to/lastmile_qr_scan"}}, {"name": "255abd6bd05aa9f2bca754175c80c92a", "lon": -77.0365915, "lat": 38.9180345, "type": "electric_scooter", "fusion_lon": 0.0, "is_reserved": 0, "bike_id": "255abd6bd05aa9f2bca754175c80c92a", "fusion_lat": 0.0, "is_disabled": 0, "rental_uris": {"ios": "https://dc.lft.to/lastmile_qr_scan", "android": "https://dc.lft.to/lastmile_qr_scan"}}, {"name": "ac2eee9d6ebb26388acc7e25c3d5b15d", "lon": -77.03823583333333, "lat": 38.90661716666666, "type": "electric_scooter", "fusion_lon": 0.0, "is_reserved": 0, "bike_id": "ac2eee9d6ebb26388acc7e25c3d5b15d", "fusion_lat": 0.0, "is_disabled": 0, "rental_uris": {"ios": "https://dc.lft.to/lastmile_qr_scan", "android": "https://dc.lft.to/lastmile_qr_scan"}}, {"name": "b6a34be0ee4c3905edaffa1751bc7a90", "lon": -77.03475216666666, "lat": 38.925469666666665, "type": "electric_scooter", "fusion_lon": 0.0, "is_reserved": 0, "bike_id": "b6a34be0ee4c3905edaffa1751bc7a90", "fusion_lat": 0.0, "is_disabled": 0, "rental_uris": {"ios": "https://dc.lft.to/lastmile_qr_scan", "android": "https://dc.lft.to/lastmile_qr_scan"}}, {"name": "d722cc83306c98691791b2d8af6daffd", "lon": -77.037022, "lat": 38.92045733333333, "type": "electric_bike", "fusion_lon": 0.0, "is_reserved": 0, "bike_id": "d722cc83306c98691791b2d8af6daffd", "fusion_lat": 0.0, "is_disabled": 0, "rental_uris": {"ios": "https://dc.lft.to/lastmile_qr_scan", "android": "https://dc.lft.to/lastmile_qr_scan"}}, {"name": "98bb3456bb9558d2539307dc0f37dbe2", "lon": -77.02277733333334, "lat": 38.89505166666667, "type": "electric_scooter", "fusion_lon": 0.0, "is_reserved": 0, "bike_id": "98bb3456bb9558d2539307dc0f37dbe2", "fusion_lat": 0.0, "is_disabled": 0, "rental_uris": {"ios": "https://dc.lft.to/lastmile_qr_scan", "android": "https://dc.lft.to/lastmile_qr_scan"}}, {"name": "7d00e140fc6e492410dff9a0ee14445e", "lon": -77.02089416666666, "lat": 38.930125833333335, "type": "electric_scooter", "fusion_lon": 0.0, "is_reserved": 0, "bike_id": "7d00e140fc6e492410dff9a0ee14445e", "fusion_lat": 0.0, "is_disabled": 0, "rental_uris": {"ios": "https://dc.lft.to/lastmile_qr_scan", "android": "https://dc.lft.to/lastmile_qr_scan"}}, {"name": "ce37b335b1d01e9c3843ca33c3949b78", "lon": -77.03536116666666, "lat": 38.923198166666666, "type": "electric_scooter", "fusion_lon": 0.0, "is_reserved": 0, "bike_id": "ce37b335b1d01e9c3843ca33c3949b78", "fusion_lat": 0.0, "is_disabled": 0, "rental_uris": {"ios": "https://dc.lft.to/lastmile_qr_scan", "android": "https://dc.lft.to/lastmile_qr_scan"}}, {"name": "b8bab4908375199e2de0418ebe95069e", "lon": -77.04477783333333, "lat": 38.912431833333336, "type": "electric_scooter", "fusion_lon": 0.0, "is_reserved": 0, "bike_id": "b8bab4908375199e2de0418ebe95069e", "fusion_lat": 0.0, "is_disabled": 0, "rental_uris": {"ios": "https://dc.lft.to/lastmile_qr_scan", "android": "https://dc.lft.to/lastmile_qr_scan"}}, {"name": "c328edd23a865a05f4d6168d02eb3de5", "lon": -77.02984183333334, "lat": 38.924449833333334, "type": "electric_scooter", "fusion_lon": 0.0, "is_reserved": 0, "bike_id": "c328edd23a865a05f4d6168d02eb3de5", "fusion_lat": 0.0, "is_disabled": 0, "rental_uris": {"ios": "https://dc.lft.to/lastmile_qr_scan", "android": "https://dc.lft.to/lastmile_qr_scan"}}, {"name": "529d3009ea2e28d852dd650a756ebde0", "lon": -77.0220235, "lat": 38.90582633333333, "type": "electric_scooter", "fusion_lon": 0.0, "is_reserved": 0, "bike_id": "529d3009ea2e28d852dd650a756ebde0", "fusion_lat": 0.0, "is_disabled": 0, "rental_uris": {"ios": "https://dc.lft.to/lastmile_qr_scan", "android": "https://dc.lft.to/lastmile_qr_scan"}}, {"name": "e5532b73455becf3a6c080fe860ad207", "lon": -77.03639566666666, "lat": 38.915817, "type": "electric_scooter", "fusion_lon": 0.0, "is_reserved": 0, "bike_id": "e5532b73455becf3a6c080fe860ad207", "fusion_lat": 0.0, "is_disabled": 0, "rental_uris": {"ios": "https://dc.lft.to/lastmile_qr_scan", "android": "https://dc.lft.to/lastmile_qr_scan"}}, {"name": "25cc7df9c3b3fdec6cfb4dbe25422b40", "lon": -77.035433, "lat": 38.92405133333333, "type": "electric_scooter", "fusion_lon": 0.0, "is_reserved": 0, "bike_id": "25cc7df9c3b3fdec6cfb4dbe25422b40", "fusion_lat": 0.0, "is_disabled": 0, "rental_uris": {"ios": "https://dc.lft.to/lastmile_qr_scan", "android": "https://dc.lft.to/lastmile_qr_scan"}}, {"name": "98a62487b620e01d34f03a9dd4935f35", "lon": -77.0348595, "lat": 38.93277766666667, "type": "electric_scooter", "fusion_lon": 0.0, "is_reserved": 0, "bike_id": "98a62487b620e01d34f03a9dd4935f35", "fusion_lat": 0.0, "is_disabled": 0, "rental_uris": {"ios": "https://dc.lft.to/lastmile_qr_scan", "android": "https://dc.lft.to/lastmile_qr_scan"}}, {"name": "760a6fa38304c651180ecdbaba6cdd4a", "lon": -77.03158716666667, "lat": 38.92974666666667, "type": "electric_scooter", "fusion_lon": 0.0, "is_reserved": 0, "bike_id": "760a6fa38304c651180ecdbaba6cdd4a", "fusion_lat": 0.0, "is_disabled": 0, "rental_uris": {"ios": "https://dc.lft.to/lastmile_qr_scan", "android": "https://dc.lft.to/lastmile_qr_scan"}}, {"name": "a941e1b0e406095a3919057839f6ffc0", "lon": -77.0321455, "lat": 38.909733333333335, "type": "electric_scooter", "fusion_lon": 0.0, "is_reserved": 0, "bike_id": "a941e1b0e406095a3919057839f6ffc0", "fusion_lat": 0.0, "is_disabled": 0, "rental_uris": {"ios": "https://dc.lft.to/lastmile_qr_scan", "android": "https://dc.lft.to/lastmile_qr_scan"}}, {"name": "c2279582196fb16c470aa3b5dcc42592", "lon": -77.04248366666667, "lat": 38.906541833333335, "type": "electric_scooter", "fusion_lon": 0.0, "is_reserved": 0, "bike_id": "c2279582196fb16c470aa3b5dcc42592", "fusion_lat": 0.0, "is_disabled": 0, "rental_uris": {"ios": "https://dc.lft.to/lastmile_qr_scan", "android": "https://dc.lft.to/lastmile_qr_scan"}}, {"name": "8be874f9c90961bb789ece79300201bb", "lon": -77.01904833333333, "lat": 38.91391266666667, "type": "electric_scooter", "fusion_lon": 0.0, "is_reserved": 0, "bike_id": "8be874f9c90961bb789ece79300201bb", "fusion_lat": 0.0, "is_disabled": 0, "rental_uris": {"ios": "https://dc.lft.to/lastmile_qr_scan", "android": "https://dc.lft.to/lastmile_qr_scan"}}, {"name": "401c99e8f5315ad5c339a9aebcdacd06", "lon": -77.02746883333333, "lat": 38.92414183333333, "type": "electric_scooter", "fusion_lon": 0.0, "is_reserved": 0, "bike_id": "401c99e8f5315ad5c339a9aebcdacd06", "fusion_lat": 0.0, "is_disabled": 0, "rental_uris": {"ios": "https://dc.lft.to/lastmile_qr_scan", "android": "https://dc.lft.to/lastmile_qr_scan"}}, {"name": "db1d081a1ac1c42c0ed4d510f9cd8339", "lon": -77.0542785, "lat": 38.9235505, "type": "electric_scooter", "fusion_lon": 0.0, "is_reserved": 0, "bike_id": "db1d081a1ac1c42c0ed4d510f9cd8339", "fusion_lat": 0.0, "is_disabled": 0, "rental_uris": {"ios": "https://dc.lft.to/lastmile_qr_scan", "android": "https://dc.lft.to/lastmile_qr_scan"}}, {"name": "ce35adb6bc895b09600d9639aace9fde", "lon": -77.02731966666667, "lat": 38.92765283333333, "type": "electric_scooter", "fusion_lon": 0.0, "is_reserved": 0, "bike_id": "ce35adb6bc895b09600d9639aace9fde", "fusion_lat": 0.0, "is_disabled": 0, "rental_uris": {"ios": "https://dc.lft.to/lastmile_qr_scan", "android": "https://dc.lft.to/lastmile_qr_scan"}}, {"name": "8f6e3bf067e25a7c80ffbc6310721786", "lon": -77.004408, "lat": 38.87679216666667, "type": "electric_scooter", "fusion_lon": 0.0, "is_reserved": 0, "bike_id": "8f6e3bf067e25a7c80ffbc6310721786", "fusion_lat": 0.0, "is_disabled": 0, "rental_uris": {"ios": "https://dc.lft.to/lastmile_qr_scan", "android": "https://dc.lft.to/lastmile_qr_scan"}}, {"name": "23ac33e1754706cd0174d59f527ee877", "lon": -77.03842633333333, "lat": 38.912031666666664, "type": "electric_scooter", "fusion_lon": 0.0, "is_reserved": 0, "bike_id": "23ac33e1754706cd0174d59f527ee877", "fusion_lat": 0.0, "is_disabled": 0, "rental_uris": {"ios": "https://dc.lft.to/lastmile_qr_scan", "android": "https://dc.lft.to/lastmile_qr_scan"}}, {"name": "4917ad5e9100e5aff801132e5fe4204e", "lon": -77.0511695, "lat": 38.923444833333335, "type": "electric_scooter", "fusion_lon": 0.0, "is_reserved": 0, "bike_id": "4917ad5e9100e5aff801132e5fe4204e", "fusion_lat": 0.0, "is_disabled": 0, "rental_uris": {"ios": "https://dc.lft.to/lastmile_qr_scan", "android": "https://dc.lft.to/lastmile_qr_scan"}}, {"name": "8aae7be029e226c423b5c71b2f37a51d", "lon": -77.04824333333333, "lat": 38.91057466666667, "type": "electric_scooter", "fusion_lon": 0.0, "is_reserved": 0, "bike_id": "8aae7be029e226c423b5c71b2f37a51d", "fusion_lat": 0.0, "is_disabled": 0, "rental_uris": {"ios": "https://dc.lft.to/lastmile_qr_scan", "android": "https://dc.lft.to/lastmile_qr_scan"}}, {"name": "4ec4edc0e846c0a21c50257ed9c3398d", "lon": -77.02200883333333, "lat": 38.90587033333333, "type": "electric_scooter", "fusion_lon": 0.0, "is_reserved": 0, "bike_id": "4ec4edc0e846c0a21c50257ed9c3398d", "fusion_lat": 0.0, "is_disabled": 0, "rental_uris": {"ios": "https://dc.lft.to/lastmile_qr_scan", "android": "https://dc.lft.to/lastmile_qr_scan"}}, {"name": "a7a96ef689c8370cbf7241d402a42e55", "lon": -76.99811933333334, "lat": 38.885638666666665, "type": "electric_scooter", "fusion_lon": 0.0, "is_reserved": 0, "bike_id": "a7a96ef689c8370cbf7241d402a42e55", "fusion_lat": 0.0, "is_disabled": 0, "rental_uris": {"ios": "https://dc.lft.to/lastmile_qr_scan", "android": "https://dc.lft.to/lastmile_qr_scan"}}, {"name": "027015a16f87a08f019ee3f74a5b5680", "lon": -77.0216525, "lat": 38.9261395, "type": "electric_scooter", "fusion_lon": 0.0, "is_reserved": 0, "bike_id": "027015a16f87a08f019ee3f74a5b5680", "fusion_lat": 0.0, "is_disabled": 0, "rental_uris": {"ios": "https://dc.lft.to/lastmile_qr_scan", "android": "https://dc.lft.to/lastmile_qr_scan"}}, {"name": "5c5d34fedcc5907ac13f5ca9b40fab3f", "lon": -77.02702633333334, "lat": 38.9068735, "type": "electric_scooter", "fusion_lon": 0.0, "is_reserved": 0, "bike_id": "5c5d34fedcc5907ac13f5ca9b40fab3f", "fusion_lat": 0.0, "is_disabled": 0, "rental_uris": {"ios": "https://dc.lft.to/lastmile_qr_scan", "android": "https://dc.lft.to/lastmile_qr_scan"}}, {"name": "ac0085bc3a62ce1fe8f1e01c55431e5b", "lon": -77.0318895, "lat": 38.907625833333334, "type": "electric_scooter", "fusion_lon": 0.0, "is_reserved": 0, "bike_id": "ac0085bc3a62ce1fe8f1e01c55431e5b", "fusion_lat": 0.0, "is_disabled": 0, "rental_uris": {"ios": "https://dc.lft.to/lastmile_qr_scan", "android": "https://dc.lft.to/lastmile_qr_scan"}}, {"name": "261c2d3cfa1348694751991958133a03", "lon": -77.02201866666667, "lat": 38.91397766666667, "type": "electric_scooter", "fusion_lon": 0.0, "is_reserved": 0, "bike_id": "261c2d3cfa1348694751991958133a03", "fusion_lat": 0.0, "is_disabled": 0, "rental_uris": {"ios": "https://dc.lft.to/lastmile_qr_scan", "android": "https://dc.lft.to/lastmile_qr_scan"}}, {"name": "b39c79256543e596b5bf135e0b22c85c", "lon": -77.02379533333334, "lat": 38.916506, "type": "electric_scooter", "fusion_lon": 0.0, "is_reserved": 0, "bike_id": "b39c79256543e596b5bf135e0b22c85c", "fusion_lat": 0.0, "is_disabled": 0, "rental_uris": {"ios": "https://dc.lft.to/lastmile_qr_scan", "android": "https://dc.lft.to/lastmile_qr_scan"}}, {"name": "3d667f98e9990f6cb0433b79c2c769e9", "lon": -76.99712516666666, "lat": 38.84425933333333, "type": "electric_scooter", "fusion_lon": 0.0, "is_reserved": 0, "bike_id": "3d667f98e9990f6cb0433b79c2c769e9", "fusion_lat": 0.0, "is_disabled": 0, "rental_uris": {"ios": "https://dc.lft.to/lastmile_qr_scan", "android": "https://dc.lft.to/lastmile_qr_scan"}}, {"name": "63f20fb4250217d2d6faacaecbec9ba1", "lon": -77.006081, "lat": 38.8754935, "type": "electric_scooter", "fusion_lon": 0.0, "is_reserved": 0, "bike_id": "63f20fb4250217d2d6faacaecbec9ba1", "fusion_lat": 0.0, "is_disabled": 0, "rental_uris": {"ios": "https://dc.lft.to/lastmile_qr_scan", "android": "https://dc.lft.to/lastmile_qr_scan"}}, {"name": "f7c04b554f6ca8811faf85964735ee69", "lon": -77.035804, "lat": 38.9191605, "type": "electric_bike", "fusion_lon": 0.0, "is_reserved": 0, "bike_id": "f7c04b554f6ca8811faf85964735ee69", "fusion_lat": 0.0, "is_disabled": 0, "rental_uris": {"ios": "https://dc.lft.to/lastmile_qr_scan", "android": "https://dc.lft.to/lastmile_qr_scan"}}, {"name": "67316b6a060102f8fbabd5e42dcc761d", "lon": -76.98840916666667, "lat": 38.892611, "type": "electric_scooter", "fusion_lon": 0.0, "is_reserved": 0, "bike_id": "67316b6a060102f8fbabd5e42dcc761d", "fusion_lat": 0.0, "is_disabled": 0, "rental_uris": {"ios": "https://dc.lft.to/lastmile_qr_scan", "android": "https://dc.lft.to/lastmile_qr_scan"}}, {"name": "a752cb1a896bd3b6c869a6e0e50b5303", "lon": -77.02694616666666, "lat": 38.90427866666667, "type": "electric_scooter", "fusion_lon": 0.0, "is_reserved": 0, "bike_id": "a752cb1a896bd3b6c869a6e0e50b5303", "fusion_lat": 0.0, "is_disabled": 0, "rental_uris": {"ios": "https://dc.lft.to/lastmile_qr_scan", "android": "https://dc.lft.to/lastmile_qr_scan"}}, {"name": "feccd2be506f97fea94507b0d6e35667", "lon": -77.04852116666666, "lat": 38.91964466666667, "type": "electric_scooter", "fusion_lon": 0.0, "is_reserved": 0, "bike_id": "feccd2be506f97fea94507b0d6e35667", "fusion_lat": 0.0, "is_disabled": 0, "rental_uris": {"ios": "https://dc.lft.to/lastmile_qr_scan", "android": "https://dc.lft.to/lastmile_qr_scan"}}, {"name": "85974451c6cc0263d53178ac57ef8a68", "lon": -77.02296316666667, "lat": 38.928057833333334, "type": "electric_scooter", "fusion_lon": 0.0, "is_reserved": 0, "bike_id": "85974451c6cc0263d53178ac57ef8a68", "fusion_lat": 0.0, "is_disabled": 0, "rental_uris": {"ios": "https://dc.lft.to/lastmile_qr_scan", "android": "https://dc.lft.to/lastmile_qr_scan"}}, {"name": "23efeba5005a7daa62087f6c659ca035", "lon": -76.99843266666667, "lat": 38.89084283333333, "type": "electric_scooter", "fusion_lon": 0.0, "is_reserved": 0, "bike_id": "23efeba5005a7daa62087f6c659ca035", "fusion_lat": 0.0, "is_disabled": 0, "rental_uris": {"ios": "https://dc.lft.to/lastmile_qr_scan", "android": "https://dc.lft.to/lastmile_qr_scan"}}, {"name": "db004616d68c32f40464bd992a3be8e1", "lon": -77.04553333333334, "lat": 38.94105116666667, "type": "electric_scooter", "fusion_lon": 0.0, "is_reserved": 0, "bike_id": "db004616d68c32f40464bd992a3be8e1", "fusion_lat": 0.0, "is_disabled": 0, "rental_uris": {"ios": "https://dc.lft.to/lastmile_qr_scan", "android": "https://dc.lft.to/lastmile_qr_scan"}}, {"name": "44c9a360d879104187e0e8937a31e0d4", "lon": -77.04625916666667, "lat": 38.91934366666667, "type": "electric_scooter", "fusion_lon": 0.0, "is_reserved": 0, "bike_id": "44c9a360d879104187e0e8937a31e0d4", "fusion_lat": 0.0, "is_disabled": 0, "rental_uris": {"ios": "https://dc.lft.to/lastmile_qr_scan", "android": "https://dc.lft.to/lastmile_qr_scan"}}, {"name": "3f4d035b4114bb17aeb561d7878902be", "lon": -77.0345945, "lat": 38.907294666666665, "type": "electric_scooter", "fusion_lon": 0.0, "is_reserved": 0, "bike_id": "3f4d035b4114bb17aeb561d7878902be", "fusion_lat": 0.0, "is_disabled": 0, "rental_uris": {"ios": "https://dc.lft.to/lastmile_qr_scan", "android": "https://dc.lft.to/lastmile_qr_scan"}}, {"name": "0eab5c5382283d3325861e7f6816e69f", "lon": -77.03838083333333, "lat": 38.9071975, "type": "electric_scooter", "fusion_lon": 0.0, "is_reserved": 0, "bike_id": "0eab5c5382283d3325861e7f6816e69f", "fusion_lat": 0.0, "is_disabled": 0, "rental_uris": {"ios": "https://dc.lft.to/lastmile_qr_scan", "android": "https://dc.lft.to/lastmile_qr_scan"}}, {"name": "b26ad4a48745de2d2522e849c664031e", "lon": -77.02335683333334, "lat": 38.92618866666667, "type": "electric_scooter", "fusion_lon": 0.0, "is_reserved": 0, "bike_id": "b26ad4a48745de2d2522e849c664031e", "fusion_lat": 0.0, "is_disabled": 0, "rental_uris": {"ios": "https://dc.lft.to/lastmile_qr_scan", "android": "https://dc.lft.to/lastmile_qr_scan"}}, {"name": "0d8189e0983cf981ee703209f5dc46c9", "lon": -77.01766366666666, "lat": 38.8827075, "type": "electric_scooter", "fusion_lon": 0.0, "is_reserved": 0, "bike_id": "0d8189e0983cf981ee703209f5dc46c9", "fusion_lat": 0.0, "is_disabled": 0, "rental_uris": {"ios": "https://dc.lft.to/lastmile_qr_scan", "android": "https://dc.lft.to/lastmile_qr_scan"}}, {"name": "6563d0491be05d43156fdfdcaa705f0f", "lon": -77.06103166666666, "lat": 38.9370485, "type": "electric_scooter", "fusion_lon": 0.0, "is_reserved": 0, "bike_id": "6563d0491be05d43156fdfdcaa705f0f", "fusion_lat": 0.0, "is_disabled": 0, "rental_uris": {"ios": "https://dc.lft.to/lastmile_qr_scan", "android": "https://dc.lft.to/lastmile_qr_scan"}}, {"name": "e0beae69b053c2e8143e8c025358fd58", "lon": -77.02446166666667, "lat": 38.92409, "type": "electric_scooter", "fusion_lon": 0.0, "is_reserved": 0, "bike_id": "e0beae69b053c2e8143e8c025358fd58", "fusion_lat": 0.0, "is_disabled": 0, "rental_uris": {"ios": "https://dc.lft.to/lastmile_qr_scan", "android": "https://dc.lft.to/lastmile_qr_scan"}}, {"name": "9ce4b0cba42ce9ea16ecf2ed2df20d5e", "lon": -76.9884335, "lat": 38.901948, "type": "electric_scooter", "fusion_lon": 0.0, "is_reserved": 0, "bike_id": "9ce4b0cba42ce9ea16ecf2ed2df20d5e", "fusion_lat": 0.0, "is_disabled": 0, "rental_uris": {"ios": "https://dc.lft.to/lastmile_qr_scan", "android": "https://dc.lft.to/lastmile_qr_scan"}}, {"name": "0d14df5caa7d66841d7854d09818e5bf", "lon": -76.98480666666667, "lat": 38.9109495, "type": "electric_bike", "fusion_lon": 0.0, "is_reserved": 0, "bike_id": "0d14df5caa7d66841d7854d09818e5bf", "fusion_lat": 0.0, "is_disabled": 0, "rental_uris": {"ios": "https://dc.lft.to/lastmile_qr_scan", "android": "https://dc.lft.to/lastmile_qr_scan"}}, {"name": "ce710c09e6ae05bb8d921346d036163d", "lon": -77.02597216666666, "lat": 38.91692066666667, "type": "electric_scooter", "fusion_lon": 0.0, "is_reserved": 0, "bike_id": "ce710c09e6ae05bb8d921346d036163d", "fusion_lat": 0.0, "is_disabled": 0, "rental_uris": {"ios": "https://dc.lft.to/lastmile_qr_scan", "android": "https://dc.lft.to/lastmile_qr_scan"}}, {"name": "f6c94f6be3ce53263abf2470365f53a1", "lon": -77.0217995, "lat": 38.91504066666667, "type": "electric_scooter", "fusion_lon": 0.0, "is_reserved": 0, "bike_id": "f6c94f6be3ce53263abf2470365f53a1", "fusion_lat": 0.0, "is_disabled": 0, "rental_uris": {"ios": "https://dc.lft.to/lastmile_qr_scan", "android": "https://dc.lft.to/lastmile_qr_scan"}}, {"name": "0c9a2111a078d15cd31df79002a9e9c6", "lon": -77.03353833333334, "lat": 38.898240666666666, "type": "electric_scooter", "fusion_lon": 0.0, "is_reserved": 0, "bike_id": "0c9a2111a078d15cd31df79002a9e9c6", "fusion_lat": 0.0, "is_disabled": 0, "rental_uris": {"ios": "https://dc.lft.to/lastmile_qr_scan", "android": "https://dc.lft.to/lastmile_qr_scan"}}, {"name": "9f6c4937fc964b786ae8dc143a45b7f3", "lon": -77.032978, "lat": 38.92060333333333, "type": "electric_scooter", "fusion_lon": 0.0, "is_reserved": 0, "bike_id": "9f6c4937fc964b786ae8dc143a45b7f3", "fusion_lat": 0.0, "is_disabled": 0, "rental_uris": {"ios": "https://dc.lft.to/lastmile_qr_scan", "android": "https://dc.lft.to/lastmile_qr_scan"}}, {"name": "1d4d9f28381f3072c650d1bbbdf9d64a", "lon": -77.0335315, "lat": 38.89837266666667, "type": "electric_scooter", "fusion_lon": 0.0, "is_reserved": 0, "bike_id": "1d4d9f28381f3072c650d1bbbdf9d64a", "fusion_lat": 0.0, "is_disabled": 0, "rental_uris": {"ios": "https://dc.lft.to/lastmile_qr_scan", "android": "https://dc.lft.to/lastmile_qr_scan"}}, {"name": "56ace98784a1585396afff33fdf97a61", "lon": -77.02433933333333, "lat": 38.9096475, "type": "electric_scooter", "fusion_lon": 0.0, "is_reserved": 0, "bike_id": "56ace98784a1585396afff33fdf97a61", "fusion_lat": 0.0, "is_disabled": 0, "rental_uris": {"ios": "https://dc.lft.to/lastmile_qr_scan", "android": "https://dc.lft.to/lastmile_qr_scan"}}, {"name": "68747c595352c042c33254560d0ad3b6", "lon": -77.03050983333333, "lat": 38.91345666666667, "type": "electric_scooter", "fusion_lon": 0.0, "is_reserved": 0, "bike_id": "68747c595352c042c33254560d0ad3b6", "fusion_lat": 0.0, "is_disabled": 0, "rental_uris": {"ios": "https://dc.lft.to/lastmile_qr_scan", "android": "https://dc.lft.to/lastmile_qr_scan"}},