{"data": {"bikes": [{"fusion_lat": 0.0, "lon": -77.03472416666666, "is_reserved": 0, "bike_id": "1ecbd665166d3314bae9763811ce2f28", "fusion_lon": 0.0, "rental_uris": {"android": "https://dc.lft.to/lastmile_qr_scan", "ios": "https://dc.lft.to/lastmile_qr_scan"}, "name": "1ecbd665166d3314bae9763811ce2f28", "type": "electric_scooter", "lat": 38.925435666666665, "is_disabled": 0}, {"fusion_lat": 0.0, "lon": -77.03245883333334, "is_reserved": 0, "bike_id": "5d20a4b857c3a2987053a6d092728f96", "fusion_lon": 0.0, "rental_uris": {"android": "https://dc.lft.to/lastmile_qr_scan", "ios": "https://dc.lft.to/lastmile_qr_scan"}, "name": "5d20a4b857c3a2987053a6d092728f96", "type": "electric_scooter", "lat": 38.929049666666664, "is_disabled": 0}, {"fusion_lat": 0.0, "lon": -76.97804866666667, "is_reserved": 0, "bike_id": "ac2884d4d8da994bfaff954ca08e619f", "fusion_lon": 0.0, "rental_uris": {"android": "https://dc.lft.to/lastmile_qr_scan", "ios": "https://dc.lft.to/lastmile_qr_scan"}, "name": "ac2884d4d8da994bfaff954ca08e619f", "type": "electric_scooter", "lat": 38.90314716666666, "is_disabled": 0}, {"fusion_lat": 0.0, "lon": -77.02108833333334, "is_reserved": 0, "bike_id": "70765949c6977d1ecba95e079379de3b", "fusion_lon": 0.0, "rental_uris": {"android": "https://dc.lft.to/lastmile_qr_scan", "ios": "https://dc.lft.to/lastmile_qr_scan"}, "name": "70765949c6977d1ecba95e079379de3b", "type": "electric_scooter", "lat": 38.8948625, "is_disabled": 0}, {"fusion_lat": 0.0, "lon": -77.038621, "is_reserved": 0, "bike_id": "6800edd742967361ed711755800ff3dd", "fusion_lon": 0.0, "rental_uris": {"android": "https://dc.lft.to/lastmile_qr_scan", "ios": "https://dc.lft.to/lastmile_qr_scan"}, "name": "6800edd742967361ed711755800ff3dd", "type": "electric_scooter", "lat": 38.91289033333334, "is_disabled": 0}, {"fusion_lat": 0.0, "lon": -77.00930266666667, "is_reserved": 0, "bike_id": "16fd839117ab6bdc73a33f8465a7d123", "fusion_lon": 0.0, "rental_uris": {"android": "https://dc.lft.to/lastmile_qr_scan", "ios": "https://dc.lft.to/lastmile_qr_scan"}, "name": "16fd839117ab6bdc73a33f8465a7d123", "type": "electric_scooter", "lat": 38.91805683333333, "is_disabled": 0}, {"fusion_lat": 0.0, "lon": -77.03864083333333, "is_reserved": 0, "bike_id": "d97715fbb6e254ed705f27296d9e9700", "fusion_lon": 0.0, "rental_uris": {"android": "https://dc.lft.to/lastmile_qr_scan", "ios": "https://dc.lft.to/lastmile_qr_scan"}, "name": "d97715fbb6e254ed705f27296d9e9700", "type": "electric_scooter", "lat": 38.915588666666665, "is_disabled": 0}, {"fusion_lat": 0.0, "lon": -77.03224366666667, "is_reserved": 0, "bike_id": "9d9658f227daffd07eec25b26cf19755", "fusion_lon": 0.0, "rental_uris": {"android": "https://dc.lft.to/lastmile_qr_scan", "ios": "https://dc.lft.to/lastmile_qr_scan"}, "name": "9d9658f227daffd07eec25b26cf19755", "type": "electric_scooter", "lat": 38.892291166666666, "is_disabled": 0}, {"fusion_lat": 0.0, "lon": -76.9908305, "is_reserved": 0, "bike_id": "3875215b7bca78b4928c18734f65ade5", "fusion_lon": 0.0, "rental_uris": {"android": "https://dc.lft.to/lastmile_qr_scan", "ios": "https://dc.lft.to/lastmile_qr_scan"}, "name": "3875215b7bca78b4928c18734f65ade5", "type": "electric_bike", "lat": 38.86236066666667, "is_disabled": 0}, {"fusion_lat": 0.0, "lon": -77.02542916666667, "is_reserved": 0, "bike_id": "23e66a215dd682a7edbc48c906c44542", "fusion_lon": 0.0, "rental_uris": {"android": "https://dc.lft.to/lastmile_qr_scan", "ios": "https://dc.lft.to/lastmile_qr_scan"}, "name": "23e66a215dd682a7edbc48c906c44542", "type": "electric_scooter", "lat": 38.920766666666665, "is_disabled": 0}, {"fusion_lat": 0.0, "lon": -77.00429383333334, "is_reserved": 0, "bike_id": "5520155b0733632aa37e2f67c1d66653", "fusion_lon": 0.0, "rental_uris": {"android": "https://dc.lft.to/lastmile_qr_scan", "ios": "https://dc.lft.to/lastmile_qr_scan"}, "name": "5520155b0733632aa37e2f67c1d66653", "type": "electric_scooter", "lat": 38.9056325, "is_disabled": 0}, {"fusion_lat": 0.0, "lon": -77.0330475, "is_reserved": 0, "bike_id": "38de0b36c0a4dc8e994c6dd6bed9cbb7", "fusion_lon": 0.0, "rental_uris": {"android": "https://dc.lft.to/lastmile_qr_scan", "ios": "https://dc.lft.to/lastmile_qr_scan"}, "name": "38de0b36c0a4dc8e994c6dd6bed9cbb7", "type": "electric_scooter", "lat": 38.95636366666667, "is_disabled": 0}, {"fusion_lat": 0.0, "lon": -77.04360383333334, "is_reserved": 0, "bike_id": "cc45b5a6db58147596916ae4bbcbd263", "fusion_lon": 0.0, "rental_uris": {"android": "https://dc.lft.to/lastmile_qr_scan", "ios": "https://dc.lft.to/lastmile_qr_scan"}, "name": "cc45b5a6db58147596916ae4bbcbd263", "type": "electric_scooter", "lat": 38.89232883333333, "is_disabled": 0}, {"fusion_lat": 0.0, "lon": -77.05878516666667, "is_reserved": 0, "bike_id": "4b9d22c8d1c619bb6813c19186989c1c", "fusion_lon": 0.0, "rental_uris": {"android": "https://dc.lft.to/lastmile_qr_scan", "ios": "https://dc.lft.to/lastmile_qr_scan"}, "name": "4b9d22c8d1c619bb6813c19186989c1c", "type": "electric_scooter", "lat": 38.94293783333333, "is_disabled": 0}, {"fusion_lat": 0.0, "lon": -77.0276505, "is_reserved": 0, "bike_id": "8f14b131874618c9c37db15487cc9498", "fusion_lon": 0.0, "rental_uris": {"android": "https://dc.lft.to/lastmile_qr_scan", "ios": "https://dc.lft.to/lastmile_qr_scan"}, "name": "8f14b131874618c9c37db15487cc9498", "type": "electric_scooter", "lat": 38.95423916666667, "is_disabled": 0}, {"fusion_lat": 0.0, "lon": -76.99376783333334, "is_reserved": 0, "bike_id": "0a63bfe64e541bf25e91661fd4304e68", "fusion_lon": 0.0, "rental_uris": {"android": "https://dc.lft.to/lastmile_qr_scan", "ios": "https://dc.lft.to/lastmile_qr_scan"}, "name": "0a63bfe64e541bf25e91661fd4304e68", "type": "electric_bike", "lat": 38.92297466666667, "is_disabled": 0}, {"fusion_lat": 0.0, "lon": -77.02656233333333, "is_reserved": 0, "bike_id": "683a6fc4fcaeabaaf1211ae761560bad", "fusion_lon": 0.0, "rental_uris": {"android": "https://dc.lft.to/lastmile_qr_scan", "ios": "https://dc.lft.to/lastmile_qr_scan"}, "name": "683a6fc4fcaeabaaf1211ae761560bad", "type": "electric_scooter", "lat": 38.892176666666664, "is_disabled": 0}, {"fusion_lat": 0.0, "lon": -77.02107783333334, "is_reserved": 0, "bike_id": "c22233fb7e2be4794c7e4db5f50e0ee6", "fusion_lon": 0.0, "rental_uris": {"android": "https://dc.lft.to/lastmile_qr_scan", "ios": "https://dc.lft.to/lastmile_qr_scan"}, "name": "c22233fb7e2be4794c7e4db5f50e0ee6", "type": "electric_scooter", "lat": 38.89479933333333, "is_disabled": 0}, {"fusion_lat": 0.0, "lon": -77.0432335, "is_reserved": 0, "bike_id": "18b7765cdd06d537aa515874f726d9c1", "fusion_lon": 0.0, "rental_uris": {"android": "https://dc.lft.to/lastmile_qr_scan", "ios": "https://dc.lft.to/lastmile_qr_scan"}, "name": "18b7765cdd06d537aa515874f726d9c1", "type": "electric_scooter", "lat": 38.9231205, "is_disabled": 0}, {"fusion_lat": 0.0, "lon": -77.0326115, "is_reserved": 0, "bike_id": "d81136f52685a753bc39d6ac9556f1d6", "fusion_lon": 0.0, "rental_uris": {"android": "https://dc.lft.to/lastmile_qr_scan", "ios": "https://dc.lft.to/lastmile_qr_scan"}, "name": "d81136f52685a753bc39d6ac9556f1d6", "type": "electric_scooter", "lat": 38.92742533333333, "is_disabled": 0}, {"fusion_lat": 0.0, "lon": -76.99858916666666, "is_reserved": 0, "bike_id": "e04cf5ab165a669e3c7cae8c0c9361f5", "fusion_lon": 0.0, "rental_uris": {"android": "https://dc.lft.to/lastmile_qr_scan", "ios": "https://dc.lft.to/lastmile_qr_scan"}, "name": "e04cf5ab165a669e3c7cae8c0c9361f5", "type": "electric_scooter", "lat": 38.8941645, "is_disabled": 0}, {"fusion_lat": 0.0, "lon": -77.02462266666667, "is_reserved": 0, "bike_id": "57f7dcc283bfb3642042c90923961472", "fusion_lon": 0.0, "rental_uris": {"android": "https://dc.lft.to/lastmile_qr_scan", "ios": "https://dc.lft.to/lastmile_qr_scan"}, "name": "57f7dcc283bfb3642042c90923961472", "type": "electric_scooter", "lat": 38.89747283333333, "is_disabled": 0}, {"fusion_lat": 0.0, "lon": -77.0498025, "is_reserved": 0, "bike_id": "79a590bf5cb0b92fdff5ef4026cd023f", "fusion_lon": 0.0, "rental_uris": {"android": "https://dc.lft.to/lastmile_qr_scan", "ios": "https://dc.lft.to/lastmile_qr_scan"}, "name": "79a590bf5cb0b92fdff5ef4026cd023f", "type": "electric_bike", "lat": 39.06293733333333, "is_disabled": 0}, {"fusion_lat": 0.0, "lon": -77.030414, "is_reserved": 0, "bike_id": "abe8edd88fd8fc4b817dce4b8ab3581c", "fusion_lon": 0.0, "rental_uris": {"android": "https://dc.lft.to/lastmile_qr_scan", "ios": "https://dc.lft.to/lastmile_qr_scan"}, "name": "abe8edd88fd8fc4b817dce4b8ab3581c", "type": "electric_scooter", "lat": 38.89839033333333, "is_disabled": 0}, {"fusion_lat": 0.0, "lon": -77.04324466666667, "is_reserved": 0, "bike_id": "e49a6f13630ae83fb4c8d74be79389f3", "fusion_lon": 0.0, "rental_uris": {"android": "https://dc.lft.to/lastmile_qr_scan", "ios": "https://dc.lft.to/lastmile_qr_scan"}, "name": "e49a6f13630ae83fb4c8d74be79389f3", "type": "electric_scooter", "lat": 38.892225833333335, "is_disabled": 0}, {"fusion_lat": 0.0, "lon": -77.03292283333333, "is_reserved": 0, "bike_id": "2312cf678fb7eea322958275f48d71e5", "fusion_lon": 0.0, "rental_uris": {"android": "https://dc.lft.to/lastmile_qr_scan", "ios": "https://dc.lft.to/lastmile_qr_scan"}, "name": "2312cf678fb7eea322958275f48d71e5", "type": "electric_scooter", "lat": 38.956345666666664, "is_disabled": 0}, {"fusion_lat": 0.0, "lon": -77.01307016666667, "is_reserved": 0, "bike_id": "8c766c964da138230132a83fbbbfcaea", "fusion_lon": 0.0, "rental_uris": {"android": "https://dc.lft.to/lastmile_qr_scan", "ios": "https://dc.lft.to/lastmile_qr_scan"}, "name": "8c766c964da138230132a83fbbbfcaea", "type": "electric_scooter", "lat": 38.91039816666667, "is_disabled": 0}, {"fusion_lat": 0.0, "lon": -76.942503, "is_reserved": 0, "bike_id": "0b26ac4bf13612a6a52fc6c7b7440ea9", "fusion_lon": 0.0, "rental_uris": {"android": "https://dc.lft.to/lastmile_qr_scan", "ios": "https://dc.lft.to/lastmile_qr_scan"}, "name": "0b26ac4bf13612a6a52fc6c7b7440ea9", "type": "electric_scooter", "lat": 38.8967345, "is_disabled": 0}, {"fusion_lat": 0.0, "lon": -77.0176045, "is_reserved": 0, "bike_id": "2ebbfffbd0d36686f1445c7803a45a8a", "fusion_lon": 0.0, "rental_uris": {"android": "https://dc.lft.to/lastmile_qr_scan", "ios": "https://dc.lft.to/lastmile_qr_scan"}, "name": "2ebbfffbd0d36686f1445c7803a45a8a", "type": "electric_scooter", "lat": 38.903948, "is_disabled": 0}, {"fusion_lat": 0.0, "lon": -76.94621266666667, "is_reserved": 0, "bike_id": "e5953b6bc26314d0ce35508559638915", "fusion_lon": 0.0, "rental_uris": {"android": "https://dc.lft.to/lastmile_qr_scan", "ios": "https://dc.lft.to/lastmile_qr_scan"}, "name": "e5953b6bc26314d0ce35508559638915", "type": "electric_bike", "lat": 38.832379, "is_disabled": 0}, {"fusion_lat": 0.0, "lon": -77.0012255, "is_reserved": 0, "bike_id": "67828d2078679ff711508788948974af", "fusion_lon": 0.0, "rental_uris": {"android": "https://dc.lft.to/lastmile_qr_scan", "ios": "https://dc.lft.to/lastmile_qr_scan"}, "name": "67828d2078679ff711508788948974af", "type": "electric_scooter", "lat": 38.90503233333333, "is_disabled": 0}, {"fusion_lat": 0.0, "lon": -77.031899, "is_reserved": 0, "bike_id": "f2d5cd1f45573e0523084e3e717c66ba", "fusion_lon": 0.0, "rental_uris": {"android": "https://dc.lft.to/lastmile_qr_scan", "ios": "https://dc.lft.to/lastmile_qr_scan"}, "name": "f2d5cd1f45573e0523084e3e717c66ba", "type": "electric_scooter", "lat": 38.91656483333333, "is_disabled": 0}, {"fusion_lat": 0.0, "lon": -77.02795833333333, "is_reserved": 0, "bike_id": "ccc94bde4c7b62a826aa1155bbb160a9", "fusion_lon": 0.0, "rental_uris": {"android": "https://dc.lft.to/lastmile_qr_scan", "ios": "https://dc.lft.to/lastmile_qr_scan"}, "name": "ccc94bde4c7b62a826aa1155bbb160a9", "type": "electric_scooter", "lat": 38.954103333333336, "is_disabled": 0}, {"fusion_lat": 0.0, "lon": -77.01223683333333, "is_reserved": 0, "bike_id": "19f6cf453da5363ca1bd408eefa76095", "fusion_lon": 0.0, "rental_uris": {"android": "https://dc.lft.to/lastmile_qr_scan", "ios": "https://dc.lft.to/lastmile_qr_scan"}, "name": "19f6cf453da5363ca1bd408eefa76095", "type": "electric_scooter", "lat": 38.917568, "is_disabled": 0}, {"fusion_lat": 0.0, "lon": -76.981127, "is_reserved": 0, "bike_id": "e7f6af9e6303a5abba82a38dd1717f83", "fusion_lon": 0.0, "rental_uris": {"android": "https://dc.lft.to/lastmile_qr_scan", "ios": "https://dc.lft.to/lastmile_qr_scan"}, "name": "e7f6af9e6303a5abba82a38dd1717f83", "type": "electric_scooter", "lat": 38.904091, "is_disabled": 0}, {"fusion_lat": 0.0, "lon": -76.99823566666667, "is_reserved": 0, "bike_id": "6cd5cb495501a3651cb459691e879f39", "fusion_lon": 0.0, "rental_uris": {"android": "https://dc.lft.to/lastmile_qr_scan", "ios": "https://dc.lft.to/lastmile_qr_scan"}, "name": "6cd5cb495501a3651cb459691e879f39", "type": "electric_scooter", "lat": 38.90871283333333, "is_disabled": 0}, {"fusion_lat": 0.0, "lon": -76.983728, "is_reserved": 0, "bike_id": "58a4683837a8dbf9ef64789869e48aa5", "fusion_lon": 0.0, "rental_uris": {"android": "https://dc.lft.to/lastmile_qr_scan", "ios": "https://dc.lft.to/lastmile_qr_scan"}, "name": "58a4683837a8dbf9ef64789869e48aa5", "type": "electric_scooter", "lat": 38.915543166666666, "is_disabled": 0}, {"fusion_lat": 0.0, "lon": -77.00575533333334, "is_reserved": 0, "bike_id": "f9e06e8fd02bd3b662d71a80e2cdaa97", "fusion_lon": 0.0, "rental_uris": {"android": "https://dc.lft.to/lastmile_qr_scan", "ios": "https://dc.lft.to/lastmile_qr_scan"}, "name": "f9e06e8fd02bd3b662d71a80e2cdaa97", "type": "electric_scooter", "lat": 38.9056505, "is_disabled": 0}, {"fusion_lat": 0.0, "lon": -77.030858, "is_reserved": 0, "bike_id": "29c5f029a20d8886af314964953038e9", "fusion_lon": 0.0, "rental_uris": {"android": "https://dc.lft.to/lastmile_qr_scan", "ios": "https://dc.lft.to/lastmile_qr_scan"}, "name": "29c5f029a20d8886af314964953038e9", "type": "electric_scooter", "lat": 38.92246933333333, "is_disabled": 0}, {"fusion_lat": 0.0, "lon": -77.032598, "is_reserved": 0, "bike_id": "51abcbf9d666e5aef99bca25c4193d3f", "fusion_lon": 0.0, "rental_uris": {"android": "https://dc.lft.to/lastmile_qr_scan", "ios": "https://dc.lft.to/lastmile_qr_scan"}, "name": "51abcbf9d666e5aef99bca25c4193d3f", "type": "electric_scooter", "lat": 38.93253333333333, "is_disabled": 0}, {"fusion_lat": 0.0, "lon": -77.02954983333333, "is_reserved": 0, "bike_id": "e8abb16a68bf520bbcd15f7a2a9a42de", "fusion_lon": 0.0, "rental_uris": {"android": "https://dc.lft.to/lastmile_qr_scan", "ios": "https://dc.lft.to/lastmile_qr_scan"}, "name": "e8abb16a68bf520bbcd15f7a2a9a42de", "type": "electric_scooter", "lat": 38.916872833333336, "is_disabled": 0}, {"fusion_lat": 0.0, "lon": -77.08032833333333, "is_reserved": 0, "bike_id": "beb02e552fbc6b221f6f81dc24ae72a5", "fusion_lon": 0.0, "rental_uris": {"android": "https://dc.lft.to/lastmile_qr_scan", "ios": "https://dc.lft.to/lastmile_qr_scan"}, "name": "beb02e552fbc6b221f6f81dc24ae72a5", "type": "electric_scooter", "lat": 38.923858333333335, "is_disabled": 0}, {"fusion_lat": 0.0, "lon": -77.04490983333334, "is_reserved": 0, "bike_id": "2208f1c9614ec0a61745bd27d937d617", "fusion_lon": 0.0, "rental_uris": {"android": "https://dc.lft.to/lastmile_qr_scan", "ios": "https://dc.lft.to/lastmile_qr_scan"}, "name": "2208f1c9614ec0a61745bd27d937d617", "type": "electric_scooter", "lat": 38.90514233333333, "is_disabled": 0}, {"fusion_lat": 0.0, "lon": -77.0422205, "is_reserved": 0, "bike_id": "ff7f8ad291e7cb4a7d482f0593670fed", "fusion_lon": 0.0, "rental_uris": {"android": "https://dc.lft.to/lastmile_qr_scan", "ios": "https://dc.lft.to/lastmile_qr_scan"}, "name": "ff7f8ad291e7cb4a7d482f0593670fed", "type": "electric_scooter", "lat": 38.92160583333333, "is_disabled": 0}, {"fusion_lat": 0.0, "lon": -77.0290025, "is_reserved": 0, "bike_id": "633f3571866e3e0e23798fe6f0ed235f", "fusion_lon": 0.0, "rental_uris": {"android": "https://dc.lft.to/lastmile_qr_scan", "ios": "https://dc.lft.to/lastmile_qr_scan"}, "name": "633f3571866e3e0e23798fe6f0ed235f", "type": "electric_scooter", "lat": 38.928164333333335, "is_disabled": 0}, {"fusion_lat": 0.0, "lon": -76.9987905, "is_reserved": 0, "bike_id": "336a27aadc5cd123e9714686fb04b4f5", "fusion_lon": 0.0, "rental_uris": {"android": "https://dc.lft.to/lastmile_qr_scan", "ios": "https://dc.lft.to/lastmile_qr_scan"}, "name": "336a27aadc5cd123e9714686fb04b4f5", "type": "electric_scooter", "lat": 38.90131016666667, "is_disabled": 0}, {"fusion_lat": 0.0, "lon": -77.03877566666667, "is_reserved": 0, "bike_id": "00645b8abb625f4b855861dd100e26cd", "fusion_lon": 0.0, "rental_uris": {"android": "https://dc.lft.to/lastmile_qr_scan", "ios": "https://dc.lft.to/lastmile_qr_scan"}, "name": "00645b8abb625f4b855861dd100e26cd", "type": "electric_scooter", "lat": 38.914684333333334, "is_disabled": 0}, {"fusion_lat": 0.0, "lon": -76.98016816666667, "is_reserved": 0, "bike_id": "da42097adbd2f588fe8fa5dc7c285019", "fusion_lon": 0.0, "rental_uris": {"android": "https://dc.lft.to/lastmile_qr_scan", "ios": "https://dc.lft.to/lastmile_qr_scan"}, "name": "da42097adbd2f588fe8fa5dc7c285019", "type": "electric_scooter", "lat": 38.90288183333333, "is_disabled": 0}, {"fusion_lat": 0.0, "lon": -77.13247366666667, "is_reserved": 0, "bike_id": "864943eaf9bdb99ea5190d94187d64cd", "fusion_lon": 0.0, "rental_uris": {"android": "https://dc.lft.to/lastmile_qr_scan", "ios": "https://dc.lft.to/lastmile_qr_scan"}, "name": "864943eaf9bdb99ea5190d94187d64cd", "type": "electric_bike", "lat": 38.805742, "is_disabled": 0}, {"fusion_lat": 0.0, "lon": -77.02144266666667, "is_reserved": 0, "bike_id": "b4bcf466bf389a8cbfe5456c2c4a3d30", "fusion_lon": 0.0, "rental_uris": {"android": "https://dc.lft.to/lastmile_qr_scan", "ios": "https://dc.lft.to/lastmile_qr_scan"}, "name": "b4bcf466bf389a8cbfe5456c2c4a3d30", "type": "electric_scooter", "lat": 38.92323783333333, "is_disabled": 0}, {"fusion_lat": 0.0, "lon": -77.03274816666666, "is_reserved": 0, "bike_id": "49c5c8b47ad732dc428cdd10a60f4b83", "fusion_lon": 0.0, "rental_uris": {"android": "https://dc.lft.to/lastmile_qr_scan", "ios": "https://dc.lft.to/lastmile_qr_scan"}, "name": "49c5c8b47ad732dc428cdd10a60f4b83", "type": "electric_scooter", "lat": 38.90455583333333, "is_disabled": 0}, {"fusion_lat": 0.0, "lon": -76.98192966666667, "is_reserved": 0, "bike_id": "4e50dca00597f1f071dc47545e143e62", "fusion_lon": 0.0, "rental_uris": {"android": "https://dc.lft.to/lastmile_qr_scan", "ios": "https://dc.lft.to/lastmile_qr_scan"}, "name": "4e50dca00597f1f071dc47545e143e62", "type": "electric_scooter", "lat": 38.90284183333333, "is_disabled": 0}, {"fusion_lat": 0.0, "lon": -77.02766766666667, "is_reserved": 0, "bike_id": "4f636d2ce76cff75fe1edeb1ddd23044", "fusion_lon": 0.0, "rental_uris": {"android": "https://dc.lft.to/lastmile_qr_scan", "ios": "https://dc.lft.to/lastmile_qr_scan"}, "name": "4f636d2ce76cff75fe1edeb1ddd23044", "type": "electric_scooter", "lat": 38.95420716666667, "is_disabled": 0}, {"fusion_lat": 0.0, "lon": -77.03159283333333, "is_reserved": 0, "bike_id": "936a56fd9b624f8886dc37989ebf9ea0", "fusion_lon": 0.0, "rental_uris": {"android": "https://dc.lft.to/lastmile_qr_scan", "ios": "https://dc.lft.to/lastmile_qr_scan"}, "name": "936a56fd9b624f8886dc37989ebf9ea0", "type": "electric_scooter", "lat": 38.90605266666667, "is_disabled": 0}, {"fusion_lat": 0.0, "lon": -77.05346133333333, "is_reserved": 0, "bike_id": "bf770012e3d4560ce7a079aa818c6959", "fusion_lon": 0.0, "rental_uris": {"android": "https://dc.lft.to/lastmile_qr_scan", "ios": "https://dc.lft.to/lastmile_qr_scan"}, "name": "bf770012e3d4560ce7a079aa818c6959", "type": "electric_scooter", "lat": 38.92352966666667, "is_disabled": 0}, {"fusion_lat": 0.0, "lon": -77.02283, "is_reserved": 0, "bike_id": "64835cb6d618e65565fdddd75402cc45", "fusion_lon": 0.0, "rental_uris": {"android": "https://dc.lft.to/lastmile_qr_scan", "ios": "https://dc.lft.to/lastmile_qr_scan"}, "name": "64835cb6d618e65565fdddd75402cc45", "type": "electric_scooter", "lat": 38.935367666666664, "is_disabled": 0}, {"fusion_lat": 0.0, "lon": -77.00024033333334, "is_reserved": 0, "bike_id": "26efd602e1af4e5511543f558692d35e", "fusion_lon": 0.0, "rental_uris": {"android": "https://dc.lft.to/lastmile_qr_scan", "ios": "https://dc.lft.to/lastmile_qr_scan"}, "name": "26efd602e1af4e5511543f558692d35e", "type": "electric_scooter", "lat": 38.90769133333333, "is_disabled": 0}, {"fusion_lat": 0.0, "lon": -77.0116265, "is_reserved": 0, "bike_id": "91ebc4ffe3be5d5c7414dc80894f730b", "fusion_lon": 0.0, "rental_uris": {"android": "https://dc.lft.to/lastmile_qr_scan", "ios": "https://dc.lft.to/lastmile_qr_scan"}, "name": "91ebc4ffe3be5d5c7414dc80894f730b", "type": "electric_scooter", "lat": 38.900209, "is_disabled": 0}, {"fusion_lat": 0.0, "lon": -77.0633005, "is_reserved": 0, "bike_id": "a840ab704ede8333903900a0cc22b2bf", "fusion_lon": 0.0, "rental_uris": {"android": "https://dc.lft.to/lastmile_qr_scan", "ios": "https://dc.lft.to/lastmile_qr_scan"}, "name": "a840ab704ede8333903900a0cc22b2bf", "type": "electric_scooter", "lat": 38.9076875, "is_disabled": 0}, {"fusion_lat": 0.0, "lon": -76.98694733333333, "is_reserved": 0, "bike_id": "7fd074d226a838d25ca01c8131eaf4b3", "fusion_lon": 0.0, "rental_uris": {"android": "https://dc.lft.to/lastmile_qr_scan", "ios": "https://dc.lft.to/lastmile_qr_scan"}, "name": "7fd074d226a838d25ca01c8131eaf4b3", "type": "electric_scooter", "lat": 38.862568333333336, "is_disabled": 0}, {"fusion_lat": 0.0, "lon": -77.028721, "is_reserved": 0, "bike_id": "8b550112cb200e5ca1c1ac5332bb249a", "fusion_lon": 0.0, "rental_uris": {"android": "https://dc.lft.to/lastmile_qr_scan", "ios": "https://dc.lft.to/lastmile_qr_scan"}, "name": "8b550112cb200e5ca1c1ac5332bb249a", "type": "electric_scooter", "lat": 38.95093116666666, "is_disabled": 0}, {"fusion_lat": 0.0, "lon": -77.06298233333334, "is_reserved": 0, "bike_id": "15d4d3250ac2e0e829153d2991f4086a", "fusion_lon": 0.0, "rental_uris": {"android": "https://dc.lft.to/lastmile_qr_scan", "ios": "https://dc.lft.to/lastmile_qr_scan"}, "name": "15d4d3250ac2e0e829153d2991f4086a", "type": "electric_scooter", "lat": 38.903953333333334, "is_disabled": 0}, {"fusion_lat": 0.0, "lon": -77.02170116666667, "is_reserved": 0, "bike_id": "798b4f6ab09d50dbff7a865e20d57868", "fusion_lon": 0.0, "rental_uris": {"android": "https://dc.lft.to/lastmile_qr_scan", "ios": "https://dc.lft.to/lastmile_qr_scan"}, "name": "798b4f6ab09d50dbff7a865e20d57868", "type": "electric_scooter", "lat": 38.89754116666667, "is_disabled": 0}, {"fusion_lat": 0.0, "lon": -77.08937266666666, "is_reserved": 0, "bike_id": "9e7dd18f20cd8ba7675189684d870b98", "fusion_lon": 0.0, "rental_uris": {"android": "https://dc.lft.to/lastmile_qr_scan", "ios": "https://dc.lft.to/lastmile_qr_scan"}, "name": "9e7dd18f20cd8ba7675189684d870b98", "type": "electric_bike", "lat": 38.84111333333333, "is_disabled": 0}, {"fusion_lat": 0.0, "lon": -77.01269733333334, "is_reserved": 0, "bike_id": "6ee242ee2e649fc5ea93b627755b5def", "fusion_lon": 0.0, "rental_uris": {"android": "https://dc.lft.to/lastmile_qr_scan", "ios": "https://dc.lft.to/lastmile_qr_scan"}, "name": "6ee242ee2e649fc5ea93b627755b5def", "type": "electric_scooter", "lat": 38.914138333333334, "is_disabled": 0}, {"fusion_lat": 0.0, "lon": -76.950975, "is_reserved": 0, "bike_id": "69781023007db389fa995acc0a14386f", "fusion_lon": 0.0, "rental_uris": {"android": "https://dc.lft.to/lastmile_qr_scan", "ios": "https://dc.lft.to/lastmile_qr_scan"}, "name": "69781023007db389fa995acc0a14386f", "type": "electric_scooter", "lat": 38.884491, "is_disabled": 0}, {"fusion_lat": 0.0, "lon": -76.933676, "is_reserved": 0, "bike_id": "cd5a0af321bb4d003fd8b9708c9802c2", "fusion_lon": 0.0, "rental_uris": {"android": "https://dc.lft.to/lastmile_qr_scan", "ios": "https://dc.lft.to/lastmile_qr_scan"}, "name": "cd5a0af321bb4d003fd8b9708c9802c2", "type": "electric_scooter", "lat": 38.89915366666666, "is_disabled": 0}, {"fusion_lat": 0.0, "lon": -77.03489033333334, "is_reserved": 0, "bike_id": "c183a9a73861bbe491e23529f7d7d26a", "fusion_lon": 0.0, "rental_uris": {"android": "https://dc.lft.to/lastmile_qr_scan", "ios": "https://dc.lft.to/lastmile_qr_scan"}, "name": "c183a9a73861bbe491e23529f7d7d26a", "type": "electric_scooter", "lat": 38.9234135, "is_disabled": 0}, {"fusion_lat": 0.0, "lon": -77.0240515, "is_reserved": 0, "bike_id": "5bf36e0e97285f33dcc0ae6484b82514", "fusion_lon": 0.0, "rental_uris": {"android": "https://dc.lft.to/lastmile_qr_scan", "ios": "https://dc.lft.to/lastmile_qr_scan"}, "name": "5bf36e0e97285f33dcc0ae6484b82514", "type": "electric_scooter", "lat": 38.91997383333333, "is_disabled": 0}, {"fusion_lat": 0.0, "lon": -76.996033, "is_reserved": 0, "bike_id": "283a94812e31bf389fa1a15a53bf489f", "fusion_lon": 0.0, "rental_uris": {"android": "https://dc.lft.to/lastmile_qr_scan", "ios": "https://dc.lft.to/lastmile_qr_scan"}, "name": "283a94812e31bf389fa1a15a53bf489f", "type": "electric_scooter", "lat": 38.8922665, "is_disabled": 0}, {"fusion_lat": 0.0, "lon": -77.01206116666667, "is_reserved": 0, "bike_id": "efe9e79df4413e3fdd04e4f76f62e8f5", "fusion_lon": 0.0, "rental_uris": {"android": "https://dc.lft.to/lastmile_qr_scan", "ios": "https://dc.lft.to/lastmile_qr_scan"}, "name": "efe9e79df4413e3fdd04e4f76f62e8f5", "type": "electric_bike", "lat": 38.87099533333333, "is_disabled": 0}, {"fusion_lat": 0.0, "lon": -77.0228685, "is_reserved": 0, "bike_id": "bb3f7bdf0e36870f6e31d8254efea4ed", "fusion_lon": 0.0, "rental_uris": {"android": "https://dc.lft.to/lastmile_qr_scan", "ios": "https://dc.lft.to/lastmile_qr_scan"}, "name": "bb3f7bdf0e36870f6e31d8254efea4ed", "type": "electric_scooter", "lat": 38.927244, "is_disabled": 0}, {"fusion_lat": 0.0, "lon": -77.04228433333333, "is_reserved": 0, "bike_id": "dec8219c4c2c9571038fc8e535ca3d6c", "fusion_lon": 0.0, "rental_uris": {"android": "https://dc.lft.to/lastmile_qr_scan", "ios": "https://dc.lft.to/lastmile_qr_scan"}, "name": "dec8219c4c2c9571038fc8e535ca3d6c", "type": "electric_scooter", "lat": 38.92174333333333, "is_disabled": 0}, {"fusion_lat": 0.0, "lon": -77.02547016666666, "is_reserved": 0, "bike_id": "c65b7c0db8dac409c438ed174e5170d5", "fusion_lon": 0.0, "rental_uris": {"android": "https://dc.lft.to/lastmile_qr_scan", "ios": "https://dc.lft.to/lastmile_qr_scan"}, "name": "c65b7c0db8dac409c438ed174e5170d5", "type": "electric_scooter", "lat": 38.9247215, "is_disabled": 0}, {"fusion_lat": 0.0, "lon": -77.01363666666667, "is_reserved": 0, "bike_id": "f7eea022aa9fa90d8a0e2264a5310d3e", "fusion_lon": 0.0, "rental_uris": {"android": "https://dc.lft.to/lastmile_qr_scan", "ios": "https://dc.lft.to/lastmile_qr_scan"}, "name": "f7eea022aa9fa90d8a0e2264a5310d3e", "type": "electric_scooter", "lat": 38.8870785, "is_disabled": 0}, {"fusion_lat": 0.0, "lon": -77.0130625, "is_reserved": 0, "bike_id": "a686262dfe853aee0981418e3483c968", "fusion_lon": 0.0, "rental_uris": {"android": "https://dc.lft.to/lastmile_qr_scan", "ios": "https://dc.lft.to/lastmile_qr_scan"}, "name": "a686262dfe853aee0981418e3483c968", "type": "electric_scooter", "lat": 38.900659, "is_disabled": 0}, {"fusion_lat": 0.0, "lon": -76.969072, "is_reserved": 0, "bike_id": "06bf25693f875cc4a996f2cc651df56c", "fusion_lon": 0.0, "rental_uris": {"android": "https://dc.lft.to/lastmile_qr_scan", "ios": "https://dc.lft.to/lastmile_qr_scan"}, "name": "06bf25693f875cc4a996f2cc651df56c", "type": "electric_bike", "lat": 38.95117366666667, "is_disabled": 0}, {"fusion_lat": 0.0, "lon": -77.22799016666667, "is_reserved": 0, "bike_id": "9994086bdcb5477e564c2c79f40090c7", "fusion_lon": 0.0, "rental_uris": {"android": "https://dc.lft.to/lastmile_qr_scan", "ios": "https://dc.lft.to/lastmile_qr_scan"}, "name": "9994086bdcb5477e564c2c79f40090c7", "type": "electric_bike", "lat": 38.91015616666667, "is_disabled": 0}, {"fusion_lat": 0.0, "lon": -77.04769933333333, "is_reserved": 0, "bike_id": "98eff52ac421b9e517f544a3e3ea8dd1", "fusion_lon": 0.0, "rental_uris": {"android": "https://dc.lft.to/lastmile_qr_scan", "ios": "https://dc.lft.to/lastmile_qr_scan"}, "name": "98eff52ac421b9e517f544a3e3ea8dd1", "type": "electric_scooter", "lat": 38.917534333333336, "is_disabled": 0}, {"fusion_lat": 0.0, "lon": -77.01114033333333, "is_reserved": 0, "bike_id": "df9910f2fe7e362de71d4e49e6e1cf38", "fusion_lon": 0.0, "rental_uris": {"android": "https://dc.lft.to/lastmile_qr_scan", "ios": "https://dc.lft.to/lastmile_qr_scan"}, "name": "df9910f2fe7e362de71d4e49e6e1cf38", "type": "electric_scooter", "lat": 38.894891666666666, "is_disabled": 0}, {"fusion_lat": 0.0, "lon": -77.01782166666666, "is_reserved": 0, "bike_id": "696abd88510ed3cda366ebafb446fb6a", "fusion_lon": 0.0, "rental_uris": {"android": "https://dc.lft.to/lastmile_qr_scan", "ios": "https://dc.lft.to/lastmile_qr_scan"}, "name": "696abd88510ed3cda366ebafb446fb6a", "type": "electric_scooter", "lat": 38.904122, "is_disabled": 0}, {"fusion_lat": 0.0, "lon": -77.0249025, "is_reserved": 0, "bike_id": "706e3f749d47f43087940c25459e4d77", "fusion_lon": 0.0, "rental_uris": {"android": "https://dc.lft.to/lastmile_qr_scan", "ios": "https://dc.lft.to/lastmile_qr_scan"}, "name": "706e3f749d47f43087940c25459e4d77", "type": "electric_scooter", "lat": 38.938667333333335, "is_disabled": 0}, {"fusion_lat": 0.0, "lon": -76.99551283333334, "is_reserved": 0, "bike_id": "c8c24180c224d1b726a14b8197cdea34", "fusion_lon": 0.0, "rental_uris": {"android": "https://dc.lft.to/lastmile_qr_scan", "ios": "https://dc.lft.to/lastmile_qr_scan"}, "name": "c8c24180c224d1b726a14b8197cdea34", "type": "electric_scooter", "lat": 38.86258983333333, "is_disabled": 0}, {"fusion_lat": 0.0, "lon": -77.032086, "is_reserved": 0, "bike_id": "72a274da25aeb7263eda866e20dbe8e2", "fusion_lon": 0.0, "rental_uris": {"android": "https://dc.lft.to/lastmile_qr_scan", "ios": "https://dc.lft.to/lastmile_qr_scan"}, "name": "72a274da25aeb7263eda866e20dbe8e2", "type": "electric_scooter", "lat": 38.91786833333333, "is_disabled": 0}, {"fusion_lat": 0.0, "lon": -77.04092716666666, "is_reserved": 0, "bike_id": "8b2d666c51bc992c6843ec4d44660636", "fusion_lon": 0.0, "rental_uris": {"android": "https://dc.lft.to/lastmile_qr_scan", "ios": "https://dc.lft.to/lastmile_qr_scan"}, "name": "8b2d666c51bc992c6843ec4d44660636", "type": "electric_scooter", "lat": 38.910658166666664, "is_disabled": 0}, {"fusion_lat": 0.0, "lon": -77.03335883333334, "is_reserved": 0, "bike_id": "ed5c9cbbde626582f40e75a02fdf89db", "fusion_lon": 0.0, "rental_uris": {"android": "https://dc.lft.to/lastmile_qr_scan", "ios": "https://dc.lft.to/lastmile_qr_scan"}, "name": "ed5c9cbbde626582f40e75a02fdf89db", "type": "electric_scooter", "lat": 38.92164366666667, "is_disabled": 0}, {"fusion_lat": 0.0, "lon": -76.990346, "is_reserved": 0, "bike_id": "df6f3c7cb946e8d5f3b50c124535c37c", "fusion_lon": 0.0, "rental_uris": {"android": "https://dc.lft.to/lastmile_qr_scan", "ios": "https://dc.lft.to/lastmile_qr_scan"}, "name": "df6f3c7cb946e8d5f3b50c124535c37c", "type": "electric_scooter", "lat": 38.898544333333334, "is_disabled": 0}, {"fusion_lat": 0.0, "lon": -77.01699983333333, "is_reserved": 0, "bike_id": "d848b1275142b916697b0e44c27f594f", "fusion_lon": 0.0, "rental_uris": {"android": "https://dc.lft.to/lastmile_qr_scan", "ios": "https://dc.lft.to/lastmile_qr_scan"}, "name": "d848b1275142b916697b0e44c27f594f", "type": "electric_scooter", "lat": 38.975055166666664, "is_disabled": 0}, {"fusion_lat": 0.0, "lon": -77.02389383333333, "is_reserved": 0, "bike_id": "33b59ecdad62a6b1abf8fb1c06f4cde3", "fusion_lon": 0.0, "rental_uris": {"android": "https://dc.lft.to/lastmile_qr_scan", "ios": "https://dc.lft.to/lastmile_qr_scan"}, "name": "33b59ecdad62a6b1abf8fb1c06f4cde3", "type": "electric_scooter", "lat": 38.92596116666667, "is_disabled": 0}, {"fusion_lat": 0.0, "lon": -77.00241783333334, "is_reserved": 0, "bike_id": "399780d260382796afc882b2ae8e60c9", "fusion_lon": 0.0, "rental_uris": {"android": "https://dc.lft.to/lastmile_qr_scan", "ios": "https://dc.lft.to/lastmile_qr_scan"}, "name": "399780d260382796afc882b2ae8e60c9", "type": "electric_scooter", "lat": 38.957224333333336, "is_disabled": 0}, {"fusion_lat": 0.0, "lon": -76.98825383333333, "is_reserved": 0, "bike_id": "cde800855b325897c465fdcd298a595d", "fusion_lon": 0.0, "rental_uris": {"android": "https://dc.lft.to/lastmile_qr_scan", "ios": "https://dc.lft.to/lastmile_qr_scan"}, "name": "cde800855b325897c465fdcd298a595d", "type": "electric_scooter", "lat": 38.890736833333335, "is_disabled": 0}, {"fusion_lat": 0.0, "lon": -77.02984133333334, "is_reserved": 0, "bike_id": "18307c018867c09d43421a10f728aa14", "fusion_lon": 0.0, "rental_uris": {"android": "https://dc.lft.to/lastmile_qr_scan", "ios": "https://dc.lft.to/lastmile_qr_scan"}, "name": "18307c018867c09d43421a10f728aa14", "type": "electric_scooter", "lat": 38.921955, "is_disabled": 0}, {"fusion_lat": 0.0, "lon": -77.00923316666666, "is_reserved": 0, "bike_id": "4185f6c30d7291c5650e0c28e572986d", "fusion_lon": 0.0, "rental_uris": {"android": "https://dc.lft.to/lastmile_qr_scan", "ios": "https://dc.lft.to/lastmile_qr_scan"}, "name": "4185f6c30d7291c5650e0c28e572986d", "type": "electric_scooter", "lat": 38.895653, "is_disabled": 0}, {"fusion_lat": 0.0, "lon": -77.0197605, "is_reserved": 0, "bike_id": "623b7505bfbdccc979adc435cdddb9a3", "fusion_lon": 0.0, "rental_uris": {"android": "https://dc.lft.to/lastmile_qr_scan", "ios": "https://dc.lft.to/lastmile_qr_scan"}, "name": "623b7505bfbdccc979adc435cdddb9a3", "type": "electric_scooter", "lat": 38.88324766666667, "is_disabled": 0}, {"fusion_lat": 0.0, "lon": -77.0466025, "is_reserved": 0, "bike_id": "e6854e4dc35604ce0a477c3f9b931e53", "fusion_lon": 0.0, "rental_uris": {"android": "https://dc.lft.to/lastmile_qr_scan", "ios": "https://dc.lft.to/lastmile_qr_scan"}, "name": "e6854e4dc35604ce0a477c3f9b931e53", "type": "electric_scooter", "lat": 38.915926166666665, "is_disabled": 0}, {"fusion_lat": 0.0, "lon": -77.343062, "is_reserved": 0, "bike_id": "da694972b85ab07eaf69f9636dad13c6", "fusion_lon": 0.0, "rental_uris": {"android": "https://dc.lft.to/lastmile_qr_scan", "ios": "https://dc.lft.to/lastmile_qr_scan"}, "name": "da694972b85ab07eaf69f9636dad13c6", "type": "electric_bike", "lat": 38.9460155, "is_disabled": 0}, {"fusion_lat": 0.0, "lon": -77.02389116666667, "is_reserved": 0, "bike_id": "e4bdee1547a0c58f713c0e6d736be622", "fusion_lon": 0.0, "rental_uris": {"android": "https://dc.lft.to/lastmile_qr_scan", "ios": "https://dc.lft.to/lastmile_qr_scan"}, "name": "e4bdee1547a0c58f713c0e6d736be622", "type": "electric_scooter", "lat": 38.908124, "is_disabled": 0}, {"fusion_lat": 0.0, "lon": -77.03831783333334, "is_reserved": 0, "bike_id": "b3f0c4f0924ccab19a0203c648ec5e43", "fusion_lon": 0.0, "rental_uris": {"android": "https://dc.lft.to/lastmile_qr_scan", "ios": "https://dc.lft.to/lastmile_qr_scan"}, "name": "b3f0c4f0924ccab19a0203c648ec5e43", "type": "electric_scooter", "lat": 38.931295166666665, "is_disabled": 0}, {"fusion_lat": 0.0, "lon": -77.02223533333333, "is_reserved": 0, "bike_id": "d47720c18b750ea580789212ab344ea2", "fusion_lon": 0.0, "rental_uris": {"android": "https://dc.lft.to/lastmile_qr_scan", "ios": "https://dc.lft.to/lastmile_qr_scan"}, "name": "d47720c18b750ea580789212ab344ea2", "type": "electric_scooter", "lat": 38.935527666666665, "is_disabled": 0}, {"fusion_lat": 0.0, "lon": -77.021257, "is_reserved": 0, "bike_id": "2b85b8140af260d92c77595bcc8c20db", "fusion_lon": 0.0, "rental_uris": {"android": "https://dc.lft.to/lastmile_qr_scan", "ios": "https://dc.lft.to/lastmile_qr_scan"}, "name": "2b85b8140af260d92c77595bcc8c20db", "type": "electric_scooter", "lat": 38.9241315, "is_disabled": 0}, {"fusion_lat": 0.0, "lon": -76.99581566666667, "is_reserved": 0, "bike_id": "b6fd49a6820298a69cac1b58b04fdd4d", "fusion_lon": 0.0, "rental_uris": {"android": "https://dc.lft.to/lastmile_qr_scan", "ios": "https://dc.lft.to/lastmile_qr_scan"}, "name": "b6fd49a6820298a69cac1b58b04fdd4d", "type": "electric_bike", "lat": 38.852928166666665, "is_disabled": 0}, {"fusion_lat": 0.0, "lon": -77.02476033333333, "is_reserved": 0, "bike_id": "d60bb40af0ba7145d6a0d38832a6dcde", "fusion_lon": 0.0, "rental_uris": {"android": "https://dc.lft.to/lastmile_qr_scan", "ios": "https://dc.lft.to/lastmile_qr_scan"}, "name": "d60bb40af0ba7145d6a0d38832a6dcde", "type": "electric_scooter", "lat": 38.93305466666666, "is_disabled": 0}, {"fusion_lat": 0.0, "lon": -77.04112766666667, "is_reserved": 0, "bike_id": "188aa045964708430ba891b80cb3f83b", "fusion_lon": 0.0, "rental_uris": {"android": "https://dc.lft.to/lastmile_qr_scan", "ios": "https://dc.lft.to/lastmile_qr_scan"}, "name": "188aa045964708430ba891b80cb3f83b", "type": "electric_scooter", "lat": 38.927986, "is_disabled": 0}, {"fusion_lat": 0.0, "lon": -77.02717733333333, "is_reserved": 0, "bike_id": "d1103a6f469157157d65f9d6c7a029dc", "fusion_lon": 0.0, "rental_uris": {"android": "https://dc.lft.to/lastmile_qr_scan", "ios": "https://dc.lft.to/lastmile_qr_scan"}, "name": "d1103a6f469157157d65f9d6c7a029dc", "type": "electric_scooter", "lat": 38.89752283333333, "is_disabled": 0}, {"fusion_lat": 0.0, "lon": -77.02408966666667, "is_reserved": 0, "bike_id": "8cc30e482b788f58ce31470cb98efe20", "fusion_lon": 0.0, "rental_uris": {"android": "https://dc.lft.to/lastmile_qr_scan", "ios": "https://dc.lft.to/lastmile_qr_scan"}, "name": "8cc30e482b788f58ce31470cb98efe20", "type": "electric_scooter", "lat": 38.89256116666667, "is_disabled": 0}, {"fusion_lat": 0.0, "lon": -77.0324295, "is_reserved": 0, "bike_id": "4277d170867a38c59c78f139314eb36b", "fusion_lon": 0.0, "rental_uris": {"android": "https://dc.lft.to/lastmile_qr_scan", "ios": "https://dc.lft.to/lastmile_qr_scan"}, "name": "4277d170867a38c59c78f139314eb36b", "type": "electric_scooter", "lat": 38.9264465, "is_disabled": 0}, {"fusion_lat": 0.0, "lon": -77.03382183333333, "is_reserved": 0, "bike_id": "2b6bacfa4e352747cba0c7a007e7730c", "fusion_lon": 0.0, "rental_uris": {"android": "https://dc.lft.to/lastmile_qr_scan", "ios": "https://dc.lft.to/lastmile_qr_scan"}, "name": "2b6bacfa4e352747cba0c7a007e7730c", "type": "electric_scooter", "lat": 38.908381, "is_disabled": 0}, {"fusion_lat": 0.0, "lon": -77.02965, "is_reserved": 0, "bike_id": "b86c5da408289f7435f76797686803af", "fusion_lon": 0.0, "rental_uris": {"android": "https://dc.lft.to/lastmile_qr_scan", "ios": "https://dc.lft.to/lastmile_qr_scan"}, "name": "b86c5da408289f7435f76797686803af", "type": "electric_scooter", "lat": 38.9256965, "is_disabled": 0}, {"fusion_lat": 0.0, "lon": -77.08579733333333, "is_reserved": 0, "bike_id": "ed1394a1a52718d3db0c7446e6fc6c02", "fusion_lon": 0.0, "rental_uris": {"android": "https://dc.lft.to/lastmile_qr_scan", "ios": "https://dc.lft.to/lastmile_qr_scan"}, "name": "ed1394a1a52718d3db0c7446e6fc6c02", "type": "electric_bike", "lat": 38.844292, "is_disabled": 0}, {"fusion_lat": 0.0, "lon": -77.06397466666667, "is_reserved": 0, "bike_id": "09a5aac138d3e4aa9b971a5216f8e5ad", "fusion_lon": 0.0, "rental_uris": {"android": "https://dc.lft.to/lastmile_qr_scan", "ios": "https://dc.lft.to/lastmile_qr_scan"}, "name": "09a5aac138d3e4aa9b971a5216f8e5ad", "type": "electric_scooter", "lat": 38.943230666666665, "is_disabled": 0}, {"fusion_lat": 0.0, "lon": -77.02623983333334, "is_reserved": 0, "bike_id": "19aec62cadeef0f40866427a45252f76", "fusion_lon": 0.0, "rental_uris": {"android": "https://dc.lft.to/lastmile_qr_scan", "ios": "https://dc.lft.to/lastmile_qr_scan"}, "name": "19aec62cadeef0f40866427a45252f76", "type": "electric_scooter", "lat": 38.90520033333333, "is_disabled": 0}, {"fusion_lat": 0.0, "lon": -76.93733983333334, "is_reserved": 0, "bike_id": "ae60cf4b00b03c439eddc335da2264df", "fusion_lon": 0.0, "rental_uris": {"android": "https://dc.lft.to/lastmile_qr_scan", "ios": "https://dc.lft.to/lastmile_qr_scan"}, "name": "ae60cf4b00b03c439eddc335da2264df", "type": "electric_scooter", "lat": 38.890184166666664, "is_disabled": 0}, {"fusion_lat": 0.0, "lon": -77.03836716666666, "is_reserved": 0, "bike_id": "a0859f785acc894613600b4b1eca14c6", "fusion_lon": 0.0, "rental_uris": {"android": "https://dc.lft.to/lastmile_qr_scan", "ios": "https://dc.lft.to/lastmile_qr_scan"}, "name": "a0859f785acc894613600b4b1eca14c6", "type": "electric_scooter", "lat": 38.91193966666667, "is_disabled": 0}, {"fusion_lat": 0.0, "lon": -76.99035416666666, "is_reserved": 0, "bike_id": "7bbb9bed65a50b4184f7a2d4b4c8e88c", "fusion_lon": 0.0, "rental_uris": {"android": "https://dc.lft.to/lastmile_qr_scan", "ios": "https://dc.lft.to/lastmile_qr_scan"}, "name": "7bbb9bed65a50b4184f7a2d4b4c8e88c", "type": "electric_scooter", "lat": 38.90287, "is_disabled": 0}, {"fusion_lat": 0.0, "lon": -77.005959, "is_reserved": 0, "bike_id": "8aeec8bc970ffeb682a1fb639a3cffd2", "fusion_lon": 0.0, "rental_uris": {"android": "https://dc.lft.to/lastmile_qr_scan", "ios": "https://dc.lft.to/lastmile_qr_scan"}, "name": "8aeec8bc970ffeb682a1fb639a3cffd2", "type": "electric_scooter", "lat": 38.885195833333334, "is_disabled": 0}, {"fusion_lat": 0.0, "lon": -76.92203433333333, "is_reserved": 0, "bike_id": "78f2d4d279feb5b7b039c6a2ab06b94e", "fusion_lon": 0.0, "rental_uris": {"android": "https://dc.lft.to/lastmile_qr_scan", "ios": "https://dc.lft.to/lastmile_qr_scan"}, "name": "78f2d4d279feb5b7b039c6a2ab06b94e", "type": "electric_bike", "lat": 38.894955, "is_disabled": 0}, {"fusion_lat": 0.0, "lon": -77.04103416666666, "is_reserved": 0, "bike_id": "64d6fff55e42255afba1b502d2fb868c", "fusion_lon": 0.0, "rental_uris": {"android": "https://dc.lft.to/lastmile_qr_scan", "ios": "https://dc.lft.to/lastmile_qr_scan"}, "name": "64d6fff55e42255afba1b502d2fb868c", "type": "electric_scooter", "lat": 38.91777616666667, "is_disabled": 0}, {"fusion_lat": 0.0, "lon": -77.0364285, "is_reserved": 0, "bike_id": "b6b1f502ffd75ecef03fee28f5e9f5cd", "fusion_lon": 0.0, "rental_uris": {"android": "https://dc.lft.to/lastmile_qr_scan", "ios": "https://dc.lft.to/lastmile_qr_scan"}, "name": "b6b1f502ffd75ecef03fee28f5e9f5cd", "type": "electric_scooter", "lat": 38.918290666666664, "is_disabled": 0}, {"fusion_lat": 0.0, "lon": -77.07392233333333, "is_reserved": 0, "bike_id": "8f4f05b27cda8c269463f1b0b1f6bbe3", "fusion_lon": 0.0, "rental_uris": {"android": "https://dc.lft.to/lastmile_qr_scan", "ios": "https://dc.lft.to/lastmile_qr_scan"}, "name": "8f4f05b27cda8c269463f1b0b1f6bbe3", "type": "electric_bike", "lat": 38.961778333333335, "is_disabled": 0}, {"fusion_lat": 0.0, "lon": -76.9904805, "is_reserved": 0, "bike_id": "96d58a1468104494b6eb75bbcd97f356", "fusion_lon": 0.0, "rental_uris": {"android": "https://dc.lft.to/lastmile_qr_scan", "ios": "https://dc.lft.to/lastmile_qr_scan"}, "name": "96d58a1468104494b6eb75bbcd97f356", "type": "electric_scooter", "lat": 38.86370183333333, "is_disabled": 0}, {"fusion_lat": 0.0, "lon": -76.9785905, "is_reserved": 0, "bike_id": "9d400dbae6a904fbacfcef79977c4112", "fusion_lon": 0.0, "rental_uris": {"android": "https://dc.lft.to/lastmile_qr_scan", "ios": "https://dc.lft.to/lastmile_qr_scan"}, "name": "9d400dbae6a904fbacfcef79977c4112", "type": "electric_scooter", "lat": 38.87071733333333, "is_disabled": 0}, {"fusion_lat": 0.0, "lon": -76.99898683333333, "is_reserved": 0, "bike_id": "3e46c4f78a2b96c989638d9ce016ffa0", "fusion_lon": 0.0, "rental_uris": {"android": "https://dc.lft.to/lastmile_qr_scan", "ios": "https://dc.lft.to/lastmile_qr_scan"}, "name": "3e46c4f78a2b96c989638d9ce016ffa0", "type": "electric_scooter", "lat": 38.924620166666664, "is_disabled": 0}, {"fusion_lat": 0.0, "lon": -76.96566016666667, "is_reserved": 0, "bike_id": "bf02d03195114e937a8399f943e6f65a", "fusion_lon": 0.0, "rental_uris": {"android": "https://dc.lft.to/lastmile_qr_scan", "ios": "https://dc.lft.to/lastmile_qr_scan"}, "name": "bf02d03195114e937a8399f943e6f65a", "type": "electric_bike", "lat": 38.87378983333333, "is_disabled": 0}, {"fusion_lat": 0.0, "lon": -77.02803983333334, "is_reserved": 0, "bike_id": "db20735943d15677cce765cb39a34a79", "fusion_lon": 0.0, "rental_uris": {"android": "https://dc.lft.to/lastmile_qr_scan", "ios": "https://dc.lft.to/lastmile_qr_scan"}, "name": "db20735943d15677cce765cb39a34a79", "type": "electric_scooter", "lat": 38.89231066666667, "is_disabled": 0}, {"fusion_lat": 0.0, "lon": -77.02896116666666, "is_reserved": 0, "bike_id": "de08293ff3c11f4d37dd908c00d16055", "fusion_lon": 0.0, "rental_uris": {"android": "https://dc.lft.to/lastmile_qr_scan", "ios": "https://dc.lft.to/lastmile_qr_scan"}, "name": "de08293ff3c11f4d37dd908c00d16055", "type": "electric_scooter", "lat": 38.9404455, "is_disabled": 0}, {"fusion_lat": 0.0, "lon": -77.04345766666667, "is_reserved": 0, "bike_id": "3e11ab3b42a32f5023b46ba0b2af9143", "fusion_lon": 0.0, "rental_uris": {"android": "https://dc.lft.to/lastmile_qr_scan", "ios": "https://dc.lft.to/lastmile_qr_scan"}, "name": "3e11ab3b42a32f5023b46ba0b2af9143", "type": "electric_scooter", "lat": 38.907671, "is_disabled": 0}, {"fusion_lat": 0.0, "lon": -77.03505783333334, "is_reserved": 0, "bike_id": "26011356caef710da35e5a3b6cf15d4b", "fusion_lon": 0.0, "rental_uris": {"android": "https://dc.lft.to/lastmile_qr_scan", "ios": "https://dc.lft.to/lastmile_qr_scan"}, "name": "26011356caef710da35e5a3b6cf15d4b", "type": "electric_scooter", "lat": 38.91877366666667, "is_disabled": 0}, {"fusion_lat": 0.0, "lon": -77.02902216666666, "is_reserved": 0, "bike_id": "f3fb865a3857c7387be500b6bedafceb", "fusion_lon": 0.0, "rental_uris": {"android": "https://dc.lft.to/lastmile_qr_scan", "ios": "https://dc.lft.to/lastmile_qr_scan"}, "name": "f3fb865a3857c7387be500b6bedafceb", "type": "electric_scooter", "lat": 38.961330333333336, "is_disabled": 0}, {"fusion_lat": 0.0, "lon": -77.05311083333333, "is_reserved": 0, "bike_id": "be23a831b470a81be12de0eb42e35c60", "fusion_lon": 0.0, "rental_uris": {"android": "https://dc.lft.to/lastmile_qr_scan", "ios": "https://dc.lft.to/lastmile_qr_scan"}, "name": "be23a831b470a81be12de0eb42e35c60", "type": "electric_scooter", "lat": 38.898535, "is_disabled": 0}, {"fusion_lat": 0.0, "lon": -77.02902766666666, "is_reserved": 0, "bike_id": "1dee1024b5ef62185ada6bd8d6756246", "fusion_lon": 0.0, "rental_uris": {"android": "https://dc.lft.to/lastmile_qr_scan", "ios": "https://dc.lft.to/lastmile_qr_scan"}, "name": "1dee1024b5ef62185ada6bd8d6756246", "type": "electric_scooter", "lat": 38.90367366666667, "is_disabled": 0}, {"fusion_lat": 0.0, "lon": -77.01222833333334, "is_reserved": 0, "bike_id": "2a69a4f573dab01362e25e21187ef781", "fusion_lon": 0.0, "rental_uris": {"android": "https://dc.lft.to/lastmile_qr_scan", "ios": "https://dc.lft.to/lastmile_qr_scan"}, "name": "2a69a4f573dab01362e25e21187ef781", "type": "electric_scooter", "lat": 38.91523, "is_disabled": 0}, {"fusion_lat": 0.0, "lon": -76.98559983333334, "is_reserved": 0, "bike_id": "6dc14e1d6fb1ffa7d14a184a72b34cf7", "fusion_lon": 0.0, "rental_uris": {"android": "https://dc.lft.to/lastmile_qr_scan", "ios": "https://dc.lft.to/lastmile_qr_scan"}, "name": "6dc14e1d6fb1ffa7d14a184a72b34cf7", "type": "electric_scooter", "lat": 38.9103245, "is_disabled": 0}, {"fusion_lat": 0.0, "lon": -77.0295135, "is_reserved": 0, "bike_id": "dbe04a76af6a604e9b5f5c8701fe46ab", "fusion_lon": 0.0, "rental_uris": {"android": "https://dc.lft.to/lastmile_qr_scan", "ios": "https://dc.lft.to/lastmile_qr_scan"}, "name": "dbe04a76af6a604e9b5f5c8701fe46ab", "type": "electric_scooter", "lat": 38.92174, "is_disabled": 0}, {"fusion_lat": 0.0, "lon": -77.03330583333333, "is_reserved": 0, "bike_id": "cb43c01d8e237e68667533311bd8ad59", "fusion_lon": 0.0, "rental_uris": {"android": "https://dc.lft.to/lastmile_qr_scan", "ios": "https://dc.lft.to/lastmile_qr_scan"}, "name": "cb43c01d8e237e68667533311bd8ad59", "type": "electric_scooter", "lat": 38.917162833333336, "is_disabled": 0}, {"fusion_lat": 0.0, "lon": -77.00749216666667, "is_reserved": 0, "bike_id": "ee3a5f40900a7de990fdd0c8e71b81bd", "fusion_lon": 0.0, "rental_uris": {"android": "https://dc.lft.to/lastmile_qr_scan", "ios": "https://dc.lft.to/lastmile_qr_scan"}, "name": "ee3a5f40900a7de990fdd0c8e71b81bd", "type": "electric_scooter", "lat": 38.926760333333334, "is_disabled": 0}, {"fusion_lat": 0.0, "lon": -77.0279, "is_reserved": 0, "bike_id": "e8e9a300f0592827dfcc2a4d0f4731c2", "fusion_lon": 0.0, "rental_uris": {"android": "https://dc.lft.to/lastmile_qr_scan", "ios": "https://dc.lft.to/lastmile_qr_scan"}, "name": "e8e9a300f0592827dfcc2a4d0f4731c2", "type": "electric_scooter", "lat": 38.92677716666667, "is_disabled": 0}, {"fusion_lat": 0.0, "lon": -77.06062233333333, "is_reserved": 0, "bike_id": "c8d8bfe50a5ec33763efd1bbd86574f9", "fusion_lon": 0.0, "rental_uris": {"android": "https://dc.lft.to/lastmile_qr_scan", "ios": "https://dc.lft.to/lastmile_qr_scan"}, "name": "c8d8bfe50a5ec33763efd1bbd86574f9", "type": "electric_scooter", "lat": 38.93913533333333, "is_disabled": 0}, {"fusion_lat": 0.0, "lon": -77.03322866666667, "is_reserved": 0, "bike_id": "4b90e245d34686b46f9e2b6ce172c7bd", "fusion_lon": 0.0, "rental_uris": {"android": "https://dc.lft.to/lastmile_qr_scan", "ios": "https://dc.lft.to/lastmile_qr_scan"}, "name": "4b90e245d34686b46f9e2b6ce172c7bd", "type": "electric_scooter", "lat": 38.947174, "is_disabled": 0}, {"fusion_lat": 0.0, "lon": -77.040235, "is_reserved": 0, "bike_id": "0728ba82ca314ae9dff5e43914884927", "fusion_lon": 0.0, "rental_uris": {"android": "https://dc.lft.to/lastmile_qr_scan", "ios": "https://dc.lft.to/lastmile_qr_scan"}, "name": "0728ba82ca314ae9dff5e43914884927", "type": "electric_scooter", "lat": 38.924513833333336, "is_disabled": 0}, {"fusion_lat": 0.0, "lon": -77.04354216666667, "is_reserved": 0, "bike_id": "d96e054a6794ed683c085b6c0c4a54f1", "fusion_lon": 0.0, "rental_uris": {"android": "https://dc.lft.to/lastmile_qr_scan", "ios": "https://dc.lft.to/lastmile_qr_scan"}, "name": "d96e054a6794ed683c085b6c0c4a54f1", "type": "electric_scooter", "lat": 38.904211, "is_disabled": 0}, {"fusion_lat": 0.0, "lon": -76.9960725, "is_reserved": 0, "bike_id": "4abdbdd8629f56ac414c24545125f0f4", "fusion_lon": 0.0, "rental_uris": {"android": "https://dc.lft.to/lastmile_qr_scan", "ios": "https://dc.lft.to/lastmile_qr_scan"}, "name": "4abdbdd8629f56ac414c24545125f0f4", "type": "electric_scooter", "lat": 38.900128333333335, "is_disabled": 0}, {"fusion_lat": 0.0, "lon": -77.02978683333333, "is_reserved": 0, "bike_id": "da0c57851377fbae2f31f61b3c96b822", "fusion_lon": 0.0, "rental_uris": {"android": "https://dc.lft.to/lastmile_qr_scan", "ios": "https://dc.lft.to/lastmile_qr_scan"}, "name": "da0c57851377fbae2f31f61b3c96b822", "type": "electric_scooter", "lat": 38.91056066666667, "is_disabled": 0}, {"fusion_lat": 0.0, "lon": -76.994658, "is_reserved": 0, "bike_id": "2c5c58844246ebd13e507813999c7ef6", "fusion_lon": 0.0, "rental_uris": {"android": "https://dc.lft.to/lastmile_qr_scan", "ios": "https://dc.lft.to/lastmile_qr_scan"}, "name": "2c5c58844246ebd13e507813999c7ef6", "type": "electric_scooter", "lat": 38.86224883333333, "is_disabled": 0}, {"fusion_lat": 0.0, "lon": -77.007356, "is_reserved": 0, "bike_id": "ac30c87cd0b85aef6f2bd4c5db282a64", "fusion_lon": 0.0, "rental_uris": {"android": "https://dc.lft.to/lastmile_qr_scan", "ios": "https://dc.lft.to/lastmile_qr_scan"}, "name": "ac30c87cd0b85aef6f2bd4c5db282a64", "type": "electric_scooter", "lat": 38.878407833333334, "is_disabled": 0}, {"fusion_lat": 0.0, "lon": -77.01752016666667, "is_reserved": 0, "bike_id": "19e163402198dec84b805fe0d1279aa5", "fusion_lon": 0.0, "rental_uris": {"android": "https://dc.lft.to/lastmile_qr_scan", "ios": "https://dc.lft.to/lastmile_qr_scan"}, "name": "19e163402198dec84b805fe0d1279aa5", "type": "electric_scooter", "lat": 38.872673, "is_disabled": 0}, {"fusion_lat": 0.0, "lon": -77.02465166666667, "is_reserved": 0, "bike_id": "6a5eed8aae3c02a37f8cad3dcb2371f6", "fusion_lon": 0.0, "rental_uris": {"android": "https://dc.lft.to/lastmile_qr_scan", "ios": "https://dc.lft.to/lastmile_qr_scan"}, "name": "6a5eed8aae3c02a37f8cad3dcb2371f6", "type": "electric_scooter", "lat": 38.937165666666665, "is_disabled": 0}, {"fusion_lat": 0.0, "lon": -77.03840866666667, "is_reserved": 0, "bike_id": "3e98a35675d5c9df4967153d90c736ec", "fusion_lon": 0.0, "rental_uris": {"android": "https://dc.lft.to/lastmile_qr_scan", "ios": "https://dc.lft.to/lastmile_qr_scan"}, "name": "3e98a35675d5c9df4967153d90c736ec", "type": "electric_scooter", "lat": 38.90993733333333, "is_disabled": 0}, {"fusion_lat": 0.0, "lon": -77.04207483333333, "is_reserved": 0, "bike_id": "57c3d38a1b5efc4d9b0e60df38a12a96", "fusion_lon": 0.0, "rental_uris": {"android": "https://dc.lft.to/lastmile_qr_scan", "ios": "https://dc.lft.to/lastmile_qr_scan"}, "name": "57c3d38a1b5efc4d9b0e60df38a12a96", "type": "electric_scooter", "lat": 38.919653333333336, "is_disabled": 0}, {"fusion_lat": 0.0, "lon": -77.01619633333334, "is_reserved": 0, "bike_id": "e0432b939e3d89805cff9e6885515ad0", "fusion_lon": 0.0, "rental_uris": {"android": "https://dc.lft.to/lastmile_qr_scan", "ios": "https://dc.lft.to/lastmile_qr_scan"}, "name": "e0432b939e3d89805cff9e6885515ad0", "type": "electric_scooter", "lat": 38.88333383333333, "is_disabled": 0}, {"fusion_lat": 0.0, "lon": -76.9976045, "is_reserved": 0, "bike_id": "9faac1e6da18e65dca983e48c8c9c781", "fusion_lon": 0.0, "rental_uris": {"android": "https://dc.lft.to/lastmile_qr_scan", "ios": "https://dc.lft.to/lastmile_qr_scan"}, "name": "9faac1e6da18e65dca983e48c8c9c781", "type": "electric_scooter", "lat": 38.90835166666667, "is_disabled": 0}, {"fusion_lat": 0.0, "lon": -77.073437, "is_reserved": 0, "bike_id": "beaede08b128d2f42e01a836e772236b", "fusion_lon": 0.0, "rental_uris": {"android": "https://dc.lft.to/lastmile_qr_scan", "ios": "https://dc.lft.to/lastmile_qr_scan"}, "name": "beaede08b128d2f42e01a836e772236b", "type": "electric_scooter", "lat": 38.911036333333335, "is_disabled": 0}, {"fusion_lat": 0.0, "lon": -76.98152683333333, "is_reserved": 0, "bike_id": "ff7f771d5a3f37e18654376067ed0e5e", "fusion_lon": 0.0, "rental_uris": {"android": "https://dc.lft.to/lastmile_qr_scan", "ios": "https://dc.lft.to/lastmile_qr_scan"}, "name": "ff7f771d5a3f37e18654376067ed0e5e", "type": "electric_scooter", "lat": 38.90570133333333, "is_disabled": 0}, {"fusion_lat": 0.0, "lon": -77.06133783333334, "is_reserved": 0, "bike_id": "ff7bd639c91886802a8fa307a7632010", "fusion_lon": 0.0, "rental_uris": {"android": "https://dc.lft.to/lastmile_qr_scan", "ios": "https://dc.lft.to/lastmile_qr_scan"}, "name": "ff7bd639c91886802a8fa307a7632010", "type": "electric_scooter", "lat": 38.94085066666667, "is_disabled": 0}, {"fusion_lat": 0.0, "lon": -77.03557433333333, "is_reserved": 0, "bike_id": "8f067949643cc615dd9b675957c74be4", "fusion_lon": 0.0, "rental_uris": {"android": "https://dc.lft.to/lastmile_qr_scan", "ios": "https://dc.lft.to/lastmile_qr_scan"}, "name": "8f067949643cc615dd9b675957c74be4", "type": "electric_scooter", "lat": 38.9171305, "is_disabled": 0}, {"fusion_lat": 0.0, "lon": -76.970985, "is_reserved": 0, "bike_id": "0567d98b264b89b1351a427c9fe83254", "fusion_lon": 0.0, "rental_uris": {"android": "https://dc.lft.to/lastmile_qr_scan", "ios": "https://dc.lft.to/lastmile_qr_scan"}, "name": "0567d98b264b89b1351a427c9fe83254", "type": "electric_bike", "lat": 38.918055333333335, "is_disabled": 0}, {"fusion_lat": 0.0, "lon": -77.01379083333333, "is_reserved": 0, "bike_id": "3787209ec1d1118ff15aafea59314d54", "fusion_lon": 0.0, "rental_uris": {"android": "https://dc.lft.to/lastmile_qr_scan", "ios": "https://dc.lft.to/lastmile_qr_scan"}, "name": "3787209ec1d1118ff15aafea59314d54", "type": "electric_bike", "lat": 38.94235116666667, "is_disabled": 0}, {"fusion_lat": 0.0, "lon": -77.03347033333333, "is_reserved": 0, "bike_id": "dea1ee857ddb8c117f6018635675706e", "fusion_lon": 0.0, "rental_uris": {"android": "https://dc.lft.to/lastmile_qr_scan", "ios": "https://dc.lft.to/lastmile_qr_scan"}, "name": "dea1ee857ddb8c117f6018635675706e", "type": "electric_scooter", "lat": 38.93219533333333, "is_disabled": 0}, {"fusion_lat": 0.0, "lon": -77.02159033333334, "is_reserved": 0, "bike_id": "8d17ad0e1c439932ea4bfd02cfeb4f7e", "fusion_lon": 0.0, "rental_uris": {"android": "https://dc.lft.to/lastmile_qr_scan", "ios": "https://dc.lft.to/lastmile_qr_scan"}, "name": "8d17ad0e1c439932ea4bfd02cfeb4f7e", "type": "electric_scooter", "lat": 38.9260795, "is_disabled": 0}, {"fusion_lat": 0.0, "lon": -77.03766516666667, "is_reserved": 0, "bike_id": "f10dcde649aa194ddca875082c0ed5b8", "fusion_lon": 0.0, "rental_uris": {"android": "https://dc.lft.to/lastmile_qr_scan", "ios": "https://dc.lft.to/lastmile_qr_scan"}, "name": "f10dcde649aa194ddca875082c0ed5b8", "type": "electric_scooter", "lat": 38.90692583333333, "is_disabled": 0}, {"fusion_lat": 0.0, "lon": -77.00930483333333, "is_reserved": 0, "bike_id": "50059c8c702d9859b2ce3d136a3f2c27", "fusion_lon": 0.0, "rental_uris": {"android": "https://dc.lft.to/lastmile_qr_scan", "ios": "https://dc.lft.to/lastmile_qr_scan"}, "name": "50059c8c702d9859b2ce3d136a3f2c27", "type": "electric_scooter", "lat": 38.8965545, "is_disabled": 0}, {"fusion_lat": 0.0, "lon": -76.99599083333334, "is_reserved": 0, "bike_id": "a1cfe2a4395470a10d704dc31cae9f9f", "fusion_lon": 0.0, "rental_uris": {"android": "https://dc.lft.to/lastmile_qr_scan", "ios": "https://dc.lft.to/lastmile_qr_scan"}, "name": "a1cfe2a4395470a10d704dc31cae9f9f", "type": "electric_scooter", "lat": 38.8569995, "is_disabled": 0}, {"fusion_lat": 0.0, "lon": -77.0383035, "is_reserved": 0, "bike_id": "fe8db1254321e1219fd3b92c67af70ab", "fusion_lon": 0.0, "rental_uris": {"android": "https://dc.lft.to/lastmile_qr_scan", "ios": "https://dc.lft.to/lastmile_qr_scan"}, "name": "fe8db1254321e1219fd3b92c67af70ab", "type": "electric_scooter", "lat": 38.9086485, "is_disabled": 0}, {"fusion_lat": 0.0, "lon": -76.988302, "is_reserved": 0, "bike_id": "7badada533a5f2025fa8f2f5664afcf3", "fusion_lon": 0.0, "rental_uris": {"android": "https://dc.lft.to/lastmile_qr_scan", "ios": "https://dc.lft.to/lastmile_qr_scan"}, "name": "7badada533a5f2025fa8f2f5664afcf3", "type": "electric_scooter", "lat": 38.890725, "is_disabled": 0}, {"fusion_lat": 0.0, "lon": -77.0465735, "is_reserved": 0, "bike_id": "ddea451489f9122470c4a52bef904419", "fusion_lon": 0.0, "rental_uris": {"android": "https://dc.lft.to/lastmile_qr_scan", "ios": "https://dc.lft.to/lastmile_qr_scan"}, "name": "ddea451489f9122470c4a52bef904419", "type": "electric_scooter", "lat": 38.91270933333333, "is_disabled": 0}, {"fusion_lat": 0.0, "lon": -77.01341716666667, "is_reserved": 0, "bike_id": "1116aa6dfa6e01956fb1c7f836f85538", "fusion_lon": 0.0, "rental_uris": {"android": "https://dc.lft.to/lastmile_qr_scan", "ios": "https://dc.lft.to/lastmile_qr_scan"}, "name": "1116aa6dfa6e01956fb1c7f836f85538", "type": "electric_scooter", "lat": 38.92643866666667, "is_disabled": 0}, {"fusion_lat": 0.0, "lon": -77.018038, "is_reserved": 0, "bike_id": "d30e4103b3e2010065cfcf28c0a4baf4", "fusion_lon": 0.0, "rental_uris": {"android": "https://dc.lft.to/lastmile_qr_scan", "ios": "https://dc.lft.to/lastmile_qr_scan"}, "name": "d30e4103b3e2010065cfcf28c0a4baf4", "type": "electric_bike", "lat": 38.917600166666666, "is_disabled": 0}, {"fusion_lat": 0.0, "lon": -77.01365066666666, "is_reserved": 0, "bike_id": "617a34cb6b85f019e5202cff1914a0f8", "fusion_lon": 0.0, "rental_uris": {"android": "https://dc.lft.to/lastmile_qr_scan", "ios": "https://dc.lft.to/lastmile_qr_scan"}, "name": "617a34cb6b85f019e5202cff1914a0f8", "type": "electric_scooter", "lat": 38.88706233333333, "is_disabled": 0}, {"fusion_lat": 0.0, "lon": -77.0559835, "is_reserved": 0, "bike_id": "80501023ddc1a4117df1dbf5c3283317", "fusion_lon": 0.0, "rental_uris": {"android": "https://dc.lft.to/lastmile_qr_scan", "ios": "https://dc.lft.to/lastmile_qr_scan"}, "name": "80501023ddc1a4117df1dbf5c3283317", "type": "electric_scooter", "lat": 38.937031166666664, "is_disabled": 0}, {"fusion_lat": 0.0, "lon": -76.97477483333333, "is_reserved": 0, "bike_id": "a08e915a568f14b5a4a3f3e775e5abc2", "fusion_lon": 0.0, "rental_uris": {"android": "https://dc.lft.to/lastmile_qr_scan", "ios": "https://dc.lft.to/lastmile_qr_scan"}, "name": "a08e915a568f14b5a4a3f3e775e5abc2", "type": "electric_scooter", "lat": 38.903492166666666, "is_disabled": 0}, {"fusion_lat": 0.0, "lon": -77.08070816666667, "is_reserved": 0, "bike_id": "3ec74cf1ce721d6e9693f392c660cb4a", "fusion_lon": 0.0, "rental_uris": {"android": "https://dc.lft.to/lastmile_qr_scan", "ios": "https://dc.lft.to/lastmile_qr_scan"}, "name": "3ec74cf1ce721d6e9693f392c660cb4a", "type": "electric_bike", "lat": 39.05281016666667, "is_disabled": 0}, {"fusion_lat": 0.0, "lon": -77.02335366666667, "is_reserved": 0, "bike_id": "32248a27ad97f1bb4e9a87a55b428b79", "fusion_lon": 0.0, "rental_uris": {"android": "https://dc.lft.to/lastmile_qr_scan", "ios": "https://dc.lft.to/lastmile_qr_scan"}, "name": "32248a27ad97f1bb4e9a87a55b428b79", "type": "electric_scooter", "lat": 38.924768, "is_disabled": 0}, {"fusion_lat": 0.0, "lon": -77.04039916666666, "is_reserved": 0, "bike_id": "15b3d2dd1e306aedcbbabd2df0beeeb9", "fusion_lon": 0.0, "rental_uris": {"android": "https://dc.lft.to/lastmile_qr_scan", "ios": "https://dc.lft.to/lastmile_qr_scan"}, "name": "15b3d2dd1e306aedcbbabd2df0beeeb9", "type": "electric_scooter", "lat": 38.918645833333336, "is_disabled": 0}, {"fusion_lat": 0.0, "lon": -77.0487185, "is_reserved": 0, "bike_id": "16089f00dcf78e2098ff4a69d6561533", "fusion_lon": 0.0, "rental_uris": {"android": "https://dc.lft.to/lastmile_qr_scan", "ios": "https://dc.lft.to/lastmile_qr_scan"}, "name": "16089f00dcf78e2098ff4a69d6561533", "type": "electric_scooter", "lat": 38.909805, "is_disabled": 0}, {"fusion_lat": 0.0, "lon": -76.987625, "is_reserved": 0, "bike_id": "17e128475eafed72d58d1ddfe50bf24c", "fusion_lon": 0.0, "rental_uris": {"android": "https://dc.lft.to/lastmile_qr_scan", "ios": "https://dc.lft.to/lastmile_qr_scan"}, "name": "17e128475eafed72d58d1ddfe50bf24c", "type": "electric_bike", "lat": 38.85767533333333, "is_disabled": 0}, {"fusion_lat": 0.0, "lon": -77.02802416666667, "is_reserved": 0, "bike_id": "0b7e30ddf5573c8f0978fc8859e16796", "fusion_lon": 0.0, "rental_uris": {"android": "https://dc.lft.to/lastmile_qr_scan", "ios": "https://dc.lft.to/lastmile_qr_scan"}, "name": "0b7e30ddf5573c8f0978fc8859e16796", "type": "electric_scooter", "lat": 38.895185166666664, "is_disabled": 0}, {"fusion_lat": 0.0, "lon": -77.034277, "is_reserved": 0, "bike_id": "6988fd2e5b92c73eb54c7d01c8524660", "fusion_lon": 0.0, "rental_uris": {"android": "https://dc.lft.to/lastmile_qr_scan", "ios": "https://dc.lft.to/lastmile_qr_scan"}, "name": "6988fd2e5b92c73eb54c7d01c8524660", "type": "electric_bike", "lat": 38.966256333333334, "is_disabled": 0}, {"fusion_lat": 0.0, "lon": -77.0420835, "is_reserved": 0, "bike_id": "7aef66d377a19651111f28b145cd67a1", "fusion_lon": 0.0, "rental_uris": {"android": "https://dc.lft.to/lastmile_qr_scan", "ios": "https://dc.lft.to/lastmile_qr_scan"}, "name": "7aef66d377a19651111f28b145cd67a1", "type": "electric_scooter", "lat": 38.90666266666667, "is_disabled": 0}, {"fusion_lat": 0.0, "lon": -77.07355916666667, "is_reserved": 0, "bike_id": "a2c4072f6cbf88f93018d5151942a7e5", "fusion_lon": 0.0, "rental_uris": {"android": "https://dc.lft.to/lastmile_qr_scan", "ios": "https://dc.lft.to/lastmile_qr_scan"}, "name": "a2c4072f6cbf88f93018d5151942a7e5", "type": "electric_scooter", "lat": 38.933563666666664, "is_disabled": 0}, {"fusion_lat": 0.0, "lon": -77.02875866666666, "is_reserved": 0, "bike_id": "c7efb23c83805c461db923d18680a8ca", "fusion_lon": 0.0, "rental_uris": {"android": "https://dc.lft.to/lastmile_qr_scan", "ios": "https://dc.lft.to/lastmile_qr_scan"}, "name": "c7efb23c83805c461db923d18680a8ca", "type": "electric_scooter", "lat": 39.03740333333333, "is_disabled": 0}, {"fusion_lat": 0.0, "lon": -77.048781, "is_reserved": 0, "bike_id": "51bc7e300f0e8cf30fadb45ebb9bb345", "fusion_lon": 0.0, "rental_uris": {"android": "https://dc.lft.to/lastmile_qr_scan", "ios": "https://dc.lft.to/lastmile_qr_scan"}, "name": "51bc7e300f0e8cf30fadb45ebb9bb345", "type": "electric_scooter", "lat": 38.91567083333333, "is_disabled": 0}, {"fusion_lat": 0.0, "lon": -77.00676183333333, "is_reserved": 0, "bike_id": "49eefc7d6799eb56af04fd320e67b71d", "fusion_lon": 0.0, "rental_uris": {"android": "https://dc.lft.to/lastmile_qr_scan", "ios": "https://dc.lft.to/lastmile_qr_scan"}, "name": "49eefc7d6799eb56af04fd320e67b71d", "type": "electric_scooter", "lat": 38.90009666666667, "is_disabled": 0}, {"fusion_lat": 0.0, "lon": -76.97426333333334, "is_reserved": 0, "bike_id": "a7eb2a2500f5ba6800ecd727b10c6a24", "fusion_lon": 0.0, "rental_uris": {"android": "https://dc.lft.to/lastmile_qr_scan", "ios": "https://dc.lft.to/lastmile_qr_scan"}, "name": "a7eb2a2500f5ba6800ecd727b10c6a24", "type": "electric_scooter", "lat": 38.9045505, "is_disabled": 0}, {"fusion_lat": 0.0, "lon": -77.0499125, "is_reserved": 0, "bike_id": "06ca745eb457574b82b164dc56c87175", "fusion_lon": 0.0, "rental_uris": {"android": "https://dc.lft.to/lastmile_qr_scan", "ios": "https://dc.lft.to/lastmile_qr_scan"}, "name": "06ca745eb457574b82b164dc56c87175", "type": "electric_scooter", "lat": 38.89741133333333, "is_disabled": 0}, {"fusion_lat": 0.0, "lon": -77.0326415, "is_reserved": 0, "bike_id": "d87642c63c34cee60000316d19c57772", "fusion_lon": 0.0, "rental_uris": {"android": "https://dc.lft.to/lastmile_qr_scan", "ios": "https://dc.lft.to/lastmile_qr_scan"}, "name": "d87642c63c34cee60000316d19c57772", "type": "electric_scooter", "lat": 38.941562, "is_disabled": 0}, {"fusion_lat": 0.0, "lon": -77.038572, "is_reserved": 0, "bike_id": "f8078626acc9b6975323bb6b44426180", "fusion_lon": 0.0, "rental_uris": {"android": "https://dc.lft.to/lastmile_qr_scan", "ios": "https://dc.lft.to/lastmile_qr_scan"}, "name": "f8078626acc9b6975323bb6b44426180", "type": "electric_scooter", "lat": 38.916627, "is_disabled": 0}, {"fusion_lat": 0.0, "lon": -77.04513983333334, "is_reserved": 0, "bike_id": "875bf163d47f62cc88524139ba5ce843", "fusion_lon": 0.0, "rental_uris": {"android": "https://dc.lft.to/lastmile_qr_scan", "ios": "https://dc.lft.to/lastmile_qr_scan"}, "name": "875bf163d47f62cc88524139ba5ce843", "type": "electric_scooter", "lat": 38.90779583333333, "is_disabled": 0}, {"fusion_lat": 0.0, "lon": -77.00436033333334, "is_reserved": 0, "bike_id": "be870919b9b32ae0c54d6f00247db61b", "fusion_lon": 0.0, "rental_uris": {"android": "https://dc.lft.to/lastmile_qr_scan", "ios": "https://dc.lft.to/lastmile_qr_scan"}, "name": "be870919b9b32ae0c54d6f00247db61b", "type": "electric_scooter", "lat": 38.876779166666665, "is_disabled": 0}, {"fusion_lat": 0.0, "lon": -77.04346133333334, "is_reserved": 0, "bike_id": "ea8a987646ceb6495c4d7c9307b8eefd", "fusion_lon": 0.0, "rental_uris": {"android": "https://dc.lft.to/lastmile_qr_scan", "ios": "https://dc.lft.to/lastmile_qr_scan"}, "name": "ea8a987646ceb6495c4d7c9307b8eefd", "type": "electric_scooter", "lat": 38.90320333333333, "is_disabled": 0}, {"fusion_lat": 0.0, "lon": -77.02874683333333, "is_reserved": 0, "bike_id": "38fdecc21f6616f19b4a043b656027f7", "fusion_lon": 0.0, "rental_uris": {"android": "https://dc.lft.to/lastmile_qr_scan", "ios": "https://dc.lft.to/lastmile_qr_scan"}, "name": "38fdecc21f6616f19b4a043b656027f7", "type": "electric_scooter", "lat": 38.92572416666667, "is_disabled": 0}, {"fusion_lat": 0.0, "lon": -77.08399333333334, "is_reserved": 0, "bike_id": "9210d309199eb4f4698160efa6fb316f", "fusion_lon": 0.0, "rental_uris": {"android": "https://dc.lft.to/lastmile_qr_scan", "ios": "https://dc.lft.to/lastmile_qr_scan"}, "name": "9210d309199eb4f4698160efa6fb316f", "type": "electric_scooter", "lat": 38.9080435, "is_disabled": 0}, {"fusion_lat": 0.0, "lon": -77.05690783333333, "is_reserved": 0, "bike_id": "f0cd0ed80a9d86d6650a109dc1bc496e", "fusion_lon": 0.0, "rental_uris": {"android": "https://dc.lft.to/lastmile_qr_scan", "ios": "https://dc.lft.to/lastmile_qr_scan"}, "name": "f0cd0ed80a9d86d6650a109dc1bc496e", "type": "electric_scooter", "lat": 38.906083, "is_disabled": 0}, {"fusion_lat": 0.0, "lon": -77.0261005, "is_reserved": 0, "bike_id": "f94fda2b7e6b3c90a0f0447a45df24cf", "fusion_lon": 0.0, "rental_uris": {"android": "https://dc.lft.to/lastmile_qr_scan", "ios": "https://dc.lft.to/lastmile_qr_scan"}, "name": "f94fda2b7e6b3c90a0f0447a45df24cf", "type": "electric_scooter", "lat": 38.929883, "is_disabled": 0}, {"fusion_lat": 0.0, "lon": -77.03692866666667, "is_reserved": 0, "bike_id": "e8e3a65cd5e8ac6554fca6c143675632", "fusion_lon": 0.0, "rental_uris": {"android": "https://dc.lft.to/lastmile_qr_scan", "ios": "https://dc.lft.to/lastmile_qr_scan"}, "name": "e8e3a65cd5e8ac6554fca6c143675632", "type": "electric_scooter", "lat": 38.91679233333333, "is_disabled": 0}, {"fusion_lat": 0.0, "lon": -77.038534, "is_reserved": 0, "bike_id": "7b3600e76b12245ebbd90c442aebe160", "fusion_lon": 0.0, "rental_uris": {"android": "https://dc.lft.to/lastmile_qr_scan", "ios": "https://dc.lft.to/lastmile_qr_scan"}, "name": "7b3600e76b12245ebbd90c442aebe160", "type": "electric_scooter", "lat": 38.9065745, "is_disabled": 0}, {"fusion_lat": 0.0, "lon": -77.03600383333334, "is_reserved": 0, "bike_id": "5e160b8f19b69da4ee60d9c9fe51cb6a", "fusion_lon": 0.0, "rental_uris": {"android": "https://dc.lft.to/lastmile_qr_scan", "ios": "https://dc.lft.to/lastmile_qr_scan"}, "name": "5e160b8f19b69da4ee60d9c9fe51cb6a", "type": "electric_scooter", "lat": 38.93930733333333, "is_disabled": 0}, {"fusion_lat": 0.0, "lon": -77.0326145, "is_reserved": 0, "bike_id": "931bd334d8c9fdd710fa6d3e538b5dde", "fusion_lon": 0.0, "rental_uris": {"android": "https://dc.lft.to/lastmile_qr_scan", "ios": "https://dc.lft.to/lastmile_qr_scan"}, "name": "931bd334d8c9fdd710fa6d3e538b5dde", "type": "electric_scooter", "lat": 38.932501333333335, "is_disabled": 0}, {"fusion_lat": 0.0, "lon": -77.03031616666667, "is_reserved": 0, "bike_id": "302803649760bcc876aa6b87198a2099", "fusion_lon": 0.0, "rental_uris": {"android": "https://dc.lft.to/lastmile_qr_scan", "ios": "https://dc.lft.to/lastmile_qr_scan"}, "name": "302803649760bcc876aa6b87198a2099", "type": "electric_scooter", "lat": 38.932224, "is_disabled": 0}, {"fusion_lat": 0.0, "lon": -77.030864, "is_reserved": 0, "bike_id": "22be2faa2f7a8ad5a965b362248b5fac", "fusion_lon": 0.0, "rental_uris": {"android": "https://dc.lft.to/lastmile_qr_scan", "ios": "https://dc.lft.to/lastmile_qr_scan"}, "name": "22be2faa2f7a8ad5a965b362248b5fac", "type": "electric_scooter", "lat": 38.92724616666667, "is_disabled": 0}, {"fusion_lat": 0.0, "lon": -77.079392, "is_reserved": 0, "bike_id": "92641d461d5c470b938f1f21b42f69eb", "fusion_lon": 0.0, "rental_uris": {"android": "https://dc.lft.to/lastmile_qr_scan", "ios": "https://dc.lft.to/lastmile_qr_scan"}, "name": "92641d461d5c470b938f1f21b42f69eb", "type": "electric_scooter", "lat": 38.93078416666667, "is_disabled": 0}, {"fusion_lat": 0.0, "lon": -77.05577533333333, "is_reserved": 0, "bike_id": "3bb29235458634be232fd45ede7102d8", "fusion_lon": 0.0, "rental_uris": {"android": "https://dc.lft.to/lastmile_qr_scan", "ios": "https://dc.lft.to/lastmile_qr_scan"}, "name": "3bb29235458634be232fd45ede7102d8", "type": "electric_scooter", "lat": 38.90931116666667, "is_disabled": 0}, {"fusion_lat": 0.0, "lon": -77.02289016666667, "is_reserved": 0, "bike_id": "9cb3a0946baf66b255e629915482064f", "fusion_lon": 0.0, "rental_uris": {"android": "https://dc.lft.to/lastmile_qr_scan", "ios": "https://dc.lft.to/lastmile_qr_scan"}, "name": "9cb3a0946baf66b255e629915482064f", "type": "electric_scooter", "lat": 38.87891, "is_disabled": 0}, {"fusion_lat": 0.0, "lon": -76.98193883333333, "is_reserved": 0, "bike_id": "0550943bfd4d81eab093e689182b762c", "fusion_lon": 0.0, "rental_uris": {"android": "https://dc.lft.to/lastmile_qr_scan", "ios": "https://dc.lft.to/lastmile_qr_scan"}, "name": "0550943bfd4d81eab093e689182b762c", "type": "electric_scooter", "lat": 38.902819666666666, "is_disabled": 0}, {"fusion_lat": 0.0, "lon": -77.02999283333334, "is_reserved": 0, "bike_id": "84ce8972d01c79dfda4a8111e66431c5", "fusion_lon": 0.0, "rental_uris": {"android": "https://dc.lft.to/lastmile_qr_scan", "ios": "https://dc.lft.to/lastmile_qr_scan"}, "name": "84ce8972d01c79dfda4a8111e66431c5", "type": "electric_scooter", "lat": 38.92678266666667, "is_disabled": 0}, {"fusion_lat": 0.0, "lon": -77.02315416666667, "is_reserved": 0, "bike_id": "841585ef528dd4ddc90465a9009b04c5", "fusion_lon": 0.0, "rental_uris": {"android": "https://dc.lft.to/lastmile_qr_scan", "ios": "https://dc.lft.to/lastmile_qr_scan"}, "name": "841585ef528dd4ddc90465a9009b04c5", "type": "electric_scooter", "lat": 38.92066966666667, "is_disabled": 0}, {"fusion_lat": 0.0, "lon": -77.03991766666667, "is_reserved": 0, "bike_id": "bc0c12ad0768b94c0b8a1e320d0bcf23", "fusion_lon": 0.0, "rental_uris": {"android": "https://dc.lft.to/lastmile_qr_scan", "ios": "https://dc.lft.to/lastmile_qr_scan"}, "name": "bc0c12ad0768b94c0b8a1e320d0bcf23", "type": "electric_scooter", "lat": 38.91415833333333, "is_disabled": 0}, {"fusion_lat": 0.0, "lon": -77.03836783333334, "is_reserved": 0, "bike_id": "137f3941848ca44a65511787ccbb00c9", "fusion_lon": 0.0, "rental_uris": {"android": "https://dc.lft.to/lastmile_qr_scan", "ios": "https://dc.lft.to/lastmile_qr_scan"}, "name": "137f3941848ca44a65511787ccbb00c9", "type": "electric_scooter", "lat": 38.903772000000004, "is_disabled": 0}, {"fusion_lat": 0.0, "lon": -77.00383733333334, "is_reserved": 0, "bike_id": "047cfd45e9ecd4c62e7c05b16a89b2ca", "fusion_lon": 0.0, "rental_uris": {"android": "https://dc.lft.to/lastmile_qr_scan", "ios": "https://dc.lft.to/lastmile_qr_scan"}, "name": "047cfd45e9ecd4c62e7c05b16a89b2ca", "type": "electric_bike", "lat": 38.83608533333334, "is_disabled": 0}, {"fusion_lat": 0.0, "lon": -77.00185416666666, "is_reserved": 0, "bike_id": "ae963b56e3e6c9d26d2d4fd23fe16c76", "fusion_lon": 0.0, "rental_uris": {"android": "https://dc.lft.to/lastmile_qr_scan", "ios": "https://dc.lft.to/lastmile_qr_scan"}, "name": "ae963b56e3e6c9d26d2d4fd23fe16c76", "type": "electric_scooter", "lat": 38.89444483333333, "is_disabled": 0}, {"fusion_lat": 0.0, "lon": -76.97671366666667, "is_reserved": 0, "bike_id": "511f4440c2ab8c8917bbae0657355aa1", "fusion_lon": 0.0, "rental_uris": {"android": "https://dc.lft.to/lastmile_qr_scan", "ios": "https://dc.lft.to/lastmile_qr_scan"}, "name": "511f4440c2ab8c8917bbae0657355aa1", "type": "electric_bike", "lat": 38.95245, "is_disabled": 0}, {"fusion_lat": 0.0, "lon": -76.98299616666667, "is_reserved": 0, "bike_id": "9a7070e694dd7ad3f455ae019f9fb959", "fusion_lon": 0.0, "rental_uris": {"android": "https://dc.lft.to/lastmile_qr_scan", "ios": "https://dc.lft.to/lastmile_qr_scan"}, "name": "9a7070e694dd7ad3f455ae019f9fb959", "type": "electric_scooter", "lat": 38.905255, "is_disabled": 0}, {"fusion_lat": 0.0, "lon": -77.02482416666666, "is_reserved": 0, "bike_id": "5550143d06ada2127fce9bff5d0a0f68", "fusion_lon": 0.0, "rental_uris": {"android": "https://dc.lft.to/lastmile_qr_scan", "ios": "https://dc.lft.to/lastmile_qr_scan"}, "name": "5550143d06ada2127fce9bff5d0a0f68", "type": "electric_scooter", "lat": 38.92748066666667, "is_disabled": 0}, {"fusion_lat": 0.0, "lon": -76.98804383333334, "is_reserved": 0, "bike_id": "51e426853676428b27443fb557f08165", "fusion_lon": 0.0, "rental_uris": {"android": "https://dc.lft.to/lastmile_qr_scan", "ios": "https://dc.lft.to/lastmile_qr_scan"}, "name": "51e426853676428b27443fb557f08165", "type": "electric_scooter", "lat": 38.86732766666667, "is_disabled": 0}, {"fusion_lat": 0.0, "lon": -77.0405595, "is_reserved": 0, "bike_id": "6631a443d6b7ed0f155ee638035dbc2e", "fusion_lon": 0.0, "rental_uris": {"android": "https://dc.lft.to/lastmile_qr_scan", "ios": "https://dc.lft.to/lastmile_qr_scan"}, "name": "6631a443d6b7ed0f155ee638035dbc2e", "type": "electric_scooter", "lat": 38.91865833333333, "is_disabled": 0}, {"fusion_lat": 0.0, "lon": -76.9732805, "is_reserved": 0, "bike_id": "104d059af5953d1d17e4c9edb955637b", "fusion_lon": 0.0, "rental_uris": {"android": "https://dc.lft.to/lastmile_qr_scan", "ios": "https://dc.lft.to/lastmile_qr_scan"}, "name": "104d059af5953d1d17e4c9edb955637b", "type": "electric_scooter", "lat": 38.9041205, "is_disabled": 0}, {"fusion_lat": 0.0, "lon": -77.023883, "is_reserved": 0, "bike_id": "538824ed48ba97a17bca1391fbe65624", "fusion_lon": 0.0, "rental_uris": {"android": "https://dc.lft.to/lastmile_qr_scan", "ios": "https://dc.lft.to/lastmile_qr_scan"}, "name": "538824ed48ba97a17bca1391fbe65624", "type": "electric_scooter", "lat": 38.909571, "is_disabled": 0}, {"fusion_lat": 0.0, "lon": -77.027309, "is_reserved": 0, "bike_id": "97c6e0904ac2c922f3d1ae0b56ee1ac2", "fusion_lon": 0.0, "rental_uris": {"android": "https://dc.lft.to/lastmile_qr_scan", "ios": "https://dc.lft.to/lastmile_qr_scan"}, "name": "97c6e0904ac2c922f3d1ae0b56ee1ac2", "type": "electric_scooter", "lat": 38.9501115, "is_disabled": 0}, {"fusion_lat": 0.0, "lon": -77.02404483333333, "is_reserved": 0, "bike_id": "a9c9c7829d167816d1d281e496740d54", "fusion_lon": 0.0, "rental_uris": {"android": "https://dc.lft.to/lastmile_qr_scan", "ios": "https://dc.lft.to/lastmile_qr_scan"}, "name": "a9c9c7829d167816d1d281e496740d54", "type": "electric_scooter", "lat": 38.91988633333333, "is_disabled": 0}, {"fusion_lat": 0.0, "lon": -77.0252965, "is_reserved": 0, "bike_id": "61603b93c2f753834fec4d46b0990c7e", "fusion_lon": 0.0, "rental_uris": {"android": "https://dc.lft.to/lastmile_qr_scan", "ios": "https://dc.lft.to/lastmile_qr_scan"}, "name": "61603b93c2f753834fec4d46b0990c7e", "type": "electric_scooter", "lat": 38.929899166666665, "is_disabled": 0}, {"fusion_lat": 0.0, "lon": -77.03086916666666, "is_reserved": 0, "bike_id": "b2fa635b01b44a5830a774cce990bd48", "fusion_lon": 0.0, "rental_uris": {"android": "https://dc.lft.to/lastmile_qr_scan", "ios": "https://dc.lft.to/lastmile_qr_scan"}, "name": "b2fa635b01b44a5830a774cce990bd48", "type": "electric_scooter", "lat": 38.92251433333333, "is_disabled": 0}, {"fusion_lat": 0.0, "lon": -77.00386716666667, "is_reserved": 0, "bike_id": "e68e5823666e705141f90732e0888833", "fusion_lon": 0.0, "rental_uris": {"android": "https://dc.lft.to/lastmile_qr_scan", "ios": "https://dc.lft.to/lastmile_qr_scan"}, "name": "e68e5823666e705141f90732e0888833", "type": "electric_scooter", "lat": 38.92364166666667, "is_disabled": 0}, {"fusion_lat": 0.0, "lon": -77.05598816666667, "is_reserved": 0, "bike_id": "fd791637649dd1b76a71ad1e4ae975ec", "fusion_lon": 0.0, "rental_uris": {"android": "https://dc.lft.to/lastmile_qr_scan", "ios": "https://dc.lft.to/lastmile_qr_scan"}, "name": "fd791637649dd1b76a71ad1e4ae975ec", "type": "electric_scooter", "lat": 38.90766383333333, "is_disabled": 0}, {"fusion_lat": 0.0, "lon": -77.02373633333333, "is_reserved": 0, "bike_id": "4157c39fc19772a72924777ea9b09504", "fusion_lon": 0.0, "rental_uris": {"android": "https://dc.lft.to/lastmile_qr_scan", "ios": "https://dc.lft.to/lastmile_qr_scan"}, "name": "4157c39fc19772a72924777ea9b09504", "type": "electric_scooter", "lat": 38.902010833333335, "is_disabled": 0}, {"fusion_lat": 0.0, "lon": -77.0423485, "is_reserved": 0, "bike_id": "898232ec8fbb65c2f0bbd2e30552ae23", "fusion_lon": 0.0, "rental_uris": {"android": "https://dc.lft.to/lastmile_qr_scan", "ios": "https://dc.lft.to/lastmile_qr_scan"}, "name": "898232ec8fbb65c2f0bbd2e30552ae23", "type": "electric_scooter", "lat": 38.89975333333334, "is_disabled": 0}, {"fusion_lat": 0.0, "lon": -77.023694, "is_reserved": 0, "bike_id": "e4da63386d02d61f855b4a2e57e872e4", "fusion_lon": 0.0, "rental_uris": {"android": "https://dc.lft.to/lastmile_qr_scan", "ios": "https://dc.lft.to/lastmile_qr_scan"}, "name": "e4da63386d02d61f855b4a2e57e872e4", "type": "electric_scooter", "lat": 38.89221166666667, "is_disabled": 0}, {"fusion_lat": 0.0, "lon": -77.03153, "is_reserved": 0, "bike_id": "b722e1569d5ae94cf6b3d06fe59facc1", "fusion_lon": 0.0, "rental_uris": {"android": "https://dc.lft.to/lastmile_qr_scan", "ios": "https://dc.lft.to/lastmile_qr_scan"}, "name": "b722e1569d5ae94cf6b3d06fe59facc1", "type": "electric_scooter", "lat": 38.927895666666664, "is_disabled": 0}, {"fusion_lat": 0.0, "lon": -77.04358866666666, "is_reserved": 0, "bike_id": "41caad7f03981adf7e166dcda5d43f81", "fusion_lon": 0.0, "rental_uris": {"android": "https://dc.lft.to/lastmile_qr_scan", "ios": "https://dc.lft.to/lastmile_qr_scan"}, "name": "41caad7f03981adf7e166dcda5d43f81", "type": "electric_scooter", "lat": 38.892301333333336, "is_disabled": 0}, {"fusion_lat": 0.0, "lon": -76.94684616666666, "is_reserved": 0, "bike_id": "f72a5be9748547dd3efee6994df47114", "fusion_lon": 0.0, "rental_uris": {"android": "https://dc.lft.to/lastmile_qr_scan", "ios": "https://dc.lft.to/lastmile_qr_scan"}, "name": "f72a5be9748547dd3efee6994df47114", "type": "electric_scooter", "lat": 38.88628716666667, "is_disabled": 0}, {"fusion_lat": 0.0, "lon": -77.038509, "is_reserved": 0, "bike_id": "e2aa59ee4593f9e1cf52d3a8f6cb410c", "fusion_lon": 0.0, "rental_uris": {"android": "https://dc.lft.to/lastmile_qr_scan", "ios": "https://dc.lft.to/lastmile_qr_scan"}, "name": "e2aa59ee4593f9e1cf52d3a8f6cb410c", "type": "electric_scooter", "lat": 38.925258166666666, "is_disabled": 0}, {"fusion_lat": 0.0, "lon": -77.04506216666667, "is_reserved": 0, "bike_id": "25f60b546232c78d67acf22af7f9a101", "fusion_lon": 0.0, "rental_uris": {"android": "https://dc.lft.to/lastmile_qr_scan", "ios": "https://dc.lft.to/lastmile_qr_scan"}, "name": "25f60b546232c78d67acf22af7f9a101", "type": "electric_scooter", "lat": 38.91108333333333, "is_disabled": 0}, {"fusion_lat": 0.0, "lon": -77.00382933333333, "is_reserved": 0, "bike_id": "559a3d40387957eba15c1688ebd0b02c", "fusion_lon": 0.0, "rental_uris": {"android": "https://dc.lft.to/lastmile_qr_scan", "ios": "https://dc.lft.to/lastmile_qr_scan"}, "name": "559a3d40387957eba15c1688ebd0b02c", "type": "electric_scooter", "lat": 38.876381, "is_disabled": 0}, {"fusion_lat": 0.0, "lon": -77.00340966666667, "is_reserved": 0, "bike_id": "ec61b49f3d1c39a38466eb9851ca4ff2", "fusion_lon": 0.0, "rental_uris": {"android": "https://dc.lft.to/lastmile_qr_scan", "ios": "https://dc.lft.to/lastmile_qr_scan"}, "name": "ec61b49f3d1c39a38466eb9851ca4ff2", "type": "electric_scooter", "lat": 38.9036315, "is_disabled": 0}, {"fusion_lat": 0.0, "lon": -77.04500483333334, "is_reserved": 0, "bike_id": "45d907e4d5d514a8c36894c7199149d5", "fusion_lon": 0.0, "rental_uris": {"android": "https://dc.lft.to/lastmile_qr_scan", "ios": "https://dc.lft.to/lastmile_qr_scan"}, "name": "45d907e4d5d514a8c36894c7199149d5", "type": "electric_scooter", "lat": 38.905218166666664, "is_disabled": 0}, {"fusion_lat": 0.0, "lon": -77.07886633333334, "is_reserved": 0, "bike_id": "d6cc2acd748f35110eaceca3d9235ba4", "fusion_lon": 0.0, "rental_uris": {"android": "https://dc.lft.to/lastmile_qr_scan", "ios": "https://dc.lft.to/lastmile_qr_scan"}, "name": "d6cc2acd748f35110eaceca3d9235ba4", "type": "electric_bike", "lat": 38.95026633333333, "is_disabled": 0}, {"fusion_lat": 0.0, "lon": -76.942001, "is_reserved": 0, "bike_id": "7913255de5d87d1fd96e2982130a1f08", "fusion_lon": 0.0, "rental_uris": {"android": "https://dc.lft.to/lastmile_qr_scan", "ios": "https://dc.lft.to/lastmile_qr_scan"}, "name": "7913255de5d87d1fd96e2982130a1f08", "type": "electric_scooter", "lat": 38.89375533333333, "is_disabled": 0}, {"fusion_lat": 0.0, "lon": -76.997629, "is_reserved": 0, "bike_id": "62056434a9afd927fd35ced50e411204", "fusion_lon": 0.0, "rental_uris": {"android": "https://dc.lft.to/lastmile_qr_scan", "ios": "https://dc.lft.to/lastmile_qr_scan"}, "name": "62056434a9afd927fd35ced50e411204", "type": "electric_scooter", "lat": 38.88770066666667, "is_disabled": 0}, {"fusion_lat": 0.0, "lon": -77.03756966666667, "is_reserved": 0, "bike_id": "c1eaee488f26cacfdc1bca9267b1471d", "fusion_lon": 0.0, "rental_uris": {"android": "https://dc.lft.to/lastmile_qr_scan", "ios": "https://dc.lft.to/lastmile_qr_scan"}, "name": "c1eaee488f26cacfdc1bca9267b1471d", "type": "electric_scooter", "lat": 38.91120266666667, "is_disabled": 0}, {"fusion_lat": 0.0, "lon": -77.00968983333334, "is_reserved": 0, "bike_id": "06c17dad18488bda3652d263317da020", "fusion_lon": 0.0, "rental_uris": {"android": "https://dc.lft.to/lastmile_qr_scan", "ios": "https://dc.lft.to/lastmile_qr_scan"}, "name": "06c17dad18488bda3652d263317da020", "type": "electric_scooter", "lat": 38.914141, "is_disabled": 0}, {"fusion_lat": 0.0, "lon": -77.07076616666667, "is_reserved": 0, "bike_id": "3e28aaa34d82f64fe9aba0dd604fb727", "fusion_lon": 0.0, "rental_uris": {"android": "https://dc.lft.to/lastmile_qr_scan", "ios": "https://dc.lft.to/lastmile_qr_scan"}, "name": "3e28aaa34d82f64fe9aba0dd604fb727", "type": "electric_scooter", "lat": 38.93168383333333, "is_disabled": 0}, {"fusion_lat": 0.0, "lon": -77.02569233333334, "is_reserved": 0, "bike_id": "2bfdc6d54f16c96326ca9635a480a6e5", "fusion_lon": 0.0, "rental_uris": {"android": "https://dc.lft.to/lastmile_qr_scan", "ios": "https://dc.lft.to/lastmile_qr_scan"}, "name": "2bfdc6d54f16c96326ca9635a480a6e5", "type": "electric_scooter", "lat": 38.88074066666667, "is_disabled": 0}, {"fusion_lat": 0.0, "lon": -76.93758016666666, "is_reserved": 0, "bike_id": "c25b5a00ec9b35eb658629cb5a8031ab", "fusion_lon": 0.0, "rental_uris": {"android": "https://dc.lft.to/lastmile_qr_scan", "ios": "https://dc.lft.to/lastmile_qr_scan"}, "name": "c25b5a00ec9b35eb658629cb5a8031ab", "type": "electric_scooter", "lat": 38.890414666666665, "is_disabled": 0}, {"fusion_lat": 0.0, "lon": -77.02710016666667, "is_reserved": 0, "bike_id": "d22198dfb1f57bfd1adc72d369c66fe4", "fusion_lon": 0.0, "rental_uris": {"android": "https://dc.lft.to/lastmile_qr_scan", "ios": "https://dc.lft.to/lastmile_qr_scan"}, "name": "d22198dfb1f57bfd1adc72d369c66fe4", "type": "electric_scooter", "lat": 38.906700666666666, "is_disabled": 0}, {"fusion_lat": 0.0, "lon": -77.027392, "is_reserved": 0, "bike_id": "a3c21dc4e2e02101619c40de795d067b", "fusion_lon": 0.0, "rental_uris": {"android": "https://dc.lft.to/lastmile_qr_scan", "ios": "https://dc.lft.to/lastmile_qr_scan"}, "name": "a3c21dc4e2e02101619c40de795d067b", "type": "electric_scooter", "lat": 38.928652166666666, "is_disabled": 0}, {"fusion_lat": 0.0, "lon": -77.026967, "is_reserved": 0, "bike_id": "a379265d8e6e9a5abced36664e738e0b", "fusion_lon": 0.0, "rental_uris": {"android": "https://dc.lft.to/lastmile_qr_scan", "ios": "https://dc.lft.to/lastmile_qr_scan"}, "name": "a379265d8e6e9a5abced36664e738e0b", "type": "electric_scooter", "lat": 38.923713666666664, "is_disabled": 0}, {"fusion_lat": 0.0, "lon": -77.038988, "is_reserved": 0, "bike_id": "ed40d9aacc225b8895ce50d1d3105de8", "fusion_lon": 0.0, "rental_uris": {"android": "https://dc.lft.to/lastmile_qr_scan", "ios": "https://dc.lft.to/lastmile_qr_scan"}, "name": "ed40d9aacc225b8895ce50d1d3105de8", "type": "electric_scooter", "lat": 38.9147055, "is_disabled": 0}, {"fusion_lat": 0.0, "lon": -77.0279205, "is_reserved": 0, "bike_id": "f6783df527581ff2391c582b2ebeb349", "fusion_lon": 0.0, "rental_uris": {"android": "https://dc.lft.to/lastmile_qr_scan", "ios": "https://dc.lft.to/lastmile_qr_scan"}, "name": "f6783df527581ff2391c582b2ebeb349", "type": "electric_scooter", "lat": 38.930868333333336, "is_disabled": 0}, {"fusion_lat": 0.0, "lon": -77.01629333333334, "is_reserved": 0, "bike_id": "201abc9bd1929af12125d6c7693fc419", "fusion_lon": 0.0, "rental_uris": {"android": "https://dc.lft.to/lastmile_qr_scan", "ios": "https://dc.lft.to/lastmile_qr_scan"}, "name": "201abc9bd1929af12125d6c7693fc419", "type": "electric_scooter", "lat": 38.9034245, "is_disabled": 0}, {"fusion_lat": 0.0, "lon": -77.05417233333333, "is_reserved": 0, "bike_id": "c8584c4e293678ebf35de30768c639b5", "fusion_lon": 0.0, "rental_uris": {"android": "https://dc.lft.to/lastmile_qr_scan", "ios": "https://dc.lft.to/lastmile_qr_scan"}, "name": "c8584c4e293678ebf35de30768c639b5", "type": "electric_scooter", "lat": 38.90252383333333, "is_disabled": 0}, {"fusion_lat": 0.0, "lon": -77.04192116666667, "is_reserved": 0, "bike_id": "c73a263940b2da004d6b29e68eb7ca34", "fusion_lon": 0.0, "rental_uris": {"android": "https://dc.lft.to/lastmile_qr_scan", "ios": "https://dc.lft.to/lastmile_qr_scan"}, "name": "c73a263940b2da004d6b29e68eb7ca34", "type": "electric_scooter", "lat": 38.926238166666664, "is_disabled": 0}, {"fusion_lat": 0.0, "lon": -76.93369816666667, "is_reserved": 0, "bike_id": "e27bdb2839e158b32e64ac4ab3f74b6a", "fusion_lon": 0.0, "rental_uris": {"android": "https://dc.lft.to/lastmile_qr_scan", "ios": "https://dc.lft.to/lastmile_qr_scan"}, "name": "e27bdb2839e158b32e64ac4ab3f74b6a", "type": "electric_scooter", "lat": 38.899128, "is_disabled": 0}, {"fusion_lat": 0.0, "lon": -76.98839633333333, "is_reserved": 0, "bike_id": "7e91db6da673fd17ed6e1717ca2296b4", "fusion_lon": 0.0, "rental_uris": {"android": "https://dc.lft.to/lastmile_qr_scan", "ios": "https://dc.lft.to/lastmile_qr_scan"}, "name": "7e91db6da673fd17ed6e1717ca2296b4", "type": "electric_scooter", "lat": 38.8925025, "is_disabled": 0}, {"fusion_lat": 0.0, "lon": -76.91160483333333, "is_reserved": 0, "bike_id": "d729d248da47eef07585b013186439cf", "fusion_lon": 0.0, "rental_uris": {"android": "https://dc.lft.to/lastmile_qr_scan", "ios": "https://dc.lft.to/lastmile_qr_scan"}, "name": "d729d248da47eef07585b013186439cf", "type": "electric_scooter", "lat": 38.894053166666666, "is_disabled": 0}, {"fusion_lat": 0.0, "lon": -77.03561183333333, "is_reserved": 0, "bike_id": "69f204743389f22df5451c9f5e74bf45", "fusion_lon": 0.0, "rental_uris": {"android": "https://dc.lft.to/lastmile_qr_scan", "ios": "https://dc.lft.to/lastmile_qr_scan"}, "name": "69f204743389f22df5451c9f5e74bf45", "type": "electric_scooter", "lat": 38.917101833333334, "is_disabled": 0}, {"fusion_lat": 0.0, "lon": -77.02000183333334, "is_reserved": 0, "bike_id": "60c4924a2a46ac7a4650af3450eb7d4c", "fusion_lon": 0.0, "rental_uris": {"android": "https://dc.lft.to/lastmile_qr_scan", "ios": "https://dc.lft.to/lastmile_qr_scan"}, "name": "60c4924a2a46ac7a4650af3450eb7d4c", "type": "electric_scooter", "lat": 38.913646, "is_disabled": 0}, {"fusion_lat": 0.0, "lon": -77.023091, "is_reserved": 0, "bike_id": "caf2040444238c57edee01288e8c9035", "fusion_lon": 0.0, "rental_uris": {"android": "https://dc.lft.to/lastmile_qr_scan", "ios": "https://dc.lft.to/lastmile_qr_scan"}, "name": "caf2040444238c57edee01288e8c9035", "type": "electric_scooter", "lat": 38.91796216666667, "is_disabled": 0}, {"fusion_lat": 0.0, "lon": -77.0219245, "is_reserved": 0, "bike_id": "9d05b3d8c098b6ba3f768852265ce08d", "fusion_lon": 0.0, "rental_uris": {"android": "https://dc.lft.to/lastmile_qr_scan", "ios": "https://dc.lft.to/lastmile_qr_scan"}, "name": "9d05b3d8c098b6ba3f768852265ce08d", "type": "electric_scooter", "lat": 38.9227085, "is_disabled": 0}, {"fusion_lat": 0.0, "lon": -77.06353683333333, "is_reserved": 0, "bike_id": "b062ec406e71e22caae76ca960c730dc", "fusion_lon": 0.0, "rental_uris": {"android": "https://dc.lft.to/lastmile_qr_scan", "ios": "https://dc.lft.to/lastmile_qr_scan"}, "name": "b062ec406e71e22caae76ca960c730dc", "type": "electric_scooter", "lat": 38.90682366666667, "is_disabled": 0}, {"fusion_lat": 0.0, "lon": -77.02384866666667, "is_reserved": 0, "bike_id": "411c2520771973474f18fb03ed260473", "fusion_lon": 0.0, "rental_uris": {"android": "https://dc.lft.to/lastmile_qr_scan", "ios": "https://dc.lft.to/lastmile_qr_scan"}, "name": "411c2520771973474f18fb03ed260473", "type": "electric_scooter", "lat": 38.9095725, "is_disabled": 0}, {"fusion_lat": 0.0, "lon": -77.03635283333334, "is_reserved": 0, "bike_id": "f5c478bb5f9827b95385e372698cba6e", "fusion_lon": 0.0, "rental_uris": {"android": "https://dc.lft.to/lastmile_qr_scan", "ios": "https://dc.lft.to/lastmile_qr_scan"}, "name": "f5c478bb5f9827b95385e372698cba6e", "type": "electric_scooter", "lat": 38.906812, "is_disabled": 0}, {"fusion_lat": 0.0, "lon": -76.980931, "is_reserved": 0, "bike_id": "eaa436d88122f142f56cc32cf8ab4dd7", "fusion_lon": 0.0, "rental_uris": {"android": "https://dc.lft.to/lastmile_qr_scan", "ios": "https://dc.lft.to/lastmile_qr_scan"}, "name": "eaa436d88122f142f56cc32cf8ab4dd7", "type": "electric_bike", "lat": 38.881357, "is_disabled": 0}, {"fusion_lat": 0.0, "lon": -77.0425675, "is_reserved": 0, "bike_id": "19ed13bc22829e7423280b4253fe8c9e", "fusion_lon": 0.0, "rental_uris": {"android": "https://dc.lft.to/lastmile_qr_scan", "ios": "https://dc.lft.to/lastmile_qr_scan"}, "name": "19ed13bc22829e7423280b4253fe8c9e", "type": "electric_scooter", "lat": 38.92246433333333, "is_disabled": 0}, {"fusion_lat": 0.0, "lon": -76.9985, "is_reserved": 0, "bike_id": "4f9d3aba11250397d8b33a30fba01135", "fusion_lon": 0.0, "rental_uris": {"android": "https://dc.lft.to/lastmile_qr_scan", "ios": "https://dc.lft.to/lastmile_qr_scan"}, "name": "4f9d3aba11250397d8b33a30fba01135", "type": "electric_scooter", "lat": 38.8874595, "is_disabled": 0}, {"fusion_lat": 0.0, "lon": -76.95200516666667, "is_reserved": 0, "bike_id": "761c7d8fe333ac87ecb34db73321fc8e", "fusion_lon": 0.0, "rental_uris": {"android": "https://dc.lft.to/lastmile_qr_scan", "ios": "https://dc.lft.to/lastmile_qr_scan"}, "name": "761c7d8fe333ac87ecb34db73321fc8e", "type": "electric_scooter", "lat": 38.900051, "is_disabled": 0}, {"fusion_lat": 0.0, "lon": -77.02378216666666, "is_reserved": 0, "bike_id": "1fcd0e29d1f804822376532cfddbf5db", "fusion_lon": 0.0, "rental_uris": {"android": "https://dc.lft.to/lastmile_qr_scan", "ios": "https://dc.lft.to/lastmile_qr_scan"}, "name": "1fcd0e29d1f804822376532cfddbf5db", "type": "electric_scooter", "lat": 38.9182975, "is_disabled": 0}, {"fusion_lat": 0.0, "lon": -76.99367316666667, "is_reserved": 0, "bike_id": "f4dacc9740282ac99262ae7db2eaaefe", "fusion_lon": 0.0, "rental_uris": {"android": "https://dc.lft.to/lastmile_qr_scan", "ios": "https://dc.lft.to/lastmile_qr_scan"}, "name": "f4dacc9740282ac99262ae7db2eaaefe", "type": "electric_scooter", "lat": 38.883418, "is_disabled": 0}, {"fusion_lat": 0.0, "lon": -77.066568, "is_reserved": 0, "bike_id": "cffc9d2d720e42931391952d45c81039", "fusion_lon": 0.0, "rental_uris": {"android": "https://dc.lft.to/lastmile_qr_scan", "ios": "https://dc.lft.to/lastmile_qr_scan"}, "name": "cffc9d2d720e42931391952d45c81039", "type": "electric_scooter", "lat": 38.94972666666666, "is_disabled": 0}, {"fusion_lat": 0.0, "lon": -77.0263315, "is_reserved": 0, "bike_id": "8e1783f62c69827e29e5de96201b762e", "fusion_lon": 0.0, "rental_uris": {"android": "https://dc.lft.to/lastmile_qr_scan", "ios": "https://dc.lft.to/lastmile_qr_scan"}, "name": "8e1783f62c69827e29e5de96201b762e", "type": "electric_bike", "lat": 38.962247833333336, "is_disabled": 0}, {"fusion_lat": 0.0, "lon": -77.0547875, "is_reserved": 0, "bike_id": "941535f3f0487423c97e40749ebed8ef", "fusion_lon": 0.0, "rental_uris": {"android": "https://dc.lft.to/lastmile_qr_scan", "ios": "https://dc.lft.to/lastmile_qr_scan"}, "name": "941535f3f0487423c97e40749ebed8ef", "type": "electric_scooter", "lat": 38.910637666666666, "is_disabled": 0}, {"fusion_lat": 0.0, "lon": -77.02774766666667, "is_reserved": 0, "bike_id": "44920cb924ac394c32855c9b785fb5d7", "fusion_lon": 0.0, "rental_uris": {"android": "https://dc.lft.to/lastmile_qr_scan", "ios": "https://dc.lft.to/lastmile_qr_scan"}, "name": "44920cb924ac394c32855c9b785fb5d7", "type": "electric_scooter", "lat": 38.95431116666666, "is_disabled": 0}, {"fusion_lat": 0.0, "lon": -77.01938783333334, "is_reserved": 0, "bike_id": "dcdfbb256f2f13095e86d1202080f130", "fusion_lon": 0.0, "rental_uris": {"android": "https://dc.lft.to/lastmile_qr_scan", "ios": "https://dc.lft.to/lastmile_qr_scan"}, "name": "dcdfbb256f2f13095e86d1202080f130", "type": "electric_scooter", "lat": 38.90239966666667, "is_disabled": 0}, {"fusion_lat": 0.0, "lon": -77.02176666666666, "is_reserved": 0, "bike_id": "cf3e3f0cd179e47068699c3907cf1cce", "fusion_lon": 0.0, "rental_uris": {"android": "https://dc.lft.to/lastmile_qr_scan", "ios": "https://dc.lft.to/lastmile_qr_scan"}, "name": "cf3e3f0cd179e47068699c3907cf1cce", "type": "electric_scooter", "lat": 38.94290083333333, "is_disabled": 0}, {"fusion_lat": 0.0, "lon": -77.03441033333333, "is_reserved": 0, "bike_id": "3e3e3ceb5aa8b965441916c1cf8d7d7a", "fusion_lon": 0.0, "rental_uris": {"android": "https://dc.lft.to/lastmile_qr_scan", "ios": "https://dc.lft.to/lastmile_qr_scan"}, "name": "3e3e3ceb5aa8b965441916c1cf8d7d7a", "type": "electric_scooter", "lat": 38.918081, "is_disabled": 0}, {"fusion_lat": 0.0, "lon": -77.02351816666666, "is_reserved": 0, "bike_id": "a9b9ca5a9f780ac99f141d4690dce9a0", "fusion_lon": 0.0, "rental_uris": {"android": "https://dc.lft.to/lastmile_qr_scan", "ios": "https://dc.lft.to/lastmile_qr_scan"}, "name": "a9b9ca5a9f780ac99f141d4690dce9a0", "type": "electric_scooter", "lat": 38.899818, "is_disabled": 0}, {"fusion_lat": 0.0, "lon": -76.966011, "is_reserved": 0, "bike_id": "999a696d02b07fc1e75d116d6efede6f", "fusion_lon": 0.0, "rental_uris": {"android": "https://dc.lft.to/lastmile_qr_scan", "ios": "https://dc.lft.to/lastmile_qr_scan"}, "name": "999a696d02b07fc1e75d116d6efede6f", "type": "electric_scooter", "lat": 38.871107, "is_disabled": 0}, {"fusion_lat": 0.0, "lon": -77.032111, "is_reserved": 0, "bike_id": "6a3112be522e687ab37fcdfc91da320a", "fusion_lon": 0.0, "rental_uris": {"android": "https://dc.lft.to/lastmile_qr_scan", "ios": "https://dc.lft.to/lastmile_qr_scan"}, "name": "6a3112be522e687ab37fcdfc91da320a", "type": "electric_bike", "lat": 38.933132666666666, "is_disabled": 0}, {"fusion_lat": 0.0, "lon": -77.03871233333334, "is_reserved": 0, "bike_id": "652bedcef2a4d60d328ea5b195eb0ced", "fusion_lon": 0.0, "rental_uris": {"android": "https://dc.lft.to/lastmile_qr_scan", "ios": "https://dc.lft.to/lastmile_qr_scan"}, "name": "652bedcef2a4d60d328ea5b195eb0ced", "type": "electric_scooter", "lat": 38.92151033333333, "is_disabled": 0}, {"fusion_lat": 0.0, "lon": -77.00618166666666, "is_reserved": 0, "bike_id": "74d85773d67b2f8746c330342dddc93c", "fusion_lon": 0.0, "rental_uris": {"android": "https://dc.lft.to/lastmile_qr_scan", "ios": "https://dc.lft.to/lastmile_qr_scan"}, "name": "74d85773d67b2f8746c330342dddc93c", "type": "electric_scooter", "lat": 38.87175466666667, "is_disabled": 0}, {"fusion_lat": 0.0, "lon": -77.07145216666666, "is_reserved": 0, "bike_id": "ec52e0575de8ece368b5089265974c16", "fusion_lon": 0.0, "rental_uris": {"android": "https://dc.lft.to/lastmile_qr_scan", "ios": "https://dc.lft.to/lastmile_qr_scan"}, "name": "ec52e0575de8ece368b5089265974c16", "type": "electric_scooter", "lat": 38.9456105, "is_disabled": 0}, {"fusion_lat": 0.0, "lon": -77.03016516666666, "is_reserved": 0, "bike_id": "96d1da4171bd9cb56517eed9af3939a3", "fusion_lon": 0.0, "rental_uris": {"android": "https://dc.lft.to/lastmile_qr_scan", "ios": "https://dc.lft.to/lastmile_qr_scan"}, "name": "96d1da4171bd9cb56517eed9af3939a3", "type": "electric_scooter", "lat": 38.90488083333334, "is_disabled": 0}, {"fusion_lat": 0.0, "lon": -77.00067716666666, "is_reserved": 0, "bike_id": "707edee41aa3c3f67ace2ccdcf6c5968", "fusion_lon": 0.0, "rental_uris": {"android": "https://dc.lft.to/lastmile_qr_scan", "ios": "https://dc.lft.to/lastmile_qr_scan"}, "name": "707edee41aa3c3f67ace2ccdcf6c5968", "type": "electric_scooter", "lat": 38.924369166666665, "is_disabled": 0}, {"fusion_lat": 0.0, "lon": -77.065757, "is_reserved": 0, "bike_id": "9ab0f61d26bfb8ba1b98ed48d0b99a17", "fusion_lon": 0.0, "rental_uris": {"android": "https://dc.lft.to/lastmile_qr_scan", "ios": "https://dc.lft.to/lastmile_qr_scan"}, "name": "9ab0f61d26bfb8ba1b98ed48d0b99a17", "type": "electric_bike", "lat": 38.911371833333334, "is_disabled": 0}, {"fusion_lat": 0.0, "lon": -77.03497266666666, "is_reserved": 0, "bike_id": "7094bb46d23113910f9f78387b837751", "fusion_lon": 0.0, "rental_uris": {"android": "https://dc.lft.to/lastmile_qr_scan", "ios": "https://dc.lft.to/lastmile_qr_scan"}, "name": "7094bb46d23113910f9f78387b837751", "type": "electric_bike", "lat": 38.93751266666666, "is_disabled": 0}, {"fusion_lat": 0.0, "lon": -77.05572366666667, "is_reserved": 0, "bike_id": "b860d826f40c2a579855aa0b497c58b4", "fusion_lon": 0.0, "rental_uris": {"android": "https://dc.lft.to/lastmile_qr_scan", "ios": "https://dc.lft.to/lastmile_qr_scan"}, "name": "b860d826f40c2a579855aa0b497c58b4", "type": "electric_scooter", "lat": 38.936245166666666, "is_disabled": 0},