{"data": {"bikes": [{"name": "470d474969d55a1eb0aeff65abb401c5", "lat": 38.9186135, "lon": -77.04041716666667, "fusion_lon": 0.0, "bike_id": "470d474969d55a1eb0aeff65abb401c5", "rental_uris": {"android": "https://dc.lft.to/lastmile_qr_scan", "ios": "https://dc.lft.to/lastmile_qr_scan"}, "is_reserved": 0, "type": "electric_scooter", "is_disabled": 0, "fusion_lat": 0.0}, {"name": "df441b4152d1538480fa77c87e1947e3", "lat": 38.9181955, "lon": -77.02713916666667, "fusion_lon": 0.0, "bike_id": "df441b4152d1538480fa77c87e1947e3", "rental_uris": {"android": "https://dc.lft.to/lastmile_qr_scan", "ios": "https://dc.lft.to/lastmile_qr_scan"}, "is_reserved": 0, "type": "electric_scooter", "is_disabled": 0, "fusion_lat": 0.0}, {"name": "4d7c654db594e6ebf05406c19c684252", "lat": 38.904502666666666, "lon": -76.974242, "fusion_lon": 0.0, "bike_id": "4d7c654db594e6ebf05406c19c684252", "rental_uris": {"android": "https://dc.lft.to/lastmile_qr_scan", "ios": "https://dc.lft.to/lastmile_qr_scan"}, "is_reserved": 0, "type": "electric_scooter", "is_disabled": 0, "fusion_lat": 0.0}, {"name": "146ac65e6bc4376585d809651e890fe8", "lat": 38.90353366666667, "lon": -76.9748205, "fusion_lon": 0.0, "bike_id": "146ac65e6bc4376585d809651e890fe8", "rental_uris": {"android": "https://dc.lft.to/lastmile_qr_scan", "ios": "https://dc.lft.to/lastmile_qr_scan"}, "is_reserved": 0, "type": "electric_scooter", "is_disabled": 0, "fusion_lat": 0.0}, {"name": "ca7968402f0e698a4865a1552f6def74", "lat": 38.90009216666667, "lon": -77.0067785, "fusion_lon": 0.0, "bike_id": "ca7968402f0e698a4865a1552f6def74", "rental_uris": {"android": "https://dc.lft.to/lastmile_qr_scan", "ios": "https://dc.lft.to/lastmile_qr_scan"}, "is_reserved": 0, "type": "electric_scooter", "is_disabled": 0, "fusion_lat": 0.0}, {"name": "88be6169430b51b07a5eac5a8cc21af1", "lat": 38.9087115, "lon": -77.0269245, "fusion_lon": 0.0, "bike_id": "88be6169430b51b07a5eac5a8cc21af1", "rental_uris": {"android": "https://dc.lft.to/lastmile_qr_scan", "ios": "https://dc.lft.to/lastmile_qr_scan"}, "is_reserved": 0, "type": "electric_scooter", "is_disabled": 0, "fusion_lat": 0.0}, {"name": "14e1c7b4f1c159ba65a185ff5eceddbf", "lat": 38.91560166666667, "lon": -77.04877766666667, "fusion_lon": 0.0, "bike_id": "14e1c7b4f1c159ba65a185ff5eceddbf", "rental_uris": {"android": "https://dc.lft.to/lastmile_qr_scan", "ios": "https://dc.lft.to/lastmile_qr_scan"}, "is_reserved": 0, "type": "electric_scooter", "is_disabled": 0, "fusion_lat": 0.0}, {"name": "52cbaf0949311eb51712e5cd58a1f777", "lat": 39.030545833333335, "lon": -77.09480216666667, "fusion_lon": 0.0, "bike_id": "52cbaf0949311eb51712e5cd58a1f777", "rental_uris": {"android": "https://dc.lft.to/lastmile_qr_scan", "ios": "https://dc.lft.to/lastmile_qr_scan"}, "is_reserved": 0, "type": "electric_bike", "is_disabled": 0, "fusion_lat": 0.0}, {"name": "e2b06d2056359d70bf8fdccce49bc5b1", "lat": 38.903483333333334, "lon": -77.04522216666666, "fusion_lon": 0.0, "bike_id": "e2b06d2056359d70bf8fdccce49bc5b1", "rental_uris": {"android": "https://dc.lft.to/lastmile_qr_scan", "ios": "https://dc.lft.to/lastmile_qr_scan"}, "is_reserved": 0, "type": "electric_scooter", "is_disabled": 0, "fusion_lat": 0.0}, {"name": "2bc8a3469ca1bb26af7532fdb3aa26ba", "lat": 38.93513016666667, "lon": -77.05815083333333, "fusion_lon": 0.0, "bike_id": "2bc8a3469ca1bb26af7532fdb3aa26ba", "rental_uris": {"android": "https://dc.lft.to/lastmile_qr_scan", "ios": "https://dc.lft.to/lastmile_qr_scan"}, "is_reserved": 0, "type": "electric_scooter", "is_disabled": 0, "fusion_lat": 0.0}, {"name": "6a269b1d8c66a3998cb17d097745283b", "lat": 38.90972766666667, "lon": -76.9867145, "fusion_lon": 0.0, "bike_id": "6a269b1d8c66a3998cb17d097745283b", "rental_uris": {"android": "https://dc.lft.to/lastmile_qr_scan", "ios": "https://dc.lft.to/lastmile_qr_scan"}, "is_reserved": 0, "type": "electric_scooter", "is_disabled": 0, "fusion_lat": 0.0}, {"name": "920ca67490785c4d01c91a848508f813", "lat": 38.91995383333333, "lon": -77.0239985, "fusion_lon": 0.0, "bike_id": "920ca67490785c4d01c91a848508f813", "rental_uris": {"android": "https://dc.lft.to/lastmile_qr_scan", "ios": "https://dc.lft.to/lastmile_qr_scan"}, "is_reserved": 0, "type": "electric_scooter", "is_disabled": 0, "fusion_lat": 0.0}, {"name": "63522891c9ce02d6cca3884866523980", "lat": 39.03756033333333, "lon": -77.0286765, "fusion_lon": 0.0, "bike_id": "63522891c9ce02d6cca3884866523980", "rental_uris": {"android": "https://dc.lft.to/lastmile_qr_scan", "ios": "https://dc.lft.to/lastmile_qr_scan"}, "is_reserved": 0, "type": "electric_scooter", "is_disabled": 0, "fusion_lat": 0.0}, {"name": "b13257abb9228edcbadf2205d3a19107", "lat": 38.92478416666667, "lon": -77.02331733333334, "fusion_lon": 0.0, "bike_id": "b13257abb9228edcbadf2205d3a19107", "rental_uris": {"android": "https://dc.lft.to/lastmile_qr_scan", "ios": "https://dc.lft.to/lastmile_qr_scan"}, "is_reserved": 0, "type": "electric_scooter", "is_disabled": 0, "fusion_lat": 0.0}, {"name": "052bf25f1855859e5725910a8983baf7", "lat": 38.88370483333333, "lon": -76.99516583333333, "fusion_lon": 0.0, "bike_id": "052bf25f1855859e5725910a8983baf7", "rental_uris": {"android": "https://dc.lft.to/lastmile_qr_scan", "ios": "https://dc.lft.to/lastmile_qr_scan"}, "is_reserved": 0, "type": "electric_scooter", "is_disabled": 0, "fusion_lat": 0.0}, {"name": "dacaa9df96d3984457112277ea83d132", "lat": 38.914846, "lon": -77.02552516666667, "fusion_lon": 0.0, "bike_id": "dacaa9df96d3984457112277ea83d132", "rental_uris": {"android": "https://dc.lft.to/lastmile_qr_scan", "ios": "https://dc.lft.to/lastmile_qr_scan"}, "is_reserved": 0, "type": "electric_scooter", "is_disabled": 0, "fusion_lat": 0.0}, {"name": "a3c08a7ee9203b1264897b9e4ca8651d", "lat": 38.87142566666667, "lon": -76.9933525, "fusion_lon": 0.0, "bike_id": "a3c08a7ee9203b1264897b9e4ca8651d", "rental_uris": {"android": "https://dc.lft.to/lastmile_qr_scan", "ios": "https://dc.lft.to/lastmile_qr_scan"}, "is_reserved": 0, "type": "electric_scooter", "is_disabled": 0, "fusion_lat": 0.0}, {"name": "ac4c645e31f85b29027659a011e768bf", "lat": 38.97367716666667, "lon": -77.01849583333333, "fusion_lon": 0.0, "bike_id": "ac4c645e31f85b29027659a011e768bf", "rental_uris": {"android": "https://dc.lft.to/lastmile_qr_scan", "ios": "https://dc.lft.to/lastmile_qr_scan"}, "is_reserved": 0, "type": "electric_scooter", "is_disabled": 0, "fusion_lat": 0.0}, {"name": "836e23f29c3b8fb1f3d1212919ed6676", "lat": 38.91658816666666, "lon": -77.04384466666667, "fusion_lon": 0.0, "bike_id": "836e23f29c3b8fb1f3d1212919ed6676", "rental_uris": {"android": "https://dc.lft.to/lastmile_qr_scan", "ios": "https://dc.lft.to/lastmile_qr_scan"}, "is_reserved": 0, "type": "electric_scooter", "is_disabled": 0, "fusion_lat": 0.0}, {"name": "167e92a28a2a9809aab5e60766958261", "lat": 38.9037745, "lon": -77.031731, "fusion_lon": 0.0, "bike_id": "167e92a28a2a9809aab5e60766958261", "rental_uris": {"android": "https://dc.lft.to/lastmile_qr_scan", "ios": "https://dc.lft.to/lastmile_qr_scan"}, "is_reserved": 0, "type": "electric_scooter", "is_disabled": 0, "fusion_lat": 0.0}, {"name": "0ce7a430f41df11e26c8b89915862bcd", "lat": 38.95480933333333, "lon": -76.98860966666666, "fusion_lon": 0.0, "bike_id": "0ce7a430f41df11e26c8b89915862bcd", "rental_uris": {"android": "https://dc.lft.to/lastmile_qr_scan", "ios": "https://dc.lft.to/lastmile_qr_scan"}, "is_reserved": 0, "type": "electric_bike", "is_disabled": 0, "fusion_lat": 0.0}, {"name": "c908299273915cdb4bd5d126a104a9ac", "lat": 38.89048916666667, "lon": -76.93749083333333, "fusion_lon": 0.0, "bike_id": "c908299273915cdb4bd5d126a104a9ac", "rental_uris": {"android": "https://dc.lft.to/lastmile_qr_scan", "ios": "https://dc.lft.to/lastmile_qr_scan"}, "is_reserved": 0, "type": "electric_scooter", "is_disabled": 0, "fusion_lat": 0.0}, {"name": "bafa860ff34c21e85fdd1f8177bf8a91", "lat": 38.9356155, "lon": -77.0581545, "fusion_lon": 0.0, "bike_id": "bafa860ff34c21e85fdd1f8177bf8a91", "rental_uris": {"android": "https://dc.lft.to/lastmile_qr_scan", "ios": "https://dc.lft.to/lastmile_qr_scan"}, "is_reserved": 0, "type": "electric_scooter", "is_disabled": 0, "fusion_lat": 0.0}, {"name": "5dd6ec2ba8cb74a0963a17074197e6db", "lat": 38.88407683333333, "lon": -76.960499, "fusion_lon": 0.0, "bike_id": "5dd6ec2ba8cb74a0963a17074197e6db", "rental_uris": {"android": "https://dc.lft.to/lastmile_qr_scan", "ios": "https://dc.lft.to/lastmile_qr_scan"}, "is_reserved": 0, "type": "electric_bike", "is_disabled": 0, "fusion_lat": 0.0}, {"name": "7ced388669765a352bdcaf9047e553fd", "lat": 38.9173755, "lon": -77.0482835, "fusion_lon": 0.0, "bike_id": "7ced388669765a352bdcaf9047e553fd", "rental_uris": {"android": "https://dc.lft.to/lastmile_qr_scan", "ios": "https://dc.lft.to/lastmile_qr_scan"}, "is_reserved": 0, "type": "electric_scooter", "is_disabled": 0, "fusion_lat": 0.0}, {"name": "5f08a4a0f3dfb3742abd74d54ec98b85", "lat": 38.91404166666667, "lon": -77.03253133333334, "fusion_lon": 0.0, "bike_id": "5f08a4a0f3dfb3742abd74d54ec98b85", "rental_uris": {"android": "https://dc.lft.to/lastmile_qr_scan", "ios": "https://dc.lft.to/lastmile_qr_scan"}, "is_reserved": 0, "type": "electric_scooter", "is_disabled": 0, "fusion_lat": 0.0}, {"name": "65bade63cb1121401639ced74b32b801", "lat": 38.87012816666667, "lon": -76.960225, "fusion_lon": 0.0, "bike_id": "65bade63cb1121401639ced74b32b801", "rental_uris": {"android": "https://dc.lft.to/lastmile_qr_scan", "ios": "https://dc.lft.to/lastmile_qr_scan"}, "is_reserved": 0, "type": "electric_bike", "is_disabled": 0, "fusion_lat": 0.0}, {"name": "3aa966266e5dbd89d0ef51015cca5aa5", "lat": 38.94264666666667, "lon": -77.02838666666666, "fusion_lon": 0.0, "bike_id": "3aa966266e5dbd89d0ef51015cca5aa5", "rental_uris": {"android": "https://dc.lft.to/lastmile_qr_scan", "ios": "https://dc.lft.to/lastmile_qr_scan"}, "is_reserved": 0, "type": "electric_bike", "is_disabled": 0, "fusion_lat": 0.0}, {"name": "78c3db19f453a1169ad18b2942fce6a1", "lat": 38.92040566666667, "lon": -77.0333775, "fusion_lon": 0.0, "bike_id": "78c3db19f453a1169ad18b2942fce6a1", "rental_uris": {"android": "https://dc.lft.to/lastmile_qr_scan", "ios": "https://dc.lft.to/lastmile_qr_scan"}, "is_reserved": 0, "type": "electric_scooter", "is_disabled": 0, "fusion_lat": 0.0}, {"name": "71252aaaddc89d5b397e4041d9c3170c", "lat": 38.89843116666667, "lon": -77.02869533333333, "fusion_lon": 0.0, "bike_id": "71252aaaddc89d5b397e4041d9c3170c", "rental_uris": {"android": "https://dc.lft.to/lastmile_qr_scan", "ios": "https://dc.lft.to/lastmile_qr_scan"}, "is_reserved": 0, "type": "electric_scooter", "is_disabled": 0, "fusion_lat": 0.0}, {"name": "0a5e215d797f93a6bd69ca97d227f6a7", "lat": 38.90144016666667, "lon": -77.03321416666667, "fusion_lon": 0.0, "bike_id": "0a5e215d797f93a6bd69ca97d227f6a7", "rental_uris": {"android": "https://dc.lft.to/lastmile_qr_scan", "ios": "https://dc.lft.to/lastmile_qr_scan"}, "is_reserved": 0, "type": "electric_scooter", "is_disabled": 0, "fusion_lat": 0.0}, {"name": "08817537bed281c7ededb783e073649e", "lat": 38.90544883333333, "lon": -77.03977666666667, "fusion_lon": 0.0, "bike_id": "08817537bed281c7ededb783e073649e", "rental_uris": {"android": "https://dc.lft.to/lastmile_qr_scan", "ios": "https://dc.lft.to/lastmile_qr_scan"}, "is_reserved": 0, "type": "electric_scooter", "is_disabled": 0, "fusion_lat": 0.0}, {"name": "3e87224638cd8e06fc49179376f6e3a3", "lat": 38.941826666666664, "lon": -77.02489733333333, "fusion_lon": 0.0, "bike_id": "3e87224638cd8e06fc49179376f6e3a3", "rental_uris": {"android": "https://dc.lft.to/lastmile_qr_scan", "ios": "https://dc.lft.to/lastmile_qr_scan"}, "is_reserved": 0, "type": "electric_scooter", "is_disabled": 0, "fusion_lat": 0.0}, {"name": "70e0220df9b40fce5a72347d72cded25", "lat": 38.91476566666667, "lon": -77.02189166666666, "fusion_lon": 0.0, "bike_id": "70e0220df9b40fce5a72347d72cded25", "rental_uris": {"android": "https://dc.lft.to/lastmile_qr_scan", "ios": "https://dc.lft.to/lastmile_qr_scan"}, "is_reserved": 0, "type": "electric_scooter", "is_disabled": 0, "fusion_lat": 0.0}, {"name": "7cf2cfc8186dd2fa03e5000a18e06c81", "lat": 38.928067166666665, "lon": -77.02294316666666, "fusion_lon": 0.0, "bike_id": "7cf2cfc8186dd2fa03e5000a18e06c81", "rental_uris": {"android": "https://dc.lft.to/lastmile_qr_scan", "ios": "https://dc.lft.to/lastmile_qr_scan"}, "is_reserved": 0, "type": "electric_scooter", "is_disabled": 0, "fusion_lat": 0.0}, {"name": "c398fa8a2a60f5804c01da6fc66b3caf", "lat": 38.89285316666667, "lon": -77.04184583333333, "fusion_lon": 0.0, "bike_id": "c398fa8a2a60f5804c01da6fc66b3caf", "rental_uris": {"android": "https://dc.lft.to/lastmile_qr_scan", "ios": "https://dc.lft.to/lastmile_qr_scan"}, "is_reserved": 0, "type": "electric_scooter", "is_disabled": 0, "fusion_lat": 0.0}, {"name": "6c3090586c35557548dbe3d4b9e1d31a", "lat": 38.862006666666666, "lon": -76.9912885, "fusion_lon": 0.0, "bike_id": "6c3090586c35557548dbe3d4b9e1d31a", "rental_uris": {"android": "https://dc.lft.to/lastmile_qr_scan", "ios": "https://dc.lft.to/lastmile_qr_scan"}, "is_reserved": 0, "type": "electric_scooter", "is_disabled": 0, "fusion_lat": 0.0}, {"name": "3124691965711a1b61c5672861140e44", "lat": 38.903924833333335, "lon": -77.04344083333334, "fusion_lon": 0.0, "bike_id": "3124691965711a1b61c5672861140e44", "rental_uris": {"android": "https://dc.lft.to/lastmile_qr_scan", "ios": "https://dc.lft.to/lastmile_qr_scan"}, "is_reserved": 0, "type": "electric_scooter", "is_disabled": 0, "fusion_lat": 0.0}, {"name": "49cdec957c40e9057e3df52620ecc27c", "lat": 38.90949416666667, "lon": -77.04725, "fusion_lon": 0.0, "bike_id": "49cdec957c40e9057e3df52620ecc27c", "rental_uris": {"android": "https://dc.lft.to/lastmile_qr_scan", "ios": "https://dc.lft.to/lastmile_qr_scan"}, "is_reserved": 0, "type": "electric_scooter", "is_disabled": 0, "fusion_lat": 0.0}, {"name": "e8a89cd1887c45f59fcf1381b7af1af3", "lat": 38.89241116666667, "lon": -77.02613983333333, "fusion_lon": 0.0, "bike_id": "e8a89cd1887c45f59fcf1381b7af1af3", "rental_uris": {"android": "https://dc.lft.to/lastmile_qr_scan", "ios": "https://dc.lft.to/lastmile_qr_scan"}, "is_reserved": 0, "type": "electric_scooter", "is_disabled": 0, "fusion_lat": 0.0}, {"name": "e10ddf24ebd68de6e91360c688441883", "lat": 38.927473, "lon": -77.0327365, "fusion_lon": 0.0, "bike_id": "e10ddf24ebd68de6e91360c688441883", "rental_uris": {"android": "https://dc.lft.to/lastmile_qr_scan", "ios": "https://dc.lft.to/lastmile_qr_scan"}, "is_reserved": 0, "type": "electric_scooter", "is_disabled": 0, "fusion_lat": 0.0}, {"name": "dad6be4c05ab721d1b7164987fd7730e", "lat": 38.903731666666665, "lon": -77.04518016666667, "fusion_lon": 0.0, "bike_id": "dad6be4c05ab721d1b7164987fd7730e", "rental_uris": {"android": "https://dc.lft.to/lastmile_qr_scan", "ios": "https://dc.lft.to/lastmile_qr_scan"}, "is_reserved": 0, "type": "electric_scooter", "is_disabled": 0, "fusion_lat": 0.0}, {"name": "d924271c8ac65c25f85dc69d12fe9b7d", "lat": 38.91483933333333, "lon": -76.99347533333334, "fusion_lon": 0.0, "bike_id": "d924271c8ac65c25f85dc69d12fe9b7d", "rental_uris": {"android": "https://dc.lft.to/lastmile_qr_scan", "ios": "https://dc.lft.to/lastmile_qr_scan"}, "is_reserved": 0, "type": "electric_scooter", "is_disabled": 0, "fusion_lat": 0.0}, {"name": "5487cf9e0e19e887f79f178357834b97", "lat": 38.92230516666667, "lon": -77.04341833333334, "fusion_lon": 0.0, "bike_id": "5487cf9e0e19e887f79f178357834b97", "rental_uris": {"android": "https://dc.lft.to/lastmile_qr_scan", "ios": "https://dc.lft.to/lastmile_qr_scan"}, "is_reserved": 0, "type": "electric_scooter", "is_disabled": 0, "fusion_lat": 0.0}, {"name": "b6cc21d2e22f8ae4bcedc60975a8bc2a", "lat": 38.895858833333335, "lon": -77.032091, "fusion_lon": 0.0, "bike_id": "b6cc21d2e22f8ae4bcedc60975a8bc2a", "rental_uris": {"android": "https://dc.lft.to/lastmile_qr_scan", "ios": "https://dc.lft.to/lastmile_qr_scan"}, "is_reserved": 0, "type": "electric_scooter", "is_disabled": 0, "fusion_lat": 0.0}, {"name": "1322afe7fe211ec8b6c9813aa69ddd49", "lat": 38.90856, "lon": -76.98603866666667, "fusion_lon": 0.0, "bike_id": "1322afe7fe211ec8b6c9813aa69ddd49", "rental_uris": {"android": "https://dc.lft.to/lastmile_qr_scan", "ios": "https://dc.lft.to/lastmile_qr_scan"}, "is_reserved": 0, "type": "electric_scooter", "is_disabled": 0, "fusion_lat": 0.0}, {"name": "0c1ab0f844ead4e16dbdce0094d99edc", "lat": 38.92378316666667, "lon": -77.05255183333334, "fusion_lon": 0.0, "bike_id": "0c1ab0f844ead4e16dbdce0094d99edc", "rental_uris": {"android": "https://dc.lft.to/lastmile_qr_scan", "ios": "https://dc.lft.to/lastmile_qr_scan"}, "is_reserved": 0, "type": "electric_scooter", "is_disabled": 0, "fusion_lat": 0.0}, {"name": "0193ac515a8756de04e0f1bffd25f7b4", "lat": 38.90979333333333, "lon": -76.99503033333333, "fusion_lon": 0.0, "bike_id": "0193ac515a8756de04e0f1bffd25f7b4", "rental_uris": {"android": "https://dc.lft.to/lastmile_qr_scan", "ios": "https://dc.lft.to/lastmile_qr_scan"}, "is_reserved": 0, "type": "electric_scooter", "is_disabled": 0, "fusion_lat": 0.0}, {"name": "a6036147fc28f9c576ba8f8a2b239476", "lat": 38.898262, "lon": -77.00743816666666, "fusion_lon": 0.0, "bike_id": "a6036147fc28f9c576ba8f8a2b239476", "rental_uris": {"android": "https://dc.lft.to/lastmile_qr_scan", "ios": "https://dc.lft.to/lastmile_qr_scan"}, "is_reserved": 0, "type": "electric_scooter", "is_disabled": 0, "fusion_lat": 0.0}, {"name": "aef572327c85876d7cb35800d44f83e3", "lat": 38.90413683333333, "lon": -77.03095166666667, "fusion_lon": 0.0, "bike_id": "aef572327c85876d7cb35800d44f83e3", "rental_uris": {"android": "https://dc.lft.to/lastmile_qr_scan", "ios": "https://dc.lft.to/lastmile_qr_scan"}, "is_reserved": 0, "type": "electric_scooter", "is_disabled": 0, "fusion_lat": 0.0}, {"name": "9423148c48ea52cc8814a096ad546d0d", "lat": 38.9493895, "lon": -77.015944, "fusion_lon": 0.0, "bike_id": "9423148c48ea52cc8814a096ad546d0d", "rental_uris": {"android": "https://dc.lft.to/lastmile_qr_scan", "ios": "https://dc.lft.to/lastmile_qr_scan"}, "is_reserved": 0, "type": "electric_scooter", "is_disabled": 0, "fusion_lat": 0.0}, {"name": "9f4b5cd1884905f6a0cfcca62fd2935b", "lat": 38.877298333333336, "lon": -76.981067, "fusion_lon": 0.0, "bike_id": "9f4b5cd1884905f6a0cfcca62fd2935b", "rental_uris": {"android": "https://dc.lft.to/lastmile_qr_scan", "ios": "https://dc.lft.to/lastmile_qr_scan"}, "is_reserved": 0, "type": "electric_bike", "is_disabled": 0, "fusion_lat": 0.0}, {"name": "a31967b6c3da64727d1e3d7c4bd8c44b", "lat": 38.92778216666667, "lon": -77.03709016666667, "fusion_lon": 0.0, "bike_id": "a31967b6c3da64727d1e3d7c4bd8c44b", "rental_uris": {"android": "https://dc.lft.to/lastmile_qr_scan", "ios": "https://dc.lft.to/lastmile_qr_scan"}, "is_reserved": 0, "type": "electric_scooter", "is_disabled": 0, "fusion_lat": 0.0}, {"name": "051ae9cc3fed938a1a79384118e2b5e5", "lat": 38.92279116666667, "lon": -77.0420455, "fusion_lon": 0.0, "bike_id": "051ae9cc3fed938a1a79384118e2b5e5", "rental_uris": {"android": "https://dc.lft.to/lastmile_qr_scan", "ios": "https://dc.lft.to/lastmile_qr_scan"}, "is_reserved": 0, "type": "electric_scooter", "is_disabled": 0, "fusion_lat": 0.0}, {"name": "b987ce6f5c1298835126395207de7bea", "lat": 38.90074933333333, "lon": -77.02784966666667, "fusion_lon": 0.0, "bike_id": "b987ce6f5c1298835126395207de7bea", "rental_uris": {"android": "https://dc.lft.to/lastmile_qr_scan", "ios": "https://dc.lft.to/lastmile_qr_scan"}, "is_reserved": 0, "type": "electric_scooter", "is_disabled": 0, "fusion_lat": 0.0}, {"name": "1d8acb0569793d2e0708c30d670c478a", "lat": 38.938646, "lon": -77.07581233333333, "fusion_lon": 0.0, "bike_id": "1d8acb0569793d2e0708c30d670c478a", "rental_uris": {"android": "https://dc.lft.to/lastmile_qr_scan", "ios": "https://dc.lft.to/lastmile_qr_scan"}, "is_reserved": 0, "type": "electric_scooter", "is_disabled": 0, "fusion_lat": 0.0}, {"name": "acb9c66eeb2ef5660ee47f859416aa8d", "lat": 38.93301833333334, "lon": -77.02390233333334, "fusion_lon": 0.0, "bike_id": "acb9c66eeb2ef5660ee47f859416aa8d", "rental_uris": {"android": "https://dc.lft.to/lastmile_qr_scan", "ios": "https://dc.lft.to/lastmile_qr_scan"}, "is_reserved": 0, "type": "electric_scooter", "is_disabled": 0, "fusion_lat": 0.0}, {"name": "78ced3d5675dce546beeba80b6fe5354", "lat": 38.9029875, "lon": -76.98780966666666, "fusion_lon": 0.0, "bike_id": "78ced3d5675dce546beeba80b6fe5354", "rental_uris": {"android": "https://dc.lft.to/lastmile_qr_scan", "ios": "https://dc.lft.to/lastmile_qr_scan"}, "is_reserved": 0, "type": "electric_scooter", "is_disabled": 0, "fusion_lat": 0.0}, {"name": "584c11010a85aa896c256115256d3860", "lat": 38.89159566666667, "lon": -77.00051166666667, "fusion_lon": 0.0, "bike_id": "584c11010a85aa896c256115256d3860", "rental_uris": {"android": "https://dc.lft.to/lastmile_qr_scan", "ios": "https://dc.lft.to/lastmile_qr_scan"}, "is_reserved": 0, "type": "electric_scooter", "is_disabled": 0, "fusion_lat": 0.0}, {"name": "b10ee4e3c72fb7d6b1054bf4fabdcda4", "lat": 38.9274815, "lon": -77.02537983333333, "fusion_lon": 0.0, "bike_id": "b10ee4e3c72fb7d6b1054bf4fabdcda4", "rental_uris": {"android": "https://dc.lft.to/lastmile_qr_scan", "ios": "https://dc.lft.to/lastmile_qr_scan"}, "is_reserved": 0, "type": "electric_scooter", "is_disabled": 0, "fusion_lat": 0.0}, {"name": "1728478e5c15b63cd9128ed2f629b8ec", "lat": 38.92073933333333, "lon": -77.0238625, "fusion_lon": 0.0, "bike_id": "1728478e5c15b63cd9128ed2f629b8ec", "rental_uris": {"android": "https://dc.lft.to/lastmile_qr_scan", "ios": "https://dc.lft.to/lastmile_qr_scan"}, "is_reserved": 0, "type": "electric_scooter", "is_disabled": 0, "fusion_lat": 0.0}, {"name": "101ecc25913529e5b0aa95f731c0a7ee", "lat": 38.875515, "lon": -77.005571, "fusion_lon": 0.0, "bike_id": "101ecc25913529e5b0aa95f731c0a7ee", "rental_uris": {"android": "https://dc.lft.to/lastmile_qr_scan", "ios": "https://dc.lft.to/lastmile_qr_scan"}, "is_reserved": 0, "type": "electric_scooter", "is_disabled": 0, "fusion_lat": 0.0}, {"name": "f2409a939ad10910ef1dd9b018ab4078", "lat": 38.923458, "lon": -77.051225, "fusion_lon": 0.0, "bike_id": "f2409a939ad10910ef1dd9b018ab4078", "rental_uris": {"android": "https://dc.lft.to/lastmile_qr_scan", "ios": "https://dc.lft.to/lastmile_qr_scan"}, "is_reserved": 0, "type": "electric_scooter", "is_disabled": 0, "fusion_lat": 0.0}, {"name": "bdad29c2dd53113dbda3bc5d049b4b4b", "lat": 38.894389833333335, "lon": -76.94960433333334, "fusion_lon": 0.0, "bike_id": "bdad29c2dd53113dbda3bc5d049b4b4b", "rental_uris": {"android": "https://dc.lft.to/lastmile_qr_scan", "ios": "https://dc.lft.to/lastmile_qr_scan"}, "is_reserved": 0, "type": "electric_scooter", "is_disabled": 0, "fusion_lat": 0.0}, {"name": "d5da1355708966164d3d86374b51e986", "lat": 38.8648785, "lon": -77.07306816666667, "fusion_lon": 0.0, "bike_id": "d5da1355708966164d3d86374b51e986", "rental_uris": {"android": "https://dc.lft.to/lastmile_qr_scan", "ios": "https://dc.lft.to/lastmile_qr_scan"}, "is_reserved": 0, "type": "electric_bike", "is_disabled": 0, "fusion_lat": 0.0}, {"name": "8646a5c8931ada53dd11e355cd15e9f3", "lat": 38.93105766666667, "lon": -77.01231316666667, "fusion_lon": 0.0, "bike_id": "8646a5c8931ada53dd11e355cd15e9f3", "rental_uris": {"android": "https://dc.lft.to/lastmile_qr_scan", "ios": "https://dc.lft.to/lastmile_qr_scan"}, "is_reserved": 0, "type": "electric_scooter", "is_disabled": 0, "fusion_lat": 0.0}, {"name": "7753e5e6597cf1eafefa94ca70a314d2", "lat": 38.8932545, "lon": -76.94380366666667, "fusion_lon": 0.0, "bike_id": "7753e5e6597cf1eafefa94ca70a314d2", "rental_uris": {"android": "https://dc.lft.to/lastmile_qr_scan", "ios": "https://dc.lft.to/lastmile_qr_scan"}, "is_reserved": 0, "type": "electric_scooter", "is_disabled": 0, "fusion_lat": 0.0}, {"name": "5ce1493d793b780298da1cf4db3989c6", "lat": 38.8997055, "lon": -76.98713183333334, "fusion_lon": 0.0, "bike_id": "5ce1493d793b780298da1cf4db3989c6", "rental_uris": {"android": "https://dc.lft.to/lastmile_qr_scan", "ios": "https://dc.lft.to/lastmile_qr_scan"}, "is_reserved": 0, "type": "electric_scooter", "is_disabled": 0, "fusion_lat": 0.0}, {"name": "af45e07f7929f8c6f084893a32c896fa", "lat": 38.91775966666667, "lon": -77.043371, "fusion_lon": 0.0, "bike_id": "af45e07f7929f8c6f084893a32c896fa", "rental_uris": {"android": "https://dc.lft.to/lastmile_qr_scan", "ios": "https://dc.lft.to/lastmile_qr_scan"}, "is_reserved": 0, "type": "electric_scooter", "is_disabled": 0, "fusion_lat": 0.0}, {"name": "5cb60cfbc698a6b7bdf3ac8fcdc00cdf", "lat": 38.93032133333333, "lon": -77.03307166666667, "fusion_lon": 0.0, "bike_id": "5cb60cfbc698a6b7bdf3ac8fcdc00cdf", "rental_uris": {"android": "https://dc.lft.to/lastmile_qr_scan", "ios": "https://dc.lft.to/lastmile_qr_scan"}, "is_reserved": 0, "type": "electric_scooter", "is_disabled": 0, "fusion_lat": 0.0}, {"name": "a86d35cd3323d115274d71949c15a03c", "lat": 38.932512333333335, "lon": -77.03892733333333, "fusion_lon": 0.0, "bike_id": "a86d35cd3323d115274d71949c15a03c", "rental_uris": {"android": "https://dc.lft.to/lastmile_qr_scan", "ios": "https://dc.lft.to/lastmile_qr_scan"}, "is_reserved": 0, "type": "electric_scooter", "is_disabled": 0, "fusion_lat": 0.0}, {"name": "a9c5de4e1a5c74851df84dd8becce38c", "lat": 38.843681833333335, "lon": -76.9782895, "fusion_lon": 0.0, "bike_id": "a9c5de4e1a5c74851df84dd8becce38c", "rental_uris": {"android": "https://dc.lft.to/lastmile_qr_scan", "ios": "https://dc.lft.to/lastmile_qr_scan"}, "is_reserved": 0, "type": "electric_bike", "is_disabled": 0, "fusion_lat": 0.0}, {"name": "125a2c11fef22c49d21d526d24973149", "lat": 38.84433766666667, "lon": -76.99775216666667, "fusion_lon": 0.0, "bike_id": "125a2c11fef22c49d21d526d24973149", "rental_uris": {"android": "https://dc.lft.to/lastmile_qr_scan", "ios": "https://dc.lft.to/lastmile_qr_scan"}, "is_reserved": 0, "type": "electric_scooter", "is_disabled": 0, "fusion_lat": 0.0}, {"name": "e4313246c5e7672bdde25c4f3065557f", "lat": 38.9040545, "lon": -76.97422616666667, "fusion_lon": 0.0, "bike_id": "e4313246c5e7672bdde25c4f3065557f", "rental_uris": {"android": "https://dc.lft.to/lastmile_qr_scan", "ios": "https://dc.lft.to/lastmile_qr_scan"}, "is_reserved": 0, "type": "electric_scooter", "is_disabled": 0, "fusion_lat": 0.0}, {"name": "3f98799d5fb367b9aec74fd8ff0055cc", "lat": 38.896887666666665, "lon": -77.00494166666667, "fusion_lon": 0.0, "bike_id": "3f98799d5fb367b9aec74fd8ff0055cc", "rental_uris": {"android": "https://dc.lft.to/lastmile_qr_scan", "ios": "https://dc.lft.to/lastmile_qr_scan"}, "is_reserved": 0, "type": "electric_scooter", "is_disabled": 0, "fusion_lat": 0.0}, {"name": "81547bcbe168ad973d161372822dc289", "lat": 38.921374166666666, "lon": -77.02078366666667, "fusion_lon": 0.0, "bike_id": "81547bcbe168ad973d161372822dc289", "rental_uris": {"android": "https://dc.lft.to/lastmile_qr_scan", "ios": "https://dc.lft.to/lastmile_qr_scan"}, "is_reserved": 0, "type": "electric_scooter", "is_disabled": 0, "fusion_lat": 0.0}, {"name": "1427228905e638e117a61a1bdf354855", "lat": 38.93204383333333, "lon": -77.0327635, "fusion_lon": 0.0, "bike_id": "1427228905e638e117a61a1bdf354855", "rental_uris": {"android": "https://dc.lft.to/lastmile_qr_scan", "ios": "https://dc.lft.to/lastmile_qr_scan"}, "is_reserved": 0, "type": "electric_scooter", "is_disabled": 0, "fusion_lat": 0.0}, {"name": "bb065ccd4adddfb0a7b273d333c471ac", "lat": 38.92249916666667, "lon": -77.0197125, "fusion_lon": 0.0, "bike_id": "bb065ccd4adddfb0a7b273d333c471ac", "rental_uris": {"android": "https://dc.lft.to/lastmile_qr_scan", "ios": "https://dc.lft.to/lastmile_qr_scan"}, "is_reserved": 0, "type": "electric_scooter", "is_disabled": 0, "fusion_lat": 0.0}, {"name": "bf137511620d8919234da2b9996978dc", "lat": 38.89044916666667, "lon": -76.93753233333334, "fusion_lon": 0.0, "bike_id": "bf137511620d8919234da2b9996978dc", "rental_uris": {"android": "https://dc.lft.to/lastmile_qr_scan", "ios": "https://dc.lft.to/lastmile_qr_scan"}, "is_reserved": 0, "type": "electric_scooter", "is_disabled": 0, "fusion_lat": 0.0}, {"name": "d0751b8e2a6749ba0d3c39f62a20f145", "lat": 38.89046866666666, "lon": -76.93752883333333, "fusion_lon": 0.0, "bike_id": "d0751b8e2a6749ba0d3c39f62a20f145", "rental_uris": {"android": "https://dc.lft.to/lastmile_qr_scan", "ios": "https://dc.lft.to/lastmile_qr_scan"}, "is_reserved": 0, "type": "electric_scooter", "is_disabled": 0, "fusion_lat": 0.0}, {"name": "dc9a9600857bdc8359ba4361b10db3ad", "lat": 38.892268333333334, "lon": -77.043263, "fusion_lon": 0.0, "bike_id": "dc9a9600857bdc8359ba4361b10db3ad", "rental_uris": {"android": "https://dc.lft.to/lastmile_qr_scan", "ios": "https://dc.lft.to/lastmile_qr_scan"}, "is_reserved": 0, "type": "electric_scooter", "is_disabled": 0, "fusion_lat": 0.0}, {"name": "cfa04e45826645fceef90b25fb2ffd2a", "lat": 38.91880883333333, "lon": -77.043111, "fusion_lon": 0.0, "bike_id": "cfa04e45826645fceef90b25fb2ffd2a", "rental_uris": {"android": "https://dc.lft.to/lastmile_qr_scan", "ios": "https://dc.lft.to/lastmile_qr_scan"}, "is_reserved": 0, "type": "electric_scooter", "is_disabled": 0, "fusion_lat": 0.0}, {"name": "7567f8016c40475b0e4a18fa1ec94d06", "lat": 38.905992499999996, "lon": -77.0470455, "fusion_lon": 0.0, "bike_id": "7567f8016c40475b0e4a18fa1ec94d06", "rental_uris": {"android": "https://dc.lft.to/lastmile_qr_scan", "ios": "https://dc.lft.to/lastmile_qr_scan"}, "is_reserved": 0, "type": "electric_scooter", "is_disabled": 0, "fusion_lat": 0.0}, {"name": "98bc9b11d5abfc06fdf5c18f1008dbed", "lat": 38.866429, "lon": -77.23205483333334, "fusion_lon": 0.0, "bike_id": "98bc9b11d5abfc06fdf5c18f1008dbed", "rental_uris": {"android": "https://dc.lft.to/lastmile_qr_scan", "ios": "https://dc.lft.to/lastmile_qr_scan"}, "is_reserved": 0, "type": "electric_bike", "is_disabled": 0, "fusion_lat": 0.0}, {"name": "60deaf81abaffb9c9b9ba611f5729b19", "lat": 38.924273166666666, "lon": -77.044806, "fusion_lon": 0.0, "bike_id": "60deaf81abaffb9c9b9ba611f5729b19", "rental_uris": {"android": "https://dc.lft.to/lastmile_qr_scan", "ios": "https://dc.lft.to/lastmile_qr_scan"}, "is_reserved": 0, "type": "electric_scooter", "is_disabled": 0, "fusion_lat": 0.0}, {"name": "e83283c67d7d1fef9cf7f32b51d2af71", "lat": 38.961617333333336, "lon": -77.032409, "fusion_lon": 0.0, "bike_id": "e83283c67d7d1fef9cf7f32b51d2af71", "rental_uris": {"android": "https://dc.lft.to/lastmile_qr_scan", "ios": "https://dc.lft.to/lastmile_qr_scan"}, "is_reserved": 0, "type": "electric_scooter", "is_disabled": 0, "fusion_lat": 0.0}, {"name": "6e3394fc3aee1b83c5311dcd459bedbe", "lat": 38.9168745, "lon": -77.03126983333334, "fusion_lon": 0.0, "bike_id": "6e3394fc3aee1b83c5311dcd459bedbe", "rental_uris": {"android": "https://dc.lft.to/lastmile_qr_scan", "ios": "https://dc.lft.to/lastmile_qr_scan"}, "is_reserved": 0, "type": "electric_scooter", "is_disabled": 0, "fusion_lat": 0.0}, {"name": "5dd1a4ff1e493505fa1b5cd569cb34f9", "lat": 38.88328766666667, "lon": -77.02169233333333, "fusion_lon": 0.0, "bike_id": "5dd1a4ff1e493505fa1b5cd569cb34f9", "rental_uris": {"android": "https://dc.lft.to/lastmile_qr_scan", "ios": "https://dc.lft.to/lastmile_qr_scan"}, "is_reserved": 0, "type": "electric_scooter", "is_disabled": 0, "fusion_lat": 0.0}, {"name": "771b8ab0c897fef7e93ac4285bc238b9", "lat": 38.924140333333334, "lon": -77.02128533333334, "fusion_lon": 0.0, "bike_id": "771b8ab0c897fef7e93ac4285bc238b9", "rental_uris": {"android": "https://dc.lft.to/lastmile_qr_scan", "ios": "https://dc.lft.to/lastmile_qr_scan"}, "is_reserved": 0, "type": "electric_scooter", "is_disabled": 0, "fusion_lat": 0.0}, {"name": "bb557aa8f3edba9d34f9b847478feb72", "lat": 38.91014366666667, "lon": -77.032889, "fusion_lon": 0.0, "bike_id": "bb557aa8f3edba9d34f9b847478feb72", "rental_uris": {"android": "https://dc.lft.to/lastmile_qr_scan", "ios": "https://dc.lft.to/lastmile_qr_scan"}, "is_reserved": 0, "type": "electric_scooter", "is_disabled": 0, "fusion_lat": 0.0}, {"name": "751f11ef08361d838628340ded2f77c9", "lat": 38.91102866666667, "lon": -77.04432916666667, "fusion_lon": 0.0, "bike_id": "751f11ef08361d838628340ded2f77c9", "rental_uris": {"android": "https://dc.lft.to/lastmile_qr_scan", "ios": "https://dc.lft.to/lastmile_qr_scan"}, "is_reserved": 0, "type": "electric_scooter", "is_disabled": 0, "fusion_lat": 0.0}, {"name": "42a43989f700131527a1054427e308d6", "lat": 38.91465016666667, "lon": -76.98119466666667, "fusion_lon": 0.0, "bike_id": "42a43989f700131527a1054427e308d6", "rental_uris": {"android": "https://dc.lft.to/lastmile_qr_scan", "ios": "https://dc.lft.to/lastmile_qr_scan"}, "is_reserved": 0, "type": "electric_bike", "is_disabled": 0, "fusion_lat": 0.0}, {"name": "cf2b5973f3b6351ce63ab84b3f4ad852", "lat": 38.87283383333333, "lon": -77.23319083333334, "fusion_lon": 0.0, "bike_id": "cf2b5973f3b6351ce63ab84b3f4ad852", "rental_uris": {"android": "https://dc.lft.to/lastmile_qr_scan", "ios": "https://dc.lft.to/lastmile_qr_scan"}, "is_reserved": 0, "type": "electric_bike", "is_disabled": 0, "fusion_lat": 0.0}, {"name": "c0cc5d969138e406a5cd1a1461853c10", "lat": 38.913248833333334, "lon": -76.9837795, "fusion_lon": 0.0, "bike_id": "c0cc5d969138e406a5cd1a1461853c10", "rental_uris": {"android": "https://dc.lft.to/lastmile_qr_scan", "ios": "https://dc.lft.to/lastmile_qr_scan"}, "is_reserved": 0, "type": "electric_bike", "is_disabled": 0, "fusion_lat": 0.0}, {"name": "d4eb3a7fd3e279c13439e330f2de9c72", "lat": 38.912195833333335, "lon": -77.02795816666666, "fusion_lon": 0.0, "bike_id": "d4eb3a7fd3e279c13439e330f2de9c72", "rental_uris": {"android": "https://dc.lft.to/lastmile_qr_scan", "ios": "https://dc.lft.to/lastmile_qr_scan"}, "is_reserved": 0, "type": "electric_scooter", "is_disabled": 0, "fusion_lat": 0.0}, {"name": "ba2fec21c1f5aaccbea9a48f72839664", "lat": 38.85361066666667, "lon": -76.98530783333334, "fusion_lon": 0.0, "bike_id": "ba2fec21c1f5aaccbea9a48f72839664", "rental_uris": {"android": "https://dc.lft.to/lastmile_qr_scan", "ios": "https://dc.lft.to/lastmile_qr_scan"}, "is_reserved": 0, "type": "electric_scooter", "is_disabled": 0, "fusion_lat": 0.0}, {"name": "056f73e452c76c43adab90ff5688acb8", "lat": 38.92984366666666, "lon": -77.0550625, "fusion_lon": 0.0, "bike_id": "056f73e452c76c43adab90ff5688acb8", "rental_uris": {"android": "https://dc.lft.to/lastmile_qr_scan", "ios": "https://dc.lft.to/lastmile_qr_scan"}, "is_reserved": 0, "type": "electric_scooter", "is_disabled": 0, "fusion_lat": 0.0}, {"name": "f39168495c972b30b9b4b72df6b48cb4", "lat": 38.9171335, "lon": -77.03270733333333, "fusion_lon": 0.0, "bike_id": "f39168495c972b30b9b4b72df6b48cb4", "rental_uris": {"android": "https://dc.lft.to/lastmile_qr_scan", "ios": "https://dc.lft.to/lastmile_qr_scan"}, "is_reserved": 0, "type": "electric_scooter", "is_disabled": 0, "fusion_lat": 0.0}, {"name": "c95a0ebf7a168014c6fcbe7cec009c4e", "lat": 38.928666, "lon": -77.0332845, "fusion_lon": 0.0, "bike_id": "c95a0ebf7a168014c6fcbe7cec009c4e", "rental_uris": {"android": "https://dc.lft.to/lastmile_qr_scan", "ios": "https://dc.lft.to/lastmile_qr_scan"}, "is_reserved": 0, "type": "electric_scooter", "is_disabled": 0, "fusion_lat": 0.0}, {"name": "d338f0c20170855384944dcca8bc73d7", "lat": 38.89838833333334, "lon": -77.0074525, "fusion_lon": 0.0, "bike_id": "d338f0c20170855384944dcca8bc73d7", "rental_uris": {"android": "https://dc.lft.to/lastmile_qr_scan", "ios": "https://dc.lft.to/lastmile_qr_scan"}, "is_reserved": 0, "type": "electric_scooter", "is_disabled": 0, "fusion_lat": 0.0}, {"name": "f66349125f3f622c6b382ef89def9998", "lat": 38.95618483333333, "lon": -77.033091, "fusion_lon": 0.0, "bike_id": "f66349125f3f622c6b382ef89def9998", "rental_uris": {"android": "https://dc.lft.to/lastmile_qr_scan", "ios": "https://dc.lft.to/lastmile_qr_scan"}, "is_reserved": 0, "type": "electric_scooter", "is_disabled": 0, "fusion_lat": 0.0}, {"name": "412f72c41bc9271568a33018e1f75531", "lat": 38.86527133333333, "lon": -76.98609166666667, "fusion_lon": 0.0, "bike_id": "412f72c41bc9271568a33018e1f75531", "rental_uris": {"android": "https://dc.lft.to/lastmile_qr_scan", "ios": "https://dc.lft.to/lastmile_qr_scan"}, "is_reserved": 0, "type": "electric_scooter", "is_disabled": 0, "fusion_lat": 0.0}, {"name": "6db34edc8e6677a17b48ecaf9306ca82", "lat": 38.90265733333333, "lon": -77.03481183333334, "fusion_lon": 0.0, "bike_id": "6db34edc8e6677a17b48ecaf9306ca82", "rental_uris": {"android": "https://dc.lft.to/lastmile_qr_scan", "ios": "https://dc.lft.to/lastmile_qr_scan"}, "is_reserved": 0, "type": "electric_scooter", "is_disabled": 0, "fusion_lat": 0.0}, {"name": "208e221f35d886cc04ccbf654ce39cf2", "lat": 39.056355, "lon": -77.12530316666667, "fusion_lon": 0.0, "bike_id": "208e221f35d886cc04ccbf654ce39cf2", "rental_uris": {"android": "https://dc.lft.to/lastmile_qr_scan", "ios": "https://dc.lft.to/lastmile_qr_scan"}, "is_reserved": 0, "type": "electric_bike", "is_disabled": 0, "fusion_lat": 0.0}, {"name": "ebb540d4c5849b797c2cabe5cdf02405", "lat": 38.91098783333333, "lon": -77.0443995, "fusion_lon": 0.0, "bike_id": "ebb540d4c5849b797c2cabe5cdf02405", "rental_uris": {"android": "https://dc.lft.to/lastmile_qr_scan", "ios": "https://dc.lft.to/lastmile_qr_scan"}, "is_reserved": 0, "type": "electric_scooter", "is_disabled": 0, "fusion_lat": 0.0}, {"name": "db7e75c0be67843194ffcc9af6b79421", "lat": 38.89458366666667, "lon": -77.0750315, "fusion_lon": 0.0, "bike_id": "db7e75c0be67843194ffcc9af6b79421", "rental_uris": {"android": "https://dc.lft.to/lastmile_qr_scan", "ios": "https://dc.lft.to/lastmile_qr_scan"}, "is_reserved": 0, "type": "electric_scooter", "is_disabled": 0, "fusion_lat": 0.0}, {"name": "e3775db24ac648b76cc41a2fd43f49bc", "lat": 38.92612416666667, "lon": -77.0216395, "fusion_lon": 0.0, "bike_id": "e3775db24ac648b76cc41a2fd43f49bc", "rental_uris": {"android": "https://dc.lft.to/lastmile_qr_scan", "ios": "https://dc.lft.to/lastmile_qr_scan"}, "is_reserved": 0, "type": "electric_scooter", "is_disabled": 0, "fusion_lat": 0.0}, {"name": "8399986fee73ff2e967a4cc6cf08ed80", "lat": 38.90034416666667, "lon": -77.03519883333334, "fusion_lon": 0.0, "bike_id": "8399986fee73ff2e967a4cc6cf08ed80", "rental_uris": {"android": "https://dc.lft.to/lastmile_qr_scan", "ios": "https://dc.lft.to/lastmile_qr_scan"}, "is_reserved": 0, "type": "electric_scooter", "is_disabled": 0, "fusion_lat": 0.0}, {"name": "13479c56a0b6ff3ac559d8dafe416c21", "lat": 38.9052395, "lon": -77.04777983333334, "fusion_lon": 0.0, "bike_id": "13479c56a0b6ff3ac559d8dafe416c21", "rental_uris": {"android": "https://dc.lft.to/lastmile_qr_scan", "ios": "https://dc.lft.to/lastmile_qr_scan"}, "is_reserved": 0, "type": "electric_scooter", "is_disabled": 0, "fusion_lat": 0.0}, {"name": "0258541d6e59f8faa8ea2fe086be1903", "lat": 38.92255933333333, "lon": -77.03405366666667, "fusion_lon": 0.0, "bike_id": "0258541d6e59f8faa8ea2fe086be1903", "rental_uris": {"android": "https://dc.lft.to/lastmile_qr_scan", "ios": "https://dc.lft.to/lastmile_qr_scan"}, "is_reserved": 0, "type": "electric_scooter", "is_disabled": 0, "fusion_lat": 0.0}, {"name": "8b5c61e08437ccd25a12ccd57921e1bf", "lat": 38.89845, "lon": -76.94637966666667, "fusion_lon": 0.0, "bike_id": "8b5c61e08437ccd25a12ccd57921e1bf", "rental_uris": {"android": "https://dc.lft.to/lastmile_qr_scan", "ios": "https://dc.lft.to/lastmile_qr_scan"}, "is_reserved": 0, "type": "electric_scooter", "is_disabled": 0, "fusion_lat": 0.0}, {"name": "5ff5a63feb6e6be16f86a70c055ee44c", "lat": 38.905715666666666, "lon": -76.97631116666666, "fusion_lon": 0.0, "bike_id": "5ff5a63feb6e6be16f86a70c055ee44c", "rental_uris": {"android": "https://dc.lft.to/lastmile_qr_scan", "ios": "https://dc.lft.to/lastmile_qr_scan"}, "is_reserved": 0, "type": "electric_scooter", "is_disabled": 0, "fusion_lat": 0.0}, {"name": "1ace6187f09436f8d44de069f691ca80", "lat": 38.89483833333333, "lon": -77.0311105, "fusion_lon": 0.0, "bike_id": "1ace6187f09436f8d44de069f691ca80", "rental_uris": {"android": "https://dc.lft.to/lastmile_qr_scan", "ios": "https://dc.lft.to/lastmile_qr_scan"}, "is_reserved": 0, "type": "electric_scooter", "is_disabled": 0, "fusion_lat": 0.0}, {"name": "fb3f345fb32a4a488c9fb58a561677e6", "lat": 38.93657266666666, "lon": -77.05498, "fusion_lon": 0.0, "bike_id": "fb3f345fb32a4a488c9fb58a561677e6", "rental_uris": {"android": "https://dc.lft.to/lastmile_qr_scan", "ios": "https://dc.lft.to/lastmile_qr_scan"}, "is_reserved": 0, "type": "electric_scooter", "is_disabled": 0, "fusion_lat": 0.0}, {"name": "bcd64019d8b5f2300fd03eebdaaf4dce", "lat": 38.90152166666667, "lon": -77.04786516666667, "fusion_lon": 0.0, "bike_id": "bcd64019d8b5f2300fd03eebdaaf4dce", "rental_uris": {"android": "https://dc.lft.to/lastmile_qr_scan", "ios": "https://dc.lft.to/lastmile_qr_scan"}, "is_reserved": 0, "type": "electric_scooter", "is_disabled": 0, "fusion_lat": 0.0}, {"name": "e3afc917773a14735c72c79ccaa2229e", "lat": 38.924541833333336, "lon": -76.99910733333333, "fusion_lon": 0.0, "bike_id": "e3afc917773a14735c72c79ccaa2229e", "rental_uris": {"android": "https://dc.lft.to/lastmile_qr_scan", "ios": "https://dc.lft.to/lastmile_qr_scan"}, "is_reserved": 0, "type": "electric_scooter", "is_disabled": 0, "fusion_lat": 0.0}, {"name": "e62ed40f15a8ab616ecc0edc7f6fec0d", "lat": 38.9236985, "lon": -77.01916316666667, "fusion_lon": 0.0, "bike_id": "e62ed40f15a8ab616ecc0edc7f6fec0d", "rental_uris": {"android": "https://dc.lft.to/lastmile_qr_scan", "ios": "https://dc.lft.to/lastmile_qr_scan"}, "is_reserved": 0, "type": "electric_scooter", "is_disabled": 0, "fusion_lat": 0.0}, {"name": "c2868409f8baa452813f9cf1b35e2ef4", "lat": 38.91786233333333, "lon": -76.97187616666666, "fusion_lon": 0.0, "bike_id": "c2868409f8baa452813f9cf1b35e2ef4", "rental_uris": {"android": "https://dc.lft.to/lastmile_qr_scan", "ios": "https://dc.lft.to/lastmile_qr_scan"}, "is_reserved": 0, "type": "electric_bike", "is_disabled": 0, "fusion_lat": 0.0}, {"name": "cd50ead4d8715636dfc274daf8178fea", "lat": 38.90387466666667, "lon": -77.05134216666667, "fusion_lon": 0.0, "bike_id": "cd50ead4d8715636dfc274daf8178fea", "rental_uris": {"android": "https://dc.lft.to/lastmile_qr_scan", "ios": "https://dc.lft.to/lastmile_qr_scan"}, "is_reserved": 0, "type": "electric_scooter", "is_disabled": 0, "fusion_lat": 0.0}, {"name": "865fda2500262bf659819db810bb18a0", "lat": 38.86169133333333, "lon": -77.13143816666667, "fusion_lon": 0.0, "bike_id": "865fda2500262bf659819db810bb18a0", "rental_uris": {"android": "https://dc.lft.to/lastmile_qr_scan", "ios": "https://dc.lft.to/lastmile_qr_scan"}, "is_reserved": 0, "type": "electric_bike", "is_disabled": 0, "fusion_lat": 0.0}, {"name": "1ad11a583e4badf16b92d2be938d9338", "lat": 38.9290785, "lon": -77.0740925, "fusion_lon": 0.0, "bike_id": "1ad11a583e4badf16b92d2be938d9338", "rental_uris": {"android": "https://dc.lft.to/lastmile_qr_scan", "ios": "https://dc.lft.to/lastmile_qr_scan"}, "is_reserved": 0, "type": "electric_scooter", "is_disabled": 0, "fusion_lat": 0.0}, {"name": "2cb5882cfef482f711d6cd2b520fdc7b", "lat": 38.88106116666667, "lon": -77.04295, "fusion_lon": 0.0, "bike_id": "2cb5882cfef482f711d6cd2b520fdc7b", "rental_uris": {"android": "https://dc.lft.to/lastmile_qr_scan", "ios": "https://dc.lft.to/lastmile_qr_scan"}, "is_reserved": 0, "type": "electric_scooter", "is_disabled": 0, "fusion_lat": 0.0}, {"name": "b80e563fad0be1ad54acf27fe1169e73", "lat": 38.923231, "lon": -77.0213725, "fusion_lon": 0.0, "bike_id": "b80e563fad0be1ad54acf27fe1169e73", "rental_uris": {"android": "https://dc.lft.to/lastmile_qr_scan", "ios": "https://dc.lft.to/lastmile_qr_scan"}, "is_reserved": 0, "type": "electric_scooter", "is_disabled": 0, "fusion_lat": 0.0}, {"name": "06c9bfe4acf439a9933684f4e7e31b5a", "lat": 38.903088, "lon": -77.0520795, "fusion_lon": 0.0, "bike_id": "06c9bfe4acf439a9933684f4e7e31b5a", "rental_uris": {"android": "https://dc.lft.to/lastmile_qr_scan", "ios": "https://dc.lft.to/lastmile_qr_scan"}, "is_reserved": 0, "type": "electric_scooter", "is_disabled": 0, "fusion_lat": 0.0}, {"name": "f8c0bd3c4c2d8cb81a38d7f8528485ff", "lat": 38.915482833333336, "lon": -77.03171666666667, "fusion_lon": 0.0, "bike_id": "f8c0bd3c4c2d8cb81a38d7f8528485ff", "rental_uris": {"android": "https://dc.lft.to/lastmile_qr_scan", "ios": "https://dc.lft.to/lastmile_qr_scan"}, "is_reserved": 0, "type": "electric_scooter", "is_disabled": 0, "fusion_lat": 0.0}, {"name": "3f0265461c70e32ce99e9d3be56515a2", "lat": 38.87673816666667, "lon": -77.01800116666666, "fusion_lon": 0.0, "bike_id": "3f0265461c70e32ce99e9d3be56515a2", "rental_uris": {"android": "https://dc.lft.to/lastmile_qr_scan", "ios": "https://dc.lft.to/lastmile_qr_scan"}, "is_reserved": 0, "type": "electric_scooter", "is_disabled": 0, "fusion_lat": 0.0}, {"name": "328514ac5778133dd86d62c30fc13ea1", "lat": 38.859242333333334, "lon": -76.9677875, "fusion_lon": 0.0, "bike_id": "328514ac5778133dd86d62c30fc13ea1", "rental_uris": {"android": "https://dc.lft.to/lastmile_qr_scan", "ios": "https://dc.lft.to/lastmile_qr_scan"}, "is_reserved": 0, "type": "electric_scooter", "is_disabled": 0, "fusion_lat": 0.0}, {"name": "90b939c8f5ee08ee2182cb5b721a0c3a", "lat": 38.960758166666665, "lon": -77.028127, "fusion_lon": 0.0, "bike_id": "90b939c8f5ee08ee2182cb5b721a0c3a", "rental_uris": {"android": "https://dc.lft.to/lastmile_qr_scan", "ios": "https://dc.lft.to/lastmile_qr_scan"}, "is_reserved": 0, "type": "electric_scooter", "is_disabled": 0, "fusion_lat": 0.0}, {"name": "345180e54d2050bb0a213cb60a8cf1e3", "lat": 38.940049333333334, "lon": -77.07234316666667, "fusion_lon": 0.0, "bike_id": "345180e54d2050bb0a213cb60a8cf1e3", "rental_uris": {"android": "https://dc.lft.to/lastmile_qr_scan", "ios": "https://dc.lft.to/lastmile_qr_scan"}, "is_reserved": 0, "type": "electric_scooter", "is_disabled": 0, "fusion_lat": 0.0}, {"name": "882939e2c5e3a9eaab4748c09d62c66d", "lat": 38.893001, "lon": -77.01505933333334, "fusion_lon": 0.0, "bike_id": "882939e2c5e3a9eaab4748c09d62c66d", "rental_uris": {"android": "https://dc.lft.to/lastmile_qr_scan", "ios": "https://dc.lft.to/lastmile_qr_scan"}, "is_reserved": 0, "type": "electric_scooter", "is_disabled": 0, "fusion_lat": 0.0}, {"name": "bdea274a5970247173cdff4c3df519fd", "lat": 38.86126683333333, "lon": -76.98380066666667, "fusion_lon": 0.0, "bike_id": "bdea274a5970247173cdff4c3df519fd", "rental_uris": {"android": "https://dc.lft.to/lastmile_qr_scan", "ios": "https://dc.lft.to/lastmile_qr_scan"}, "is_reserved": 0, "type": "electric_scooter", "is_disabled": 0, "fusion_lat": 0.0}, {"name": "01f25e81705ccfc3f357aa6f89fb1b94", "lat": 38.87650816666667, "lon": -77.00165166666666, "fusion_lon": 0.0, "bike_id": "01f25e81705ccfc3f357aa6f89fb1b94", "rental_uris": {"android": "https://dc.lft.to/lastmile_qr_scan", "ios": "https://dc.lft.to/lastmile_qr_scan"}, "is_reserved": 0, "type": "electric_scooter", "is_disabled": 0, "fusion_lat": 0.0}, {"name": "8747607353d38e9d016f1ee83d28d2d7", "lat": 38.89742716666667, "lon": -77.03348266666667, "fusion_lon": 0.0, "bike_id": "8747607353d38e9d016f1ee83d28d2d7", "rental_uris": {"android": "https://dc.lft.to/lastmile_qr_scan", "ios": "https://dc.lft.to/lastmile_qr_scan"}, "is_reserved": 0, "type": "electric_scooter", "is_disabled": 0, "fusion_lat": 0.0}, {"name": "3faaaafc3e8a530472fc019a732ee708", "lat": 38.90194866666667, "lon": -77.00892266666666, "fusion_lon": 0.0, "bike_id": "3faaaafc3e8a530472fc019a732ee708", "rental_uris": {"android": "https://dc.lft.to/lastmile_qr_scan", "ios": "https://dc.lft.to/lastmile_qr_scan"}, "is_reserved": 0, "type": "electric_scooter", "is_disabled": 0, "fusion_lat": 0.0}, {"name": "80e42800f6b97393e7c52815ee70eee4", "lat": 38.897410666666666, "lon": -77.01274083333334, "fusion_lon": 0.0, "bike_id": "80e42800f6b97393e7c52815ee70eee4", "rental_uris": {"android": "https://dc.lft.to/lastmile_qr_scan", "ios": "https://dc.lft.to/lastmile_qr_scan"}, "is_reserved": 0, "type": "electric_scooter", "is_disabled": 0, "fusion_lat": 0.0}, {"name": "b0b81599ea5b6206a7807ede2bd00ec8", "lat": 38.897006833333336, "lon": -77.00486316666667, "fusion_lon": 0.0, "bike_id": "b0b81599ea5b6206a7807ede2bd00ec8", "rental_uris": {"android": "https://dc.lft.to/lastmile_qr_scan", "ios": "https://dc.lft.to/lastmile_qr_scan"}, "is_reserved": 0, "type": "electric_scooter", "is_disabled": 0, "fusion_lat": 0.0}, {"name": "648a70dbd6fe0693f7ccf2e192683f81", "lat": 38.8855205, "lon": -76.99617666666667, "fusion_lon": 0.0, "bike_id": "648a70dbd6fe0693f7ccf2e192683f81", "rental_uris": {"android": "https://dc.lft.to/lastmile_qr_scan", "ios": "https://dc.lft.to/lastmile_qr_scan"}, "is_reserved": 0, "type": "electric_scooter", "is_disabled": 0, "fusion_lat": 0.0}, {"name": "3403271c572b69f917531ea3e9cf2763", "lat": 38.895441166666664, "lon": -76.99520966666667, "fusion_lon": 0.0, "bike_id": "3403271c572b69f917531ea3e9cf2763", "rental_uris": {"android": "https://dc.lft.to/lastmile_qr_scan", "ios": "https://dc.lft.to/lastmile_qr_scan"}, "is_reserved": 0, "type": "electric_scooter", "is_disabled": 0, "fusion_lat": 0.0}, {"name": "b76ef0b7c5402ca7d078215c4744a1af", "lat": 38.913483666666664, "lon": -77.03185383333333, "fusion_lon": 0.0, "bike_id": "b76ef0b7c5402ca7d078215c4744a1af", "rental_uris": {"android": "https://dc.lft.to/lastmile_qr_scan", "ios": "https://dc.lft.to/lastmile_qr_scan"}, "is_reserved": 0, "type": "electric_scooter", "is_disabled": 0, "fusion_lat": 0.0}, {"name": "fa27bc74509b50127ec3a0bc8a66351e", "lat": 38.89380216666667, "lon": -76.94817633333334, "fusion_lon": 0.0, "bike_id": "fa27bc74509b50127ec3a0bc8a66351e", "rental_uris": {"android": "https://dc.lft.to/lastmile_qr_scan", "ios": "https://dc.lft.to/lastmile_qr_scan"}, "is_reserved": 0, "type": "electric_bike", "is_disabled": 0, "fusion_lat": 0.0}, {"name": "902cf0ba953722512a9a9d9e2b9d23a3", "lat": 38.887736333333336, "lon": -76.9771225, "fusion_lon": 0.0, "bike_id": "902cf0ba953722512a9a9d9e2b9d23a3", "rental_uris": {"android": "https://dc.lft.to/lastmile_qr_scan", "ios": "https://dc.lft.to/lastmile_qr_scan"}, "is_reserved": 0, "type": "electric_scooter", "is_disabled": 0, "fusion_lat": 0.0}, {"name": "935ec21581fe061d0e38ea611b461a79", "lat": 38.918018333333336, "lon": -77.03206433333334, "fusion_lon": 0.0, "bike_id": "935ec21581fe061d0e38ea611b461a79", "rental_uris": {"android": "https://dc.lft.to/lastmile_qr_scan", "ios": "https://dc.lft.to/lastmile_qr_scan"}, "is_reserved": 0, "type": "electric_scooter", "is_disabled": 0, "fusion_lat": 0.0}, {"name": "4e24c88b6ff1f8c85b497a3dea3b1be3", "lat": 38.918308, "lon": -77.039075, "fusion_lon": 0.0, "bike_id": "4e24c88b6ff1f8c85b497a3dea3b1be3", "rental_uris": {"android": "https://dc.lft.to/lastmile_qr_scan", "ios": "https://dc.lft.to/lastmile_qr_scan"}, "is_reserved": 0, "type": "electric_scooter", "is_disabled": 0, "fusion_lat": 0.0}, {"name": "78408808ac34f6353e7a92ad533575f8", "lat": 38.900000666666664, "lon": -77.04051083333333, "fusion_lon": 0.0, "bike_id": "78408808ac34f6353e7a92ad533575f8", "rental_uris": {"android": "https://dc.lft.to/lastmile_qr_scan", "ios": "https://dc.lft.to/lastmile_qr_scan"}, "is_reserved": 0, "type": "electric_scooter", "is_disabled": 0, "fusion_lat": 0.0}, {"name": "c32cec5b5b8db5b47b725a45a54195e1", "lat": 38.90559016666667, "lon": -77.0427255, "fusion_lon": 0.0, "bike_id": "c32cec5b5b8db5b47b725a45a54195e1", "rental_uris": {"android": "https://dc.lft.to/lastmile_qr_scan", "ios": "https://dc.lft.to/lastmile_qr_scan"}, "is_reserved": 0, "type": "electric_bike", "is_disabled": 0, "fusion_lat": 0.0}, {"name": "342bf990b74e672fc90699d38492764e", "lat": 38.928600833333334, "lon": -77.0295325, "fusion_lon": 0.0, "bike_id": "342bf990b74e672fc90699d38492764e", "rental_uris": {"android": "https://dc.lft.to/lastmile_qr_scan", "ios": "https://dc.lft.to/lastmile_qr_scan"}, "is_reserved": 0, "type": "electric_scooter", "is_disabled": 0, "fusion_lat": 0.0}, {"name": "49f95588dfe053825de7b6fcf0b102f4", "lat": 38.876285, "lon": -76.965258, "fusion_lon": 0.0, "bike_id": "49f95588dfe053825de7b6fcf0b102f4", "rental_uris": {"android": "https://dc.lft.to/lastmile_qr_scan", "ios": "https://dc.lft.to/lastmile_qr_scan"}, "is_reserved": 0, "type": "electric_scooter", "is_disabled": 0, "fusion_lat": 0.0}, {"name": "d25bd18b028496a17e7f03af578cf7ab", "lat": 38.917554833333334, "lon": -77.0393625, "fusion_lon": 0.0, "bike_id": "d25bd18b028496a17e7f03af578cf7ab", "rental_uris": {"android": "https://dc.lft.to/lastmile_qr_scan", "ios": "https://dc.lft.to/lastmile_qr_scan"}, "is_reserved": 0, "type": "electric_scooter", "is_disabled": 0, "fusion_lat": 0.0}, {"name": "0bfb050aea044866680206da49fc8288", "lat": 38.9172485, "lon": -77.04391983333333, "fusion_lon": 0.0, "bike_id": "0bfb050aea044866680206da49fc8288", "rental_uris": {"android": "https://dc.lft.to/lastmile_qr_scan", "ios": "https://dc.lft.to/lastmile_qr_scan"}, "is_reserved": 0, "type": "electric_scooter", "is_disabled": 0, "fusion_lat": 0.0}, {"name": "b234b70162f904d1b0d4ed59362ea3af", "lat": 38.91693133333333, "lon": -77.02895316666667, "fusion_lon": 0.0, "bike_id": "b234b70162f904d1b0d4ed59362ea3af", "rental_uris": {"android": "https://dc.lft.to/lastmile_qr_scan", "ios": "https://dc.lft.to/lastmile_qr_scan"}, "is_reserved": 0, "type": "electric_scooter", "is_disabled": 0, "fusion_lat": 0.0}, {"name": "47331efae2093e2bc3ea55adcf64b32d", "lat": 38.907181, "lon": -77.00497533333333, "fusion_lon": 0.0, "bike_id": "47331efae2093e2bc3ea55adcf64b32d", "rental_uris": {"android": "https://dc.lft.to/lastmile_qr_scan", "ios": "https://dc.lft.to/lastmile_qr_scan"}, "is_reserved": 0, "type": "electric_scooter", "is_disabled": 0, "fusion_lat": 0.0}, {"name": "77e93e18fe02f7612b87bcf00d0f10e8", "lat": 38.933635333333335, "lon": -77.0412475, "fusion_lon": 0.0, "bike_id": "77e93e18fe02f7612b87bcf00d0f10e8", "rental_uris": {"android": "https://dc.lft.to/lastmile_qr_scan", "ios": "https://dc.lft.to/lastmile_qr_scan"}, "is_reserved": 0, "type": "electric_scooter", "is_disabled": 0, "fusion_lat": 0.0}, {"name": "b3c23f56c014b3beff312bc09d9416b6", "lat": 38.904055166666666, "lon": -77.04325716666666, "fusion_lon": 0.0, "bike_id": "b3c23f56c014b3beff312bc09d9416b6", "rental_uris": {"android": "https://dc.lft.to/lastmile_qr_scan", "ios": "https://dc.lft.to/lastmile_qr_scan"}, "is_reserved": 0, "type": "electric_scooter", "is_disabled": 0, "fusion_lat": 0.0}, {"name": "d6d311bb6b7c7f93cdcbc87e8a023004", "lat": 38.848177166666666, "lon": -77.08455766666667, "fusion_lon": 0.0, "bike_id": "d6d311bb6b7c7f93cdcbc87e8a023004", "rental_uris": {"android": "https://dc.lft.to/lastmile_qr_scan", "ios": "https://dc.lft.to/lastmile_qr_scan"}, "is_reserved": 0, "type": "electric_bike", "is_disabled": 0, "fusion_lat": 0.0}, {"name": "4ef3e8ad68f1a360a5d797f0a96847a3", "lat": 38.89734516666667, "lon": -77.02163566666667, "fusion_lon": 0.0, "bike_id": "4ef3e8ad68f1a360a5d797f0a96847a3", "rental_uris": {"android": "https://dc.lft.to/lastmile_qr_scan", "ios": "https://dc.lft.to/lastmile_qr_scan"}, "is_reserved": 0, "type": "electric_scooter", "is_disabled": 0, "fusion_lat": 0.0}, {"name": "84a12cef64bc411580fd4737aa5e4508", "lat": 38.90705616666666, "lon": -77.02993983333333, "fusion_lon": 0.0, "bike_id": "84a12cef64bc411580fd4737aa5e4508", "rental_uris": {"android": "https://dc.lft.to/lastmile_qr_scan", "ios": "https://dc.lft.to/lastmile_qr_scan"}, "is_reserved": 0, "type": "electric_scooter", "is_disabled": 0, "fusion_lat": 0.0}, {"name": "8c94e98300560ff22ba2b6fbe81cd8d6", "lat": 38.926745, "lon": -77.00768633333334, "fusion_lon": 0.0, "bike_id": "8c94e98300560ff22ba2b6fbe81cd8d6", "rental_uris": {"android": "https://dc.lft.to/lastmile_qr_scan", "ios": "https://dc.lft.to/lastmile_qr_scan"}, "is_reserved": 0, "type": "electric_scooter", "is_disabled": 0, "fusion_lat": 0.0}, {"name": "6ec7dc89c5ce4ed058cf8e1489476784", "lat": 38.94088133333333, "lon": -77.0232305, "fusion_lon": 0.0, "bike_id": "6ec7dc89c5ce4ed058cf8e1489476784", "rental_uris": {"android": "https://dc.lft.to/lastmile_qr_scan", "ios": "https://dc.lft.to/lastmile_qr_scan"}, "is_reserved": 0, "type": "electric_scooter", "is_disabled": 0, "fusion_lat": 0.0}, {"name": "863d626f1c3b5471e2e3ac859b799bb0", "lat": 38.9016935, "lon": -77.0254515, "fusion_lon": 0.0, "bike_id": "863d626f1c3b5471e2e3ac859b799bb0", "rental_uris": {"android": "https://dc.lft.to/lastmile_qr_scan", "ios": "https://dc.lft.to/lastmile_qr_scan"}, "is_reserved": 0, "type": "electric_scooter", "is_disabled": 0, "fusion_lat": 0.0}, {"name": "2a224329bd5c98f5abaa8a299e59b2bc", "lat": 38.8792065, "lon": -77.0087535, "fusion_lon": 0.0, "bike_id": "2a224329bd5c98f5abaa8a299e59b2bc", "rental_uris": {"android": "https://dc.lft.to/lastmile_qr_scan", "ios": "https://dc.lft.to/lastmile_qr_scan"}, "is_reserved": 0, "type": "electric_scooter", "is_disabled": 0, "fusion_lat": 0.0}, {"name": "4d2b046d8188f00aa549e649c5af0e06", "lat": 38.89961383333333, "lon": -77.05116966666667, "fusion_lon": 0.0, "bike_id": "4d2b046d8188f00aa549e649c5af0e06", "rental_uris": {"android": "https://dc.lft.to/lastmile_qr_scan", "ios": "https://dc.lft.to/lastmile_qr_scan"}, "is_reserved": 0, "type": "electric_scooter", "is_disabled": 0, "fusion_lat": 0.0}, {"name": "de3a5766ab26941b8f89200aa535eb47", "lat": 38.93692633333333, "lon": -77.02713816666666, "fusion_lon": 0.0, "bike_id": "de3a5766ab26941b8f89200aa535eb47", "rental_uris": {"android": "https://dc.lft.to/lastmile_qr_scan", "ios": "https://dc.lft.to/lastmile_qr_scan"}, "is_reserved": 0, "type": "electric_scooter", "is_disabled": 0, "fusion_lat": 0.0}, {"name": "30fce7e9c39a95856253a61e9800ae02", "lat": 38.89351283333333, "lon": -77.187396, "fusion_lon": 0.0, "bike_id": "30fce7e9c39a95856253a61e9800ae02", "rental_uris": {"android": "https://dc.lft.to/lastmile_qr_scan", "ios": "https://dc.lft.to/lastmile_qr_scan"}, "is_reserved": 0, "type": "electric_bike", "is_disabled": 0, "fusion_lat": 0.0}, {"name": "137f72a6e782ad52450c5df1ad46a9ee", "lat": 38.928555333333335, "lon": -77.02738416666666, "fusion_lon": 0.0, "bike_id": "137f72a6e782ad52450c5df1ad46a9ee", "rental_uris": {"android": "https://dc.lft.to/lastmile_qr_scan", "ios": "https://dc.lft.to/lastmile_qr_scan"}, "is_reserved": 0, "type": "electric_scooter", "is_disabled": 0, "fusion_lat": 0.0}, {"name": "31cfe155fbed763fff0c85a30b727327", "lat": 38.915436166666666, "lon": -77.0365985, "fusion_lon": 0.0, "bike_id": "31cfe155fbed763fff0c85a30b727327", "rental_uris": {"android": "https://dc.lft.to/lastmile_qr_scan", "ios": "https://dc.lft.to/lastmile_qr_scan"}, "is_reserved": 0, "type": "electric_scooter", "is_disabled": 0, "fusion_lat": 0.0}, {"name": "789a5b5e3cf6c2c9bcaa0c574aea385e", "lat": 38.8554765, "lon": -77.10714483333334, "fusion_lon": 0.0, "bike_id": "789a5b5e3cf6c2c9bcaa0c574aea385e", "rental_uris": {"android": "https://dc.lft.to/lastmile_qr_scan", "ios": "https://dc.lft.to/lastmile_qr_scan"}, "is_reserved": 0, "type": "electric_bike", "is_disabled": 0, "fusion_lat": 0.0}, {"name": "289cb8417e87340417bfb85d4d74c7f0", "lat": 38.905603666666664, "lon": -77.03464316666667, "fusion_lon": 0.0, "bike_id": "289cb8417e87340417bfb85d4d74c7f0", "rental_uris": {"android": "https://dc.lft.to/lastmile_qr_scan", "ios": "https://dc.lft.to/lastmile_qr_scan"}, "is_reserved": 0, "type": "electric_scooter", "is_disabled": 0, "fusion_lat": 0.0}, {"name": "b4209a29cd471d84da058901ba5bb893", "lat": 38.8450555, "lon": -76.9935265, "fusion_lon": 0.0, "bike_id": "b4209a29cd471d84da058901ba5bb893", "rental_uris": {"android": "https://dc.lft.to/lastmile_qr_scan", "ios": "https://dc.lft.to/lastmile_qr_scan"}, "is_reserved": 0, "type": "electric_bike", "is_disabled": 0, "fusion_lat": 0.0}, {"name": "18081b3bec164e8ef8761209b51a4294", "lat": 38.9279155, "lon": -77.0243345, "fusion_lon": 0.0, "bike_id": "18081b3bec164e8ef8761209b51a4294", "rental_uris": {"android": "https://dc.lft.to/lastmile_qr_scan", "ios": "https://dc.lft.to/lastmile_qr_scan"}, "is_reserved": 0, "type": "electric_scooter", "is_disabled": 0, "fusion_lat": 0.0}, {"name": "2eb11f285a036b12b0badf6fcf89281d", "lat": 38.89943683333333, "lon": -77.026787, "fusion_lon": 0.0, "bike_id": "2eb11f285a036b12b0badf6fcf89281d", "rental_uris": {"android": "https://dc.lft.to/lastmile_qr_scan", "ios": "https://dc.lft.to/lastmile_qr_scan"}, "is_reserved": 0, "type": "electric_scooter", "is_disabled": 0, "fusion_lat": 0.0}, {"name": "eb01a8fe137152b94602335df2bb0cb1", "lat": 38.920450333333335, "lon": -77.03367183333333, "fusion_lon": 0.0, "bike_id": "eb01a8fe137152b94602335df2bb0cb1", "rental_uris": {"android": "https://dc.lft.to/lastmile_qr_scan", "ios": "https://dc.lft.to/lastmile_qr_scan"}, "is_reserved": 0, "type": "electric_scooter", "is_disabled": 0, "fusion_lat": 0.0}, {"name": "3bc6929f1a43c6536f07942d8502d56d", "lat": 38.90643683333333, "lon": -77.051212, "fusion_lon": 0.0, "bike_id": "3bc6929f1a43c6536f07942d8502d56d", "rental_uris": {"android": "https://dc.lft.to/lastmile_qr_scan", "ios": "https://dc.lft.to/lastmile_qr_scan"}, "is_reserved": 0, "type": "electric_scooter", "is_disabled": 0, "fusion_lat": 0.0}, {"name": "956dbd4c9706e37d73114c1fbd2b748c", "lat": 38.878007833333335, "lon": -77.00122666666667, "fusion_lon": 0.0, "bike_id": "956dbd4c9706e37d73114c1fbd2b748c", "rental_uris": {"android": "https://dc.lft.to/lastmile_qr_scan", "ios": "https://dc.lft.to/lastmile_qr_scan"}, "is_reserved": 0, "type": "electric_scooter", "is_disabled": 0, "fusion_lat": 0.0}, {"name": "c4505f55a7da52c8e8911569ee199ae5", "lat": 38.883223, "lon": -76.99832466666666, "fusion_lon": 0.0, "bike_id": "c4505f55a7da52c8e8911569ee199ae5", "rental_uris": {"android": "https://dc.lft.to/lastmile_qr_scan", "ios": "https://dc.lft.to/lastmile_qr_scan"}, "is_reserved": 0, "type": "electric_scooter", "is_disabled": 0, "fusion_lat": 0.0}, {"name": "c7b05fd2f474efa2be608e92e80a39f4", "lat": 38.909125, "lon": -77.04476583333333, "fusion_lon": 0.0, "bike_id": "c7b05fd2f474efa2be608e92e80a39f4", "rental_uris": {"android": "https://dc.lft.to/lastmile_qr_scan", "ios": "https://dc.lft.to/lastmile_qr_scan"}, "is_reserved": 0, "type": "electric_scooter", "is_disabled": 0, "fusion_lat": 0.0}, {"name": "eb2e531ff703ca49816e49a6e0f01e97", "lat": 38.8814165, "lon": -76.94400949999999, "fusion_lon": 0.0, "bike_id": "eb2e531ff703ca49816e49a6e0f01e97", "rental_uris": {"android": "https://dc.lft.to/lastmile_qr_scan", "ios": "https://dc.lft.to/lastmile_qr_scan"}, "is_reserved": 0, "type": "electric_scooter", "is_disabled": 0, "fusion_lat": 0.0}, {"name": "cee749001febe36903239680d679356e", "lat": 38.937939666666665, "lon": -77.02427183333333, "fusion_lon": 0.0, "bike_id": "cee749001febe36903239680d679356e", "rental_uris": {"android": "https://dc.lft.to/lastmile_qr_scan", "ios": "https://dc.lft.to/lastmile_qr_scan"}, "is_reserved": 0, "type": "electric_scooter", "is_disabled": 0, "fusion_lat": 0.0}, {"name": "6dfb2515f33392625889f441ca10a92f", "lat": 38.91180266666667, "lon": -77.04470616666667, "fusion_lon": 0.0, "bike_id": "6dfb2515f33392625889f441ca10a92f", "rental_uris": {"android": "https://dc.lft.to/lastmile_qr_scan", "ios": "https://dc.lft.to/lastmile_qr_scan"}, "is_reserved": 0, "type": "electric_scooter", "is_disabled": 0, "fusion_lat": 0.0}, {"name": "679d21ef706768c036d98e42fe166bbc", "lat": 38.88671933333333, "lon": -76.9361235, "fusion_lon": 0.0, "bike_id": "679d21ef706768c036d98e42fe166bbc", "rental_uris": {"android": "https://dc.lft.to/lastmile_qr_scan", "ios": "https://dc.lft.to/lastmile_qr_scan"}, "is_reserved": 0, "type": "electric_scooter", "is_disabled": 0, "fusion_lat": 0.0}, {"name": "2399a00096355a44691c61be9e7f5900", "lat": 38.927265166666665, "lon": -77.0366425, "fusion_lon": 0.0, "bike_id": "2399a00096355a44691c61be9e7f5900", "rental_uris": {"android": "https://dc.lft.to/lastmile_qr_scan", "ios": "https://dc.lft.to/lastmile_qr_scan"}, "is_reserved": 0, "type": "electric_scooter", "is_disabled": 0, "fusion_lat": 0.0}, {"name": "c0bcf5c372c007064fe506ca8e191aa5", "lat": 38.92527616666667, "lon": -77.038155, "fusion_lon": 0.0, "bike_id": "c0bcf5c372c007064fe506ca8e191aa5", "rental_uris": {"android": "https://dc.lft.to/lastmile_qr_scan", "ios": "https://dc.lft.to/lastmile_qr_scan"}, "is_reserved": 0, "type": "electric_scooter", "is_disabled": 0, "fusion_lat": 0.0}, {"name": "a4f016f406b5e9cd956962121ca29e57", "lat": 38.91028383333333, "lon": -77.03135066666667, "fusion_lon": 0.0, "bike_id": "a4f016f406b5e9cd956962121ca29e57", "rental_uris": {"android": "https://dc.lft.to/lastmile_qr_scan", "ios": "https://dc.lft.to/lastmile_qr_scan"}, "is_reserved": 0, "type": "electric_scooter", "is_disabled": 0, "fusion_lat": 0.0}, {"name": "40a75661b6299a23fafffcbc00ab217a", "lat": 38.903846333333334, "lon": -77.0344125, "fusion_lon": 0.0, "bike_id": "40a75661b6299a23fafffcbc00ab217a", "rental_uris": {"android": "https://dc.lft.to/lastmile_qr_scan", "ios": "https://dc.lft.to/lastmile_qr_scan"}, "is_reserved": 0, "type": "electric_scooter", "is_disabled": 0, "fusion_lat": 0.0}, {"name": "86fa723cbf42ad0f2426ab3c61677327", "lat": 38.92864466666666, "lon": -77.03328633333334, "fusion_lon": 0.0, "bike_id": "86fa723cbf42ad0f2426ab3c61677327", "rental_uris": {"android": "https://dc.lft.to/lastmile_qr_scan", "ios": "https://dc.lft.to/lastmile_qr_scan"}, "is_reserved": 0, "type": "electric_scooter", "is_disabled": 0, "fusion_lat": 0.0}, {"name": "b415ee14132efa87b6e9fc947f926b86", "lat": 38.910789666666666, "lon": -77.02291833333334, "fusion_lon": 0.0, "bike_id": "b415ee14132efa87b6e9fc947f926b86", "rental_uris": {"android": "https://dc.lft.to/lastmile_qr_scan", "ios": "https://dc.lft.to/lastmile_qr_scan"}, "is_reserved": 0, "type": "electric_scooter", "is_disabled": 0, "fusion_lat": 0.0}, {"name": "51808970a069654815918b1a283ece96", "lat": 38.9388015, "lon": -77.03283666666667, "fusion_lon": 0.0, "bike_id": "51808970a069654815918b1a283ece96", "rental_uris": {"android": "https://dc.lft.to/lastmile_qr_scan", "ios": "https://dc.lft.to/lastmile_qr_scan"}, "is_reserved": 0, "type": "electric_scooter", "is_disabled": 0, "fusion_lat": 0.0}, {"name": "248a08eb665b85ddf75c27074d148c54", "lat": 38.897097333333335, "lon": -77.02671266666667, "fusion_lon": 0.0, "bike_id": "248a08eb665b85ddf75c27074d148c54", "rental_uris": {"android": "https://dc.lft.to/lastmile_qr_scan", "ios": "https://dc.lft.to/lastmile_qr_scan"}, "is_reserved": 0, "type": "electric_scooter", "is_disabled": 0, "fusion_lat": 0.0}, {"name": "8a8c876a96580791f34f4ac8fcc05db1", "lat": 38.90901216666666, "lon": -76.99772033333333, "fusion_lon": 0.0, "bike_id": "8a8c876a96580791f34f4ac8fcc05db1", "rental_uris": {"android": "https://dc.lft.to/lastmile_qr_scan", "ios": "https://dc.lft.to/lastmile_qr_scan"}, "is_reserved": 0, "type": "electric_scooter", "is_disabled": 0, "fusion_lat": 0.0}, {"name": "a119658fde557dc815666516f7be1918", "lat": 38.914823166666665, "lon": -77.02185933333334, "fusion_lon": 0.0, "bike_id": "a119658fde557dc815666516f7be1918", "rental_uris": {"android": "https://dc.lft.to/lastmile_qr_scan", "ios": "https://dc.lft.to/lastmile_qr_scan"}, "is_reserved": 0, "type": "electric_scooter", "is_disabled": 0, "fusion_lat": 0.0}, {"name": "2bad19ad5faf265764b0ab3d56dc6720", "lat": 38.928652166666666, "lon": -77.03332683333333, "fusion_lon": 0.0, "bike_id": "2bad19ad5faf265764b0ab3d56dc6720", "rental_uris": {"android": "https://dc.lft.to/lastmile_qr_scan", "ios": "https://dc.lft.to/lastmile_qr_scan"}, "is_reserved": 0, "type": "electric_scooter", "is_disabled": 0, "fusion_lat": 0.0}, {"name": "8ea3afea917486d7346e4f48342daea0", "lat": 38.9495915, "lon": -77.02720066666667, "fusion_lon": 0.0, "bike_id": "8ea3afea917486d7346e4f48342daea0", "rental_uris": {"android": "https://dc.lft.to/lastmile_qr_scan", "ios": "https://dc.lft.to/lastmile_qr_scan"}, "is_reserved": 0, "type": "electric_scooter", "is_disabled": 0, "fusion_lat": 0.0}, {"name": "b42bd962c7c87ea665028e3ef482ef44", "lat": 38.902640833333336, "lon": -77.00882116666666, "fusion_lon": 0.0, "bike_id": "b42bd962c7c87ea665028e3ef482ef44", "rental_uris": {"android": "https://dc.lft.to/lastmile_qr_scan", "ios": "https://dc.lft.to/lastmile_qr_scan"}, "is_reserved": 0, "type": "electric_scooter", "is_disabled": 0, "fusion_lat": 0.0}, {"name": "28d013fd4bda0911711b01b0a34df700", "lat": 38.9057375, "lon": -77.0457615, "fusion_lon": 0.0, "bike_id": "28d013fd4bda0911711b01b0a34df700", "rental_uris": {"android": "https://dc.lft.to/lastmile_qr_scan", "ios": "https://dc.lft.to/lastmile_qr_scan"}, "is_reserved": 0, "type": "electric_scooter", "is_disabled": 0, "fusion_lat": 0.0}, {"name": "dfaa77506a5fb567870b883ea806b498", "lat": 38.92819133333333, "lon": -77.028769, "fusion_lon": 0.0, "bike_id": "dfaa77506a5fb567870b883ea806b498", "rental_uris": {"android": "https://dc.lft.to/lastmile_qr_scan", "ios": "https://dc.lft.to/lastmile_qr_scan"}, "is_reserved": 0, "type": "electric_scooter", "is_disabled": 0, "fusion_lat": 0.0}, {"name": "bb67016ca0ccde3649fac4c8bb46ee02", "lat": 38.898564666666665, "lon": -77.0327065, "fusion_lon": 0.0, "bike_id": "bb67016ca0ccde3649fac4c8bb46ee02", "rental_uris": {"android": "https://dc.lft.to/lastmile_qr_scan", "ios": "https://dc.lft.to/lastmile_qr_scan"}, "is_reserved": 0, "type": "electric_scooter", "is_disabled": 0, "fusion_lat": 0.0}, {"name": "25ba24d2b72b881c0608cb6cf3a1a91d", "lat": 38.999435166666665, "lon": -77.03173366666667, "fusion_lon": 0.0, "bike_id": "25ba24d2b72b881c0608cb6cf3a1a91d", "rental_uris": {"android": "https://dc.lft.to/lastmile_qr_scan", "ios": "https://dc.lft.to/lastmile_qr_scan"}, "is_reserved": 0, "type": "electric_bike", "is_disabled": 0, "fusion_lat": 0.0}, {"name": "9a16bf8e6f8324705ed4b6e7b12d9157", "lat": 38.90144216666667, "lon": -77.02607833333333, "fusion_lon": 0.0, "bike_id": "9a16bf8e6f8324705ed4b6e7b12d9157", "rental_uris": {"android": "https://dc.lft.to/lastmile_qr_scan", "ios": "https://dc.lft.to/lastmile_qr_scan"}, "is_reserved": 0, "type": "electric_scooter", "is_disabled": 0, "fusion_lat": 0.0}, {"name": "00ae329816f9cdabbcaa1b30a061904f", "lat": 38.89606666666667, "lon": -77.00925716666667, "fusion_lon": 0.0, "bike_id": "00ae329816f9cdabbcaa1b30a061904f", "rental_uris": {"android": "https://dc.lft.to/lastmile_qr_scan", "ios": "https://dc.lft.to/lastmile_qr_scan"}, "is_reserved": 0, "type": "electric_scooter", "is_disabled": 0, "fusion_lat": 0.0}, {"name": "30651a31910f110fa21d9a2a300369ec", "lat": 38.91836766666667, "lon": -77.04159883333334, "fusion_lon": 0.0, "bike_id": "30651a31910f110fa21d9a2a300369ec", "rental_uris": {"android": "https://dc.lft.to/lastmile_qr_scan", "ios": "https://dc.lft.to/lastmile_qr_scan"}, "is_reserved": 0, "type": "electric_scooter", "is_disabled": 0, "fusion_lat": 0.0}, {"name": "a1a71e3f588137980df62ce5108032db", "lat": 38.909583166666664, "lon": -77.0228145, "fusion_lon": 0.0, "bike_id": "a1a71e3f588137980df62ce5108032db", "rental_uris": {"android": "https://dc.lft.to/lastmile_qr_scan", "ios": "https://dc.lft.to/lastmile_qr_scan"}, "is_reserved": 0, "type": "electric_scooter", "is_disabled": 0, "fusion_lat": 0.0}, {"name": "adf3005e5663dc6d66999b2c1305bec5", "lat": 38.90405883333333, "lon": -76.97329533333334, "fusion_lon": 0.0, "bike_id": "adf3005e5663dc6d66999b2c1305bec5", "rental_uris": {"android": "https://dc.lft.to/lastmile_qr_scan", "ios": "https://dc.lft.to/lastmile_qr_scan"}, "is_reserved": 0, "type": "electric_scooter", "is_disabled": 0, "fusion_lat": 0.0}, {"name": "afe9034cf5fa6bc59c549b6a1c52d7a3", "lat": 38.921564000000004, "lon": -77.03323066666667, "fusion_lon": 0.0, "bike_id": "afe9034cf5fa6bc59c549b6a1c52d7a3", "rental_uris": {"android": "https://dc.lft.to/lastmile_qr_scan", "ios": "https://dc.lft.to/lastmile_qr_scan"}, "is_reserved": 0, "type": "electric_scooter", "is_disabled": 0, "fusion_lat": 0.0}, {"name": "b833e05d0d69a6ab50a302138cdcd643", "lat": 38.9136555, "lon": -77.0396095, "fusion_lon": 0.0, "bike_id": "b833e05d0d69a6ab50a302138cdcd643", "rental_uris": {"android": "https://dc.lft.to/lastmile_qr_scan", "ios": "https://dc.lft.to/lastmile_qr_scan"}, "is_reserved": 0, "type": "electric_scooter", "is_disabled": 0, "fusion_lat": 0.0}, {"name": "93a379f68ce5bbae9ffb7a944a2c05d6", "lat": 38.862495333333335, "lon": -76.9869855, "fusion_lon": 0.0, "bike_id": "93a379f68ce5bbae9ffb7a944a2c05d6", "rental_uris": {"android": "https://dc.lft.to/lastmile_qr_scan", "ios": "https://dc.lft.to/lastmile_qr_scan"}, "is_reserved": 0, "type": "electric_scooter", "is_disabled": 0, "fusion_lat": 0.0}, {"name": "8bcfae3a4768c1948a4d98e20f494413", "lat": 38.892231333333335, "lon": -77.04329733333333, "fusion_lon": 0.0, "bike_id": "8bcfae3a4768c1948a4d98e20f494413", "rental_uris": {"android": "https://dc.lft.to/lastmile_qr_scan", "ios": "https://dc.lft.to/lastmile_qr_scan"}, "is_reserved": 0, "type": "electric_scooter", "is_disabled": 0, "fusion_lat": 0.0}, {"name": "3a6d24cb1d0ef23cc38527f3d2fa9601", "lat": 38.91679666666667, "lon": -77.0271195, "fusion_lon": 0.0, "bike_id": "3a6d24cb1d0ef23cc38527f3d2fa9601", "rental_uris": {"android": "https://dc.lft.to/lastmile_qr_scan", "ios": "https://dc.lft.to/lastmile_qr_scan"}, "is_reserved": 0, "type": "electric_scooter", "is_disabled": 0, "fusion_lat": 0.0}, {"name": "247ea61a739fad146f3cd14564d9e13a", "lat": 38.928388, "lon": -76.99365766666666, "fusion_lon": 0.0, "bike_id": "247ea61a739fad146f3cd14564d9e13a", "rental_uris": {"android": "https://dc.lft.to/lastmile_qr_scan", "ios": "https://dc.lft.to/lastmile_qr_scan"}, "is_reserved": 0, "type": "electric_scooter", "is_disabled": 0, "fusion_lat": 0.0}, {"name": "f601d7166e00a3c62182f00ba7daa41d", "lat": 38.909616, "lon": -77.0330145, "fusion_lon": 0.0, "bike_id": "f601d7166e00a3c62182f00ba7daa41d", "rental_uris": {"android": "https://dc.lft.to/lastmile_qr_scan", "ios": "https://dc.lft.to/lastmile_qr_scan"}, "is_reserved": 0, "type": "electric_scooter", "is_disabled": 0, "fusion_lat": 0.0}, {"name": "659a9784179e2e78394c67c999625808", "lat": 38.916528666666665, "lon": -77.041771, "fusion_lon": 0.0, "bike_id": "659a9784179e2e78394c67c999625808", "rental_uris": {"android": "https://dc.lft.to/lastmile_qr_scan", "ios": "https://dc.lft.to/lastmile_qr_scan"}, "is_reserved": 0, "type": "electric_scooter", "is_disabled": 0, "fusion_lat": 0.0}, {"name": "74b3f124bf52adf3cd4ef6ec48cbb8eb", "lat": 38.894907, "lon": -77.002943, "fusion_lon": 0.0, "bike_id": "74b3f124bf52adf3cd4ef6ec48cbb8eb", "rental_uris": {"android": "https://dc.lft.to/lastmile_qr_scan", "ios": "https://dc.lft.to/lastmile_qr_scan"}, "is_reserved": 0, "type": "electric_scooter", "is_disabled": 0, "fusion_lat": 0.0}, {"name": "b23522aff020999e2cf960e52b7eb50f", "lat": 38.921473, "lon": -77.03450016666666, "fusion_lon": 0.0, "bike_id": "b23522aff020999e2cf960e52b7eb50f", "rental_uris": {"android": "https://dc.lft.to/lastmile_qr_scan", "ios": "https://dc.lft.to/lastmile_qr_scan"}, "is_reserved": 0, "type": "electric_scooter", "is_disabled": 0, "fusion_lat": 0.0}, {"name": "8aa996e8e506d692b7424a901d4ab1d1", "lat": 38.897329666666664, "lon": -77.00369566666667, "fusion_lon": 0.0, "bike_id": "8aa996e8e506d692b7424a901d4ab1d1", "rental_uris": {"android": "https://dc.lft.to/lastmile_qr_scan", "ios": "https://dc.lft.to/lastmile_qr_scan"}, "is_reserved": 0, "type": "electric_scooter", "is_disabled": 0, "fusion_lat": 0.0}, {"name": "ff1ac272848f1dc4b4838656534dafcf", "lat": 38.90026533333333, "lon": -76.98875616666666, "fusion_lon": 0.0, "bike_id": "ff1ac272848f1dc4b4838656534dafcf", "rental_uris": {"android": "https://dc.lft.to/lastmile_qr_scan", "ios": "https://dc.lft.to/lastmile_qr_scan"}, "is_reserved": 0, "type": "electric_scooter", "is_disabled": 0, "fusion_lat": 0.0}, {"name": "e9e7f3e7dc6736fe0718de3e82b8e256", "lat": 38.907869, "lon": -77.03198883333333, "fusion_lon": 0.0, "bike_id": "e9e7f3e7dc6736fe0718de3e82b8e256", "rental_uris": {"android": "https://dc.lft.to/lastmile_qr_scan", "ios": "https://dc.lft.to/lastmile_qr_scan"}, "is_reserved": 0, "type": "electric_scooter", "is_disabled": 0, "fusion_lat": 0.0}, {"name": "99d474ab0f5793e546f3fc644bc0072e", "lat": 38.94339766666667, "lon": -77.06302866666667, "fusion_lon": 0.0, "bike_id": "99d474ab0f5793e546f3fc644bc0072e", "rental_uris": {"android": "https://dc.lft.to/lastmile_qr_scan", "ios": "https://dc.lft.to/lastmile_qr_scan"}, "is_reserved": 0, "type": "electric_scooter", "is_disabled": 0, "fusion_lat": 0.0}, {"name": "b7bf6a9d4581088bf7afc9942ac99922", "lat": 38.918048, "lon": -77.0320755, "fusion_lon": 0.0, "bike_id": "b7bf6a9d4581088bf7afc9942ac99922", "rental_uris": {"android": "https://dc.lft.to/lastmile_qr_scan", "ios": "https://dc.lft.to/lastmile_qr_scan"}, "is_reserved": 0, "type": "electric_scooter", "is_disabled": 0, "fusion_lat": 0.0}, {"name": "b3294cfefb7be35fcc35908bfef3f49d", "lat": 38.89542633333333, "lon": -77.00207083333333, "fusion_lon": 0.0, "bike_id": "b3294cfefb7be35fcc35908bfef3f49d", "rental_uris": {"android": "https://dc.lft.to/lastmile_qr_scan", "ios": "https://dc.lft.to/lastmile_qr_scan"}, "is_reserved": 0, "type": "electric_scooter", "is_disabled": 0, "fusion_lat": 0.0}, {"name": "575bbc079782c25aee08da832d4ca813", "lat": 38.87417083333333, "lon": -77.103288, "fusion_lon": 0.0, "bike_id": "575bbc079782c25aee08da832d4ca813", "rental_uris": {"android": "https://dc.lft.to/lastmile_qr_scan", "ios": "https://dc.lft.to/lastmile_qr_scan"}, "is_reserved": 0, "type": "electric_bike", "is_disabled": 0, "fusion_lat": 0.0}, {"name": "e32651bed90ebbafa7fa14e857caeea9", "lat": 38.916888, "lon": -77.0376185, "fusion_lon": 0.0, "bike_id": "e32651bed90ebbafa7fa14e857caeea9", "rental_uris": {"android": "https://dc.lft.to/lastmile_qr_scan", "ios": "https://dc.lft.to/lastmile_qr_scan"}, "is_reserved": 0, "type": "electric_scooter", "is_disabled": 0, "fusion_lat": 0.0}, {"name": "0df723d62d82c5f0d246079aabe4c4bb", "lat": 38.917548833333335, "lon": -77.03076233333333, "fusion_lon": 0.0, "bike_id": "0df723d62d82c5f0d246079aabe4c4bb", "rental_uris": {"android": "https://dc.lft.to/lastmile_qr_scan", "ios": "https://dc.lft.to/lastmile_qr_scan"}, "is_reserved": 0, "type": "electric_scooter", "is_disabled": 0, "fusion_lat": 0.0}, {"name": "29d5dbc2dc72055eed51478c1ff958ca", "lat": 38.89729883333333, "lon": -77.02164716666667, "fusion_lon": 0.0, "bike_id": "29d5dbc2dc72055eed51478c1ff958ca", "rental_uris": {"android": "https://dc.lft.to/lastmile_qr_scan", "ios": "https://dc.lft.to/lastmile_qr_scan"}, "is_reserved": 0, "type": "electric_scooter", "is_disabled": 0, "fusion_lat": 0.0}, {"name": "31306c9b1bd42039201261af3382cb55", "lat": 38.9265165, "lon": -77.05314383333334, "fusion_lon": 0.0, "bike_id": "31306c9b1bd42039201261af3382cb55", "rental_uris": {"android": "https://dc.lft.to/lastmile_qr_scan", "ios": "https://dc.lft.to/lastmile_qr_scan"}, "is_reserved": 0, "type": "electric_scooter", "is_disabled": 0, "fusion_lat": 0.0}, {"name": "d659dd39c1325083a0053dda82abcd5e", "lat": 38.91798166666667, "lon": -77.03208683333334, "fusion_lon": 0.0, "bike_id": "d659dd39c1325083a0053dda82abcd5e", "rental_uris": {"android": "https://dc.lft.to/lastmile_qr_scan", "ios": "https://dc.lft.to/lastmile_qr_scan"}, "is_reserved": 0, "type": "electric_scooter", "is_disabled": 0, "fusion_lat": 0.0}, {"name": "1c3a79b64842e99188ef1ca6a05f9bea", "lat": 38.89502316666667, "lon": -77.016088, "fusion_lon": 0.0, "bike_id": "1c3a79b64842e99188ef1ca6a05f9bea", "rental_uris": {"android": "https://dc.lft.to/lastmile_qr_scan", "ios": "https://dc.lft.to/lastmile_qr_scan"}, "is_reserved": 0, "type": "electric_scooter", "is_disabled": 0, "fusion_lat": 0.0}, {"name": "aedc0d879a8507925ae1c733d75f925d", "lat": 38.842983333333336, "lon": -76.99948133333334, "fusion_lon": 0.0, "bike_id": "aedc0d879a8507925ae1c733d75f925d", "rental_uris": {"android": "https://dc.lft.to/lastmile_qr_scan", "ios": "https://dc.lft.to/lastmile_qr_scan"}, "is_reserved": 0, "type": "electric_scooter", "is_disabled": 0, "fusion_lat": 0.0}, {"name": "606c1105b56ddcd2e71f4ce7bae144ac", "lat": 38.9106015, "lon": -77.03089833333334, "fusion_lon": 0.0, "bike_id": "606c1105b56ddcd2e71f4ce7bae144ac", "rental_uris": {"android": "https://dc.lft.to/lastmile_qr_scan", "ios": "https://dc.lft.to/lastmile_qr_scan"}, "is_reserved": 0, "type": "electric_scooter", "is_disabled": 0, "fusion_lat": 0.0}, {"name": "27b29f3c1ab5d91fc8f27fab1428ab00", "lat": 38.89728866666667, "lon": -76.993876, "fusion_lon": 0.0, "bike_id": "27b29f3c1ab5d91fc8f27fab1428ab00", "rental_uris": {"android": "https://dc.lft.to/lastmile_qr_scan", "ios": "https://dc.lft.to/lastmile_qr_scan"}, "is_reserved": 0, "type": "electric_scooter", "is_disabled": 0, "fusion_lat": 0.0}, {"name": "31072a45d9b609897060fa22e0b9d6a8", "lat": 38.92314566666667, "lon": -77.03411683333333, "fusion_lon": 0.0, "bike_id": "31072a45d9b609897060fa22e0b9d6a8", "rental_uris": {"android": "https://dc.lft.to/lastmile_qr_scan", "ios": "https://dc.lft.to/lastmile_qr_scan"}, "is_reserved": 0, "type": "electric_scooter", "is_disabled": 0, "fusion_lat": 0.0}, {"name": "800a8f24d11af2852307b0bcb7260a43", "lat": 38.90632466666667, "lon": -77.03949483333334, "fusion_lon": 0.0, "bike_id": "800a8f24d11af2852307b0bcb7260a43", "rental_uris": {"android": "https://dc.lft.to/lastmile_qr_scan", "ios": "https://dc.lft.to/lastmile_qr_scan"}, "is_reserved": 0, "type": "electric_scooter", "is_disabled": 0, "fusion_lat": 0.0}, {"name": "28a18c7cada6591f035acb8be2354f92", "lat": 38.89858616666667, "lon": -76.97650866666666, "fusion_lon": 0.0, "bike_id": "28a18c7cada6591f035acb8be2354f92", "rental_uris": {"android": "https://dc.lft.to/lastmile_qr_scan", "ios": "https://dc.lft.to/lastmile_qr_scan"}, "is_reserved": 0, "type": "electric_scooter", "is_disabled": 0, "fusion_lat": 0.0}, {"name": "2f88cc8af0f61da604747a5329f69135", "lat": 38.8901655, "lon": -76.937325, "fusion_lon": 0.0, "bike_id": "2f88cc8af0f61da604747a5329f69135", "rental_uris": {"android": "https://dc.lft.to/lastmile_qr_scan", "ios": "https://dc.lft.to/lastmile_qr_scan"}, "is_reserved": 0, "type": "electric_scooter", "is_disabled": 0, "fusion_lat": 0.0}, {"name": "b32a057188f83f505f63cdf3c194822a", "lat": 38.8984795, "lon": -77.0437795, "fusion_lon": 0.0, "bike_id": "b32a057188f83f505f63cdf3c194822a", "rental_uris": {"android": "https://dc.lft.to/lastmile_qr_scan", "ios": "https://dc.lft.to/lastmile_qr_scan"}, "is_reserved": 0, "type": "electric_scooter", "is_disabled": 0, "fusion_lat": 0.0}, {"name": "22d34bf67bcabd10a5a890b113c17c4f", "lat": 38.844294, "lon": -77.0857765, "fusion_lon": 0.0, "bike_id": "22d34bf67bcabd10a5a890b113c17c4f", "rental_uris": {"android": "https://dc.lft.to/lastmile_qr_scan", "ios": "https://dc.lft.to/lastmile_qr_scan"}, "is_reserved": 0, "type": "electric_bike", "is_disabled": 0, "fusion_lat": 0.0}, {"name": "adec9ef174538578c41f173eee38816d", "lat": 38.8541015, "lon": -77.12076533333334, "fusion_lon": 0.0, "bike_id": "adec9ef174538578c41f173eee38816d", "rental_uris": {"android": "https://dc.lft.to/lastmile_qr_scan", "ios": "https://dc.lft.to/lastmile_qr_scan"}, "is_reserved": 0, "type": "electric_bike", "is_disabled": 0, "fusion_lat": 0.0}, {"name": "9716ba76aef990437164847644635446", "lat": 38.944214333333335, "lon": -77.0633055, "fusion_lon": 0.0, "bike_id": "9716ba76aef990437164847644635446", "rental_uris": {"android": "https://dc.lft.to/lastmile_qr_scan", "ios": "https://dc.lft.to/lastmile_qr_scan"}, "is_reserved": 0, "type": "electric_scooter", "is_disabled": 0, "fusion_lat": 0.0}, {"name": "6451b1156d769800d971d8341fac2490", "lat": 38.863581, "lon": -76.9906575, "fusion_lon": 0.0, "bike_id": "6451b1156d769800d971d8341fac2490", "rental_uris": {"android": "https://dc.lft.to/lastmile_qr_scan", "ios": "https://dc.lft.to/lastmile_qr_scan"}, "is_reserved": 0, "type": "electric_scooter", "is_disabled": 0, "fusion_lat": 0.0}, {"name": "5ba12326d49efa7755add4475abaa6a1", "lat": 38.9155195, "lon": -77.03175483333334, "fusion_lon": 0.0, "bike_id": "5ba12326d49efa7755add4475abaa6a1", "rental_uris": {"android": "https://dc.lft.to/lastmile_qr_scan", "ios": "https://dc.lft.to/lastmile_qr_scan"}, "is_reserved": 0, "type": "electric_scooter", "is_disabled": 0, "fusion_lat": 0.0}, {"name": "53772352b61d4de0f106143bf7af9a9a", "lat": 38.935225, "lon": -77.07261633333333, "fusion_lon": 0.0, "bike_id": "53772352b61d4de0f106143bf7af9a9a", "rental_uris": {"android": "https://dc.lft.to/lastmile_qr_scan", "ios": "https://dc.lft.to/lastmile_qr_scan"}, "is_reserved": 0, "type": "electric_scooter", "is_disabled": 0, "fusion_lat": 0.0}, {"name": "2c5fd3c1384257bab6cd3c17b9bd91e9", "lat": 38.92069883333333, "lon": -77.04254566666667, "fusion_lon": 0.0, "bike_id": "2c5fd3c1384257bab6cd3c17b9bd91e9", "rental_uris": {"android": "https://dc.lft.to/lastmile_qr_scan", "ios": "https://dc.lft.to/lastmile_qr_scan"}, "is_reserved": 0, "type": "electric_scooter", "is_disabled": 0, "fusion_lat": 0.0}, {"name": "8cad19d8e2fe73dcd0902206be7b8ba1", "lat": 38.895, "lon": -76.92198116666667, "fusion_lon": 0.0, "bike_id": "8cad19d8e2fe73dcd0902206be7b8ba1", "rental_uris": {"android": "https://dc.lft.to/lastmile_qr_scan", "ios": "https://dc.lft.to/lastmile_qr_scan"}, "is_reserved": 0, "type": "electric_bike", "is_disabled": 0, "fusion_lat": 0.0}, {"name": "bd998482d0e918a343331520b1235f72", "lat": 38.904529333333336, "lon": -76.98249116666666, "fusion_lon": 0.0, "bike_id": "bd998482d0e918a343331520b1235f72", "rental_uris": {"android": "https://dc.lft.to/lastmile_qr_scan", "ios": "https://dc.lft.to/lastmile_qr_scan"}, "is_reserved": 0, "type": "electric_scooter", "is_disabled": 0, "fusion_lat": 0.0}, {"name": "a3b3d55266d11a66dd01ae60df9f0ab9", "lat": 38.90285383333333, "lon": -76.99032966666667, "fusion_lon": 0.0, "bike_id": "a3b3d55266d11a66dd01ae60df9f0ab9", "rental_uris": {"android": "https://dc.lft.to/lastmile_qr_scan", "ios": "https://dc.lft.to/lastmile_qr_scan"}, "is_reserved": 0, "type": "electric_scooter", "is_disabled": 0, "fusion_lat": 0.0}, {"name": "268d6c2545f61b2fb6e5ea7d761c0324", "lat": 38.8904125, "lon": -76.93754783333333, "fusion_lon": 0.0, "bike_id": "268d6c2545f61b2fb6e5ea7d761c0324", "rental_uris": {"android": "https://dc.lft.to/lastmile_qr_scan", "ios": "https://dc.lft.to/lastmile_qr_scan"}, "is_reserved": 0, "type": "electric_scooter", "is_disabled": 0, "fusion_lat": 0.0}, {"name": "23bbd4067de9d2617109a15d07b39629", "lat": 38.910408833333335, "lon": -77.075526, "fusion_lon": 0.0, "bike_id": "23bbd4067de9d2617109a15d07b39629", "rental_uris": {"android": "https://dc.lft.to/lastmile_qr_scan", "ios": "https://dc.lft.to/lastmile_qr_scan"}, "is_reserved": 0, "type": "electric_bike", "is_disabled": 0, "fusion_lat": 0.0}, {"name": "508c5613825a78d0b1964b2bd79c9c1b", "lat": 38.92963683333333, "lon": -77.22573366666667, "fusion_lon": 0.0, "bike_id": "508c5613825a78d0b1964b2bd79c9c1b", "rental_uris": {"android": "https://dc.lft.to/lastmile_qr_scan", "ios": "https://dc.lft.to/lastmile_qr_scan"}, "is_reserved": 0, "type": "electric_bike", "is_disabled": 0, "fusion_lat": 0.0}, {"name": "521aff11f501c8b8c857c18b2088d786", "lat": 38.92653116666666, "lon": -77.043154, "fusion_lon": 0.0, "bike_id": "521aff11f501c8b8c857c18b2088d786", "rental_uris": {"android": "https://dc.lft.to/lastmile_qr_scan", "ios": "https://dc.lft.to/lastmile_qr_scan"}, "is_reserved": 0, "type": "electric_scooter", "is_disabled": 0, "fusion_lat": 0.0}, {"name": "4c066c8ed75418df0c8f280bec6b1e2c", "lat": 38.9234505, "lon": -77.05125366666667, "fusion_lon": 0.0, "bike_id": "4c066c8ed75418df0c8f280bec6b1e2c", "rental_uris": {"android": "https://dc.lft.to/lastmile_qr_scan", "ios": "https://dc.lft.to/lastmile_qr_scan"}, "is_reserved": 0, "type": "electric_scooter", "is_disabled": 0, "fusion_lat": 0.0}, {"name": "0095c14d8568a33b787d0151e30faeeb", "lat": 38.88740033333333, "lon": -77.0021285, "fusion_lon": 0.0, "bike_id": "0095c14d8568a33b787d0151e30faeeb", "rental_uris": {"android": "https://dc.lft.to/lastmile_qr_scan", "ios": "https://dc.lft.to/lastmile_qr_scan"}, "is_reserved": 0, "type": "electric_scooter", "is_disabled": 0, "fusion_lat": 0.0}, {"name": "087b5b2a1bac2f38cbc9a6372558fbe3", "lat": 38.896212, "lon": -77.02384433333333, "fusion_lon": 0.0, "bike_id": "087b5b2a1bac2f38cbc9a6372558fbe3", "rental_uris": {"android": "https://dc.lft.to/lastmile_qr_scan", "ios": "https://dc.lft.to/lastmile_qr_scan"}, "is_reserved": 0, "type": "electric_scooter", "is_disabled": 0, "fusion_lat": 0.0}, {"name": "d80d24ea94c11b4989b9700672c3dd81", "lat": 38.91479133333333, "lon": -77.032129, "fusion_lon": 0.0, "bike_id": "d80d24ea94c11b4989b9700672c3dd81", "rental_uris": {"android": "https://dc.lft.to/lastmile_qr_scan", "ios": "https://dc.lft.to/lastmile_qr_scan"}, "is_reserved": 0, "type": "electric_scooter", "is_disabled": 0, "fusion_lat": 0.0}, {"name": "54e54e1fcf45ce18da32f20efb48557d", "lat": 38.86647583333333, "lon": -76.988851, "fusion_lon": 0.0, "bike_id": "54e54e1fcf45ce18da32f20efb48557d", "rental_uris": {"android": "https://dc.lft.to/lastmile_qr_scan", "ios": "https://dc.lft.to/lastmile_qr_scan"}, "is_reserved": 0, "type": "electric_scooter", "is_disabled": 0, "fusion_lat": 0.0}, {"name": "b5324b0534e90ea5225f90bfd4b05ee4", "lat": 38.9135075, "lon": -77.03178533333333, "fusion_lon": 0.0, "bike_id": "b5324b0534e90ea5225f90bfd4b05ee4", "rental_uris": {"android": "https://dc.lft.to/lastmile_qr_scan", "ios": "https://dc.lft.to/lastmile_qr_scan"}, "is_reserved": 0, "type": "electric_scooter", "is_disabled": 0, "fusion_lat": 0.0}, {"name": "ee1f837fd858d5aa1cc50cefe70bdfa4", "lat": 38.9096015, "lon": -77.02203316666667, "fusion_lon": 0.0, "bike_id": "ee1f837fd858d5aa1cc50cefe70bdfa4", "rental_uris": {"android": "https://dc.lft.to/lastmile_qr_scan", "ios": "https://dc.lft.to/lastmile_qr_scan"}, "is_reserved": 0, "type": "electric_scooter", "is_disabled": 0, "fusion_lat": 0.0}, {"name": "7b629ac6ac72b4bfe6d993ccb46af80c", "lat": 38.89934433333333, "lon": -77.02945183333334, "fusion_lon": 0.0, "bike_id": "7b629ac6ac72b4bfe6d993ccb46af80c", "rental_uris": {"android": "https://dc.lft.to/lastmile_qr_scan", "ios": "https://dc.lft.to/lastmile_qr_scan"}, "is_reserved": 0, "type": "electric_scooter", "is_disabled": 0, "fusion_lat": 0.0}, {"name": "e50ab40e32775089c2650cb265e2bd30", "lat": 38.892185, "lon": -77.02372516666667, "fusion_lon": 0.0, "bike_id": "e50ab40e32775089c2650cb265e2bd30", "rental_uris": {"android": "https://dc.lft.to/lastmile_qr_scan", "ios": "https://dc.lft.to/lastmile_qr_scan"}, "is_reserved": 0, "type": "electric_scooter", "is_disabled": 0, "fusion_lat": 0.0}, {"name": "746c4bc4a2ae8e4d18c3f151de4f147a", "lat": 38.89876816666667, "lon": -76.931836, "fusion_lon": 0.0, "bike_id": "746c4bc4a2ae8e4d18c3f151de4f147a", "rental_uris": {"android": "https://dc.lft.to/lastmile_qr_scan", "ios": "https://dc.lft.to/lastmile_qr_scan"}, "is_reserved": 0, "type": "electric_scooter", "is_disabled": 0, "fusion_lat": 0.0}, {"name": "995b3fa06395fdc422adc5533e61d019", "lat": 38.923610833333335, "lon": -77.00382633333334, "fusion_lon": 0.0, "bike_id": "995b3fa06395fdc422adc5533e61d019", "rental_uris": {"android": "https://dc.lft.to/lastmile_qr_scan", "ios": "https://dc.lft.to/lastmile_qr_scan"}, "is_reserved": 0, "type": "electric_scooter", "is_disabled": 0, "fusion_lat": 0.0}, {"name": "a0ae9280aba88312d5b1ee13d030a03e", "lat": 38.89979733333333, "lon": -77.055652, "fusion_lon": 0.0, "bike_id": "a0ae9280aba88312d5b1ee13d030a03e", "rental_uris": {"android": "https://dc.lft.to/lastmile_qr_scan", "ios": "https://dc.lft.to/lastmile_qr_scan"}, "is_reserved": 0, "type": "electric_scooter", "is_disabled": 0, "fusion_lat": 0.0}, {"name": "b49ef02b29bea250a12e6dd4a9450b76", "lat": 38.936781833333335, "lon": -77.03264666666666, "fusion_lon": 0.0, "bike_id": "b49ef02b29bea250a12e6dd4a9450b76", "rental_uris": {"android": "https://dc.lft.to/lastmile_qr_scan", "ios": "https://dc.lft.to/lastmile_qr_scan"}, "is_reserved": 0, "type": "electric_scooter", "is_disabled": 0, "fusion_lat": 0.0}, {"name": "e2898b636839d00944f8a70c8e50953b", "lat": 38.852106666666664, "lon": -77.10130766666667, "fusion_lon": 0.0, "bike_id": "e2898b636839d00944f8a70c8e50953b", "rental_uris": {"android": "https://dc.lft.to/lastmile_qr_scan", "ios": "https://dc.lft.to/lastmile_qr_scan"}, "is_reserved": 0, "type": "electric_bike", "is_disabled": 0, "fusion_lat": 0.0}, {"name": "93d4d2d53e61c8d6d1612cdd2751db09", "lat": 38.915493166666664, "lon": -77.04346383333333, "fusion_lon": 0.0, "bike_id": "93d4d2d53e61c8d6d1612cdd2751db09", "rental_uris": {"android": "https://dc.lft.to/lastmile_qr_scan", "ios": "https://dc.lft.to/lastmile_qr_scan"}, "is_reserved": 0, "type": "electric_scooter", "is_disabled": 0, "fusion_lat": 0.0}, {"name": "140d9b9fa3e4071f00ce04e2c34ca43d", "lat": 38.974999, "lon": -77.01696166666666, "fusion_lon": 0.0, "bike_id": "140d9b9fa3e4071f00ce04e2c34ca43d", "rental_uris": {"android": "https://dc.lft.to/lastmile_qr_scan", "ios": "https://dc.lft.to/lastmile_qr_scan"}, "is_reserved": 0, "type": "electric_scooter", "is_disabled": 0, "fusion_lat": 0.0}, {"name": "b39ca9e9266e04371d85a78f7a175621", "lat": 38.8922265, "lon": -77.01958983333333, "fusion_lon": 0.0, "bike_id": "b39ca9e9266e04371d85a78f7a175621", "rental_uris": {"android": "https://dc.lft.to/lastmile_qr_scan", "ios": "https://dc.lft.to/lastmile_qr_scan"}, "is_reserved": 0, "type": "electric_scooter", "is_disabled": 0, "fusion_lat": 0.0}, {"name": "b749f1b8b7981615ee437c0679cc3a73", "lat": 38.907147333333334, "lon": -77.04231183333333, "fusion_lon": 0.0, "bike_id": "b749f1b8b7981615ee437c0679cc3a73", "rental_uris": {"android": "https://dc.lft.to/lastmile_qr_scan", "ios": "https://dc.lft.to/lastmile_qr_scan"}, "is_reserved": 0, "type": "electric_scooter", "is_disabled": 0, "fusion_lat": 0.0}, {"name": "33fa0fdc6afd7c3e07fc79e37afe674f", "lat": 38.9076915, "lon": -77.0554805, "fusion_lon": 0.0, "bike_id": "33fa0fdc6afd7c3e07fc79e37afe674f", "rental_uris": {"android": "https://dc.lft.to/lastmile_qr_scan", "ios": "https://dc.lft.to/lastmile_qr_scan"}, "is_reserved": 0, "type": "electric_scooter", "is_disabled": 0, "fusion_lat": 0.0}, {"name": "a30d8a89cdd8b934255c4cecaae4b93a", "lat": 38.915638333333334, "lon": -77.03207566666667, "fusion_lon": 0.0, "bike_id": "a30d8a89cdd8b934255c4cecaae4b93a", "rental_uris": {"android": "https://dc.lft.to/lastmile_qr_scan", "ios": "https://dc.lft.to/lastmile_qr_scan"}, "is_reserved": 0, "type": "electric_scooter", "is_disabled": 0, "fusion_lat": 0.0}, {"name": "2a457e25a087f81f4100d04d54d359d0", "lat": 38.90409566666666, "lon": -76.97326433333333, "fusion_lon": 0.0, "bike_id": "2a457e25a087f81f4100d04d54d359d0", "rental_uris": {"android": "https://dc.lft.to/lastmile_qr_scan", "ios": "https://dc.lft.to/lastmile_qr_scan"}, "is_reserved": 0, "type": "electric_scooter", "is_disabled": 0, "fusion_lat": 0.0}, {"name": "4518e3d02b7d45f52165dc61fb6321c0", "lat": 38.90255966666667, "lon": -77.04106966666667, "fusion_lon": 0.0, "bike_id": "4518e3d02b7d45f52165dc61fb6321c0", "rental_uris": {"android": "https://dc.lft.to/lastmile_qr_scan", "ios": "https://dc.lft.to/lastmile_qr_scan"}, "is_reserved": 0, "type": "electric_scooter", "is_disabled": 0, "fusion_lat": 0.0}, {"name": "57477bcfae733cb04e9cc305fa14893b", "lat": 38.898373, "lon": -77.04854883333333, "fusion_lon": 0.0, "bike_id": "57477bcfae733cb04e9cc305fa14893b", "rental_uris": {"android": "https://dc.lft.to/lastmile_qr_scan", "ios": "https://dc.lft.to/lastmile_qr_scan"}, "is_reserved": 0, "type": "electric_scooter", "is_disabled": 0, "fusion_lat": 0.0}, {"name": "43d9b63d5e75113555a05991f0d82d08", "lat": 38.9535455, "lon": -76.980958, "fusion_lon": 0.0, "bike_id": "43d9b63d5e75113555a05991f0d82d08", "rental_uris": {"android": "https://dc.lft.to/lastmile_qr_scan", "ios": "https://dc.lft.to/lastmile_qr_scan"}, "is_reserved": 0, "type": "electric_bike", "is_disabled": 0, "fusion_lat": 0.0}, {"name": "94b91506c9e525ebc119b74598d54ab9", "lat": 38.896808, "lon": -77.02608183333334, "fusion_lon": 0.0, "bike_id": "94b91506c9e525ebc119b74598d54ab9", "rental_uris": {"android": "https://dc.lft.to/lastmile_qr_scan", "ios": "https://dc.lft.to/lastmile_qr_scan"}, "is_reserved": 0, "type": "electric_scooter", "is_disabled": 0, "fusion_lat": 0.0}, {"name": "1acf34340766097ef0e655af069ac369", "lat": 38.850237666666665, "lon": -77.09806166666667, "fusion_lon": 0.0, "bike_id": "1acf34340766097ef0e655af069ac369", "rental_uris": {"android": "https://dc.lft.to/lastmile_qr_scan", "ios": "https://dc.lft.to/lastmile_qr_scan"}, "is_reserved": 0, "type": "electric_bike", "is_disabled": 0, "fusion_lat": 0.0}, {"name": "b1dd80b1ed98d589fa99e5f3528ad40e", "lat": 38.90954583333333, "lon": -77.02714266666666, "fusion_lon": 0.0, "bike_id": "b1dd80b1ed98d589fa99e5f3528ad40e", "rental_uris": {"android": "https://dc.lft.to/lastmile_qr_scan", "ios": "https://dc.lft.to/lastmile_qr_scan"}, "is_reserved": 0, "type": "electric_scooter", "is_disabled": 0, "fusion_lat": 0.0}, {"name": "e4ba3827cbd10831af7ada7921d0ae07", "lat": 38.90266466666667, "lon": -77.03047283333333, "fusion_lon": 0.0, "bike_id": "e4ba3827cbd10831af7ada7921d0ae07", "rental_uris": {"android": "https://dc.lft.to/lastmile_qr_scan", "ios": "https://dc.lft.to/lastmile_qr_scan"}, "is_reserved": 0, "type": "electric_scooter", "is_disabled": 0, "fusion_lat": 0.0}, {"name": "87507b347c9b1447dd15a4ab8f8bda1c", "lat": 38.932717333333336, "lon": -77.03496633333333, "fusion_lon": 0.0, "bike_id": "87507b347c9b1447dd15a4ab8f8bda1c", "rental_uris": {"android": "https://dc.lft.to/lastmile_qr_scan", "ios": "https://dc.lft.to/lastmile_qr_scan"}, "is_reserved": 0, "type": "electric_scooter", "is_disabled": 0, "fusion_lat": 0.0}, {"name": "a85607adab943873c30ebb6530633286", "lat": 38.86262, "lon": -76.9955225, "fusion_lon": 0.0, "bike_id": "a85607adab943873c30ebb6530633286", "rental_uris": {"android": "https://dc.lft.to/lastmile_qr_scan", "ios": "https://dc.lft.to/lastmile_qr_scan"}, "is_reserved": 0, "type": "electric_scooter", "is_disabled": 0, "fusion_lat": 0.0}, {"name": "029ea2aa541280da807b34220b1aeb73", "lat": 38.9000785, "lon": -76.993498, "fusion_lon": 0.0, "bike_id": "029ea2aa541280da807b34220b1aeb73", "rental_uris": {"android": "https://dc.lft.to/lastmile_qr_scan", "ios": "https://dc.lft.to/lastmile_qr_scan"}, "is_reserved": 0, "type": "electric_scooter", "is_disabled": 0, "fusion_lat": 0.0}, {"name": "f851cd7d61d22d31ce641ac8adb8979a", "lat": 38.92664716666667, "lon": -76.99540866666666, "fusion_lon": 0.0, "bike_id": "f851cd7d61d22d31ce641ac8adb8979a", "rental_uris": {"android": "https://dc.lft.to/lastmile_qr_scan", "ios": "https://dc.lft.to/lastmile_qr_scan"}, "is_reserved": 0, "type": "electric_scooter", "is_disabled": 0, "fusion_lat": 0.0}, {"name": "0736b34d3c24c7ea22e34a0c9b22c69f", "lat": 38.915698, "lon": -77.04697683333333, "fusion_lon": 0.0, "bike_id": "0736b34d3c24c7ea22e34a0c9b22c69f", "rental_uris": {"android": "https://dc.lft.to/lastmile_qr_scan", "ios": "https://dc.lft.to/lastmile_qr_scan"}, "is_reserved": 0, "type": "electric_scooter", "is_disabled": 0, "fusion_lat": 0.0}, {"name": "6e03874961b8dd58beb4d5fa7f938c85", "lat": 38.90366233333334, "lon": -77.03133783333334, "fusion_lon": 0.0, "bike_id": "6e03874961b8dd58beb4d5fa7f938c85", "rental_uris": {"android": "https://dc.lft.to/lastmile_qr_scan", "ios": "https://dc.lft.to/lastmile_qr_scan"}, "is_reserved": 0, "type": "electric_scooter", "is_disabled": 0, "fusion_lat": 0.0}, {"name": "59febf69437cc92a7721055b14c8db7a", "lat": 38.917101333333335, "lon": -77.03349483333334, "fusion_lon": 0.0, "bike_id": "59febf69437cc92a7721055b14c8db7a", "rental_uris": {"android": "https://dc.lft.to/lastmile_qr_scan", "ios": "https://dc.lft.to/lastmile_qr_scan"}, "is_reserved": 0, "type": "electric_scooter", "is_disabled": 0, "fusion_lat": 0.0}, {"name": "0ca56614db70ef3c89e3e55d3471e981", "lat": 38.94224616666666, "lon": -77.02552316666667, "fusion_lon": 0.0, "bike_id": "0ca56614db70ef3c89e3e55d3471e981", "rental_uris": {"android": "https://dc.lft.to/lastmile_qr_scan", "ios": "https://dc.lft.to/lastmile_qr_scan"}, "is_reserved": 0, "type": "electric_scooter", "is_disabled": 0, "fusion_lat": 0.0},