{"data": {"bikes": [{"fusion_lat": 0.0, "name": "5f38284d1fd0ae6ec7695c0eca610ddb", "is_disabled": 0, "rental_uris": {"android": "https://dc.lft.to/lastmile_qr_scan", "ios": "https://dc.lft.to/lastmile_qr_scan"}, "fusion_lon": 0.0, "lat": 38.9085225, "bike_id": "5f38284d1fd0ae6ec7695c0eca610ddb", "type": "electric_scooter", "is_reserved": 0, "lon": -77.02727733333333}, {"fusion_lat": 0.0, "name": "a7f5e650a27832ec6a117a2c3c7aa327", "is_disabled": 0, "rental_uris": {"android": "https://dc.lft.to/lastmile_qr_scan", "ios": "https://dc.lft.to/lastmile_qr_scan"}, "fusion_lon": 0.0, "lat": 38.997744, "bike_id": "a7f5e650a27832ec6a117a2c3c7aa327", "type": "electric_bike", "is_reserved": 0, "lon": -77.04713916666667}, {"fusion_lat": 0.0, "name": "33ef62dee33464559ba9e17915bf4321", "is_disabled": 0, "rental_uris": {"android": "https://dc.lft.to/lastmile_qr_scan", "ios": "https://dc.lft.to/lastmile_qr_scan"}, "fusion_lon": 0.0, "lat": 38.9038705, "bike_id": "33ef62dee33464559ba9e17915bf4321", "type": "electric_scooter", "is_reserved": 0, "lon": -77.0483275}, {"fusion_lat": 0.0, "name": "82786445b44ebc847220a4ca30b69c37", "is_disabled": 0, "rental_uris": {"android": "https://dc.lft.to/lastmile_qr_scan", "ios": "https://dc.lft.to/lastmile_qr_scan"}, "fusion_lon": 0.0, "lat": 38.9324285, "bike_id": "82786445b44ebc847220a4ca30b69c37", "type": "electric_scooter", "is_reserved": 0, "lon": -77.03268683333333}, {"fusion_lat": 0.0, "name": "7aa17c8725143921aa71a16919d9bb5d", "is_disabled": 0, "rental_uris": {"android": "https://dc.lft.to/lastmile_qr_scan", "ios": "https://dc.lft.to/lastmile_qr_scan"}, "fusion_lon": 0.0, "lat": 38.900170333333335, "bike_id": "7aa17c8725143921aa71a16919d9bb5d", "type": "electric_scooter", "is_reserved": 0, "lon": -76.988189}, {"fusion_lat": 0.0, "name": "7dcc3b8996f9995517b7274afd7f32fa", "is_disabled": 0, "rental_uris": {"android": "https://dc.lft.to/lastmile_qr_scan", "ios": "https://dc.lft.to/lastmile_qr_scan"}, "fusion_lon": 0.0, "lat": 38.93683433333333, "bike_id": "7dcc3b8996f9995517b7274afd7f32fa", "type": "electric_scooter", "is_reserved": 0, "lon": -77.03631566666667}, {"fusion_lat": 0.0, "name": "2f2867687f1864e509af2e17bad77bfd", "is_disabled": 0, "rental_uris": {"android": "https://dc.lft.to/lastmile_qr_scan", "ios": "https://dc.lft.to/lastmile_qr_scan"}, "fusion_lon": 0.0, "lat": 38.900322333333335, "bike_id": "2f2867687f1864e509af2e17bad77bfd", "type": "electric_scooter", "is_reserved": 0, "lon": -76.99631233333334}, {"fusion_lat": 0.0, "name": "c45fbe6a2d3a1d391bee2cbe05dfcf08", "is_disabled": 0, "rental_uris": {"android": "https://dc.lft.to/lastmile_qr_scan", "ios": "https://dc.lft.to/lastmile_qr_scan"}, "fusion_lon": 0.0, "lat": 38.90260416666667, "bike_id": "c45fbe6a2d3a1d391bee2cbe05dfcf08", "type": "electric_scooter", "is_reserved": 0, "lon": -77.018187}, {"fusion_lat": 0.0, "name": "8ec7261235a47e7bd22587f256897485", "is_disabled": 0, "rental_uris": {"android": "https://dc.lft.to/lastmile_qr_scan", "ios": "https://dc.lft.to/lastmile_qr_scan"}, "fusion_lon": 0.0, "lat": 38.900786833333335, "bike_id": "8ec7261235a47e7bd22587f256897485", "type": "electric_scooter", "is_reserved": 0, "lon": -77.04771}, {"fusion_lat": 0.0, "name": "02111fed9d3fb0daee9a5c6e394d27cf", "is_disabled": 0, "rental_uris": {"android": "https://dc.lft.to/lastmile_qr_scan", "ios": "https://dc.lft.to/lastmile_qr_scan"}, "fusion_lon": 0.0, "lat": 38.9257065, "bike_id": "02111fed9d3fb0daee9a5c6e394d27cf", "type": "electric_scooter", "is_reserved": 0, "lon": -77.052608}, {"fusion_lat": 0.0, "name": "998ac9d2261e003c6d57629ce381db83", "is_disabled": 0, "rental_uris": {"android": "https://dc.lft.to/lastmile_qr_scan", "ios": "https://dc.lft.to/lastmile_qr_scan"}, "fusion_lon": 0.0, "lat": 38.919576166666666, "bike_id": "998ac9d2261e003c6d57629ce381db83", "type": "electric_scooter", "is_reserved": 0, "lon": -77.01785833333334}, {"fusion_lat": 0.0, "name": "88870ae6128bdf03b1f2700cfa9c2cf2", "is_disabled": 0, "rental_uris": {"android": "https://dc.lft.to/lastmile_qr_scan", "ios": "https://dc.lft.to/lastmile_qr_scan"}, "fusion_lon": 0.0, "lat": 38.91929666666667, "bike_id": "88870ae6128bdf03b1f2700cfa9c2cf2", "type": "electric_scooter", "is_reserved": 0, "lon": -77.03072433333334}, {"fusion_lat": 0.0, "name": "4b6a23e841a007c774c74ac4ab195358", "is_disabled": 0, "rental_uris": {"android": "https://dc.lft.to/lastmile_qr_scan", "ios": "https://dc.lft.to/lastmile_qr_scan"}, "fusion_lon": 0.0, "lat": 38.90953616666667, "bike_id": "4b6a23e841a007c774c74ac4ab195358", "type": "electric_scooter", "is_reserved": 0, "lon": -76.98537333333333}, {"fusion_lat": 0.0, "name": "a65577125a143f1b46befef434ee4f17", "is_disabled": 0, "rental_uris": {"android": "https://dc.lft.to/lastmile_qr_scan", "ios": "https://dc.lft.to/lastmile_qr_scan"}, "fusion_lon": 0.0, "lat": 38.92035633333333, "bike_id": "a65577125a143f1b46befef434ee4f17", "type": "electric_scooter", "is_reserved": 0, "lon": -77.07148766666667}, {"fusion_lat": 0.0, "name": "1180c8daf32cf836ebe011437685e16b", "is_disabled": 0, "rental_uris": {"android": "https://dc.lft.to/lastmile_qr_scan", "ios": "https://dc.lft.to/lastmile_qr_scan"}, "fusion_lon": 0.0, "lat": 38.90413683333333, "bike_id": "1180c8daf32cf836ebe011437685e16b", "type": "electric_scooter", "is_reserved": 0, "lon": -77.06798}, {"fusion_lat": 0.0, "name": "49e343f4528590a94a9c6e5faa46674c", "is_disabled": 0, "rental_uris": {"android": "https://dc.lft.to/lastmile_qr_scan", "ios": "https://dc.lft.to/lastmile_qr_scan"}, "fusion_lon": 0.0, "lat": 38.926691, "bike_id": "49e343f4528590a94a9c6e5faa46674c", "type": "electric_scooter", "is_reserved": 0, "lon": -77.01469116666667}, {"fusion_lat": 0.0, "name": "63fa7eec6c85ca4818bbe35abc755d90", "is_disabled": 0, "rental_uris": {"android": "https://dc.lft.to/lastmile_qr_scan", "ios": "https://dc.lft.to/lastmile_qr_scan"}, "fusion_lon": 0.0, "lat": 38.9074715, "bike_id": "63fa7eec6c85ca4818bbe35abc755d90", "type": "electric_scooter", "is_reserved": 0, "lon": -76.93551316666667}, {"fusion_lat": 0.0, "name": "22cb70a49fba4b6f9601792d905c9ed5", "is_disabled": 0, "rental_uris": {"android": "https://dc.lft.to/lastmile_qr_scan", "ios": "https://dc.lft.to/lastmile_qr_scan"}, "fusion_lon": 0.0, "lat": 38.87927283333333, "bike_id": "22cb70a49fba4b6f9601792d905c9ed5", "type": "electric_scooter", "is_reserved": 0, "lon": -77.00616966666666}, {"fusion_lat": 0.0, "name": "36026317d11941797cb7e62ffbff8436", "is_disabled": 0, "rental_uris": {"android": "https://dc.lft.to/lastmile_qr_scan", "ios": "https://dc.lft.to/lastmile_qr_scan"}, "fusion_lon": 0.0, "lat": 38.92235383333333, "bike_id": "36026317d11941797cb7e62ffbff8436", "type": "electric_scooter", "is_reserved": 0, "lon": -77.04248766666667}, {"fusion_lat": 0.0, "name": "1ce7d66770d2a7175eebeec81a4be3d9", "is_disabled": 0, "rental_uris": {"android": "https://dc.lft.to/lastmile_qr_scan", "ios": "https://dc.lft.to/lastmile_qr_scan"}, "fusion_lon": 0.0, "lat": 38.819167166666666, "bike_id": "1ce7d66770d2a7175eebeec81a4be3d9", "type": "electric_bike", "is_reserved": 0, "lon": -77.04797433333333}, {"fusion_lat": 0.0, "name": "792d142c6f2eba4545fb6a92be44276f", "is_disabled": 0, "rental_uris": {"android": "https://dc.lft.to/lastmile_qr_scan", "ios": "https://dc.lft.to/lastmile_qr_scan"}, "fusion_lon": 0.0, "lat": 38.89224883333333, "bike_id": "792d142c6f2eba4545fb6a92be44276f", "type": "electric_scooter", "is_reserved": 0, "lon": -77.0333975}, {"fusion_lat": 0.0, "name": "a21cd4b1cd8b823a505ef9a8d45d8a81", "is_disabled": 0, "rental_uris": {"android": "https://dc.lft.to/lastmile_qr_scan", "ios": "https://dc.lft.to/lastmile_qr_scan"}, "fusion_lon": 0.0, "lat": 38.927316833333336, "bike_id": "a21cd4b1cd8b823a505ef9a8d45d8a81", "type": "electric_scooter", "is_reserved": 0, "lon": -77.03066483333333}, {"fusion_lat": 0.0, "name": "482d773dd7d9ff1619b37c4d3afa8cb5", "is_disabled": 0, "rental_uris": {"android": "https://dc.lft.to/lastmile_qr_scan", "ios": "https://dc.lft.to/lastmile_qr_scan"}, "fusion_lon": 0.0, "lat": 38.873654333333334, "bike_id": "482d773dd7d9ff1619b37c4d3afa8cb5", "type": "electric_scooter", "is_reserved": 0, "lon": -77.001195}, {"fusion_lat": 0.0, "name": "2d878bc5b4152a130cfa84a8ecebace9", "is_disabled": 0, "rental_uris": {"android": "https://dc.lft.to/lastmile_qr_scan", "ios": "https://dc.lft.to/lastmile_qr_scan"}, "fusion_lon": 0.0, "lat": 38.8928505, "bike_id": "2d878bc5b4152a130cfa84a8ecebace9", "type": "electric_scooter", "is_reserved": 0, "lon": -76.93000666666667}, {"fusion_lat": 0.0, "name": "833fecc78c6a1c769f76c04b07818f05", "is_disabled": 0, "rental_uris": {"android": "https://dc.lft.to/lastmile_qr_scan", "ios": "https://dc.lft.to/lastmile_qr_scan"}, "fusion_lon": 0.0, "lat": 38.90128433333334, "bike_id": "833fecc78c6a1c769f76c04b07818f05", "type": "electric_scooter", "is_reserved": 0, "lon": -77.0499485}, {"fusion_lat": 0.0, "name": "aa290c11a910d0701a8ce6b65e5559df", "is_disabled": 0, "rental_uris": {"android": "https://dc.lft.to/lastmile_qr_scan", "ios": "https://dc.lft.to/lastmile_qr_scan"}, "fusion_lon": 0.0, "lat": 38.81254916666666, "bike_id": "aa290c11a910d0701a8ce6b65e5559df", "type": "electric_bike", "is_reserved": 0, "lon": -77.11774}, {"fusion_lat": 0.0, "name": "b754306e51838c114fcc7efa536f56c4", "is_disabled": 0, "rental_uris": {"android": "https://dc.lft.to/lastmile_qr_scan", "ios": "https://dc.lft.to/lastmile_qr_scan"}, "fusion_lon": 0.0, "lat": 38.90037366666667, "bike_id": "b754306e51838c114fcc7efa536f56c4", "type": "electric_scooter", "is_reserved": 0, "lon": -76.99144616666666}, {"fusion_lat": 0.0, "name": "e58493957712b314c3bd24bba412d48b", "is_disabled": 0, "rental_uris": {"android": "https://dc.lft.to/lastmile_qr_scan", "ios": "https://dc.lft.to/lastmile_qr_scan"}, "fusion_lon": 0.0, "lat": 38.807117, "bike_id": "e58493957712b314c3bd24bba412d48b", "type": "electric_bike", "is_reserved": 0, "lon": -77.06172733333334}, {"fusion_lat": 0.0, "name": "2acb93b5955677d303b427347c4ec2bc", "is_disabled": 0, "rental_uris": {"android": "https://dc.lft.to/lastmile_qr_scan", "ios": "https://dc.lft.to/lastmile_qr_scan"}, "fusion_lon": 0.0, "lat": 38.9036495, "bike_id": "2acb93b5955677d303b427347c4ec2bc", "type": "electric_scooter", "is_reserved": 0, "lon": -77.01635933333333}, {"fusion_lat": 0.0, "name": "886582a6d446859090ebac75a5d7df2e", "is_disabled": 0, "rental_uris": {"android": "https://dc.lft.to/lastmile_qr_scan", "ios": "https://dc.lft.to/lastmile_qr_scan"}, "fusion_lon": 0.0, "lat": 38.921051166666665, "bike_id": "886582a6d446859090ebac75a5d7df2e", "type": "electric_scooter", "is_reserved": 0, "lon": -77.02536066666667}, {"fusion_lat": 0.0, "name": "f25d64b5457cd00a4f84811b4460dedf", "is_disabled": 0, "rental_uris": {"android": "https://dc.lft.to/lastmile_qr_scan", "ios": "https://dc.lft.to/lastmile_qr_scan"}, "fusion_lon": 0.0, "lat": 38.912554666666665, "bike_id": "f25d64b5457cd00a4f84811b4460dedf", "type": "electric_scooter", "is_reserved": 0, "lon": -77.0386595}, {"fusion_lat": 0.0, "name": "00fe1373a996c03713c5b960ba0493da", "is_disabled": 0, "rental_uris": {"android": "https://dc.lft.to/lastmile_qr_scan", "ios": "https://dc.lft.to/lastmile_qr_scan"}, "fusion_lon": 0.0, "lat": 38.90135633333333, "bike_id": "00fe1373a996c03713c5b960ba0493da", "type": "electric_scooter", "is_reserved": 0, "lon": -77.03874483333334}, {"fusion_lat": 0.0, "name": "8903d4baec176d2463f087d6fc6b1236", "is_disabled": 0, "rental_uris": {"android": "https://dc.lft.to/lastmile_qr_scan", "ios": "https://dc.lft.to/lastmile_qr_scan"}, "fusion_lon": 0.0, "lat": 38.8985025, "bike_id": "8903d4baec176d2463f087d6fc6b1236", "type": "electric_scooter", "is_reserved": 0, "lon": -76.99033166666666}, {"fusion_lat": 0.0, "name": "9dffee23bf84ac8b6f395e4dda0030c3", "is_disabled": 0, "rental_uris": {"android": "https://dc.lft.to/lastmile_qr_scan", "ios": "https://dc.lft.to/lastmile_qr_scan"}, "fusion_lon": 0.0, "lat": 38.887507666666664, "bike_id": "9dffee23bf84ac8b6f395e4dda0030c3", "type": "electric_scooter", "is_reserved": 0, "lon": -77.02570333333334}, {"fusion_lat": 0.0, "name": "97b8b20a0ce40bf408458140cb09d4c5", "is_disabled": 0, "rental_uris": {"android": "https://dc.lft.to/lastmile_qr_scan", "ios": "https://dc.lft.to/lastmile_qr_scan"}, "fusion_lon": 0.0, "lat": 38.994426833333335, "bike_id": "97b8b20a0ce40bf408458140cb09d4c5", "type": "electric_bike", "is_reserved": 0, "lon": -76.99589083333333}, {"fusion_lat": 0.0, "name": "8529e1898df1d6be51fea64078b2d315", "is_disabled": 0, "rental_uris": {"android": "https://dc.lft.to/lastmile_qr_scan", "ios": "https://dc.lft.to/lastmile_qr_scan"}, "fusion_lon": 0.0, "lat": 38.9483735, "bike_id": "8529e1898df1d6be51fea64078b2d315", "type": "electric_scooter", "is_reserved": 0, "lon": -77.0652865}, {"fusion_lat": 0.0, "name": "5f88d19ba00027dae1043199f9c2eb17", "is_disabled": 0, "rental_uris": {"android": "https://dc.lft.to/lastmile_qr_scan", "ios": "https://dc.lft.to/lastmile_qr_scan"}, "fusion_lon": 0.0, "lat": 38.9118385, "bike_id": "5f88d19ba00027dae1043199f9c2eb17", "type": "electric_scooter", "is_reserved": 0, "lon": -77.02194233333333}, {"fusion_lat": 0.0, "name": "598a82bd79bcfd8ef8dcbb6d1aa989c9", "is_disabled": 0, "rental_uris": {"android": "https://dc.lft.to/lastmile_qr_scan", "ios": "https://dc.lft.to/lastmile_qr_scan"}, "fusion_lon": 0.0, "lat": 38.90300283333333, "bike_id": "598a82bd79bcfd8ef8dcbb6d1aa989c9", "type": "electric_scooter", "is_reserved": 0, "lon": -77.06108733333333}, {"fusion_lat": 0.0, "name": "6f194412b746e3fc0c626caaadd0d103", "is_disabled": 0, "rental_uris": {"android": "https://dc.lft.to/lastmile_qr_scan", "ios": "https://dc.lft.to/lastmile_qr_scan"}, "fusion_lon": 0.0, "lat": 38.937677666666666, "bike_id": "6f194412b746e3fc0c626caaadd0d103", "type": "electric_scooter", "is_reserved": 0, "lon": -77.02448016666666}, {"fusion_lat": 0.0, "name": "a6cf7995e4bd28ad28deed7103fe0fbe", "is_disabled": 0, "rental_uris": {"android": "https://dc.lft.to/lastmile_qr_scan", "ios": "https://dc.lft.to/lastmile_qr_scan"}, "fusion_lon": 0.0, "lat": 38.903681166666665, "bike_id": "a6cf7995e4bd28ad28deed7103fe0fbe", "type": "electric_scooter", "is_reserved": 0, "lon": -77.01997216666666}, {"fusion_lat": 0.0, "name": "fad3998aea82cee6fc2fa3bd04fd63a1", "is_disabled": 0, "rental_uris": {"android": "https://dc.lft.to/lastmile_qr_scan", "ios": "https://dc.lft.to/lastmile_qr_scan"}, "fusion_lon": 0.0, "lat": 38.924885, "bike_id": "fad3998aea82cee6fc2fa3bd04fd63a1", "type": "electric_scooter", "is_reserved": 0, "lon": -77.025464}, {"fusion_lat": 0.0, "name": "27547161fbae62b8a6c2f0512e9f1190", "is_disabled": 0, "rental_uris": {"android": "https://dc.lft.to/lastmile_qr_scan", "ios": "https://dc.lft.to/lastmile_qr_scan"}, "fusion_lon": 0.0, "lat": 38.917731, "bike_id": "27547161fbae62b8a6c2f0512e9f1190", "type": "electric_scooter", "is_reserved": 0, "lon": -77.03202033333334}, {"fusion_lat": 0.0, "name": "03bedf818b7b144ba4bdb5cdb7951b96", "is_disabled": 0, "rental_uris": {"android": "https://dc.lft.to/lastmile_qr_scan", "ios": "https://dc.lft.to/lastmile_qr_scan"}, "fusion_lon": 0.0, "lat": 38.91660983333333, "bike_id": "03bedf818b7b144ba4bdb5cdb7951b96", "type": "electric_scooter", "is_reserved": 0, "lon": -77.036998}, {"fusion_lat": 0.0, "name": "32b417e22882e4dd026d8b7a84523673", "is_disabled": 0, "rental_uris": {"android": "https://dc.lft.to/lastmile_qr_scan", "ios": "https://dc.lft.to/lastmile_qr_scan"}, "fusion_lon": 0.0, "lat": 38.941908, "bike_id": "32b417e22882e4dd026d8b7a84523673", "type": "electric_scooter", "is_reserved": 0, "lon": -77.02488183333334}, {"fusion_lat": 0.0, "name": "efe88d5d6332acf109f5974bfee10b60", "is_disabled": 0, "rental_uris": {"android": "https://dc.lft.to/lastmile_qr_scan", "ios": "https://dc.lft.to/lastmile_qr_scan"}, "fusion_lon": 0.0, "lat": 38.89912116666667, "bike_id": "efe88d5d6332acf109f5974bfee10b60", "type": "electric_scooter", "is_reserved": 0, "lon": -76.94589633333334}, {"fusion_lat": 0.0, "name": "1ec1d57e6dbdae87213b0b67cb02c075", "is_disabled": 0, "rental_uris": {"android": "https://dc.lft.to/lastmile_qr_scan", "ios": "https://dc.lft.to/lastmile_qr_scan"}, "fusion_lon": 0.0, "lat": 38.875806833333336, "bike_id": "1ec1d57e6dbdae87213b0b67cb02c075", "type": "electric_bike", "is_reserved": 0, "lon": -77.2341355}, {"fusion_lat": 0.0, "name": "252c70d1173e4c3899329adedcb29042", "is_disabled": 0, "rental_uris": {"android": "https://dc.lft.to/lastmile_qr_scan", "ios": "https://dc.lft.to/lastmile_qr_scan"}, "fusion_lon": 0.0, "lat": 38.91684883333333, "bike_id": "252c70d1173e4c3899329adedcb29042", "type": "electric_scooter", "is_reserved": 0, "lon": -77.0229035}, {"fusion_lat": 0.0, "name": "9f3b82c1396d0cd5caa7dc2fd5a75e01", "is_disabled": 0, "rental_uris": {"android": "https://dc.lft.to/lastmile_qr_scan", "ios": "https://dc.lft.to/lastmile_qr_scan"}, "fusion_lon": 0.0, "lat": 38.91516716666667, "bike_id": "9f3b82c1396d0cd5caa7dc2fd5a75e01", "type": "electric_scooter", "is_reserved": 0, "lon": -77.01902116666666}, {"fusion_lat": 0.0, "name": "eb71780b74a789b79db4136c55e30dfb", "is_disabled": 0, "rental_uris": {"android": "https://dc.lft.to/lastmile_qr_scan", "ios": "https://dc.lft.to/lastmile_qr_scan"}, "fusion_lon": 0.0, "lat": 38.905817666666664, "bike_id": "eb71780b74a789b79db4136c55e30dfb", "type": "electric_scooter", "is_reserved": 0, "lon": -77.00887216666666}, {"fusion_lat": 0.0, "name": "4773a084ffa810a9bd8dda467d3a19a7", "is_disabled": 0, "rental_uris": {"android": "https://dc.lft.to/lastmile_qr_scan", "ios": "https://dc.lft.to/lastmile_qr_scan"}, "fusion_lon": 0.0, "lat": 38.9354295, "bike_id": "4773a084ffa810a9bd8dda467d3a19a7", "type": "electric_scooter", "is_reserved": 0, "lon": -77.05753833333333}, {"fusion_lat": 0.0, "name": "b9c1e3d6b118ef6bd1b9e7809f026b45", "is_disabled": 0, "rental_uris": {"android": "https://dc.lft.to/lastmile_qr_scan", "ios": "https://dc.lft.to/lastmile_qr_scan"}, "fusion_lon": 0.0, "lat": 38.91717466666667, "bike_id": "b9c1e3d6b118ef6bd1b9e7809f026b45", "type": "electric_scooter", "is_reserved": 0, "lon": -77.02589683333333}, {"fusion_lat": 0.0, "name": "f32c990cff73ebe07b7c5e68f8126e38", "is_disabled": 0, "rental_uris": {"android": "https://dc.lft.to/lastmile_qr_scan", "ios": "https://dc.lft.to/lastmile_qr_scan"}, "fusion_lon": 0.0, "lat": 38.91627416666667, "bike_id": "f32c990cff73ebe07b7c5e68f8126e38", "type": "electric_scooter", "is_reserved": 0, "lon": -77.031893}, {"fusion_lat": 0.0, "name": "90241d51ffa17f0b11f903f4044f9175", "is_disabled": 0, "rental_uris": {"android": "https://dc.lft.to/lastmile_qr_scan", "ios": "https://dc.lft.to/lastmile_qr_scan"}, "fusion_lon": 0.0, "lat": 38.91102983333333, "bike_id": "90241d51ffa17f0b11f903f4044f9175", "type": "electric_scooter", "is_reserved": 0, "lon": -77.04203516666666}, {"fusion_lat": 0.0, "name": "3b582fe4a2470161696a65acf3ce708a", "is_disabled": 0, "rental_uris": {"android": "https://dc.lft.to/lastmile_qr_scan", "ios": "https://dc.lft.to/lastmile_qr_scan"}, "fusion_lon": 0.0, "lat": 38.908397, "bike_id": "3b582fe4a2470161696a65acf3ce708a", "type": "electric_scooter", "is_reserved": 0, "lon": -77.03298416666667}, {"fusion_lat": 0.0, "name": "ce3066f37513b3a38d37bb7136f787eb", "is_disabled": 0, "rental_uris": {"android": "https://dc.lft.to/lastmile_qr_scan", "ios": "https://dc.lft.to/lastmile_qr_scan"}, "fusion_lon": 0.0, "lat": 38.8997795, "bike_id": "ce3066f37513b3a38d37bb7136f787eb", "type": "electric_scooter", "is_reserved": 0, "lon": -77.02769416666666}, {"fusion_lat": 0.0, "name": "8713b10bb756f8c82d9900bd3bc82aa7", "is_disabled": 0, "rental_uris": {"android": "https://dc.lft.to/lastmile_qr_scan", "ios": "https://dc.lft.to/lastmile_qr_scan"}, "fusion_lon": 0.0, "lat": 38.9235625, "bike_id": "8713b10bb756f8c82d9900bd3bc82aa7", "type": "electric_scooter", "is_reserved": 0, "lon": -77.05051866666666}, {"fusion_lat": 0.0, "name": "29aeee174af490b7f36d1a29f9058db6", "is_disabled": 0, "rental_uris": {"android": "https://dc.lft.to/lastmile_qr_scan", "ios": "https://dc.lft.to/lastmile_qr_scan"}, "fusion_lon": 0.0, "lat": 38.90578816666667, "bike_id": "29aeee174af490b7f36d1a29f9058db6", "type": "electric_scooter", "is_reserved": 0, "lon": -77.0027425}, {"fusion_lat": 0.0, "name": "b376eabb2f7f5a0ec6676d555edf2391", "is_disabled": 0, "rental_uris": {"android": "https://dc.lft.to/lastmile_qr_scan", "ios": "https://dc.lft.to/lastmile_qr_scan"}, "fusion_lon": 0.0, "lat": 38.896841333333334, "bike_id": "b376eabb2f7f5a0ec6676d555edf2391", "type": "electric_scooter", "is_reserved": 0, "lon": -76.93712766666667}, {"fusion_lat": 0.0, "name": "5fbe64163a2c36b981810546f1017201", "is_disabled": 0, "rental_uris": {"android": "https://dc.lft.to/lastmile_qr_scan", "ios": "https://dc.lft.to/lastmile_qr_scan"}, "fusion_lon": 0.0, "lat": 38.92407866666667, "bike_id": "5fbe64163a2c36b981810546f1017201", "type": "electric_scooter", "is_reserved": 0, "lon": -77.05257783333333}, {"fusion_lat": 0.0, "name": "51f0b6d60729252414c49cb7d55cd37a", "is_disabled": 0, "rental_uris": {"android": "https://dc.lft.to/lastmile_qr_scan", "ios": "https://dc.lft.to/lastmile_qr_scan"}, "fusion_lon": 0.0, "lat": 38.9505495, "bike_id": "51f0b6d60729252414c49cb7d55cd37a", "type": "electric_scooter", "is_reserved": 0, "lon": -77.08024333333333}, {"fusion_lat": 0.0, "name": "13fcb530bc4644635d8e1f1ead38661b", "is_disabled": 0, "rental_uris": {"android": "https://dc.lft.to/lastmile_qr_scan", "ios": "https://dc.lft.to/lastmile_qr_scan"}, "fusion_lon": 0.0, "lat": 38.860170333333336, "bike_id": "13fcb530bc4644635d8e1f1ead38661b", "type": "electric_bike", "is_reserved": 0, "lon": -77.12808416666667}, {"fusion_lat": 0.0, "name": "72f04b06e60d4a8542b666a19927d681", "is_disabled": 0, "rental_uris": {"android": "https://dc.lft.to/lastmile_qr_scan", "ios": "https://dc.lft.to/lastmile_qr_scan"}, "fusion_lon": 0.0, "lat": 38.93173766666666, "bike_id": "72f04b06e60d4a8542b666a19927d681", "type": "electric_scooter", "is_reserved": 0, "lon": -77.03154466666666}, {"fusion_lat": 0.0, "name": "f20fed4574e69f903faf24e317549fe2", "is_disabled": 0, "rental_uris": {"android": "https://dc.lft.to/lastmile_qr_scan", "ios": "https://dc.lft.to/lastmile_qr_scan"}, "fusion_lon": 0.0, "lat": 38.9168705, "bike_id": "f20fed4574e69f903faf24e317549fe2", "type": "electric_scooter", "is_reserved": 0, "lon": -77.02953866666667}, {"fusion_lat": 0.0, "name": "7174e5452bb428b511ff99a229c8e77a", "is_disabled": 0, "rental_uris": {"android": "https://dc.lft.to/lastmile_qr_scan", "ios": "https://dc.lft.to/lastmile_qr_scan"}, "fusion_lon": 0.0, "lat": 38.87659933333333, "bike_id": "7174e5452bb428b511ff99a229c8e77a", "type": "electric_scooter", "is_reserved": 0, "lon": -77.00077616666667}, {"fusion_lat": 0.0, "name": "b5e68d30e0c0679943ec1110c4a8a480", "is_disabled": 0, "rental_uris": {"android": "https://dc.lft.to/lastmile_qr_scan", "ios": "https://dc.lft.to/lastmile_qr_scan"}, "fusion_lon": 0.0, "lat": 38.92074933333333, "bike_id": "b5e68d30e0c0679943ec1110c4a8a480", "type": "electric_scooter", "is_reserved": 0, "lon": -77.0381805}, {"fusion_lat": 0.0, "name": "6553fa860316274ad9f8af79373a0d6f", "is_disabled": 0, "rental_uris": {"android": "https://dc.lft.to/lastmile_qr_scan", "ios": "https://dc.lft.to/lastmile_qr_scan"}, "fusion_lon": 0.0, "lat": 38.87457416666667, "bike_id": "6553fa860316274ad9f8af79373a0d6f", "type": "electric_scooter", "is_reserved": 0, "lon": -77.00303116666667}, {"fusion_lat": 0.0, "name": "627aeecd8a1221f97cc2ffe018e3543c", "is_disabled": 0, "rental_uris": {"android": "https://dc.lft.to/lastmile_qr_scan", "ios": "https://dc.lft.to/lastmile_qr_scan"}, "fusion_lon": 0.0, "lat": 38.91724833333333, "bike_id": "627aeecd8a1221f97cc2ffe018e3543c", "type": "electric_scooter", "is_reserved": 0, "lon": -77.01919733333334}, {"fusion_lat": 0.0, "name": "3bd8e8372bc6c1561182964565be9f74", "is_disabled": 0, "rental_uris": {"android": "https://dc.lft.to/lastmile_qr_scan", "ios": "https://dc.lft.to/lastmile_qr_scan"}, "fusion_lon": 0.0, "lat": 38.918229333333336, "bike_id": "3bd8e8372bc6c1561182964565be9f74", "type": "electric_scooter", "is_reserved": 0, "lon": -77.031875}, {"fusion_lat": 0.0, "name": "d481307a1b16bc3136338e6ab6ede6ab", "is_disabled": 0, "rental_uris": {"android": "https://dc.lft.to/lastmile_qr_scan", "ios": "https://dc.lft.to/lastmile_qr_scan"}, "fusion_lon": 0.0, "lat": 38.930774666666665, "bike_id": "d481307a1b16bc3136338e6ab6ede6ab", "type": "electric_scooter", "is_reserved": 0, "lon": -77.07768816666666}, {"fusion_lat": 0.0, "name": "f7e5565b2346ec1849e950f65c59c959", "is_disabled": 0, "rental_uris": {"android": "https://dc.lft.to/lastmile_qr_scan", "ios": "https://dc.lft.to/lastmile_qr_scan"}, "fusion_lon": 0.0, "lat": 38.92797, "bike_id": "f7e5565b2346ec1849e950f65c59c959", "type": "electric_scooter", "is_reserved": 0, "lon": -77.0141815}, {"fusion_lat": 0.0, "name": "0f47b8952295d42882839a2e4f8ff684", "is_disabled": 0, "rental_uris": {"android": "https://dc.lft.to/lastmile_qr_scan", "ios": "https://dc.lft.to/lastmile_qr_scan"}, "fusion_lon": 0.0, "lat": 38.91481533333334, "bike_id": "0f47b8952295d42882839a2e4f8ff684", "type": "electric_scooter", "is_reserved": 0, "lon": -77.04617916666666}, {"fusion_lat": 0.0, "name": "0480ee8142e62681a19e82123cda3e02", "is_disabled": 0, "rental_uris": {"android": "https://dc.lft.to/lastmile_qr_scan", "ios": "https://dc.lft.to/lastmile_qr_scan"}, "fusion_lon": 0.0, "lat": 38.887366, "bike_id": "0480ee8142e62681a19e82123cda3e02", "type": "electric_scooter", "is_reserved": 0, "lon": -77.03189366666666}, {"fusion_lat": 0.0, "name": "2f1cfa9cedec4fcbd0563da0bd2cc62b", "is_disabled": 0, "rental_uris": {"android": "https://dc.lft.to/lastmile_qr_scan", "ios": "https://dc.lft.to/lastmile_qr_scan"}, "fusion_lon": 0.0, "lat": 38.9540045, "bike_id": "2f1cfa9cedec4fcbd0563da0bd2cc62b", "type": "electric_scooter", "is_reserved": 0, "lon": -77.02793616666666}, {"fusion_lat": 0.0, "name": "79bc9691dbedc222a7a11bf748ed53ab", "is_disabled": 0, "rental_uris": {"android": "https://dc.lft.to/lastmile_qr_scan", "ios": "https://dc.lft.to/lastmile_qr_scan"}, "fusion_lon": 0.0, "lat": 38.8666405, "bike_id": "79bc9691dbedc222a7a11bf748ed53ab", "type": "electric_scooter", "is_reserved": 0, "lon": -76.98898383333334}, {"fusion_lat": 0.0, "name": "2870e556faaa79157dc5937e89e331e7", "is_disabled": 0, "rental_uris": {"android": "https://dc.lft.to/lastmile_qr_scan", "ios": "https://dc.lft.to/lastmile_qr_scan"}, "fusion_lon": 0.0, "lat": 38.94187316666667, "bike_id": "2870e556faaa79157dc5937e89e331e7", "type": "electric_scooter", "is_reserved": 0, "lon": -77.02617016666666}, {"fusion_lat": 0.0, "name": "7a13cab96cb2b20cbf5ea909c74e46ec", "is_disabled": 0, "rental_uris": {"android": "https://dc.lft.to/lastmile_qr_scan", "ios": "https://dc.lft.to/lastmile_qr_scan"}, "fusion_lon": 0.0, "lat": 38.912771, "bike_id": "7a13cab96cb2b20cbf5ea909c74e46ec", "type": "electric_scooter", "is_reserved": 0, "lon": -77.03833883333333}, {"fusion_lat": 0.0, "name": "e63041ce26cf1fe04552f0d8f86cb1e2", "is_disabled": 0, "rental_uris": {"android": "https://dc.lft.to/lastmile_qr_scan", "ios": "https://dc.lft.to/lastmile_qr_scan"}, "fusion_lon": 0.0, "lat": 38.905549666666666, "bike_id": "e63041ce26cf1fe04552f0d8f86cb1e2", "type": "electric_scooter", "is_reserved": 0, "lon": -77.0465095}, {"fusion_lat": 0.0, "name": "d7dd316b3fde28f2152178424c1da155", "is_disabled": 0, "rental_uris": {"android": "https://dc.lft.to/lastmile_qr_scan", "ios": "https://dc.lft.to/lastmile_qr_scan"}, "fusion_lon": 0.0, "lat": 38.847572666666665, "bike_id": "d7dd316b3fde28f2152178424c1da155", "type": "electric_scooter", "is_reserved": 0, "lon": -76.99502}, {"fusion_lat": 0.0, "name": "ade75dbd21037ecd84dd768744cfb191", "is_disabled": 0, "rental_uris": {"android": "https://dc.lft.to/lastmile_qr_scan", "ios": "https://dc.lft.to/lastmile_qr_scan"}, "fusion_lon": 0.0, "lat": 38.906852666666666, "bike_id": "ade75dbd21037ecd84dd768744cfb191", "type": "electric_scooter", "is_reserved": 0, "lon": -77.02698333333333}, {"fusion_lat": 0.0, "name": "7ecdeac7ccce208b059368ccab3523fa", "is_disabled": 0, "rental_uris": {"android": "https://dc.lft.to/lastmile_qr_scan", "ios": "https://dc.lft.to/lastmile_qr_scan"}, "fusion_lon": 0.0, "lat": 38.92250133333334, "bike_id": "7ecdeac7ccce208b059368ccab3523fa", "type": "electric_scooter", "is_reserved": 0, "lon": -77.02804516666667}, {"fusion_lat": 0.0, "name": "9b87fd0102c2bc5685d268372387eebc", "is_disabled": 0, "rental_uris": {"android": "https://dc.lft.to/lastmile_qr_scan", "ios": "https://dc.lft.to/lastmile_qr_scan"}, "fusion_lon": 0.0, "lat": 38.91981666666667, "bike_id": "9b87fd0102c2bc5685d268372387eebc", "type": "electric_scooter", "is_reserved": 0, "lon": -77.02592233333333}, {"fusion_lat": 0.0, "name": "35247186b0d9957ebfedf0315f01a0cc", "is_disabled": 0, "rental_uris": {"android": "https://dc.lft.to/lastmile_qr_scan", "ios": "https://dc.lft.to/lastmile_qr_scan"}, "fusion_lon": 0.0, "lat": 38.93574483333333, "bike_id": "35247186b0d9957ebfedf0315f01a0cc", "type": "electric_scooter", "is_reserved": 0, "lon": -77.03651416666666}, {"fusion_lat": 0.0, "name": "286310eb806072d7f3e3fab96df149a9", "is_disabled": 0, "rental_uris": {"android": "https://dc.lft.to/lastmile_qr_scan", "ios": "https://dc.lft.to/lastmile_qr_scan"}, "fusion_lon": 0.0, "lat": 38.90168283333333, "bike_id": "286310eb806072d7f3e3fab96df149a9", "type": "electric_scooter", "is_reserved": 0, "lon": -76.992528}, {"fusion_lat": 0.0, "name": "666512d2673cfd45506d986262053a94", "is_disabled": 0, "rental_uris": {"android": "https://dc.lft.to/lastmile_qr_scan", "ios": "https://dc.lft.to/lastmile_qr_scan"}, "fusion_lon": 0.0, "lat": 38.9071605, "bike_id": "666512d2673cfd45506d986262053a94", "type": "electric_scooter", "is_reserved": 0, "lon": -77.02720983333333}, {"fusion_lat": 0.0, "name": "27885239b6b9855b0f637fe9f714fc18", "is_disabled": 0, "rental_uris": {"android": "https://dc.lft.to/lastmile_qr_scan", "ios": "https://dc.lft.to/lastmile_qr_scan"}, "fusion_lon": 0.0, "lat": 38.883409666666665, "bike_id": "27885239b6b9855b0f637fe9f714fc18", "type": "electric_scooter", "is_reserved": 0, "lon": -77.03160466666667}, {"fusion_lat": 0.0, "name": "c66229890627284eada156ea741b7fc5", "is_disabled": 0, "rental_uris": {"android": "https://dc.lft.to/lastmile_qr_scan", "ios": "https://dc.lft.to/lastmile_qr_scan"}, "fusion_lon": 0.0, "lat": 38.92313466666667, "bike_id": "c66229890627284eada156ea741b7fc5", "type": "electric_scooter", "is_reserved": 0, "lon": -77.0397285}, {"fusion_lat": 0.0, "name": "e49001396787d3cbbf26a630ba2e4456", "is_disabled": 0, "rental_uris": {"android": "https://dc.lft.to/lastmile_qr_scan", "ios": "https://dc.lft.to/lastmile_qr_scan"}, "fusion_lon": 0.0, "lat": 38.919878, "bike_id": "e49001396787d3cbbf26a630ba2e4456", "type": "electric_scooter", "is_reserved": 0, "lon": -77.03226133333334}, {"fusion_lat": 0.0, "name": "3bfac91f364d74a291e217aadfdbfc7a", "is_disabled": 0, "rental_uris": {"android": "https://dc.lft.to/lastmile_qr_scan", "ios": "https://dc.lft.to/lastmile_qr_scan"}, "fusion_lon": 0.0, "lat": 38.99402966666667, "bike_id": "3bfac91f364d74a291e217aadfdbfc7a", "type": "electric_bike", "is_reserved": 0, "lon": -77.0310425}, {"fusion_lat": 0.0, "name": "0bd549363df23fb9db21f877e0f365c5", "is_disabled": 0, "rental_uris": {"android": "https://dc.lft.to/lastmile_qr_scan", "ios": "https://dc.lft.to/lastmile_qr_scan"}, "fusion_lon": 0.0, "lat": 38.9007595, "bike_id": "0bd549363df23fb9db21f877e0f365c5", "type": "electric_scooter", "is_reserved": 0, "lon": -77.04941516666666}, {"fusion_lat": 0.0, "name": "e04149c4b4e9399fff0fd01df23c7bb6", "is_disabled": 0, "rental_uris": {"android": "https://dc.lft.to/lastmile_qr_scan", "ios": "https://dc.lft.to/lastmile_qr_scan"}, "fusion_lon": 0.0, "lat": 38.9181995, "bike_id": "e04149c4b4e9399fff0fd01df23c7bb6", "type": "electric_scooter", "is_reserved": 0, "lon": -77.03074883333333}, {"fusion_lat": 0.0, "name": "72297134449970f11167e9edcd2ae477", "is_disabled": 0, "rental_uris": {"android": "https://dc.lft.to/lastmile_qr_scan", "ios": "https://dc.lft.to/lastmile_qr_scan"}, "fusion_lon": 0.0, "lat": 38.919677166666666, "bike_id": "72297134449970f11167e9edcd2ae477", "type": "electric_scooter", "is_reserved": 0, "lon": -77.0121915}, {"fusion_lat": 0.0, "name": "4c206aaa3f7b1eb0c1892a2505cc86a0", "is_disabled": 0, "rental_uris": {"android": "https://dc.lft.to/lastmile_qr_scan", "ios": "https://dc.lft.to/lastmile_qr_scan"}, "fusion_lon": 0.0, "lat": 38.905615833333336, "bike_id": "4c206aaa3f7b1eb0c1892a2505cc86a0", "type": "electric_scooter", "is_reserved": 0, "lon": -77.04452266666667}, {"fusion_lat": 0.0, "name": "270637b7003b9f1696ab04924e56d78b", "is_disabled": 0, "rental_uris": {"android": "https://dc.lft.to/lastmile_qr_scan", "ios": "https://dc.lft.to/lastmile_qr_scan"}, "fusion_lon": 0.0, "lat": 38.91810816666667, "bike_id": "270637b7003b9f1696ab04924e56d78b", "type": "electric_scooter", "is_reserved": 0, "lon": -77.02682516666667}, {"fusion_lat": 0.0, "name": "b079777519ca1695e9796aaf9f470e2b", "is_disabled": 0, "rental_uris": {"android": "https://dc.lft.to/lastmile_qr_scan", "ios": "https://dc.lft.to/lastmile_qr_scan"}, "fusion_lon": 0.0, "lat": 38.876363166666664, "bike_id": "b079777519ca1695e9796aaf9f470e2b", "type": "electric_scooter", "is_reserved": 0, "lon": -77.00142266666667}, {"fusion_lat": 0.0, "name": "0d60830e59b525276d3971f76caae17a", "is_disabled": 0, "rental_uris": {"android": "https://dc.lft.to/lastmile_qr_scan", "ios": "https://dc.lft.to/lastmile_qr_scan"}, "fusion_lon": 0.0, "lat": 38.91401116666667, "bike_id": "0d60830e59b525276d3971f76caae17a", "type": "electric_scooter", "is_reserved": 0, "lon": -77.02209966666666}, {"fusion_lat": 0.0, "name": "91a1b4ea3956e804580ee4df98faf632", "is_disabled": 0, "rental_uris": {"android": "https://dc.lft.to/lastmile_qr_scan", "ios": "https://dc.lft.to/lastmile_qr_scan"}, "fusion_lon": 0.0, "lat": 38.92549666666667, "bike_id": "91a1b4ea3956e804580ee4df98faf632", "type": "electric_scooter", "is_reserved": 0, "lon": -77.04296016666666}, {"fusion_lat": 0.0, "name": "a709dee05cce78bab39840bb21d31177", "is_disabled": 0, "rental_uris": {"android": "https://dc.lft.to/lastmile_qr_scan", "ios": "https://dc.lft.to/lastmile_qr_scan"}, "fusion_lon": 0.0, "lat": 38.90558466666667, "bike_id": "a709dee05cce78bab39840bb21d31177", "type": "electric_scooter", "is_reserved": 0, "lon": -77.02395883333334}, {"fusion_lat": 0.0, "name": "6663f5b08ae09becf39103bde045031f", "is_disabled": 0, "rental_uris": {"android": "https://dc.lft.to/lastmile_qr_scan", "ios": "https://dc.lft.to/lastmile_qr_scan"}, "fusion_lon": 0.0, "lat": 38.91813583333333, "bike_id": "6663f5b08ae09becf39103bde045031f", "type": "electric_scooter", "is_reserved": 0, "lon": -77.03752266666666}, {"fusion_lat": 0.0, "name": "0b8ff98ae7c16660e6cc780c3d9cd89c", "is_disabled": 0, "rental_uris": {"android": "https://dc.lft.to/lastmile_qr_scan", "ios": "https://dc.lft.to/lastmile_qr_scan"}, "fusion_lon": 0.0, "lat": 38.91578066666667, "bike_id": "0b8ff98ae7c16660e6cc780c3d9cd89c", "type": "electric_scooter", "is_reserved": 0, "lon": -77.01230633333333}, {"fusion_lat": 0.0, "name": "8b7e6955016d634138f5263387bc9810", "is_disabled": 0, "rental_uris": {"android": "https://dc.lft.to/lastmile_qr_scan", "ios": "https://dc.lft.to/lastmile_qr_scan"}, "fusion_lon": 0.0, "lat": 38.8774435, "bike_id": "8b7e6955016d634138f5263387bc9810", "type": "electric_scooter", "is_reserved": 0, "lon": -77.0076075}, {"fusion_lat": 0.0, "name": "022a25050a19641a7d6d53b3f095c5eb", "is_disabled": 0, "rental_uris": {"android": "https://dc.lft.to/lastmile_qr_scan", "ios": "https://dc.lft.to/lastmile_qr_scan"}, "fusion_lon": 0.0, "lat": 38.92319966666667, "bike_id": "022a25050a19641a7d6d53b3f095c5eb", "type": "electric_scooter", "is_reserved": 0, "lon": -77.0403445}, {"fusion_lat": 0.0, "name": "33e910829b92592f6ba939d63d85c09c", "is_disabled": 0, "rental_uris": {"android": "https://dc.lft.to/lastmile_qr_scan", "ios": "https://dc.lft.to/lastmile_qr_scan"}, "fusion_lon": 0.0, "lat": 38.917523, "bike_id": "33e910829b92592f6ba939d63d85c09c", "type": "electric_scooter", "is_reserved": 0, "lon": -77.02821683333333}, {"fusion_lat": 0.0, "name": "2c45ba5e68616bbfd420d3df664281ef", "is_disabled": 0, "rental_uris": {"android": "https://dc.lft.to/lastmile_qr_scan", "ios": "https://dc.lft.to/lastmile_qr_scan"}, "fusion_lon": 0.0, "lat": 38.9191745, "bike_id": "2c45ba5e68616bbfd420d3df664281ef", "type": "electric_scooter", "is_reserved": 0, "lon": -77.0273725}, {"fusion_lat": 0.0, "name": "e65bb536b0735e11c3c4c196d4d2834b", "is_disabled": 0, "rental_uris": {"android": "https://dc.lft.to/lastmile_qr_scan", "ios": "https://dc.lft.to/lastmile_qr_scan"}, "fusion_lon": 0.0, "lat": 38.93357816666666, "bike_id": "e65bb536b0735e11c3c4c196d4d2834b", "type": "electric_scooter", "is_reserved": 0, "lon": -77.03419583333333}, {"fusion_lat": 0.0, "name": "bcd3c965647a0fec21a67c602ebc5bb1", "is_disabled": 0, "rental_uris": {"android": "https://dc.lft.to/lastmile_qr_scan", "ios": "https://dc.lft.to/lastmile_qr_scan"}, "fusion_lon": 0.0, "lat": 38.91707733333333, "bike_id": "bcd3c965647a0fec21a67c602ebc5bb1", "type": "electric_scooter", "is_reserved": 0, "lon": -77.03864366666667}, {"fusion_lat": 0.0, "name": "e547c43eb19ec9a9f634a4b6749c8cc2", "is_disabled": 0, "rental_uris": {"android": "https://dc.lft.to/lastmile_qr_scan", "ios": "https://dc.lft.to/lastmile_qr_scan"}, "fusion_lon": 0.0, "lat": 38.8748585, "bike_id": "e547c43eb19ec9a9f634a4b6749c8cc2", "type": "electric_scooter", "is_reserved": 0, "lon": -77.00608933333334}, {"fusion_lat": 0.0, "name": "6f0a065957d7d12b64d9e5d23aa56fca", "is_disabled": 0, "rental_uris": {"android": "https://dc.lft.to/lastmile_qr_scan", "ios": "https://dc.lft.to/lastmile_qr_scan"}, "fusion_lon": 0.0, "lat": 39.03426783333333, "bike_id": "6f0a065957d7d12b64d9e5d23aa56fca", "type": "electric_bike", "is_reserved": 0, "lon": -77.04303266666666}, {"fusion_lat": 0.0, "name": "1063da970f629c814a5bad2a5910d2c0", "is_disabled": 0, "rental_uris": {"android": "https://dc.lft.to/lastmile_qr_scan", "ios": "https://dc.lft.to/lastmile_qr_scan"}, "fusion_lon": 0.0, "lat": 38.900180166666665, "bike_id": "1063da970f629c814a5bad2a5910d2c0", "type": "electric_scooter", "is_reserved": 0, "lon": -77.01180316666667}, {"fusion_lat": 0.0, "name": "cdb0541c9c33e3b8160825687de5f89c", "is_disabled": 0, "rental_uris": {"android": "https://dc.lft.to/lastmile_qr_scan", "ios": "https://dc.lft.to/lastmile_qr_scan"}, "fusion_lon": 0.0, "lat": 38.921481166666666, "bike_id": "cdb0541c9c33e3b8160825687de5f89c", "type": "electric_scooter", "is_reserved": 0, "lon": -77.03869416666667}, {"fusion_lat": 0.0, "name": "cb608516f9b1ecec80e848793582e276", "is_disabled": 0, "rental_uris": {"android": "https://dc.lft.to/lastmile_qr_scan", "ios": "https://dc.lft.to/lastmile_qr_scan"}, "fusion_lon": 0.0, "lat": 38.919520166666665, "bike_id": "cb608516f9b1ecec80e848793582e276", "type": "electric_scooter", "is_reserved": 0, "lon": -77.02511166666666}, {"fusion_lat": 0.0, "name": "6d971563750ff79b477fe41c05f20b97", "is_disabled": 0, "rental_uris": {"android": "https://dc.lft.to/lastmile_qr_scan", "ios": "https://dc.lft.to/lastmile_qr_scan"}, "fusion_lon": 0.0, "lat": 38.85354733333333, "bike_id": "6d971563750ff79b477fe41c05f20b97", "type": "electric_bike", "is_reserved": 0, "lon": -77.114991}, {"fusion_lat": 0.0, "name": "9332af8e94eac7f3d40e01d922909261", "is_disabled": 0, "rental_uris": {"android": "https://dc.lft.to/lastmile_qr_scan", "ios": "https://dc.lft.to/lastmile_qr_scan"}, "fusion_lon": 0.0, "lat": 38.92328233333333, "bike_id": "9332af8e94eac7f3d40e01d922909261", "type": "electric_scooter", "is_reserved": 0, "lon": -77.043538}, {"fusion_lat": 0.0, "name": "9fb71cc4ba31ccf7b1fcdcd9c9a0a100", "is_disabled": 0, "rental_uris": {"android": "https://dc.lft.to/lastmile_qr_scan", "ios": "https://dc.lft.to/lastmile_qr_scan"}, "fusion_lon": 0.0, "lat": 38.9022495, "bike_id": "9fb71cc4ba31ccf7b1fcdcd9c9a0a100", "type": "electric_scooter", "is_reserved": 0, "lon": -77.032598}, {"fusion_lat": 0.0, "name": "34762df3f771fcc8d9288332f681a6fb", "is_disabled": 0, "rental_uris": {"android": "https://dc.lft.to/lastmile_qr_scan", "ios": "https://dc.lft.to/lastmile_qr_scan"}, "fusion_lon": 0.0, "lat": 38.88728966666667, "bike_id": "34762df3f771fcc8d9288332f681a6fb", "type": "electric_scooter", "is_reserved": 0, "lon": -77.025865}, {"fusion_lat": 0.0, "name": "863a20319b092a5c02686531d52e23de", "is_disabled": 0, "rental_uris": {"android": "https://dc.lft.to/lastmile_qr_scan", "ios": "https://dc.lft.to/lastmile_qr_scan"}, "fusion_lon": 0.0, "lat": 38.86243016666667, "bike_id": "863a20319b092a5c02686531d52e23de", "type": "electric_scooter", "is_reserved": 0, "lon": -76.99497016666666}, {"fusion_lat": 0.0, "name": "0785ebae8024e8752a44cf183b194604", "is_disabled": 0, "rental_uris": {"android": "https://dc.lft.to/lastmile_qr_scan", "ios": "https://dc.lft.to/lastmile_qr_scan"}, "fusion_lon": 0.0, "lat": 38.89769666666667, "bike_id": "0785ebae8024e8752a44cf183b194604", "type": "electric_scooter", "is_reserved": 0, "lon": -76.9845885}, {"fusion_lat": 0.0, "name": "f716b5158fdf717990e96d0a88713503", "is_disabled": 0, "rental_uris": {"android": "https://dc.lft.to/lastmile_qr_scan", "ios": "https://dc.lft.to/lastmile_qr_scan"}, "fusion_lon": 0.0, "lat": 38.873867, "bike_id": "f716b5158fdf717990e96d0a88713503", "type": "electric_scooter", "is_reserved": 0, "lon": -77.00042516666667}, {"fusion_lat": 0.0, "name": "3ca95737e181c681fb526fea1f95e27c", "is_disabled": 0, "rental_uris": {"android": "https://dc.lft.to/lastmile_qr_scan", "ios": "https://dc.lft.to/lastmile_qr_scan"}, "fusion_lon": 0.0, "lat": 38.9216215, "bike_id": "3ca95737e181c681fb526fea1f95e27c", "type": "electric_scooter", "is_reserved": 0, "lon": -77.0343465}, {"fusion_lat": 0.0, "name": "a98fd8e76ff2b0cd29afbf4dfa428802", "is_disabled": 0, "rental_uris": {"android": "https://dc.lft.to/lastmile_qr_scan", "ios": "https://dc.lft.to/lastmile_qr_scan"}, "fusion_lon": 0.0, "lat": 38.943081666666664, "bike_id": "a98fd8e76ff2b0cd29afbf4dfa428802", "type": "electric_scooter", "is_reserved": 0, "lon": -77.06130266666666}, {"fusion_lat": 0.0, "name": "0949e86c370c836e53d985e263921b88", "is_disabled": 0, "rental_uris": {"android": "https://dc.lft.to/lastmile_qr_scan", "ios": "https://dc.lft.to/lastmile_qr_scan"}, "fusion_lon": 0.0, "lat": 38.87746666666666, "bike_id": "0949e86c370c836e53d985e263921b88", "type": "electric_scooter", "is_reserved": 0, "lon": -76.99682216666666}, {"fusion_lat": 0.0, "name": "7b0734b4ecc53228cf6aabf4396e6ec6", "is_disabled": 0, "rental_uris": {"android": "https://dc.lft.to/lastmile_qr_scan", "ios": "https://dc.lft.to/lastmile_qr_scan"}, "fusion_lon": 0.0, "lat": 38.917067833333334, "bike_id": "7b0734b4ecc53228cf6aabf4396e6ec6", "type": "electric_scooter", "is_reserved": 0, "lon": -77.0306}, {"fusion_lat": 0.0, "name": "3f20b03d58a58ede700d1b5867552005", "is_disabled": 0, "rental_uris": {"android": "https://dc.lft.to/lastmile_qr_scan", "ios": "https://dc.lft.to/lastmile_qr_scan"}, "fusion_lon": 0.0, "lat": 38.877667, "bike_id": "3f20b03d58a58ede700d1b5867552005", "type": "electric_scooter", "is_reserved": 0, "lon": -77.00350683333333}, {"fusion_lat": 0.0, "name": "f49b6ce2e6b05a48f650b7c8c0a32283", "is_disabled": 0, "rental_uris": {"android": "https://dc.lft.to/lastmile_qr_scan", "ios": "https://dc.lft.to/lastmile_qr_scan"}, "fusion_lon": 0.0, "lat": 38.881859666666664, "bike_id": "f49b6ce2e6b05a48f650b7c8c0a32283", "type": "electric_scooter", "is_reserved": 0, "lon": -76.9903075}, {"fusion_lat": 0.0, "name": "54711a1ace4a01572b4d07d7349d62f3", "is_disabled": 0, "rental_uris": {"android": "https://dc.lft.to/lastmile_qr_scan", "ios": "https://dc.lft.to/lastmile_qr_scan"}, "fusion_lon": 0.0, "lat": 38.90562516666667, "bike_id": "54711a1ace4a01572b4d07d7349d62f3", "type": "electric_scooter", "is_reserved": 0, "lon": -77.00581783333334}, {"fusion_lat": 0.0, "name": "20b053e8d803b4d8330f8cde8ac26971", "is_disabled": 0, "rental_uris": {"android": "https://dc.lft.to/lastmile_qr_scan", "ios": "https://dc.lft.to/lastmile_qr_scan"}, "fusion_lon": 0.0, "lat": 38.85608933333334, "bike_id": "20b053e8d803b4d8330f8cde8ac26971", "type": "electric_bike", "is_reserved": 0, "lon": -77.10795483333334}, {"fusion_lat": 0.0, "name": "601b3ef8d4adbb1e9ce045a3628aa4b4", "is_disabled": 0, "rental_uris": {"android": "https://dc.lft.to/lastmile_qr_scan", "ios": "https://dc.lft.to/lastmile_qr_scan"}, "fusion_lon": 0.0, "lat": 38.912121166666665, "bike_id": "601b3ef8d4adbb1e9ce045a3628aa4b4", "type": "electric_scooter", "is_reserved": 0, "lon": -77.01977166666667}, {"fusion_lat": 0.0, "name": "9f938c6d96cf0f085799b7f330aed4a5", "is_disabled": 0, "rental_uris": {"android": "https://dc.lft.to/lastmile_qr_scan", "ios": "https://dc.lft.to/lastmile_qr_scan"}, "fusion_lon": 0.0, "lat": 38.895785000000004, "bike_id": "9f938c6d96cf0f085799b7f330aed4a5", "type": "electric_scooter", "is_reserved": 0, "lon": -77.02160683333334}, {"fusion_lat": 0.0, "name": "bc8726b273f24e8df32c1bed9b8c99f8", "is_disabled": 0, "rental_uris": {"android": "https://dc.lft.to/lastmile_qr_scan", "ios": "https://dc.lft.to/lastmile_qr_scan"}, "fusion_lon": 0.0, "lat": 38.899178166666665, "bike_id": "bc8726b273f24e8df32c1bed9b8c99f8", "type": "electric_scooter", "is_reserved": 0, "lon": -77.05125183333334}, {"fusion_lat": 0.0, "name": "dd035cdf7696ba69398629c5f03ed05a", "is_disabled": 0, "rental_uris": {"android": "https://dc.lft.to/lastmile_qr_scan", "ios": "https://dc.lft.to/lastmile_qr_scan"}, "fusion_lon": 0.0, "lat": 38.91467383333333, "bike_id": "dd035cdf7696ba69398629c5f03ed05a", "type": "electric_scooter", "is_reserved": 0, "lon": -77.01554633333333}, {"fusion_lat": 0.0, "name": "06bcfba9c67f0721d185eb77abb3acdd", "is_disabled": 0, "rental_uris": {"android": "https://dc.lft.to/lastmile_qr_scan", "ios": "https://dc.lft.to/lastmile_qr_scan"}, "fusion_lon": 0.0, "lat": 38.905507, "bike_id": "06bcfba9c67f0721d185eb77abb3acdd", "type": "electric_scooter", "is_reserved": 0, "lon": -77.04666216666666}, {"fusion_lat": 0.0, "name": "924d6e19dff7d02a0f9deb08c5ec10c6", "is_disabled": 0, "rental_uris": {"android": "https://dc.lft.to/lastmile_qr_scan", "ios": "https://dc.lft.to/lastmile_qr_scan"}, "fusion_lon": 0.0, "lat": 38.9004265, "bike_id": "924d6e19dff7d02a0f9deb08c5ec10c6", "type": "electric_scooter", "is_reserved": 0, "lon": -77.0295675}, {"fusion_lat": 0.0, "name": "7d434d5a93de0c772992c23af9e7505d", "is_disabled": 0, "rental_uris": {"android": "https://dc.lft.to/lastmile_qr_scan", "ios": "https://dc.lft.to/lastmile_qr_scan"}, "fusion_lon": 0.0, "lat": 38.91226266666666, "bike_id": "7d434d5a93de0c772992c23af9e7505d", "type": "electric_scooter", "is_reserved": 0, "lon": -77.04776666666666}, {"fusion_lat": 0.0, "name": "9b7f23714b3baafbdfda1631607c69e8", "is_disabled": 0, "rental_uris": {"android": "https://dc.lft.to/lastmile_qr_scan", "ios": "https://dc.lft.to/lastmile_qr_scan"}, "fusion_lon": 0.0, "lat": 38.928612666666666, "bike_id": "9b7f23714b3baafbdfda1631607c69e8", "type": "electric_scooter", "is_reserved": 0, "lon": -77.03306366666666}, {"fusion_lat": 0.0, "name": "0756fa01dfc1b0d4308858bbd36fb33d", "is_disabled": 0, "rental_uris": {"android": "https://dc.lft.to/lastmile_qr_scan", "ios": "https://dc.lft.to/lastmile_qr_scan"}, "fusion_lon": 0.0, "lat": 38.8996355, "bike_id": "0756fa01dfc1b0d4308858bbd36fb33d", "type": "electric_scooter", "is_reserved": 0, "lon": -77.01600816666667}, {"fusion_lat": 0.0, "name": "4280d8211a65a4474b6b6219d6af6819", "is_disabled": 0, "rental_uris": {"android": "https://dc.lft.to/lastmile_qr_scan", "ios": "https://dc.lft.to/lastmile_qr_scan"}, "fusion_lon": 0.0, "lat": 38.91792133333333, "bike_id": "4280d8211a65a4474b6b6219d6af6819", "type": "electric_scooter", "is_reserved": 0, "lon": -77.0344165}, {"fusion_lat": 0.0, "name": "4f4385f27082d987ccf09865cdfa8ca6", "is_disabled": 0, "rental_uris": {"android": "https://dc.lft.to/lastmile_qr_scan", "ios": "https://dc.lft.to/lastmile_qr_scan"}, "fusion_lon": 0.0, "lat": 38.922309, "bike_id": "4f4385f27082d987ccf09865cdfa8ca6", "type": "electric_scooter", "is_reserved": 0, "lon": -77.029817}, {"fusion_lat": 0.0, "name": "8facd3b43790716acf2bee3e939ba624", "is_disabled": 0, "rental_uris": {"android": "https://dc.lft.to/lastmile_qr_scan", "ios": "https://dc.lft.to/lastmile_qr_scan"}, "fusion_lon": 0.0, "lat": 38.916922, "bike_id": "8facd3b43790716acf2bee3e939ba624", "type": "electric_scooter", "is_reserved": 0, "lon": -77.022893}, {"fusion_lat": 0.0, "name": "7d9fcb1d57d3e8d076c1fedf1ee14f09", "is_disabled": 0, "rental_uris": {"android": "https://dc.lft.to/lastmile_qr_scan", "ios": "https://dc.lft.to/lastmile_qr_scan"}, "fusion_lon": 0.0, "lat": 38.842764833333334, "bike_id": "7d9fcb1d57d3e8d076c1fedf1ee14f09", "type": "electric_bike", "is_reserved": 0, "lon": -76.98846816666666}, {"fusion_lat": 0.0, "name": "3a0512698d1da335bb764c2714a1278c", "is_disabled": 0, "rental_uris": {"android": "https://dc.lft.to/lastmile_qr_scan", "ios": "https://dc.lft.to/lastmile_qr_scan"}, "fusion_lon": 0.0, "lat": 38.914082666666665, "bike_id": "3a0512698d1da335bb764c2714a1278c", "type": "electric_scooter", "is_reserved": 0, "lon": -77.01072083333334}, {"fusion_lat": 0.0, "name": "3ef58095abc5813f3a185b54c379fd79", "is_disabled": 0, "rental_uris": {"android": "https://dc.lft.to/lastmile_qr_scan", "ios": "https://dc.lft.to/lastmile_qr_scan"}, "fusion_lon": 0.0, "lat": 38.887207333333336, "bike_id": "3ef58095abc5813f3a185b54c379fd79", "type": "electric_scooter", "is_reserved": 0, "lon": -77.031596}, {"fusion_lat": 0.0, "name": "ff5786a2f91597e5b0296b7395091c96", "is_disabled": 0, "rental_uris": {"android": "https://dc.lft.to/lastmile_qr_scan", "ios": "https://dc.lft.to/lastmile_qr_scan"}, "fusion_lon": 0.0, "lat": 38.921572166666664, "bike_id": "ff5786a2f91597e5b0296b7395091c96", "type": "electric_scooter", "is_reserved": 0, "lon": -77.03356583333333}, {"fusion_lat": 0.0, "name": "98d31b6d3bf5fa58d0f19f85a3400110", "is_disabled": 0, "rental_uris": {"android": "https://dc.lft.to/lastmile_qr_scan", "ios": "https://dc.lft.to/lastmile_qr_scan"}, "fusion_lon": 0.0, "lat": 38.92036, "bike_id": "98d31b6d3bf5fa58d0f19f85a3400110", "type": "electric_scooter", "is_reserved": 0, "lon": -77.0175475}, {"fusion_lat": 0.0, "name": "ddfdb9d5098c6d75280428893e0bb74a", "is_disabled": 0, "rental_uris": {"android": "https://dc.lft.to/lastmile_qr_scan", "ios": "https://dc.lft.to/lastmile_qr_scan"}, "fusion_lon": 0.0, "lat": 38.9237835, "bike_id": "ddfdb9d5098c6d75280428893e0bb74a", "type": "electric_scooter", "is_reserved": 0, "lon": -77.04109633333333}, {"fusion_lat": 0.0, "name": "e19dbd91439beeba5462255c27e1f4d1", "is_disabled": 0, "rental_uris": {"android": "https://dc.lft.to/lastmile_qr_scan", "ios": "https://dc.lft.to/lastmile_qr_scan"}, "fusion_lon": 0.0, "lat": 38.915513, "bike_id": "e19dbd91439beeba5462255c27e1f4d1", "type": "electric_scooter", "is_reserved": 0, "lon": -77.00366433333333}, {"fusion_lat": 0.0, "name": "3b89dd26fb3dfc82fd4f5b32bababb98", "is_disabled": 0, "rental_uris": {"android": "https://dc.lft.to/lastmile_qr_scan", "ios": "https://dc.lft.to/lastmile_qr_scan"}, "fusion_lon": 0.0, "lat": 38.86389966666667, "bike_id": "3b89dd26fb3dfc82fd4f5b32bababb98", "type": "electric_bike", "is_reserved": 0, "lon": -76.98998833333333}, {"fusion_lat": 0.0, "name": "f64f4c4d0768aa3ec74f377132e47685", "is_disabled": 0, "rental_uris": {"android": "https://dc.lft.to/lastmile_qr_scan", "ios": "https://dc.lft.to/lastmile_qr_scan"}, "fusion_lon": 0.0, "lat": 38.91997416666667, "bike_id": "f64f4c4d0768aa3ec74f377132e47685", "type": "electric_scooter", "is_reserved": 0, "lon": -77.0328275}, {"fusion_lat": 0.0, "name": "434fca2a4b52a669c3d5cb8d5ef20331", "is_disabled": 0, "rental_uris": {"android": "https://dc.lft.to/lastmile_qr_scan", "ios": "https://dc.lft.to/lastmile_qr_scan"}, "fusion_lon": 0.0, "lat": 38.88726116666667, "bike_id": "434fca2a4b52a669c3d5cb8d5ef20331", "type": "electric_scooter", "is_reserved": 0, "lon": -77.0176515}, {"fusion_lat": 0.0, "name": "855fd1d120a6fe8613086a18f7751352", "is_disabled": 0, "rental_uris": {"android": "https://dc.lft.to/lastmile_qr_scan", "ios": "https://dc.lft.to/lastmile_qr_scan"}, "fusion_lon": 0.0, "lat": 38.90959316666667, "bike_id": "855fd1d120a6fe8613086a18f7751352", "type": "electric_scooter", "is_reserved": 0, "lon": -77.03950766666667}, {"fusion_lat": 0.0, "name": "79d2bd64b0d299cc31e2f52b50c8e2b3", "is_disabled": 0, "rental_uris": {"android": "https://dc.lft.to/lastmile_qr_scan", "ios": "https://dc.lft.to/lastmile_qr_scan"}, "fusion_lon": 0.0, "lat": 38.9047915, "bike_id": "79d2bd64b0d299cc31e2f52b50c8e2b3", "type": "electric_scooter", "is_reserved": 0, "lon": -77.04873283333333}, {"fusion_lat": 0.0, "name": "febb431630b0b0cafb58921450233dbb", "is_disabled": 0, "rental_uris": {"android": "https://dc.lft.to/lastmile_qr_scan", "ios": "https://dc.lft.to/lastmile_qr_scan"}, "fusion_lon": 0.0, "lat": 38.903794500000004, "bike_id": "febb431630b0b0cafb58921450233dbb", "type": "electric_scooter", "is_reserved": 0, "lon": -77.0382725}, {"fusion_lat": 0.0, "name": "7686aaf5833863839bc4ebf49784a566", "is_disabled": 0, "rental_uris": {"android": "https://dc.lft.to/lastmile_qr_scan", "ios": "https://dc.lft.to/lastmile_qr_scan"}, "fusion_lon": 0.0, "lat": 38.91104883333333, "bike_id": "7686aaf5833863839bc4ebf49784a566", "type": "electric_scooter", "is_reserved": 0, "lon": -77.00215483333334}, {"fusion_lat": 0.0, "name": "4c2340787d2daf8674b06b9ff917fda1", "is_disabled": 0, "rental_uris": {"android": "https://dc.lft.to/lastmile_qr_scan", "ios": "https://dc.lft.to/lastmile_qr_scan"}, "fusion_lon": 0.0, "lat": 38.9004205, "bike_id": "4c2340787d2daf8674b06b9ff917fda1", "type": "electric_scooter", "is_reserved": 0, "lon": -77.00205333333334}, {"fusion_lat": 0.0, "name": "13e4a2e6e661591989718e3859c636b4", "is_disabled": 0, "rental_uris": {"android": "https://dc.lft.to/lastmile_qr_scan", "ios": "https://dc.lft.to/lastmile_qr_scan"}, "fusion_lon": 0.0, "lat": 38.90784583333333, "bike_id": "13e4a2e6e661591989718e3859c636b4", "type": "electric_scooter", "is_reserved": 0, "lon": -77.03521766666667}, {"fusion_lat": 0.0, "name": "9b38eb588aa6f135e80f75e19c549be6", "is_disabled": 0, "rental_uris": {"android": "https://dc.lft.to/lastmile_qr_scan", "ios": "https://dc.lft.to/lastmile_qr_scan"}, "fusion_lon": 0.0, "lat": 38.889921666666666, "bike_id": "9b38eb588aa6f135e80f75e19c549be6", "type": "electric_bike", "is_reserved": 0, "lon": -77.071303}, {"fusion_lat": 0.0, "name": "7d9a7b0721f74d8a450596487287a70b", "is_disabled": 0, "rental_uris": {"android": "https://dc.lft.to/lastmile_qr_scan", "ios": "https://dc.lft.to/lastmile_qr_scan"}, "fusion_lon": 0.0, "lat": 38.90479333333333, "bike_id": "7d9a7b0721f74d8a450596487287a70b", "type": "electric_scooter", "is_reserved": 0, "lon": -77.02604616666666}, {"fusion_lat": 0.0, "name": "44f2ce18f0ba1e173d44151e4faa3d3a", "is_disabled": 0, "rental_uris": {"android": "https://dc.lft.to/lastmile_qr_scan", "ios": "https://dc.lft.to/lastmile_qr_scan"}, "fusion_lon": 0.0, "lat": 38.911083833333336, "bike_id": "44f2ce18f0ba1e173d44151e4faa3d3a", "type": "electric_bike", "is_reserved": 0, "lon": -77.0027815}, {"fusion_lat": 0.0, "name": "abca27e9822a68e0ed1d8fd871d8ac98", "is_disabled": 0, "rental_uris": {"android": "https://dc.lft.to/lastmile_qr_scan", "ios": "https://dc.lft.to/lastmile_qr_scan"}, "fusion_lon": 0.0, "lat": 38.917289833333335, "bike_id": "abca27e9822a68e0ed1d8fd871d8ac98", "type": "electric_scooter", "is_reserved": 0, "lon": -77.027037}, {"fusion_lat": 0.0, "name": "34684e47361e9890eee87414e222eedc", "is_disabled": 0, "rental_uris": {"android": "https://dc.lft.to/lastmile_qr_scan", "ios": "https://dc.lft.to/lastmile_qr_scan"}, "fusion_lon": 0.0, "lat": 38.909160166666666, "bike_id": "34684e47361e9890eee87414e222eedc", "type": "electric_scooter", "is_reserved": 0, "lon": -77.04218416666667}, {"fusion_lat": 0.0, "name": "cded8061115b366674feeb17785598b1", "is_disabled": 0, "rental_uris": {"android": "https://dc.lft.to/lastmile_qr_scan", "ios": "https://dc.lft.to/lastmile_qr_scan"}, "fusion_lon": 0.0, "lat": 38.93561666666667, "bike_id": "cded8061115b366674feeb17785598b1", "type": "electric_bike", "is_reserved": 0, "lon": -77.036935}, {"fusion_lat": 0.0, "name": "319c5f901c0d2b7cb0d39da8551ab44f", "is_disabled": 0, "rental_uris": {"android": "https://dc.lft.to/lastmile_qr_scan", "ios": "https://dc.lft.to/lastmile_qr_scan"}, "fusion_lon": 0.0, "lat": 38.93831633333333, "bike_id": "319c5f901c0d2b7cb0d39da8551ab44f", "type": "electric_scooter", "is_reserved": 0, "lon": -76.99193566666666}, {"fusion_lat": 0.0, "name": "9f36b5f0dd595e617b6fec10acc267c7", "is_disabled": 0, "rental_uris": {"android": "https://dc.lft.to/lastmile_qr_scan", "ios": "https://dc.lft.to/lastmile_qr_scan"}, "fusion_lon": 0.0, "lat": 38.9067795, "bike_id": "9f36b5f0dd595e617b6fec10acc267c7", "type": "electric_bike", "is_reserved": 0, "lon": -77.0364615}, {"fusion_lat": 0.0, "name": "4e30d6e4a89fac33a2fb7c0334fac13f", "is_disabled": 0, "rental_uris": {"android": "https://dc.lft.to/lastmile_qr_scan", "ios": "https://dc.lft.to/lastmile_qr_scan"}, "fusion_lon": 0.0, "lat": 38.9092445, "bike_id": "4e30d6e4a89fac33a2fb7c0334fac13f", "type": "electric_scooter", "is_reserved": 0, "lon": -76.9996625}, {"fusion_lat": 0.0, "name": "4a35be764f517b9db84de789ce6c1076", "is_disabled": 0, "rental_uris": {"android": "https://dc.lft.to/lastmile_qr_scan", "ios": "https://dc.lft.to/lastmile_qr_scan"}, "fusion_lon": 0.0, "lat": 38.866621, "bike_id": "4a35be764f517b9db84de789ce6c1076", "type": "electric_scooter", "is_reserved": 0, "lon": -76.9889845}, {"fusion_lat": 0.0, "name": "1cbfb622cd8b823d6d52fc4bc2157d6c", "is_disabled": 0, "rental_uris": {"android": "https://dc.lft.to/lastmile_qr_scan", "ios": "https://dc.lft.to/lastmile_qr_scan"}, "fusion_lon": 0.0, "lat": 38.9039445, "bike_id": "1cbfb622cd8b823d6d52fc4bc2157d6c", "type": "electric_scooter", "is_reserved": 0, "lon": -77.04885716666666}, {"fusion_lat": 0.0, "name": "e48b04c5633901ec0ed2b532aac68595", "is_disabled": 0, "rental_uris": {"android": "https://dc.lft.to/lastmile_qr_scan", "ios": "https://dc.lft.to/lastmile_qr_scan"}, "fusion_lon": 0.0, "lat": 38.886560333333335, "bike_id": "e48b04c5633901ec0ed2b532aac68595", "type": "electric_scooter", "is_reserved": 0, "lon": -77.00201066666666}, {"fusion_lat": 0.0, "name": "d81eed32dd7f624e5ee428d8f9590cee", "is_disabled": 0, "rental_uris": {"android": "https://dc.lft.to/lastmile_qr_scan", "ios": "https://dc.lft.to/lastmile_qr_scan"}, "fusion_lon": 0.0, "lat": 38.90074, "bike_id": "d81eed32dd7f624e5ee428d8f9590cee", "type": "electric_scooter", "is_reserved": 0, "lon": -77.04933066666666}, {"fusion_lat": 0.0, "name": "1209490968cc409acc91e220dfc787a0", "is_disabled": 0, "rental_uris": {"android": "https://dc.lft.to/lastmile_qr_scan", "ios": "https://dc.lft.to/lastmile_qr_scan"}, "fusion_lon": 0.0, "lat": 38.94827183333334, "bike_id": "1209490968cc409acc91e220dfc787a0", "type": "electric_scooter", "is_reserved": 0, "lon": -77.02491283333333}, {"fusion_lat": 0.0, "name": "2e8a6292a3fb6724c25034b7bca1accd", "is_disabled": 0, "rental_uris": {"android": "https://dc.lft.to/lastmile_qr_scan", "ios": "https://dc.lft.to/lastmile_qr_scan"}, "fusion_lon": 0.0, "lat": 38.92075066666666, "bike_id": "2e8a6292a3fb6724c25034b7bca1accd", "type": "electric_scooter", "is_reserved": 0, "lon": -77.02320333333333}, {"fusion_lat": 0.0, "name": "845b9d32a4f2ef5c1e9dc6f2d49f79be", "is_disabled": 0, "rental_uris": {"android": "https://dc.lft.to/lastmile_qr_scan", "ios": "https://dc.lft.to/lastmile_qr_scan"}, "fusion_lon": 0.0, "lat": 38.9263445, "bike_id": "845b9d32a4f2ef5c1e9dc6f2d49f79be", "type": "electric_scooter", "is_reserved": 0, "lon": -77.03395633333334}, {"fusion_lat": 0.0, "name": "b6210a258dcd48f2763920aea440da77", "is_disabled": 0, "rental_uris": {"android": "https://dc.lft.to/lastmile_qr_scan", "ios": "https://dc.lft.to/lastmile_qr_scan"}, "fusion_lon": 0.0, "lat": 38.918433, "bike_id": "b6210a258dcd48f2763920aea440da77", "type": "electric_scooter", "is_reserved": 0, "lon": -77.0244745}, {"fusion_lat": 0.0, "name": "fce778ac1ba3625bdd2d3110d3482802", "is_disabled": 0, "rental_uris": {"android": "https://dc.lft.to/lastmile_qr_scan", "ios": "https://dc.lft.to/lastmile_qr_scan"}, "fusion_lon": 0.0, "lat": 38.9171815, "bike_id": "fce778ac1ba3625bdd2d3110d3482802", "type": "electric_scooter", "is_reserved": 0, "lon": -77.024087}, {"fusion_lat": 0.0, "name": "640d6a5279aef3751abaa338abb41f89", "is_disabled": 0, "rental_uris": {"android": "https://dc.lft.to/lastmile_qr_scan", "ios": "https://dc.lft.to/lastmile_qr_scan"}, "fusion_lon": 0.0, "lat": 38.873832666666665, "bike_id": "640d6a5279aef3751abaa338abb41f89", "type": "electric_scooter", "is_reserved": 0, "lon": -77.000683}, {"fusion_lat": 0.0, "name": "35872a5fa46f7b80c44ec3f162b6284d", "is_disabled": 0, "rental_uris": {"android": "https://dc.lft.to/lastmile_qr_scan", "ios": "https://dc.lft.to/lastmile_qr_scan"}, "fusion_lon": 0.0, "lat": 38.91346166666666, "bike_id": "35872a5fa46f7b80c44ec3f162b6284d", "type": "electric_bike", "is_reserved": 0, "lon": -76.98898283333334}, {"fusion_lat": 0.0, "name": "5597d27d6f187a9a3455a175e58a4e6b", "is_disabled": 0, "rental_uris": {"android": "https://dc.lft.to/lastmile_qr_scan", "ios": "https://dc.lft.to/lastmile_qr_scan"}, "fusion_lon": 0.0, "lat": 38.942543666666666, "bike_id": "5597d27d6f187a9a3455a175e58a4e6b", "type": "electric_scooter", "is_reserved": 0, "lon": -77.03626333333334}, {"fusion_lat": 0.0, "name": "541063b9697fdfbba65431abd8fd52b6", "is_disabled": 0, "rental_uris": {"android": "https://dc.lft.to/lastmile_qr_scan", "ios": "https://dc.lft.to/lastmile_qr_scan"}, "fusion_lon": 0.0, "lat": 38.9094225, "bike_id": "541063b9697fdfbba65431abd8fd52b6", "type": "electric_scooter", "is_reserved": 0, "lon": -77.03197566666667}, {"fusion_lat": 0.0, "name": "e766ff722f7828bf6979028da113fcf0", "is_disabled": 0, "rental_uris": {"android": "https://dc.lft.to/lastmile_qr_scan", "ios": "https://dc.lft.to/lastmile_qr_scan"}, "fusion_lon": 0.0, "lat": 38.92029733333333, "bike_id": "e766ff722f7828bf6979028da113fcf0", "type": "electric_scooter", "is_reserved": 0, "lon": -77.07145966666667}, {"fusion_lat": 0.0, "name": "a34b845882a4304bc764c1c80f8cd8b7", "is_disabled": 0, "rental_uris": {"android": "https://dc.lft.to/lastmile_qr_scan", "ios": "https://dc.lft.to/lastmile_qr_scan"}, "fusion_lon": 0.0, "lat": 38.901380333333336, "bike_id": "a34b845882a4304bc764c1c80f8cd8b7", "type": "electric_scooter", "is_reserved": 0, "lon": -76.99120733333334}, {"fusion_lat": 0.0, "name": "a3e8e0142eabbcd9809aea009271e6f0", "is_disabled": 0, "rental_uris": {"android": "https://dc.lft.to/lastmile_qr_scan", "ios": "https://dc.lft.to/lastmile_qr_scan"}, "fusion_lon": 0.0, "lat": 38.8877165, "bike_id": "a3e8e0142eabbcd9809aea009271e6f0", "type": "electric_scooter", "is_reserved": 0, "lon": -77.02950633333333}, {"fusion_lat": 0.0, "name": "994e0cdb531392481163f7f7d22b8d40", "is_disabled": 0, "rental_uris": {"android": "https://dc.lft.to/lastmile_qr_scan", "ios": "https://dc.lft.to/lastmile_qr_scan"}, "fusion_lon": 0.0, "lat": 38.9073875, "bike_id": "994e0cdb531392481163f7f7d22b8d40", "type": "electric_scooter", "is_reserved": 0, "lon": -77.02949866666667}, {"fusion_lat": 0.0, "name": "9366f01b83652769fb7818c73ccb2101", "is_disabled": 0, "rental_uris": {"android": "https://dc.lft.to/lastmile_qr_scan", "ios": "https://dc.lft.to/lastmile_qr_scan"}, "fusion_lon": 0.0, "lat": 38.9168985, "bike_id": "9366f01b83652769fb7818c73ccb2101", "type": "electric_scooter", "is_reserved": 0, "lon": -77.02950633333333}, {"fusion_lat": 0.0, "name": "03a203ef0357e3c48708cd6800f22f4f", "is_disabled": 0, "rental_uris": {"android": "https://dc.lft.to/lastmile_qr_scan", "ios": "https://dc.lft.to/lastmile_qr_scan"}, "fusion_lon": 0.0, "lat": 38.948691833333335, "bike_id": "03a203ef0357e3c48708cd6800f22f4f", "type": "electric_scooter", "is_reserved": 0, "lon": -77.02576566666667}, {"fusion_lat": 0.0, "name": "8bfe391b1da980ae7505c439898d3891", "is_disabled": 0, "rental_uris": {"android": "https://dc.lft.to/lastmile_qr_scan", "ios": "https://dc.lft.to/lastmile_qr_scan"}, "fusion_lon": 0.0, "lat": 38.961850166666665, "bike_id": "8bfe391b1da980ae7505c439898d3891", "type": "electric_bike", "is_reserved": 0, "lon": -77.07376716666667}, {"fusion_lat": 0.0, "name": "e24477894bd40a8b635a458925a4aad2", "is_disabled": 0, "rental_uris": {"android": "https://dc.lft.to/lastmile_qr_scan", "ios": "https://dc.lft.to/lastmile_qr_scan"}, "fusion_lon": 0.0, "lat": 38.90391266666666, "bike_id": "e24477894bd40a8b635a458925a4aad2", "type": "electric_scooter", "is_reserved": 0, "lon": -77.06012966666667}, {"fusion_lat": 0.0, "name": "25d3cee0fee4bbb5419c67a3c857154a", "is_disabled": 0, "rental_uris": {"android": "https://dc.lft.to/lastmile_qr_scan", "ios": "https://dc.lft.to/lastmile_qr_scan"}, "fusion_lon": 0.0, "lat": 38.912772, "bike_id": "25d3cee0fee4bbb5419c67a3c857154a", "type": "electric_scooter", "is_reserved": 0, "lon": -77.04501933333333}, {"fusion_lat": 0.0, "name": "27d08baa7776f24b25da5aa3105b515d", "is_disabled": 0, "rental_uris": {"android": "https://dc.lft.to/lastmile_qr_scan", "ios": "https://dc.lft.to/lastmile_qr_scan"}, "fusion_lon": 0.0, "lat": 38.9307925, "bike_id": "27d08baa7776f24b25da5aa3105b515d", "type": "electric_scooter", "is_reserved": 0, "lon": -77.02796}, {"fusion_lat": 0.0, "name": "4d9516239a668765b7da0c225e557707", "is_disabled": 0, "rental_uris": {"android": "https://dc.lft.to/lastmile_qr_scan", "ios": "https://dc.lft.to/lastmile_qr_scan"}, "fusion_lon": 0.0, "lat": 38.887476666666664, "bike_id": "4d9516239a668765b7da0c225e557707", "type": "electric_scooter", "is_reserved": 0, "lon": -77.021341}, {"fusion_lat": 0.0, "name": "db88cd429bb757cb8c058e9c82387847", "is_disabled": 0, "rental_uris": {"android": "https://dc.lft.to/lastmile_qr_scan", "ios": "https://dc.lft.to/lastmile_qr_scan"}, "fusion_lon": 0.0, "lat": 38.90031533333333, "bike_id": "db88cd429bb757cb8c058e9c82387847", "type": "electric_scooter", "is_reserved": 0, "lon": -77.00202833333333}, {"fusion_lat": 0.0, "name": "f6da0fab31e4fd16fde51eb3d86e34eb", "is_disabled": 0, "rental_uris": {"android": "https://dc.lft.to/lastmile_qr_scan", "ios": "https://dc.lft.to/lastmile_qr_scan"}, "fusion_lon": 0.0, "lat": 38.9238905, "bike_id": "f6da0fab31e4fd16fde51eb3d86e34eb", "type": "electric_scooter", "is_reserved": 0, "lon": -77.02165083333334}, {"fusion_lat": 0.0, "name": "dc7d0b88aa6dba707e8a858ce1abc522", "is_disabled": 0, "rental_uris": {"android": "https://dc.lft.to/lastmile_qr_scan", "ios": "https://dc.lft.to/lastmile_qr_scan"}, "fusion_lon": 0.0, "lat": 38.902742, "bike_id": "dc7d0b88aa6dba707e8a858ce1abc522", "type": "electric_scooter", "is_reserved": 0, "lon": -76.92900616666667}, {"fusion_lat": 0.0, "name": "41b6e783c8af65085492fa0f594e3901", "is_disabled": 0, "rental_uris": {"android": "https://dc.lft.to/lastmile_qr_scan", "ios": "https://dc.lft.to/lastmile_qr_scan"}, "fusion_lon": 0.0, "lat": 38.89226266666667, "bike_id": "41b6e783c8af65085492fa0f594e3901", "type": "electric_scooter", "is_reserved": 0, "lon": -77.0464645}, {"fusion_lat": 0.0, "name": "61aea496b2ae68796cc0f2c104a91563", "is_disabled": 0, "rental_uris": {"android": "https://dc.lft.to/lastmile_qr_scan", "ios": "https://dc.lft.to/lastmile_qr_scan"}, "fusion_lon": 0.0, "lat": 38.885025666666664, "bike_id": "61aea496b2ae68796cc0f2c104a91563", "type": "electric_scooter", "is_reserved": 0, "lon": -77.02423433333334}, {"fusion_lat": 0.0, "name": "127de226d8a6b71337c3e70f61f29c46", "is_disabled": 0, "rental_uris": {"android": "https://dc.lft.to/lastmile_qr_scan", "ios": "https://dc.lft.to/lastmile_qr_scan"}, "fusion_lon": 0.0, "lat": 38.901916666666665, "bike_id": "127de226d8a6b71337c3e70f61f29c46", "type": "electric_scooter", "is_reserved": 0, "lon": -77.02397266666667}, {"fusion_lat": 0.0, "name": "ebd278c41065889085de78ffc3639f5d", "is_disabled": 0, "rental_uris": {"android": "https://dc.lft.to/lastmile_qr_scan", "ios": "https://dc.lft.to/lastmile_qr_scan"}, "fusion_lon": 0.0, "lat": 38.901239333333336, "bike_id": "ebd278c41065889085de78ffc3639f5d", "type": "electric_scooter", "is_reserved": 0, "lon": -77.00209416666667}, {"fusion_lat": 0.0, "name": "f8feff68ab45cbac3f19f0778174bb81", "is_disabled": 0, "rental_uris": {"android": "https://dc.lft.to/lastmile_qr_scan", "ios": "https://dc.lft.to/lastmile_qr_scan"}, "fusion_lon": 0.0, "lat": 38.919873333333335, "bike_id": "f8feff68ab45cbac3f19f0778174bb81", "type": "electric_scooter", "is_reserved": 0, "lon": -77.021649}, {"fusion_lat": 0.0, "name": "dd7b53f963fcd4df255bec2441c98e9c", "is_disabled": 0, "rental_uris": {"android": "https://dc.lft.to/lastmile_qr_scan", "ios": "https://dc.lft.to/lastmile_qr_scan"}, "fusion_lon": 0.0, "lat": 38.917123333333336, "bike_id": "dd7b53f963fcd4df255bec2441c98e9c", "type": "electric_scooter", "is_reserved": 0, "lon": -76.97658233333334}, {"fusion_lat": 0.0, "name": "cc4cdb15f577fc5289bf4ed01a317a71", "is_disabled": 0, "rental_uris": {"android": "https://dc.lft.to/lastmile_qr_scan", "ios": "https://dc.lft.to/lastmile_qr_scan"}, "fusion_lon": 0.0, "lat": 38.92040933333333, "bike_id": "cc4cdb15f577fc5289bf4ed01a317a71", "type": "electric_scooter", "is_reserved": 0, "lon": -77.025908}, {"fusion_lat": 0.0, "name": "1f76376b15613b1ce0c4202913909f49", "is_disabled": 0, "rental_uris": {"android": "https://dc.lft.to/lastmile_qr_scan", "ios": "https://dc.lft.to/lastmile_qr_scan"}, "fusion_lon": 0.0, "lat": 38.93911883333333, "bike_id": "1f76376b15613b1ce0c4202913909f49", "type": "electric_scooter", "is_reserved": 0, "lon": -77.02480083333333}, {"fusion_lat": 0.0, "name": "40a3549fe6c2ef8672b827f78952e471", "is_disabled": 0, "rental_uris": {"android": "https://dc.lft.to/lastmile_qr_scan", "ios": "https://dc.lft.to/lastmile_qr_scan"}, "fusion_lon": 0.0, "lat": 38.9198525, "bike_id": "40a3549fe6c2ef8672b827f78952e471", "type": "electric_scooter", "is_reserved": 0, "lon": -77.03214716666666}, {"fusion_lat": 0.0, "name": "beaab3de01237992326813a0e53bd270", "is_disabled": 0, "rental_uris": {"android": "https://dc.lft.to/lastmile_qr_scan", "ios": "https://dc.lft.to/lastmile_qr_scan"}, "fusion_lon": 0.0, "lat": 38.91687016666667, "bike_id": "beaab3de01237992326813a0e53bd270", "type": "electric_scooter", "is_reserved": 0, "lon": -77.02953766666667}, {"fusion_lat": 0.0, "name": "a08e8763099000a3261bddf93801bee2", "is_disabled": 0, "rental_uris": {"android": "https://dc.lft.to/lastmile_qr_scan", "ios": "https://dc.lft.to/lastmile_qr_scan"}, "fusion_lon": 0.0, "lat": 38.89583916666667, "bike_id": "a08e8763099000a3261bddf93801bee2", "type": "electric_scooter", "is_reserved": 0, "lon": -76.983086}, {"fusion_lat": 0.0, "name": "596070e833d45b5a9a90fa1cb104329e", "is_disabled": 0, "rental_uris": {"android": "https://dc.lft.to/lastmile_qr_scan", "ios": "https://dc.lft.to/lastmile_qr_scan"}, "fusion_lon": 0.0, "lat": 38.8922735, "bike_id": "596070e833d45b5a9a90fa1cb104329e", "type": "electric_scooter", "is_reserved": 0, "lon": -77.04897683333333}, {"fusion_lat": 0.0, "name": "a53a48e10e03d568876d001b6908666f", "is_disabled": 0, "rental_uris": {"android": "https://dc.lft.to/lastmile_qr_scan", "ios": "https://dc.lft.to/lastmile_qr_scan"}, "fusion_lon": 0.0, "lat": 38.9024345, "bike_id": "a53a48e10e03d568876d001b6908666f", "type": "electric_scooter", "is_reserved": 0, "lon": -77.01978766666667}, {"fusion_lat": 0.0, "name": "fb11de2a37c8e6c51ebf4ea484b14c16", "is_disabled": 0, "rental_uris": {"android": "https://dc.lft.to/lastmile_qr_scan", "ios": "https://dc.lft.to/lastmile_qr_scan"}, "fusion_lon": 0.0, "lat": 38.916898333333336, "bike_id": "fb11de2a37c8e6c51ebf4ea484b14c16", "type": "electric_scooter", "is_reserved": 0, "lon": -77.03761683333333}, {"fusion_lat": 0.0, "name": "de8260a64ee1d596a08350177f9c4649", "is_disabled": 0, "rental_uris": {"android": "https://dc.lft.to/lastmile_qr_scan", "ios": "https://dc.lft.to/lastmile_qr_scan"}, "fusion_lon": 0.0, "lat": 38.923353166666665, "bike_id": "de8260a64ee1d596a08350177f9c4649", "type": "electric_scooter", "is_reserved": 0, "lon": -77.05300066666666}, {"fusion_lat": 0.0, "name": "ae226a3b5802f9b8a88c5ae67d495acd", "is_disabled": 0, "rental_uris": {"android": "https://dc.lft.to/lastmile_qr_scan", "ios": "https://dc.lft.to/lastmile_qr_scan"}, "fusion_lon": 0.0, "lat": 38.906667, "bike_id": "ae226a3b5802f9b8a88c5ae67d495acd", "type": "electric_scooter", "is_reserved": 0, "lon": -77.02704816666666}, {"fusion_lat": 0.0, "name": "ecdbfaf610b088d06044b845b9110fbd", "is_disabled": 0, "rental_uris": {"android": "https://dc.lft.to/lastmile_qr_scan", "ios": "https://dc.lft.to/lastmile_qr_scan"}, "fusion_lon": 0.0, "lat": 38.91854466666667, "bike_id": "ecdbfaf610b088d06044b845b9110fbd", "type": "electric_scooter", "is_reserved": 0, "lon": -77.03202766666666}, {"fusion_lat": 0.0, "name": "c8271c0b58786d312686ed2c04925f4a", "is_disabled": 0, "rental_uris": {"android": "https://dc.lft.to/lastmile_qr_scan", "ios": "https://dc.lft.to/lastmile_qr_scan"}, "fusion_lon": 0.0, "lat": 38.93577633333334, "bike_id": "c8271c0b58786d312686ed2c04925f4a", "type": "electric_scooter", "is_reserved": 0, "lon": -77.02121416666667}, {"fusion_lat": 0.0, "name": "45efbd4097c710b12ccbaf8cb1a8ef77", "is_disabled": 0, "rental_uris": {"android": "https://dc.lft.to/lastmile_qr_scan", "ios": "https://dc.lft.to/lastmile_qr_scan"}, "fusion_lon": 0.0, "lat": 38.921012166666664, "bike_id": "45efbd4097c710b12ccbaf8cb1a8ef77", "type": "electric_scooter", "is_reserved": 0, "lon": -77.02522533333334}, {"fusion_lat": 0.0, "name": "607318b6b455e65fbbd4a5560097a96c", "is_disabled": 0, "rental_uris": {"android": "https://dc.lft.to/lastmile_qr_scan", "ios": "https://dc.lft.to/lastmile_qr_scan"}, "fusion_lon": 0.0, "lat": 38.900177166666666, "bike_id": "607318b6b455e65fbbd4a5560097a96c", "type": "electric_scooter", "is_reserved": 0, "lon": -76.9978215}, {"fusion_lat": 0.0, "name": "ddd77f52176b44c8939afc8a6aa3120c", "is_disabled": 0, "rental_uris": {"android": "https://dc.lft.to/lastmile_qr_scan", "ios": "https://dc.lft.to/lastmile_qr_scan"}, "fusion_lon": 0.0, "lat": 38.924536833333335, "bike_id": "ddd77f52176b44c8939afc8a6aa3120c", "type": "electric_scooter", "is_reserved": 0, "lon": -77.03967583333333}, {"fusion_lat": 0.0, "name": "6decd7ee4eeb661147b276bd41433026", "is_disabled": 0, "rental_uris": {"android": "https://dc.lft.to/lastmile_qr_scan", "ios": "https://dc.lft.to/lastmile_qr_scan"}, "fusion_lon": 0.0, "lat": 38.949633, "bike_id": "6decd7ee4eeb661147b276bd41433026", "type": "electric_scooter", "is_reserved": 0, "lon": -77.06631333333333}, {"fusion_lat": 0.0, "name": "7c75b75bf10a138f8eaebcd3ae0bd876", "is_disabled": 0, "rental_uris": {"android": "https://dc.lft.to/lastmile_qr_scan", "ios": "https://dc.lft.to/lastmile_qr_scan"}, "fusion_lon": 0.0, "lat": 38.90464133333333, "bike_id": "7c75b75bf10a138f8eaebcd3ae0bd876", "type": "electric_scooter", "is_reserved": 0, "lon": -77.02813316666666}, {"fusion_lat": 0.0, "name": "ec49697a6813094a805888ff2cc560b5", "is_disabled": 0, "rental_uris": {"android": "https://dc.lft.to/lastmile_qr_scan", "ios": "https://dc.lft.to/lastmile_qr_scan"}, "fusion_lon": 0.0, "lat": 38.874781, "bike_id": "ec49697a6813094a805888ff2cc560b5", "type": "electric_scooter", "is_reserved": 0, "lon": -77.005902}, {"fusion_lat": 0.0, "name": "1d489058df5d587a800a44f36df08762", "is_disabled": 0, "rental_uris": {"android": "https://dc.lft.to/lastmile_qr_scan", "ios": "https://dc.lft.to/lastmile_qr_scan"}, "fusion_lon": 0.0, "lat": 38.90759366666666, "bike_id": "1d489058df5d587a800a44f36df08762", "type": "electric_scooter", "is_reserved": 0, "lon": -77.00759333333333}, {"fusion_lat": 0.0, "name": "e915bed9369249b25f556c76d7d8db7e", "is_disabled": 0, "rental_uris": {"android": "https://dc.lft.to/lastmile_qr_scan", "ios": "https://dc.lft.to/lastmile_qr_scan"}, "fusion_lon": 0.0, "lat": 38.90217583333333, "bike_id": "e915bed9369249b25f556c76d7d8db7e", "type": "electric_scooter", "is_reserved": 0, "lon": -77.02224316666667}, {"fusion_lat": 0.0, "name": "b768925ba0e754bc3ef4dc442545325b", "is_disabled": 0, "rental_uris": {"android": "https://dc.lft.to/lastmile_qr_scan", "ios": "https://dc.lft.to/lastmile_qr_scan"}, "fusion_lon": 0.0, "lat": 38.902425666666666, "bike_id": "b768925ba0e754bc3ef4dc442545325b", "type": "electric_scooter", "is_reserved": 0, "lon": -77.00534}, {"fusion_lat": 0.0, "name": "e0c5551d8c9496187a2e940233044f0a", "is_disabled": 0, "rental_uris": {"android": "https://dc.lft.to/lastmile_qr_scan", "ios": "https://dc.lft.to/lastmile_qr_scan"}, "fusion_lon": 0.0, "lat": 38.87653, "bike_id": "e0c5551d8c9496187a2e940233044f0a", "type": "electric_scooter", "is_reserved": 0, "lon": -77.00079716666667}, {"fusion_lat": 0.0, "name": "08464c29b21c33d7bf777f3e3dcc8baa", "is_disabled": 0, "rental_uris": {"android": "https://dc.lft.to/lastmile_qr_scan", "ios": "https://dc.lft.to/lastmile_qr_scan"}, "fusion_lon": 0.0, "lat": 38.87944566666667, "bike_id": "08464c29b21c33d7bf777f3e3dcc8baa", "type": "electric_scooter", "is_reserved": 0, "lon": -77.0063405}, {"fusion_lat": 0.0, "name": "5167e1c7edc09f74d8d0926257c2b703", "is_disabled": 0, "rental_uris": {"android": "https://dc.lft.to/lastmile_qr_scan", "ios": "https://dc.lft.to/lastmile_qr_scan"}, "fusion_lon": 0.0, "lat": 38.92532416666667, "bike_id": "5167e1c7edc09f74d8d0926257c2b703", "type": "electric_scooter", "is_reserved": 0, "lon": -77.041141}, {"fusion_lat": 0.0, "name": "d00cd500511393cb244b83d6e0363172", "is_disabled": 0, "rental_uris": {"android": "https://dc.lft.to/lastmile_qr_scan", "ios": "https://dc.lft.to/lastmile_qr_scan"}, "fusion_lon": 0.0, "lat": 38.9187725, "bike_id": "d00cd500511393cb244b83d6e0363172", "type": "electric_scooter", "is_reserved": 0, "lon": -76.96474266666667}, {"fusion_lat": 0.0, "name": "9d72c8d7b319e3f7be27ace467be07e9", "is_disabled": 0, "rental_uris": {"android": "https://dc.lft.to/lastmile_qr_scan", "ios": "https://dc.lft.to/lastmile_qr_scan"}, "fusion_lon": 0.0, "lat": 38.904456333333336, "bike_id": "9d72c8d7b319e3f7be27ace467be07e9", "type": "electric_scooter", "is_reserved": 0, "lon": -77.0485395}, {"fusion_lat": 0.0, "name": "73091c32c4dc4d605859c5bbe31b793a", "is_disabled": 0, "rental_uris": {"android": "https://dc.lft.to/lastmile_qr_scan", "ios": "https://dc.lft.to/lastmile_qr_scan"}, "fusion_lon": 0.0, "lat": 38.91991683333333, "bike_id": "73091c32c4dc4d605859c5bbe31b793a", "type": "electric_scooter", "is_reserved": 0, "lon": -77.02181633333333}, {"fusion_lat": 0.0, "name": "2fb0795db106923f3a7ef8ad8a641681", "is_disabled": 0, "rental_uris": {"android": "https://dc.lft.to/lastmile_qr_scan", "ios": "https://dc.lft.to/lastmile_qr_scan"}, "fusion_lon": 0.0, "lat": 38.9143505, "bike_id": "2fb0795db106923f3a7ef8ad8a641681", "type": "electric_scooter", "is_reserved": 0, "lon": -77.036379}, {"fusion_lat": 0.0, "name": "6d535afdc6653dd5cac995b862ef7f28", "is_disabled": 0, "rental_uris": {"android": "https://dc.lft.to/lastmile_qr_scan", "ios": "https://dc.lft.to/lastmile_qr_scan"}, "fusion_lon": 0.0, "lat": 38.903135166666665, "bike_id": "6d535afdc6653dd5cac995b862ef7f28", "type": "electric_scooter", "is_reserved": 0, "lon": -76.9779925}, {"fusion_lat": 0.0, "name": "5904c6b0d1cd679f37203e591ee0d8ff", "is_disabled": 0, "rental_uris": {"android": "https://dc.lft.to/lastmile_qr_scan", "ios": "https://dc.lft.to/lastmile_qr_scan"}, "fusion_lon": 0.0, "lat": 38.9120835, "bike_id": "5904c6b0d1cd679f37203e591ee0d8ff", "type": "electric_scooter", "is_reserved": 0, "lon": -77.03197333333334}, {"fusion_lat": 0.0, "name": "9958a591a961291b715c92a8faada4ec", "is_disabled": 0, "rental_uris": {"android": "https://dc.lft.to/lastmile_qr_scan", "ios": "https://dc.lft.to/lastmile_qr_scan"}, "fusion_lon": 0.0, "lat": 38.912638333333334, "bike_id": "9958a591a961291b715c92a8faada4ec", "type": "electric_scooter", "is_reserved": 0, "lon": -77.03656716666667}, {"fusion_lat": 0.0, "name": "31e812954b48505fdbcca625c95ed7e9", "is_disabled": 0, "rental_uris": {"android": "https://dc.lft.to/lastmile_qr_scan", "ios": "https://dc.lft.to/lastmile_qr_scan"}, "fusion_lon": 0.0, "lat": 38.916200833333335, "bike_id": "31e812954b48505fdbcca625c95ed7e9", "type": "electric_scooter", "is_reserved": 0, "lon": -77.0317885}, {"fusion_lat": 0.0, "name": "95e5ef36bd34ff2c1cf3d3bcd39a142d", "is_disabled": 0, "rental_uris": {"android": "https://dc.lft.to/lastmile_qr_scan", "ios": "https://dc.lft.to/lastmile_qr_scan"}, "fusion_lon": 0.0, "lat": 38.92922383333333, "bike_id": "95e5ef36bd34ff2c1cf3d3bcd39a142d", "type": "electric_scooter", "is_reserved": 0, "lon": -77.0325565}, {"fusion_lat": 0.0, "name": "d35d17932fa7693b9501a2306889a6a4", "is_disabled": 0, "rental_uris": {"android": "https://dc.lft.to/lastmile_qr_scan", "ios": "https://dc.lft.to/lastmile_qr_scan"}, "fusion_lon": 0.0, "lat": 38.993862, "bike_id": "d35d17932fa7693b9501a2306889a6a4", "type": "electric_bike", "is_reserved": 0, "lon": -76.928886}, {"fusion_lat": 0.0, "name": "b1981db519f5db6ddf52e8ffffd60588", "is_disabled": 0, "rental_uris": {"android": "https://dc.lft.to/lastmile_qr_scan", "ios": "https://dc.lft.to/lastmile_qr_scan"}, "fusion_lon": 0.0, "lat": 38.924808166666665, "bike_id": "b1981db519f5db6ddf52e8ffffd60588", "type": "electric_scooter", "is_reserved": 0, "lon": -77.03534683333334}, {"fusion_lat": 0.0, "name": "9fb4cee08ea68d2d29af9abf0e86deeb", "is_disabled": 0, "rental_uris": {"android": "https://dc.lft.to/lastmile_qr_scan", "ios": "https://dc.lft.to/lastmile_qr_scan"}, "fusion_lon": 0.0, "lat": 38.90129233333333, "bike_id": "9fb4cee08ea68d2d29af9abf0e86deeb", "type": "electric_scooter", "is_reserved": 0, "lon": -77.045018}, {"fusion_lat": 0.0, "name": "3a84352808a44202e3ec2e640a7633bf", "is_disabled": 0, "rental_uris": {"android": "https://dc.lft.to/lastmile_qr_scan", "ios": "https://dc.lft.to/lastmile_qr_scan"}, "fusion_lon": 0.0, "lat": 38.91675883333333, "bike_id": "3a84352808a44202e3ec2e640a7633bf", "type": "electric_scooter", "is_reserved": 0, "lon": -77.027182}, {"fusion_lat": 0.0, "name": "408561c3afad69f0231a8602646e002a", "is_disabled": 0, "rental_uris": {"android": "https://dc.lft.to/lastmile_qr_scan", "ios": "https://dc.lft.to/lastmile_qr_scan"}, "fusion_lon": 0.0, "lat": 38.98820083333333, "bike_id": "408561c3afad69f0231a8602646e002a", "type": "electric_bike", "is_reserved": 0, "lon": -77.02648683333334}, {"fusion_lat": 0.0, "name": "0475015ac7f6f069c633144bf54db753", "is_disabled": 0, "rental_uris": {"android": "https://dc.lft.to/lastmile_qr_scan", "ios": "https://dc.lft.to/lastmile_qr_scan"}, "fusion_lon": 0.0, "lat": 38.94918166666667, "bike_id": "0475015ac7f6f069c633144bf54db753", "type": "electric_bike", "is_reserved": 0, "lon": -77.008021}, {"fusion_lat": 0.0, "name": "e04c03bf5948ad49eedff97bb7cd6b24", "is_disabled": 0, "rental_uris": {"android": "https://dc.lft.to/lastmile_qr_scan", "ios": "https://dc.lft.to/lastmile_qr_scan"}, "fusion_lon": 0.0, "lat": 38.91650033333333, "bike_id": "e04c03bf5948ad49eedff97bb7cd6b24", "type": "electric_scooter", "is_reserved": 0, "lon": -77.022727}, {"fusion_lat": 0.0, "name": "49fa8f50b38bfc98e4a1f198cec0ee55", "is_disabled": 0, "rental_uris": {"android": "https://dc.lft.to/lastmile_qr_scan", "ios": "https://dc.lft.to/lastmile_qr_scan"}, "fusion_lon": 0.0, "lat": 38.93079633333333, "bike_id": "49fa8f50b38bfc98e4a1f198cec0ee55", "type": "electric_scooter", "is_reserved": 0, "lon": -77.02001016666667}, {"fusion_lat": 0.0, "name": "67d2a34740dcb391a04e2f05fc17c8c8", "is_disabled": 0, "rental_uris": {"android": "https://dc.lft.to/lastmile_qr_scan", "ios": "https://dc.lft.to/lastmile_qr_scan"}, "fusion_lon": 0.0, "lat": 38.92236366666667, "bike_id": "67d2a34740dcb391a04e2f05fc17c8c8", "type": "electric_scooter", "is_reserved": 0, "lon": -77.03660116666667}, {"fusion_lat": 0.0, "name": "4feb7f9659982d8a5c867a04aa4fb263", "is_disabled": 0, "rental_uris": {"android": "https://dc.lft.to/lastmile_qr_scan", "ios": "https://dc.lft.to/lastmile_qr_scan"}, "fusion_lon": 0.0, "lat": 38.89848333333333, "bike_id": "4feb7f9659982d8a5c867a04aa4fb263", "type": "electric_scooter", "is_reserved": 0, "lon": -77.02972766666667}, {"fusion_lat": 0.0, "name": "c2fc3fb442288f276001876b9b4fcb44", "is_disabled": 0, "rental_uris": {"android": "https://dc.lft.to/lastmile_qr_scan", "ios": "https://dc.lft.to/lastmile_qr_scan"}, "fusion_lon": 0.0, "lat": 38.884594166666666, "bike_id": "c2fc3fb442288f276001876b9b4fcb44", "type": "electric_bike", "is_reserved": 0, "lon": -76.95218716666666}, {"fusion_lat": 0.0, "name": "4ecc391831edcbe9b1a11daba58a110d", "is_disabled": 0, "rental_uris": {"android": "https://dc.lft.to/lastmile_qr_scan", "ios": "https://dc.lft.to/lastmile_qr_scan"}, "fusion_lon": 0.0, "lat": 38.9018145, "bike_id": "4ecc391831edcbe9b1a11daba58a110d", "type": "electric_scooter", "is_reserved": 0, "lon": -77.05059383333334}, {"fusion_lat": 0.0, "name": "b0b94a083e02d7e8974adf60f466e390", "is_disabled": 0, "rental_uris": {"android": "https://dc.lft.to/lastmile_qr_scan", "ios": "https://dc.lft.to/lastmile_qr_scan"}, "fusion_lon": 0.0, "lat": 38.921466, "bike_id": "b0b94a083e02d7e8974adf60f466e390", "type": "electric_scooter", "is_reserved": 0, "lon": -77.04363683333334}, {"fusion_lat": 0.0, "name": "dba87613d30570e23bc42c1c66bc2da6", "is_disabled": 0, "rental_uris": {"android": "https://dc.lft.to/lastmile_qr_scan", "ios": "https://dc.lft.to/lastmile_qr_scan"}, "fusion_lon": 0.0, "lat": 38.912523666666665, "bike_id": "dba87613d30570e23bc42c1c66bc2da6", "type": "electric_scooter", "is_reserved": 0, "lon": -77.03860583333334}, {"fusion_lat": 0.0, "name": "0154ab29faa5b5da574306d5425a85dc", "is_disabled": 0, "rental_uris": {"android": "https://dc.lft.to/lastmile_qr_scan", "ios": "https://dc.lft.to/lastmile_qr_scan"}, "fusion_lon": 0.0, "lat": 38.89914, "bike_id": "0154ab29faa5b5da574306d5425a85dc", "type": "electric_scooter", "is_reserved": 0, "lon": -77.03921283333334}, {"fusion_lat": 0.0, "name": "32f8a64882890a2c2fe14cd5a0ffdc8f", "is_disabled": 0, "rental_uris": {"android": "https://dc.lft.to/lastmile_qr_scan", "ios": "https://dc.lft.to/lastmile_qr_scan"}, "fusion_lon": 0.0, "lat": 38.9180555, "bike_id": "32f8a64882890a2c2fe14cd5a0ffdc8f", "type": "electric_scooter", "is_reserved": 0, "lon": -77.02493283333334}, {"fusion_lat": 0.0, "name": "a89bdfd3dbc41fcc66387ad4716d7842", "is_disabled": 0, "rental_uris": {"android": "https://dc.lft.to/lastmile_qr_scan", "ios": "https://dc.lft.to/lastmile_qr_scan"}, "fusion_lon": 0.0, "lat": 38.921330833333336, "bike_id": "a89bdfd3dbc41fcc66387ad4716d7842", "type": "electric_scooter", "is_reserved": 0, "lon": -77.00408}, {"fusion_lat": 0.0, "name": "4979da34707adc08b31210b0b6439a9e", "is_disabled": 0, "rental_uris": {"android": "https://dc.lft.to/lastmile_qr_scan", "ios": "https://dc.lft.to/lastmile_qr_scan"}, "fusion_lon": 0.0, "lat": 38.918070666666665, "bike_id": "4979da34707adc08b31210b0b6439a9e", "type": "electric_scooter", "is_reserved": 0, "lon": -77.0250025}, {"fusion_lat": 0.0, "name": "3a8202625f436ea2217d331cd3a607d4", "is_disabled": 0, "rental_uris": {"android": "https://dc.lft.to/lastmile_qr_scan", "ios": "https://dc.lft.to/lastmile_qr_scan"}, "fusion_lon": 0.0, "lat": 38.90202133333333, "bike_id": "3a8202625f436ea2217d331cd3a607d4", "type": "electric_scooter", "is_reserved": 0, "lon": -77.02217416666667}, {"fusion_lat": 0.0, "name": "d3bd6e26b8b486ec332aae7e33a827c3", "is_disabled": 0, "rental_uris": {"android": "https://dc.lft.to/lastmile_qr_scan", "ios": "https://dc.lft.to/lastmile_qr_scan"}, "fusion_lon": 0.0, "lat": 38.939764333333336, "bike_id": "d3bd6e26b8b486ec332aae7e33a827c3", "type": "electric_scooter", "is_reserved": 0, "lon": -77.028968}, {"fusion_lat": 0.0, "name": "5125204e0a74886581e031f4420acc99", "is_disabled": 0, "rental_uris": {"android": "https://dc.lft.to/lastmile_qr_scan", "ios": "https://dc.lft.to/lastmile_qr_scan"}, "fusion_lon": 0.0, "lat": 38.916991333333335, "bike_id": "5125204e0a74886581e031f4420acc99", "type": "electric_scooter", "is_reserved": 0, "lon": -77.02870616666667}, {"fusion_lat": 0.0, "name": "fc309ce82eef05d86b81ea7b4ff3a145", "is_disabled": 0, "rental_uris": {"android": "https://dc.lft.to/lastmile_qr_scan", "ios": "https://dc.lft.to/lastmile_qr_scan"}, "fusion_lon": 0.0, "lat": 38.92340333333333, "bike_id": "fc309ce82eef05d86b81ea7b4ff3a145", "type": "electric_scooter", "is_reserved": 0, "lon": -77.05171316666667}, {"fusion_lat": 0.0, "name": "1cbe75fdb58d465afee589dee75fae64", "is_disabled": 0, "rental_uris": {"android": "https://dc.lft.to/lastmile_qr_scan", "ios": "https://dc.lft.to/lastmile_qr_scan"}, "fusion_lon": 0.0, "lat": 38.9788165, "bike_id": "1cbe75fdb58d465afee589dee75fae64", "type": "electric_bike", "is_reserved": 0, "lon": -77.06029383333333}, {"fusion_lat": 0.0, "name": "ac73ca94a756b0dfdd12c93fe87587d6", "is_disabled": 0, "rental_uris": {"android": "https://dc.lft.to/lastmile_qr_scan", "ios": "https://dc.lft.to/lastmile_qr_scan"}, "fusion_lon": 0.0, "lat": 38.8999905, "bike_id": "ac73ca94a756b0dfdd12c93fe87587d6", "type": "electric_scooter", "is_reserved": 0, "lon": -77.02210033333333}, {"fusion_lat": 0.0, "name": "e8c558db2dd383c2f2973c1ab125229d", "is_disabled": 0, "rental_uris": {"android": "https://dc.lft.to/lastmile_qr_scan", "ios": "https://dc.lft.to/lastmile_qr_scan"}, "fusion_lon": 0.0, "lat": 38.9358575, "bike_id": "e8c558db2dd383c2f2973c1ab125229d", "type": "electric_scooter", "is_reserved": 0, "lon": -77.02848333333333}, {"fusion_lat": 0.0, "name": "912464b2fbb216e674554e7599047494", "is_disabled": 0, "rental_uris": {"android": "https://dc.lft.to/lastmile_qr_scan", "ios": "https://dc.lft.to/lastmile_qr_scan"}, "fusion_lon": 0.0, "lat": 38.837553, "bike_id": "912464b2fbb216e674554e7599047494", "type": "electric_bike", "is_reserved": 0, "lon": -77.09301616666667}, {"fusion_lat": 0.0, "name": "d67cb41773349bd499ab74e1e9e84a26", "is_disabled": 0, "rental_uris": {"android": "https://dc.lft.to/lastmile_qr_scan", "ios": "https://dc.lft.to/lastmile_qr_scan"}, "fusion_lon": 0.0, "lat": 38.87481833333333, "bike_id": "d67cb41773349bd499ab74e1e9e84a26", "type": "electric_scooter", "is_reserved": 0, "lon": -77.00599116666666}, {"fusion_lat": 0.0, "name": "33d6d542942c68fc73914b9140dd5ce5", "is_disabled": 0, "rental_uris": {"android": "https://dc.lft.to/lastmile_qr_scan", "ios": "https://dc.lft.to/lastmile_qr_scan"}, "fusion_lon": 0.0, "lat": 38.88773333333334, "bike_id": "33d6d542942c68fc73914b9140dd5ce5", "type": "electric_scooter", "is_reserved": 0, "lon": -76.99165316666667}, {"fusion_lat": 0.0, "name": "2ed0a0faf933f802d606f6728281752c", "is_disabled": 0, "rental_uris": {"android": "https://dc.lft.to/lastmile_qr_scan", "ios": "https://dc.lft.to/lastmile_qr_scan"}, "fusion_lon": 0.0, "lat": 38.88734016666667, "bike_id": "2ed0a0faf933f802d606f6728281752c", "type": "electric_scooter", "is_reserved": 0, "lon": -77.0319825}, {"fusion_lat": 0.0, "name": "65afbe64cf4f384d63c0af6c49802a88", "is_disabled": 0, "rental_uris": {"android": "https://dc.lft.to/lastmile_qr_scan", "ios": "https://dc.lft.to/lastmile_qr_scan"}, "fusion_lon": 0.0, "lat": 38.9181495, "bike_id": "65afbe64cf4f384d63c0af6c49802a88", "type": "electric_scooter", "is_reserved": 0, "lon": -77.04005166666667}, {"fusion_lat": 0.0, "name": "5c78ff35a456aaf8868a5c02177d2fd2", "is_disabled": 0, "rental_uris": {"android": "https://dc.lft.to/lastmile_qr_scan", "ios": "https://dc.lft.to/lastmile_qr_scan"}, "fusion_lon": 0.0, "lat": 38.9560445, "bike_id": "5c78ff35a456aaf8868a5c02177d2fd2", "type": "electric_scooter", "is_reserved": 0, "lon": -77.03355416666666}, {"fusion_lat": 0.0, "name": "a7bbbe962e22f8a820b271c14c657afe", "is_disabled": 0, "rental_uris": {"android": "https://dc.lft.to/lastmile_qr_scan", "ios": "https://dc.lft.to/lastmile_qr_scan"}, "fusion_lon": 0.0, "lat": 38.912656, "bike_id": "a7bbbe962e22f8a820b271c14c657afe", "type": "electric_scooter", "is_reserved": 0, "lon": -77.02823266666667}, {"fusion_lat": 0.0, "name": "73eb3540d62005e46a85760ef6c86598", "is_disabled": 0, "rental_uris": {"android": "https://dc.lft.to/lastmile_qr_scan", "ios": "https://dc.lft.to/lastmile_qr_scan"}, "fusion_lon": 0.0, "lat": 38.93778283333333, "bike_id": "73eb3540d62005e46a85760ef6c86598", "type": "electric_scooter", "is_reserved": 0, "lon": -77.03263716666666}, {"fusion_lat": 0.0, "name": "a41a833032729dc3e109cabd97389a71", "is_disabled": 0, "rental_uris": {"android": "https://dc.lft.to/lastmile_qr_scan", "ios": "https://dc.lft.to/lastmile_qr_scan"}, "fusion_lon": 0.0, "lat": 38.89840316666667, "bike_id": "a41a833032729dc3e109cabd97389a71", "type": "electric_scooter", "is_reserved": 0, "lon": -77.029685}, {"fusion_lat": 0.0, "name": "9db77c5dff5f09e45f0ec75016638078", "is_disabled": 0, "rental_uris": {"android": "https://dc.lft.to/lastmile_qr_scan", "ios": "https://dc.lft.to/lastmile_qr_scan"}, "fusion_lon": 0.0, "lat": 38.95097066666666, "bike_id": "9db77c5dff5f09e45f0ec75016638078", "type": "electric_scooter", "is_reserved": 0, "lon": -77.02964433333334}, {"fusion_lat": 0.0, "name": "4299318db7eabb5d87b95e50b7db4a3e", "is_disabled": 0, "rental_uris": {"android": "https://dc.lft.to/lastmile_qr_scan", "ios": "https://dc.lft.to/lastmile_qr_scan"}, "fusion_lon": 0.0, "lat": 38.911892333333334, "bike_id": "4299318db7eabb5d87b95e50b7db4a3e", "type": "electric_scooter", "is_reserved": 0, "lon": -77.03764683333333}, {"fusion_lat": 0.0, "name": "fd1c58660af7b261c1205ae52ac351a6", "is_disabled": 0, "rental_uris": {"android": "https://dc.lft.to/lastmile_qr_scan", "ios": "https://dc.lft.to/lastmile_qr_scan"}, "fusion_lon": 0.0, "lat": 38.892140166666664, "bike_id": "fd1c58660af7b261c1205ae52ac351a6", "type": "electric_scooter", "is_reserved": 0, "lon": -76.99573683333334}, {"fusion_lat": 0.0, "name": "390198e9c6cb2ab47d35b53eb8fdbf36", "is_disabled": 0, "rental_uris": {"android": "https://dc.lft.to/lastmile_qr_scan", "ios": "https://dc.lft.to/lastmile_qr_scan"}, "fusion_lon": 0.0, "lat": 38.93097083333333, "bike_id": "390198e9c6cb2ab47d35b53eb8fdbf36", "type": "electric_scooter", "is_reserved": 0, "lon": -77.02376133333334}, {"fusion_lat": 0.0, "name": "1a4ea3cf9c53fb515bb002a251ca96a4", "is_disabled": 0, "rental_uris": {"android": "https://dc.lft.to/lastmile_qr_scan", "ios": "https://dc.lft.to/lastmile_qr_scan"}, "fusion_lon": 0.0, "lat": 38.884124, "bike_id": "1a4ea3cf9c53fb515bb002a251ca96a4", "type": "electric_scooter", "is_reserved": 0, "lon": -77.02980783333334}, {"fusion_lat": 0.0, "name": "d7bd9065c0cee87cfc8a78be06ff21fe", "is_disabled": 0, "rental_uris": {"android": "https://dc.lft.to/lastmile_qr_scan", "ios": "https://dc.lft.to/lastmile_qr_scan"}, "fusion_lon": 0.0, "lat": 38.909637833333335, "bike_id": "d7bd9065c0cee87cfc8a78be06ff21fe", "type": "electric_scooter", "is_reserved": 0, "lon": -77.03948566666666}, {"fusion_lat": 0.0, "name": "1e6238798aa3b22110f66eac1ec7c7d9", "is_disabled": 0, "rental_uris": {"android": "https://dc.lft.to/lastmile_qr_scan", "ios": "https://dc.lft.to/lastmile_qr_scan"}, "fusion_lon": 0.0, "lat": 38.9044015, "bike_id": "1e6238798aa3b22110f66eac1ec7c7d9", "type": "electric_scooter", "is_reserved": 0, "lon": -76.97953583333333}, {"fusion_lat": 0.0, "name": "9b52d82720c5f033e4c8c6b6511ffbb0", "is_disabled": 0, "rental_uris": {"android": "https://dc.lft.to/lastmile_qr_scan", "ios": "https://dc.lft.to/lastmile_qr_scan"}, "fusion_lon": 0.0, "lat": 38.907933166666666, "bike_id": "9b52d82720c5f033e4c8c6b6511ffbb0", "type": "electric_scooter", "is_reserved": 0, "lon": -77.04345633333334}, {"fusion_lat": 0.0, "name": "2c60fdb706b6f85f3badf10d051afb13", "is_disabled": 0, "rental_uris": {"android": "https://dc.lft.to/lastmile_qr_scan", "ios": "https://dc.lft.to/lastmile_qr_scan"}, "fusion_lon": 0.0, "lat": 38.8765555, "bike_id": "2c60fdb706b6f85f3badf10d051afb13", "type": "electric_scooter", "is_reserved": 0, "lon": -77.00433966666667}, {"fusion_lat": 0.0, "name": "c0bd82f68ce7b056499b95eea6733875", "is_disabled": 0, "rental_uris": {"android": "https://dc.lft.to/lastmile_qr_scan", "ios": "https://dc.lft.to/lastmile_qr_scan"}, "fusion_lon": 0.0, "lat": 38.887440833333336, "bike_id": "c0bd82f68ce7b056499b95eea6733875", "type": "electric_scooter", "is_reserved": 0, "lon": -76.99847583333333}, {"fusion_lat": 0.0, "name": "985faa15d251efbbccfabb72a2f1d44c", "is_disabled": 0, "rental_uris": {"android": "https://dc.lft.to/lastmile_qr_scan", "ios": "https://dc.lft.to/lastmile_qr_scan"}, "fusion_lon": 0.0, "lat": 38.901746833333334, "bike_id": "985faa15d251efbbccfabb72a2f1d44c", "type": "electric_scooter", "is_reserved": 0, "lon": -76.98067766666667}, {"fusion_lat": 0.0, "name": "7dbf3257f9fbb48a054850b38c0479b1", "is_disabled": 0, "rental_uris": {"android": "https://dc.lft.to/lastmile_qr_scan", "ios": "https://dc.lft.to/lastmile_qr_scan"}, "fusion_lon": 0.0, "lat": 38.905924666666664, "bike_id": "7dbf3257f9fbb48a054850b38c0479b1", "type": "electric_scooter", "is_reserved": 0, "lon": -77.016149}, {"fusion_lat": 0.0, "name": "8929e06631e4a35f361ca98871d8415f", "is_disabled": 0, "rental_uris": {"android": "https://dc.lft.to/lastmile_qr_scan", "ios": "https://dc.lft.to/lastmile_qr_scan"}, "fusion_lon": 0.0, "lat": 38.9299765, "bike_id": "8929e06631e4a35f361ca98871d8415f", "type": "electric_scooter", "is_reserved": 0, "lon": -77.03800583333333}, {"fusion_lat": 0.0, "name": "94ec96adf8533009edb0fe46e68edf12", "is_disabled": 0, "rental_uris": {"android": "https://dc.lft.to/lastmile_qr_scan", "ios": "https://dc.lft.to/lastmile_qr_scan"}, "fusion_lon": 0.0, "lat": 38.90813383333333, "bike_id": "94ec96adf8533009edb0fe46e68edf12", "type": "electric_scooter", "is_reserved": 0, "lon": -77.0417205}, {"fusion_lat": 0.0, "name": "be9bb6138f72c5d824e9c3c7f6e8dc4f", "is_disabled": 0, "rental_uris": {"android": "https://dc.lft.to/lastmile_qr_scan", "ios": "https://dc.lft.to/lastmile_qr_scan"}, "fusion_lon": 0.0, "lat": 38.929898, "bike_id": "be9bb6138f72c5d824e9c3c7f6e8dc4f", "type": "electric_scooter", "is_reserved": 0, "lon": -77.034741}, {"fusion_lat": 0.0, "name": "3681b87a93c71a20c6b1c5698bbdde49", "is_disabled": 0, "rental_uris": {"android": "https://dc.lft.to/lastmile_qr_scan", "ios": "https://dc.lft.to/lastmile_qr_scan"}, "fusion_lon": 0.0, "lat": 38.836126666666665, "bike_id": "3681b87a93c71a20c6b1c5698bbdde49", "type": "electric_bike", "is_reserved": 0, "lon": -77.00381716666666}, {"fusion_lat": 0.0, "name": "06c36eddc21c6e9483690d996acf6743", "is_disabled": 0, "rental_uris": {"android": "https://dc.lft.to/lastmile_qr_scan", "ios": "https://dc.lft.to/lastmile_qr_scan"}, "fusion_lon": 0.0, "lat": 38.93075733333333, "bike_id": "06c36eddc21c6e9483690d996acf6743", "type": "electric_scooter", "is_reserved": 0, "lon": -77.031599}, {"fusion_lat": 0.0, "name": "d715ae3bc2d17075ed676a73b14fb850", "is_disabled": 0, "rental_uris": {"android": "https://dc.lft.to/lastmile_qr_scan", "ios": "https://dc.lft.to/lastmile_qr_scan"}, "fusion_lon": 0.0, "lat": 38.917758166666665, "bike_id": "d715ae3bc2d17075ed676a73b14fb850", "type": "electric_scooter", "is_reserved": 0, "lon": -77.02411266666667}, {"fusion_lat": 0.0, "name": "d8fba774e694c926a6652881fdd8ed08", "is_disabled": 0, "rental_uris": {"android": "https://dc.lft.to/lastmile_qr_scan", "ios": "https://dc.lft.to/lastmile_qr_scan"}, "fusion_lon": 0.0, "lat": 38.910207166666666, "bike_id": "d8fba774e694c926a6652881fdd8ed08", "type": "electric_scooter", "is_reserved": 0, "lon": -77.0525865}, {"fusion_lat": 0.0, "name": "019e8ecfb3fd785a530b20fd40007d98", "is_disabled": 0, "rental_uris": {"android": "https://dc.lft.to/lastmile_qr_scan", "ios": "https://dc.lft.to/lastmile_qr_scan"}, "fusion_lon": 0.0, "lat": 38.9192485, "bike_id": "019e8ecfb3fd785a530b20fd40007d98", "type": "electric_scooter", "is_reserved": 0, "lon": -77.02662033333333},