{"data": {"bikes": [{"rental_uris": {"ios": "https://dc.lft.to/lastmile_qr_scan", "android": "https://dc.lft.to/lastmile_qr_scan"}, "lon": -77.04037583333333, "type": "electric_scooter", "fusion_lat": 0.0, "lat": 38.91878083333334, "name": "6ad3c4861df5d8c9d28fc575538962e9", "fusion_lon": 0.0, "bike_id": "6ad3c4861df5d8c9d28fc575538962e9", "is_disabled": 0, "is_reserved": 0}, {"rental_uris": {"ios": "https://dc.lft.to/lastmile_qr_scan", "android": "https://dc.lft.to/lastmile_qr_scan"}, "lon": -76.9319565, "type": "electric_scooter", "fusion_lat": 0.0, "lat": 38.889949, "name": "7edf2a09f8b510eca5f8f4779861a420", "fusion_lon": 0.0, "bike_id": "7edf2a09f8b510eca5f8f4779861a420", "is_disabled": 0, "is_reserved": 0}, {"rental_uris": {"ios": "https://dc.lft.to/lastmile_qr_scan", "android": "https://dc.lft.to/lastmile_qr_scan"}, "lon": -76.97342333333333, "type": "electric_scooter", "fusion_lat": 0.0, "lat": 38.865081833333335, "name": "077ccf684da95edefbb8e97efd57578c", "fusion_lon": 0.0, "bike_id": "077ccf684da95edefbb8e97efd57578c", "is_disabled": 0, "is_reserved": 0}, {"rental_uris": {"ios": "https://dc.lft.to/lastmile_qr_scan", "android": "https://dc.lft.to/lastmile_qr_scan"}, "lon": -77.018082, "type": "electric_scooter", "fusion_lat": 0.0, "lat": 38.904241166666665, "name": "0d8c25db8a6de4712a3f70d7c41021c7", "fusion_lon": 0.0, "bike_id": "0d8c25db8a6de4712a3f70d7c41021c7", "is_disabled": 0, "is_reserved": 0}, {"rental_uris": {"ios": "https://dc.lft.to/lastmile_qr_scan", "android": "https://dc.lft.to/lastmile_qr_scan"}, "lon": -77.029833, "type": "electric_scooter", "fusion_lat": 0.0, "lat": 38.924778, "name": "7b7624d494a9ce05773fadeb96d9c934", "fusion_lon": 0.0, "bike_id": "7b7624d494a9ce05773fadeb96d9c934", "is_disabled": 0, "is_reserved": 0}, {"rental_uris": {"ios": "https://dc.lft.to/lastmile_qr_scan", "android": "https://dc.lft.to/lastmile_qr_scan"}, "lon": -77.01509133333333, "type": "electric_scooter", "fusion_lat": 0.0, "lat": 38.901511166666666, "name": "48dfea6d0acbdae14f8344aa20afee32", "fusion_lon": 0.0, "bike_id": "48dfea6d0acbdae14f8344aa20afee32", "is_disabled": 0, "is_reserved": 0}, {"rental_uris": {"ios": "https://dc.lft.to/lastmile_qr_scan", "android": "https://dc.lft.to/lastmile_qr_scan"}, "lon": -77.03661083333333, "type": "electric_scooter", "fusion_lat": 0.0, "lat": 38.923024166666664, "name": "17cf0f52208804ee90c56928d8d4cd2c", "fusion_lon": 0.0, "bike_id": "17cf0f52208804ee90c56928d8d4cd2c", "is_disabled": 0, "is_reserved": 0}, {"rental_uris": {"ios": "https://dc.lft.to/lastmile_qr_scan", "android": "https://dc.lft.to/lastmile_qr_scan"}, "lon": -77.00590933333334, "type": "electric_scooter", "fusion_lat": 0.0, "lat": 38.906262166666664, "name": "e6cc8bbc562b763248bc48be403a615e", "fusion_lon": 0.0, "bike_id": "e6cc8bbc562b763248bc48be403a615e", "is_disabled": 0, "is_reserved": 0}, {"rental_uris": {"ios": "https://dc.lft.to/lastmile_qr_scan", "android": "https://dc.lft.to/lastmile_qr_scan"}, "lon": -77.00875066666667, "type": "electric_scooter", "fusion_lat": 0.0, "lat": 38.90575466666667, "name": "15100f833c5d4e1150b60bd78e6d9643", "fusion_lon": 0.0, "bike_id": "15100f833c5d4e1150b60bd78e6d9643", "is_disabled": 0, "is_reserved": 0}, {"rental_uris": {"ios": "https://dc.lft.to/lastmile_qr_scan", "android": "https://dc.lft.to/lastmile_qr_scan"}, "lon": -76.98704183333334, "type": "electric_scooter", "fusion_lat": 0.0, "lat": 38.90150933333334, "name": "c9d9d2f9e8d9777d48a04878e32cfa48", "fusion_lon": 0.0, "bike_id": "c9d9d2f9e8d9777d48a04878e32cfa48", "is_disabled": 0, "is_reserved": 0}, {"rental_uris": {"ios": "https://dc.lft.to/lastmile_qr_scan", "android": "https://dc.lft.to/lastmile_qr_scan"}, "lon": -77.021727, "type": "electric_scooter", "fusion_lat": 0.0, "lat": 38.8925785, "name": "257b1d2e3cf49d9b2cd0deacd22c371d", "fusion_lon": 0.0, "bike_id": "257b1d2e3cf49d9b2cd0deacd22c371d", "is_disabled": 0, "is_reserved": 0}, {"rental_uris": {"ios": "https://dc.lft.to/lastmile_qr_scan", "android": "https://dc.lft.to/lastmile_qr_scan"}, "lon": -77.0385995, "type": "electric_scooter", "fusion_lat": 0.0, "lat": 38.9155575, "name": "15eefb3682597df53cf539fc86944a48", "fusion_lon": 0.0, "bike_id": "15eefb3682597df53cf539fc86944a48", "is_disabled": 0, "is_reserved": 0}, {"rental_uris": {"ios": "https://dc.lft.to/lastmile_qr_scan", "android": "https://dc.lft.to/lastmile_qr_scan"}, "lon": -77.0451085, "type": "electric_scooter", "fusion_lat": 0.0, "lat": 38.90780816666667, "name": "e5e453ad813dfab5df8ee2c922bcb72a", "fusion_lon": 0.0, "bike_id": "e5e453ad813dfab5df8ee2c922bcb72a", "is_disabled": 0, "is_reserved": 0}, {"rental_uris": {"ios": "https://dc.lft.to/lastmile_qr_scan", "android": "https://dc.lft.to/lastmile_qr_scan"}, "lon": -77.0551015, "type": "electric_scooter", "fusion_lat": 0.0, "lat": 38.899799333333334, "name": "eca29a1301778d2595fb4a3e310cc41d", "fusion_lon": 0.0, "bike_id": "eca29a1301778d2595fb4a3e310cc41d", "is_disabled": 0, "is_reserved": 0}, {"rental_uris": {"ios": "https://dc.lft.to/lastmile_qr_scan", "android": "https://dc.lft.to/lastmile_qr_scan"}, "lon": -77.04543916666667, "type": "electric_scooter", "fusion_lat": 0.0, "lat": 38.8948115, "name": "1c5915300cae67bc3af58fb70f96dc95", "fusion_lon": 0.0, "bike_id": "1c5915300cae67bc3af58fb70f96dc95", "is_disabled": 0, "is_reserved": 0}, {"rental_uris": {"ios": "https://dc.lft.to/lastmile_qr_scan", "android": "https://dc.lft.to/lastmile_qr_scan"}, "lon": -77.0318735, "type": "electric_scooter", "fusion_lat": 0.0, "lat": 38.898414833333334, "name": "266e6ea547d6760aac96984dfd8e5587", "fusion_lon": 0.0, "bike_id": "266e6ea547d6760aac96984dfd8e5587", "is_disabled": 0, "is_reserved": 0}, {"rental_uris": {"ios": "https://dc.lft.to/lastmile_qr_scan", "android": "https://dc.lft.to/lastmile_qr_scan"}, "lon": -76.98349433333334, "type": "electric_scooter", "fusion_lat": 0.0, "lat": 38.915361833333336, "name": "df431d61d1f20f6abeff59c1f2b43fd6", "fusion_lon": 0.0, "bike_id": "df431d61d1f20f6abeff59c1f2b43fd6", "is_disabled": 0, "is_reserved": 0}, {"rental_uris": {"ios": "https://dc.lft.to/lastmile_qr_scan", "android": "https://dc.lft.to/lastmile_qr_scan"}, "lon": -77.02701466666667, "type": "electric_scooter", "fusion_lat": 0.0, "lat": 38.909403833333336, "name": "41e5079fa6b3706b1e63f7c1798245fb", "fusion_lon": 0.0, "bike_id": "41e5079fa6b3706b1e63f7c1798245fb", "is_disabled": 0, "is_reserved": 0}, {"rental_uris": {"ios": "https://dc.lft.to/lastmile_qr_scan", "android": "https://dc.lft.to/lastmile_qr_scan"}, "lon": -77.0270725, "type": "electric_scooter", "fusion_lat": 0.0, "lat": 38.90669283333333, "name": "306a7b0d29f9907f506088a3677d5427", "fusion_lon": 0.0, "bike_id": "306a7b0d29f9907f506088a3677d5427", "is_disabled": 0, "is_reserved": 0}, {"rental_uris": {"ios": "https://dc.lft.to/lastmile_qr_scan", "android": "https://dc.lft.to/lastmile_qr_scan"}, "lon": -77.0320715, "type": "electric_scooter", "fusion_lat": 0.0, "lat": 38.90033783333333, "name": "b2513b48eeed46265990d66bdc866b01", "fusion_lon": 0.0, "bike_id": "b2513b48eeed46265990d66bdc866b01", "is_disabled": 0, "is_reserved": 0}, {"rental_uris": {"ios": "https://dc.lft.to/lastmile_qr_scan", "android": "https://dc.lft.to/lastmile_qr_scan"}, "lon": -77.02844783333333, "type": "electric_scooter", "fusion_lat": 0.0, "lat": 38.93452216666667, "name": "f94748d3c1ca5c9f631ced7927612fcd", "fusion_lon": 0.0, "bike_id": "f94748d3c1ca5c9f631ced7927612fcd", "is_disabled": 0, "is_reserved": 0}, {"rental_uris": {"ios": "https://dc.lft.to/lastmile_qr_scan", "android": "https://dc.lft.to/lastmile_qr_scan"}, "lon": -77.02647966666666, "type": "electric_scooter", "fusion_lat": 0.0, "lat": 38.88119483333333, "name": "b1e964d381cdbddd675c60121eea6990", "fusion_lon": 0.0, "bike_id": "b1e964d381cdbddd675c60121eea6990", "is_disabled": 0, "is_reserved": 0}, {"rental_uris": {"ios": "https://dc.lft.to/lastmile_qr_scan", "android": "https://dc.lft.to/lastmile_qr_scan"}, "lon": -77.0730645, "type": "electric_scooter", "fusion_lat": 0.0, "lat": 38.936128, "name": "914949a0d9d52c14ce71f268685d70fa", "fusion_lon": 0.0, "bike_id": "914949a0d9d52c14ce71f268685d70fa", "is_disabled": 0, "is_reserved": 0}, {"rental_uris": {"ios": "https://dc.lft.to/lastmile_qr_scan", "android": "https://dc.lft.to/lastmile_qr_scan"}, "lon": -77.0066705, "type": "electric_scooter", "fusion_lat": 0.0, "lat": 38.87629116666667, "name": "bbb4fc6b95c4ec3df8654bad14d21e7e", "fusion_lon": 0.0, "bike_id": "bbb4fc6b95c4ec3df8654bad14d21e7e", "is_disabled": 0, "is_reserved": 0}, {"rental_uris": {"ios": "https://dc.lft.to/lastmile_qr_scan", "android": "https://dc.lft.to/lastmile_qr_scan"}, "lon": -77.03305483333334, "type": "electric_scooter", "fusion_lat": 0.0, "lat": 38.909035, "name": "22c0aec92af9459b85b48eba75695081", "fusion_lon": 0.0, "bike_id": "22c0aec92af9459b85b48eba75695081", "is_disabled": 0, "is_reserved": 0}, {"rental_uris": {"ios": "https://dc.lft.to/lastmile_qr_scan", "android": "https://dc.lft.to/lastmile_qr_scan"}, "lon": -76.99062433333333, "type": "electric_scooter", "fusion_lat": 0.0, "lat": 38.863599666666666, "name": "2ffabea5bce3d4b0e99f297a66498e36", "fusion_lon": 0.0, "bike_id": "2ffabea5bce3d4b0e99f297a66498e36", "is_disabled": 0, "is_reserved": 0}, {"rental_uris": {"ios": "https://dc.lft.to/lastmile_qr_scan", "android": "https://dc.lft.to/lastmile_qr_scan"}, "lon": -77.03638966666666, "type": "electric_scooter", "fusion_lat": 0.0, "lat": 38.91297216666667, "name": "eba26b110cdad7aefd09c5dbc443199b", "fusion_lon": 0.0, "bike_id": "eba26b110cdad7aefd09c5dbc443199b", "is_disabled": 0, "is_reserved": 0}, {"rental_uris": {"ios": "https://dc.lft.to/lastmile_qr_scan", "android": "https://dc.lft.to/lastmile_qr_scan"}, "lon": -77.03853783333334, "type": "electric_scooter", "fusion_lat": 0.0, "lat": 38.926464833333334, "name": "03c0a00079abdf84dc6eb4b19d805017", "fusion_lon": 0.0, "bike_id": "03c0a00079abdf84dc6eb4b19d805017", "is_disabled": 0, "is_reserved": 0}, {"rental_uris": {"ios": "https://dc.lft.to/lastmile_qr_scan", "android": "https://dc.lft.to/lastmile_qr_scan"}, "lon": -77.0329095, "type": "electric_scooter", "fusion_lat": 0.0, "lat": 38.92218783333333, "name": "f8ca730aca4e17abdfb8bbd1458a28eb", "fusion_lon": 0.0, "bike_id": "f8ca730aca4e17abdfb8bbd1458a28eb", "is_disabled": 0, "is_reserved": 0}, {"rental_uris": {"ios": "https://dc.lft.to/lastmile_qr_scan", "android": "https://dc.lft.to/lastmile_qr_scan"}, "lon": -77.00104816666666, "type": "electric_scooter", "fusion_lat": 0.0, "lat": 38.89431233333333, "name": "0a972884e0861885ae783f19daa34ff0", "fusion_lon": 0.0, "bike_id": "0a972884e0861885ae783f19daa34ff0", "is_disabled": 0, "is_reserved": 0}, {"rental_uris": {"ios": "https://dc.lft.to/lastmile_qr_scan", "android": "https://dc.lft.to/lastmile_qr_scan"}, "lon": -77.02999983333333, "type": "electric_scooter", "fusion_lat": 0.0, "lat": 38.92482783333333, "name": "5f2ea2a32cdd512781a0ca931fd238d9", "fusion_lon": 0.0, "bike_id": "5f2ea2a32cdd512781a0ca931fd238d9", "is_disabled": 0, "is_reserved": 0}, {"rental_uris": {"ios": "https://dc.lft.to/lastmile_qr_scan", "android": "https://dc.lft.to/lastmile_qr_scan"}, "lon": -77.021028, "type": "electric_scooter", "fusion_lat": 0.0, "lat": 38.91012383333333, "name": "3a586cf37ad6cf47d4b9e2ddd44a4f2b", "fusion_lon": 0.0, "bike_id": "3a586cf37ad6cf47d4b9e2ddd44a4f2b", "is_disabled": 0, "is_reserved": 0}, {"rental_uris": {"ios": "https://dc.lft.to/lastmile_qr_scan", "android": "https://dc.lft.to/lastmile_qr_scan"}, "lon": -77.01576666666666, "type": "electric_scooter", "fusion_lat": 0.0, "lat": 38.9168565, "name": "9cd261d9d2b025ec772af454f81c6a34", "fusion_lon": 0.0, "bike_id": "9cd261d9d2b025ec772af454f81c6a34", "is_disabled": 0, "is_reserved": 0}, {"rental_uris": {"ios": "https://dc.lft.to/lastmile_qr_scan", "android": "https://dc.lft.to/lastmile_qr_scan"}, "lon": -76.94777016666667, "type": "electric_bike", "fusion_lat": 0.0, "lat": 38.89440883333333, "name": "0639394e9819396a7122b4a0fffb79a9", "fusion_lon": 0.0, "bike_id": "0639394e9819396a7122b4a0fffb79a9", "is_disabled": 0, "is_reserved": 0}, {"rental_uris": {"ios": "https://dc.lft.to/lastmile_qr_scan", "android": "https://dc.lft.to/lastmile_qr_scan"}, "lon": -77.36089616666666, "type": "electric_bike", "fusion_lat": 0.0, "lat": 38.93961383333333, "name": "aa36b54484ea150f5126a7e9f814f61c", "fusion_lon": 0.0, "bike_id": "aa36b54484ea150f5126a7e9f814f61c", "is_disabled": 0, "is_reserved": 0}, {"rental_uris": {"ios": "https://dc.lft.to/lastmile_qr_scan", "android": "https://dc.lft.to/lastmile_qr_scan"}, "lon": -77.03501283333334, "type": "electric_scooter", "fusion_lat": 0.0, "lat": 38.92881233333333, "name": "9c050db8d95afaa68479a7b86e7e1f21", "fusion_lon": 0.0, "bike_id": "9c050db8d95afaa68479a7b86e7e1f21", "is_disabled": 0, "is_reserved": 0}, {"rental_uris": {"ios": "https://dc.lft.to/lastmile_qr_scan", "android": "https://dc.lft.to/lastmile_qr_scan"}, "lon": -77.0115405, "type": "electric_scooter", "fusion_lat": 0.0, "lat": 38.90728516666667, "name": "0118b1e61fab2ca87f8160e1745988c0", "fusion_lon": 0.0, "bike_id": "0118b1e61fab2ca87f8160e1745988c0", "is_disabled": 0, "is_reserved": 0}, {"rental_uris": {"ios": "https://dc.lft.to/lastmile_qr_scan", "android": "https://dc.lft.to/lastmile_qr_scan"}, "lon": -77.0465725, "type": "electric_scooter", "fusion_lat": 0.0, "lat": 38.9055815, "name": "3b67a5dd425d2a2cecc32bf08513d438", "fusion_lon": 0.0, "bike_id": "3b67a5dd425d2a2cecc32bf08513d438", "is_disabled": 0, "is_reserved": 0}, {"rental_uris": {"ios": "https://dc.lft.to/lastmile_qr_scan", "android": "https://dc.lft.to/lastmile_qr_scan"}, "lon": -76.97984533333333, "type": "electric_bike", "fusion_lat": 0.0, "lat": 38.87754533333333, "name": "228f2640ef690136abd000033d1d013e", "fusion_lon": 0.0, "bike_id": "228f2640ef690136abd000033d1d013e", "is_disabled": 0, "is_reserved": 0}, {"rental_uris": {"ios": "https://dc.lft.to/lastmile_qr_scan", "android": "https://dc.lft.to/lastmile_qr_scan"}, "lon": -77.04084183333333, "type": "electric_scooter", "fusion_lat": 0.0, "lat": 38.907168, "name": "b9c147cd22e6fbb5b3e945d8c4862a2c", "fusion_lon": 0.0, "bike_id": "b9c147cd22e6fbb5b3e945d8c4862a2c", "is_disabled": 0, "is_reserved": 0}, {"rental_uris": {"ios": "https://dc.lft.to/lastmile_qr_scan", "android": "https://dc.lft.to/lastmile_qr_scan"}, "lon": -77.01085366666666, "type": "electric_scooter", "fusion_lat": 0.0, "lat": 38.91818216666667, "name": "d270194cbc3603a8979edf044fd8b85d", "fusion_lon": 0.0, "bike_id": "d270194cbc3603a8979edf044fd8b85d", "is_disabled": 0, "is_reserved": 0}, {"rental_uris": {"ios": "https://dc.lft.to/lastmile_qr_scan", "android": "https://dc.lft.to/lastmile_qr_scan"}, "lon": -77.04457866666667, "type": "electric_scooter", "fusion_lat": 0.0, "lat": 38.90663133333334, "name": "167fa94cfec3c5b4f8e162b9ccf8731e", "fusion_lon": 0.0, "bike_id": "167fa94cfec3c5b4f8e162b9ccf8731e", "is_disabled": 0, "is_reserved": 0}, {"rental_uris": {"ios": "https://dc.lft.to/lastmile_qr_scan", "android": "https://dc.lft.to/lastmile_qr_scan"}, "lon": -77.0325545, "type": "electric_scooter", "fusion_lat": 0.0, "lat": 38.92162166666667, "name": "6e124cef5413d1974e9ccc6fdd36a437", "fusion_lon": 0.0, "bike_id": "6e124cef5413d1974e9ccc6fdd36a437", "is_disabled": 0, "is_reserved": 0}, {"rental_uris": {"ios": "https://dc.lft.to/lastmile_qr_scan", "android": "https://dc.lft.to/lastmile_qr_scan"}, "lon": -76.98826783333334, "type": "electric_scooter", "fusion_lat": 0.0, "lat": 38.8802515, "name": "991150d4bcaf39a2234823d19f2fecd7", "fusion_lon": 0.0, "bike_id": "991150d4bcaf39a2234823d19f2fecd7", "is_disabled": 0, "is_reserved": 0}, {"rental_uris": {"ios": "https://dc.lft.to/lastmile_qr_scan", "android": "https://dc.lft.to/lastmile_qr_scan"}, "lon": -77.03205783333334, "type": "electric_scooter", "fusion_lat": 0.0, "lat": 38.88701, "name": "b257c3d74fa55e50c6786024431a392e", "fusion_lon": 0.0, "bike_id": "b257c3d74fa55e50c6786024431a392e", "is_disabled": 0, "is_reserved": 0}, {"rental_uris": {"ios": "https://dc.lft.to/lastmile_qr_scan", "android": "https://dc.lft.to/lastmile_qr_scan"}, "lon": -77.02389483333333, "type": "electric_scooter", "fusion_lat": 0.0, "lat": 38.8848685, "name": "b8b59c2672e8da76239b2edba4184a98", "fusion_lon": 0.0, "bike_id": "b8b59c2672e8da76239b2edba4184a98", "is_disabled": 0, "is_reserved": 0}, {"rental_uris": {"ios": "https://dc.lft.to/lastmile_qr_scan", "android": "https://dc.lft.to/lastmile_qr_scan"}, "lon": -77.0468075, "type": "electric_scooter", "fusion_lat": 0.0, "lat": 38.89735066666667, "name": "64b43404ffcd5b0cb5d4d4a8a6aaacfd", "fusion_lon": 0.0, "bike_id": "64b43404ffcd5b0cb5d4d4a8a6aaacfd", "is_disabled": 0, "is_reserved": 0}, {"rental_uris": {"ios": "https://dc.lft.to/lastmile_qr_scan", "android": "https://dc.lft.to/lastmile_qr_scan"}, "lon": -77.03342683333334, "type": "electric_scooter", "fusion_lat": 0.0, "lat": 38.89956383333333, "name": "b4d3b7f82ee7de1d8964e743b592b310", "fusion_lon": 0.0, "bike_id": "b4d3b7f82ee7de1d8964e743b592b310", "is_disabled": 0, "is_reserved": 0}, {"rental_uris": {"ios": "https://dc.lft.to/lastmile_qr_scan", "android": "https://dc.lft.to/lastmile_qr_scan"}, "lon": -77.03666816666667, "type": "electric_scooter", "fusion_lat": 0.0, "lat": 38.91817666666667, "name": "983a45f2bc6d3fe3e069d514c663fb6d", "fusion_lon": 0.0, "bike_id": "983a45f2bc6d3fe3e069d514c663fb6d", "is_disabled": 0, "is_reserved": 0}, {"rental_uris": {"ios": "https://dc.lft.to/lastmile_qr_scan", "android": "https://dc.lft.to/lastmile_qr_scan"}, "lon": -77.03857716666667, "type": "electric_scooter", "fusion_lat": 0.0, "lat": 38.9120825, "name": "06ba686387471379bc19cb0cd7e96ba2", "fusion_lon": 0.0, "bike_id": "06ba686387471379bc19cb0cd7e96ba2", "is_disabled": 0, "is_reserved": 0}, {"rental_uris": {"ios": "https://dc.lft.to/lastmile_qr_scan", "android": "https://dc.lft.to/lastmile_qr_scan"}, "lon": -77.11319133333333, "type": "electric_bike", "fusion_lat": 0.0, "lat": 38.85566516666667, "name": "71b550de6c342893d0ad8f68dc6c0311", "fusion_lon": 0.0, "bike_id": "71b550de6c342893d0ad8f68dc6c0311", "is_disabled": 0, "is_reserved": 0}, {"rental_uris": {"ios": "https://dc.lft.to/lastmile_qr_scan", "android": "https://dc.lft.to/lastmile_qr_scan"}, "lon": -76.98694133333333, "type": "electric_scooter", "fusion_lat": 0.0, "lat": 38.91288216666667, "name": "66d066b50282b2fbd0f3200ff13cebfd", "fusion_lon": 0.0, "bike_id": "66d066b50282b2fbd0f3200ff13cebfd", "is_disabled": 0, "is_reserved": 0}, {"rental_uris": {"ios": "https://dc.lft.to/lastmile_qr_scan", "android": "https://dc.lft.to/lastmile_qr_scan"}, "lon": -77.03205916666667, "type": "electric_scooter", "fusion_lat": 0.0, "lat": 38.925839833333335, "name": "e4e3c253c5832e2c0151f4826b426796", "fusion_lon": 0.0, "bike_id": "e4e3c253c5832e2c0151f4826b426796", "is_disabled": 0, "is_reserved": 0}, {"rental_uris": {"ios": "https://dc.lft.to/lastmile_qr_scan", "android": "https://dc.lft.to/lastmile_qr_scan"}, "lon": -77.06878816666666, "type": "electric_scooter", "fusion_lat": 0.0, "lat": 38.905169, "name": "a00da9eb33def6aad4748a5b46d58537", "fusion_lon": 0.0, "bike_id": "a00da9eb33def6aad4748a5b46d58537", "is_disabled": 0, "is_reserved": 0}, {"rental_uris": {"ios": "https://dc.lft.to/lastmile_qr_scan", "android": "https://dc.lft.to/lastmile_qr_scan"}, "lon": -77.010881, "type": "electric_scooter", "fusion_lat": 0.0, "lat": 38.89397116666667, "name": "832bda0e12004da31cfe8ba93be9669f", "fusion_lon": 0.0, "bike_id": "832bda0e12004da31cfe8ba93be9669f", "is_disabled": 0, "is_reserved": 0}, {"rental_uris": {"ios": "https://dc.lft.to/lastmile_qr_scan", "android": "https://dc.lft.to/lastmile_qr_scan"}, "lon": -76.94754716666667, "type": "electric_scooter", "fusion_lat": 0.0, "lat": 38.89682066666667, "name": "47963a650d6aecd5235c83e48434475a", "fusion_lon": 0.0, "bike_id": "47963a650d6aecd5235c83e48434475a", "is_disabled": 0, "is_reserved": 0}, {"rental_uris": {"ios": "https://dc.lft.to/lastmile_qr_scan", "android": "https://dc.lft.to/lastmile_qr_scan"}, "lon": -77.03677016666667, "type": "electric_scooter", "fusion_lat": 0.0, "lat": 38.90689, "name": "25e4bf92bcdd25a60bf0ee32d5d5a7b3", "fusion_lon": 0.0, "bike_id": "25e4bf92bcdd25a60bf0ee32d5d5a7b3", "is_disabled": 0, "is_reserved": 0}, {"rental_uris": {"ios": "https://dc.lft.to/lastmile_qr_scan", "android": "https://dc.lft.to/lastmile_qr_scan"}, "lon": -77.0244785, "type": "electric_scooter", "fusion_lat": 0.0, "lat": 38.919237333333335, "name": "50f39c9d9c21ecc7a4ee845d26ce3e09", "fusion_lon": 0.0, "bike_id": "50f39c9d9c21ecc7a4ee845d26ce3e09", "is_disabled": 0, "is_reserved": 0}, {"rental_uris": {"ios": "https://dc.lft.to/lastmile_qr_scan", "android": "https://dc.lft.to/lastmile_qr_scan"}, "lon": -77.02204716666667, "type": "electric_scooter", "fusion_lat": 0.0, "lat": 38.9153675, "name": "2815e16c03f05d701c29cd99aec4526f", "fusion_lon": 0.0, "bike_id": "2815e16c03f05d701c29cd99aec4526f", "is_disabled": 0, "is_reserved": 0}, {"rental_uris": {"ios": "https://dc.lft.to/lastmile_qr_scan", "android": "https://dc.lft.to/lastmile_qr_scan"}, "lon": -77.04056283333334, "type": "electric_scooter", "fusion_lat": 0.0, "lat": 38.92711883333333, "name": "7f7c9ed2624368657d31b7cee9f0336f", "fusion_lon": 0.0, "bike_id": "7f7c9ed2624368657d31b7cee9f0336f", "is_disabled": 0, "is_reserved": 0}, {"rental_uris": {"ios": "https://dc.lft.to/lastmile_qr_scan", "android": "https://dc.lft.to/lastmile_qr_scan"}, "lon": -77.015106, "type": "electric_scooter", "fusion_lat": 0.0, "lat": 38.910535833333334, "name": "9051e3978874c0cc0bff08e6336b83b8", "fusion_lon": 0.0, "bike_id": "9051e3978874c0cc0bff08e6336b83b8", "is_disabled": 0, "is_reserved": 0}, {"rental_uris": {"ios": "https://dc.lft.to/lastmile_qr_scan", "android": "https://dc.lft.to/lastmile_qr_scan"}, "lon": -77.01219333333333, "type": "electric_scooter", "fusion_lat": 0.0, "lat": 38.91971566666667, "name": "81e001a065e6f957aa2da31548f4a282", "fusion_lon": 0.0, "bike_id": "81e001a065e6f957aa2da31548f4a282", "is_disabled": 0, "is_reserved": 0}, {"rental_uris": {"ios": "https://dc.lft.to/lastmile_qr_scan", "android": "https://dc.lft.to/lastmile_qr_scan"}, "lon": -77.02220616666666, "type": "electric_scooter", "fusion_lat": 0.0, "lat": 38.891973, "name": "a772b7dfe261130e60a54319582bd17a", "fusion_lon": 0.0, "bike_id": "a772b7dfe261130e60a54319582bd17a", "is_disabled": 0, "is_reserved": 0}, {"rental_uris": {"ios": "https://dc.lft.to/lastmile_qr_scan", "android": "https://dc.lft.to/lastmile_qr_scan"}, "lon": -77.03551666666667, "type": "electric_scooter", "fusion_lat": 0.0, "lat": 38.908349333333334, "name": "2f7cbbc114c3a4dd3d2dbe5b7d9aa8b7", "fusion_lon": 0.0, "bike_id": "2f7cbbc114c3a4dd3d2dbe5b7d9aa8b7", "is_disabled": 0, "is_reserved": 0}, {"rental_uris": {"ios": "https://dc.lft.to/lastmile_qr_scan", "android": "https://dc.lft.to/lastmile_qr_scan"}, "lon": -77.0882515, "type": "electric_bike", "fusion_lat": 0.0, "lat": 38.90974716666667, "name": "f576133563c61a99d2931cb627fe6caf", "fusion_lon": 0.0, "bike_id": "f576133563c61a99d2931cb627fe6caf", "is_disabled": 0, "is_reserved": 0}, {"rental_uris": {"ios": "https://dc.lft.to/lastmile_qr_scan", "android": "https://dc.lft.to/lastmile_qr_scan"}, "lon": -77.080756, "type": "electric_bike", "fusion_lat": 0.0, "lat": 38.90698366666667, "name": "2350fda4370a0c5dbda8d93050601a26", "fusion_lon": 0.0, "bike_id": "2350fda4370a0c5dbda8d93050601a26", "is_disabled": 0, "is_reserved": 0}, {"rental_uris": {"ios": "https://dc.lft.to/lastmile_qr_scan", "android": "https://dc.lft.to/lastmile_qr_scan"}, "lon": -77.03995533333334, "type": "electric_scooter", "fusion_lat": 0.0, "lat": 38.901336666666666, "name": "cfcb1fc065c684160193d91a1c6a25ee", "fusion_lon": 0.0, "bike_id": "cfcb1fc065c684160193d91a1c6a25ee", "is_disabled": 0, "is_reserved": 0}, {"rental_uris": {"ios": "https://dc.lft.to/lastmile_qr_scan", "android": "https://dc.lft.to/lastmile_qr_scan"}, "lon": -77.09962666666667, "type": "electric_bike", "fusion_lat": 0.0, "lat": 38.857890166666664, "name": "ad1cc87fc54d0ba42797bc539f1fea8e", "fusion_lon": 0.0, "bike_id": "ad1cc87fc54d0ba42797bc539f1fea8e", "is_disabled": 0, "is_reserved": 0}, {"rental_uris": {"ios": "https://dc.lft.to/lastmile_qr_scan", "android": "https://dc.lft.to/lastmile_qr_scan"}, "lon": -77.011237, "type": "electric_scooter", "fusion_lat": 0.0, "lat": 38.895097166666666, "name": "0296350d8d91f665e76debb05bcff43b", "fusion_lon": 0.0, "bike_id": "0296350d8d91f665e76debb05bcff43b", "is_disabled": 0, "is_reserved": 0}, {"rental_uris": {"ios": "https://dc.lft.to/lastmile_qr_scan", "android": "https://dc.lft.to/lastmile_qr_scan"}, "lon": -77.04156683333333, "type": "electric_scooter", "fusion_lat": 0.0, "lat": 38.919162666666665, "name": "7d04d2353d39a98101d271aac2b2805c", "fusion_lon": 0.0, "bike_id": "7d04d2353d39a98101d271aac2b2805c", "is_disabled": 0, "is_reserved": 0}, {"rental_uris": {"ios": "https://dc.lft.to/lastmile_qr_scan", "android": "https://dc.lft.to/lastmile_qr_scan"}, "lon": -77.01842266666667, "type": "electric_scooter", "fusion_lat": 0.0, "lat": 38.919777, "name": "1b913482e9dfce3f3354788c601c8687", "fusion_lon": 0.0, "bike_id": "1b913482e9dfce3f3354788c601c8687", "is_disabled": 0, "is_reserved": 0}, {"rental_uris": {"ios": "https://dc.lft.to/lastmile_qr_scan", "android": "https://dc.lft.to/lastmile_qr_scan"}, "lon": -77.0255865, "type": "electric_scooter", "fusion_lat": 0.0, "lat": 38.92536416666667, "name": "539529182077b79d80ff12975ccf18a0", "fusion_lon": 0.0, "bike_id": "539529182077b79d80ff12975ccf18a0", "is_disabled": 0, "is_reserved": 0}, {"rental_uris": {"ios": "https://dc.lft.to/lastmile_qr_scan", "android": "https://dc.lft.to/lastmile_qr_scan"}, "lon": -76.9472365, "type": "electric_scooter", "fusion_lat": 0.0, "lat": 38.89678133333334, "name": "13a1c4dc4a49a9090757740e4a3bcdbb", "fusion_lon": 0.0, "bike_id": "13a1c4dc4a49a9090757740e4a3bcdbb", "is_disabled": 0, "is_reserved": 0}, {"rental_uris": {"ios": "https://dc.lft.to/lastmile_qr_scan", "android": "https://dc.lft.to/lastmile_qr_scan"}, "lon": -77.027309, "type": "electric_scooter", "fusion_lat": 0.0, "lat": 38.924835, "name": "c8b2ed824b33ee159a4490dfe8219d24", "fusion_lon": 0.0, "bike_id": "c8b2ed824b33ee159a4490dfe8219d24", "is_disabled": 0, "is_reserved": 0}, {"rental_uris": {"ios": "https://dc.lft.to/lastmile_qr_scan", "android": "https://dc.lft.to/lastmile_qr_scan"}, "lon": -77.02726916666667, "type": "electric_scooter", "fusion_lat": 0.0, "lat": 38.9248095, "name": "0b116d0e4d4d55853c0379e381c3f154", "fusion_lon": 0.0, "bike_id": "0b116d0e4d4d55853c0379e381c3f154", "is_disabled": 0, "is_reserved": 0}, {"rental_uris": {"ios": "https://dc.lft.to/lastmile_qr_scan", "android": "https://dc.lft.to/lastmile_qr_scan"}, "lon": -77.04390416666666, "type": "electric_scooter", "fusion_lat": 0.0, "lat": 38.91791083333333, "name": "b04e2da72a128fd9e168220fc7aae42c", "fusion_lon": 0.0, "bike_id": "b04e2da72a128fd9e168220fc7aae42c", "is_disabled": 0, "is_reserved": 0}, {"rental_uris": {"ios": "https://dc.lft.to/lastmile_qr_scan", "android": "https://dc.lft.to/lastmile_qr_scan"}, "lon": -77.0464465, "type": "electric_bike", "fusion_lat": 0.0, "lat": 38.852138833333335, "name": "3354158acb968ad5b84915dc3aae93b7", "fusion_lon": 0.0, "bike_id": "3354158acb968ad5b84915dc3aae93b7", "is_disabled": 0, "is_reserved": 0}, {"rental_uris": {"ios": "https://dc.lft.to/lastmile_qr_scan", "android": "https://dc.lft.to/lastmile_qr_scan"}, "lon": -77.03340516666667, "type": "electric_scooter", "fusion_lat": 0.0, "lat": 38.9004185, "name": "b14d0aa2fdc5f37869cfc44f25d5b8a6", "fusion_lon": 0.0, "bike_id": "b14d0aa2fdc5f37869cfc44f25d5b8a6", "is_disabled": 0, "is_reserved": 0}, {"rental_uris": {"ios": "https://dc.lft.to/lastmile_qr_scan", "android": "https://dc.lft.to/lastmile_qr_scan"}, "lon": -77.04197516666666, "type": "electric_scooter", "fusion_lat": 0.0, "lat": 38.92630583333333, "name": "2b2ac9b3e3221e443d840d7638caa6cf", "fusion_lon": 0.0, "bike_id": "2b2ac9b3e3221e443d840d7638caa6cf", "is_disabled": 0, "is_reserved": 0}, {"rental_uris": {"ios": "https://dc.lft.to/lastmile_qr_scan", "android": "https://dc.lft.to/lastmile_qr_scan"}, "lon": -77.05313666666666, "type": "electric_scooter", "fusion_lat": 0.0, "lat": 38.923544, "name": "24385cf7076fd615cc40f1c051b7927f", "fusion_lon": 0.0, "bike_id": "24385cf7076fd615cc40f1c051b7927f", "is_disabled": 0, "is_reserved": 0}, {"rental_uris": {"ios": "https://dc.lft.to/lastmile_qr_scan", "android": "https://dc.lft.to/lastmile_qr_scan"}, "lon": -77.02177116666667, "type": "electric_scooter", "fusion_lat": 0.0, "lat": 38.896392, "name": "e92b52a3e7a09da61788403d33df004d", "fusion_lon": 0.0, "bike_id": "e92b52a3e7a09da61788403d33df004d", "is_disabled": 0, "is_reserved": 0}, {"rental_uris": {"ios": "https://dc.lft.to/lastmile_qr_scan", "android": "https://dc.lft.to/lastmile_qr_scan"}, "lon": -77.01433516666667, "type": "electric_scooter", "fusion_lat": 0.0, "lat": 38.9423205, "name": "df9f2e48ed5ff7be525a216eff9f8862", "fusion_lon": 0.0, "bike_id": "df9f2e48ed5ff7be525a216eff9f8862", "is_disabled": 0, "is_reserved": 0}, {"rental_uris": {"ios": "https://dc.lft.to/lastmile_qr_scan", "android": "https://dc.lft.to/lastmile_qr_scan"}, "lon": -77.038806, "type": "electric_scooter", "fusion_lat": 0.0, "lat": 38.90815116666667, "name": "65e648472c7c2c2333eb5afbb472a70c", "fusion_lon": 0.0, "bike_id": "65e648472c7c2c2333eb5afbb472a70c", "is_disabled": 0, "is_reserved": 0}, {"rental_uris": {"ios": "https://dc.lft.to/lastmile_qr_scan", "android": "https://dc.lft.to/lastmile_qr_scan"}, "lon": -77.01190833333334, "type": "electric_scooter", "fusion_lat": 0.0, "lat": 38.90013883333334, "name": "b2a57b4e8875a8d25a4fbbac687677c2", "fusion_lon": 0.0, "bike_id": "b2a57b4e8875a8d25a4fbbac687677c2", "is_disabled": 0, "is_reserved": 0}, {"rental_uris": {"ios": "https://dc.lft.to/lastmile_qr_scan", "android": "https://dc.lft.to/lastmile_qr_scan"}, "lon": -77.02343833333333, "type": "electric_scooter", "fusion_lat": 0.0, "lat": 38.96207233333333, "name": "28a00a8a3428d10b7ac9b01d1126aee5", "fusion_lon": 0.0, "bike_id": "28a00a8a3428d10b7ac9b01d1126aee5", "is_disabled": 0, "is_reserved": 0}, {"rental_uris": {"ios": "https://dc.lft.to/lastmile_qr_scan", "android": "https://dc.lft.to/lastmile_qr_scan"}, "lon": -77.05728383333333, "type": "electric_scooter", "fusion_lat": 0.0, "lat": 38.9336515, "name": "6a7c8099a29ae8908ebc417230f5a83e", "fusion_lon": 0.0, "bike_id": "6a7c8099a29ae8908ebc417230f5a83e", "is_disabled": 0, "is_reserved": 0}, {"rental_uris": {"ios": "https://dc.lft.to/lastmile_qr_scan", "android": "https://dc.lft.to/lastmile_qr_scan"}, "lon": -77.00566583333334, "type": "electric_scooter", "fusion_lat": 0.0, "lat": 38.92721433333333, "name": "448afdeac47f52c4c88c4cd1bd1193f7", "fusion_lon": 0.0, "bike_id": "448afdeac47f52c4c88c4cd1bd1193f7", "is_disabled": 0, "is_reserved": 0}, {"rental_uris": {"ios": "https://dc.lft.to/lastmile_qr_scan", "android": "https://dc.lft.to/lastmile_qr_scan"}, "lon": -77.0051385, "type": "electric_scooter", "fusion_lat": 0.0, "lat": 38.92909, "name": "726606a946fa65e0ccf9a8cc85c56c15", "fusion_lon": 0.0, "bike_id": "726606a946fa65e0ccf9a8cc85c56c15", "is_disabled": 0, "is_reserved": 0}, {"rental_uris": {"ios": "https://dc.lft.to/lastmile_qr_scan", "android": "https://dc.lft.to/lastmile_qr_scan"}, "lon": -77.06350166666667, "type": "electric_scooter", "fusion_lat": 0.0, "lat": 38.944477166666665, "name": "9ac9408d23bda19d2723fdfc4ae9219a", "fusion_lon": 0.0, "bike_id": "9ac9408d23bda19d2723fdfc4ae9219a", "is_disabled": 0, "is_reserved": 0}, {"rental_uris": {"ios": "https://dc.lft.to/lastmile_qr_scan", "android": "https://dc.lft.to/lastmile_qr_scan"}, "lon": -77.04810816666667, "type": "electric_scooter", "fusion_lat": 0.0, "lat": 38.8972695, "name": "a9c1807466b656ca2594863c123a11ab", "fusion_lon": 0.0, "bike_id": "a9c1807466b656ca2594863c123a11ab", "is_disabled": 0, "is_reserved": 0}, {"rental_uris": {"ios": "https://dc.lft.to/lastmile_qr_scan", "android": "https://dc.lft.to/lastmile_qr_scan"}, "lon": -77.03955233333333, "type": "electric_scooter", "fusion_lat": 0.0, "lat": 38.9148145, "name": "5f850f727b707bb8a5f9e1cf49893cad", "fusion_lon": 0.0, "bike_id": "5f850f727b707bb8a5f9e1cf49893cad", "is_disabled": 0, "is_reserved": 0}, {"rental_uris": {"ios": "https://dc.lft.to/lastmile_qr_scan", "android": "https://dc.lft.to/lastmile_qr_scan"}, "lon": -77.03031933333334, "type": "electric_scooter", "fusion_lat": 0.0, "lat": 38.93112083333333, "name": "93749732f3baabe8f87903e8a946a563", "fusion_lon": 0.0, "bike_id": "93749732f3baabe8f87903e8a946a563", "is_disabled": 0, "is_reserved": 0}, {"rental_uris": {"ios": "https://dc.lft.to/lastmile_qr_scan", "android": "https://dc.lft.to/lastmile_qr_scan"}, "lon": -77.0354105, "type": "electric_scooter", "fusion_lat": 0.0, "lat": 38.9259605, "name": "73a9dd873c706af8a38eeb33ec3f5470", "fusion_lon": 0.0, "bike_id": "73a9dd873c706af8a38eeb33ec3f5470", "is_disabled": 0, "is_reserved": 0}, {"rental_uris": {"ios": "https://dc.lft.to/lastmile_qr_scan", "android": "https://dc.lft.to/lastmile_qr_scan"}, "lon": -77.0727, "type": "electric_scooter", "fusion_lat": 0.0, "lat": 38.934825333333336, "name": "fad56baa7e6118749e9affdc9b13ab18", "fusion_lon": 0.0, "bike_id": "fad56baa7e6118749e9affdc9b13ab18", "is_disabled": 0, "is_reserved": 0}, {"rental_uris": {"ios": "https://dc.lft.to/lastmile_qr_scan", "android": "https://dc.lft.to/lastmile_qr_scan"}, "lon": -77.034441, "type": "electric_scooter", "fusion_lat": 0.0, "lat": 38.90761416666667, "name": "f276a7e6f350b2c4ebaabb57b5545ceb", "fusion_lon": 0.0, "bike_id": "f276a7e6f350b2c4ebaabb57b5545ceb", "is_disabled": 0, "is_reserved": 0}, {"rental_uris": {"ios": "https://dc.lft.to/lastmile_qr_scan", "android": "https://dc.lft.to/lastmile_qr_scan"}, "lon": -77.032862, "type": "electric_scooter", "fusion_lat": 0.0, "lat": 38.932046166666666, "name": "101c882eafc384f44e90dbac9a21dbf1", "fusion_lon": 0.0, "bike_id": "101c882eafc384f44e90dbac9a21dbf1", "is_disabled": 0, "is_reserved": 0}, {"rental_uris": {"ios": "https://dc.lft.to/lastmile_qr_scan", "android": "https://dc.lft.to/lastmile_qr_scan"}, "lon": -77.03633283333333, "type": "electric_scooter", "fusion_lat": 0.0, "lat": 38.937196166666666, "name": "3d3738fd1d54f0a49e51bfb1f542233d", "fusion_lon": 0.0, "bike_id": "3d3738fd1d54f0a49e51bfb1f542233d", "is_disabled": 0, "is_reserved": 0}, {"rental_uris": {"ios": "https://dc.lft.to/lastmile_qr_scan", "android": "https://dc.lft.to/lastmile_qr_scan"}, "lon": -76.985628, "type": "electric_bike", "fusion_lat": 0.0, "lat": 38.868897, "name": "634a01844a45a9a736377578715111ef", "fusion_lon": 0.0, "bike_id": "634a01844a45a9a736377578715111ef", "is_disabled": 0, "is_reserved": 0}, {"rental_uris": {"ios": "https://dc.lft.to/lastmile_qr_scan", "android": "https://dc.lft.to/lastmile_qr_scan"}, "lon": -76.9914195, "type": "electric_scooter", "fusion_lat": 0.0, "lat": 38.8859385, "name": "5f09edab16a911910f45be383686067f", "fusion_lon": 0.0, "bike_id": "5f09edab16a911910f45be383686067f", "is_disabled": 0, "is_reserved": 0}, {"rental_uris": {"ios": "https://dc.lft.to/lastmile_qr_scan", "android": "https://dc.lft.to/lastmile_qr_scan"}, "lon": -77.07164966666667, "type": "electric_scooter", "fusion_lat": 0.0, "lat": 38.9074865, "name": "fe2bd29189eb24d16309ce50ed9b74f3", "fusion_lon": 0.0, "bike_id": "fe2bd29189eb24d16309ce50ed9b74f3", "is_disabled": 0, "is_reserved": 0}, {"rental_uris": {"ios": "https://dc.lft.to/lastmile_qr_scan", "android": "https://dc.lft.to/lastmile_qr_scan"}, "lon": -77.02693116666667, "type": "electric_scooter", "fusion_lat": 0.0, "lat": 38.90936416666667, "name": "fb756e2183b86c2cdb5feee66b6d8090", "fusion_lon": 0.0, "bike_id": "fb756e2183b86c2cdb5feee66b6d8090", "is_disabled": 0, "is_reserved": 0}, {"rental_uris": {"ios": "https://dc.lft.to/lastmile_qr_scan", "android": "https://dc.lft.to/lastmile_qr_scan"}, "lon": -77.04271133333333, "type": "electric_scooter", "fusion_lat": 0.0, "lat": 38.9341665, "name": "c53f58c11ead90318e008533084a2b4c", "fusion_lon": 0.0, "bike_id": "c53f58c11ead90318e008533084a2b4c", "is_disabled": 0, "is_reserved": 0}, {"rental_uris": {"ios": "https://dc.lft.to/lastmile_qr_scan", "android": "https://dc.lft.to/lastmile_qr_scan"}, "lon": -77.0317945, "type": "electric_scooter", "fusion_lat": 0.0, "lat": 38.893941833333336, "name": "593c61dbf99244ed4ad3c9be1fc311e4", "fusion_lon": 0.0, "bike_id": "593c61dbf99244ed4ad3c9be1fc311e4", "is_disabled": 0, "is_reserved": 0}, {"rental_uris": {"ios": "https://dc.lft.to/lastmile_qr_scan", "android": "https://dc.lft.to/lastmile_qr_scan"}, "lon": -76.94630216666667, "type": "electric_bike", "fusion_lat": 0.0, "lat": 38.94626216666666, "name": "fb7ec390d1f63ddca56ceca76f3c4042", "fusion_lon": 0.0, "bike_id": "fb7ec390d1f63ddca56ceca76f3c4042", "is_disabled": 0, "is_reserved": 0}, {"rental_uris": {"ios": "https://dc.lft.to/lastmile_qr_scan", "android": "https://dc.lft.to/lastmile_qr_scan"}, "lon": -77.0220375, "type": "electric_scooter", "fusion_lat": 0.0, "lat": 38.91540783333333, "name": "010a7b05fc8cde7d48d77dbf7b6c62f0", "fusion_lon": 0.0, "bike_id": "010a7b05fc8cde7d48d77dbf7b6c62f0", "is_disabled": 0, "is_reserved": 0}, {"rental_uris": {"ios": "https://dc.lft.to/lastmile_qr_scan", "android": "https://dc.lft.to/lastmile_qr_scan"}, "lon": -77.02174716666667, "type": "electric_scooter", "fusion_lat": 0.0, "lat": 38.9079135, "name": "8c4294a08a0553f08287087909735b75", "fusion_lon": 0.0, "bike_id": "8c4294a08a0553f08287087909735b75", "is_disabled": 0, "is_reserved": 0}, {"rental_uris": {"ios": "https://dc.lft.to/lastmile_qr_scan", "android": "https://dc.lft.to/lastmile_qr_scan"}, "lon": -77.03958133333333, "type": "electric_scooter", "fusion_lat": 0.0, "lat": 38.8924355, "name": "617a00edf7ba1afe40fcb849d4d8f8df", "fusion_lon": 0.0, "bike_id": "617a00edf7ba1afe40fcb849d4d8f8df", "is_disabled": 0, "is_reserved": 0}, {"rental_uris": {"ios": "https://dc.lft.to/lastmile_qr_scan", "android": "https://dc.lft.to/lastmile_qr_scan"}, "lon": -76.95515183333333, "type": "electric_scooter", "fusion_lat": 0.0, "lat": 38.89055066666667, "name": "fb407efafd1e3cf6917fccd3a5a86a3e", "fusion_lon": 0.0, "bike_id": "fb407efafd1e3cf6917fccd3a5a86a3e", "is_disabled": 0, "is_reserved": 0}, {"rental_uris": {"ios": "https://dc.lft.to/lastmile_qr_scan", "android": "https://dc.lft.to/lastmile_qr_scan"}, "lon": -77.05081616666666, "type": "electric_scooter", "fusion_lat": 0.0, "lat": 38.896095, "name": "8eb297420090b09fa7f0b1943e15a963", "fusion_lon": 0.0, "bike_id": "8eb297420090b09fa7f0b1943e15a963", "is_disabled": 0, "is_reserved": 0}, {"rental_uris": {"ios": "https://dc.lft.to/lastmile_qr_scan", "android": "https://dc.lft.to/lastmile_qr_scan"}, "lon": -76.9720705, "type": "electric_scooter", "fusion_lat": 0.0, "lat": 38.854946, "name": "fbd34a5fb5421dd9d8ab98ea5b435666", "fusion_lon": 0.0, "bike_id": "fbd34a5fb5421dd9d8ab98ea5b435666", "is_disabled": 0, "is_reserved": 0}, {"rental_uris": {"ios": "https://dc.lft.to/lastmile_qr_scan", "android": "https://dc.lft.to/lastmile_qr_scan"}, "lon": -77.05160866666667, "type": "electric_scooter", "fusion_lat": 0.0, "lat": 38.905971666666666, "name": "132fb91646189f55086415a89141d7c2", "fusion_lon": 0.0, "bike_id": "132fb91646189f55086415a89141d7c2", "is_disabled": 0, "is_reserved": 0}, {"rental_uris": {"ios": "https://dc.lft.to/lastmile_qr_scan", "android": "https://dc.lft.to/lastmile_qr_scan"}, "lon": -76.99881433333333, "type": "electric_scooter", "fusion_lat": 0.0, "lat": 38.90752616666666, "name": "64fc17c5c3345868608fd61073bbb85d", "fusion_lon": 0.0, "bike_id": "64fc17c5c3345868608fd61073bbb85d", "is_disabled": 0, "is_reserved": 0}, {"rental_uris": {"ios": "https://dc.lft.to/lastmile_qr_scan", "android": "https://dc.lft.to/lastmile_qr_scan"}, "lon": -76.91659366666667, "type": "electric_bike", "fusion_lat": 0.0, "lat": 38.86862583333333, "name": "f05faa39c8d1c78f9b0ba1d3f98f7966", "fusion_lon": 0.0, "bike_id": "f05faa39c8d1c78f9b0ba1d3f98f7966", "is_disabled": 0, "is_reserved": 0}, {"rental_uris": {"ios": "https://dc.lft.to/lastmile_qr_scan", "android": "https://dc.lft.to/lastmile_qr_scan"}, "lon": -77.03465633333333, "type": "electric_scooter", "fusion_lat": 0.0, "lat": 38.9264635, "name": "298939034fa8195465296aa11cb243f8", "fusion_lon": 0.0, "bike_id": "298939034fa8195465296aa11cb243f8", "is_disabled": 0, "is_reserved": 0}, {"rental_uris": {"ios": "https://dc.lft.to/lastmile_qr_scan", "android": "https://dc.lft.to/lastmile_qr_scan"}, "lon": -77.026031, "type": "electric_scooter", "fusion_lat": 0.0, "lat": 38.89968266666666, "name": "4a6f65e3f630c8f5e117fd7198565765", "fusion_lon": 0.0, "bike_id": "4a6f65e3f630c8f5e117fd7198565765", "is_disabled": 0, "is_reserved": 0}, {"rental_uris": {"ios": "https://dc.lft.to/lastmile_qr_scan", "android": "https://dc.lft.to/lastmile_qr_scan"}, "lon": -77.12734966666666, "type": "electric_bike", "fusion_lat": 0.0, "lat": 38.8956075, "name": "84fb563951b3f86c04dd22f10eebfa78", "fusion_lon": 0.0, "bike_id": "84fb563951b3f86c04dd22f10eebfa78", "is_disabled": 0, "is_reserved": 0}, {"rental_uris": {"ios": "https://dc.lft.to/lastmile_qr_scan", "android": "https://dc.lft.to/lastmile_qr_scan"}, "lon": -77.01120933333333, "type": "electric_scooter", "fusion_lat": 0.0, "lat": 38.916203, "name": "c8c8ec4fd78e7b0b023ed383bf79e187", "fusion_lon": 0.0, "bike_id": "c8c8ec4fd78e7b0b023ed383bf79e187", "is_disabled": 0, "is_reserved": 0}, {"rental_uris": {"ios": "https://dc.lft.to/lastmile_qr_scan", "android": "https://dc.lft.to/lastmile_qr_scan"}, "lon": -77.04195416666667, "type": "electric_scooter", "fusion_lat": 0.0, "lat": 38.91261016666667, "name": "8af0387e624be277bb33b9cf4dcf1825", "fusion_lon": 0.0, "bike_id": "8af0387e624be277bb33b9cf4dcf1825", "is_disabled": 0, "is_reserved": 0}, {"rental_uris": {"ios": "https://dc.lft.to/lastmile_qr_scan", "android": "https://dc.lft.to/lastmile_qr_scan"}, "lon": -76.94891916666667, "type": "electric_scooter", "fusion_lat": 0.0, "lat": 38.89527966666667, "name": "3c43ca0e5996e35f8e9b88ee58bebd36", "fusion_lon": 0.0, "bike_id": "3c43ca0e5996e35f8e9b88ee58bebd36", "is_disabled": 0, "is_reserved": 0}, {"rental_uris": {"ios": "https://dc.lft.to/lastmile_qr_scan", "android": "https://dc.lft.to/lastmile_qr_scan"}, "lon": -77.0449075, "type": "electric_scooter", "fusion_lat": 0.0, "lat": 38.9193565, "name": "7179cb6a019fb254a801ea19fe578f7c", "fusion_lon": 0.0, "bike_id": "7179cb6a019fb254a801ea19fe578f7c", "is_disabled": 0, "is_reserved": 0}, {"rental_uris": {"ios": "https://dc.lft.to/lastmile_qr_scan", "android": "https://dc.lft.to/lastmile_qr_scan"}, "lon": -77.01627683333334, "type": "electric_scooter", "fusion_lat": 0.0, "lat": 38.876748, "name": "4ce9636350d449f8818b6dea01826a57", "fusion_lon": 0.0, "bike_id": "4ce9636350d449f8818b6dea01826a57", "is_disabled": 0, "is_reserved": 0}, {"rental_uris": {"ios": "https://dc.lft.to/lastmile_qr_scan", "android": "https://dc.lft.to/lastmile_qr_scan"}, "lon": -77.002127, "type": "electric_scooter", "fusion_lat": 0.0, "lat": 38.90223916666667, "name": "db17260f62e995c905e825fdd4d6468d", "fusion_lon": 0.0, "bike_id": "db17260f62e995c905e825fdd4d6468d", "is_disabled": 0, "is_reserved": 0}, {"rental_uris": {"ios": "https://dc.lft.to/lastmile_qr_scan", "android": "https://dc.lft.to/lastmile_qr_scan"}, "lon": -77.0057035, "type": "electric_scooter", "fusion_lat": 0.0, "lat": 38.8722225, "name": "648c025c6629c3cc08ab51f33f60bf19", "fusion_lon": 0.0, "bike_id": "648c025c6629c3cc08ab51f33f60bf19", "is_disabled": 0, "is_reserved": 0}, {"rental_uris": {"ios": "https://dc.lft.to/lastmile_qr_scan", "android": "https://dc.lft.to/lastmile_qr_scan"}, "lon": -77.0746885, "type": "electric_bike", "fusion_lat": 0.0, "lat": 38.920610833333335, "name": "c6c527487228c0fc80c994c38e02a8ae", "fusion_lon": 0.0, "bike_id": "c6c527487228c0fc80c994c38e02a8ae", "is_disabled": 0, "is_reserved": 0}, {"rental_uris": {"ios": "https://dc.lft.to/lastmile_qr_scan", "android": "https://dc.lft.to/lastmile_qr_scan"}, "lon": -77.02578183333334, "type": "electric_scooter", "fusion_lat": 0.0, "lat": 38.88413633333333, "name": "d25fc2734bdff3819e2c12ea414301a2", "fusion_lon": 0.0, "bike_id": "d25fc2734bdff3819e2c12ea414301a2", "is_disabled": 0, "is_reserved": 0}, {"rental_uris": {"ios": "https://dc.lft.to/lastmile_qr_scan", "android": "https://dc.lft.to/lastmile_qr_scan"}, "lon": -77.05267966666666, "type": "electric_scooter", "fusion_lat": 0.0, "lat": 38.910182, "name": "34156eb1ce07720eebacb760a2abd345", "fusion_lon": 0.0, "bike_id": "34156eb1ce07720eebacb760a2abd345", "is_disabled": 0, "is_reserved": 0}, {"rental_uris": {"ios": "https://dc.lft.to/lastmile_qr_scan", "android": "https://dc.lft.to/lastmile_qr_scan"}, "lon": -77.03976433333334, "type": "electric_scooter", "fusion_lat": 0.0, "lat": 38.902721666666665, "name": "1622eddaa9dbfc6ac4cd4eccb49f0574", "fusion_lon": 0.0, "bike_id": "1622eddaa9dbfc6ac4cd4eccb49f0574", "is_disabled": 0, "is_reserved": 0}, {"rental_uris": {"ios": "https://dc.lft.to/lastmile_qr_scan", "android": "https://dc.lft.to/lastmile_qr_scan"}, "lon": -76.973278, "type": "electric_bike", "fusion_lat": 0.0, "lat": 38.850658833333334, "name": "4b41c54fd486d62056f89752c4c1236d", "fusion_lon": 0.0, "bike_id": "4b41c54fd486d62056f89752c4c1236d", "is_disabled": 0, "is_reserved": 0}, {"rental_uris": {"ios": "https://dc.lft.to/lastmile_qr_scan", "android": "https://dc.lft.to/lastmile_qr_scan"}, "lon": -77.02731433333334, "type": "electric_scooter", "fusion_lat": 0.0, "lat": 38.92482866666667, "name": "34f4a41c19c957709bcdb9a076e28acb", "fusion_lon": 0.0, "bike_id": "34f4a41c19c957709bcdb9a076e28acb", "is_disabled": 0, "is_reserved": 0}, {"rental_uris": {"ios": "https://dc.lft.to/lastmile_qr_scan", "android": "https://dc.lft.to/lastmile_qr_scan"}, "lon": -77.03202116666667, "type": "electric_scooter", "fusion_lat": 0.0, "lat": 38.91724516666667, "name": "b5c92e6b4696dc25c5ee73f6f270c70b", "fusion_lon": 0.0, "bike_id": "b5c92e6b4696dc25c5ee73f6f270c70b", "is_disabled": 0, "is_reserved": 0}, {"rental_uris": {"ios": "https://dc.lft.to/lastmile_qr_scan", "android": "https://dc.lft.to/lastmile_qr_scan"}, "lon": -77.04734233333333, "type": "electric_scooter", "fusion_lat": 0.0, "lat": 38.9072885, "name": "a4b8fdd05b1ed0f2ba1463a14a167ae3", "fusion_lon": 0.0, "bike_id": "a4b8fdd05b1ed0f2ba1463a14a167ae3", "is_disabled": 0, "is_reserved": 0}, {"rental_uris": {"ios": "https://dc.lft.to/lastmile_qr_scan", "android": "https://dc.lft.to/lastmile_qr_scan"}, "lon": -77.007859, "type": "electric_scooter", "fusion_lat": 0.0, "lat": 38.90748133333334, "name": "7a702e58663ab9dadaed0d2cc9d3f08e", "fusion_lon": 0.0, "bike_id": "7a702e58663ab9dadaed0d2cc9d3f08e", "is_disabled": 0, "is_reserved": 0}, {"rental_uris": {"ios": "https://dc.lft.to/lastmile_qr_scan", "android": "https://dc.lft.to/lastmile_qr_scan"}, "lon": -77.0321485, "type": "electric_scooter", "fusion_lat": 0.0, "lat": 38.920105166666666, "name": "9dcc0172ef2e099463b674359201bc4b", "fusion_lon": 0.0, "bike_id": "9dcc0172ef2e099463b674359201bc4b", "is_disabled": 0, "is_reserved": 0}, {"rental_uris": {"ios": "https://dc.lft.to/lastmile_qr_scan", "android": "https://dc.lft.to/lastmile_qr_scan"}, "lon": -76.935356, "type": "electric_scooter", "fusion_lat": 0.0, "lat": 38.896842166666666, "name": "59342805beefb099443670dc5fe4e6d9", "fusion_lon": 0.0, "bike_id": "59342805beefb099443670dc5fe4e6d9", "is_disabled": 0, "is_reserved": 0}, {"rental_uris": {"ios": "https://dc.lft.to/lastmile_qr_scan", "android": "https://dc.lft.to/lastmile_qr_scan"}, "lon": -77.061051, "type": "electric_scooter", "fusion_lat": 0.0, "lat": 38.912201333333336, "name": "2dd931f4983b576595a48413eb55a5e8", "fusion_lon": 0.0, "bike_id": "2dd931f4983b576595a48413eb55a5e8", "is_disabled": 0, "is_reserved": 0}, {"rental_uris": {"ios": "https://dc.lft.to/lastmile_qr_scan", "android": "https://dc.lft.to/lastmile_qr_scan"}, "lon": -77.04538366666667, "type": "electric_scooter", "fusion_lat": 0.0, "lat": 38.919354166666665, "name": "f8371ee578690663d1869c450fc02dee", "fusion_lon": 0.0, "bike_id": "f8371ee578690663d1869c450fc02dee", "is_disabled": 0, "is_reserved": 0}, {"rental_uris": {"ios": "https://dc.lft.to/lastmile_qr_scan", "android": "https://dc.lft.to/lastmile_qr_scan"}, "lon": -77.00578566666667, "type": "electric_scooter", "fusion_lat": 0.0, "lat": 38.90559116666667, "name": "c4d72baa0ff4948a75f88cfdd4a018de", "fusion_lon": 0.0, "bike_id": "c4d72baa0ff4948a75f88cfdd4a018de", "is_disabled": 0, "is_reserved": 0}, {"rental_uris": {"ios": "https://dc.lft.to/lastmile_qr_scan", "android": "https://dc.lft.to/lastmile_qr_scan"}, "lon": -77.00895, "type": "electric_scooter", "fusion_lat": 0.0, "lat": 38.924203166666665, "name": "c18cd3ead50e3475790ea08971bef2dc", "fusion_lon": 0.0, "bike_id": "c18cd3ead50e3475790ea08971bef2dc", "is_disabled": 0, "is_reserved": 0}, {"rental_uris": {"ios": "https://dc.lft.to/lastmile_qr_scan", "android": "https://dc.lft.to/lastmile_qr_scan"}, "lon": -77.03186883333333, "type": "electric_scooter", "fusion_lat": 0.0, "lat": 38.91459833333333, "name": "86493c838aef5ea1fe887ce5871d30f9", "fusion_lon": 0.0, "bike_id": "86493c838aef5ea1fe887ce5871d30f9", "is_disabled": 0, "is_reserved": 0}, {"rental_uris": {"ios": "https://dc.lft.to/lastmile_qr_scan", "android": "https://dc.lft.to/lastmile_qr_scan"}, "lon": -76.94634716666667, "type": "electric_scooter", "fusion_lat": 0.0, "lat": 38.898346, "name": "8f9a4ec628803ea86de24a5191e9bf08", "fusion_lon": 0.0, "bike_id": "8f9a4ec628803ea86de24a5191e9bf08", "is_disabled": 0, "is_reserved": 0}, {"rental_uris": {"ios": "https://dc.lft.to/lastmile_qr_scan", "android": "https://dc.lft.to/lastmile_qr_scan"}, "lon": -77.04681916666667, "type": "electric_scooter", "fusion_lat": 0.0, "lat": 38.89731716666667, "name": "906675a3f77370b1d7184bc7f44a0993", "fusion_lon": 0.0, "bike_id": "906675a3f77370b1d7184bc7f44a0993", "is_disabled": 0, "is_reserved": 0}, {"rental_uris": {"ios": "https://dc.lft.to/lastmile_qr_scan", "android": "https://dc.lft.to/lastmile_qr_scan"}, "lon": -77.02847266666667, "type": "electric_scooter", "fusion_lat": 0.0, "lat": 38.934178833333334, "name": "b5e397e2165e919d5ad0280c5bcf944f", "fusion_lon": 0.0, "bike_id": "b5e397e2165e919d5ad0280c5bcf944f", "is_disabled": 0, "is_reserved": 0}, {"rental_uris": {"ios": "https://dc.lft.to/lastmile_qr_scan", "android": "https://dc.lft.to/lastmile_qr_scan"}, "lon": -77.013902, "type": "electric_scooter", "fusion_lat": 0.0, "lat": 38.92866033333333, "name": "8cc3afbffa335eb5f03794bcad210a89", "fusion_lon": 0.0, "bike_id": "8cc3afbffa335eb5f03794bcad210a89", "is_disabled": 0, "is_reserved": 0}, {"rental_uris": {"ios": "https://dc.lft.to/lastmile_qr_scan", "android": "https://dc.lft.to/lastmile_qr_scan"}, "lon": -77.03606783333333, "type": "electric_scooter", "fusion_lat": 0.0, "lat": 38.93487533333333, "name": "18f4dde1675efb0b2398762e82e6b05e", "fusion_lon": 0.0, "bike_id": "18f4dde1675efb0b2398762e82e6b05e", "is_disabled": 0, "is_reserved": 0}, {"rental_uris": {"ios": "https://dc.lft.to/lastmile_qr_scan", "android": "https://dc.lft.to/lastmile_qr_scan"}, "lon": -77.02005816666667, "type": "electric_scooter", "fusion_lat": 0.0, "lat": 38.913113, "name": "545e2c4bbcd826d599fc6654ee834487", "fusion_lon": 0.0, "bike_id": "545e2c4bbcd826d599fc6654ee834487", "is_disabled": 0, "is_reserved": 0}, {"rental_uris": {"ios": "https://dc.lft.to/lastmile_qr_scan", "android": "https://dc.lft.to/lastmile_qr_scan"}, "lon": -77.04554216666666, "type": "electric_scooter", "fusion_lat": 0.0, "lat": 38.9340705, "name": "3b27067f9a102ffe2ac967b0857bb648", "fusion_lon": 0.0, "bike_id": "3b27067f9a102ffe2ac967b0857bb648", "is_disabled": 0, "is_reserved": 0}, {"rental_uris": {"ios": "https://dc.lft.to/lastmile_qr_scan", "android": "https://dc.lft.to/lastmile_qr_scan"}, "lon": -77.0060345, "type": "electric_scooter", "fusion_lat": 0.0, "lat": 38.902595, "name": "7f5568e8e862c86f1c8b5f44fb96bfdc", "fusion_lon": 0.0, "bike_id": "7f5568e8e862c86f1c8b5f44fb96bfdc", "is_disabled": 0, "is_reserved": 0}, {"rental_uris": {"ios": "https://dc.lft.to/lastmile_qr_scan", "android": "https://dc.lft.to/lastmile_qr_scan"}, "lon": -77.02701316666666, "type": "electric_scooter", "fusion_lat": 0.0, "lat": 38.95005833333333, "name": "13048222fbe7a08d795c09d9ccc335b9", "fusion_lon": 0.0, "bike_id": "13048222fbe7a08d795c09d9ccc335b9", "is_disabled": 0, "is_reserved": 0}, {"rental_uris": {"ios": "https://dc.lft.to/lastmile_qr_scan", "android": "https://dc.lft.to/lastmile_qr_scan"}, "lon": -76.9896775, "type": "electric_scooter", "fusion_lat": 0.0, "lat": 38.90246666666667, "name": "f0f460ebcceefb4d1986039f456dae7f", "fusion_lon": 0.0, "bike_id": "f0f460ebcceefb4d1986039f456dae7f", "is_disabled": 0, "is_reserved": 0}, {"rental_uris": {"ios": "https://dc.lft.to/lastmile_qr_scan", "android": "https://dc.lft.to/lastmile_qr_scan"}, "lon": -77.00799683333334, "type": "electric_bike", "fusion_lat": 0.0, "lat": 38.949228, "name": "67532a2d088026aaab0695b4abcf5c77", "fusion_lon": 0.0, "bike_id": "67532a2d088026aaab0695b4abcf5c77", "is_disabled": 0, "is_reserved": 0}, {"rental_uris": {"ios": "https://dc.lft.to/lastmile_qr_scan", "android": "https://dc.lft.to/lastmile_qr_scan"}, "lon": -76.99590266666667, "type": "electric_scooter", "fusion_lat": 0.0, "lat": 38.922294, "name": "8a751b5e9eeaa09e8ef28c76ae39b287", "fusion_lon": 0.0, "bike_id": "8a751b5e9eeaa09e8ef28c76ae39b287", "is_disabled": 0, "is_reserved": 0}, {"rental_uris": {"ios": "https://dc.lft.to/lastmile_qr_scan", "android": "https://dc.lft.to/lastmile_qr_scan"}, "lon": -77.00041933333334, "type": "electric_scooter", "fusion_lat": 0.0, "lat": 38.873814333333335, "name": "5d413a4aba763e76ddfd53137a740d88", "fusion_lon": 0.0, "bike_id": "5d413a4aba763e76ddfd53137a740d88", "is_disabled": 0, "is_reserved": 0}, {"rental_uris": {"ios": "https://dc.lft.to/lastmile_qr_scan", "android": "https://dc.lft.to/lastmile_qr_scan"}, "lon": -77.02976666666666, "type": "electric_scooter", "fusion_lat": 0.0, "lat": 38.94049016666666, "name": "9dea5546d8fba38feab93a06c90fd199", "fusion_lon": 0.0, "bike_id": "9dea5546d8fba38feab93a06c90fd199", "is_disabled": 0, "is_reserved": 0}, {"rental_uris": {"ios": "https://dc.lft.to/lastmile_qr_scan", "android": "https://dc.lft.to/lastmile_qr_scan"}, "lon": -77.0393365, "type": "electric_scooter", "fusion_lat": 0.0, "lat": 38.9176185, "name": "22ae912ccd2a854384ef0a2daffa1409", "fusion_lon": 0.0, "bike_id": "22ae912ccd2a854384ef0a2daffa1409", "is_disabled": 0, "is_reserved": 0}, {"rental_uris": {"ios": "https://dc.lft.to/lastmile_qr_scan", "android": "https://dc.lft.to/lastmile_qr_scan"}, "lon": -77.00582183333333, "type": "electric_scooter", "fusion_lat": 0.0, "lat": 38.874198166666666, "name": "6c16c09a33ad8b1f85a207d07c6a07a2", "fusion_lon": 0.0, "bike_id": "6c16c09a33ad8b1f85a207d07c6a07a2", "is_disabled": 0, "is_reserved": 0}, {"rental_uris": {"ios": "https://dc.lft.to/lastmile_qr_scan", "android": "https://dc.lft.to/lastmile_qr_scan"}, "lon": -77.050244, "type": "electric_scooter", "fusion_lat": 0.0, "lat": 38.900916333333335, "name": "f7edf17c287c042166bf006f7e16d9db", "fusion_lon": 0.0, "bike_id": "f7edf17c287c042166bf006f7e16d9db", "is_disabled": 0, "is_reserved": 0}, {"rental_uris": {"ios": "https://dc.lft.to/lastmile_qr_scan", "android": "https://dc.lft.to/lastmile_qr_scan"}, "lon": -77.0418135, "type": "electric_scooter", "fusion_lat": 0.0, "lat": 38.905639, "name": "65e40e9eae31f4037241b12f437f0253", "fusion_lon": 0.0, "bike_id": "65e40e9eae31f4037241b12f437f0253", "is_disabled": 0, "is_reserved": 0}, {"rental_uris": {"ios": "https://dc.lft.to/lastmile_qr_scan", "android": "https://dc.lft.to/lastmile_qr_scan"}, "lon": -77.03927883333333, "type": "electric_scooter", "fusion_lat": 0.0, "lat": 38.9262045, "name": "50f3cd08cd32212202e6b2d6aceb343e", "fusion_lon": 0.0, "bike_id": "50f3cd08cd32212202e6b2d6aceb343e", "is_disabled": 0, "is_reserved": 0}, {"rental_uris": {"ios": "https://dc.lft.to/lastmile_qr_scan", "android": "https://dc.lft.to/lastmile_qr_scan"}, "lon": -77.14121766666666, "type": "electric_bike", "fusion_lat": 0.0, "lat": 38.816041166666665, "name": "8f3da19325fc1f27fbcef92caf3395ae", "fusion_lon": 0.0, "bike_id": "8f3da19325fc1f27fbcef92caf3395ae", "is_disabled": 0, "is_reserved": 0}, {"rental_uris": {"ios": "https://dc.lft.to/lastmile_qr_scan", "android": "https://dc.lft.to/lastmile_qr_scan"}, "lon": -77.0384275, "type": "electric_scooter", "fusion_lat": 0.0, "lat": 38.9038285, "name": "055b9741f8f27816c465a94f0772472c", "fusion_lon": 0.0, "bike_id": "055b9741f8f27816c465a94f0772472c", "is_disabled": 0, "is_reserved": 0}, {"rental_uris": {"ios": "https://dc.lft.to/lastmile_qr_scan", "android": "https://dc.lft.to/lastmile_qr_scan"}, "lon": -77.02770866666667, "type": "electric_scooter", "fusion_lat": 0.0, "lat": 38.89205533333333, "name": "2cd2415ee7ad41577b55977f8b9fbddc", "fusion_lon": 0.0, "bike_id": "2cd2415ee7ad41577b55977f8b9fbddc", "is_disabled": 0, "is_reserved": 0}, {"rental_uris": {"ios": "https://dc.lft.to/lastmile_qr_scan", "android": "https://dc.lft.to/lastmile_qr_scan"}, "lon": -77.03274366666666, "type": "electric_scooter", "fusion_lat": 0.0, "lat": 38.91927166666667, "name": "d182b0d44aeceb36dff390620b0af611", "fusion_lon": 0.0, "bike_id": "d182b0d44aeceb36dff390620b0af611", "is_disabled": 0, "is_reserved": 0}, {"rental_uris": {"ios": "https://dc.lft.to/lastmile_qr_scan", "android": "https://dc.lft.to/lastmile_qr_scan"}, "lon": -77.00762766666666, "type": "electric_scooter", "fusion_lat": 0.0, "lat": 38.906574666666664, "name": "8f20cadfa2bb6e387a813bba2741ffcf", "fusion_lon": 0.0, "bike_id": "8f20cadfa2bb6e387a813bba2741ffcf", "is_disabled": 0, "is_reserved": 0}, {"rental_uris": {"ios": "https://dc.lft.to/lastmile_qr_scan", "android": "https://dc.lft.to/lastmile_qr_scan"}, "lon": -77.03836166666666, "type": "electric_scooter", "fusion_lat": 0.0, "lat": 38.90861133333333, "name": "021f462f5941c924ed9d29d9392c9ca3", "fusion_lon": 0.0, "bike_id": "021f462f5941c924ed9d29d9392c9ca3", "is_disabled": 0, "is_reserved": 0}, {"rental_uris": {"ios": "https://dc.lft.to/lastmile_qr_scan", "android": "https://dc.lft.to/lastmile_qr_scan"}, "lon": -76.988838, "type": "electric_scooter", "fusion_lat": 0.0, "lat": 38.86661816666667, "name": "537a93e1c22bab05e1455bd487b9e2bd", "fusion_lon": 0.0, "bike_id": "537a93e1c22bab05e1455bd487b9e2bd", "is_disabled": 0, "is_reserved": 0}, {"rental_uris": {"ios": "https://dc.lft.to/lastmile_qr_scan", "android": "https://dc.lft.to/lastmile_qr_scan"}, "lon": -77.02527, "type": "electric_scooter", "fusion_lat": 0.0, "lat": 38.92491666666667, "name": "895386eb189c2ed2f2aabf0cfe23222e", "fusion_lon": 0.0, "bike_id": "895386eb189c2ed2f2aabf0cfe23222e", "is_disabled": 0, "is_reserved": 0}, {"rental_uris": {"ios": "https://dc.lft.to/lastmile_qr_scan", "android": "https://dc.lft.to/lastmile_qr_scan"}, "lon": -77.03711333333334, "type": "electric_scooter", "fusion_lat": 0.0, "lat": 38.926375166666666, "name": "43473ed798c7797cee81a57643e562a9", "fusion_lon": 0.0, "bike_id": "43473ed798c7797cee81a57643e562a9", "is_disabled": 0, "is_reserved": 0}, {"rental_uris": {"ios": "https://dc.lft.to/lastmile_qr_scan", "android": "https://dc.lft.to/lastmile_qr_scan"}, "lon": -77.00784416666667, "type": "electric_scooter", "fusion_lat": 0.0, "lat": 38.91189816666667, "name": "00cf46d0f5bc7b3a05a30b89cc0b6531", "fusion_lon": 0.0, "bike_id": "00cf46d0f5bc7b3a05a30b89cc0b6531", "is_disabled": 0, "is_reserved": 0}, {"rental_uris": {"ios": "https://dc.lft.to/lastmile_qr_scan", "android": "https://dc.lft.to/lastmile_qr_scan"}, "lon": -77.00196183333334, "type": "electric_scooter", "fusion_lat": 0.0, "lat": 38.90042416666667, "name": "2e6e5aabc78cfe9b62893eaf3710c464", "fusion_lon": 0.0, "bike_id": "2e6e5aabc78cfe9b62893eaf3710c464", "is_disabled": 0, "is_reserved": 0}, {"rental_uris": {"ios": "https://dc.lft.to/lastmile_qr_scan", "android": "https://dc.lft.to/lastmile_qr_scan"}, "lon": -77.022192, "type": "electric_scooter", "fusion_lat": 0.0, "lat": 38.905342833333336, "name": "9ac64c3b32d4fca8a2799d87e45913cf", "fusion_lon": 0.0, "bike_id": "9ac64c3b32d4fca8a2799d87e45913cf", "is_disabled": 0, "is_reserved": 0}, {"rental_uris": {"ios": "https://dc.lft.to/lastmile_qr_scan", "android": "https://dc.lft.to/lastmile_qr_scan"}, "lon": -76.99147216666667, "type": "electric_scooter", "fusion_lat": 0.0, "lat": 38.893485166666665, "name": "06f7a5c42e43ef894398d47acb10b66a", "fusion_lon": 0.0, "bike_id": "06f7a5c42e43ef894398d47acb10b66a", "is_disabled": 0, "is_reserved": 0}, {"rental_uris": {"ios": "https://dc.lft.to/lastmile_qr_scan", "android": "https://dc.lft.to/lastmile_qr_scan"}, "lon": -77.01808383333334, "type": "electric_scooter", "fusion_lat": 0.0, "lat": 38.9043125, "name": "44e3624797dc3a003a78ed9cf7ff6c18", "fusion_lon": 0.0, "bike_id": "44e3624797dc3a003a78ed9cf7ff6c18", "is_disabled": 0, "is_reserved": 0}, {"rental_uris": {"ios": "https://dc.lft.to/lastmile_qr_scan", "android": "https://dc.lft.to/lastmile_qr_scan"}, "lon": -76.97326383333333, "type": "electric_scooter", "fusion_lat": 0.0, "lat": 38.90481066666667, "name": "52bbbfc8e941ae298ef4819122bd9fa1", "fusion_lon": 0.0, "bike_id": "52bbbfc8e941ae298ef4819122bd9fa1", "is_disabled": 0, "is_reserved": 0}, {"rental_uris": {"ios": "https://dc.lft.to/lastmile_qr_scan", "android": "https://dc.lft.to/lastmile_qr_scan"}, "lon": -76.99516033333333, "type": "electric_scooter", "fusion_lat": 0.0, "lat": 38.88376733333333, "name": "8efcd96e5c4071b6eb842e0ab4c08460", "fusion_lon": 0.0, "bike_id": "8efcd96e5c4071b6eb842e0ab4c08460", "is_disabled": 0, "is_reserved": 0}, {"rental_uris": {"ios": "https://dc.lft.to/lastmile_qr_scan", "android": "https://dc.lft.to/lastmile_qr_scan"}, "lon": -77.001352, "type": "electric_scooter", "fusion_lat": 0.0, "lat": 38.9042015, "name": "b74744add30c2bcfe15819cf3122e241", "fusion_lon": 0.0, "bike_id": "b74744add30c2bcfe15819cf3122e241", "is_disabled": 0, "is_reserved": 0}, {"rental_uris": {"ios": "https://dc.lft.to/lastmile_qr_scan", "android": "https://dc.lft.to/lastmile_qr_scan"}, "lon": -77.03347516666666, "type": "electric_scooter", "fusion_lat": 0.0, "lat": 38.928690333333336, "name": "e3dbbfb19b86d5ba5a60f46e062f6b93", "fusion_lon": 0.0, "bike_id": "e3dbbfb19b86d5ba5a60f46e062f6b93", "is_disabled": 0, "is_reserved": 0}, {"rental_uris": {"ios": "https://dc.lft.to/lastmile_qr_scan", "android": "https://dc.lft.to/lastmile_qr_scan"}, "lon": -77.03784733333333, "type": "electric_scooter", "fusion_lat": 0.0, "lat": 38.930328833333334, "name": "591e5d864616f1843bf816d3c587a170", "fusion_lon": 0.0, "bike_id": "591e5d864616f1843bf816d3c587a170", "is_disabled": 0, "is_reserved": 0}, {"rental_uris": {"ios": "https://dc.lft.to/lastmile_qr_scan", "android": "https://dc.lft.to/lastmile_qr_scan"}, "lon": -77.04838666666667, "type": "electric_scooter", "fusion_lat": 0.0, "lat": 38.905394666666666, "name": "ad7f28686ac0620626697ce1aefeb6bf", "fusion_lon": 0.0, "bike_id": "ad7f28686ac0620626697ce1aefeb6bf", "is_disabled": 0, "is_reserved": 0}, {"rental_uris": {"ios": "https://dc.lft.to/lastmile_qr_scan", "android": "https://dc.lft.to/lastmile_qr_scan"}, "lon": -77.01101833333334, "type": "electric_bike", "fusion_lat": 0.0, "lat": 38.96310583333333, "name": "1f8f66cf32f3d12188e1d81c3f0b8314", "fusion_lon": 0.0, "bike_id": "1f8f66cf32f3d12188e1d81c3f0b8314", "is_disabled": 0, "is_reserved": 0}, {"rental_uris": {"ios": "https://dc.lft.to/lastmile_qr_scan", "android": "https://dc.lft.to/lastmile_qr_scan"}, "lon": -77.10900216666667, "type": "electric_bike", "fusion_lat": 0.0, "lat": 38.8304295, "name": "b8d0d2002ff3ad25e2a885b823d32d45", "fusion_lon": 0.0, "bike_id": "b8d0d2002ff3ad25e2a885b823d32d45", "is_disabled": 0, "is_reserved": 0}, {"rental_uris": {"ios": "https://dc.lft.to/lastmile_qr_scan", "android": "https://dc.lft.to/lastmile_qr_scan"}, "lon": -76.99002516666667, "type": "electric_scooter", "fusion_lat": 0.0, "lat": 38.865042833333334, "name": "5d7e1543915071c966864f649488f1e2", "fusion_lon": 0.0, "bike_id": "5d7e1543915071c966864f649488f1e2", "is_disabled": 0, "is_reserved": 0}, {"rental_uris": {"ios": "https://dc.lft.to/lastmile_qr_scan", "android": "https://dc.lft.to/lastmile_qr_scan"}, "lon": -77.02047766666666, "type": "electric_scooter", "fusion_lat": 0.0, "lat": 38.9155795, "name": "b1d0387e77cc5e1edc69d99d984a6f15", "fusion_lon": 0.0, "bike_id": "b1d0387e77cc5e1edc69d99d984a6f15", "is_disabled": 0, "is_reserved": 0}, {"rental_uris": {"ios": "https://dc.lft.to/lastmile_qr_scan", "android": "https://dc.lft.to/lastmile_qr_scan"}, "lon": -77.05223033333333, "type": "electric_scooter", "fusion_lat": 0.0, "lat": 38.92497, "name": "4de9194947cf5250196759d0d75530b8", "fusion_lon": 0.0, "bike_id": "4de9194947cf5250196759d0d75530b8", "is_disabled": 0, "is_reserved": 0}, {"rental_uris": {"ios": "https://dc.lft.to/lastmile_qr_scan", "android": "https://dc.lft.to/lastmile_qr_scan"}, "lon": -77.00502733333333, "type": "electric_scooter", "fusion_lat": 0.0, "lat": 38.878953, "name": "b200b299bfd5717f3b756ec4507503b5", "fusion_lon": 0.0, "bike_id": "b200b299bfd5717f3b756ec4507503b5", "is_disabled": 0, "is_reserved": 0}, {"rental_uris": {"ios": "https://dc.lft.to/lastmile_qr_scan", "android": "https://dc.lft.to/lastmile_qr_scan"}, "lon": -77.0035315, "type": "electric_scooter", "fusion_lat": 0.0, "lat": 38.89263, "name": "2c6f294dee7fe7e6ccd4dfecfe6f35b2", "fusion_lon": 0.0, "bike_id": "2c6f294dee7fe7e6ccd4dfecfe6f35b2", "is_disabled": 0, "is_reserved": 0}, {"rental_uris": {"ios": "https://dc.lft.to/lastmile_qr_scan", "android": "https://dc.lft.to/lastmile_qr_scan"}, "lon": -76.98639616666667, "type": "electric_scooter", "fusion_lat": 0.0, "lat": 38.90022533333333, "name": "eb7c5050e7ce12797a588f1cee167d18", "fusion_lon": 0.0, "bike_id": "eb7c5050e7ce12797a588f1cee167d18", "is_disabled": 0, "is_reserved": 0}, {"rental_uris": {"ios": "https://dc.lft.to/lastmile_qr_scan", "android": "https://dc.lft.to/lastmile_qr_scan"}, "lon": -77.04116483333334, "type": "electric_scooter", "fusion_lat": 0.0, "lat": 38.9340945, "name": "d41f0d0e9ee4027383923f478a1c6066", "fusion_lon": 0.0, "bike_id": "d41f0d0e9ee4027383923f478a1c6066", "is_disabled": 0, "is_reserved": 0}, {"rental_uris": {"ios": "https://dc.lft.to/lastmile_qr_scan", "android": "https://dc.lft.to/lastmile_qr_scan"}, "lon": -77.1262735, "type": "electric_bike", "fusion_lat": 0.0, "lat": 39.05815166666667, "name": "34fa9f54d48dcab7399b2956dfa5adde", "fusion_lon": 0.0, "bike_id": "34fa9f54d48dcab7399b2956dfa5adde", "is_disabled": 0, "is_reserved": 0}, {"rental_uris": {"ios": "https://dc.lft.to/lastmile_qr_scan", "android": "https://dc.lft.to/lastmile_qr_scan"}, "lon": -77.03326433333334, "type": "electric_scooter", "fusion_lat": 0.0, "lat": 38.898937333333336, "name": "c86938c79d7b0a7b2a20e2e8f3fc2e8a", "fusion_lon": 0.0, "bike_id": "c86938c79d7b0a7b2a20e2e8f3fc2e8a", "is_disabled": 0, "is_reserved": 0}, {"rental_uris": {"ios": "https://dc.lft.to/lastmile_qr_scan", "android": "https://dc.lft.to/lastmile_qr_scan"}, "lon": -76.98392333333334, "type": "electric_bike", "fusion_lat": 0.0, "lat": 38.92196833333333, "name": "dc7c22fb21cc7e7ed1949be966ce0bea", "fusion_lon": 0.0, "bike_id": "dc7c22fb21cc7e7ed1949be966ce0bea", "is_disabled": 0, "is_reserved": 0}, {"rental_uris": {"ios": "https://dc.lft.to/lastmile_qr_scan", "android": "https://dc.lft.to/lastmile_qr_scan"}, "lon": -77.03005166666667, "type": "electric_scooter", "fusion_lat": 0.0, "lat": 38.891656833333336, "name": "d8ad1c1d5edc0374c0e391dad4e7d5f9", "fusion_lon": 0.0, "bike_id": "d8ad1c1d5edc0374c0e391dad4e7d5f9", "is_disabled": 0, "is_reserved": 0}, {"rental_uris": {"ios": "https://dc.lft.to/lastmile_qr_scan", "android": "https://dc.lft.to/lastmile_qr_scan"}, "lon": -77.03419033333333, "type": "electric_scooter", "fusion_lat": 0.0, "lat": 38.9353675, "name": "97ace170d8e17e312145bea02bfec4c5", "fusion_lon": 0.0, "bike_id": "97ace170d8e17e312145bea02bfec4c5", "is_disabled": 0, "is_reserved": 0}, {"rental_uris": {"ios": "https://dc.lft.to/lastmile_qr_scan", "android": "https://dc.lft.to/lastmile_qr_scan"}, "lon": -77.07163316666667, "type": "electric_scooter", "fusion_lat": 0.0, "lat": 38.90778533333334, "name": "a596e4627de40c0bdd8076d611e9b67a", "fusion_lon": 0.0, "bike_id": "a596e4627de40c0bdd8076d611e9b67a", "is_disabled": 0, "is_reserved": 0}, {"rental_uris": {"ios": "https://dc.lft.to/lastmile_qr_scan", "android": "https://dc.lft.to/lastmile_qr_scan"}, "lon": -77.031303, "type": "electric_scooter", "fusion_lat": 0.0, "lat": 38.91035133333333, "name": "a2e2f904d98c9b3f1626a3048d2d6c32", "fusion_lon": 0.0, "bike_id": "a2e2f904d98c9b3f1626a3048d2d6c32", "is_disabled": 0, "is_reserved": 0}, {"rental_uris": {"ios": "https://dc.lft.to/lastmile_qr_scan", "android": "https://dc.lft.to/lastmile_qr_scan"}, "lon": -77.043502, "type": "electric_scooter", "fusion_lat": 0.0, "lat": 38.9035605, "name": "6a0fa5dfbe741c5dffc07f9152a8f9ec", "fusion_lon": 0.0, "bike_id": "6a0fa5dfbe741c5dffc07f9152a8f9ec", "is_disabled": 0, "is_reserved": 0}, {"rental_uris": {"ios": "https://dc.lft.to/lastmile_qr_scan", "android": "https://dc.lft.to/lastmile_qr_scan"}, "lon": -77.020147, "type": "electric_scooter", "fusion_lat": 0.0, "lat": 38.89739633333333, "name": "c8c9b188fd0553deeeff138421856a31", "fusion_lon": 0.0, "bike_id": "c8c9b188fd0553deeeff138421856a31", "is_disabled": 0, "is_reserved": 0}, {"rental_uris": {"ios": "https://dc.lft.to/lastmile_qr_scan", "android": "https://dc.lft.to/lastmile_qr_scan"}, "lon": -77.03265966666666, "type": "electric_scooter", "fusion_lat": 0.0, "lat": 38.92871933333333, "name": "7d89a76488474d0e620f1fd8adc44894", "fusion_lon": 0.0, "bike_id": "7d89a76488474d0e620f1fd8adc44894", "is_disabled": 0, "is_reserved": 0}, {"rental_uris": {"ios": "https://dc.lft.to/lastmile_qr_scan", "android": "https://dc.lft.to/lastmile_qr_scan"}, "lon": -76.97825666666667, "type": "electric_bike", "fusion_lat": 0.0, "lat": 38.84612816666667, "name": "89ad15b7070c97e61cd1039803e863cd", "fusion_lon": 0.0, "bike_id": "89ad15b7070c97e61cd1039803e863cd", "is_disabled": 0, "is_reserved": 0}, {"rental_uris": {"ios": "https://dc.lft.to/lastmile_qr_scan", "android": "https://dc.lft.to/lastmile_qr_scan"}, "lon": -77.04889266666666, "type": "electric_scooter", "fusion_lat": 0.0, "lat": 38.90592, "name": "b94123ad2d704f9645763694be258fde", "fusion_lon": 0.0, "bike_id": "b94123ad2d704f9645763694be258fde", "is_disabled": 0, "is_reserved": 0}, {"rental_uris": {"ios": "https://dc.lft.to/lastmile_qr_scan", "android": "https://dc.lft.to/lastmile_qr_scan"}, "lon": -77.03216616666667, "type": "electric_scooter", "fusion_lat": 0.0, "lat": 38.8922155, "name": "a5f225693c02a006ec9cdbda4a7f5cdb", "fusion_lon": 0.0, "bike_id": "a5f225693c02a006ec9cdbda4a7f5cdb", "is_disabled": 0, "is_reserved": 0}, {"rental_uris": {"ios": "https://dc.lft.to/lastmile_qr_scan", "android": "https://dc.lft.to/lastmile_qr_scan"}, "lon": -77.0318585, "type": "electric_scooter", "fusion_lat": 0.0, "lat": 38.907819833333335, "name": "62b0bd8eadf88a102015a4a63b43c3c8", "fusion_lon": 0.0, "bike_id": "62b0bd8eadf88a102015a4a63b43c3c8", "is_disabled": 0, "is_reserved": 0}, {"rental_uris": {"ios": "https://dc.lft.to/lastmile_qr_scan", "android": "https://dc.lft.to/lastmile_qr_scan"}, "lon": -76.98978916666667, "type": "electric_scooter", "fusion_lat": 0.0, "lat": 38.8904405, "name": "a7bbb0faa65611e62f1a7a70c3b6cf3b", "fusion_lon": 0.0, "bike_id": "a7bbb0faa65611e62f1a7a70c3b6cf3b", "is_disabled": 0, "is_reserved": 0}, {"rental_uris": {"ios": "https://dc.lft.to/lastmile_qr_scan", "android": "https://dc.lft.to/lastmile_qr_scan"}, "lon": -77.03878516666667, "type": "electric_scooter", "fusion_lat": 0.0, "lat": 38.9233045, "name": "75c5fae045ed2803004217234f7a4f08", "fusion_lon": 0.0, "bike_id": "75c5fae045ed2803004217234f7a4f08", "is_disabled": 0, "is_reserved": 0}, {"rental_uris": {"ios": "https://dc.lft.to/lastmile_qr_scan", "android": "https://dc.lft.to/lastmile_qr_scan"}, "lon": -76.998704, "type": "electric_scooter", "fusion_lat": 0.0, "lat": 38.90032766666667, "name": "5c457b19f7b3efa32e22d6fb2abccf7b", "fusion_lon": 0.0, "bike_id": "5c457b19f7b3efa32e22d6fb2abccf7b", "is_disabled": 0, "is_reserved": 0}, {"rental_uris": {"ios": "https://dc.lft.to/lastmile_qr_scan", "android": "https://dc.lft.to/lastmile_qr_scan"}, "lon": -77.05123466666667, "type": "electric_scooter", "fusion_lat": 0.0, "lat": 38.923611666666666, "name": "7f9de8658cda1a38b25a366a2efd5c7d", "fusion_lon": 0.0, "bike_id": "7f9de8658cda1a38b25a366a2efd5c7d", "is_disabled": 0, "is_reserved": 0}, {"rental_uris": {"ios": "https://dc.lft.to/lastmile_qr_scan", "android": "https://dc.lft.to/lastmile_qr_scan"}, "lon": -76.96493283333334, "type": "electric_bike", "fusion_lat": 0.0, "lat": 38.8755045, "name": "292c69f25260cf0249ec21ada4a9d598", "fusion_lon": 0.0, "bike_id": "292c69f25260cf0249ec21ada4a9d598", "is_disabled": 0, "is_reserved": 0}, {"rental_uris": {"ios": "https://dc.lft.to/lastmile_qr_scan", "android": "https://dc.lft.to/lastmile_qr_scan"}, "lon": -77.0227895, "type": "electric_scooter", "fusion_lat": 0.0, "lat": 38.909619, "name": "5424905e9dbf974dffeac1cae01e26ec", "fusion_lon": 0.0, "bike_id": "5424905e9dbf974dffeac1cae01e26ec", "is_disabled": 0, "is_reserved": 0}, {"rental_uris": {"ios": "https://dc.lft.to/lastmile_qr_scan", "android": "https://dc.lft.to/lastmile_qr_scan"}, "lon": -77.00135383333334, "type": "electric_scooter", "fusion_lat": 0.0, "lat": 38.90413183333333, "name": "eb068e781bb7846399d2762033400fcc", "fusion_lon": 0.0, "bike_id": "eb068e781bb7846399d2762033400fcc", "is_disabled": 0, "is_reserved": 0}, {"rental_uris": {"ios": "https://dc.lft.to/lastmile_qr_scan", "android": "https://dc.lft.to/lastmile_qr_scan"}, "lon": -77.02551383333333, "type": "electric_scooter", "fusion_lat": 0.0, "lat": 38.93984616666667, "name": "83ee82e8f644c3003fc52c5340afa664", "fusion_lon": 0.0, "bike_id": "83ee82e8f644c3003fc52c5340afa664", "is_disabled": 0, "is_reserved": 0}, {"rental_uris": {"ios": "https://dc.lft.to/lastmile_qr_scan", "android": "https://dc.lft.to/lastmile_qr_scan"}, "lon": -77.00590433333333, "type": "electric_scooter", "fusion_lat": 0.0, "lat": 38.9055965, "name": "f59c68c0a19571ed10c9b10291d5bec5", "fusion_lon": 0.0, "bike_id": "f59c68c0a19571ed10c9b10291d5bec5", "is_disabled": 0, "is_reserved": 0}, {"rental_uris": {"ios": "https://dc.lft.to/lastmile_qr_scan", "android": "https://dc.lft.to/lastmile_qr_scan"}, "lon": -77.019741, "type": "electric_scooter", "fusion_lat": 0.0, "lat": 38.87842166666667, "name": "d55b7ad3a2acbd653bfc1142d4b239fc", "fusion_lon": 0.0, "bike_id": "d55b7ad3a2acbd653bfc1142d4b239fc", "is_disabled": 0, "is_reserved": 0}, {"rental_uris": {"ios": "https://dc.lft.to/lastmile_qr_scan", "android": "https://dc.lft.to/lastmile_qr_scan"}, "lon": -77.02497533333333, "type": "electric_scooter", "fusion_lat": 0.0, "lat": 38.907224166666666, "name": "5e8f4aceb3d51640a54d4127d97459ce", "fusion_lon": 0.0, "bike_id": "5e8f4aceb3d51640a54d4127d97459ce", "is_disabled": 0, "is_reserved": 0}, {"rental_uris": {"ios": "https://dc.lft.to/lastmile_qr_scan", "android": "https://dc.lft.to/lastmile_qr_scan"}, "lon": -77.04719, "type": "electric_scooter", "fusion_lat": 0.0, "lat": 38.90961266666667, "name": "7fbf20ed98e546bc9152b9f5858098ee", "fusion_lon": 0.0, "bike_id": "7fbf20ed98e546bc9152b9f5858098ee", "is_disabled": 0, "is_reserved": 0}, {"rental_uris": {"ios": "https://dc.lft.to/lastmile_qr_scan", "android": "https://dc.lft.to/lastmile_qr_scan"}, "lon": -76.95209166666666, "type": "electric_bike", "fusion_lat": 0.0, "lat": 38.936684666666665, "name": "bdad8800e29cc721b1c42bc5f6c86e93", "fusion_lon": 0.0, "bike_id": "bdad8800e29cc721b1c42bc5f6c86e93", "is_disabled": 0, "is_reserved": 0}, {"rental_uris": {"ios": "https://dc.lft.to/lastmile_qr_scan", "android": "https://dc.lft.to/lastmile_qr_scan"}, "lon": -77.0715325, "type": "electric_scooter", "fusion_lat": 0.0, "lat": 38.90742866666667, "name": "df034bcf14a3ecf65cce52407e59a971", "fusion_lon": 0.0, "bike_id": "df034bcf14a3ecf65cce52407e59a971", "is_disabled": 0, "is_reserved": 0}, {"rental_uris": {"ios": "https://dc.lft.to/lastmile_qr_scan", "android": "https://dc.lft.to/lastmile_qr_scan"}, "lon": -77.03441466666666, "type": "electric_scooter", "fusion_lat": 0.0, "lat": 38.918392833333336, "name": "500c06ea895eb7e51a7849069ebf8a00", "fusion_lon": 0.0, "bike_id": "500c06ea895eb7e51a7849069ebf8a00", "is_disabled": 0, "is_reserved": 0}, {"rental_uris": {"ios": "https://dc.lft.to/lastmile_qr_scan", "android": "https://dc.lft.to/lastmile_qr_scan"}, "lon": -77.02472616666667, "type": "electric_scooter", "fusion_lat": 0.0, "lat": 38.897307166666664, "name": "9e923ca03a92f89a14e0deb0d5585d10", "fusion_lon": 0.0, "bike_id": "9e923ca03a92f89a14e0deb0d5585d10", "is_disabled": 0, "is_reserved": 0}, {"rental_uris": {"ios": "https://dc.lft.to/lastmile_qr_scan", "android": "https://dc.lft.to/lastmile_qr_scan"}, "lon": -76.93184, "type": "electric_scooter", "fusion_lat": 0.0, "lat": 38.8987675, "name": "6413b194f3b2ae648f3f147fbc97930b", "fusion_lon": 0.0, "bike_id": "6413b194f3b2ae648f3f147fbc97930b", "is_disabled": 0, "is_reserved": 0}, {"rental_uris": {"ios": "https://dc.lft.to/lastmile_qr_scan", "android": "https://dc.lft.to/lastmile_qr_scan"}, "lon": -77.008705, "type": "electric_scooter", "fusion_lat": 0.0, "lat": 38.911795, "name": "2401adc5ff4018a46d21af8eed5a343f", "fusion_lon": 0.0, "bike_id": "2401adc5ff4018a46d21af8eed5a343f", "is_disabled": 0, "is_reserved": 0}, {"rental_uris": {"ios": "https://dc.lft.to/lastmile_qr_scan", "android": "https://dc.lft.to/lastmile_qr_scan"}, "lon": -77.03850633333333, "type": "electric_scooter", "fusion_lat": 0.0, "lat": 38.913371166666664, "name": "e61e5ff2efe0c62b921f3441ffcd6447", "fusion_lon": 0.0, "bike_id": "e61e5ff2efe0c62b921f3441ffcd6447", "is_disabled": 0, "is_reserved": 0}, {"rental_uris": {"ios": "https://dc.lft.to/lastmile_qr_scan", "android": "https://dc.lft.to/lastmile_qr_scan"}, "lon": -77.04450983333334, "type": "electric_scooter", "fusion_lat": 0.0, "lat": 38.905676666666665, "name": "03c6c6f351c03922c98c417e4fa73bc4", "fusion_lon": 0.0, "bike_id": "03c6c6f351c03922c98c417e4fa73bc4", "is_disabled": 0, "is_reserved": 0}, {"rental_uris": {"ios": "https://dc.lft.to/lastmile_qr_scan", "android": "https://dc.lft.to/lastmile_qr_scan"}, "lon": -77.0325035, "type": "electric_bike", "fusion_lat": 0.0, "lat": 38.93386066666667, "name": "07d650f36ba7f31f52e0c536fa2cf90b", "fusion_lon": 0.0, "bike_id": "07d650f36ba7f31f52e0c536fa2cf90b", "is_disabled": 0, "is_reserved": 0}, {"rental_uris": {"ios": "https://dc.lft.to/lastmile_qr_scan", "android": "https://dc.lft.to/lastmile_qr_scan"}, "lon": -77.00368683333333, "type": "electric_scooter", "fusion_lat": 0.0, "lat": 38.83806716666667, "name": "d1182786a96529b2c81b50b1f8cef255", "fusion_lon": 0.0, "bike_id": "d1182786a96529b2c81b50b1f8cef255", "is_disabled": 0, "is_reserved": 0}, {"rental_uris": {"ios": "https://dc.lft.to/lastmile_qr_scan", "android": "https://dc.lft.to/lastmile_qr_scan"}, "lon": -77.05050833333334, "type": "electric_scooter", "fusion_lat": 0.0, "lat": 38.905451666666664, "name": "4bebd153fa483df4fed57981f7495a15", "fusion_lon": 0.0, "bike_id": "4bebd153fa483df4fed57981f7495a15", "is_disabled": 0, "is_reserved": 0}, {"rental_uris": {"ios": "https://dc.lft.to/lastmile_qr_scan", "android": "https://dc.lft.to/lastmile_qr_scan"}, "lon": -77.02806466666667, "type": "electric_scooter", "fusion_lat": 0.0, "lat": 38.961953666666666, "name": "5c90a1328f3b17de9589f166de900a17", "fusion_lon": 0.0, "bike_id": "5c90a1328f3b17de9589f166de900a17", "is_disabled": 0, "is_reserved": 0}, {"rental_uris": {"ios": "https://dc.lft.to/lastmile_qr_scan", "android": "https://dc.lft.to/lastmile_qr_scan"}, "lon": -77.037827, "type": "electric_scooter", "fusion_lat": 0.0, "lat": 38.92203, "name": "c6b333a74bc328a0c531342cde3bf707", "fusion_lon": 0.0, "bike_id": "c6b333a74bc328a0c531342cde3bf707", "is_disabled": 0, "is_reserved": 0}, {"rental_uris": {"ios": "https://dc.lft.to/lastmile_qr_scan", "android": "https://dc.lft.to/lastmile_qr_scan"}, "lon": -76.94633916666666, "type": "electric_scooter", "fusion_lat": 0.0, "lat": 38.898352833333334, "name": "c72a8b85195d399655fec04780cd0f8e", "fusion_lon": 0.0, "bike_id": "c72a8b85195d399655fec04780cd0f8e", "is_disabled": 0, "is_reserved": 0}, {"rental_uris": {"ios": "https://dc.lft.to/lastmile_qr_scan", "android": "https://dc.lft.to/lastmile_qr_scan"}, "lon": -77.03865483333334, "type": "electric_scooter", "fusion_lat": 0.0, "lat": 38.915515166666665, "name": "1b6cb0c3c047a5e410b0e9b93a5dda97", "fusion_lon": 0.0, "bike_id": "1b6cb0c3c047a5e410b0e9b93a5dda97", "is_disabled": 0, "is_reserved": 0}, {"rental_uris": {"ios": "https://dc.lft.to/lastmile_qr_scan", "android": "https://dc.lft.to/lastmile_qr_scan"}, "lon": -77.09552116666667, "type": "electric_bike", "fusion_lat": 0.0, "lat": 38.8373285, "name": "fd8cdd6a5f6d67748361aa5d3cc4b964", "fusion_lon": 0.0, "bike_id": "fd8cdd6a5f6d67748361aa5d3cc4b964", "is_disabled": 0, "is_reserved": 0}, {"rental_uris": {"ios": "https://dc.lft.to/lastmile_qr_scan", "android": "https://dc.lft.to/lastmile_qr_scan"}, "lon": -77.0217385, "type": "electric_scooter", "fusion_lat": 0.0, "lat": 38.89722483333333, "name": "710f3541ff046577d87d2edc0fc6d101", "fusion_lon": 0.0, "bike_id": "710f3541ff046577d87d2edc0fc6d101", "is_disabled": 0, "is_reserved": 0}, {"rental_uris": {"ios": "https://dc.lft.to/lastmile_qr_scan", "android": "https://dc.lft.to/lastmile_qr_scan"}, "lon": -77.003693, "type": "electric_bike", "fusion_lat": 0.0, "lat": 38.83608533333334, "name": "02d161f0d6caeec3c09f3b546f6fc978", "fusion_lon": 0.0, "bike_id": "02d161f0d6caeec3c09f3b546f6fc978", "is_disabled": 0, "is_reserved": 0}, {"rental_uris": {"ios": "https://dc.lft.to/lastmile_qr_scan", "android": "https://dc.lft.to/lastmile_qr_scan"}, "lon": -77.015095, "type": "electric_scooter", "fusion_lat": 0.0, "lat": 38.88733233333333, "name": "5196547d6fab8aab0774a0fe42cbbe77", "fusion_lon": 0.0, "bike_id": "5196547d6fab8aab0774a0fe42cbbe77", "is_disabled": 0, "is_reserved": 0}, {"rental_uris": {"ios": "https://dc.lft.to/lastmile_qr_scan", "android": "https://dc.lft.to/lastmile_qr_scan"}, "lon": -77.03212033333334, "type": "electric_scooter", "fusion_lat": 0.0, "lat": 38.9115435, "name": "d03c4987078f057a12995dec3d565fc8", "fusion_lon": 0.0, "bike_id": "d03c4987078f057a12995dec3d565fc8", "is_disabled": 0, "is_reserved": 0}, {"rental_uris": {"ios": "https://dc.lft.to/lastmile_qr_scan", "android": "https://dc.lft.to/lastmile_qr_scan"}, "lon": -77.033534, "type": "electric_scooter", "fusion_lat": 0.0, "lat": 38.885092, "name": "af665a0295dcb46e467a214e0b4f39c8", "fusion_lon": 0.0, "bike_id": "af665a0295dcb46e467a214e0b4f39c8", "is_disabled": 0, "is_reserved": 0}, {"rental_uris": {"ios": "https://dc.lft.to/lastmile_qr_scan", "android": "https://dc.lft.to/lastmile_qr_scan"}, "lon": -77.02833466666667, "type": "electric_scooter", "fusion_lat": 0.0, "lat": 38.9126265, "name": "53279774d811b53013e0f223323b120d", "fusion_lon": 0.0, "bike_id": "53279774d811b53013e0f223323b120d", "is_disabled": 0, "is_reserved": 0}, {"rental_uris": {"ios": "https://dc.lft.to/lastmile_qr_scan", "android": "https://dc.lft.to/lastmile_qr_scan"}, "lon": -76.99270566666667, "type": "electric_scooter", "fusion_lat": 0.0, "lat": 38.8968885, "name": "b2bf43752196d0e02c5baccc9fdfffc8", "fusion_lon": 0.0, "bike_id": "b2bf43752196d0e02c5baccc9fdfffc8", "is_disabled": 0, "is_reserved": 0}, {"rental_uris": {"ios": "https://dc.lft.to/lastmile_qr_scan", "android": "https://dc.lft.to/lastmile_qr_scan"}, "lon": -77.0653265, "type": "electric_scooter", "fusion_lat": 0.0, "lat": 38.91126833333333, "name": "3943a0a2f24e4bf280ded42b679f892e", "fusion_lon": 0.0, "bike_id": "3943a0a2f24e4bf280ded42b679f892e", "is_disabled": 0, "is_reserved": 0}, {"rental_uris": {"ios": "https://dc.lft.to/lastmile_qr_scan", "android": "https://dc.lft.to/lastmile_qr_scan"}, "lon": -77.02334933333333, "type": "electric_scooter", "fusion_lat": 0.0, "lat": 38.928956, "name": "249182e6b035052ecf6da21473bb0c0c", "fusion_lon": 0.0, "bike_id": "249182e6b035052ecf6da21473bb0c0c", "is_disabled": 0, "is_reserved": 0}, {"rental_uris": {"ios": "https://dc.lft.to/lastmile_qr_scan", "android": "https://dc.lft.to/lastmile_qr_scan"}, "lon": -76.99517133333333, "type": "electric_scooter", "fusion_lat": 0.0, "lat": 38.8948525, "name": "d4aaf7ad91d24bd1f33a5a8484000907", "fusion_lon": 0.0, "bike_id": "d4aaf7ad91d24bd1f33a5a8484000907", "is_disabled": 0, "is_reserved": 0}, {"rental_uris": {"ios": "https://dc.lft.to/lastmile_qr_scan", "android": "https://dc.lft.to/lastmile_qr_scan"}, "lon": -77.04178133333333, "type": "electric_scooter", "fusion_lat": 0.0, "lat": 38.905560666666666, "name": "6d83f3951145cf50aac341f5014298d1", "fusion_lon": 0.0, "bike_id": "6d83f3951145cf50aac341f5014298d1", "is_disabled": 0, "is_reserved": 0}, {"rental_uris": {"ios": "https://dc.lft.to/lastmile_qr_scan", "android": "https://dc.lft.to/lastmile_qr_scan"}, "lon": -77.03630166666666, "type": "electric_scooter", "fusion_lat": 0.0, "lat": 38.90797083333333, "name": "05a7d4687d03787bf89257c66423c5a9", "fusion_lon": 0.0, "bike_id": "05a7d4687d03787bf89257c66423c5a9", "is_disabled": 0, "is_reserved": 0}, {"rental_uris": {"ios": "https://dc.lft.to/lastmile_qr_scan", "android": "https://dc.lft.to/lastmile_qr_scan"}, "lon": -76.931759, "type": "electric_scooter", "fusion_lat": 0.0, "lat": 38.89883716666667, "name": "6ddc4571d2cea6d879379782aef0a968", "fusion_lon": 0.0, "bike_id": "6ddc4571d2cea6d879379782aef0a968", "is_disabled": 0, "is_reserved": 0}, {"rental_uris": {"ios": "https://dc.lft.to/lastmile_qr_scan", "android": "https://dc.lft.to/lastmile_qr_scan"}, "lon": -76.94839733333333, "type": "electric_scooter", "fusion_lat": 0.0, "lat": 38.89489916666667, "name": "87fd48f64496c5647f458d8576a8e26e", "fusion_lon": 0.0, "bike_id": "87fd48f64496c5647f458d8576a8e26e", "is_disabled": 0, "is_reserved": 0}, {"rental_uris": {"ios": "https://dc.lft.to/lastmile_qr_scan", "android": "https://dc.lft.to/lastmile_qr_scan"}, "lon": -76.94855766666667, "type": "electric_scooter", "fusion_lat": 0.0, "lat": 38.88300916666667, "name": "f7c39428fa4f448f1046b24042663ec7", "fusion_lon": 0.0, "bike_id": "f7c39428fa4f448f1046b24042663ec7", "is_disabled": 0, "is_reserved": 0}, {"rental_uris": {"ios": "https://dc.lft.to/lastmile_qr_scan", "android": "https://dc.lft.to/lastmile_qr_scan"}, "lon": -77.0530865, "type": "electric_scooter", "fusion_lat": 0.0, "lat": 38.902612500000004, "name": "9eaa708a82e43b5e9b93ce8224d5d258", "fusion_lon": 0.0, "bike_id": "9eaa708a82e43b5e9b93ce8224d5d258", "is_disabled": 0, "is_reserved": 0}, {"rental_uris": {"ios": "https://dc.lft.to/lastmile_qr_scan", "android": "https://dc.lft.to/lastmile_qr_scan"}, "lon": -77.01505016666667, "type": "electric_scooter", "fusion_lat": 0.0, "lat": 38.9072245, "name": "4c17addbc590befea2eacdb474f1c1de", "fusion_lon": 0.0, "bike_id": "4c17addbc590befea2eacdb474f1c1de", "is_disabled": 0, "is_reserved": 0}, {"rental_uris": {"ios": "https://dc.lft.to/lastmile_qr_scan", "android": "https://dc.lft.to/lastmile_qr_scan"}, "lon": -77.10722566666666, "type": "electric_bike", "fusion_lat": 0.0, "lat": 38.855421666666665, "name": "0c2eb2c89fcd3f9eb628cc000bc528f5", "fusion_lon": 0.0, "bike_id": "0c2eb2c89fcd3f9eb628cc000bc528f5", "is_disabled": 0, "is_reserved": 0}, {"rental_uris": {"ios": "https://dc.lft.to/lastmile_qr_scan", "android": "https://dc.lft.to/lastmile_qr_scan"}, "lon": -77.00208433333333, "type": "electric_scooter", "fusion_lat": 0.0, "lat": 38.90226366666667, "name": "732473debfad92a4908aaf3a84938843", "fusion_lon": 0.0, "bike_id": "732473debfad92a4908aaf3a84938843", "is_disabled": 0, "is_reserved": 0}, {"rental_uris": {"ios": "https://dc.lft.to/lastmile_qr_scan", "android": "https://dc.lft.to/lastmile_qr_scan"}, "lon": -77.0465795, "type": "electric_scooter", "fusion_lat": 0.0, "lat": 38.893350833333336, "name": "ce3ca32b4a7ec9afdc4c76f4fa908966", "fusion_lon": 0.0, "bike_id": "ce3ca32b4a7ec9afdc4c76f4fa908966", "is_disabled": 0, "is_reserved": 0}, {"rental_uris": {"ios": "https://dc.lft.to/lastmile_qr_scan", "android": "https://dc.lft.to/lastmile_qr_scan"}, "lon": -77.12049, "type": "electric_bike", "fusion_lat": 0.0, "lat": 38.85510516666667, "name": "45d023614d553b081407599b1b80b808", "fusion_lon": 0.0, "bike_id": "45d023614d553b081407599b1b80b808", "is_disabled": 0, "is_reserved": 0}, {"rental_uris": {"ios": "https://dc.lft.to/lastmile_qr_scan", "android": "https://dc.lft.to/lastmile_qr_scan"}, "lon": -77.05158366666667, "type": "electric_scooter", "fusion_lat": 0.0, "lat": 38.897770666666666, "name": "ff884c9dc3292c2cbe4360cc6db9e730", "fusion_lon": 0.0, "bike_id": "ff884c9dc3292c2cbe4360cc6db9e730", "is_disabled": 0, "is_reserved": 0}, {"rental_uris": {"ios": "https://dc.lft.to/lastmile_qr_scan", "android": "https://dc.lft.to/lastmile_qr_scan"}, "lon": -76.99461016666666, "type": "electric_bike", "fusion_lat": 0.0, "lat": 38.94067116666667, "name": "cdd5d5d894e700bff10389ade46484d5", "fusion_lon": 0.0, "bike_id": "cdd5d5d894e700bff10389ade46484d5", "is_disabled": 0, "is_reserved": 0}, {"rental_uris": {"ios": "https://dc.lft.to/lastmile_qr_scan", "android": "https://dc.lft.to/lastmile_qr_scan"}, "lon": -76.9317505, "type": "electric_scooter", "fusion_lat": 0.0, "lat": 38.8988805, "name": "69df68d6cfe4ecb13ba072f9d6501d76", "fusion_lon": 0.0, "bike_id": "69df68d6cfe4ecb13ba072f9d6501d76", "is_disabled": 0, "is_reserved": 0}, {"rental_uris": {"ios": "https://dc.lft.to/lastmile_qr_scan", "android": "https://dc.lft.to/lastmile_qr_scan"}, "lon": -76.9497395, "type": "electric_scooter", "fusion_lat": 0.0, "lat": 38.893743, "name": "f7a2178209941030c0d2553f9e95a619", "fusion_lon": 0.0, "bike_id": "f7a2178209941030c0d2553f9e95a619", "is_disabled": 0, "is_reserved": 0}, {"rental_uris": {"ios": "https://dc.lft.to/lastmile_qr_scan", "android": "https://dc.lft.to/lastmile_qr_scan"}, "lon": -77.018525, "type": "electric_scooter", "fusion_lat": 0.0, "lat": 38.90093, "name": "3bd14f629542246acbf10fc75292f101", "fusion_lon": 0.0, "bike_id": "3bd14f629542246acbf10fc75292f101", "is_disabled": 0, "is_reserved": 0}, {"rental_uris": {"ios": "https://dc.lft.to/lastmile_qr_scan", "android": "https://dc.lft.to/lastmile_qr_scan"}, "lon": -77.03173066666666, "type": "electric_scooter", "fusion_lat": 0.0, "lat": 38.8863095, "name": "5ef6e44a45e5a07b12211212f74d3f0a", "fusion_lon": 0.0, "bike_id": "5ef6e44a45e5a07b12211212f74d3f0a", "is_disabled": 0, "is_reserved": 0}, {"rental_uris": {"ios": "https://dc.lft.to/lastmile_qr_scan", "android": "https://dc.lft.to/lastmile_qr_scan"}, "lon": -77.00188316666667, "type": "electric_scooter", "fusion_lat": 0.0, "lat": 38.900405666666664, "name": "b2ea9c5a8665c3f8355d8bdc7722b16f", "fusion_lon": 0.0, "bike_id": "b2ea9c5a8665c3f8355d8bdc7722b16f", "is_disabled": 0, "is_reserved": 0}, {"rental_uris": {"ios": "https://dc.lft.to/lastmile_qr_scan", "android": "https://dc.lft.to/lastmile_qr_scan"}, "lon": -76.98707233333333, "type": "electric_bike", "fusion_lat": 0.0, "lat": 38.94012333333333, "name": "a4792d7f68c06814c2242461a6d70b90", "fusion_lon": 0.0, "bike_id": "a4792d7f68c06814c2242461a6d70b90", "is_disabled": 0, "is_reserved": 0}, {"rental_uris": {"ios": "https://dc.lft.to/lastmile_qr_scan", "android": "https://dc.lft.to/lastmile_qr_scan"}, "lon": -77.07685566666666, "type": "electric_bike", "fusion_lat": 0.0, "lat": 38.83195883333333, "name": "63db2b84c5cc97c731f6316671587e88", "fusion_lon": 0.0, "bike_id": "63db2b84c5cc97c731f6316671587e88", "is_disabled": 0, "is_reserved": 0}, {"rental_uris": {"ios": "https://dc.lft.to/lastmile_qr_scan", "android": "https://dc.lft.to/lastmile_qr_scan"}, "lon": -77.041583, "type": "electric_scooter", "fusion_lat": 0.0, "lat": 38.91931116666667, "name": "0279e9721db33542996491136bb2abf2", "fusion_lon": 0.0, "bike_id": "0279e9721db33542996491136bb2abf2", "is_disabled": 0, "is_reserved": 0}, {"rental_uris": {"ios": "https://dc.lft.to/lastmile_qr_scan", "android": "https://dc.lft.to/lastmile_qr_scan"}, "lon": -77.03354983333334, "type": "electric_scooter", "fusion_lat": 0.0, "lat": 38.924403, "name": "868047b623331fc9099086c006a25fef", "fusion_lon": 0.0, "bike_id": "868047b623331fc9099086c006a25fef", "is_disabled": 0, "is_reserved": 0}, {"rental_uris": {"ios": "https://dc.lft.to/lastmile_qr_scan", "android": "https://dc.lft.to/lastmile_qr_scan"}, "lon": -77.02396316666666, "type": "electric_scooter", "fusion_lat": 0.0, "lat": 38.916011833333336, "name": "34edb0bb47776384f01077b521be51b8", "fusion_lon": 0.0, "bike_id": "34edb0bb47776384f01077b521be51b8", "is_disabled": 0, "is_reserved": 0}, {"rental_uris": {"ios": "https://dc.lft.to/lastmile_qr_scan", "android": "https://dc.lft.to/lastmile_qr_scan"}, "lon": -77.11210566666666, "type": "electric_bike", "fusion_lat": 0.0, "lat": 38.813105, "name": "10dad2134adc00d5307249add5db0090", "fusion_lon": 0.0, "bike_id": "10dad2134adc00d5307249add5db0090", "is_disabled": 0, "is_reserved": 0}, {"rental_uris": {"ios": "https://dc.lft.to/lastmile_qr_scan", "android": "https://dc.lft.to/lastmile_qr_scan"}, "lon": -77.12264516666667, "type": "electric_bike", "fusion_lat": 0.0, "lat": 38.89191133333333, "name": "1c61d9db9b32980c02055e162086ff59", "fusion_lon": 0.0, "bike_id": "1c61d9db9b32980c02055e162086ff59", "is_disabled": 0, "is_reserved": 0}, {"rental_uris": {"ios": "https://dc.lft.to/lastmile_qr_scan", "android": "https://dc.lft.to/lastmile_qr_scan"}, "lon": -77.003524, "type": "electric_scooter", "fusion_lat": 0.0, "lat": 38.899179, "name": "7c6e3bec65c92350edb1234268174df4", "fusion_lon": 0.0, "bike_id": "7c6e3bec65c92350edb1234268174df4", "is_disabled": 0, "is_reserved": 0}, {"rental_uris": {"ios": "https://dc.lft.to/lastmile_qr_scan", "android": "https://dc.lft.to/lastmile_qr_scan"}, "lon": -77.11220733333333, "type": "electric_bike", "fusion_lat": 0.0, "lat": 38.82877033333333, "name": "b5c7c85f8d82751d232e760398ccfb5d", "fusion_lon": 0.0, "bike_id": "b5c7c85f8d82751d232e760398ccfb5d", "is_disabled": 0, "is_reserved": 0}, {"rental_uris": {"ios": "https://dc.lft.to/lastmile_qr_scan", "android": "https://dc.lft.to/lastmile_qr_scan"}, "lon": -76.935362, "type": "electric_bike", "fusion_lat": 0.0, "lat": 38.9554635, "name": "f8d8d3b0367d547e0e9cd4a432675826", "fusion_lon": 0.0, "bike_id": "f8d8d3b0367d547e0e9cd4a432675826", "is_disabled": 0, "is_reserved": 0}, {"rental_uris": {"ios": "https://dc.lft.to/lastmile_qr_scan", "android": "https://dc.lft.to/lastmile_qr_scan"}, "lon": -77.049937, "type": "electric_scooter", "fusion_lat": 0.0, "lat": 38.89896316666667, "name": "26b4101cc93bf2dd7dba782ef44ceb2f", "fusion_lon": 0.0, "bike_id": "26b4101cc93bf2dd7dba782ef44ceb2f", "is_disabled": 0, "is_reserved": 0}, {"rental_uris": {"ios": "https://dc.lft.to/lastmile_qr_scan", "android": "https://dc.lft.to/lastmile_qr_scan"}, "lon": -77.0344895, "type": "electric_scooter", "fusion_lat": 0.0, "lat": 38.90737516666667, "name": "87028837de70b82a7fe40ecb9a4185da", "fusion_lon": 0.0, "bike_id": "87028837de70b82a7fe40ecb9a4185da", "is_disabled": 0, "is_reserved": 0}, {"rental_uris": {"ios": "https://dc.lft.to/lastmile_qr_scan", "android": "https://dc.lft.to/lastmile_qr_scan"}, "lon": -77.04740883333334, "type": "electric_scooter", "fusion_lat": 0.0, "lat": 38.902263, "name": "8fdd59e0a44ce43a969594fcbbe2662d", "fusion_lon": 0.0, "bike_id": "8fdd59e0a44ce43a969594fcbbe2662d", "is_disabled": 0, "is_reserved": 0}, {"rental_uris": {"ios": "https://dc.lft.to/lastmile_qr_scan", "android": "https://dc.lft.to/lastmile_qr_scan"}, "lon": -77.044087, "type": "electric_scooter", "fusion_lat": 0.0, "lat": 38.874325666666664, "name": "75a08bff89315adda0871a2f05f2755e", "fusion_lon": 0.0, "bike_id": "75a08bff89315adda0871a2f05f2755e", "is_disabled": 0, "is_reserved": 0}, {"rental_uris": {"ios": "https://dc.lft.to/lastmile_qr_scan", "android": "https://dc.lft.to/lastmile_qr_scan"}, "lon": -77.023437, "type": "electric_scooter", "fusion_lat": 0.0, "lat": 38.88353333333333, "name": "f1431de6da5febfaf9021285ca67f294", "fusion_lon": 0.0, "bike_id": "f1431de6da5febfaf9021285ca67f294", "is_disabled": 0, "is_reserved": 0}, {"rental_uris": {"ios": "https://dc.lft.to/lastmile_qr_scan", "android": "https://dc.lft.to/lastmile_qr_scan"}, "lon": -77.03963966666667, "type": "electric_scooter", "fusion_lat": 0.0, "lat": 38.902733166666664, "name": "627602df46eb610e40d778dcab96da99", "fusion_lon": 0.0, "bike_id": "627602df46eb610e40d778dcab96da99", "is_disabled": 0, "is_reserved": 0}, {"rental_uris": {"ios": "https://dc.lft.to/lastmile_qr_scan", "android": "https://dc.lft.to/lastmile_qr_scan"}, "lon": -77.03456666666666, "type": "electric_scooter", "fusion_lat": 0.0, "lat": 38.921548666666666, "name": "6ed5a62903c1a991820ef1f7db4508b3", "fusion_lon": 0.0, "bike_id": "6ed5a62903c1a991820ef1f7db4508b3", "is_disabled": 0, "is_reserved": 0}, {"rental_uris": {"ios": "https://dc.lft.to/lastmile_qr_scan", "android": "https://dc.lft.to/lastmile_qr_scan"}, "lon": -77.0416355, "type": "electric_scooter", "fusion_lat": 0.0, "lat": 38.918538166666664, "name": "a6fbbf94cb9148905eda37b368c49eed", "fusion_lon": 0.0, "bike_id": "a6fbbf94cb9148905eda37b368c49eed", "is_disabled": 0, "is_reserved": 0}, {"rental_uris": {"ios": "https://dc.lft.to/lastmile_qr_scan", "android": "https://dc.lft.to/lastmile_qr_scan"}, "lon": -77.04703866666667, "type": "electric_scooter", "fusion_lat": 0.0, "lat": 38.921056166666666, "name": "8da7d753d1781e1b0035c9b8aafdeb9f", "fusion_lon": 0.0, "bike_id": "8da7d753d1781e1b0035c9b8aafdeb9f", "is_disabled": 0, "is_reserved": 0}, {"rental_uris": {"ios": "https://dc.lft.to/lastmile_qr_scan", "android": "https://dc.lft.to/lastmile_qr_scan"}, "lon": -77.0324285, "type": "electric_scooter", "fusion_lat": 0.0, "lat": 38.896312, "name": "b07f698482693054dffdfc06eee7fbe5", "fusion_lon": 0.0, "bike_id": "b07f698482693054dffdfc06eee7fbe5", "is_disabled": 0, "is_reserved": 0}, {"rental_uris": {"ios": "https://dc.lft.to/lastmile_qr_scan", "android": "https://dc.lft.to/lastmile_qr_scan"}, "lon": -77.05598716666667, "type": "electric_scooter", "fusion_lat": 0.0, "lat": 38.936984, "name": "d4ed509a5d056e5094963fc58fb8c3b4", "fusion_lon": 0.0, "bike_id": "d4ed509a5d056e5094963fc58fb8c3b4", "is_disabled": 0, "is_reserved": 0}, {"rental_uris": {"ios": "https://dc.lft.to/lastmile_qr_scan", "android": "https://dc.lft.to/lastmile_qr_scan"}, "lon": -77.02882516666666, "type": "electric_scooter", "fusion_lat": 0.0, "lat": 38.90458066666667, "name": "b11567c58cee3f04ec101d6011ae96d4", "fusion_lon": 0.0, "bike_id": "b11567c58cee3f04ec101d6011ae96d4", "is_disabled": 0, "is_reserved": 0}, {"rental_uris": {"ios": "https://dc.lft.to/lastmile_qr_scan", "android": "https://dc.lft.to/lastmile_qr_scan"}, "lon": -77.03928816666667, "type": "electric_scooter", "fusion_lat": 0.0, "lat": 38.917629833333336, "name": "f5b84c4fa520c085ec9ac0d78902d210", "fusion_lon": 0.0, "bike_id": "f5b84c4fa520c085ec9ac0d78902d210", "is_disabled": 0, "is_reserved": 0}, {"rental_uris": {"ios": "https://dc.lft.to/lastmile_qr_scan", "android": "https://dc.lft.to/lastmile_qr_scan"}, "lon": -76.961752, "type": "electric_bike", "fusion_lat": 0.0, "lat": 38.91869333333333, "name": "1bf990a83a42a474f1d373d3e1dc1bb1", "fusion_lon": 0.0, "bike_id": "1bf990a83a42a474f1d373d3e1dc1bb1", "is_disabled": 0, "is_reserved": 0}, {"rental_uris": {"ios": "https://dc.lft.to/lastmile_qr_scan", "android": "https://dc.lft.to/lastmile_qr_scan"}, "lon": -77.03450583333333, "type": "electric_scooter", "fusion_lat": 0.0, "lat": 38.907289, "name": "cde7f0a553062d5c58826bc269baf8cf", "fusion_lon": 0.0, "bike_id": "cde7f0a553062d5c58826bc269baf8cf", "is_disabled": 0, "is_reserved": 0}, {"rental_uris": {"ios": "https://dc.lft.to/lastmile_qr_scan", "android": "https://dc.lft.to/lastmile_qr_scan"},