{"data": {"bikes": [{"bike_id": "945a2fc953e7028606623367b72dcb37", "is_reserved": 0, "fusion_lon": 0.0, "lat": 38.91978683333333, "is_disabled": 0, "name": "945a2fc953e7028606623367b72dcb37", "fusion_lat": 0.0, "rental_uris": {"ios": "https://dc.lft.to/lastmile_qr_scan", "android": "https://dc.lft.to/lastmile_qr_scan"}, "lon": -77.02393733333334, "type": "electric_scooter"}, {"bike_id": "b8b9710ca072578b6494e0f5e31a29ce", "is_reserved": 0, "fusion_lon": 0.0, "lat": 38.92991966666666, "is_disabled": 0, "name": "b8b9710ca072578b6494e0f5e31a29ce", "fusion_lat": 0.0, "rental_uris": {"ios": "https://dc.lft.to/lastmile_qr_scan", "android": "https://dc.lft.to/lastmile_qr_scan"}, "lon": -77.0794355, "type": "electric_scooter"}, {"bike_id": "b4e42309a8d62c07b0979e2a465e47b2", "is_reserved": 0, "fusion_lon": 0.0, "lat": 38.90519716666667, "is_disabled": 0, "name": "b4e42309a8d62c07b0979e2a465e47b2", "fusion_lat": 0.0, "rental_uris": {"ios": "https://dc.lft.to/lastmile_qr_scan", "android": "https://dc.lft.to/lastmile_qr_scan"}, "lon": -77.0603545, "type": "electric_bike"}, {"bike_id": "58b298478512b2fddb5fabc2e5efd7b5", "is_reserved": 0, "fusion_lon": 0.0, "lat": 38.91630683333333, "is_disabled": 0, "name": "58b298478512b2fddb5fabc2e5efd7b5", "fusion_lat": 0.0, "rental_uris": {"ios": "https://dc.lft.to/lastmile_qr_scan", "android": "https://dc.lft.to/lastmile_qr_scan"}, "lon": -77.04616016666667, "type": "electric_scooter"}, {"bike_id": "b965029919ac5ce1c999bce511abbad4", "is_reserved": 0, "fusion_lon": 0.0, "lat": 38.922074, "is_disabled": 0, "name": "b965029919ac5ce1c999bce511abbad4", "fusion_lat": 0.0, "rental_uris": {"ios": "https://dc.lft.to/lastmile_qr_scan", "android": "https://dc.lft.to/lastmile_qr_scan"}, "lon": -77.03662, "type": "electric_scooter"}, {"bike_id": "3b09f21bc1045e242981af69b03c18d7", "is_reserved": 0, "fusion_lon": 0.0, "lat": 38.936753, "is_disabled": 0, "name": "3b09f21bc1045e242981af69b03c18d7", "fusion_lat": 0.0, "rental_uris": {"ios": "https://dc.lft.to/lastmile_qr_scan", "android": "https://dc.lft.to/lastmile_qr_scan"}, "lon": -77.03592183333333, "type": "electric_scooter"}, {"bike_id": "394be7f6a428238adaec2c8e9f6e0049", "is_reserved": 0, "fusion_lon": 0.0, "lat": 38.926556, "is_disabled": 0, "name": "394be7f6a428238adaec2c8e9f6e0049", "fusion_lat": 0.0, "rental_uris": {"ios": "https://dc.lft.to/lastmile_qr_scan", "android": "https://dc.lft.to/lastmile_qr_scan"}, "lon": -77.0372115, "type": "electric_scooter"}, {"bike_id": "e9a5bcbf3730827f5db8e63401bf5a97", "is_reserved": 0, "fusion_lon": 0.0, "lat": 38.921711, "is_disabled": 0, "name": "e9a5bcbf3730827f5db8e63401bf5a97", "fusion_lat": 0.0, "rental_uris": {"ios": "https://dc.lft.to/lastmile_qr_scan", "android": "https://dc.lft.to/lastmile_qr_scan"}, "lon": -77.0180985, "type": "electric_scooter"}, {"bike_id": "52efe8dc11d07a62d3f2f030b2c50e7e", "is_reserved": 0, "fusion_lon": 0.0, "lat": 38.9248645, "is_disabled": 0, "name": "52efe8dc11d07a62d3f2f030b2c50e7e", "fusion_lat": 0.0, "rental_uris": {"ios": "https://dc.lft.to/lastmile_qr_scan", "android": "https://dc.lft.to/lastmile_qr_scan"}, "lon": -77.027145, "type": "electric_scooter"}, {"bike_id": "5ef1e3abe469c95feefeac3087a86fc7", "is_reserved": 0, "fusion_lon": 0.0, "lat": 38.871353166666665, "is_disabled": 0, "name": "5ef1e3abe469c95feefeac3087a86fc7", "fusion_lat": 0.0, "rental_uris": {"ios": "https://dc.lft.to/lastmile_qr_scan", "android": "https://dc.lft.to/lastmile_qr_scan"}, "lon": -76.93732533333333, "type": "electric_bike"}, {"bike_id": "4f4749803489d0d62903a8d73a2a1c61", "is_reserved": 0, "fusion_lon": 0.0, "lat": 38.90122066666667, "is_disabled": 0, "name": "4f4749803489d0d62903a8d73a2a1c61", "fusion_lat": 0.0, "rental_uris": {"ios": "https://dc.lft.to/lastmile_qr_scan", "android": "https://dc.lft.to/lastmile_qr_scan"}, "lon": -77.043495, "type": "electric_scooter"}, {"bike_id": "34cfb81bb5a1e91d0c4925b5b064cb74", "is_reserved": 0, "fusion_lon": 0.0, "lat": 38.864548, "is_disabled": 0, "name": "34cfb81bb5a1e91d0c4925b5b064cb74", "fusion_lat": 0.0, "rental_uris": {"ios": "https://dc.lft.to/lastmile_qr_scan", "android": "https://dc.lft.to/lastmile_qr_scan"}, "lon": -76.945525, "type": "electric_bike"}, {"bike_id": "5c349023fcb7131196ba8120c1a2cbeb", "is_reserved": 0, "fusion_lon": 0.0, "lat": 38.92168083333333, "is_disabled": 0, "name": "5c349023fcb7131196ba8120c1a2cbeb", "fusion_lat": 0.0, "rental_uris": {"ios": "https://dc.lft.to/lastmile_qr_scan", "android": "https://dc.lft.to/lastmile_qr_scan"}, "lon": -76.99378766666666, "type": "electric_scooter"}, {"bike_id": "63da73ee03946555e319a73d4982728d", "is_reserved": 0, "fusion_lon": 0.0, "lat": 38.8982305, "is_disabled": 0, "name": "63da73ee03946555e319a73d4982728d", "fusion_lat": 0.0, "rental_uris": {"ios": "https://dc.lft.to/lastmile_qr_scan", "android": "https://dc.lft.to/lastmile_qr_scan"}, "lon": -77.03299766666666, "type": "electric_scooter"}, {"bike_id": "2ad910f3801a1601509f5cfabc78fb03", "is_reserved": 0, "fusion_lon": 0.0, "lat": 38.924126, "is_disabled": 0, "name": "2ad910f3801a1601509f5cfabc78fb03", "fusion_lat": 0.0, "rental_uris": {"ios": "https://dc.lft.to/lastmile_qr_scan", "android": "https://dc.lft.to/lastmile_qr_scan"}, "lon": -77.04074183333333, "type": "electric_bike"}, {"bike_id": "83c5034ab6ad443788f35954038c8b6a", "is_reserved": 0, "fusion_lon": 0.0, "lat": 38.903703666666665, "is_disabled": 0, "name": "83c5034ab6ad443788f35954038c8b6a", "fusion_lat": 0.0, "rental_uris": {"ios": "https://dc.lft.to/lastmile_qr_scan", "android": "https://dc.lft.to/lastmile_qr_scan"}, "lon": -77.045539, "type": "electric_scooter"}, {"bike_id": "6b797fbc9dc642b4a8d2991a1e1a13c8", "is_reserved": 0, "fusion_lon": 0.0, "lat": 38.8506835, "is_disabled": 0, "name": "6b797fbc9dc642b4a8d2991a1e1a13c8", "fusion_lat": 0.0, "rental_uris": {"ios": "https://dc.lft.to/lastmile_qr_scan", "android": "https://dc.lft.to/lastmile_qr_scan"}, "lon": -76.97337466666667, "type": "electric_bike"}, {"bike_id": "f44a5ca748343bde46d1b679b82e1022", "is_reserved": 0, "fusion_lon": 0.0, "lat": 38.90615916666667, "is_disabled": 0, "name": "f44a5ca748343bde46d1b679b82e1022", "fusion_lat": 0.0, "rental_uris": {"ios": "https://dc.lft.to/lastmile_qr_scan", "android": "https://dc.lft.to/lastmile_qr_scan"}, "lon": -77.0412815, "type": "electric_scooter"}, {"bike_id": "2714ac5e61598a0b16037fd7303145c9", "is_reserved": 0, "fusion_lon": 0.0, "lat": 38.94016833333333, "is_disabled": 0, "name": "2714ac5e61598a0b16037fd7303145c9", "fusion_lat": 0.0, "rental_uris": {"ios": "https://dc.lft.to/lastmile_qr_scan", "android": "https://dc.lft.to/lastmile_qr_scan"}, "lon": -77.071712, "type": "electric_scooter"}, {"bike_id": "0055584ef34cc27bdd928d70aebac272", "is_reserved": 0, "fusion_lon": 0.0, "lat": 38.915624, "is_disabled": 0, "name": "0055584ef34cc27bdd928d70aebac272", "fusion_lat": 0.0, "rental_uris": {"ios": "https://dc.lft.to/lastmile_qr_scan", "android": "https://dc.lft.to/lastmile_qr_scan"}, "lon": -77.03766616666667, "type": "electric_scooter"}, {"bike_id": "254853691f12303b2584db39e95bf890", "is_reserved": 0, "fusion_lon": 0.0, "lat": 38.907839333333335, "is_disabled": 0, "name": "254853691f12303b2584db39e95bf890", "fusion_lat": 0.0, "rental_uris": {"ios": "https://dc.lft.to/lastmile_qr_scan", "android": "https://dc.lft.to/lastmile_qr_scan"}, "lon": -77.03850016666667, "type": "electric_scooter"}, {"bike_id": "27221b0a7a923378b0bd8eae92f7ad62", "is_reserved": 0, "fusion_lon": 0.0, "lat": 38.92480466666667, "is_disabled": 0, "name": "27221b0a7a923378b0bd8eae92f7ad62", "fusion_lat": 0.0, "rental_uris": {"ios": "https://dc.lft.to/lastmile_qr_scan", "android": "https://dc.lft.to/lastmile_qr_scan"}, "lon": -77.03766566666667, "type": "electric_scooter"}, {"bike_id": "0440ff0b6da63241dfd57ee53bf22c52", "is_reserved": 0, "fusion_lon": 0.0, "lat": 38.905246, "is_disabled": 0, "name": "0440ff0b6da63241dfd57ee53bf22c52", "fusion_lat": 0.0, "rental_uris": {"ios": "https://dc.lft.to/lastmile_qr_scan", "android": "https://dc.lft.to/lastmile_qr_scan"}, "lon": -77.05045766666667, "type": "electric_scooter"}, {"bike_id": "8afbcef7ba283e90acb0183cf32aebc4", "is_reserved": 0, "fusion_lon": 0.0, "lat": 38.93098716666667, "is_disabled": 0, "name": "8afbcef7ba283e90acb0183cf32aebc4", "fusion_lat": 0.0, "rental_uris": {"ios": "https://dc.lft.to/lastmile_qr_scan", "android": "https://dc.lft.to/lastmile_qr_scan"}, "lon": -77.02510633333333, "type": "electric_scooter"}, {"bike_id": "3441efd779dd7a398c67de41fd4e9475", "is_reserved": 0, "fusion_lon": 0.0, "lat": 38.8982035, "is_disabled": 0, "name": "3441efd779dd7a398c67de41fd4e9475", "fusion_lat": 0.0, "rental_uris": {"ios": "https://dc.lft.to/lastmile_qr_scan", "android": "https://dc.lft.to/lastmile_qr_scan"}, "lon": -77.00602166666667, "type": "electric_bike"}, {"bike_id": "f74d235a24f400c9f127aa35530b5e9a", "is_reserved": 0, "fusion_lon": 0.0, "lat": 38.90364966666667, "is_disabled": 0, "name": "f74d235a24f400c9f127aa35530b5e9a", "fusion_lat": 0.0, "rental_uris": {"ios": "https://dc.lft.to/lastmile_qr_scan", "android": "https://dc.lft.to/lastmile_qr_scan"}, "lon": -77.04016883333334, "type": "electric_scooter"}, {"bike_id": "5bd9913d245f6b05f8491639285f0b7e", "is_reserved": 0, "fusion_lon": 0.0, "lat": 38.9073115, "is_disabled": 0, "name": "5bd9913d245f6b05f8491639285f0b7e", "fusion_lat": 0.0, "rental_uris": {"ios": "https://dc.lft.to/lastmile_qr_scan", "android": "https://dc.lft.to/lastmile_qr_scan"}, "lon": -77.042338, "type": "electric_scooter"}, {"bike_id": "33e3f8772cef6ea29a85f81bd550a032", "is_reserved": 0, "fusion_lon": 0.0, "lat": 38.90580383333333, "is_disabled": 0, "name": "33e3f8772cef6ea29a85f81bd550a032", "fusion_lat": 0.0, "rental_uris": {"ios": "https://dc.lft.to/lastmile_qr_scan", "android": "https://dc.lft.to/lastmile_qr_scan"}, "lon": -77.06521366666666, "type": "electric_scooter"}, {"bike_id": "58ef5d66605b3770620dfc21b0afb963", "is_reserved": 0, "fusion_lon": 0.0, "lat": 38.9205075, "is_disabled": 0, "name": "58ef5d66605b3770620dfc21b0afb963", "fusion_lat": 0.0, "rental_uris": {"ios": "https://dc.lft.to/lastmile_qr_scan", "android": "https://dc.lft.to/lastmile_qr_scan"}, "lon": -77.0339305, "type": "electric_scooter"}, {"bike_id": "a77b8cfec8f2bb3b2251e3e0e049b8d6", "is_reserved": 0, "fusion_lon": 0.0, "lat": 38.91120383333333, "is_disabled": 0, "name": "a77b8cfec8f2bb3b2251e3e0e049b8d6", "fusion_lat": 0.0, "rental_uris": {"ios": "https://dc.lft.to/lastmile_qr_scan", "android": "https://dc.lft.to/lastmile_qr_scan"}, "lon": -77.04649566666667, "type": "electric_scooter"}, {"bike_id": "0f4daba5948c7219a18fc1f36d9af39f", "is_reserved": 0, "fusion_lon": 0.0, "lat": 38.9056835, "is_disabled": 0, "name": "0f4daba5948c7219a18fc1f36d9af39f", "fusion_lat": 0.0, "rental_uris": {"ios": "https://dc.lft.to/lastmile_qr_scan", "android": "https://dc.lft.to/lastmile_qr_scan"}, "lon": -77.03628933333333, "type": "electric_scooter"}, {"bike_id": "7a744256eaf9a22fcf9611a2818ed114", "is_reserved": 0, "fusion_lon": 0.0, "lat": 38.90590733333333, "is_disabled": 0, "name": "7a744256eaf9a22fcf9611a2818ed114", "fusion_lat": 0.0, "rental_uris": {"ios": "https://dc.lft.to/lastmile_qr_scan", "android": "https://dc.lft.to/lastmile_qr_scan"}, "lon": -77.04664966666667, "type": "electric_scooter"}, {"bike_id": "56179368ea53399cd83be824888ee632", "is_reserved": 0, "fusion_lon": 0.0, "lat": 38.896671833333336, "is_disabled": 0, "name": "56179368ea53399cd83be824888ee632", "fusion_lat": 0.0, "rental_uris": {"ios": "https://dc.lft.to/lastmile_qr_scan", "android": "https://dc.lft.to/lastmile_qr_scan"}, "lon": -77.02924883333333, "type": "electric_scooter"}, {"bike_id": "3d228aa56c77cd2862e814b9a26cb32f", "is_reserved": 0, "fusion_lon": 0.0, "lat": 38.9232395, "is_disabled": 0, "name": "3d228aa56c77cd2862e814b9a26cb32f", "fusion_lat": 0.0, "rental_uris": {"ios": "https://dc.lft.to/lastmile_qr_scan", "android": "https://dc.lft.to/lastmile_qr_scan"}, "lon": -77.038695, "type": "electric_scooter"}, {"bike_id": "3eae7744d5b07fe23e482adb536412e4", "is_reserved": 0, "fusion_lon": 0.0, "lat": 38.923308166666665, "is_disabled": 0, "name": "3eae7744d5b07fe23e482adb536412e4", "fusion_lat": 0.0, "rental_uris": {"ios": "https://dc.lft.to/lastmile_qr_scan", "android": "https://dc.lft.to/lastmile_qr_scan"}, "lon": -77.01892366666667, "type": "electric_scooter"}, {"bike_id": "acaaa50fd6bfd65521e35799e7ab3669", "is_reserved": 0, "fusion_lon": 0.0, "lat": 38.90511983333333, "is_disabled": 0, "name": "acaaa50fd6bfd65521e35799e7ab3669", "fusion_lat": 0.0, "rental_uris": {"ios": "https://dc.lft.to/lastmile_qr_scan", "android": "https://dc.lft.to/lastmile_qr_scan"}, "lon": -77.06387533333333, "type": "electric_scooter"}, {"bike_id": "c400e66334ba84ff49e3fbed3e26b9a8", "is_reserved": 0, "fusion_lon": 0.0, "lat": 38.9023055, "is_disabled": 0, "name": "c400e66334ba84ff49e3fbed3e26b9a8", "fusion_lat": 0.0, "rental_uris": {"ios": "https://dc.lft.to/lastmile_qr_scan", "android": "https://dc.lft.to/lastmile_qr_scan"}, "lon": -77.02388466666666, "type": "electric_scooter"}, {"bike_id": "90e3b7cc2971afeb9bca58047954a37e", "is_reserved": 0, "fusion_lon": 0.0, "lat": 38.9232975, "is_disabled": 0, "name": "90e3b7cc2971afeb9bca58047954a37e", "fusion_lat": 0.0, "rental_uris": {"ios": "https://dc.lft.to/lastmile_qr_scan", "android": "https://dc.lft.to/lastmile_qr_scan"}, "lon": -77.04389083333334, "type": "electric_scooter"}, {"bike_id": "4bac4123d2eee44e59a5b02692da0137", "is_reserved": 0, "fusion_lon": 0.0, "lat": 38.92056933333333, "is_disabled": 0, "name": "4bac4123d2eee44e59a5b02692da0137", "fusion_lat": 0.0, "rental_uris": {"ios": "https://dc.lft.to/lastmile_qr_scan", "android": "https://dc.lft.to/lastmile_qr_scan"}, "lon": -76.97796, "type": "electric_scooter"}, {"bike_id": "9f24fd83f75103cf2ed4da9d45816698", "is_reserved": 0, "fusion_lon": 0.0, "lat": 38.87663216666667, "is_disabled": 0, "name": "9f24fd83f75103cf2ed4da9d45816698", "fusion_lat": 0.0, "rental_uris": {"ios": "https://dc.lft.to/lastmile_qr_scan", "android": "https://dc.lft.to/lastmile_qr_scan"}, "lon": -77.00067666666666, "type": "electric_scooter"}, {"bike_id": "3eaf5ae1e38ea6d82ddd8ad68502ec72", "is_reserved": 0, "fusion_lon": 0.0, "lat": 38.91012, "is_disabled": 0, "name": "3eaf5ae1e38ea6d82ddd8ad68502ec72", "fusion_lat": 0.0, "rental_uris": {"ios": "https://dc.lft.to/lastmile_qr_scan", "android": "https://dc.lft.to/lastmile_qr_scan"}, "lon": -76.99387783333333, "type": "electric_scooter"}, {"bike_id": "1d602504452843408e496e346b553d1a", "is_reserved": 0, "fusion_lon": 0.0, "lat": 38.95812216666667, "is_disabled": 0, "name": "1d602504452843408e496e346b553d1a", "fusion_lat": 0.0, "rental_uris": {"ios": "https://dc.lft.to/lastmile_qr_scan", "android": "https://dc.lft.to/lastmile_qr_scan"}, "lon": -77.0138165, "type": "electric_bike"}, {"bike_id": "3a91e42a431dea425a66ab09f11c004e", "is_reserved": 0, "fusion_lon": 0.0, "lat": 38.904504333333335, "is_disabled": 0, "name": "3a91e42a431dea425a66ab09f11c004e", "fusion_lat": 0.0, "rental_uris": {"ios": "https://dc.lft.to/lastmile_qr_scan", "android": "https://dc.lft.to/lastmile_qr_scan"}, "lon": -77.05920916666666, "type": "electric_scooter"}, {"bike_id": "06825b4e8aa70dbf2c6119895eed56b8", "is_reserved": 0, "fusion_lon": 0.0, "lat": 38.864143166666665, "is_disabled": 0, "name": "06825b4e8aa70dbf2c6119895eed56b8", "fusion_lat": 0.0, "rental_uris": {"ios": "https://dc.lft.to/lastmile_qr_scan", "android": "https://dc.lft.to/lastmile_qr_scan"}, "lon": -77.01355166666667, "type": "electric_scooter"}, {"bike_id": "877f1af30a95965f23a6003210b2c560", "is_reserved": 0, "fusion_lon": 0.0, "lat": 38.95732983333333, "is_disabled": 0, "name": "877f1af30a95965f23a6003210b2c560", "fusion_lat": 0.0, "rental_uris": {"ios": "https://dc.lft.to/lastmile_qr_scan", "android": "https://dc.lft.to/lastmile_qr_scan"}, "lon": -77.0241985, "type": "electric_scooter"}, {"bike_id": "f2417f85492858312a1f99d876f475c7", "is_reserved": 0, "fusion_lon": 0.0, "lat": 38.88438333333333, "is_disabled": 0, "name": "f2417f85492858312a1f99d876f475c7", "fusion_lat": 0.0, "rental_uris": {"ios": "https://dc.lft.to/lastmile_qr_scan", "android": "https://dc.lft.to/lastmile_qr_scan"}, "lon": -77.0303905, "type": "electric_scooter"}, {"bike_id": "3896006cb11dde75924b1b304660b89a", "is_reserved": 0, "fusion_lon": 0.0, "lat": 38.9017285, "is_disabled": 0, "name": "3896006cb11dde75924b1b304660b89a", "fusion_lat": 0.0, "rental_uris": {"ios": "https://dc.lft.to/lastmile_qr_scan", "android": "https://dc.lft.to/lastmile_qr_scan"}, "lon": -77.000046, "type": "electric_scooter"}, {"bike_id": "545f71d5018844b61ddb7e661e2cb3ad", "is_reserved": 0, "fusion_lon": 0.0, "lat": 38.91414816666666, "is_disabled": 0, "name": "545f71d5018844b61ddb7e661e2cb3ad", "fusion_lat": 0.0, "rental_uris": {"ios": "https://dc.lft.to/lastmile_qr_scan", "android": "https://dc.lft.to/lastmile_qr_scan"}, "lon": -77.0380975, "type": "electric_scooter"}, {"bike_id": "68447a3e8c45e1e5fbba5a45053e7a33", "is_reserved": 0, "fusion_lon": 0.0, "lat": 38.919117666666665, "is_disabled": 0, "name": "68447a3e8c45e1e5fbba5a45053e7a33", "fusion_lat": 0.0, "rental_uris": {"ios": "https://dc.lft.to/lastmile_qr_scan", "android": "https://dc.lft.to/lastmile_qr_scan"}, "lon": -77.03422133333333, "type": "electric_scooter"}, {"bike_id": "eaf7afc6a5ff41926c58a2fede15321a", "is_reserved": 0, "fusion_lon": 0.0, "lat": 38.863515166666666, "is_disabled": 0, "name": "eaf7afc6a5ff41926c58a2fede15321a", "fusion_lat": 0.0, "rental_uris": {"ios": "https://dc.lft.to/lastmile_qr_scan", "android": "https://dc.lft.to/lastmile_qr_scan"}, "lon": -76.99060933333334, "type": "electric_scooter"}, {"bike_id": "5a010696215e711cf314aaf6da059ea8", "is_reserved": 0, "fusion_lon": 0.0, "lat": 38.906667166666665, "is_disabled": 0, "name": "5a010696215e711cf314aaf6da059ea8", "fusion_lat": 0.0, "rental_uris": {"ios": "https://dc.lft.to/lastmile_qr_scan", "android": "https://dc.lft.to/lastmile_qr_scan"}, "lon": -77.027088, "type": "electric_scooter"}, {"bike_id": "b635b8894cc62888e68c93abf5e0dcdc", "is_reserved": 0, "fusion_lon": 0.0, "lat": 38.8804405, "is_disabled": 0, "name": "b635b8894cc62888e68c93abf5e0dcdc", "fusion_lat": 0.0, "rental_uris": {"ios": "https://dc.lft.to/lastmile_qr_scan", "android": "https://dc.lft.to/lastmile_qr_scan"}, "lon": -77.02506716666667, "type": "electric_scooter"}, {"bike_id": "18dbd16083b8091dbd2d5ccda7c426a3", "is_reserved": 0, "fusion_lon": 0.0, "lat": 38.867216, "is_disabled": 0, "name": "18dbd16083b8091dbd2d5ccda7c426a3", "fusion_lat": 0.0, "rental_uris": {"ios": "https://dc.lft.to/lastmile_qr_scan", "android": "https://dc.lft.to/lastmile_qr_scan"}, "lon": -76.98777016666666, "type": "electric_scooter"}, {"bike_id": "49b9401db3d6fe09f572345e66fc2f85", "is_reserved": 0, "fusion_lon": 0.0, "lat": 38.89011166666667, "is_disabled": 0, "name": "49b9401db3d6fe09f572345e66fc2f85", "fusion_lat": 0.0, "rental_uris": {"ios": "https://dc.lft.to/lastmile_qr_scan", "android": "https://dc.lft.to/lastmile_qr_scan"}, "lon": -76.937489, "type": "electric_scooter"}, {"bike_id": "d8225a38c9bc414769ec824a43e58405", "is_reserved": 0, "fusion_lon": 0.0, "lat": 38.970778, "is_disabled": 0, "name": "d8225a38c9bc414769ec824a43e58405", "fusion_lat": 0.0, "rental_uris": {"ios": "https://dc.lft.to/lastmile_qr_scan", "android": "https://dc.lft.to/lastmile_qr_scan"}, "lon": -76.93615466666667, "type": "electric_bike"}, {"bike_id": "f1d52bb7396584fd0f2b3d0c495ab928", "is_reserved": 0, "fusion_lon": 0.0, "lat": 38.91599133333333, "is_disabled": 0, "name": "f1d52bb7396584fd0f2b3d0c495ab928", "fusion_lat": 0.0, "rental_uris": {"ios": "https://dc.lft.to/lastmile_qr_scan", "android": "https://dc.lft.to/lastmile_qr_scan"}, "lon": -77.043548, "type": "electric_scooter"}, {"bike_id": "d189a5b80828ed6033b95f568f465eed", "is_reserved": 0, "fusion_lon": 0.0, "lat": 38.928599166666665, "is_disabled": 0, "name": "d189a5b80828ed6033b95f568f465eed", "fusion_lat": 0.0, "rental_uris": {"ios": "https://dc.lft.to/lastmile_qr_scan", "android": "https://dc.lft.to/lastmile_qr_scan"}, "lon": -77.03598516666666, "type": "electric_scooter"}, {"bike_id": "52504620cbc91e71db1d908ce9b5105b", "is_reserved": 0, "fusion_lon": 0.0, "lat": 38.90552983333333, "is_disabled": 0, "name": "52504620cbc91e71db1d908ce9b5105b", "fusion_lat": 0.0, "rental_uris": {"ios": "https://dc.lft.to/lastmile_qr_scan", "android": "https://dc.lft.to/lastmile_qr_scan"}, "lon": -77.00580966666666, "type": "electric_scooter"}, {"bike_id": "62cf1fc07781c7c74cebb4c079bfd936", "is_reserved": 0, "fusion_lon": 0.0, "lat": 38.88347733333333, "is_disabled": 0, "name": "62cf1fc07781c7c74cebb4c079bfd936", "fusion_lat": 0.0, "rental_uris": {"ios": "https://dc.lft.to/lastmile_qr_scan", "android": "https://dc.lft.to/lastmile_qr_scan"}, "lon": -77.01764016666667, "type": "electric_scooter"}, {"bike_id": "54bce97d57365bf6f9a8ecc9fff262cb", "is_reserved": 0, "fusion_lon": 0.0, "lat": 38.91844433333333, "is_disabled": 0, "name": "54bce97d57365bf6f9a8ecc9fff262cb", "fusion_lat": 0.0, "rental_uris": {"ios": "https://dc.lft.to/lastmile_qr_scan", "android": "https://dc.lft.to/lastmile_qr_scan"}, "lon": -77.0390005, "type": "electric_scooter"}, {"bike_id": "07843ef7ef8cb30c31ba4de6f7b1d66a", "is_reserved": 0, "fusion_lon": 0.0, "lat": 38.8976175, "is_disabled": 0, "name": "07843ef7ef8cb30c31ba4de6f7b1d66a", "fusion_lat": 0.0, "rental_uris": {"ios": "https://dc.lft.to/lastmile_qr_scan", "android": "https://dc.lft.to/lastmile_qr_scan"}, "lon": -77.026688, "type": "electric_scooter"}, {"bike_id": "61a80667ad6bd8b1c595ca0f56f65631", "is_reserved": 0, "fusion_lon": 0.0, "lat": 38.88501816666667, "is_disabled": 0, "name": "61a80667ad6bd8b1c595ca0f56f65631", "fusion_lat": 0.0, "rental_uris": {"ios": "https://dc.lft.to/lastmile_qr_scan", "android": "https://dc.lft.to/lastmile_qr_scan"}, "lon": -77.0056655, "type": "electric_scooter"}, {"bike_id": "578126913cbb80594fa5044c2abf243b", "is_reserved": 0, "fusion_lon": 0.0, "lat": 38.934472166666666, "is_disabled": 0, "name": "578126913cbb80594fa5044c2abf243b", "fusion_lat": 0.0, "rental_uris": {"ios": "https://dc.lft.to/lastmile_qr_scan", "android": "https://dc.lft.to/lastmile_qr_scan"}, "lon": -77.02844916666666, "type": "electric_scooter"}, {"bike_id": "f2ee7e0502e68f354ab36e291965ee6d", "is_reserved": 0, "fusion_lon": 0.0, "lat": 38.87173116666666, "is_disabled": 0, "name": "f2ee7e0502e68f354ab36e291965ee6d", "fusion_lat": 0.0, "rental_uris": {"ios": "https://dc.lft.to/lastmile_qr_scan", "android": "https://dc.lft.to/lastmile_qr_scan"}, "lon": -77.00626216666667, "type": "electric_scooter"}, {"bike_id": "e2c2c805d6321667b9e890134d37e048", "is_reserved": 0, "fusion_lon": 0.0, "lat": 38.9283415, "is_disabled": 0, "name": "e2c2c805d6321667b9e890134d37e048", "fusion_lat": 0.0, "rental_uris": {"ios": "https://dc.lft.to/lastmile_qr_scan", "android": "https://dc.lft.to/lastmile_qr_scan"}, "lon": -77.05518666666667, "type": "electric_scooter"}, {"bike_id": "4903931f082046d64cb0e275ffa4ff50", "is_reserved": 0, "fusion_lon": 0.0, "lat": 38.897863, "is_disabled": 0, "name": "4903931f082046d64cb0e275ffa4ff50", "fusion_lat": 0.0, "rental_uris": {"ios": "https://dc.lft.to/lastmile_qr_scan", "android": "https://dc.lft.to/lastmile_qr_scan"}, "lon": -76.9043825, "type": "electric_bike"}, {"bike_id": "2371fc6d026752f8a39312a1bbbc5416", "is_reserved": 0, "fusion_lon": 0.0, "lat": 38.91686933333333, "is_disabled": 0, "name": "2371fc6d026752f8a39312a1bbbc5416", "fusion_lat": 0.0, "rental_uris": {"ios": "https://dc.lft.to/lastmile_qr_scan", "android": "https://dc.lft.to/lastmile_qr_scan"}, "lon": -77.0229925, "type": "electric_scooter"}, {"bike_id": "689b594535fdbcef667768089f4471a7", "is_reserved": 0, "fusion_lon": 0.0, "lat": 38.86626166666667, "is_disabled": 0, "name": "689b594535fdbcef667768089f4471a7", "fusion_lat": 0.0, "rental_uris": {"ios": "https://dc.lft.to/lastmile_qr_scan", "android": "https://dc.lft.to/lastmile_qr_scan"}, "lon": -76.98712666666667, "type": "electric_scooter"}, {"bike_id": "533f05ef9471265525ccc151d0bf74e5", "is_reserved": 0, "fusion_lon": 0.0, "lat": 38.91148716666667, "is_disabled": 0, "name": "533f05ef9471265525ccc151d0bf74e5", "fusion_lat": 0.0, "rental_uris": {"ios": "https://dc.lft.to/lastmile_qr_scan", "android": "https://dc.lft.to/lastmile_qr_scan"}, "lon": -77.04178016666667, "type": "electric_scooter"}, {"bike_id": "613c2e7e617f0e1cae44ae290b7b5cef", "is_reserved": 0, "fusion_lon": 0.0, "lat": 38.91583216666667, "is_disabled": 0, "name": "613c2e7e617f0e1cae44ae290b7b5cef", "fusion_lat": 0.0, "rental_uris": {"ios": "https://dc.lft.to/lastmile_qr_scan", "android": "https://dc.lft.to/lastmile_qr_scan"}, "lon": -77.04463516666667, "type": "electric_scooter"}, {"bike_id": "664d81adb32c94b0fc9e93c8a6315d00", "is_reserved": 0, "fusion_lon": 0.0, "lat": 38.91566666666667, "is_disabled": 0, "name": "664d81adb32c94b0fc9e93c8a6315d00", "fusion_lat": 0.0, "rental_uris": {"ios": "https://dc.lft.to/lastmile_qr_scan", "android": "https://dc.lft.to/lastmile_qr_scan"}, "lon": -77.038418, "type": "electric_scooter"}, {"bike_id": "b376f642f5b7eb24f835761784c3217c", "is_reserved": 0, "fusion_lon": 0.0, "lat": 38.909605666666664, "is_disabled": 0, "name": "b376f642f5b7eb24f835761784c3217c", "fusion_lat": 0.0, "rental_uris": {"ios": "https://dc.lft.to/lastmile_qr_scan", "android": "https://dc.lft.to/lastmile_qr_scan"}, "lon": -77.031652, "type": "electric_scooter"}, {"bike_id": "74fd00962a7789df33ea0751714e398b", "is_reserved": 0, "fusion_lon": 0.0, "lat": 38.90566116666667, "is_disabled": 0, "name": "74fd00962a7789df33ea0751714e398b", "fusion_lat": 0.0, "rental_uris": {"ios": "https://dc.lft.to/lastmile_qr_scan", "android": "https://dc.lft.to/lastmile_qr_scan"}, "lon": -77.03849616666666, "type": "electric_scooter"}, {"bike_id": "8141fb13e135c36f6929f99df2da4702", "is_reserved": 0, "fusion_lon": 0.0, "lat": 38.879796666666664, "is_disabled": 0, "name": "8141fb13e135c36f6929f99df2da4702", "fusion_lat": 0.0, "rental_uris": {"ios": "https://dc.lft.to/lastmile_qr_scan", "android": "https://dc.lft.to/lastmile_qr_scan"}, "lon": -76.91596683333333, "type": "electric_bike"}, {"bike_id": "adf22b5cfafdbaa40165dc2b16532b0c", "is_reserved": 0, "fusion_lon": 0.0, "lat": 38.92664516666667, "is_disabled": 0, "name": "adf22b5cfafdbaa40165dc2b16532b0c", "fusion_lat": 0.0, "rental_uris": {"ios": "https://dc.lft.to/lastmile_qr_scan", "android": "https://dc.lft.to/lastmile_qr_scan"}, "lon": -77.0954695, "type": "electric_scooter"}, {"bike_id": "9fe5f4efa7da27614145d25d5fccb55f", "is_reserved": 0, "fusion_lon": 0.0, "lat": 38.9057845, "is_disabled": 0, "name": "9fe5f4efa7da27614145d25d5fccb55f", "fusion_lat": 0.0, "rental_uris": {"ios": "https://dc.lft.to/lastmile_qr_scan", "android": "https://dc.lft.to/lastmile_qr_scan"}, "lon": -77.0220825, "type": "electric_scooter"}, {"bike_id": "f6dde9613d18edf6cc1dad60accee6a9", "is_reserved": 0, "fusion_lon": 0.0, "lat": 38.93621866666667, "is_disabled": 0, "name": "f6dde9613d18edf6cc1dad60accee6a9", "fusion_lat": 0.0, "rental_uris": {"ios": "https://dc.lft.to/lastmile_qr_scan", "android": "https://dc.lft.to/lastmile_qr_scan"}, "lon": -77.05576533333333, "type": "electric_scooter"}, {"bike_id": "3475dc0869f3290075846d438bdb6fd2", "is_reserved": 0, "fusion_lon": 0.0, "lat": 38.90149066666667, "is_disabled": 0, "name": "3475dc0869f3290075846d438bdb6fd2", "fusion_lat": 0.0, "rental_uris": {"ios": "https://dc.lft.to/lastmile_qr_scan", "android": "https://dc.lft.to/lastmile_qr_scan"}, "lon": -76.9306395, "type": "electric_scooter"}, {"bike_id": "b655b8af465b6c750906a5746811d89f", "is_reserved": 0, "fusion_lon": 0.0, "lat": 38.892202833333336, "is_disabled": 0, "name": "b655b8af465b6c750906a5746811d89f", "fusion_lat": 0.0, "rental_uris": {"ios": "https://dc.lft.to/lastmile_qr_scan", "android": "https://dc.lft.to/lastmile_qr_scan"}, "lon": -77.0397515, "type": "electric_scooter"}, {"bike_id": "cc878dd4b85ba8f8f66578efc4669986", "is_reserved": 0, "fusion_lon": 0.0, "lat": 38.940640333333334, "is_disabled": 0, "name": "cc878dd4b85ba8f8f66578efc4669986", "fusion_lat": 0.0, "rental_uris": {"ios": "https://dc.lft.to/lastmile_qr_scan", "android": "https://dc.lft.to/lastmile_qr_scan"}, "lon": -76.9945905, "type": "electric_scooter"}, {"bike_id": "497771f49c2c120782ef10a9078581fd", "is_reserved": 0, "fusion_lon": 0.0, "lat": 38.918730333333336, "is_disabled": 0, "name": "497771f49c2c120782ef10a9078581fd", "fusion_lat": 0.0, "rental_uris": {"ios": "https://dc.lft.to/lastmile_qr_scan", "android": "https://dc.lft.to/lastmile_qr_scan"}, "lon": -77.04379816666666, "type": "electric_scooter"}, {"bike_id": "02a42944cb215b1f72575802e08c88da", "is_reserved": 0, "fusion_lon": 0.0, "lat": 38.92228266666667, "is_disabled": 0, "name": "02a42944cb215b1f72575802e08c88da", "fusion_lat": 0.0, "rental_uris": {"ios": "https://dc.lft.to/lastmile_qr_scan", "android": "https://dc.lft.to/lastmile_qr_scan"}, "lon": -77.033453, "type": "electric_scooter"}, {"bike_id": "b578e12930303c7ade044eb055c5cc6d", "is_reserved": 0, "fusion_lon": 0.0, "lat": 38.914146, "is_disabled": 0, "name": "b578e12930303c7ade044eb055c5cc6d", "fusion_lat": 0.0, "rental_uris": {"ios": "https://dc.lft.to/lastmile_qr_scan", "android": "https://dc.lft.to/lastmile_qr_scan"}, "lon": -77.03904616666667, "type": "electric_scooter"}, {"bike_id": "b12a2864647543cad800b970690f3f5c", "is_reserved": 0, "fusion_lon": 0.0, "lat": 38.84423966666667, "is_disabled": 0, "name": "b12a2864647543cad800b970690f3f5c", "fusion_lat": 0.0, "rental_uris": {"ios": "https://dc.lft.to/lastmile_qr_scan", "android": "https://dc.lft.to/lastmile_qr_scan"}, "lon": -76.997747, "type": "electric_scooter"}, {"bike_id": "a7516c78998f102206a74aea46f1e3c3", "is_reserved": 0, "fusion_lon": 0.0, "lat": 38.898007166666666, "is_disabled": 0, "name": "a7516c78998f102206a74aea46f1e3c3", "fusion_lat": 0.0, "rental_uris": {"ios": "https://dc.lft.to/lastmile_qr_scan", "android": "https://dc.lft.to/lastmile_qr_scan"}, "lon": -76.99163366666667, "type": "electric_scooter"}, {"bike_id": "7f92ad2601337cf24a75f2e9e17583a0", "is_reserved": 0, "fusion_lon": 0.0, "lat": 38.914510666666665, "is_disabled": 0, "name": "7f92ad2601337cf24a75f2e9e17583a0", "fusion_lat": 0.0, "rental_uris": {"ios": "https://dc.lft.to/lastmile_qr_scan", "android": "https://dc.lft.to/lastmile_qr_scan"}, "lon": -77.03468816666667, "type": "electric_scooter"}, {"bike_id": "8c57a7a9727bd267614bdf0328958b1a", "is_reserved": 0, "fusion_lon": 0.0, "lat": 38.934929833333335, "is_disabled": 0, "name": "8c57a7a9727bd267614bdf0328958b1a", "fusion_lat": 0.0, "rental_uris": {"ios": "https://dc.lft.to/lastmile_qr_scan", "android": "https://dc.lft.to/lastmile_qr_scan"}, "lon": -77.02838366666667, "type": "electric_scooter"}, {"bike_id": "f23faa648784a0dcd218088f2ddaf1ba", "is_reserved": 0, "fusion_lon": 0.0, "lat": 38.91193783333333, "is_disabled": 0, "name": "f23faa648784a0dcd218088f2ddaf1ba", "fusion_lat": 0.0, "rental_uris": {"ios": "https://dc.lft.to/lastmile_qr_scan", "android": "https://dc.lft.to/lastmile_qr_scan"}, "lon": -77.06098433333334, "type": "electric_scooter"}, {"bike_id": "d320661e11333315874c7067ff76c181", "is_reserved": 0, "fusion_lon": 0.0, "lat": 38.903301, "is_disabled": 0, "name": "d320661e11333315874c7067ff76c181", "fusion_lat": 0.0, "rental_uris": {"ios": "https://dc.lft.to/lastmile_qr_scan", "android": "https://dc.lft.to/lastmile_qr_scan"}, "lon": -77.033169, "type": "electric_scooter"}, {"bike_id": "fb70b9690846b18ae770994aec69b40c", "is_reserved": 0, "fusion_lon": 0.0, "lat": 38.91181666666667, "is_disabled": 0, "name": "fb70b9690846b18ae770994aec69b40c", "fusion_lat": 0.0, "rental_uris": {"ios": "https://dc.lft.to/lastmile_qr_scan", "android": "https://dc.lft.to/lastmile_qr_scan"}, "lon": -77.045426, "type": "electric_scooter"}, {"bike_id": "83382a3c04a830dead2254836e134e6d", "is_reserved": 0, "fusion_lon": 0.0, "lat": 38.946036166666666, "is_disabled": 0, "name": "83382a3c04a830dead2254836e134e6d", "fusion_lat": 0.0, "rental_uris": {"ios": "https://dc.lft.to/lastmile_qr_scan", "android": "https://dc.lft.to/lastmile_qr_scan"}, "lon": -77.0297755, "type": "electric_scooter"}, {"bike_id": "a75aecbccb8ab5df5dc0fcc7b20113aa", "is_reserved": 0, "fusion_lon": 0.0, "lat": 38.89223166666667, "is_disabled": 0, "name": "a75aecbccb8ab5df5dc0fcc7b20113aa", "fusion_lat": 0.0, "rental_uris": {"ios": "https://dc.lft.to/lastmile_qr_scan", "android": "https://dc.lft.to/lastmile_qr_scan"}, "lon": -77.04862966666667, "type": "electric_scooter"}, {"bike_id": "ce8247a223665c35c0a3c8b9f5f46c40", "is_reserved": 0, "fusion_lon": 0.0, "lat": 38.89221633333333, "is_disabled": 0, "name": "ce8247a223665c35c0a3c8b9f5f46c40", "fusion_lat": 0.0, "rental_uris": {"ios": "https://dc.lft.to/lastmile_qr_scan", "android": "https://dc.lft.to/lastmile_qr_scan"}, "lon": -77.03976583333333, "type": "electric_scooter"}, {"bike_id": "4bf499d61a2d4fe9ea827b6feb26cf13", "is_reserved": 0, "fusion_lon": 0.0, "lat": 38.877430833333335, "is_disabled": 0, "name": "4bf499d61a2d4fe9ea827b6feb26cf13", "fusion_lat": 0.0, "rental_uris": {"ios": "https://dc.lft.to/lastmile_qr_scan", "android": "https://dc.lft.to/lastmile_qr_scan"}, "lon": -76.98058583333334, "type": "electric_bike"}, {"bike_id": "fad1d89aef98026575117451f909de41", "is_reserved": 0, "fusion_lon": 0.0, "lat": 38.886003, "is_disabled": 0, "name": "fad1d89aef98026575117451f909de41", "fusion_lat": 0.0, "rental_uris": {"ios": "https://dc.lft.to/lastmile_qr_scan", "android": "https://dc.lft.to/lastmile_qr_scan"}, "lon": -77.00574083333333, "type": "electric_scooter"}, {"bike_id": "db3bca028b8397025fe9c44825c34278", "is_reserved": 0, "fusion_lon": 0.0, "lat": 38.81050283333333, "is_disabled": 0, "name": "db3bca028b8397025fe9c44825c34278", "fusion_lat": 0.0, "rental_uris": {"ios": "https://dc.lft.to/lastmile_qr_scan", "android": "https://dc.lft.to/lastmile_qr_scan"}, "lon": -77.08509766666667, "type": "electric_bike"}, {"bike_id": "88d7882615c7f17c878ec7fde7acf84e", "is_reserved": 0, "fusion_lon": 0.0, "lat": 38.854261666666666, "is_disabled": 0, "name": "88d7882615c7f17c878ec7fde7acf84e", "fusion_lat": 0.0, "rental_uris": {"ios": "https://dc.lft.to/lastmile_qr_scan", "android": "https://dc.lft.to/lastmile_qr_scan"}, "lon": -76.90972666666667, "type": "electric_bike"}, {"bike_id": "da976c166e75038e7e1aa0d4f03880be", "is_reserved": 0, "fusion_lon": 0.0, "lat": 38.902733833333336, "is_disabled": 0, "name": "da976c166e75038e7e1aa0d4f03880be", "fusion_lat": 0.0, "rental_uris": {"ios": "https://dc.lft.to/lastmile_qr_scan", "android": "https://dc.lft.to/lastmile_qr_scan"}, "lon": -77.03473683333333, "type": "electric_scooter"}, {"bike_id": "c0090d2cb48239c3eb6ded6bf68252f4", "is_reserved": 0, "fusion_lon": 0.0, "lat": 38.907646166666666, "is_disabled": 0, "name": "c0090d2cb48239c3eb6ded6bf68252f4", "fusion_lat": 0.0, "rental_uris": {"ios": "https://dc.lft.to/lastmile_qr_scan", "android": "https://dc.lft.to/lastmile_qr_scan"}, "lon": -77.03191066666666, "type": "electric_scooter"}, {"bike_id": "5bf052ffd6ddbd13c6bb1887e6405265", "is_reserved": 0, "fusion_lon": 0.0, "lat": 38.887043, "is_disabled": 0, "name": "5bf052ffd6ddbd13c6bb1887e6405265", "fusion_lat": 0.0, "rental_uris": {"ios": "https://dc.lft.to/lastmile_qr_scan", "android": "https://dc.lft.to/lastmile_qr_scan"}, "lon": -77.00150766666667, "type": "electric_scooter"}, {"bike_id": "544821a96260a5eb6f08df0eb1f7dd4c", "is_reserved": 0, "fusion_lon": 0.0, "lat": 38.9187965, "is_disabled": 0, "name": "544821a96260a5eb6f08df0eb1f7dd4c", "fusion_lat": 0.0, "rental_uris": {"ios": "https://dc.lft.to/lastmile_qr_scan", "android": "https://dc.lft.to/lastmile_qr_scan"}, "lon": -77.04458983333333, "type": "electric_scooter"}, {"bike_id": "0d728875cdb356af9054a925f1342e62", "is_reserved": 0, "fusion_lon": 0.0, "lat": 38.905209166666666, "is_disabled": 0, "name": "0d728875cdb356af9054a925f1342e62", "fusion_lat": 0.0, "rental_uris": {"ios": "https://dc.lft.to/lastmile_qr_scan", "android": "https://dc.lft.to/lastmile_qr_scan"}, "lon": -77.06529983333333, "type": "electric_scooter"}, {"bike_id": "32c0cf1f913fbbce4daf75cdeec096bd", "is_reserved": 0, "fusion_lon": 0.0, "lat": 38.89832083333334, "is_disabled": 0, "name": "32c0cf1f913fbbce4daf75cdeec096bd", "fusion_lat": 0.0, "rental_uris": {"ios": "https://dc.lft.to/lastmile_qr_scan", "android": "https://dc.lft.to/lastmile_qr_scan"}, "lon": -76.98029333333334, "type": "electric_scooter"}, {"bike_id": "9febfc36226cb342a283cb476ef783c7", "is_reserved": 0, "fusion_lon": 0.0, "lat": 38.89561366666667, "is_disabled": 0, "name": "9febfc36226cb342a283cb476ef783c7", "fusion_lat": 0.0, "rental_uris": {"ios": "https://dc.lft.to/lastmile_qr_scan", "android": "https://dc.lft.to/lastmile_qr_scan"}, "lon": -77.025598, "type": "electric_scooter"}, {"bike_id": "bdda5fd36d9fa2e7eba0dc0619b29287", "is_reserved": 0, "fusion_lon": 0.0, "lat": 38.87996166666667, "is_disabled": 0, "name": "bdda5fd36d9fa2e7eba0dc0619b29287", "fusion_lat": 0.0, "rental_uris": {"ios": "https://dc.lft.to/lastmile_qr_scan", "android": "https://dc.lft.to/lastmile_qr_scan"}, "lon": -76.98533416666666, "type": "electric_scooter"}, {"bike_id": "39371958cb389af437adca43de280b47", "is_reserved": 0, "fusion_lon": 0.0, "lat": 38.90831166666667, "is_disabled": 0, "name": "39371958cb389af437adca43de280b47", "fusion_lat": 0.0, "rental_uris": {"ios": "https://dc.lft.to/lastmile_qr_scan", "android": "https://dc.lft.to/lastmile_qr_scan"}, "lon": -76.99698633333334, "type": "electric_scooter"}, {"bike_id": "4181b9f41932f37a83212805b95fc208", "is_reserved": 0, "fusion_lon": 0.0, "lat": 38.933484166666666, "is_disabled": 0, "name": "4181b9f41932f37a83212805b95fc208", "fusion_lat": 0.0, "rental_uris": {"ios": "https://dc.lft.to/lastmile_qr_scan", "android": "https://dc.lft.to/lastmile_qr_scan"}, "lon": -77.057086, "type": "electric_scooter"}, {"bike_id": "a2fcaa62db8ca2ffba390a982e07f09f", "is_reserved": 0, "fusion_lon": 0.0, "lat": 38.897053, "is_disabled": 0, "name": "a2fcaa62db8ca2ffba390a982e07f09f", "fusion_lat": 0.0, "rental_uris": {"ios": "https://dc.lft.to/lastmile_qr_scan", "android": "https://dc.lft.to/lastmile_qr_scan"}, "lon": -77.0267435, "type": "electric_scooter"}, {"bike_id": "42987303003df2ca04df94cdfac7e74e", "is_reserved": 0, "fusion_lon": 0.0, "lat": 38.9446265, "is_disabled": 0, "name": "42987303003df2ca04df94cdfac7e74e", "fusion_lat": 0.0, "rental_uris": {"ios": "https://dc.lft.to/lastmile_qr_scan", "android": "https://dc.lft.to/lastmile_qr_scan"}, "lon": -77.06273733333333, "type": "electric_scooter"}, {"bike_id": "70a9367302a3247157c0c3f0b5b6a6bf", "is_reserved": 0, "fusion_lon": 0.0, "lat": 39.03048533333333, "is_disabled": 0, "name": "70a9367302a3247157c0c3f0b5b6a6bf", "fusion_lat": 0.0, "rental_uris": {"ios": "https://dc.lft.to/lastmile_qr_scan", "android": "https://dc.lft.to/lastmile_qr_scan"}, "lon": -77.0947795, "type": "electric_bike"}, {"bike_id": "eb2036efa48eaa3ed40a2576eaa31535", "is_reserved": 0, "fusion_lon": 0.0, "lat": 38.891973166666666, "is_disabled": 0, "name": "eb2036efa48eaa3ed40a2576eaa31535", "fusion_lat": 0.0, "rental_uris": {"ios": "https://dc.lft.to/lastmile_qr_scan", "android": "https://dc.lft.to/lastmile_qr_scan"}, "lon": -77.01552683333334, "type": "electric_scooter"}, {"bike_id": "fb01c3a1e4b270b4d7bf7321fbe87a34", "is_reserved": 0, "fusion_lon": 0.0, "lat": 38.90021083333333, "is_disabled": 0, "name": "fb01c3a1e4b270b4d7bf7321fbe87a34", "fusion_lat": 0.0, "rental_uris": {"ios": "https://dc.lft.to/lastmile_qr_scan", "android": "https://dc.lft.to/lastmile_qr_scan"}, "lon": -76.99767266666667, "type": "electric_scooter"}, {"bike_id": "6818800651c27fc5746759b58990161c", "is_reserved": 0, "fusion_lon": 0.0, "lat": 38.91926316666667, "is_disabled": 0, "name": "6818800651c27fc5746759b58990161c", "fusion_lat": 0.0, "rental_uris": {"ios": "https://dc.lft.to/lastmile_qr_scan", "android": "https://dc.lft.to/lastmile_qr_scan"}, "lon": -77.00069166666667, "type": "electric_scooter"}, {"bike_id": "284a783a3f443608e6f550b321f8a8b7", "is_reserved": 0, "fusion_lon": 0.0, "lat": 38.9015615, "is_disabled": 0, "name": "284a783a3f443608e6f550b321f8a8b7", "fusion_lat": 0.0, "rental_uris": {"ios": "https://dc.lft.to/lastmile_qr_scan", "android": "https://dc.lft.to/lastmile_qr_scan"}, "lon": -77.04235916666667, "type": "electric_scooter"}, {"bike_id": "09a4c4f603f39daffff49253341d1a30", "is_reserved": 0, "fusion_lon": 0.0, "lat": 38.922123166666665, "is_disabled": 0, "name": "09a4c4f603f39daffff49253341d1a30", "fusion_lat": 0.0, "rental_uris": {"ios": "https://dc.lft.to/lastmile_qr_scan", "android": "https://dc.lft.to/lastmile_qr_scan"}, "lon": -77.0365635, "type": "electric_scooter"}, {"bike_id": "4fbe6b3cb0309ee00e21d61d02c65e94", "is_reserved": 0, "fusion_lon": 0.0, "lat": 38.9069885, "is_disabled": 0, "name": "4fbe6b3cb0309ee00e21d61d02c65e94", "fusion_lat": 0.0, "rental_uris": {"ios": "https://dc.lft.to/lastmile_qr_scan", "android": "https://dc.lft.to/lastmile_qr_scan"}, "lon": -77.07532683333334, "type": "electric_scooter"}, {"bike_id": "64c6b42d15509439eaf370e103d9210d", "is_reserved": 0, "fusion_lon": 0.0, "lat": 38.9155, "is_disabled": 0, "name": "64c6b42d15509439eaf370e103d9210d", "fusion_lat": 0.0, "rental_uris": {"ios": "https://dc.lft.to/lastmile_qr_scan", "android": "https://dc.lft.to/lastmile_qr_scan"}, "lon": -77.039301, "type": "electric_scooter"}, {"bike_id": "52ef14c5903c4180dacf2d632569a38b", "is_reserved": 0, "fusion_lon": 0.0, "lat": 38.89224133333333, "is_disabled": 0, "name": "52ef14c5903c4180dacf2d632569a38b", "fusion_lat": 0.0, "rental_uris": {"ios": "https://dc.lft.to/lastmile_qr_scan", "android": "https://dc.lft.to/lastmile_qr_scan"}, "lon": -77.04332833333333, "type": "electric_scooter"}, {"bike_id": "2fdc3f9ec9eeb29abe44c54d03bec439", "is_reserved": 0, "fusion_lon": 0.0, "lat": 38.914648166666666, "is_disabled": 0, "name": "2fdc3f9ec9eeb29abe44c54d03bec439", "fusion_lat": 0.0, "rental_uris": {"ios": "https://dc.lft.to/lastmile_qr_scan", "android": "https://dc.lft.to/lastmile_qr_scan"}, "lon": -77.03204733333334, "type": "electric_scooter"}, {"bike_id": "c2afb248f54ba2d8c29b84e559d61998", "is_reserved": 0, "fusion_lon": 0.0, "lat": 38.93426683333333, "is_disabled": 0, "name": "c2afb248f54ba2d8c29b84e559d61998", "fusion_lat": 0.0, "rental_uris": {"ios": "https://dc.lft.to/lastmile_qr_scan", "android": "https://dc.lft.to/lastmile_qr_scan"}, "lon": -77.04319533333333, "type": "electric_scooter"}, {"bike_id": "64b55d465bcd105b68c054d936454a4e", "is_reserved": 0, "fusion_lon": 0.0, "lat": 38.898328666666664, "is_disabled": 0, "name": "64b55d465bcd105b68c054d936454a4e", "fusion_lat": 0.0, "rental_uris": {"ios": "https://dc.lft.to/lastmile_qr_scan", "android": "https://dc.lft.to/lastmile_qr_scan"}, "lon": -76.94632633333333, "type": "electric_scooter"}, {"bike_id": "5aca41c3bbcf2f2692888547f4c63d3b", "is_reserved": 0, "fusion_lon": 0.0, "lat": 38.905686, "is_disabled": 0, "name": "5aca41c3bbcf2f2692888547f4c63d3b", "fusion_lat": 0.0, "rental_uris": {"ios": "https://dc.lft.to/lastmile_qr_scan", "android": "https://dc.lft.to/lastmile_qr_scan"}, "lon": -77.00593516666666, "type": "electric_scooter"}, {"bike_id": "086c45681b7dab673aeec3cf5b2e8523", "is_reserved": 0, "fusion_lon": 0.0, "lat": 38.9154455, "is_disabled": 0, "name": "086c45681b7dab673aeec3cf5b2e8523", "fusion_lat": 0.0, "rental_uris": {"ios": "https://dc.lft.to/lastmile_qr_scan", "android": "https://dc.lft.to/lastmile_qr_scan"}, "lon": -77.03845983333333, "type": "electric_scooter"}, {"bike_id": "057cfba02e6ca1a9b0266e4b0966293b", "is_reserved": 0, "fusion_lon": 0.0, "lat": 38.8960455, "is_disabled": 0, "name": "057cfba02e6ca1a9b0266e4b0966293b", "fusion_lat": 0.0, "rental_uris": {"ios": "https://dc.lft.to/lastmile_qr_scan", "android": "https://dc.lft.to/lastmile_qr_scan"}, "lon": -77.00925516666666, "type": "electric_scooter"}, {"bike_id": "362b3a428b23aa4b24f280525a8200a6", "is_reserved": 0, "fusion_lon": 0.0, "lat": 38.88210316666667, "is_disabled": 0, "name": "362b3a428b23aa4b24f280525a8200a6", "fusion_lat": 0.0, "rental_uris": {"ios": "https://dc.lft.to/lastmile_qr_scan", "android": "https://dc.lft.to/lastmile_qr_scan"}, "lon": -76.92699383333333, "type": "electric_scooter"}, {"bike_id": "97ab3aa86d0ea3e8fd96664d02ce1cc2", "is_reserved": 0, "fusion_lon": 0.0, "lat": 39.05200266666667, "is_disabled": 0, "name": "97ab3aa86d0ea3e8fd96664d02ce1cc2", "fusion_lat": 0.0, "rental_uris": {"ios": "https://dc.lft.to/lastmile_qr_scan", "android": "https://dc.lft.to/lastmile_qr_scan"}, "lon": -77.109161, "type": "electric_bike"}, {"bike_id": "49a4359e422b145917fd72fb592d13c7", "is_reserved": 0, "fusion_lon": 0.0, "lat": 38.93333166666667, "is_disabled": 0, "name": "49a4359e422b145917fd72fb592d13c7", "fusion_lat": 0.0, "rental_uris": {"ios": "https://dc.lft.to/lastmile_qr_scan", "android": "https://dc.lft.to/lastmile_qr_scan"}, "lon": -77.03261133333334, "type": "electric_scooter"}, {"bike_id": "0e74e55485f50c319e2abea7588d8455", "is_reserved": 0, "fusion_lon": 0.0, "lat": 38.909738, "is_disabled": 0, "name": "0e74e55485f50c319e2abea7588d8455", "fusion_lat": 0.0, "rental_uris": {"ios": "https://dc.lft.to/lastmile_qr_scan", "android": "https://dc.lft.to/lastmile_qr_scan"}, "lon": -77.04870283333334, "type": "electric_scooter"}, {"bike_id": "a0288ea69e876c3844fa941d041be5f4", "is_reserved": 0, "fusion_lon": 0.0, "lat": 38.9028025, "is_disabled": 0, "name": "a0288ea69e876c3844fa941d041be5f4", "fusion_lat": 0.0, "rental_uris": {"ios": "https://dc.lft.to/lastmile_qr_scan", "android": "https://dc.lft.to/lastmile_qr_scan"}, "lon": -77.03819566666667, "type": "electric_scooter"}, {"bike_id": "c2f70352059a4d7446756466ec1c3025", "is_reserved": 0, "fusion_lon": 0.0, "lat": 38.88529466666667, "is_disabled": 0, "name": "c2f70352059a4d7446756466ec1c3025", "fusion_lat": 0.0, "rental_uris": {"ios": "https://dc.lft.to/lastmile_qr_scan", "android": "https://dc.lft.to/lastmile_qr_scan"}, "lon": -77.00581283333334, "type": "electric_scooter"}, {"bike_id": "0af8f28cd375985c28469577b7220fa0", "is_reserved": 0, "fusion_lon": 0.0, "lat": 38.92365183333333, "is_disabled": 0, "name": "0af8f28cd375985c28469577b7220fa0", "fusion_lat": 0.0, "rental_uris": {"ios": "https://dc.lft.to/lastmile_qr_scan", "android": "https://dc.lft.to/lastmile_qr_scan"}, "lon": -77.050358, "type": "electric_scooter"}, {"bike_id": "8eee6899b4d97455b8fd5fa9bcd011c1", "is_reserved": 0, "fusion_lon": 0.0, "lat": 38.8666195, "is_disabled": 0, "name": "8eee6899b4d97455b8fd5fa9bcd011c1", "fusion_lat": 0.0, "rental_uris": {"ios": "https://dc.lft.to/lastmile_qr_scan", "android": "https://dc.lft.to/lastmile_qr_scan"}, "lon": -76.98904616666667, "type": "electric_scooter"}, {"bike_id": "bbcf7c670be98dc7e69071c7f23d288e", "is_reserved": 0, "fusion_lon": 0.0, "lat": 38.905677833333336, "is_disabled": 0, "name": "bbcf7c670be98dc7e69071c7f23d288e", "fusion_lat": 0.0, "rental_uris": {"ios": "https://dc.lft.to/lastmile_qr_scan", "android": "https://dc.lft.to/lastmile_qr_scan"}, "lon": -77.03454533333333, "type": "electric_scooter"}, {"bike_id": "74db626a25a8f423e31b6d2b96f8b20b", "is_reserved": 0, "fusion_lon": 0.0, "lat": 38.89898983333333, "is_disabled": 0, "name": "74db626a25a8f423e31b6d2b96f8b20b", "fusion_lat": 0.0, "rental_uris": {"ios": "https://dc.lft.to/lastmile_qr_scan", "android": "https://dc.lft.to/lastmile_qr_scan"}, "lon": -77.0393565, "type": "electric_scooter"}, {"bike_id": "fa25271aeb5046e61df7eb6bd124423f", "is_reserved": 0, "fusion_lon": 0.0, "lat": 38.897725666666666, "is_disabled": 0, "name": "fa25271aeb5046e61df7eb6bd124423f", "fusion_lat": 0.0, "rental_uris": {"ios": "https://dc.lft.to/lastmile_qr_scan", "android": "https://dc.lft.to/lastmile_qr_scan"}, "lon": -77.04315866666667, "type": "electric_scooter"}, {"bike_id": "0a1f6d89e09499bbf64e89127c3e346b", "is_reserved": 0, "fusion_lon": 0.0, "lat": 38.933603833333336, "is_disabled": 0, "name": "0a1f6d89e09499bbf64e89127c3e346b", "fusion_lat": 0.0, "rental_uris": {"ios": "https://dc.lft.to/lastmile_qr_scan", "android": "https://dc.lft.to/lastmile_qr_scan"}, "lon": -77.0693725, "type": "electric_scooter"}, {"bike_id": "ad7584a3a7c89967e3a179fddbd0024a", "is_reserved": 0, "fusion_lon": 0.0, "lat": 38.911211, "is_disabled": 0, "name": "ad7584a3a7c89967e3a179fddbd0024a", "fusion_lat": 0.0, "rental_uris": {"ios": "https://dc.lft.to/lastmile_qr_scan", "android": "https://dc.lft.to/lastmile_qr_scan"}, "lon": -77.02183116666667, "type": "electric_scooter"}, {"bike_id": "41554c97660c001bcea7de8d8c0a0209", "is_reserved": 0, "fusion_lon": 0.0, "lat": 38.8849265, "is_disabled": 0, "name": "41554c97660c001bcea7de8d8c0a0209", "fusion_lat": 0.0, "rental_uris": {"ios": "https://dc.lft.to/lastmile_qr_scan", "android": "https://dc.lft.to/lastmile_qr_scan"}, "lon": -77.0072565, "type": "electric_scooter"}, {"bike_id": "7070bda4a53b495708fc4a79dbcb32a6", "is_reserved": 0, "fusion_lon": 0.0, "lat": 38.88043116666667, "is_disabled": 0, "name": "7070bda4a53b495708fc4a79dbcb32a6", "fusion_lat": 0.0, "rental_uris": {"ios": "https://dc.lft.to/lastmile_qr_scan", "android": "https://dc.lft.to/lastmile_qr_scan"}, "lon": -77.01328783333334, "type": "electric_bike"}, {"bike_id": "7236e3d19925641f97dec56d06c8eb19", "is_reserved": 0, "fusion_lon": 0.0, "lat": 38.8393335, "is_disabled": 0, "name": "7236e3d19925641f97dec56d06c8eb19", "fusion_lat": 0.0, "rental_uris": {"ios": "https://dc.lft.to/lastmile_qr_scan", "android": "https://dc.lft.to/lastmile_qr_scan"}, "lon": -77.07902283333334, "type": "electric_bike"}, {"bike_id": "ff9456e0ac1fa6ded607a80fc0e488dd", "is_reserved": 0, "fusion_lon": 0.0, "lat": 38.90320033333333, "is_disabled": 0, "name": "ff9456e0ac1fa6ded607a80fc0e488dd", "fusion_lat": 0.0, "rental_uris": {"ios": "https://dc.lft.to/lastmile_qr_scan", "android": "https://dc.lft.to/lastmile_qr_scan"}, "lon": -77.0332095, "type": "electric_scooter"}, {"bike_id": "2c854830eb646fc9fe03a3dba229ba7a", "is_reserved": 0, "fusion_lon": 0.0, "lat": 38.915988, "is_disabled": 0, "name": "2c854830eb646fc9fe03a3dba229ba7a", "fusion_lat": 0.0, "rental_uris": {"ios": "https://dc.lft.to/lastmile_qr_scan", "android": "https://dc.lft.to/lastmile_qr_scan"}, "lon": -77.0317845, "type": "electric_scooter"}, {"bike_id": "f4093a70cf318150386b32ff40496d9c", "is_reserved": 0, "fusion_lon": 0.0, "lat": 38.84271833333333, "is_disabled": 0, "name": "f4093a70cf318150386b32ff40496d9c", "fusion_lat": 0.0, "rental_uris": {"ios": "https://dc.lft.to/lastmile_qr_scan", "android": "https://dc.lft.to/lastmile_qr_scan"}, "lon": -76.98841033333333, "type": "electric_bike"}, {"bike_id": "82285c9e5a0e5f14c559d6bab2284f06", "is_reserved": 0, "fusion_lon": 0.0, "lat": 38.91427933333333, "is_disabled": 0, "name": "82285c9e5a0e5f14c559d6bab2284f06", "fusion_lat": 0.0, "rental_uris": {"ios": "https://dc.lft.to/lastmile_qr_scan", "android": "https://dc.lft.to/lastmile_qr_scan"}, "lon": -77.0415635, "type": "electric_scooter"}, {"bike_id": "f0ddc0ab46eda76c896556c3f485a234", "is_reserved": 0, "fusion_lon": 0.0, "lat": 38.89823333333333, "is_disabled": 0, "name": "f0ddc0ab46eda76c896556c3f485a234", "fusion_lat": 0.0, "rental_uris": {"ios": "https://dc.lft.to/lastmile_qr_scan", "android": "https://dc.lft.to/lastmile_qr_scan"}, "lon": -77.03344616666666, "type": "electric_scooter"}, {"bike_id": "6e6dfd3d69f011f2985a74ac3c178e4a", "is_reserved": 0, "fusion_lon": 0.0, "lat": 38.892270833333335, "is_disabled": 0, "name": "6e6dfd3d69f011f2985a74ac3c178e4a", "fusion_lat": 0.0, "rental_uris": {"ios": "https://dc.lft.to/lastmile_qr_scan", "android": "https://dc.lft.to/lastmile_qr_scan"}, "lon": -77.022056, "type": "electric_scooter"}, {"bike_id": "ec9c1c00699c18c5e8ca69e86ad4d921", "is_reserved": 0, "fusion_lon": 0.0, "lat": 38.90027666666667, "is_disabled": 0, "name": "ec9c1c00699c18c5e8ca69e86ad4d921", "fusion_lat": 0.0, "rental_uris": {"ios": "https://dc.lft.to/lastmile_qr_scan", "android": "https://dc.lft.to/lastmile_qr_scan"}, "lon": -77.0115625, "type": "electric_scooter"}, {"bike_id": "258e75cea02812a4f330c41fbc0c3d62", "is_reserved": 0, "fusion_lon": 0.0, "lat": 38.89830716666667, "is_disabled": 0, "name": "258e75cea02812a4f330c41fbc0c3d62", "fusion_lat": 0.0, "rental_uris": {"ios": "https://dc.lft.to/lastmile_qr_scan", "android": "https://dc.lft.to/lastmile_qr_scan"}, "lon": -77.03326866666667, "type": "electric_scooter"}, {"bike_id": "2eaf285a9c32b001b26e2b2e4b904328", "is_reserved": 0, "fusion_lon": 0.0, "lat": 38.8922185, "is_disabled": 0, "name": "2eaf285a9c32b001b26e2b2e4b904328", "fusion_lat": 0.0, "rental_uris": {"ios": "https://dc.lft.to/lastmile_qr_scan", "android": "https://dc.lft.to/lastmile_qr_scan"}, "lon": -77.028387, "type": "electric_scooter"}, {"bike_id": "f5e299816b9db5455cbcc2a215e4ccc1", "is_reserved": 0, "fusion_lon": 0.0, "lat": 38.9087585, "is_disabled": 0, "name": "f5e299816b9db5455cbcc2a215e4ccc1", "fusion_lat": 0.0, "rental_uris": {"ios": "https://dc.lft.to/lastmile_qr_scan", "android": "https://dc.lft.to/lastmile_qr_scan"}, "lon": -77.02277966666666, "type": "electric_scooter"}, {"bike_id": "013b4728778b211958cba0adcbb3136a", "is_reserved": 0, "fusion_lon": 0.0, "lat": 38.89995116666667, "is_disabled": 0, "name": "013b4728778b211958cba0adcbb3136a", "fusion_lat": 0.0, "rental_uris": {"ios": "https://dc.lft.to/lastmile_qr_scan", "android": "https://dc.lft.to/lastmile_qr_scan"}, "lon": -77.02154833333333, "type": "electric_scooter"}, {"bike_id": "5ddabdf46ba88ca205a07eef750269af", "is_reserved": 0, "fusion_lon": 0.0, "lat": 38.8973145, "is_disabled": 0, "name": "5ddabdf46ba88ca205a07eef750269af", "fusion_lat": 0.0, "rental_uris": {"ios": "https://dc.lft.to/lastmile_qr_scan", "android": "https://dc.lft.to/lastmile_qr_scan"}, "lon": -77.02747083333334, "type": "electric_scooter"}, {"bike_id": "d7ba30c51adc32523abdb4bb8cacdc52", "is_reserved": 0, "fusion_lon": 0.0, "lat": 38.916523166666664, "is_disabled": 0, "name": "d7ba30c51adc32523abdb4bb8cacdc52", "fusion_lat": 0.0, "rental_uris": {"ios": "https://dc.lft.to/lastmile_qr_scan", "android": "https://dc.lft.to/lastmile_qr_scan"}, "lon": -77.03637366666666, "type": "electric_scooter"}, {"bike_id": "d428b33af9f56c0b9f760e67a7f35c66", "is_reserved": 0, "fusion_lon": 0.0, "lat": 38.89230083333333, "is_disabled": 0, "name": "d428b33af9f56c0b9f760e67a7f35c66", "fusion_lat": 0.0, "rental_uris": {"ios": "https://dc.lft.to/lastmile_qr_scan", "android": "https://dc.lft.to/lastmile_qr_scan"}, "lon": -77.02586633333334, "type": "electric_scooter"}, {"bike_id": "4cbdd031f741404f0657e13b24b30f93", "is_reserved": 0, "fusion_lon": 0.0, "lat": 38.9198015, "is_disabled": 0, "name": "4cbdd031f741404f0657e13b24b30f93", "fusion_lat": 0.0, "rental_uris": {"ios": "https://dc.lft.to/lastmile_qr_scan", "android": "https://dc.lft.to/lastmile_qr_scan"}, "lon": -77.024052, "type": "electric_scooter"}, {"bike_id": "7df8671ba589b82614176c1ffb0cf0b4", "is_reserved": 0, "fusion_lon": 0.0, "lat": 38.90288666666667, "is_disabled": 0, "name": "7df8671ba589b82614176c1ffb0cf0b4", "fusion_lat": 0.0, "rental_uris": {"ios": "https://dc.lft.to/lastmile_qr_scan", "android": "https://dc.lft.to/lastmile_qr_scan"}, "lon": -77.040854, "type": "electric_scooter"}, {"bike_id": "ee1e00a539ae80720a5ddd27f1338ff5", "is_reserved": 0, "fusion_lon": 0.0, "lat": 38.86594016666667, "is_disabled": 0, "name": "ee1e00a539ae80720a5ddd27f1338ff5", "fusion_lat": 0.0, "rental_uris": {"ios": "https://dc.lft.to/lastmile_qr_scan", "android": "https://dc.lft.to/lastmile_qr_scan"}, "lon": -76.93228933333333, "type": "electric_bike"}, {"bike_id": "417ec907bbcd8bae42b78490986304a8", "is_reserved": 0, "fusion_lon": 0.0, "lat": 38.939519, "is_disabled": 0, "name": "417ec907bbcd8bae42b78490986304a8", "fusion_lat": 0.0, "rental_uris": {"ios": "https://dc.lft.to/lastmile_qr_scan", "android": "https://dc.lft.to/lastmile_qr_scan"}, "lon": -77.0326395, "type": "electric_scooter"}, {"bike_id": "39fd9d8896a01eebd319f9d6b41df23c", "is_reserved": 0, "fusion_lon": 0.0, "lat": 38.938877833333336, "is_disabled": 0, "name": "39fd9d8896a01eebd319f9d6b41df23c", "fusion_lat": 0.0, "rental_uris": {"ios": "https://dc.lft.to/lastmile_qr_scan", "android": "https://dc.lft.to/lastmile_qr_scan"}, "lon": -77.02824583333333, "type": "electric_scooter"}, {"bike_id": "8418aaf35a28db84c1d596693313237e", "is_reserved": 0, "fusion_lon": 0.0, "lat": 38.92744116666667, "is_disabled": 0, "name": "8418aaf35a28db84c1d596693313237e", "fusion_lat": 0.0, "rental_uris": {"ios": "https://dc.lft.to/lastmile_qr_scan", "android": "https://dc.lft.to/lastmile_qr_scan"}, "lon": -77.05376666666666, "type": "electric_scooter"}, {"bike_id": "daa07beaad5fb9383eda328683cbf364", "is_reserved": 0, "fusion_lon": 0.0, "lat": 38.806934, "is_disabled": 0, "name": "daa07beaad5fb9383eda328683cbf364", "fusion_lat": 0.0, "rental_uris": {"ios": "https://dc.lft.to/lastmile_qr_scan", "android": "https://dc.lft.to/lastmile_qr_scan"}, "lon": -77.05966, "type": "electric_bike"}, {"bike_id": "497ac0fbe7ee90d3997d9a4879b4bbab", "is_reserved": 0, "fusion_lon": 0.0, "lat": 38.92096816666667, "is_disabled": 0, "name": "497ac0fbe7ee90d3997d9a4879b4bbab", "fusion_lat": 0.0, "rental_uris": {"ios": "https://dc.lft.to/lastmile_qr_scan", "android": "https://dc.lft.to/lastmile_qr_scan"}, "lon": -77.02512216666666, "type": "electric_scooter"}, {"bike_id": "aa04f01e74f22a7c34cebc1378a2a73a", "is_reserved": 0, "fusion_lon": 0.0, "lat": 38.8522265, "is_disabled": 0, "name": "aa04f01e74f22a7c34cebc1378a2a73a", "fusion_lat": 0.0, "rental_uris": {"ios": "https://dc.lft.to/lastmile_qr_scan", "android": "https://dc.lft.to/lastmile_qr_scan"}, "lon": -77.129509, "type": "electric_bike"}, {"bike_id": "e456b37062bfb1c9040469edbe6abeeb", "is_reserved": 0, "fusion_lon": 0.0, "lat": 38.927848166666664, "is_disabled": 0, "name": "e456b37062bfb1c9040469edbe6abeeb", "fusion_lat": 0.0, "rental_uris": {"ios": "https://dc.lft.to/lastmile_qr_scan", "android": "https://dc.lft.to/lastmile_qr_scan"}, "lon": -77.03147166666666, "type": "electric_scooter"}, {"bike_id": "fc293c2f9781f94904a89892ada4f980", "is_reserved": 0, "fusion_lon": 0.0, "lat": 38.90576166666666, "is_disabled": 0, "name": "fc293c2f9781f94904a89892ada4f980", "fusion_lat": 0.0, "rental_uris": {"ios": "https://dc.lft.to/lastmile_qr_scan", "android": "https://dc.lft.to/lastmile_qr_scan"}, "lon": -77.02985966666667, "type": "electric_scooter"}, {"bike_id": "5fc4c0de11e274dd0549d06fbb26ef7d", "is_reserved": 0, "fusion_lon": 0.0, "lat": 38.865574333333335, "is_disabled": 0, "name": "5fc4c0de11e274dd0549d06fbb26ef7d", "fusion_lat": 0.0, "rental_uris": {"ios": "https://dc.lft.to/lastmile_qr_scan", "android": "https://dc.lft.to/lastmile_qr_scan"}, "lon": -76.98945666666667, "type": "electric_scooter"}, {"bike_id": "f6915f37fbf17249dc891533d93de003", "is_reserved": 0, "fusion_lon": 0.0, "lat": 38.984616833333334, "is_disabled": 0, "name": "f6915f37fbf17249dc891533d93de003", "fusion_lat": 0.0, "rental_uris": {"ios": "https://dc.lft.to/lastmile_qr_scan", "android": "https://dc.lft.to/lastmile_qr_scan"}, "lon": -76.955246, "type": "electric_bike"}, {"bike_id": "946816f2a1657abfe9807eae63537db1", "is_reserved": 0, "fusion_lon": 0.0, "lat": 38.9004295, "is_disabled": 0, "name": "946816f2a1657abfe9807eae63537db1", "fusion_lat": 0.0, "rental_uris": {"ios": "https://dc.lft.to/lastmile_qr_scan", "android": "https://dc.lft.to/lastmile_qr_scan"}, "lon": -77.007458, "type": "electric_scooter"}, {"bike_id": "29f926102a0e758ef17faa6188114c76", "is_reserved": 0, "fusion_lon": 0.0, "lat": 38.93945733333334, "is_disabled": 0, "name": "29f926102a0e758ef17faa6188114c76", "fusion_lat": 0.0, "rental_uris": {"ios": "https://dc.lft.to/lastmile_qr_scan", "android": "https://dc.lft.to/lastmile_qr_scan"}, "lon": -77.0325475, "type": "electric_scooter"}, {"bike_id": "522c65b8e98b13f6004b2d0a48cb4276", "is_reserved": 0, "fusion_lon": 0.0, "lat": 38.927516833333335, "is_disabled": 0, "name": "522c65b8e98b13f6004b2d0a48cb4276", "fusion_lat": 0.0, "rental_uris": {"ios": "https://dc.lft.to/lastmile_qr_scan", "android": "https://dc.lft.to/lastmile_qr_scan"}, "lon": -77.02420766666667, "type": "electric_scooter"}, {"bike_id": "ae9c67dad53218810eb2396d65c01b7e", "is_reserved": 0, "fusion_lon": 0.0, "lat": 38.9662075, "is_disabled": 0, "name": "ae9c67dad53218810eb2396d65c01b7e", "fusion_lat": 0.0, "rental_uris": {"ios": "https://dc.lft.to/lastmile_qr_scan", "android": "https://dc.lft.to/lastmile_qr_scan"}, "lon": -76.94423033333334, "type": "electric_bike"}, {"bike_id": "645a13a8bc008a1b73563128d4979f0b", "is_reserved": 0, "fusion_lon": 0.0, "lat": 38.934499, "is_disabled": 0, "name": "645a13a8bc008a1b73563128d4979f0b", "fusion_lat": 0.0, "rental_uris": {"ios": "https://dc.lft.to/lastmile_qr_scan", "android": "https://dc.lft.to/lastmile_qr_scan"}, "lon": -77.07228216666667, "type": "electric_scooter"}, {"bike_id": "d4eded42697ba805353f3f312ef2a8a9", "is_reserved": 0, "fusion_lon": 0.0, "lat": 38.906786333333336, "is_disabled": 0, "name": "d4eded42697ba805353f3f312ef2a8a9", "fusion_lat": 0.0, "rental_uris": {"ios": "https://dc.lft.to/lastmile_qr_scan", "android": "https://dc.lft.to/lastmile_qr_scan"}, "lon": -77.02712833333334, "type": "electric_scooter"}, {"bike_id": "ec7eeea803faa66cc595767f39950b2d", "is_reserved": 0, "fusion_lon": 0.0, "lat": 38.953597333333335, "is_disabled": 0, "name": "ec7eeea803faa66cc595767f39950b2d", "fusion_lat": 0.0, "rental_uris": {"ios": "https://dc.lft.to/lastmile_qr_scan", "android": "https://dc.lft.to/lastmile_qr_scan"}, "lon": -76.98095066666667, "type": "electric_bike"}, {"bike_id": "56d9a36429b0623c89acfd2597af726d", "is_reserved": 0, "fusion_lon": 0.0, "lat": 38.9191715, "is_disabled": 0, "name": "56d9a36429b0623c89acfd2597af726d", "fusion_lat": 0.0, "rental_uris": {"ios": "https://dc.lft.to/lastmile_qr_scan", "android": "https://dc.lft.to/lastmile_qr_scan"}, "lon": -77.034306, "type": "electric_scooter"}, {"bike_id": "c607a92eee4a947d2f1387b6b1f2c841", "is_reserved": 0, "fusion_lon": 0.0, "lat": 38.8983755, "is_disabled": 0, "name": "c607a92eee4a947d2f1387b6b1f2c841", "fusion_lat": 0.0, "rental_uris": {"ios": "https://dc.lft.to/lastmile_qr_scan", "android": "https://dc.lft.to/lastmile_qr_scan"}, "lon": -77.04822866666666, "type": "electric_scooter"}, {"bike_id": "e1499b72996d142fe162b69cad1065c1", "is_reserved": 0, "fusion_lon": 0.0, "lat": 38.90571033333333, "is_disabled": 0, "name": "e1499b72996d142fe162b69cad1065c1", "fusion_lat": 0.0, "rental_uris": {"ios": "https://dc.lft.to/lastmile_qr_scan", "android": "https://dc.lft.to/lastmile_qr_scan"}, "lon": -77.03844983333333, "type": "electric_scooter"}, {"bike_id": "80e6480cc61b47531ad1683061187091", "is_reserved": 0, "fusion_lon": 0.0, "lat": 38.93727783333333, "is_disabled": 0, "name": "80e6480cc61b47531ad1683061187091", "fusion_lat": 0.0, "rental_uris": {"ios": "https://dc.lft.to/lastmile_qr_scan", "android": "https://dc.lft.to/lastmile_qr_scan"}, "lon": -77.03264966666667, "type": "electric_scooter"}, {"bike_id": "01d29321a31fa9998f98478bfa18ab1e", "is_reserved": 0, "fusion_lon": 0.0, "lat": 38.91795283333333, "is_disabled": 0, "name": "01d29321a31fa9998f98478bfa18ab1e", "fusion_lat": 0.0, "rental_uris": {"ios": "https://dc.lft.to/lastmile_qr_scan", "android": "https://dc.lft.to/lastmile_qr_scan"}, "lon": -77.03437466666666, "type": "electric_scooter"}, {"bike_id": "5a7188c3ab31381614759d73ab266fae", "is_reserved": 0, "fusion_lon": 0.0, "lat": 38.918372833333336, "is_disabled": 0, "name": "5a7188c3ab31381614759d73ab266fae", "fusion_lat": 0.0, "rental_uris": {"ios": "https://dc.lft.to/lastmile_qr_scan", "android": "https://dc.lft.to/lastmile_qr_scan"}, "lon": -77.03517466666666, "type": "electric_scooter"}, {"bike_id": "ac6aac34d5bd8836874ba83bad8cd6fa", "is_reserved": 0, "fusion_lon": 0.0, "lat": 38.91813416666667, "is_disabled": 0, "name": "ac6aac34d5bd8836874ba83bad8cd6fa", "fusion_lat": 0.0, "rental_uris": {"ios": "https://dc.lft.to/lastmile_qr_scan", "android": "https://dc.lft.to/lastmile_qr_scan"}, "lon": -77.03260216666666, "type": "electric_scooter"}, {"bike_id": "c54b98cf5a37a36367afe22a2774e77f", "is_reserved": 0, "fusion_lon": 0.0, "lat": 38.9576595, "is_disabled": 0, "name": "c54b98cf5a37a36367afe22a2774e77f", "fusion_lat": 0.0, "rental_uris": {"ios": "https://dc.lft.to/lastmile_qr_scan", "android": "https://dc.lft.to/lastmile_qr_scan"}, "lon": -77.01155466666667, "type": "electric_bike"}, {"bike_id": "59ad71493d484b4e85703473e5dd031b", "is_reserved": 0, "fusion_lon": 0.0, "lat": 38.90526666666667, "is_disabled": 0, "name": "59ad71493d484b4e85703473e5dd031b", "fusion_lat": 0.0, "rental_uris": {"ios": "https://dc.lft.to/lastmile_qr_scan", "android": "https://dc.lft.to/lastmile_qr_scan"}, "lon": -77.05971183333334, "type": "electric_scooter"}, {"bike_id": "fd0148df2e2bf6ccbd844aea1ca3b151", "is_reserved": 0, "fusion_lon": 0.0, "lat": 38.8925095, "is_disabled": 0, "name": "fd0148df2e2bf6ccbd844aea1ca3b151", "fusion_lat": 0.0, "rental_uris": {"ios": "https://dc.lft.to/lastmile_qr_scan", "android": "https://dc.lft.to/lastmile_qr_scan"}, "lon": -76.94334616666667, "type": "electric_scooter"}, {"bike_id": "ee6bff42d3cbaf15d0d835de40f60016", "is_reserved": 0, "fusion_lon": 0.0, "lat": 38.907323, "is_disabled": 0, "name": "ee6bff42d3cbaf15d0d835de40f60016", "fusion_lat": 0.0, "rental_uris": {"ios": "https://dc.lft.to/lastmile_qr_scan", "android": "https://dc.lft.to/lastmile_qr_scan"}, "lon": -77.04664983333333, "type": "electric_scooter"}, {"bike_id": "5dee541f72b87ddb0f252c0d9bb864ea", "is_reserved": 0, "fusion_lon": 0.0, "lat": 38.90026233333333, "is_disabled": 0, "name": "5dee541f72b87ddb0f252c0d9bb864ea", "fusion_lat": 0.0, "rental_uris": {"ios": "https://dc.lft.to/lastmile_qr_scan", "android": "https://dc.lft.to/lastmile_qr_scan"}, "lon": -76.98797983333333, "type": "electric_scooter"}, {"bike_id": "32e2d2f3819c37474236418fda6a5ddc", "is_reserved": 0, "fusion_lon": 0.0, "lat": 38.8831395, "is_disabled": 0, "name": "32e2d2f3819c37474236418fda6a5ddc", "fusion_lat": 0.0, "rental_uris": {"ios": "https://dc.lft.to/lastmile_qr_scan", "android": "https://dc.lft.to/lastmile_qr_scan"}, "lon": -77.00933483333333, "type": "electric_scooter"}, {"bike_id": "7b3c3c36d2aa6d7ffa6f33f4bcf944e5", "is_reserved": 0, "fusion_lon": 0.0, "lat": 38.91818266666667, "is_disabled": 0, "name": "7b3c3c36d2aa6d7ffa6f33f4bcf944e5", "fusion_lat": 0.0, "rental_uris": {"ios": "https://dc.lft.to/lastmile_qr_scan", "android": "https://dc.lft.to/lastmile_qr_scan"}, "lon": -77.01018183333333, "type": "electric_scooter"}, {"bike_id": "403e82b47e61f0cd4b4cc7effd7b110a", "is_reserved": 0, "fusion_lon": 0.0, "lat": 38.871471, "is_disabled": 0, "name": "403e82b47e61f0cd4b4cc7effd7b110a", "fusion_lat": 0.0, "rental_uris": {"ios": "https://dc.lft.to/lastmile_qr_scan", "android": "https://dc.lft.to/lastmile_qr_scan"}, "lon": -76.93667616666667, "type": "electric_bike"}, {"bike_id": "46483aeb6ddfdac1fd5808fda137dad6", "is_reserved": 0, "fusion_lon": 0.0, "lat": 38.896098, "is_disabled": 0, "name": "46483aeb6ddfdac1fd5808fda137dad6", "fusion_lat": 0.0, "rental_uris": {"ios": "https://dc.lft.to/lastmile_qr_scan", "android": "https://dc.lft.to/lastmile_qr_scan"}, "lon": -77.044641, "type": "electric_scooter"}, {"bike_id": "96afc362ceef6d125a45739a43f3aca1", "is_reserved": 0, "fusion_lon": 0.0, "lat": 38.91999833333333, "is_disabled": 0, "name": "96afc362ceef6d125a45739a43f3aca1", "fusion_lat": 0.0, "rental_uris": {"ios": "https://dc.lft.to/lastmile_qr_scan", "android": "https://dc.lft.to/lastmile_qr_scan"}, "lon": -77.0322135, "type": "electric_scooter"}, {"bike_id": "fcfce4941d8d83dcfe2dff24eba75d6a", "is_reserved": 0, "fusion_lon": 0.0, "lat": 38.942748, "is_disabled": 0, "name": "fcfce4941d8d83dcfe2dff24eba75d6a", "fusion_lat": 0.0, "rental_uris": {"ios": "https://dc.lft.to/lastmile_qr_scan", "android": "https://dc.lft.to/lastmile_qr_scan"}, "lon": -76.98075333333334, "type": "electric_bike"}, {"bike_id": "ea77d9125887f49d7c944336bfdcaae5", "is_reserved": 0, "fusion_lon": 0.0, "lat": 38.8845155, "is_disabled": 0, "name": "ea77d9125887f49d7c944336bfdcaae5", "fusion_lat": 0.0, "rental_uris": {"ios": "https://dc.lft.to/lastmile_qr_scan", "android": "https://dc.lft.to/lastmile_qr_scan"}, "lon": -77.00577883333334, "type": "electric_scooter"}, {"bike_id": "51977c9cef7b4a2c729d32b62d1fbbeb", "is_reserved": 0, "fusion_lon": 0.0, "lat": 38.893991, "is_disabled": 0, "name": "51977c9cef7b4a2c729d32b62d1fbbeb", "fusion_lat": 0.0, "rental_uris": {"ios": "https://dc.lft.to/lastmile_qr_scan", "android": "https://dc.lft.to/lastmile_qr_scan"}, "lon": -76.993635, "type": "electric_scooter"}, {"bike_id": "2413b5f4cdfd3283aaced6a980bfa23a", "is_reserved": 0, "fusion_lon": 0.0, "lat": 38.87661716666667, "is_disabled": 0, "name": "2413b5f4cdfd3283aaced6a980bfa23a", "fusion_lat": 0.0, "rental_uris": {"ios": "https://dc.lft.to/lastmile_qr_scan", "android": "https://dc.lft.to/lastmile_qr_scan"}, "lon": -77.00066133333333, "type": "electric_scooter"}, {"bike_id": "e9d9dbf1bf824bfc44fe7a767185e822", "is_reserved": 0, "fusion_lon": 0.0, "lat": 38.9271045, "is_disabled": 0, "name": "e9d9dbf1bf824bfc44fe7a767185e822", "fusion_lat": 0.0, "rental_uris": {"ios": "https://dc.lft.to/lastmile_qr_scan", "android": "https://dc.lft.to/lastmile_qr_scan"}, "lon": -77.03847716666667, "type": "electric_scooter"}, {"bike_id": "2194f2d90dcbbfef6d0f9e99d0f8e895", "is_reserved": 0, "fusion_lon": 0.0, "lat": 38.91193716666667, "is_disabled": 0, "name": "2194f2d90dcbbfef6d0f9e99d0f8e895", "fusion_lat": 0.0, "rental_uris": {"ios": "https://dc.lft.to/lastmile_qr_scan", "android": "https://dc.lft.to/lastmile_qr_scan"}, "lon": -77.06078833333333, "type": "electric_scooter"}, {"bike_id": "635f0f5bb4770f6a683a6d14563da1fc", "is_reserved": 0, "fusion_lon": 0.0, "lat": 38.885969333333335, "is_disabled": 0, "name": "635f0f5bb4770f6a683a6d14563da1fc", "fusion_lat": 0.0, "rental_uris": {"ios": "https://dc.lft.to/lastmile_qr_scan", "android": "https://dc.lft.to/lastmile_qr_scan"}, "lon": -77.0176275, "type": "electric_scooter"}, {"bike_id": "caa691f14b2aa064e77cfef906b84820", "is_reserved": 0, "fusion_lon": 0.0, "lat": 38.95185816666667, "is_disabled": 0, "name": "caa691f14b2aa064e77cfef906b84820", "fusion_lat": 0.0, "rental_uris": {"ios": "https://dc.lft.to/lastmile_qr_scan", "android": "https://dc.lft.to/lastmile_qr_scan"}, "lon": -76.93543716666667, "type": "electric_bike"}, {"bike_id": "244a93932df36357986d08638345f44e", "is_reserved": 0, "fusion_lon": 0.0, "lat": 38.8693235, "is_disabled": 0, "name": "244a93932df36357986d08638345f44e", "fusion_lat": 0.0, "rental_uris": {"ios": "https://dc.lft.to/lastmile_qr_scan", "android": "https://dc.lft.to/lastmile_qr_scan"}, "lon": -76.960154, "type": "electric_bike"}, {"bike_id": "f73c568aa1113d23667bf627340ba641", "is_reserved": 0, "fusion_lon": 0.0, "lat": 38.92479483333334, "is_disabled": 0, "name": "f73c568aa1113d23667bf627340ba641", "fusion_lat": 0.0, "rental_uris": {"ios": "https://dc.lft.to/lastmile_qr_scan", "android": "https://dc.lft.to/lastmile_qr_scan"}, "lon": -77.0283425, "type": "electric_scooter"}, {"bike_id": "bc22a175e3db4f32be05c65a0dbfc2fc", "is_reserved": 0, "fusion_lon": 0.0, "lat": 38.9126725, "is_disabled": 0, "name": "bc22a175e3db4f32be05c65a0dbfc2fc", "fusion_lat": 0.0, "rental_uris": {"ios": "https://dc.lft.to/lastmile_qr_scan", "android": "https://dc.lft.to/lastmile_qr_scan"}, "lon": -77.03616533333333, "type": "electric_scooter"}, {"bike_id": "847e23095c7b81de88ca3dc678f45903", "is_reserved": 0, "fusion_lon": 0.0, "lat": 38.956432666666664, "is_disabled": 0, "name": "847e23095c7b81de88ca3dc678f45903", "fusion_lat": 0.0, "rental_uris": {"ios": "https://dc.lft.to/lastmile_qr_scan", "android": "https://dc.lft.to/lastmile_qr_scan"}, "lon": -76.997448, "type": "electric_bike"}, {"bike_id": "46dbd49494b910d3193a2edc84a59c66", "is_reserved": 0, "fusion_lon": 0.0, "lat": 38.9137285, "is_disabled": 0, "name": "46dbd49494b910d3193a2edc84a59c66", "fusion_lat": 0.0, "rental_uris": {"ios": "https://dc.lft.to/lastmile_qr_scan", "android": "https://dc.lft.to/lastmile_qr_scan"}, "lon": -77.00817816666667, "type": "electric_scooter"}, {"bike_id": "a8c40b8fd5b463b3cc6c1cc6938ac4c7", "is_reserved": 0, "fusion_lon": 0.0, "lat": 38.90771516666667, "is_disabled": 0, "name": "a8c40b8fd5b463b3cc6c1cc6938ac4c7", "fusion_lat": 0.0, "rental_uris": {"ios": "https://dc.lft.to/lastmile_qr_scan", "android": "https://dc.lft.to/lastmile_qr_scan"}, "lon": -77.03184316666666, "type": "electric_scooter"}, {"bike_id": "28f7ede48c84a1239124766d942e41cb", "is_reserved": 0, "fusion_lon": 0.0, "lat": 38.9170465, "is_disabled": 0, "name": "28f7ede48c84a1239124766d942e41cb", "fusion_lat": 0.0, "rental_uris": {"ios": "https://dc.lft.to/lastmile_qr_scan", "android": "https://dc.lft.to/lastmile_qr_scan"}, "lon": -77.00112733333333, "type": "electric_scooter"}, {"bike_id": "939592fbd87a5fb0bbdae662b97d9e57", "is_reserved": 0, "fusion_lon": 0.0, "lat": 38.91882016666667, "is_disabled": 0, "name": "939592fbd87a5fb0bbdae662b97d9e57", "fusion_lat": 0.0, "rental_uris": {"ios": "https://dc.lft.to/lastmile_qr_scan", "android": "https://dc.lft.to/lastmile_qr_scan"}, "lon": -77.03507983333333, "type": "electric_scooter"}, {"bike_id": "63edc220d3a0fca7698647a081c8f28e", "is_reserved": 0, "fusion_lon": 0.0, "lat": 38.90807933333333, "is_disabled": 0, "name": "63edc220d3a0fca7698647a081c8f28e", "fusion_lat": 0.0, "rental_uris": {"ios": "https://dc.lft.to/lastmile_qr_scan", "android": "https://dc.lft.to/lastmile_qr_scan"}, "lon": -77.0344715, "type": "electric_scooter"}, {"bike_id": "555a57905ea37ba17e9fc1342a13b704", "is_reserved": 0, "fusion_lon": 0.0, "lat": 38.9204405, "is_disabled": 0, "name": "555a57905ea37ba17e9fc1342a13b704", "fusion_lat": 0.0, "rental_uris": {"ios": "https://dc.lft.to/lastmile_qr_scan", "android": "https://dc.lft.to/lastmile_qr_scan"}, "lon": -76.9981225, "type": "electric_scooter"}, {"bike_id": "f3245d8cc1cd0f91f1c1edee51b77ea1", "is_reserved": 0, "fusion_lon": 0.0, "lat": 38.990642333333334, "is_disabled": 0, "name": "f3245d8cc1cd0f91f1c1edee51b77ea1", "fusion_lat": 0.0, "rental_uris": {"ios": "https://dc.lft.to/lastmile_qr_scan", "android": "https://dc.lft.to/lastmile_qr_scan"}, "lon": -77.10024183333333, "type": "electric_bike"}, {"bike_id": "81ff1e2837f789682b4bebabbfab3f93", "is_reserved": 0, "fusion_lon": 0.0, "lat": 38.924157666666666, "is_disabled": 0, "name": "81ff1e2837f789682b4bebabbfab3f93", "fusion_lat": 0.0, "rental_uris": {"ios": "https://dc.lft.to/lastmile_qr_scan", "android": "https://dc.lft.to/lastmile_qr_scan"}, "lon": -77.03543266666667, "type": "electric_scooter"}, {"bike_id": "a0bcaa609e8125a1c043d91db302ef9a", "is_reserved": 0, "fusion_lon": 0.0, "lat": 38.872302833333336, "is_disabled": 0, "name": "a0bcaa609e8125a1c043d91db302ef9a", "fusion_lat": 0.0, "rental_uris": {"ios": "https://dc.lft.to/lastmile_qr_scan", "android": "https://dc.lft.to/lastmile_qr_scan"}, "lon": -77.01160033333333, "type": "electric_bike"}, {"bike_id": "53c5f78197a82dcbb2dcd47d92bdd701", "is_reserved": 0, "fusion_lon": 0.0, "lat": 38.918054833333336, "is_disabled": 0, "name": "53c5f78197a82dcbb2dcd47d92bdd701", "fusion_lat": 0.0, "rental_uris": {"ios": "https://dc.lft.to/lastmile_qr_scan", "android": "https://dc.lft.to/lastmile_qr_scan"}, "lon": -77.0344025, "type": "electric_scooter"}, {"bike_id": "a419909bfbbd880ad3c9a645b17ad35a", "is_reserved": 0, "fusion_lon": 0.0, "lat": 38.90017533333334, "is_disabled": 0, "name": "a419909bfbbd880ad3c9a645b17ad35a", "fusion_lat": 0.0, "rental_uris": {"ios": "https://dc.lft.to/lastmile_qr_scan", "android": "https://dc.lft.to/lastmile_qr_scan"}, "lon": -77.0018885, "type": "electric_scooter"}, {"bike_id": "b5c0f9bffa6c9923328bc1f82dffc0af", "is_reserved": 0, "fusion_lon": 0.0, "lat": 38.89228133333334, "is_disabled": 0, "name": "b5c0f9bffa6c9923328bc1f82dffc0af", "fusion_lat": 0.0, "rental_uris": {"ios": "https://dc.lft.to/lastmile_qr_scan", "android": "https://dc.lft.to/lastmile_qr_scan"}, "lon": -77.0217865, "type": "electric_scooter"}, {"bike_id": "cccfb6e66b9160b568aaf37964947b0e", "is_reserved": 0, "fusion_lon": 0.0, "lat": 38.939445666666664, "is_disabled": 0, "name": "cccfb6e66b9160b568aaf37964947b0e", "fusion_lat": 0.0, "rental_uris": {"ios": "https://dc.lft.to/lastmile_qr_scan", "android": "https://dc.lft.to/lastmile_qr_scan"}, "lon": -77.032546, "type": "electric_scooter"}, {"bike_id": "71fdbb1665c731ba127f16e422c60549", "is_reserved": 0, "fusion_lon": 0.0, "lat": 38.899608, "is_disabled": 0, "name": "71fdbb1665c731ba127f16e422c60549", "fusion_lat": 0.0, "rental_uris": {"ios": "https://dc.lft.to/lastmile_qr_scan", "android": "https://dc.lft.to/lastmile_qr_scan"}, "lon": -77.0161565, "type": "electric_scooter"}, {"bike_id": "837178cb59c1e5e6d9c054dfe9905d04", "is_reserved": 0, "fusion_lon": 0.0, "lat": 38.933958, "is_disabled": 0, "name": "837178cb59c1e5e6d9c054dfe9905d04", "fusion_lat": 0.0, "rental_uris": {"ios": "https://dc.lft.to/lastmile_qr_scan", "android": "https://dc.lft.to/lastmile_qr_scan"}, "lon": -77.0206425, "type": "electric_scooter"}, {"bike_id": "7fdc23a0b457c5d6c0a273a58df7486d", "is_reserved": 0, "fusion_lon": 0.0, "lat": 38.952769833333335, "is_disabled": 0, "name": "7fdc23a0b457c5d6c0a273a58df7486d", "fusion_lat": 0.0, "rental_uris": {"ios": "https://dc.lft.to/lastmile_qr_scan", "android": "https://dc.lft.to/lastmile_qr_scan"}, "lon": -77.00791116666667, "type": "electric_scooter"}, {"bike_id": "e05a45840f4ca7456912d785f3dd9676", "is_reserved": 0, "fusion_lon": 0.0, "lat": 38.900274333333336, "is_disabled": 0, "name": "e05a45840f4ca7456912d785f3dd9676", "fusion_lat": 0.0, "rental_uris": {"ios": "https://dc.lft.to/lastmile_qr_scan", "android": "https://dc.lft.to/lastmile_qr_scan"}, "lon": -76.9979005, "type": "electric_scooter"}, {"bike_id": "429a863a87a7d6f1fb7b52754f5eaced", "is_reserved": 0, "fusion_lon": 0.0, "lat": 38.92431216666667, "is_disabled": 0, "name": "429a863a87a7d6f1fb7b52754f5eaced", "fusion_lat": 0.0, "rental_uris": {"ios": "https://dc.lft.to/lastmile_qr_scan", "android": "https://dc.lft.to/lastmile_qr_scan"}, "lon": -77.0399765, "type": "electric_scooter"}, {"bike_id": "841c5402b2b5e9c00da2147a6a0f1bee", "is_reserved": 0, "fusion_lon": 0.0, "lat": 38.85317116666667, "is_disabled": 0, "name": "841c5402b2b5e9c00da2147a6a0f1bee", "fusion_lat": 0.0, "rental_uris": {"ios": "https://dc.lft.to/lastmile_qr_scan", "android": "https://dc.lft.to/lastmile_qr_scan"}, "lon": -76.98006416666666, "type": "electric_scooter"}, {"bike_id": "2a6ca5054e4fe7833785da299a630061", "is_reserved": 0, "fusion_lon": 0.0, "lat": 38.94045883333333, "is_disabled": 0, "name": "2a6ca5054e4fe7833785da299a630061", "fusion_lat": 0.0, "rental_uris": {"ios": "https://dc.lft.to/lastmile_qr_scan", "android": "https://dc.lft.to/lastmile_qr_scan"}, "lon": -77.02977733333333, "type": "electric_scooter"}, {"bike_id": "8b56895ce8e31a008b5cc3df31c90026", "is_reserved": 0, "fusion_lon": 0.0, "lat": 38.922714, "is_disabled": 0, "name": "8b56895ce8e31a008b5cc3df31c90026", "fusion_lat": 0.0, "rental_uris": {"ios": "https://dc.lft.to/lastmile_qr_scan", "android": "https://dc.lft.to/lastmile_qr_scan"}, "lon": -77.041419, "type": "electric_scooter"}, {"bike_id": "d484e39ea792aeca010205c1a2b1d911", "is_reserved": 0, "fusion_lon": 0.0, "lat": 38.920825, "is_disabled": 0, "name": "d484e39ea792aeca010205c1a2b1d911", "fusion_lat": 0.0, "rental_uris": {"ios": "https://dc.lft.to/lastmile_qr_scan", "android": "https://dc.lft.to/lastmile_qr_scan"}, "lon": -76.99908266666667, "type": "electric_scooter"}, {"bike_id": "e67a7065297dd010c4b3ec8506373d34", "is_reserved": 0, "fusion_lon": 0.0, "lat": 38.907779833333336, "is_disabled": 0, "name": "e67a7065297dd010c4b3ec8506373d34", "fusion_lat": 0.0, "rental_uris": {"ios": "https://dc.lft.to/lastmile_qr_scan", "android": "https://dc.lft.to/lastmile_qr_scan"}, "lon": -77.038291, "type": "electric_scooter"}, {"bike_id": "4f49d414c2e0aadda5595c3a09deab2b", "is_reserved": 0, "fusion_lon": 0.0, "lat": 38.950753666666664, "is_disabled": 0, "name": "4f49d414c2e0aadda5595c3a09deab2b", "fusion_lat": 0.0, "rental_uris": {"ios": "https://dc.lft.to/lastmile_qr_scan", "android": "https://dc.lft.to/lastmile_qr_scan"}, "lon": -77.01193516666666, "type": "electric_bike"}, {"bike_id": "a4c709fa154052d99c740f79450d2b9c", "is_reserved": 0, "fusion_lon": 0.0, "lat": 38.8987595, "is_disabled": 0, "name": "a4c709fa154052d99c740f79450d2b9c", "fusion_lat": 0.0, "rental_uris": {"ios": "https://dc.lft.to/lastmile_qr_scan", "android": "https://dc.lft.to/lastmile_qr_scan"}, "lon": -76.93158833333334, "type": "electric_scooter"}, {"bike_id": "475373bdb052b589683f8340b397e1f2", "is_reserved": 0, "fusion_lon": 0.0, "lat": 38.93430216666667, "is_disabled": 0, "name": "475373bdb052b589683f8340b397e1f2", "fusion_lat": 0.0, "rental_uris": {"ios": "https://dc.lft.to/lastmile_qr_scan", "android": "https://dc.lft.to/lastmile_qr_scan"}, "lon": -77.0343655, "type": "electric_scooter"}, {"bike_id": "a95a750efae0b94bf4e8fa1f76786c6a", "is_reserved": 0, "fusion_lon": 0.0, "lat": 38.89955066666667, "is_disabled": 0, "name": "a95a750efae0b94bf4e8fa1f76786c6a", "fusion_lat": 0.0, "rental_uris": {"ios": "https://dc.lft.to/lastmile_qr_scan", "android": "https://dc.lft.to/lastmile_qr_scan"}, "lon": -77.033379, "type": "electric_scooter"}, {"bike_id": "ec1ca93c4ee921c9c4df327ea30b4698", "is_reserved": 0, "fusion_lon": 0.0, "lat": 38.89528166666667, "is_disabled": 0, "name": "ec1ca93c4ee921c9c4df327ea30b4698", "fusion_lat": 0.0, "rental_uris": {"ios": "https://dc.lft.to/lastmile_qr_scan", "android": "https://dc.lft.to/lastmile_qr_scan"}, "lon": -76.94889166666667, "type": "electric_scooter"}, {"bike_id": "520c866ea719869006bc8fca3aaaf917", "is_reserved": 0, "fusion_lon": 0.0, "lat": 38.906685833333334, "is_disabled": 0, "name": "520c866ea719869006bc8fca3aaaf917", "fusion_lat": 0.0, "rental_uris": {"ios": "https://dc.lft.to/lastmile_qr_scan", "android": "https://dc.lft.to/lastmile_qr_scan"}, "lon": -77.02710016666667, "type": "electric_scooter"}, {"bike_id": "252d69c2c610108d153d792943b6e255", "is_reserved": 0, "fusion_lon": 0.0, "lat": 38.92497066666667, "is_disabled": 0, "name": "252d69c2c610108d153d792943b6e255", "fusion_lat": 0.0, "rental_uris": {"ios": "https://dc.lft.to/lastmile_qr_scan", "android": "https://dc.lft.to/lastmile_qr_scan"}, "lon": -77.00885883333333, "type": "electric_scooter"}, {"bike_id": "220a028bed0f4ce103fcf62c30b65853", "is_reserved": 0, "fusion_lon": 0.0, "lat": 38.893629833333335, "is_disabled": 0, "name": "220a028bed0f4ce103fcf62c30b65853", "fusion_lat": 0.0, "rental_uris": {"ios": "https://dc.lft.to/lastmile_qr_scan", "android": "https://dc.lft.to/lastmile_qr_scan"}, "lon": -76.98511316666666, "type": "electric_bike"}, {"bike_id": "580dc5b9f82a39247a7f285c8256d258", "is_reserved": 0, "fusion_lon": 0.0, "lat": 38.9178115, "is_disabled": 0, "name": "580dc5b9f82a39247a7f285c8256d258", "fusion_lat": 0.0, "rental_uris": {"ios": "https://dc.lft.to/lastmile_qr_scan", "android": "https://dc.lft.to/lastmile_qr_scan"}, "lon": -77.02694833333334, "type": "electric_scooter"}, {"bike_id": "972241bbd1d0cc9f2df96f54d7a99ac5", "is_reserved": 0, "fusion_lon": 0.0, "lat": 38.884907, "is_disabled": 0, "name": "972241bbd1d0cc9f2df96f54d7a99ac5", "fusion_lat": 0.0, "rental_uris": {"ios": "https://dc.lft.to/lastmile_qr_scan", "android": "https://dc.lft.to/lastmile_qr_scan"}, "lon": -77.0072425, "type": "electric_scooter"}, {"bike_id": "9d87b941d918b902cf040da1ab95efe7", "is_reserved": 0, "fusion_lon": 0.0, "lat": 38.900568166666666, "is_disabled": 0, "name": "9d87b941d918b902cf040da1ab95efe7", "fusion_lat": 0.0, "rental_uris": {"ios": "https://dc.lft.to/lastmile_qr_scan", "android": "https://dc.lft.to/lastmile_qr_scan"}, "lon": -77.048237, "type": "electric_scooter"}, {"bike_id": "009145833da6238a05c4192f60c5e0ad", "is_reserved": 0, "fusion_lon": 0.0, "lat": 38.827879, "is_disabled": 0, "name": "009145833da6238a05c4192f60c5e0ad", "fusion_lat": 0.0, "rental_uris": {"ios": "https://dc.lft.to/lastmile_qr_scan", "android": "https://dc.lft.to/lastmile_qr_scan"}, "lon": -77.00914283333333, "type": "electric_bike"}, {"bike_id": "dc422e1fd963a708ffbc1a366cfd60ef", "is_reserved": 0, "fusion_lon": 0.0, "lat": 38.95647733333333, "is_disabled": 0, "name": "dc422e1fd963a708ffbc1a366cfd60ef", "fusion_lat": 0.0, "rental_uris": {"ios": "https://dc.lft.to/lastmile_qr_scan", "android": "https://dc.lft.to/lastmile_qr_scan"}, "lon": -77.03284133333334, "type": "electric_scooter"}, {"bike_id": "c3a54c30c1c3ac6a39ce1bb6d687ed54", "is_reserved": 0, "fusion_lon": 0.0, "lat": 39.00385216666667, "is_disabled": 0, "name": "c3a54c30c1c3ac6a39ce1bb6d687ed54", "fusion_lat": 0.0, "rental_uris": {"ios": "https://dc.lft.to/lastmile_qr_scan", "android": "https://dc.lft.to/lastmile_qr_scan"}, "lon": -77.0128205, "type": "electric_bike"}, {"bike_id": "9a032c57e99a14b2128fcac3f2005501", "is_reserved": 0, "fusion_lon": 0.0, "lat": 38.900369166666664, "is_disabled": 0, "name": "9a032c57e99a14b2128fcac3f2005501", "fusion_lat": 0.0, "rental_uris": {"ios": "https://dc.lft.to/lastmile_qr_scan", "android": "https://dc.lft.to/lastmile_qr_scan"}, "lon": -77.0072715, "type": "electric_scooter"}, {"bike_id": "aed34f2e8f1d4bf3aa66f49c16e0955d", "is_reserved": 0, "fusion_lon": 0.0, "lat": 38.89216966666667, "is_disabled": 0, "name": "aed34f2e8f1d4bf3aa66f49c16e0955d", "fusion_lat": 0.0, "rental_uris": {"ios": "https://dc.lft.to/lastmile_qr_scan", "android": "https://dc.lft.to/lastmile_qr_scan"}, "lon": -77.03160166666666, "type": "electric_scooter"}, {"bike_id": "acc3e5b1d17be6be6043b1d29a66a780", "is_reserved": 0, "fusion_lon": 0.0, "lat": 38.984350666666664, "is_disabled": 0, "name": "acc3e5b1d17be6be6043b1d29a66a780", "fusion_lat": 0.0, "rental_uris": {"ios": "https://dc.lft.to/lastmile_qr_scan", "android": "https://dc.lft.to/lastmile_qr_scan"}, "lon": -77.026771, "type": "electric_scooter"}, {"bike_id": "35ea00b1e421423a0669e67edfcc0687", "is_reserved": 0, "fusion_lon": 0.0, "lat": 38.8948315, "is_disabled": 0, "name": "35ea00b1e421423a0669e67edfcc0687", "fusion_lat": 0.0, "rental_uris": {"ios": "https://dc.lft.to/lastmile_qr_scan", "android": "https://dc.lft.to/lastmile_qr_scan"}, "lon": -77.02206716666667, "type": "electric_scooter"}, {"bike_id": "0c8d817bcfa85cbb307073748f3d7c7c", "is_reserved": 0, "fusion_lon": 0.0, "lat": 38.901981666666664, "is_disabled": 0, "name": "0c8d817bcfa85cbb307073748f3d7c7c", "fusion_lat": 0.0, "rental_uris": {"ios": "https://dc.lft.to/lastmile_qr_scan", "android": "https://dc.lft.to/lastmile_qr_scan"}, "lon": -77.02285466666666, "type": "electric_scooter"}, {"bike_id": "7a1e43c82b025e068b940ea009a23a5b", "is_reserved": 0, "fusion_lon": 0.0, "lat": 38.85798966666667, "is_disabled": 0, "name": "7a1e43c82b025e068b940ea009a23a5b", "fusion_lat": 0.0, "rental_uris": {"ios": "https://dc.lft.to/lastmile_qr_scan", "android": "https://dc.lft.to/lastmile_qr_scan"}, "lon": -76.9875705, "type": "electric_bike"}, {"bike_id": "48a8f5793ecd4c7a0c53c9315d6d653e", "is_reserved": 0, "fusion_lon": 0.0, "lat": 38.877063, "is_disabled": 0, "name": "48a8f5793ecd4c7a0c53c9315d6d653e", "fusion_lat": 0.0, "rental_uris": {"ios": "https://dc.lft.to/lastmile_qr_scan", "android": "https://dc.lft.to/lastmile_qr_scan"}, "lon": -77.01752016666667, "type": "electric_scooter"}, {"bike_id": "24df177b6ade38384276f1b17602711a", "is_reserved": 0, "fusion_lon": 0.0, "lat": 38.842941333333336, "is_disabled": 0, "name": "24df177b6ade38384276f1b17602711a", "fusion_lat": 0.0, "rental_uris": {"ios": "https://dc.lft.to/lastmile_qr_scan", "android": "https://dc.lft.to/lastmile_qr_scan"}, "lon": -76.9994875, "type": "electric_scooter"}, {"bike_id": "a88143b5cd4bd03f1535379549c03e63", "is_reserved": 0, "fusion_lon": 0.0, "lat": 38.935376, "is_disabled": 0, "name": "a88143b5cd4bd03f1535379549c03e63", "fusion_lat": 0.0, "rental_uris": {"ios": "https://dc.lft.to/lastmile_qr_scan", "android": "https://dc.lft.to/lastmile_qr_scan"}, "lon": -77.032864, "type": "electric_scooter"}, {"bike_id": "9b712a0867336a51b26dcbf4eea5d872", "is_reserved": 0, "fusion_lon": 0.0, "lat": 38.910469, "is_disabled": 0, "name": "9b712a0867336a51b26dcbf4eea5d872", "fusion_lat": 0.0, "rental_uris": {"ios": "https://dc.lft.to/lastmile_qr_scan", "android": "https://dc.lft.to/lastmile_qr_scan"}, "lon": -77.0168245, "type": "electric_scooter"}, {"bike_id": "01d4d1cd0b8306f34433228759b0bc43", "is_reserved": 0, "fusion_lon": 0.0, "lat": 38.941748833333335, "is_disabled": 0, "name": "01d4d1cd0b8306f34433228759b0bc43", "fusion_lat": 0.0, "rental_uris": {"ios": "https://dc.lft.to/lastmile_qr_scan", "android": "https://dc.lft.to/lastmile_qr_scan"}, "lon": -77.02497733333334, "type": "electric_scooter"}, {"bike_id": "3b3e7d54f7301cbde9c786fe25e728b0", "is_reserved": 0, "fusion_lon": 0.0, "lat": 38.92543466666667, "is_disabled": 0, "name": "3b3e7d54f7301cbde9c786fe25e728b0", "fusion_lat": 0.0, "rental_uris": {"ios": "https://dc.lft.to/lastmile_qr_scan", "android": "https://dc.lft.to/lastmile_qr_scan"}, "lon": -77.034627, "type": "electric_scooter"}, {"bike_id": "8d81b2e35fa3904deeb2c8d142569a32", "is_reserved": 0, "fusion_lon": 0.0, "lat": 38.92029516666667, "is_disabled": 0, "name": "8d81b2e35fa3904deeb2c8d142569a32", "fusion_lat": 0.0, "rental_uris": {"ios": "https://dc.lft.to/lastmile_qr_scan", "android": "https://dc.lft.to/lastmile_qr_scan"}, "lon": -77.01113683333334, "type": "electric_scooter"}, {"bike_id": "168b7e18a838495f49048986762bb5ec", "is_reserved": 0, "fusion_lon": 0.0, "lat": 38.9066655, "is_disabled": 0, "name": "168b7e18a838495f49048986762bb5ec", "fusion_lat": 0.0, "rental_uris": {"ios": "https://dc.lft.to/lastmile_qr_scan", "android": "https://dc.lft.to/lastmile_qr_scan"}, "lon": -77.0270855, "type": "electric_scooter"}, {"bike_id": "0422b4490b12f41fdbbe55e2547ddcdc", "is_reserved": 0, "fusion_lon": 0.0, "lat": 38.92224266666667, "is_disabled": 0, "name": "0422b4490b12f41fdbbe55e2547ddcdc", "fusion_lat": 0.0, "rental_uris": {"ios": "https://dc.lft.to/lastmile_qr_scan", "android": "https://dc.lft.to/lastmile_qr_scan"}, "lon": -77.03901216666667, "type": "electric_scooter"}, {"bike_id": "f94d13f7e8663f03a34555ffb097be44", "is_reserved": 0, "fusion_lon": 0.0, "lat": 38.92350116666667, "is_disabled": 0, "name": "f94d13f7e8663f03a34555ffb097be44", "fusion_lat": 0.0, "rental_uris": {"ios": "https://dc.lft.to/lastmile_qr_scan", "android": "https://dc.lft.to/lastmile_qr_scan"}, "lon": -77.03497983333334, "type": "electric_scooter"}, {"bike_id": "f9a7404ec1b628aa42823bed3b0e91bb", "is_reserved": 0, "fusion_lon": 0.0, "lat": 38.866252833333334, "is_disabled": 0, "name": "f9a7404ec1b628aa42823bed3b0e91bb", "fusion_lat": 0.0, "rental_uris": {"ios": "https://dc.lft.to/lastmile_qr_scan", "android": "https://dc.lft.to/lastmile_qr_scan"}, "lon": -76.98693166666666, "type": "electric_scooter"}, {"bike_id": "bcecc6a0f822b5bb27930d6bcbaa5785", "is_reserved": 0, "fusion_lon": 0.0, "lat": 38.9441795, "is_disabled": 0, "name": "bcecc6a0f822b5bb27930d6bcbaa5785", "fusion_lat": 0.0, "rental_uris": {"ios": "https://dc.lft.to/lastmile_qr_scan", "android": "https://dc.lft.to/lastmile_qr_scan"}, "lon": -77.01774516666667, "type": "electric_scooter"}, {"bike_id": "bde2b853e3dedf055f8008b357f99c9f", "is_reserved": 0, "fusion_lon": 0.0, "lat": 38.90503266666666, "is_disabled": 0, "name": "bde2b853e3dedf055f8008b357f99c9f", "fusion_lat": 0.0, "rental_uris": {"ios": "https://dc.lft.to/lastmile_qr_scan", "android": "https://dc.lft.to/lastmile_qr_scan"}, "lon": -77.029474, "type": "electric_scooter"}, {"bike_id": "80362aae3faf0883788406687f65745e", "is_reserved": 0, "fusion_lon": 0.0, "lat": 38.91992366666667, "is_disabled": 0, "name": "80362aae3faf0883788406687f65745e", "fusion_lat": 0.0, "rental_uris": {"ios": "https://dc.lft.to/lastmile_qr_scan", "android": "https://dc.lft.to/lastmile_qr_scan"}, "lon": -77.03228116666666, "type": "electric_scooter"}, {"bike_id": "481658020f1e074babfec99321e26f56", "is_reserved": 0, "fusion_lon": 0.0, "lat": 38.94154433333333, "is_disabled": 0, "name": "481658020f1e074babfec99321e26f56", "fusion_lat": 0.0, "rental_uris": {"ios": "https://dc.lft.to/lastmile_qr_scan", "android": "https://dc.lft.to/lastmile_qr_scan"}, "lon": -77.03651283333333, "type": "electric_scooter"}, {"bike_id": "2e1568938af5794ecb6aa3f7b116b4f8", "is_reserved": 0, "fusion_lon": 0.0, "lat": 38.99091283333333, "is_disabled": 0, "name": "2e1568938af5794ecb6aa3f7b116b4f8", "fusion_lat": 0.0, "rental_uris": {"ios": "https://dc.lft.to/lastmile_qr_scan", "android": "https://dc.lft.to/lastmile_qr_scan"}, "lon": -76.87495966666667, "type": "electric_bike"}, {"bike_id": "9dde3379f290855b30cab14bd942de08", "is_reserved": 0, "fusion_lon": 0.0, "lat": 38.913323166666665, "is_disabled": 0, "name": "9dde3379f290855b30cab14bd942de08", "fusion_lat": 0.0, "rental_uris": {"ios": "https://dc.lft.to/lastmile_qr_scan", "android": "https://dc.lft.to/lastmile_qr_scan"}, "lon": -77.03035666666666, "type": "electric_scooter"}, {"bike_id": "74324b294416a2d0de79555239e745fc", "is_reserved": 0, "fusion_lon": 0.0, "lat": 38.90561566666667, "is_disabled": 0, "name": "74324b294416a2d0de79555239e745fc", "fusion_lat": 0.0, "rental_uris": {"ios": "https://dc.lft.to/lastmile_qr_scan", "android": "https://dc.lft.to/lastmile_qr_scan"}, "lon": -76.9979285, "type": "electric_bike"}, {"bike_id": "acce60c6dada2723cd0fa88860d02763", "is_reserved": 0, "fusion_lon": 0.0, "lat": 38.907473, "is_disabled": 0, "name": "acce60c6dada2723cd0fa88860d02763", "fusion_lat": 0.0, "rental_uris": {"ios": "https://dc.lft.to/lastmile_qr_scan", "android": "https://dc.lft.to/lastmile_qr_scan"}, "lon": -77.0345705, "type": "electric_scooter"}, {"bike_id": "37a461ba6341723a97a83a7b9321e274", "is_reserved": 0, "fusion_lon": 0.0, "lat": 38.924044333333335, "is_disabled": 0, "name": "37a461ba6341723a97a83a7b9321e274", "fusion_lat": 0.0, "rental_uris": {"ios": "https://dc.lft.to/lastmile_qr_scan", "android": "https://dc.lft.to/lastmile_qr_scan"}, "lon": -77.02540916666666, "type": "electric_scooter"}, {"bike_id": "44a8458537a44a57fec89f1944ec8769", "is_reserved": 0, "fusion_lon": 0.0, "lat": 38.884364166666664, "is_disabled": 0, "name": "44a8458537a44a57fec89f1944ec8769", "fusion_lat": 0.0, "rental_uris": {"ios": "https://dc.lft.to/lastmile_qr_scan", "android": "https://dc.lft.to/lastmile_qr_scan"}, "lon": -76.95745283333333, "type": "electric_scooter"}, {"bike_id": "fa9a91f5260cd1eca46c6cc5c29a57c2", "is_reserved": 0, "fusion_lon": 0.0, "lat": 38.90064233333333, "is_disabled": 0, "name": "fa9a91f5260cd1eca46c6cc5c29a57c2", "fusion_lat": 0.0, "rental_uris": {"ios": "https://dc.lft.to/lastmile_qr_scan", "android": "https://dc.lft.to/lastmile_qr_scan"}, "lon": -76.9338755, "type": "electric_scooter"}, {"bike_id": "7e2ff4d6c79869a233935bb825703d1e", "is_reserved": 0, "fusion_lon": 0.0, "lat": 38.916659, "is_disabled": 0, "name": "7e2ff4d6c79869a233935bb825703d1e", "fusion_lat": 0.0, "rental_uris": {"ios": "https://dc.lft.to/lastmile_qr_scan", "android": "https://dc.lft.to/lastmile_qr_scan"}, "lon": -77.02699266666667, "type": "electric_scooter"}, {"bike_id": "25aae93e5389082bf4c6ca4b16b9b322", "is_reserved": 0, "fusion_lon": 0.0, "lat": 38.922887333333335, "is_disabled": 0, "name": "25aae93e5389082bf4c6ca4b16b9b322", "fusion_lat": 0.0, "rental_uris": {"ios": "https://dc.lft.to/lastmile_qr_scan", "android": "https://dc.lft.to/lastmile_qr_scan"}, "lon": -77.03192983333334, "type": "electric_scooter"}, {"bike_id": "4b3588f21016677a923b377b775cd4b4", "is_reserved": 0, "fusion_lon": 0.0, "lat": 38.90581066666667, "is_disabled": 0, "name": "4b3588f21016677a923b377b775cd4b4", "fusion_lat": 0.0, "rental_uris": {"ios": "https://dc.lft.to/lastmile_qr_scan", "android": "https://dc.lft.to/lastmile_qr_scan"}, "lon": -77.03459333333333, "type": "electric_scooter"}, {"bike_id": "bee54535ba141ad911981a52da6fff5a", "is_reserved": 0, "fusion_lon": 0.0, "lat": 38.8670055, "is_disabled": 0, "name": "bee54535ba141ad911981a52da6fff5a", "fusion_lat": 0.0, "rental_uris": {"ios": "https://dc.lft.to/lastmile_qr_scan", "android": "https://dc.lft.to/lastmile_qr_scan"}, "lon": -76.9871285, "type": "electric_scooter"}, {"bike_id": "9121ff6c6cfbd84c90bc94f840fdbf5d", "is_reserved": 0, "fusion_lon": 0.0, "lat": 38.922898333333336, "is_disabled": 0, "name": "9121ff6c6cfbd84c90bc94f840fdbf5d", "fusion_lat": 0.0, "rental_uris": {"ios": "https://dc.lft.to/lastmile_qr_scan", "android": "https://dc.lft.to/lastmile_qr_scan"}, "lon": -77.0207105, "type": "electric_scooter"}, {"bike_id": "f136c398abcb068bf730349456fe2394", "is_reserved": 0, "fusion_lon": 0.0, "lat": 38.90535083333333, "is_disabled": 0, "name": "f136c398abcb068bf730349456fe2394", "fusion_lat": 0.0, "rental_uris": {"ios": "https://dc.lft.to/lastmile_qr_scan", "android": "https://dc.lft.to/lastmile_qr_scan"}, "lon": -76.99800316666666, "type": "electric_bike"}, {"bike_id": "400b18813dfc31366f8e405adb695347", "is_reserved": 0, "fusion_lon": 0.0, "lat": 38.90474966666667, "is_disabled": 0, "name": "400b18813dfc31366f8e405adb695347", "fusion_lat": 0.0, "rental_uris": {"ios": "https://dc.lft.to/lastmile_qr_scan", "android": "https://dc.lft.to/lastmile_qr_scan"}, "lon": -77.02750833333333, "type": "electric_bike"}, {"bike_id": "1956d348ab99b3c7501a3f3fff7d1379", "is_reserved": 0, "fusion_lon": 0.0, "lat": 38.9133335, "is_disabled": 0, "name": "1956d348ab99b3c7501a3f3fff7d1379", "fusion_lat": 0.0, "rental_uris": {"ios": "https://dc.lft.to/lastmile_qr_scan", "android": "https://dc.lft.to/lastmile_qr_scan"}, "lon": -77.04833983333333, "type": "electric_scooter"}, {"bike_id": "0eb24f3e53a8bdc4fa13060cafde3f87", "is_reserved": 0, "fusion_lon": 0.0, "lat": 38.937893333333335, "is_disabled": 0, "name": "0eb24f3e53a8bdc4fa13060cafde3f87", "fusion_lat": 0.0, "rental_uris": {"ios": "https://dc.lft.to/lastmile_qr_scan", "android": "https://dc.lft.to/lastmile_qr_scan"}, "lon": -77.02338283333333, "type": "electric_scooter"}, {"bike_id": "2171ca4c5471b56ffa87f5a92b71771f", "is_reserved": 0, "fusion_lon": 0.0, "lat": 38.89088483333333, "is_disabled": 0, "name": "2171ca4c5471b56ffa87f5a92b71771f", "fusion_lat": 0.0, "rental_uris": {"ios": "https://dc.lft.to/lastmile_qr_scan", "android": "https://dc.lft.to/lastmile_qr_scan"}, "lon": -76.9874415, "type": "electric_scooter"}, {"bike_id": "1a2738411fe5b9580ddab5d24806076a", "is_reserved": 0, "fusion_lon": 0.0, "lat": 38.909757, "is_disabled": 0, "name": "1a2738411fe5b9580ddab5d24806076a", "fusion_lat": 0.0, "rental_uris": {"ios": "https://dc.lft.to/lastmile_qr_scan", "android": "https://dc.lft.to/lastmile_qr_scan"}, "lon": -77.04869633333334, "type": "electric_scooter"}, {"bike_id": "38636fcef03e31b7c904ffd588ede6bf", "is_reserved": 0, "fusion_lon": 0.0, "lat": 38.905739833333335, "is_disabled": 0, "name": "38636fcef03e31b7c904ffd588ede6bf", "fusion_lat": 0.0, "rental_uris": {"ios": "https://dc.lft.to/lastmile_qr_scan", "android": "https://dc.lft.to/lastmile_qr_scan"}, "lon": -77.03473633333333, "type": "electric_scooter"}, {"bike_id": "b9ef9b48b24cb70072b01db487c010dc", "is_reserved": 0, "fusion_lon": 0.0, "lat": 38.914881333333334, "is_disabled": 0, "name": "b9ef9b48b24cb70072b01db487c010dc", "fusion_lat": 0.0, "rental_uris": {"ios": "https://dc.lft.to/lastmile_qr_scan", "android": "https://dc.lft.to/lastmile_qr_scan"}, "lon": -77.04080383333333, "type": "electric_scooter"}, {"bike_id": "0306a25200d62eed63d5604576d65969", "is_reserved": 0, "fusion_lon": 0.0, "lat": 38.914192666666665, "is_disabled": 0, "name": "0306a25200d62eed63d5604576d65969", "fusion_lat": 0.0, "rental_uris": {"ios": "https://dc.lft.to/lastmile_qr_scan", "android": "https://dc.lft.to/lastmile_qr_scan"}, "lon": -77.03901266666666, "type": "electric_scooter"},