{"data": {"bikes": [{"rental_uris": {"ios": "https://dc.lft.to/lastmile_qr_scan", "android": "https://dc.lft.to/lastmile_qr_scan"}, "fusion_lat": 0.0, "name": "44966ec6bf904adb51a2823ea1ac8e52", "bike_id": "44966ec6bf904adb51a2823ea1ac8e52", "is_disabled": 0, "type": "electric_scooter", "lat": 38.90459216666667, "lon": -77.0270065, "is_reserved": 0, "fusion_lon": 0.0}, {"rental_uris": {"ios": "https://dc.lft.to/lastmile_qr_scan", "android": "https://dc.lft.to/lastmile_qr_scan"}, "fusion_lat": 0.0, "name": "95eb8adbe1929e8214e0cc88dae64373", "bike_id": "95eb8adbe1929e8214e0cc88dae64373", "is_disabled": 0, "type": "electric_scooter", "lat": 38.90982416666667, "lon": -77.03380433333334, "is_reserved": 0, "fusion_lon": 0.0}, {"rental_uris": {"ios": "https://dc.lft.to/lastmile_qr_scan", "android": "https://dc.lft.to/lastmile_qr_scan"}, "fusion_lat": 0.0, "name": "dfc1334f1abc0e1090fe640e64549c95", "bike_id": "dfc1334f1abc0e1090fe640e64549c95", "is_disabled": 0, "type": "electric_scooter", "lat": 38.907772333333334, "lon": -76.98004933333333, "is_reserved": 0, "fusion_lon": 0.0}, {"rental_uris": {"ios": "https://dc.lft.to/lastmile_qr_scan", "android": "https://dc.lft.to/lastmile_qr_scan"}, "fusion_lat": 0.0, "name": "3f6e3e8cea1e7a37c5937f20f68f8dab", "bike_id": "3f6e3e8cea1e7a37c5937f20f68f8dab", "is_disabled": 0, "type": "electric_scooter", "lat": 38.8922245, "lon": -77.04329416666667, "is_reserved": 0, "fusion_lon": 0.0}, {"rental_uris": {"ios": "https://dc.lft.to/lastmile_qr_scan", "android": "https://dc.lft.to/lastmile_qr_scan"}, "fusion_lat": 0.0, "name": "a0b93128bffcfed20cc2c02a0fe9133f", "bike_id": "a0b93128bffcfed20cc2c02a0fe9133f", "is_disabled": 0, "type": "electric_scooter", "lat": 38.901422, "lon": -77.00347333333333, "is_reserved": 0, "fusion_lon": 0.0}, {"rental_uris": {"ios": "https://dc.lft.to/lastmile_qr_scan", "android": "https://dc.lft.to/lastmile_qr_scan"}, "fusion_lat": 0.0, "name": "95b729310001c125cccc9603a26b39f1", "bike_id": "95b729310001c125cccc9603a26b39f1", "is_disabled": 0, "type": "electric_bike", "lat": 38.9014015, "lon": -77.039285, "is_reserved": 0, "fusion_lon": 0.0}, {"rental_uris": {"ios": "https://dc.lft.to/lastmile_qr_scan", "android": "https://dc.lft.to/lastmile_qr_scan"}, "fusion_lat": 0.0, "name": "26b83131885757c5006a5f564697a4e3", "bike_id": "26b83131885757c5006a5f564697a4e3", "is_disabled": 0, "type": "electric_scooter", "lat": 38.89227183333333, "lon": -77.04325066666667, "is_reserved": 0, "fusion_lon": 0.0}, {"rental_uris": {"ios": "https://dc.lft.to/lastmile_qr_scan", "android": "https://dc.lft.to/lastmile_qr_scan"}, "fusion_lat": 0.0, "name": "a420f0e600a76470b5fba793c9f542e3", "bike_id": "a420f0e600a76470b5fba793c9f542e3", "is_disabled": 0, "type": "electric_bike", "lat": 38.91788733333333, "lon": -76.97186033333334, "is_reserved": 0, "fusion_lon": 0.0}, {"rental_uris": {"ios": "https://dc.lft.to/lastmile_qr_scan", "android": "https://dc.lft.to/lastmile_qr_scan"}, "fusion_lat": 0.0, "name": "a58ef0d41f01f5458e4f1ddc23a397bf", "bike_id": "a58ef0d41f01f5458e4f1ddc23a397bf", "is_disabled": 0, "type": "electric_scooter", "lat": 38.89221666666667, "lon": -77.03984383333334, "is_reserved": 0, "fusion_lon": 0.0}, {"rental_uris": {"ios": "https://dc.lft.to/lastmile_qr_scan", "android": "https://dc.lft.to/lastmile_qr_scan"}, "fusion_lat": 0.0, "name": "46c76a78bd3074ab2aea5849b8d15aa2", "bike_id": "46c76a78bd3074ab2aea5849b8d15aa2", "is_disabled": 0, "type": "electric_scooter", "lat": 38.900083333333335, "lon": -77.04305666666667, "is_reserved": 0, "fusion_lon": 0.0}, {"rental_uris": {"ios": "https://dc.lft.to/lastmile_qr_scan", "android": "https://dc.lft.to/lastmile_qr_scan"}, "fusion_lat": 0.0, "name": "dd1245434dff96bd51c4b21296c71ec2", "bike_id": "dd1245434dff96bd51c4b21296c71ec2", "is_disabled": 0, "type": "electric_scooter", "lat": 38.915865, "lon": -77.0172185, "is_reserved": 0, "fusion_lon": 0.0}, {"rental_uris": {"ios": "https://dc.lft.to/lastmile_qr_scan", "android": "https://dc.lft.to/lastmile_qr_scan"}, "fusion_lat": 0.0, "name": "7228be4dd5e2a1cbd33fafb2980c7753", "bike_id": "7228be4dd5e2a1cbd33fafb2980c7753", "is_disabled": 0, "type": "electric_scooter", "lat": 38.90557833333333, "lon": -77.03969433333333, "is_reserved": 0, "fusion_lon": 0.0}, {"rental_uris": {"ios": "https://dc.lft.to/lastmile_qr_scan", "android": "https://dc.lft.to/lastmile_qr_scan"}, "fusion_lat": 0.0, "name": "c6871014c03bd12b9b0bed969dcf21f4", "bike_id": "c6871014c03bd12b9b0bed969dcf21f4", "is_disabled": 0, "type": "electric_scooter", "lat": 38.909652666666666, "lon": -77.0321955, "is_reserved": 0, "fusion_lon": 0.0}, {"rental_uris": {"ios": "https://dc.lft.to/lastmile_qr_scan", "android": "https://dc.lft.to/lastmile_qr_scan"}, "fusion_lat": 0.0, "name": "5296a9af6394c2378370118f38438127", "bike_id": "5296a9af6394c2378370118f38438127", "is_disabled": 0, "type": "electric_scooter", "lat": 38.9168235, "lon": -77.022876, "is_reserved": 0, "fusion_lon": 0.0}, {"rental_uris": {"ios": "https://dc.lft.to/lastmile_qr_scan", "android": "https://dc.lft.to/lastmile_qr_scan"}, "fusion_lat": 0.0, "name": "ba4a460e35d5dcda5e3bb4145570514f", "bike_id": "ba4a460e35d5dcda5e3bb4145570514f", "is_disabled": 0, "type": "electric_scooter", "lat": 38.88106, "lon": -77.016449, "is_reserved": 0, "fusion_lon": 0.0}, {"rental_uris": {"ios": "https://dc.lft.to/lastmile_qr_scan", "android": "https://dc.lft.to/lastmile_qr_scan"}, "fusion_lat": 0.0, "name": "0f18478e25561bcf80e0db8e7189ede9", "bike_id": "0f18478e25561bcf80e0db8e7189ede9", "is_disabled": 0, "type": "electric_scooter", "lat": 38.870840333333334, "lon": -77.01381433333333, "is_reserved": 0, "fusion_lon": 0.0}, {"rental_uris": {"ios": "https://dc.lft.to/lastmile_qr_scan", "android": "https://dc.lft.to/lastmile_qr_scan"}, "fusion_lat": 0.0, "name": "820bd6997f06205c905850fdb7ce1544", "bike_id": "820bd6997f06205c905850fdb7ce1544", "is_disabled": 0, "type": "electric_scooter", "lat": 38.921738833333336, "lon": -77.03833783333333, "is_reserved": 0, "fusion_lon": 0.0}, {"rental_uris": {"ios": "https://dc.lft.to/lastmile_qr_scan", "android": "https://dc.lft.to/lastmile_qr_scan"}, "fusion_lat": 0.0, "name": "698f7c9b572df950739fe1d6143f2abd", "bike_id": "698f7c9b572df950739fe1d6143f2abd", "is_disabled": 0, "type": "electric_scooter", "lat": 38.90556266666667, "lon": -77.00290233333334, "is_reserved": 0, "fusion_lon": 0.0}, {"rental_uris": {"ios": "https://dc.lft.to/lastmile_qr_scan", "android": "https://dc.lft.to/lastmile_qr_scan"}, "fusion_lat": 0.0, "name": "cd8096cc44cccb529192d58aa0ac6ac1", "bike_id": "cd8096cc44cccb529192d58aa0ac6ac1", "is_disabled": 0, "type": "electric_scooter", "lat": 38.85196416666667, "lon": -76.9763315, "is_reserved": 0, "fusion_lon": 0.0}, {"rental_uris": {"ios": "https://dc.lft.to/lastmile_qr_scan", "android": "https://dc.lft.to/lastmile_qr_scan"}, "fusion_lat": 0.0, "name": "f81b9dca22bd1aaf6c01894c27acc6d7", "bike_id": "f81b9dca22bd1aaf6c01894c27acc6d7", "is_disabled": 0, "type": "electric_scooter", "lat": 38.911157333333335, "lon": -77.044654, "is_reserved": 0, "fusion_lon": 0.0}, {"rental_uris": {"ios": "https://dc.lft.to/lastmile_qr_scan", "android": "https://dc.lft.to/lastmile_qr_scan"}, "fusion_lat": 0.0, "name": "11e552e9bbabbc8de6a19611178e28d3", "bike_id": "11e552e9bbabbc8de6a19611178e28d3", "is_disabled": 0, "type": "electric_scooter", "lat": 38.918725333333335, "lon": -77.03500033333333, "is_reserved": 0, "fusion_lon": 0.0}, {"rental_uris": {"ios": "https://dc.lft.to/lastmile_qr_scan", "android": "https://dc.lft.to/lastmile_qr_scan"}, "fusion_lat": 0.0, "name": "b37f1c4df549504ccaede1a329f0ecb4", "bike_id": "b37f1c4df549504ccaede1a329f0ecb4", "is_disabled": 0, "type": "electric_scooter", "lat": 38.91266516666666, "lon": -77.0455195, "is_reserved": 0, "fusion_lon": 0.0}, {"rental_uris": {"ios": "https://dc.lft.to/lastmile_qr_scan", "android": "https://dc.lft.to/lastmile_qr_scan"}, "fusion_lat": 0.0, "name": "c8069fad601854597409630aa380966e", "bike_id": "c8069fad601854597409630aa380966e", "is_disabled": 0, "type": "electric_scooter", "lat": 38.902851166666665, "lon": -77.03340233333333, "is_reserved": 0, "fusion_lon": 0.0}, {"rental_uris": {"ios": "https://dc.lft.to/lastmile_qr_scan", "android": "https://dc.lft.to/lastmile_qr_scan"}, "fusion_lat": 0.0, "name": "7d9c7d3bc5f776f665f6ec48ecc80df9", "bike_id": "7d9c7d3bc5f776f665f6ec48ecc80df9", "is_disabled": 0, "type": "electric_scooter", "lat": 38.89613533333333, "lon": -77.04545433333334, "is_reserved": 0, "fusion_lon": 0.0}, {"rental_uris": {"ios": "https://dc.lft.to/lastmile_qr_scan", "android": "https://dc.lft.to/lastmile_qr_scan"}, "fusion_lat": 0.0, "name": "5fd70faf7bfeb8803f97781381becb1d", "bike_id": "5fd70faf7bfeb8803f97781381becb1d", "is_disabled": 0, "type": "electric_scooter", "lat": 38.899743, "lon": -77.0471845, "is_reserved": 0, "fusion_lon": 0.0}, {"rental_uris": {"ios": "https://dc.lft.to/lastmile_qr_scan", "android": "https://dc.lft.to/lastmile_qr_scan"}, "fusion_lat": 0.0, "name": "296214c3b7615c794c4e43287ef3cb41", "bike_id": "296214c3b7615c794c4e43287ef3cb41", "is_disabled": 0, "type": "electric_scooter", "lat": 38.90381333333333, "lon": -77.03202833333333, "is_reserved": 0, "fusion_lon": 0.0}, {"rental_uris": {"ios": "https://dc.lft.to/lastmile_qr_scan", "android": "https://dc.lft.to/lastmile_qr_scan"}, "fusion_lat": 0.0, "name": "c70156dcb9ecb9de86cb8e369b644bba", "bike_id": "c70156dcb9ecb9de86cb8e369b644bba", "is_disabled": 0, "type": "electric_scooter", "lat": 38.90966933333333, "lon": -77.037938, "is_reserved": 0, "fusion_lon": 0.0}, {"rental_uris": {"ios": "https://dc.lft.to/lastmile_qr_scan", "android": "https://dc.lft.to/lastmile_qr_scan"}, "fusion_lat": 0.0, "name": "0b2148dc1c997e69371c399e49a176f7", "bike_id": "0b2148dc1c997e69371c399e49a176f7", "is_disabled": 0, "type": "electric_scooter", "lat": 38.887279666666664, "lon": -77.02825916666667, "is_reserved": 0, "fusion_lon": 0.0}, {"rental_uris": {"ios": "https://dc.lft.to/lastmile_qr_scan", "android": "https://dc.lft.to/lastmile_qr_scan"}, "fusion_lat": 0.0, "name": "bc9d3440a4503cdbb520ebf8309462fe", "bike_id": "bc9d3440a4503cdbb520ebf8309462fe", "is_disabled": 0, "type": "electric_scooter", "lat": 38.865071666666665, "lon": -76.989794, "is_reserved": 0, "fusion_lon": 0.0}, {"rental_uris": {"ios": "https://dc.lft.to/lastmile_qr_scan", "android": "https://dc.lft.to/lastmile_qr_scan"}, "fusion_lat": 0.0, "name": "bd9c46228de81c8822a67f0db9ad1e4a", "bike_id": "bd9c46228de81c8822a67f0db9ad1e4a", "is_disabled": 0, "type": "electric_bike", "lat": 38.925512166666664, "lon": -77.00134716666666, "is_reserved": 0, "fusion_lon": 0.0}, {"rental_uris": {"ios": "https://dc.lft.to/lastmile_qr_scan", "android": "https://dc.lft.to/lastmile_qr_scan"}, "fusion_lat": 0.0, "name": "945ce033791456c44d2eafc7ac143b37", "bike_id": "945ce033791456c44d2eafc7ac143b37", "is_disabled": 0, "type": "electric_scooter", "lat": 38.920689833333334, "lon": -77.04358733333333, "is_reserved": 0, "fusion_lon": 0.0}, {"rental_uris": {"ios": "https://dc.lft.to/lastmile_qr_scan", "android": "https://dc.lft.to/lastmile_qr_scan"}, "fusion_lat": 0.0, "name": "b1a55d095369cd9d1b77ce41760dc35a", "bike_id": "b1a55d095369cd9d1b77ce41760dc35a", "is_disabled": 0, "type": "electric_bike", "lat": 38.934122, "lon": -77.02509683333334, "is_reserved": 0, "fusion_lon": 0.0}, {"rental_uris": {"ios": "https://dc.lft.to/lastmile_qr_scan", "android": "https://dc.lft.to/lastmile_qr_scan"}, "fusion_lat": 0.0, "name": "1095b4dd4ec0bb66552381766fa371b0", "bike_id": "1095b4dd4ec0bb66552381766fa371b0", "is_disabled": 0, "type": "electric_scooter", "lat": 38.90692883333333, "lon": -77.03447616666666, "is_reserved": 0, "fusion_lon": 0.0}, {"rental_uris": {"ios": "https://dc.lft.to/lastmile_qr_scan", "android": "https://dc.lft.to/lastmile_qr_scan"}, "fusion_lat": 0.0, "name": "6cb6bac677a02c5e0a7736da042c774f", "bike_id": "6cb6bac677a02c5e0a7736da042c774f", "is_disabled": 0, "type": "electric_scooter", "lat": 38.885945, "lon": -77.03066666666666, "is_reserved": 0, "fusion_lon": 0.0}, {"rental_uris": {"ios": "https://dc.lft.to/lastmile_qr_scan", "android": "https://dc.lft.to/lastmile_qr_scan"}, "fusion_lat": 0.0, "name": "4aae5290414e095d726969c4b21d3b82", "bike_id": "4aae5290414e095d726969c4b21d3b82", "is_disabled": 0, "type": "electric_scooter", "lat": 38.8940295, "lon": -77.02177516666667, "is_reserved": 0, "fusion_lon": 0.0}, {"rental_uris": {"ios": "https://dc.lft.to/lastmile_qr_scan", "android": "https://dc.lft.to/lastmile_qr_scan"}, "fusion_lat": 0.0, "name": "2052745d212abcab82e410c2350c50cb", "bike_id": "2052745d212abcab82e410c2350c50cb", "is_disabled": 0, "type": "electric_scooter", "lat": 38.893540333333334, "lon": -77.04136916666667, "is_reserved": 0, "fusion_lon": 0.0}, {"rental_uris": {"ios": "https://dc.lft.to/lastmile_qr_scan", "android": "https://dc.lft.to/lastmile_qr_scan"}, "fusion_lat": 0.0, "name": "406d28f3dfb04104355c0b94e4678911", "bike_id": "406d28f3dfb04104355c0b94e4678911", "is_disabled": 0, "type": "electric_scooter", "lat": 38.913316333333334, "lon": -77.031695, "is_reserved": 0, "fusion_lon": 0.0}, {"rental_uris": {"ios": "https://dc.lft.to/lastmile_qr_scan", "android": "https://dc.lft.to/lastmile_qr_scan"}, "fusion_lat": 0.0, "name": "77f91cbd9b2736c20e6d94ade759005a", "bike_id": "77f91cbd9b2736c20e6d94ade759005a", "is_disabled": 0, "type": "electric_bike", "lat": 38.94549583333333, "lon": -76.89535216666667, "is_reserved": 0, "fusion_lon": 0.0}, {"rental_uris": {"ios": "https://dc.lft.to/lastmile_qr_scan", "android": "https://dc.lft.to/lastmile_qr_scan"}, "fusion_lat": 0.0, "name": "756820c1471bbca9f97ed3a2c7e862c7", "bike_id": "756820c1471bbca9f97ed3a2c7e862c7", "is_disabled": 0, "type": "electric_scooter", "lat": 38.932483833333336, "lon": -77.02984016666667, "is_reserved": 0, "fusion_lon": 0.0}, {"rental_uris": {"ios": "https://dc.lft.to/lastmile_qr_scan", "android": "https://dc.lft.to/lastmile_qr_scan"}, "fusion_lat": 0.0, "name": "1d9aa0a4a8d69b4d0da34c40c732d981", "bike_id": "1d9aa0a4a8d69b4d0da34c40c732d981", "is_disabled": 0, "type": "electric_scooter", "lat": 38.892203, "lon": -77.01371516666667, "is_reserved": 0, "fusion_lon": 0.0}, {"rental_uris": {"ios": "https://dc.lft.to/lastmile_qr_scan", "android": "https://dc.lft.to/lastmile_qr_scan"}, "fusion_lat": 0.0, "name": "82f27438aa3da8513b1dff2e6ee8b6ff", "bike_id": "82f27438aa3da8513b1dff2e6ee8b6ff", "is_disabled": 0, "type": "electric_scooter", "lat": 38.89218733333333, "lon": -77.03214866666667, "is_reserved": 0, "fusion_lon": 0.0}, {"rental_uris": {"ios": "https://dc.lft.to/lastmile_qr_scan", "android": "https://dc.lft.to/lastmile_qr_scan"}, "fusion_lat": 0.0, "name": "2ff51d64f7f170af032dabe918c34752", "bike_id": "2ff51d64f7f170af032dabe918c34752", "is_disabled": 0, "type": "electric_scooter", "lat": 38.9419775, "lon": -77.025871, "is_reserved": 0, "fusion_lon": 0.0}, {"rental_uris": {"ios": "https://dc.lft.to/lastmile_qr_scan", "android": "https://dc.lft.to/lastmile_qr_scan"}, "fusion_lat": 0.0, "name": "2f80ccf6f2c2b707770421f4f7a5f872", "bike_id": "2f80ccf6f2c2b707770421f4f7a5f872", "is_disabled": 0, "type": "electric_scooter", "lat": 38.877948333333336, "lon": -76.9940645, "is_reserved": 0, "fusion_lon": 0.0}, {"rental_uris": {"ios": "https://dc.lft.to/lastmile_qr_scan", "android": "https://dc.lft.to/lastmile_qr_scan"}, "fusion_lat": 0.0, "name": "04f5100eb83e483456866d6b6449cbe6", "bike_id": "04f5100eb83e483456866d6b6449cbe6", "is_disabled": 0, "type": "electric_bike", "lat": 38.8594335, "lon": -77.08609983333334, "is_reserved": 0, "fusion_lon": 0.0}, {"rental_uris": {"ios": "https://dc.lft.to/lastmile_qr_scan", "android": "https://dc.lft.to/lastmile_qr_scan"}, "fusion_lat": 0.0, "name": "8255c3cd5d79f76891ef70622c7ea20d", "bike_id": "8255c3cd5d79f76891ef70622c7ea20d", "is_disabled": 0, "type": "electric_scooter", "lat": 38.93306883333333, "lon": -77.0358625, "is_reserved": 0, "fusion_lon": 0.0}, {"rental_uris": {"ios": "https://dc.lft.to/lastmile_qr_scan", "android": "https://dc.lft.to/lastmile_qr_scan"}, "fusion_lat": 0.0, "name": "d175f75d7d254d1e6af90cbe9f8e7409", "bike_id": "d175f75d7d254d1e6af90cbe9f8e7409", "is_disabled": 0, "type": "electric_scooter", "lat": 38.9097295, "lon": -77.0343805, "is_reserved": 0, "fusion_lon": 0.0}, {"rental_uris": {"ios": "https://dc.lft.to/lastmile_qr_scan", "android": "https://dc.lft.to/lastmile_qr_scan"}, "fusion_lat": 0.0, "name": "cdc6caedadb417eeb0ef31c9b6d0eaed", "bike_id": "cdc6caedadb417eeb0ef31c9b6d0eaed", "is_disabled": 0, "type": "electric_scooter", "lat": 38.915638, "lon": -77.0315045, "is_reserved": 0, "fusion_lon": 0.0}, {"rental_uris": {"ios": "https://dc.lft.to/lastmile_qr_scan", "android": "https://dc.lft.to/lastmile_qr_scan"}, "fusion_lat": 0.0, "name": "e91fedf7a4a4fc1a1dce65cf43d3e1cf", "bike_id": "e91fedf7a4a4fc1a1dce65cf43d3e1cf", "is_disabled": 0, "type": "electric_scooter", "lat": 38.88499083333333, "lon": -77.02167183333333, "is_reserved": 0, "fusion_lon": 0.0}, {"rental_uris": {"ios": "https://dc.lft.to/lastmile_qr_scan", "android": "https://dc.lft.to/lastmile_qr_scan"}, "fusion_lat": 0.0, "name": "14af80e1071493ef930cdfb2ee9f0cc0", "bike_id": "14af80e1071493ef930cdfb2ee9f0cc0", "is_disabled": 0, "type": "electric_scooter", "lat": 38.90820816666667, "lon": -77.01837516666667, "is_reserved": 0, "fusion_lon": 0.0}, {"rental_uris": {"ios": "https://dc.lft.to/lastmile_qr_scan", "android": "https://dc.lft.to/lastmile_qr_scan"}, "fusion_lat": 0.0, "name": "1b724ae80e56fa1b2ade0466ab4dacd6", "bike_id": "1b724ae80e56fa1b2ade0466ab4dacd6", "is_disabled": 0, "type": "electric_scooter", "lat": 38.916903166666664, "lon": -77.02972866666667, "is_reserved": 0, "fusion_lon": 0.0}, {"rental_uris": {"ios": "https://dc.lft.to/lastmile_qr_scan", "android": "https://dc.lft.to/lastmile_qr_scan"}, "fusion_lat": 0.0, "name": "1e0731bcff58a4e5cf10f2a437df8366", "bike_id": "1e0731bcff58a4e5cf10f2a437df8366", "is_disabled": 0, "type": "electric_scooter", "lat": 38.89015716666667, "lon": -76.93732616666667, "is_reserved": 0, "fusion_lon": 0.0}, {"rental_uris": {"ios": "https://dc.lft.to/lastmile_qr_scan", "android": "https://dc.lft.to/lastmile_qr_scan"}, "fusion_lat": 0.0, "name": "d84fc002e66c03009717f8ddd54c34b2", "bike_id": "d84fc002e66c03009717f8ddd54c34b2", "is_disabled": 0, "type": "electric_bike", "lat": 38.922106166666666, "lon": -76.98792916666666, "is_reserved": 0, "fusion_lon": 0.0}, {"rental_uris": {"ios": "https://dc.lft.to/lastmile_qr_scan", "android": "https://dc.lft.to/lastmile_qr_scan"}, "fusion_lat": 0.0, "name": "0e850849b979e319a8de8a91e84514b9", "bike_id": "0e850849b979e319a8de8a91e84514b9", "is_disabled": 0, "type": "electric_scooter", "lat": 38.908081333333335, "lon": -77.0384485, "is_reserved": 0, "fusion_lon": 0.0}, {"rental_uris": {"ios": "https://dc.lft.to/lastmile_qr_scan", "android": "https://dc.lft.to/lastmile_qr_scan"}, "fusion_lat": 0.0, "name": "b6b24509afb02cb2d4a17474b6d772a4", "bike_id": "b6b24509afb02cb2d4a17474b6d772a4", "is_disabled": 0, "type": "electric_scooter", "lat": 38.95165166666666, "lon": -77.02744216666666, "is_reserved": 0, "fusion_lon": 0.0}, {"rental_uris": {"ios": "https://dc.lft.to/lastmile_qr_scan", "android": "https://dc.lft.to/lastmile_qr_scan"}, "fusion_lat": 0.0, "name": "51fdb8913365985d2653eb7260422deb", "bike_id": "51fdb8913365985d2653eb7260422deb", "is_disabled": 0, "type": "electric_scooter", "lat": 38.918116833333336, "lon": -77.02709933333334, "is_reserved": 0, "fusion_lon": 0.0}, {"rental_uris": {"ios": "https://dc.lft.to/lastmile_qr_scan", "android": "https://dc.lft.to/lastmile_qr_scan"}, "fusion_lat": 0.0, "name": "a0c5f64b3b705aba3d30baf69842bac6", "bike_id": "a0c5f64b3b705aba3d30baf69842bac6", "is_disabled": 0, "type": "electric_scooter", "lat": 38.882595, "lon": -77.00368516666667, "is_reserved": 0, "fusion_lon": 0.0}, {"rental_uris": {"ios": "https://dc.lft.to/lastmile_qr_scan", "android": "https://dc.lft.to/lastmile_qr_scan"}, "fusion_lat": 0.0, "name": "13c67cfffba854a8b4d6c2f076208206", "bike_id": "13c67cfffba854a8b4d6c2f076208206", "is_disabled": 0, "type": "electric_scooter", "lat": 38.90961516666667, "lon": -77.04650966666667, "is_reserved": 0, "fusion_lon": 0.0}, {"rental_uris": {"ios": "https://dc.lft.to/lastmile_qr_scan", "android": "https://dc.lft.to/lastmile_qr_scan"}, "fusion_lat": 0.0, "name": "dbe4309561511c01759998551703c7b9", "bike_id": "dbe4309561511c01759998551703c7b9", "is_disabled": 0, "type": "electric_scooter", "lat": 38.89225666666667, "lon": -77.032168, "is_reserved": 0, "fusion_lon": 0.0}, {"rental_uris": {"ios": "https://dc.lft.to/lastmile_qr_scan", "android": "https://dc.lft.to/lastmile_qr_scan"}, "fusion_lat": 0.0, "name": "86b5b81637a20b900153411918b03231", "bike_id": "86b5b81637a20b900153411918b03231", "is_disabled": 0, "type": "electric_scooter", "lat": 38.89935583333333, "lon": -77.0280475, "is_reserved": 0, "fusion_lon": 0.0}, {"rental_uris": {"ios": "https://dc.lft.to/lastmile_qr_scan", "android": "https://dc.lft.to/lastmile_qr_scan"}, "fusion_lat": 0.0, "name": "5aa37ce434e2e9815760d640563cc5fd", "bike_id": "5aa37ce434e2e9815760d640563cc5fd", "is_disabled": 0, "type": "electric_scooter", "lat": 38.95706966666667, "lon": -77.0240385, "is_reserved": 0, "fusion_lon": 0.0}, {"rental_uris": {"ios": "https://dc.lft.to/lastmile_qr_scan", "android": "https://dc.lft.to/lastmile_qr_scan"}, "fusion_lat": 0.0, "name": "66f046efb1412fec0ee3427f7bcb0738", "bike_id": "66f046efb1412fec0ee3427f7bcb0738", "is_disabled": 0, "type": "electric_scooter", "lat": 38.9037615, "lon": -77.032124, "is_reserved": 0, "fusion_lon": 0.0}, {"rental_uris": {"ios": "https://dc.lft.to/lastmile_qr_scan", "android": "https://dc.lft.to/lastmile_qr_scan"}, "fusion_lat": 0.0, "name": "24a578fc2e75b6a1b8e008b577f07845", "bike_id": "24a578fc2e75b6a1b8e008b577f07845", "is_disabled": 0, "type": "electric_scooter", "lat": 38.90528316666666, "lon": -77.04192233333333, "is_reserved": 0, "fusion_lon": 0.0}, {"rental_uris": {"ios": "https://dc.lft.to/lastmile_qr_scan", "android": "https://dc.lft.to/lastmile_qr_scan"}, "fusion_lat": 0.0, "name": "ad21aea3a483644fd22bc0b03363f19a", "bike_id": "ad21aea3a483644fd22bc0b03363f19a", "is_disabled": 0, "type": "electric_scooter", "lat": 38.91897483333333, "lon": -77.02077316666667, "is_reserved": 0, "fusion_lon": 0.0}, {"rental_uris": {"ios": "https://dc.lft.to/lastmile_qr_scan", "android": "https://dc.lft.to/lastmile_qr_scan"}, "fusion_lat": 0.0, "name": "f1a4ca354bd79e6fbb005ccaf1be49d5", "bike_id": "f1a4ca354bd79e6fbb005ccaf1be49d5", "is_disabled": 0, "type": "electric_scooter", "lat": 38.901322, "lon": -77.048997, "is_reserved": 0, "fusion_lon": 0.0}, {"rental_uris": {"ios": "https://dc.lft.to/lastmile_qr_scan", "android": "https://dc.lft.to/lastmile_qr_scan"}, "fusion_lat": 0.0, "name": "2e919e512f444770ced86192abfd0424", "bike_id": "2e919e512f444770ced86192abfd0424", "is_disabled": 0, "type": "electric_scooter", "lat": 38.909789833333335, "lon": -76.99507033333333, "is_reserved": 0, "fusion_lon": 0.0}, {"rental_uris": {"ios": "https://dc.lft.to/lastmile_qr_scan", "android": "https://dc.lft.to/lastmile_qr_scan"}, "fusion_lat": 0.0, "name": "a8fe1948b3b3b1c9e402a1347d2e728e", "bike_id": "a8fe1948b3b3b1c9e402a1347d2e728e", "is_disabled": 0, "type": "electric_scooter", "lat": 38.9396625, "lon": -77.03201, "is_reserved": 0, "fusion_lon": 0.0}, {"rental_uris": {"ios": "https://dc.lft.to/lastmile_qr_scan", "android": "https://dc.lft.to/lastmile_qr_scan"}, "fusion_lat": 0.0, "name": "2e75278c00e00624482331c4fcce617c", "bike_id": "2e75278c00e00624482331c4fcce617c", "is_disabled": 0, "type": "electric_scooter", "lat": 38.917116166666666, "lon": -77.036741, "is_reserved": 0, "fusion_lon": 0.0}, {"rental_uris": {"ios": "https://dc.lft.to/lastmile_qr_scan", "android": "https://dc.lft.to/lastmile_qr_scan"}, "fusion_lat": 0.0, "name": "ab6b0b5402ef0e546d91ff8132916cf3", "bike_id": "ab6b0b5402ef0e546d91ff8132916cf3", "is_disabled": 0, "type": "electric_scooter", "lat": 38.889976, "lon": -76.95411716666666, "is_reserved": 0, "fusion_lon": 0.0}, {"rental_uris": {"ios": "https://dc.lft.to/lastmile_qr_scan", "android": "https://dc.lft.to/lastmile_qr_scan"}, "fusion_lat": 0.0, "name": "813223bb459ba7a5a54ef4e7f0bfa800", "bike_id": "813223bb459ba7a5a54ef4e7f0bfa800", "is_disabled": 0, "type": "electric_scooter", "lat": 38.930641666666666, "lon": -77.029779, "is_reserved": 0, "fusion_lon": 0.0}, {"rental_uris": {"ios": "https://dc.lft.to/lastmile_qr_scan", "android": "https://dc.lft.to/lastmile_qr_scan"}, "fusion_lat": 0.0, "name": "fae1e746b388596e70bdcad44a5501b0", "bike_id": "fae1e746b388596e70bdcad44a5501b0", "is_disabled": 0, "type": "electric_scooter", "lat": 38.9038315, "lon": -77.03461783333333, "is_reserved": 0, "fusion_lon": 0.0}, {"rental_uris": {"ios": "https://dc.lft.to/lastmile_qr_scan", "android": "https://dc.lft.to/lastmile_qr_scan"}, "fusion_lat": 0.0, "name": "cf2f4a8d32e65c009fac20a64b1c03d5", "bike_id": "cf2f4a8d32e65c009fac20a64b1c03d5", "is_disabled": 0, "type": "electric_scooter", "lat": 38.89811516666666, "lon": -77.0466675, "is_reserved": 0, "fusion_lon": 0.0}, {"rental_uris": {"ios": "https://dc.lft.to/lastmile_qr_scan", "android": "https://dc.lft.to/lastmile_qr_scan"}, "fusion_lat": 0.0, "name": "809ddb2f60afa49c6baaf443f0b1254c", "bike_id": "809ddb2f60afa49c6baaf443f0b1254c", "is_disabled": 0, "type": "electric_scooter", "lat": 38.91689083333333, "lon": -77.02811733333333, "is_reserved": 0, "fusion_lon": 0.0}, {"rental_uris": {"ios": "https://dc.lft.to/lastmile_qr_scan", "android": "https://dc.lft.to/lastmile_qr_scan"}, "fusion_lat": 0.0, "name": "f1c770c0e2a68a0763bbacc80482509a", "bike_id": "f1c770c0e2a68a0763bbacc80482509a", "is_disabled": 0, "type": "electric_scooter", "lat": 38.90798566666667, "lon": -77.03833833333333, "is_reserved": 0, "fusion_lon": 0.0}, {"rental_uris": {"ios": "https://dc.lft.to/lastmile_qr_scan", "android": "https://dc.lft.to/lastmile_qr_scan"}, "fusion_lat": 0.0, "name": "70a809a3754b2195b163bf9af2de0780", "bike_id": "70a809a3754b2195b163bf9af2de0780", "is_disabled": 0, "type": "electric_scooter", "lat": 38.892199, "lon": -77.03157433333334, "is_reserved": 0, "fusion_lon": 0.0}, {"rental_uris": {"ios": "https://dc.lft.to/lastmile_qr_scan", "android": "https://dc.lft.to/lastmile_qr_scan"}, "fusion_lat": 0.0, "name": "95e0801b645567f7bf772a5a8d9a1de4", "bike_id": "95e0801b645567f7bf772a5a8d9a1de4", "is_disabled": 0, "type": "electric_scooter", "lat": 38.888131, "lon": -76.93345133333334, "is_reserved": 0, "fusion_lon": 0.0}, {"rental_uris": {"ios": "https://dc.lft.to/lastmile_qr_scan", "android": "https://dc.lft.to/lastmile_qr_scan"}, "fusion_lat": 0.0, "name": "5ed6c81acec03bbda3bb0cf0a5540e74", "bike_id": "5ed6c81acec03bbda3bb0cf0a5540e74", "is_disabled": 0, "type": "electric_scooter", "lat": 38.9205065, "lon": -77.0339935, "is_reserved": 0, "fusion_lon": 0.0}, {"rental_uris": {"ios": "https://dc.lft.to/lastmile_qr_scan", "android": "https://dc.lft.to/lastmile_qr_scan"}, "fusion_lat": 0.0, "name": "66fd77c49d906492988038e14355216d", "bike_id": "66fd77c49d906492988038e14355216d", "is_disabled": 0, "type": "electric_bike", "lat": 38.83983683333334, "lon": -77.00569533333334, "is_reserved": 0, "fusion_lon": 0.0}, {"rental_uris": {"ios": "https://dc.lft.to/lastmile_qr_scan", "android": "https://dc.lft.to/lastmile_qr_scan"}, "fusion_lat": 0.0, "name": "63dba27750b1840fb16d548f4cd70ed8", "bike_id": "63dba27750b1840fb16d548f4cd70ed8", "is_disabled": 0, "type": "electric_scooter", "lat": 38.931775, "lon": -77.07067116666667, "is_reserved": 0, "fusion_lon": 0.0}, {"rental_uris": {"ios": "https://dc.lft.to/lastmile_qr_scan", "android": "https://dc.lft.to/lastmile_qr_scan"}, "fusion_lat": 0.0, "name": "b24cf438c166e2a6490660d7d3d9c28a", "bike_id": "b24cf438c166e2a6490660d7d3d9c28a", "is_disabled": 0, "type": "electric_scooter", "lat": 38.908913166666665, "lon": -77.03207266666666, "is_reserved": 0, "fusion_lon": 0.0}, {"rental_uris": {"ios": "https://dc.lft.to/lastmile_qr_scan", "android": "https://dc.lft.to/lastmile_qr_scan"}, "fusion_lat": 0.0, "name": "6118addbb7224a04dd0378d8506e246e", "bike_id": "6118addbb7224a04dd0378d8506e246e", "is_disabled": 0, "type": "electric_scooter", "lat": 38.86665416666666, "lon": -76.98509633333333, "is_reserved": 0, "fusion_lon": 0.0}, {"rental_uris": {"ios": "https://dc.lft.to/lastmile_qr_scan", "android": "https://dc.lft.to/lastmile_qr_scan"}, "fusion_lat": 0.0, "name": "a3a40165c07d7d65d5a4503903ac4a8f", "bike_id": "a3a40165c07d7d65d5a4503903ac4a8f", "is_disabled": 0, "type": "electric_scooter", "lat": 38.918092333333334, "lon": -77.02491383333333, "is_reserved": 0, "fusion_lon": 0.0}, {"rental_uris": {"ios": "https://dc.lft.to/lastmile_qr_scan", "android": "https://dc.lft.to/lastmile_qr_scan"}, "fusion_lat": 0.0, "name": "8a119c770e6b178ae28359b701293732", "bike_id": "8a119c770e6b178ae28359b701293732", "is_disabled": 0, "type": "electric_scooter", "lat": 38.900725666666666, "lon": -77.02713183333333, "is_reserved": 0, "fusion_lon": 0.0}, {"rental_uris": {"ios": "https://dc.lft.to/lastmile_qr_scan", "android": "https://dc.lft.to/lastmile_qr_scan"}, "fusion_lat": 0.0, "name": "88348fcbe03cb600b68753220ea4cc4f", "bike_id": "88348fcbe03cb600b68753220ea4cc4f", "is_disabled": 0, "type": "electric_scooter", "lat": 38.887172666666665, "lon": -77.0176905, "is_reserved": 0, "fusion_lon": 0.0}, {"rental_uris": {"ios": "https://dc.lft.to/lastmile_qr_scan", "android": "https://dc.lft.to/lastmile_qr_scan"}, "fusion_lat": 0.0, "name": "718635ae021af9617ae45aa00ee7b105", "bike_id": "718635ae021af9617ae45aa00ee7b105", "is_disabled": 0, "type": "electric_scooter", "lat": 38.9024115, "lon": -77.043669, "is_reserved": 0, "fusion_lon": 0.0}, {"rental_uris": {"ios": "https://dc.lft.to/lastmile_qr_scan", "android": "https://dc.lft.to/lastmile_qr_scan"}, "fusion_lat": 0.0, "name": "e866115d82b22dd10234d1fe81761918", "bike_id": "e866115d82b22dd10234d1fe81761918", "is_disabled": 0, "type": "electric_scooter", "lat": 38.90670133333333, "lon": -77.04168933333334, "is_reserved": 0, "fusion_lon": 0.0}, {"rental_uris": {"ios": "https://dc.lft.to/lastmile_qr_scan", "android": "https://dc.lft.to/lastmile_qr_scan"}, "fusion_lat": 0.0, "name": "d547dc72e574dea5f26945d107908d05", "bike_id": "d547dc72e574dea5f26945d107908d05", "is_disabled": 0, "type": "electric_scooter", "lat": 38.96165716666667, "lon": -77.0278665, "is_reserved": 0, "fusion_lon": 0.0}, {"rental_uris": {"ios": "https://dc.lft.to/lastmile_qr_scan", "android": "https://dc.lft.to/lastmile_qr_scan"}, "fusion_lat": 0.0, "name": "b5c0dbd61986076f55c9560b86f40e7d", "bike_id": "b5c0dbd61986076f55c9560b86f40e7d", "is_disabled": 0, "type": "electric_bike", "lat": 38.9203915, "lon": -77.0370775, "is_reserved": 0, "fusion_lon": 0.0}, {"rental_uris": {"ios": "https://dc.lft.to/lastmile_qr_scan", "android": "https://dc.lft.to/lastmile_qr_scan"}, "fusion_lat": 0.0, "name": "a99ede87a232ea3648dac481bd038398", "bike_id": "a99ede87a232ea3648dac481bd038398", "is_disabled": 0, "type": "electric_scooter", "lat": 38.90420483333333, "lon": -77.03255266666666, "is_reserved": 0, "fusion_lon": 0.0}, {"rental_uris": {"ios": "https://dc.lft.to/lastmile_qr_scan", "android": "https://dc.lft.to/lastmile_qr_scan"}, "fusion_lat": 0.0, "name": "55ae646c326a7cec185dd722d5af3358", "bike_id": "55ae646c326a7cec185dd722d5af3358", "is_disabled": 0, "type": "electric_scooter", "lat": 38.924780166666665, "lon": -77.03496116666666, "is_reserved": 0, "fusion_lon": 0.0}, {"rental_uris": {"ios": "https://dc.lft.to/lastmile_qr_scan", "android": "https://dc.lft.to/lastmile_qr_scan"}, "fusion_lat": 0.0, "name": "2fe8f2a8a2497184ecabc4861d1c2319", "bike_id": "2fe8f2a8a2497184ecabc4861d1c2319", "is_disabled": 0, "type": "electric_scooter", "lat": 38.915557166666666, "lon": -77.02412116666666, "is_reserved": 0, "fusion_lon": 0.0}, {"rental_uris": {"ios": "https://dc.lft.to/lastmile_qr_scan", "android": "https://dc.lft.to/lastmile_qr_scan"}, "fusion_lat": 0.0, "name": "da8a3d7bfafc15d68b388456f82f73e9", "bike_id": "da8a3d7bfafc15d68b388456f82f73e9", "is_disabled": 0, "type": "electric_scooter", "lat": 38.914278833333334, "lon": -77.03206583333333, "is_reserved": 0, "fusion_lon": 0.0}, {"rental_uris": {"ios": "https://dc.lft.to/lastmile_qr_scan", "android": "https://dc.lft.to/lastmile_qr_scan"}, "fusion_lat": 0.0, "name": "30d34e446f39e872d044f7c86c8718ef", "bike_id": "30d34e446f39e872d044f7c86c8718ef", "is_disabled": 0, "type": "electric_scooter", "lat": 38.91899633333333, "lon": -77.031714, "is_reserved": 0, "fusion_lon": 0.0}, {"rental_uris": {"ios": "https://dc.lft.to/lastmile_qr_scan", "android": "https://dc.lft.to/lastmile_qr_scan"}, "fusion_lat": 0.0, "name": "65515478640e3c939f45765d82ee69c5", "bike_id": "65515478640e3c939f45765d82ee69c5", "is_disabled": 0, "type": "electric_scooter", "lat": 38.9015145, "lon": -77.04466916666667, "is_reserved": 0, "fusion_lon": 0.0}, {"rental_uris": {"ios": "https://dc.lft.to/lastmile_qr_scan", "android": "https://dc.lft.to/lastmile_qr_scan"}, "fusion_lat": 0.0, "name": "3a7c0d8925aa32a48faf3968913e9c87", "bike_id": "3a7c0d8925aa32a48faf3968913e9c87", "is_disabled": 0, "type": "electric_scooter", "lat": 38.90969616666667, "lon": -77.03441633333334, "is_reserved": 0, "fusion_lon": 0.0}, {"rental_uris": {"ios": "https://dc.lft.to/lastmile_qr_scan", "android": "https://dc.lft.to/lastmile_qr_scan"}, "fusion_lat": 0.0, "name": "6476612498617ef6c504af0ee49e9723", "bike_id": "6476612498617ef6c504af0ee49e9723", "is_disabled": 0, "type": "electric_scooter", "lat": 38.89016266666667, "lon": -76.93730866666667, "is_reserved": 0, "fusion_lon": 0.0}, {"rental_uris": {"ios": "https://dc.lft.to/lastmile_qr_scan", "android": "https://dc.lft.to/lastmile_qr_scan"}, "fusion_lat": 0.0, "name": "c006c8e74c8c0b7dbc61b3a0bbfd7641", "bike_id": "c006c8e74c8c0b7dbc61b3a0bbfd7641", "is_disabled": 0, "type": "electric_scooter", "lat": 38.871814, "lon": -77.00609716666666, "is_reserved": 0, "fusion_lon": 0.0}, {"rental_uris": {"ios": "https://dc.lft.to/lastmile_qr_scan", "android": "https://dc.lft.to/lastmile_qr_scan"}, "fusion_lat": 0.0, "name": "88167600c4ddf3081fba09c42e841b4d", "bike_id": "88167600c4ddf3081fba09c42e841b4d", "is_disabled": 0, "type": "electric_scooter", "lat": 38.909761, "lon": -77.0440885, "is_reserved": 0, "fusion_lon": 0.0}, {"rental_uris": {"ios": "https://dc.lft.to/lastmile_qr_scan", "android": "https://dc.lft.to/lastmile_qr_scan"}, "fusion_lat": 0.0, "name": "c88c5614ca52e19946b8a8a36693ee50", "bike_id": "c88c5614ca52e19946b8a8a36693ee50", "is_disabled": 0, "type": "electric_scooter", "lat": 38.91135333333333, "lon": -77.02191733333333, "is_reserved": 0, "fusion_lon": 0.0}, {"rental_uris": {"ios": "https://dc.lft.to/lastmile_qr_scan", "android": "https://dc.lft.to/lastmile_qr_scan"}, "fusion_lat": 0.0, "name": "1c6336019f46e3de3c99455b0373669b", "bike_id": "1c6336019f46e3de3c99455b0373669b", "is_disabled": 0, "type": "electric_scooter", "lat": 38.9127165, "lon": -77.03644016666667, "is_reserved": 0, "fusion_lon": 0.0}, {"rental_uris": {"ios": "https://dc.lft.to/lastmile_qr_scan", "android": "https://dc.lft.to/lastmile_qr_scan"}, "fusion_lat": 0.0, "name": "84e483de7eceb53e233a22461ad6dfd4", "bike_id": "84e483de7eceb53e233a22461ad6dfd4", "is_disabled": 0, "type": "electric_scooter", "lat": 38.91231916666667, "lon": -77.03199633333334, "is_reserved": 0, "fusion_lon": 0.0}, {"rental_uris": {"ios": "https://dc.lft.to/lastmile_qr_scan", "android": "https://dc.lft.to/lastmile_qr_scan"}, "fusion_lat": 0.0, "name": "59f8ed96d6bf27d71a8cc05b295022f2", "bike_id": "59f8ed96d6bf27d71a8cc05b295022f2", "is_disabled": 0, "type": "electric_scooter", "lat": 38.90581933333333, "lon": -77.00625783333334, "is_reserved": 0, "fusion_lon": 0.0}, {"rental_uris": {"ios": "https://dc.lft.to/lastmile_qr_scan", "android": "https://dc.lft.to/lastmile_qr_scan"}, "fusion_lat": 0.0, "name": "9d0228b4cd4dc739925c4494b09abe30", "bike_id": "9d0228b4cd4dc739925c4494b09abe30", "is_disabled": 0, "type": "electric_scooter", "lat": 38.913272, "lon": -77.03256883333333, "is_reserved": 0, "fusion_lon": 0.0}, {"rental_uris": {"ios": "https://dc.lft.to/lastmile_qr_scan", "android": "https://dc.lft.to/lastmile_qr_scan"}, "fusion_lat": 0.0, "name": "e79cc909ddfff47f4ea506466ee75044", "bike_id": "e79cc909ddfff47f4ea506466ee75044", "is_disabled": 0, "type": "electric_scooter", "lat": 38.89216566666666, "lon": -77.026514, "is_reserved": 0, "fusion_lon": 0.0}, {"rental_uris": {"ios": "https://dc.lft.to/lastmile_qr_scan", "android": "https://dc.lft.to/lastmile_qr_scan"}, "fusion_lat": 0.0, "name": "2b24369250c7852d9de317469dc0ec68", "bike_id": "2b24369250c7852d9de317469dc0ec68", "is_disabled": 0, "type": "electric_scooter", "lat": 38.94085116666667, "lon": -77.02723, "is_reserved": 0, "fusion_lon": 0.0}, {"rental_uris": {"ios": "https://dc.lft.to/lastmile_qr_scan", "android": "https://dc.lft.to/lastmile_qr_scan"}, "fusion_lat": 0.0, "name": "a7c63f7218cba43bee013ffdd0deb572", "bike_id": "a7c63f7218cba43bee013ffdd0deb572", "is_disabled": 0, "type": "electric_bike", "lat": 38.92059916666667, "lon": -76.99769883333333, "is_reserved": 0, "fusion_lon": 0.0}, {"rental_uris": {"ios": "https://dc.lft.to/lastmile_qr_scan", "android": "https://dc.lft.to/lastmile_qr_scan"}, "fusion_lat": 0.0, "name": "c30ce8443995173aafe8b41991ce5781", "bike_id": "c30ce8443995173aafe8b41991ce5781", "is_disabled": 0, "type": "electric_scooter", "lat": 38.892235666666664, "lon": -77.04684983333334, "is_reserved": 0, "fusion_lon": 0.0}, {"rental_uris": {"ios": "https://dc.lft.to/lastmile_qr_scan", "android": "https://dc.lft.to/lastmile_qr_scan"}, "fusion_lat": 0.0, "name": "56c1f803729fe6bc9f1e2bf74034957c", "bike_id": "56c1f803729fe6bc9f1e2bf74034957c", "is_disabled": 0, "type": "electric_scooter", "lat": 38.934593666666665, "lon": -77.0387005, "is_reserved": 0, "fusion_lon": 0.0}, {"rental_uris": {"ios": "https://dc.lft.to/lastmile_qr_scan", "android": "https://dc.lft.to/lastmile_qr_scan"}, "fusion_lat": 0.0, "name": "780d599af12c3264b30181cc8912437f", "bike_id": "780d599af12c3264b30181cc8912437f", "is_disabled": 0, "type": "electric_scooter", "lat": 38.88121733333333, "lon": -77.01661616666667, "is_reserved": 0, "fusion_lon": 0.0}, {"rental_uris": {"ios": "https://dc.lft.to/lastmile_qr_scan", "android": "https://dc.lft.to/lastmile_qr_scan"}, "fusion_lat": 0.0, "name": "8e6ce99acda13cfb122d8391b6403016", "bike_id": "8e6ce99acda13cfb122d8391b6403016", "is_disabled": 0, "type": "electric_scooter", "lat": 38.909758, "lon": -77.03447766666666, "is_reserved": 0, "fusion_lon": 0.0}, {"rental_uris": {"ios": "https://dc.lft.to/lastmile_qr_scan", "android": "https://dc.lft.to/lastmile_qr_scan"}, "fusion_lat": 0.0, "name": "9b5487d1bd66179ac907c868ca4516f8", "bike_id": "9b5487d1bd66179ac907c868ca4516f8", "is_disabled": 0, "type": "electric_scooter", "lat": 38.917487, "lon": -77.02399516666667, "is_reserved": 0, "fusion_lon": 0.0}, {"rental_uris": {"ios": "https://dc.lft.to/lastmile_qr_scan", "android": "https://dc.lft.to/lastmile_qr_scan"}, "fusion_lat": 0.0, "name": "98f24d0f5f82085cfdbe79b82e68128d", "bike_id": "98f24d0f5f82085cfdbe79b82e68128d", "is_disabled": 0, "type": "electric_bike", "lat": 38.95957466666667, "lon": -77.10089883333333, "is_reserved": 0, "fusion_lon": 0.0}, {"rental_uris": {"ios": "https://dc.lft.to/lastmile_qr_scan", "android": "https://dc.lft.to/lastmile_qr_scan"}, "fusion_lat": 0.0, "name": "4eaa933e79320fb0185af87204ed47e3", "bike_id": "4eaa933e79320fb0185af87204ed47e3", "is_disabled": 0, "type": "electric_scooter", "lat": 38.949566833333336, "lon": -77.0272235, "is_reserved": 0, "fusion_lon": 0.0}, {"rental_uris": {"ios": "https://dc.lft.to/lastmile_qr_scan", "android": "https://dc.lft.to/lastmile_qr_scan"}, "fusion_lat": 0.0, "name": "d83abeeb75ba20f31b13439b0b435246", "bike_id": "d83abeeb75ba20f31b13439b0b435246", "is_disabled": 0, "type": "electric_scooter", "lat": 38.8952825, "lon": -77.0280165, "is_reserved": 0, "fusion_lon": 0.0}, {"rental_uris": {"ios": "https://dc.lft.to/lastmile_qr_scan", "android": "https://dc.lft.to/lastmile_qr_scan"}, "fusion_lat": 0.0, "name": "0262780b5e1e23fa6ed744150f3356d3", "bike_id": "0262780b5e1e23fa6ed744150f3356d3", "is_disabled": 0, "type": "electric_scooter", "lat": 38.91551483333333, "lon": -77.0211415, "is_reserved": 0, "fusion_lon": 0.0}, {"rental_uris": {"ios": "https://dc.lft.to/lastmile_qr_scan", "android": "https://dc.lft.to/lastmile_qr_scan"}, "fusion_lat": 0.0, "name": "b27e2d9c1a3c3bcf12a0de42d3f05d0a", "bike_id": "b27e2d9c1a3c3bcf12a0de42d3f05d0a", "is_disabled": 0, "type": "electric_scooter", "lat": 38.906403, "lon": -77.00597633333334, "is_reserved": 0, "fusion_lon": 0.0}, {"rental_uris": {"ios": "https://dc.lft.to/lastmile_qr_scan", "android": "https://dc.lft.to/lastmile_qr_scan"}, "fusion_lat": 0.0, "name": "8e456f4f0eaa66c24e219f05ced14f3d", "bike_id": "8e456f4f0eaa66c24e219f05ced14f3d", "is_disabled": 0, "type": "electric_scooter", "lat": 38.918441666666666, "lon": -77.03440583333334, "is_reserved": 0, "fusion_lon": 0.0}, {"rental_uris": {"ios": "https://dc.lft.to/lastmile_qr_scan", "android": "https://dc.lft.to/lastmile_qr_scan"}, "fusion_lat": 0.0, "name": "701d2271787abceb932d0bb994f21431", "bike_id": "701d2271787abceb932d0bb994f21431", "is_disabled": 0, "type": "electric_scooter", "lat": 38.9181585, "lon": -77.0320885, "is_reserved": 0, "fusion_lon": 0.0}, {"rental_uris": {"ios": "https://dc.lft.to/lastmile_qr_scan", "android": "https://dc.lft.to/lastmile_qr_scan"}, "fusion_lat": 0.0, "name": "d78dfc69d96b7348c0c9f37a05eb9a45", "bike_id": "d78dfc69d96b7348c0c9f37a05eb9a45", "is_disabled": 0, "type": "electric_scooter", "lat": 38.90265733333333, "lon": -76.99936133333334, "is_reserved": 0, "fusion_lon": 0.0}, {"rental_uris": {"ios": "https://dc.lft.to/lastmile_qr_scan", "android": "https://dc.lft.to/lastmile_qr_scan"}, "fusion_lat": 0.0, "name": "9df9784b97c5121b6dcff2516c2a34d8", "bike_id": "9df9784b97c5121b6dcff2516c2a34d8", "is_disabled": 0, "type": "electric_scooter", "lat": 38.9033205, "lon": -76.97592533333334, "is_reserved": 0, "fusion_lon": 0.0}, {"rental_uris": {"ios": "https://dc.lft.to/lastmile_qr_scan", "android": "https://dc.lft.to/lastmile_qr_scan"}, "fusion_lat": 0.0, "name": "94b01bc8c6d00c4a4099703e4a2efbd6", "bike_id": "94b01bc8c6d00c4a4099703e4a2efbd6", "is_disabled": 0, "type": "electric_scooter", "lat": 38.908635833333335, "lon": -77.04582316666666, "is_reserved": 0, "fusion_lon": 0.0}, {"rental_uris": {"ios": "https://dc.lft.to/lastmile_qr_scan", "android": "https://dc.lft.to/lastmile_qr_scan"}, "fusion_lat": 0.0, "name": "01b04294d4c15cab31ea5d066da82855", "bike_id": "01b04294d4c15cab31ea5d066da82855", "is_disabled": 0, "type": "electric_scooter", "lat": 38.89951083333333, "lon": -77.02378766666666, "is_reserved": 0, "fusion_lon": 0.0}, {"rental_uris": {"ios": "https://dc.lft.to/lastmile_qr_scan", "android": "https://dc.lft.to/lastmile_qr_scan"}, "fusion_lat": 0.0, "name": "d000343a088d9962b16200e4f4bbc63e", "bike_id": "d000343a088d9962b16200e4f4bbc63e", "is_disabled": 0, "type": "electric_scooter", "lat": 38.902959333333335, "lon": -77.03851916666666, "is_reserved": 0, "fusion_lon": 0.0}, {"rental_uris": {"ios": "https://dc.lft.to/lastmile_qr_scan", "android": "https://dc.lft.to/lastmile_qr_scan"}, "fusion_lat": 0.0, "name": "09941e0caa7619bd972a88cbcf19f4d8", "bike_id": "09941e0caa7619bd972a88cbcf19f4d8", "is_disabled": 0, "type": "electric_scooter", "lat": 38.923633833333334, "lon": -77.05135216666666, "is_reserved": 0, "fusion_lon": 0.0}, {"rental_uris": {"ios": "https://dc.lft.to/lastmile_qr_scan", "android": "https://dc.lft.to/lastmile_qr_scan"}, "fusion_lat": 0.0, "name": "1bb30166f1faf3640ece30643c14e6ed", "bike_id": "1bb30166f1faf3640ece30643c14e6ed", "is_disabled": 0, "type": "electric_scooter", "lat": 38.931493, "lon": -77.03350966666666, "is_reserved": 0, "fusion_lon": 0.0}, {"rental_uris": {"ios": "https://dc.lft.to/lastmile_qr_scan", "android": "https://dc.lft.to/lastmile_qr_scan"}, "fusion_lat": 0.0, "name": "991c213eec9e58b976e29a20f788d851", "bike_id": "991c213eec9e58b976e29a20f788d851", "is_disabled": 0, "type": "electric_scooter", "lat": 38.91410966666667, "lon": -77.013048, "is_reserved": 0, "fusion_lon": 0.0}, {"rental_uris": {"ios": "https://dc.lft.to/lastmile_qr_scan", "android": "https://dc.lft.to/lastmile_qr_scan"}, "fusion_lat": 0.0, "name": "f4273232b8fbaa123dbafa2994fd518c", "bike_id": "f4273232b8fbaa123dbafa2994fd518c", "is_disabled": 0, "type": "electric_scooter", "lat": 38.898902166666666, "lon": -77.0402045, "is_reserved": 0, "fusion_lon": 0.0}, {"rental_uris": {"ios": "https://dc.lft.to/lastmile_qr_scan", "android": "https://dc.lft.to/lastmile_qr_scan"}, "fusion_lat": 0.0, "name": "41cf6de7baedeb609294ea1007d8c02f", "bike_id": "41cf6de7baedeb609294ea1007d8c02f", "is_disabled": 0, "type": "electric_scooter", "lat": 38.9110625, "lon": -77.0317645, "is_reserved": 0, "fusion_lon": 0.0}, {"rental_uris": {"ios": "https://dc.lft.to/lastmile_qr_scan", "android": "https://dc.lft.to/lastmile_qr_scan"}, "fusion_lat": 0.0, "name": "e3d4f4a32938cb79d14716f502eab7cf", "bike_id": "e3d4f4a32938cb79d14716f502eab7cf", "is_disabled": 0, "type": "electric_scooter", "lat": 38.903814833333335, "lon": -77.03214933333334, "is_reserved": 0, "fusion_lon": 0.0}, {"rental_uris": {"ios": "https://dc.lft.to/lastmile_qr_scan", "android": "https://dc.lft.to/lastmile_qr_scan"}, "fusion_lat": 0.0, "name": "6b21f6baf76e778fb79f90d837c7e313", "bike_id": "6b21f6baf76e778fb79f90d837c7e313", "is_disabled": 0, "type": "electric_scooter", "lat": 38.902893166666665, "lon": -77.03674133333334, "is_reserved": 0, "fusion_lon": 0.0}, {"rental_uris": {"ios": "https://dc.lft.to/lastmile_qr_scan", "android": "https://dc.lft.to/lastmile_qr_scan"}, "fusion_lat": 0.0, "name": "bcefc8c6e5854bc04cadd849f766b92d", "bike_id": "bcefc8c6e5854bc04cadd849f766b92d", "is_disabled": 0, "type": "electric_scooter", "lat": 38.917217666666666, "lon": -77.03657983333333, "is_reserved": 0, "fusion_lon": 0.0}, {"rental_uris": {"ios": "https://dc.lft.to/lastmile_qr_scan", "android": "https://dc.lft.to/lastmile_qr_scan"}, "fusion_lat": 0.0, "name": "05ba9a2fbe9f13d7d9d777d9e55798bf", "bike_id": "05ba9a2fbe9f13d7d9d777d9e55798bf", "is_disabled": 0, "type": "electric_scooter", "lat": 38.951863, "lon": -77.02721966666667, "is_reserved": 0, "fusion_lon": 0.0}, {"rental_uris": {"ios": "https://dc.lft.to/lastmile_qr_scan", "android": "https://dc.lft.to/lastmile_qr_scan"}, "fusion_lat": 0.0, "name": "b0dc47a7079c54392c1461632ad1f988", "bike_id": "b0dc47a7079c54392c1461632ad1f988", "is_disabled": 0, "type": "electric_scooter", "lat": 38.90667283333333, "lon": -77.02709033333333, "is_reserved": 0, "fusion_lon": 0.0}, {"rental_uris": {"ios": "https://dc.lft.to/lastmile_qr_scan", "android": "https://dc.lft.to/lastmile_qr_scan"}, "fusion_lat": 0.0, "name": "71d18ccb402acd1b61f30e0237aa6f45", "bike_id": "71d18ccb402acd1b61f30e0237aa6f45", "is_disabled": 0, "type": "electric_scooter", "lat": 38.91328433333334, "lon": -77.03178083333333, "is_reserved": 0, "fusion_lon": 0.0}, {"rental_uris": {"ios": "https://dc.lft.to/lastmile_qr_scan", "android": "https://dc.lft.to/lastmile_qr_scan"}, "fusion_lat": 0.0, "name": "67fa7879d4fa0c1db7899672cce3d9de", "bike_id": "67fa7879d4fa0c1db7899672cce3d9de", "is_disabled": 0, "type": "electric_scooter", "lat": 38.887382333333335, "lon": -77.00333533333334, "is_reserved": 0, "fusion_lon": 0.0}, {"rental_uris": {"ios": "https://dc.lft.to/lastmile_qr_scan", "android": "https://dc.lft.to/lastmile_qr_scan"}, "fusion_lat": 0.0, "name": "1f1b1abbce71b00436216ef1e42d95d9", "bike_id": "1f1b1abbce71b00436216ef1e42d95d9", "is_disabled": 0, "type": "electric_scooter", "lat": 38.904419833333336, "lon": -77.061236, "is_reserved": 0, "fusion_lon": 0.0}, {"rental_uris": {"ios": "https://dc.lft.to/lastmile_qr_scan", "android": "https://dc.lft.to/lastmile_qr_scan"}, "fusion_lat": 0.0, "name": "b45cdaa0161bc60876ece2a7ed05cac0", "bike_id": "b45cdaa0161bc60876ece2a7ed05cac0", "is_disabled": 0, "type": "electric_scooter", "lat": 38.930588166666666, "lon": -77.02651466666667, "is_reserved": 0, "fusion_lon": 0.0}, {"rental_uris": {"ios": "https://dc.lft.to/lastmile_qr_scan", "android": "https://dc.lft.to/lastmile_qr_scan"}, "fusion_lat": 0.0, "name": "6af69739ca903a271362995e58057aa1", "bike_id": "6af69739ca903a271362995e58057aa1", "is_disabled": 0, "type": "electric_scooter", "lat": 38.9165905, "lon": -77.02192566666666, "is_reserved": 0, "fusion_lon": 0.0}, {"rental_uris": {"ios": "https://dc.lft.to/lastmile_qr_scan", "android": "https://dc.lft.to/lastmile_qr_scan"}, "fusion_lat": 0.0, "name": "a9b25fb3be2260e2ea6c019768a99839", "bike_id": "a9b25fb3be2260e2ea6c019768a99839", "is_disabled": 0, "type": "electric_scooter", "lat": 38.90952933333333, "lon": -77.0347425, "is_reserved": 0, "fusion_lon": 0.0}, {"rental_uris": {"ios": "https://dc.lft.to/lastmile_qr_scan", "android": "https://dc.lft.to/lastmile_qr_scan"}, "fusion_lat": 0.0, "name": "7a765574ddf6168f772c35bcece326c9", "bike_id": "7a765574ddf6168f772c35bcece326c9", "is_disabled": 0, "type": "electric_scooter", "lat": 38.876737166666665, "lon": -77.01797616666667, "is_reserved": 0, "fusion_lon": 0.0}, {"rental_uris": {"ios": "https://dc.lft.to/lastmile_qr_scan", "android": "https://dc.lft.to/lastmile_qr_scan"}, "fusion_lat": 0.0, "name": "37cede735bc33d556bda4910619e2963", "bike_id": "37cede735bc33d556bda4910619e2963", "is_disabled": 0, "type": "electric_scooter", "lat": 38.861099833333334, "lon": -76.98369, "is_reserved": 0, "fusion_lon": 0.0}, {"rental_uris": {"ios": "https://dc.lft.to/lastmile_qr_scan", "android": "https://dc.lft.to/lastmile_qr_scan"}, "fusion_lat": 0.0, "name": "6653d0fd999e48138d267fd5657f7b27", "bike_id": "6653d0fd999e48138d267fd5657f7b27", "is_disabled": 0, "type": "electric_scooter", "lat": 38.9083235, "lon": -77.034426, "is_reserved": 0, "fusion_lon": 0.0}, {"rental_uris": {"ios": "https://dc.lft.to/lastmile_qr_scan", "android": "https://dc.lft.to/lastmile_qr_scan"}, "fusion_lat": 0.0, "name": "91ee67cbe822860cdf5491c453860f84", "bike_id": "91ee67cbe822860cdf5491c453860f84", "is_disabled": 0, "type": "electric_scooter", "lat": 38.906235, "lon": -77.023901, "is_reserved": 0, "fusion_lon": 0.0}, {"rental_uris": {"ios": "https://dc.lft.to/lastmile_qr_scan", "android": "https://dc.lft.to/lastmile_qr_scan"}, "fusion_lat": 0.0, "name": "eaa95005db485154d71d2825e5aa4c33", "bike_id": "eaa95005db485154d71d2825e5aa4c33", "is_disabled": 0, "type": "electric_scooter", "lat": 38.918505333333336, "lon": -77.040326, "is_reserved": 0, "fusion_lon": 0.0}, {"rental_uris": {"ios": "https://dc.lft.to/lastmile_qr_scan", "android": "https://dc.lft.to/lastmile_qr_scan"}, "fusion_lat": 0.0, "name": "993f4fe056583d7f52c2c402fd26c19d", "bike_id": "993f4fe056583d7f52c2c402fd26c19d", "is_disabled": 0, "type": "electric_scooter", "lat": 38.91553583333334, "lon": -77.02210066666666, "is_reserved": 0, "fusion_lon": 0.0}, {"rental_uris": {"ios": "https://dc.lft.to/lastmile_qr_scan", "android": "https://dc.lft.to/lastmile_qr_scan"}, "fusion_lat": 0.0, "name": "2f62a9cad2181394e11e8de54c74c090", "bike_id": "2f62a9cad2181394e11e8de54c74c090", "is_disabled": 0, "type": "electric_scooter", "lat": 38.93969533333333, "lon": -77.0325225, "is_reserved": 0, "fusion_lon": 0.0}, {"rental_uris": {"ios": "https://dc.lft.to/lastmile_qr_scan", "android": "https://dc.lft.to/lastmile_qr_scan"}, "fusion_lat": 0.0, "name": "ca8ce28d467ced79d795fba2aa4d2df2", "bike_id": "ca8ce28d467ced79d795fba2aa4d2df2", "is_disabled": 0, "type": "electric_scooter", "lat": 38.89296916666667, "lon": -77.02177583333334, "is_reserved": 0, "fusion_lon": 0.0}, {"rental_uris": {"ios": "https://dc.lft.to/lastmile_qr_scan", "android": "https://dc.lft.to/lastmile_qr_scan"}, "fusion_lat": 0.0, "name": "fbb29ce55a2c438f94297c7640e884f9", "bike_id": "fbb29ce55a2c438f94297c7640e884f9", "is_disabled": 0, "type": "electric_scooter", "lat": 38.9336095, "lon": -77.0241185, "is_reserved": 0, "fusion_lon": 0.0}, {"rental_uris": {"ios": "https://dc.lft.to/lastmile_qr_scan", "android": "https://dc.lft.to/lastmile_qr_scan"}, "fusion_lat": 0.0, "name": "221d70f05ff93aa5bd637b025d43b2e4", "bike_id": "221d70f05ff93aa5bd637b025d43b2e4", "is_disabled": 0, "type": "electric_scooter", "lat": 38.9050695, "lon": -77.03444383333333, "is_reserved": 0, "fusion_lon": 0.0}, {"rental_uris": {"ios": "https://dc.lft.to/lastmile_qr_scan", "android": "https://dc.lft.to/lastmile_qr_scan"}, "fusion_lat": 0.0, "name": "2b56ba1db708ea605ec518bcdce8529a", "bike_id": "2b56ba1db708ea605ec518bcdce8529a", "is_disabled": 0, "type": "electric_scooter", "lat": 38.925689166666665, "lon": -77.057518, "is_reserved": 0, "fusion_lon": 0.0}, {"rental_uris": {"ios": "https://dc.lft.to/lastmile_qr_scan", "android": "https://dc.lft.to/lastmile_qr_scan"}, "fusion_lat": 0.0, "name": "5ece3d48b4f0f48fc6f9cb2b3f62beb5", "bike_id": "5ece3d48b4f0f48fc6f9cb2b3f62beb5", "is_disabled": 0, "type": "electric_scooter", "lat": 38.902432, "lon": -77.02431133333333, "is_reserved": 0, "fusion_lon": 0.0}, {"rental_uris": {"ios": "https://dc.lft.to/lastmile_qr_scan", "android": "https://dc.lft.to/lastmile_qr_scan"}, "fusion_lat": 0.0, "name": "efbab171633a5755cc3a5b11488c71ca", "bike_id": "efbab171633a5755cc3a5b11488c71ca", "is_disabled": 0, "type": "electric_scooter", "lat": 38.91266733333333, "lon": -77.0725065, "is_reserved": 0, "fusion_lon": 0.0}, {"rental_uris": {"ios": "https://dc.lft.to/lastmile_qr_scan", "android": "https://dc.lft.to/lastmile_qr_scan"}, "fusion_lat": 0.0, "name": "e9638cb689328c2fa677fe5cb24f4c95", "bike_id": "e9638cb689328c2fa677fe5cb24f4c95", "is_disabled": 0, "type": "electric_scooter", "lat": 38.892245333333335, "lon": -77.03158716666667, "is_reserved": 0, "fusion_lon": 0.0}, {"rental_uris": {"ios": "https://dc.lft.to/lastmile_qr_scan", "android": "https://dc.lft.to/lastmile_qr_scan"}, "fusion_lat": 0.0, "name": "2479c122f99905d98b88de41258eff82", "bike_id": "2479c122f99905d98b88de41258eff82", "is_disabled": 0, "type": "electric_scooter", "lat": 38.877863, "lon": -76.99411066666667, "is_reserved": 0, "fusion_lon": 0.0}, {"rental_uris": {"ios": "https://dc.lft.to/lastmile_qr_scan", "android": "https://dc.lft.to/lastmile_qr_scan"}, "fusion_lat": 0.0, "name": "e76b4f0d4a30a980bf87bad31b1cd616", "bike_id": "e76b4f0d4a30a980bf87bad31b1cd616", "is_disabled": 0, "type": "electric_scooter", "lat": 38.89222516666667, "lon": -77.0222025, "is_reserved": 0, "fusion_lon": 0.0}, {"rental_uris": {"ios": "https://dc.lft.to/lastmile_qr_scan", "android": "https://dc.lft.to/lastmile_qr_scan"}, "fusion_lat": 0.0, "name": "ab4144bc04a699659e63a27429e3fc0e", "bike_id": "ab4144bc04a699659e63a27429e3fc0e", "is_disabled": 0, "type": "electric_bike", "lat": 38.85205666666667, "lon": -76.98555266666666, "is_reserved": 0, "fusion_lon": 0.0}, {"rental_uris": {"ios": "https://dc.lft.to/lastmile_qr_scan", "android": "https://dc.lft.to/lastmile_qr_scan"}, "fusion_lat": 0.0, "name": "1ae9f4c7c7dd5d6006eee323b3789100", "bike_id": "1ae9f4c7c7dd5d6006eee323b3789100", "is_disabled": 0, "type": "electric_scooter", "lat": 38.92002433333333, "lon": -77.03215183333333, "is_reserved": 0, "fusion_lon": 0.0}, {"rental_uris": {"ios": "https://dc.lft.to/lastmile_qr_scan", "android": "https://dc.lft.to/lastmile_qr_scan"}, "fusion_lat": 0.0, "name": "af3e9ae29b65037abbc11696dae99cff", "bike_id": "af3e9ae29b65037abbc11696dae99cff", "is_disabled": 0, "type": "electric_scooter", "lat": 38.882691666666666, "lon": -76.9901665, "is_reserved": 0, "fusion_lon": 0.0}, {"rental_uris": {"ios": "https://dc.lft.to/lastmile_qr_scan", "android": "https://dc.lft.to/lastmile_qr_scan"}, "fusion_lat": 0.0, "name": "9a3d4a466b9de648665a109ddb86e949", "bike_id": "9a3d4a466b9de648665a109ddb86e949", "is_disabled": 0, "type": "electric_scooter", "lat": 38.93520766666666, "lon": -77.03261316666666, "is_reserved": 0, "fusion_lon": 0.0}, {"rental_uris": {"ios": "https://dc.lft.to/lastmile_qr_scan", "android": "https://dc.lft.to/lastmile_qr_scan"}, "fusion_lat": 0.0, "name": "a6e33c0d5041a43ac8da664a64505a04", "bike_id": "a6e33c0d5041a43ac8da664a64505a04", "is_disabled": 0, "type": "electric_scooter", "lat": 38.90413733333333, "lon": -77.0258585, "is_reserved": 0, "fusion_lon": 0.0}, {"rental_uris": {"ios": "https://dc.lft.to/lastmile_qr_scan", "android": "https://dc.lft.to/lastmile_qr_scan"}, "fusion_lat": 0.0, "name": "6cceef408dc0e82b0c50c4d29510e8b0", "bike_id": "6cceef408dc0e82b0c50c4d29510e8b0", "is_disabled": 0, "type": "electric_scooter", "lat": 38.92842, "lon": -77.01590516666667, "is_reserved": 0, "fusion_lon": 0.0}, {"rental_uris": {"ios": "https://dc.lft.to/lastmile_qr_scan", "android": "https://dc.lft.to/lastmile_qr_scan"}, "fusion_lat": 0.0, "name": "86570c8d65950c960b00b117e20773a9", "bike_id": "86570c8d65950c960b00b117e20773a9", "is_disabled": 0, "type": "electric_scooter", "lat": 38.902722, "lon": -77.04585016666667, "is_reserved": 0, "fusion_lon": 0.0}, {"rental_uris": {"ios": "https://dc.lft.to/lastmile_qr_scan", "android": "https://dc.lft.to/lastmile_qr_scan"}, "fusion_lat": 0.0, "name": "ae22f6682ad59617cf8398cdd645fac9", "bike_id": "ae22f6682ad59617cf8398cdd645fac9", "is_disabled": 0, "type": "electric_scooter", "lat": 38.93292816666667, "lon": -77.02193916666667, "is_reserved": 0, "fusion_lon": 0.0}, {"rental_uris": {"ios": "https://dc.lft.to/lastmile_qr_scan", "android": "https://dc.lft.to/lastmile_qr_scan"}, "fusion_lat": 0.0, "name": "ed5945a4caa6a19335d561ce7ffc2703", "bike_id": "ed5945a4caa6a19335d561ce7ffc2703", "is_disabled": 0, "type": "electric_scooter", "lat": 38.926355666666666, "lon": -77.02281083333334, "is_reserved": 0, "fusion_lon": 0.0}, {"rental_uris": {"ios": "https://dc.lft.to/lastmile_qr_scan", "android": "https://dc.lft.to/lastmile_qr_scan"}, "fusion_lat": 0.0, "name": "7032ee256211b7f06f11be83bd844454", "bike_id": "7032ee256211b7f06f11be83bd844454", "is_disabled": 0, "type": "electric_scooter", "lat": 38.864994, "lon": -76.9898285, "is_reserved": 0, "fusion_lon": 0.0}, {"rental_uris": {"ios": "https://dc.lft.to/lastmile_qr_scan", "android": "https://dc.lft.to/lastmile_qr_scan"}, "fusion_lat": 0.0, "name": "3c55f2a57dc418b1452273d37ec15780", "bike_id": "3c55f2a57dc418b1452273d37ec15780", "is_disabled": 0, "type": "electric_scooter", "lat": 38.93162783333333, "lon": -77.056149, "is_reserved": 0, "fusion_lon": 0.0}, {"rental_uris": {"ios": "https://dc.lft.to/lastmile_qr_scan", "android": "https://dc.lft.to/lastmile_qr_scan"}, "fusion_lat": 0.0, "name": "03e0204e8ea4e8685157f84319fefd47", "bike_id": "03e0204e8ea4e8685157f84319fefd47", "is_disabled": 0, "type": "electric_scooter", "lat": 38.92091833333333, "lon": -77.031881, "is_reserved": 0, "fusion_lon": 0.0}, {"rental_uris": {"ios": "https://dc.lft.to/lastmile_qr_scan", "android": "https://dc.lft.to/lastmile_qr_scan"}, "fusion_lat": 0.0, "name": "631bccb0e4199a98ea73063e6433b975", "bike_id": "631bccb0e4199a98ea73063e6433b975", "is_disabled": 0, "type": "electric_scooter", "lat": 38.89227783333333, "lon": -77.01375366666667, "is_reserved": 0, "fusion_lon": 0.0}, {"rental_uris": {"ios": "https://dc.lft.to/lastmile_qr_scan", "android": "https://dc.lft.to/lastmile_qr_scan"}, "fusion_lat": 0.0, "name": "fbf8b4b6304c6efc80aaeaf5c915afb0", "bike_id": "fbf8b4b6304c6efc80aaeaf5c915afb0", "is_disabled": 0, "type": "electric_scooter", "lat": 38.89520316666667, "lon": -77.024232, "is_reserved": 0, "fusion_lon": 0.0}, {"rental_uris": {"ios": "https://dc.lft.to/lastmile_qr_scan", "android": "https://dc.lft.to/lastmile_qr_scan"}, "fusion_lat": 0.0, "name": "bf18847f7f1e8a330cb1e91cf66c5443", "bike_id": "bf18847f7f1e8a330cb1e91cf66c5443", "is_disabled": 0, "type": "electric_scooter", "lat": 38.9170915, "lon": -77.02577516666666, "is_reserved": 0, "fusion_lon": 0.0}, {"rental_uris": {"ios": "https://dc.lft.to/lastmile_qr_scan", "android": "https://dc.lft.to/lastmile_qr_scan"}, "fusion_lat": 0.0, "name": "88e4809687bea43b6ba7edc369d7a7db", "bike_id": "88e4809687bea43b6ba7edc369d7a7db", "is_disabled": 0, "type": "electric_scooter", "lat": 38.90590183333333, "lon": -77.0385995, "is_reserved": 0, "fusion_lon": 0.0}, {"rental_uris": {"ios": "https://dc.lft.to/lastmile_qr_scan", "android": "https://dc.lft.to/lastmile_qr_scan"}, "fusion_lat": 0.0, "name": "0f9414df0d0f8f89afe4977a7df81caa", "bike_id": "0f9414df0d0f8f89afe4977a7df81caa", "is_disabled": 0, "type": "electric_scooter", "lat": 38.928313833333334, "lon": -77.03704016666667, "is_reserved": 0, "fusion_lon": 0.0}, {"rental_uris": {"ios": "https://dc.lft.to/lastmile_qr_scan", "android": "https://dc.lft.to/lastmile_qr_scan"}, "fusion_lat": 0.0, "name": "f8817d575afe52a103ecd1dd1dd3d53b", "bike_id": "f8817d575afe52a103ecd1dd1dd3d53b", "is_disabled": 0, "type": "electric_scooter", "lat": 38.92364116666667, "lon": -77.05126033333333, "is_reserved": 0, "fusion_lon": 0.0}, {"rental_uris": {"ios": "https://dc.lft.to/lastmile_qr_scan", "android": "https://dc.lft.to/lastmile_qr_scan"}, "fusion_lat": 0.0, "name": "6621b710ec84ee4dc2b369c6532a54c5", "bike_id": "6621b710ec84ee4dc2b369c6532a54c5", "is_disabled": 0, "type": "electric_scooter", "lat": 38.916881000000004, "lon": -77.0281155, "is_reserved": 0, "fusion_lon": 0.0}, {"rental_uris": {"ios": "https://dc.lft.to/lastmile_qr_scan", "android": "https://dc.lft.to/lastmile_qr_scan"}, "fusion_lat": 0.0, "name": "09dba7e7e1b8cf9ca0247ff965b124fe", "bike_id": "09dba7e7e1b8cf9ca0247ff965b124fe", "is_disabled": 0, "type": "electric_scooter", "lat": 38.892213166666664, "lon": -77.043333, "is_reserved": 0, "fusion_lon": 0.0}, {"rental_uris": {"ios": "https://dc.lft.to/lastmile_qr_scan", "android": "https://dc.lft.to/lastmile_qr_scan"}, "fusion_lat": 0.0, "name": "edb3a03c43aa3981ec3940d9f0a8f50f", "bike_id": "edb3a03c43aa3981ec3940d9f0a8f50f", "is_disabled": 0, "type": "electric_scooter", "lat": 38.87630566666667, "lon": -76.96522716666666, "is_reserved": 0, "fusion_lon": 0.0}, {"rental_uris": {"ios": "https://dc.lft.to/lastmile_qr_scan", "android": "https://dc.lft.to/lastmile_qr_scan"}, "fusion_lat": 0.0, "name": "266f4f9e6b31fcd6e093b2dbaff10680", "bike_id": "266f4f9e6b31fcd6e093b2dbaff10680", "is_disabled": 0, "type": "electric_scooter", "lat": 38.9542395, "lon": -77.02762166666666, "is_reserved": 0, "fusion_lon": 0.0}, {"rental_uris": {"ios": "https://dc.lft.to/lastmile_qr_scan", "android": "https://dc.lft.to/lastmile_qr_scan"}, "fusion_lat": 0.0, "name": "e38a49559d6786938b893bd7a586ff51", "bike_id": "e38a49559d6786938b893bd7a586ff51", "is_disabled": 0, "type": "electric_scooter", "lat": 38.924666, "lon": -77.05232633333334, "is_reserved": 0, "fusion_lon": 0.0}, {"rental_uris": {"ios": "https://dc.lft.to/lastmile_qr_scan", "android": "https://dc.lft.to/lastmile_qr_scan"}, "fusion_lat": 0.0, "name": "858636e090ba1263151fab26a45d347d", "bike_id": "858636e090ba1263151fab26a45d347d", "is_disabled": 0, "type": "electric_scooter", "lat": 38.892236833333335, "lon": -77.03214616666666, "is_reserved": 0, "fusion_lon": 0.0}, {"rental_uris": {"ios": "https://dc.lft.to/lastmile_qr_scan", "android": "https://dc.lft.to/lastmile_qr_scan"}, "fusion_lat": 0.0, "name": "71e01519b9515b4849e18f5681baad16", "bike_id": "71e01519b9515b4849e18f5681baad16", "is_disabled": 0, "type": "electric_scooter", "lat": 38.9078175, "lon": -77.03857333333333, "is_reserved": 0, "fusion_lon": 0.0}, {"rental_uris": {"ios": "https://dc.lft.to/lastmile_qr_scan", "android": "https://dc.lft.to/lastmile_qr_scan"}, "fusion_lat": 0.0, "name": "bf5dd4f6b8182356022645a011efc2de", "bike_id": "bf5dd4f6b8182356022645a011efc2de", "is_disabled": 0, "type": "electric_scooter", "lat": 38.92064466666667, "lon": -77.04190166666666, "is_reserved": 0, "fusion_lon": 0.0}, {"rental_uris": {"ios": "https://dc.lft.to/lastmile_qr_scan", "android": "https://dc.lft.to/lastmile_qr_scan"}, "fusion_lat": 0.0, "name": "0d4b02c66999ca7b92c08be217f0aed8", "bike_id": "0d4b02c66999ca7b92c08be217f0aed8", "is_disabled": 0, "type": "electric_scooter", "lat": 38.8950025, "lon": -76.94871866666666, "is_reserved": 0, "fusion_lon": 0.0}, {"rental_uris": {"ios": "https://dc.lft.to/lastmile_qr_scan", "android": "https://dc.lft.to/lastmile_qr_scan"}, "fusion_lat": 0.0, "name": "a134afdcf5920c6e98ae6631c12fdb9c", "bike_id": "a134afdcf5920c6e98ae6631c12fdb9c", "is_disabled": 0, "type": "electric_scooter", "lat": 38.90617266666667, "lon": -77.025981, "is_reserved": 0, "fusion_lon": 0.0}, {"rental_uris": {"ios": "https://dc.lft.to/lastmile_qr_scan", "android": "https://dc.lft.to/lastmile_qr_scan"}, "fusion_lat": 0.0, "name": "a032e104b22df4eac7d7353b85ac79d7", "bike_id": "a032e104b22df4eac7d7353b85ac79d7", "is_disabled": 0, "type": "electric_scooter", "lat": 38.906429833333334, "lon": -76.9950605, "is_reserved": 0, "fusion_lon": 0.0}, {"rental_uris": {"ios": "https://dc.lft.to/lastmile_qr_scan", "android": "https://dc.lft.to/lastmile_qr_scan"}, "fusion_lat": 0.0, "name": "f42f51daf47b7391ae3ed18f65b6403b", "bike_id": "f42f51daf47b7391ae3ed18f65b6403b", "is_disabled": 0, "type": "electric_scooter", "lat": 38.909740166666666, "lon": -77.03439283333333, "is_reserved": 0, "fusion_lon": 0.0}, {"rental_uris": {"ios": "https://dc.lft.to/lastmile_qr_scan", "android": "https://dc.lft.to/lastmile_qr_scan"}, "fusion_lat": 0.0, "name": "a6cdae700d221a249f053a4f91c830df", "bike_id": "a6cdae700d221a249f053a4f91c830df", "is_disabled": 0, "type": "electric_scooter", "lat": 38.90595316666667, "lon": -77.0414325, "is_reserved": 0, "fusion_lon": 0.0}, {"rental_uris": {"ios": "https://dc.lft.to/lastmile_qr_scan", "android": "https://dc.lft.to/lastmile_qr_scan"}, "fusion_lat": 0.0, "name": "6d7d5b8b9025ba28005958846729f094", "bike_id": "6d7d5b8b9025ba28005958846729f094", "is_disabled": 0, "type": "electric_scooter", "lat": 38.895233833333336, "lon": -77.00208083333334, "is_reserved": 0, "fusion_lon": 0.0}, {"rental_uris": {"ios": "https://dc.lft.to/lastmile_qr_scan", "android": "https://dc.lft.to/lastmile_qr_scan"}, "fusion_lat": 0.0, "name": "dcde5859175e56b8aa96cde064605199", "bike_id": "dcde5859175e56b8aa96cde064605199", "is_disabled": 0, "type": "electric_scooter", "lat": 38.917437, "lon": -77.02397583333334, "is_reserved": 0, "fusion_lon": 0.0}, {"rental_uris": {"ios": "https://dc.lft.to/lastmile_qr_scan", "android": "https://dc.lft.to/lastmile_qr_scan"}, "fusion_lat": 0.0, "name": "74af80e80d9098a3fb9133d0f7f1561f", "bike_id": "74af80e80d9098a3fb9133d0f7f1561f", "is_disabled": 0, "type": "electric_scooter", "lat": 38.88682333333333, "lon": -77.0136575, "is_reserved": 0, "fusion_lon": 0.0}, {"rental_uris": {"ios": "https://dc.lft.to/lastmile_qr_scan", "android": "https://dc.lft.to/lastmile_qr_scan"}, "fusion_lat": 0.0, "name": "476849a0585766206c3441fd3e1d28e8", "bike_id": "476849a0585766206c3441fd3e1d28e8", "is_disabled": 0, "type": "electric_scooter", "lat": 38.91184783333333, "lon": -77.04843566666666, "is_reserved": 0, "fusion_lon": 0.0}, {"rental_uris": {"ios": "https://dc.lft.to/lastmile_qr_scan", "android": "https://dc.lft.to/lastmile_qr_scan"}, "fusion_lat": 0.0, "name": "3d21dc3a8bba2f1d7713a1e663f29b1f", "bike_id": "3d21dc3a8bba2f1d7713a1e663f29b1f", "is_disabled": 0, "type": "electric_scooter", "lat": 38.9105125, "lon": -77.04082983333333, "is_reserved": 0, "fusion_lon": 0.0}, {"rental_uris": {"ios": "https://dc.lft.to/lastmile_qr_scan", "android": "https://dc.lft.to/lastmile_qr_scan"}, "fusion_lat": 0.0, "name": "05e1431d3c8edca56a0bc17c88b651fe", "bike_id": "05e1431d3c8edca56a0bc17c88b651fe", "is_disabled": 0, "type": "electric_bike", "lat": 38.819370666666664, "lon": -77.00204316666667, "is_reserved": 0, "fusion_lon": 0.0}, {"rental_uris": {"ios": "https://dc.lft.to/lastmile_qr_scan", "android": "https://dc.lft.to/lastmile_qr_scan"}, "fusion_lat": 0.0, "name": "f17fe9a3d6ad499cbac83869784e09ac", "bike_id": "f17fe9a3d6ad499cbac83869784e09ac", "is_disabled": 0, "type": "electric_scooter", "lat": 38.90603933333333, "lon": -77.02690066666666, "is_reserved": 0, "fusion_lon": 0.0}, {"rental_uris": {"ios": "https://dc.lft.to/lastmile_qr_scan", "android": "https://dc.lft.to/lastmile_qr_scan"}, "fusion_lat": 0.0, "name": "c5e9b0a3a968cb47f8a0d34e5133ed5e", "bike_id": "c5e9b0a3a968cb47f8a0d34e5133ed5e", "is_disabled": 0, "type": "electric_scooter", "lat": 38.909722, "lon": -77.03437333333333, "is_reserved": 0, "fusion_lon": 0.0}, {"rental_uris": {"ios": "https://dc.lft.to/lastmile_qr_scan", "android": "https://dc.lft.to/lastmile_qr_scan"}, "fusion_lat": 0.0, "name": "94e9938918f0e0bc6fa64ad2bf728099", "bike_id": "94e9938918f0e0bc6fa64ad2bf728099", "is_disabled": 0, "type": "electric_scooter", "lat": 38.90476566666667, "lon": -77.002159, "is_reserved": 0, "fusion_lon": 0.0}, {"rental_uris": {"ios": "https://dc.lft.to/lastmile_qr_scan", "android": "https://dc.lft.to/lastmile_qr_scan"}, "fusion_lat": 0.0, "name": "7eaff6506fa3bc7696c887ef65309aaa", "bike_id": "7eaff6506fa3bc7696c887ef65309aaa", "is_disabled": 0, "type": "electric_bike", "lat": 38.80501866666667, "lon": -77.04138216666666, "is_reserved": 0, "fusion_lon": 0.0}, {"rental_uris": {"ios": "https://dc.lft.to/lastmile_qr_scan", "android": "https://dc.lft.to/lastmile_qr_scan"}, "fusion_lat": 0.0, "name": "cda3333eff6a0389c4ab9c1c522cb65d", "bike_id": "cda3333eff6a0389c4ab9c1c522cb65d", "is_disabled": 0, "type": "electric_scooter", "lat": 38.922659, "lon": -77.042958, "is_reserved": 0, "fusion_lon": 0.0}, {"rental_uris": {"ios": "https://dc.lft.to/lastmile_qr_scan", "android": "https://dc.lft.to/lastmile_qr_scan"}, "fusion_lat": 0.0, "name": "84b8a66f1eef3f537ba3d8d73ca5417f", "bike_id": "84b8a66f1eef3f537ba3d8d73ca5417f", "is_disabled": 0, "type": "electric_scooter", "lat": 38.905787833333335, "lon": -77.04509583333333, "is_reserved": 0, "fusion_lon": 0.0}, {"rental_uris": {"ios": "https://dc.lft.to/lastmile_qr_scan", "android": "https://dc.lft.to/lastmile_qr_scan"}, "fusion_lat": 0.0, "name": "b6db0a8901b35ff328f54c20e98ae84e", "bike_id": "b6db0a8901b35ff328f54c20e98ae84e", "is_disabled": 0, "type": "electric_scooter", "lat": 38.95638483333333, "lon": -77.03293366666666, "is_reserved": 0, "fusion_lon": 0.0}, {"rental_uris": {"ios": "https://dc.lft.to/lastmile_qr_scan", "android": "https://dc.lft.to/lastmile_qr_scan"}, "fusion_lat": 0.0, "name": "244b28505f36013c24c9ce094651909a", "bike_id": "244b28505f36013c24c9ce094651909a", "is_disabled": 0, "type": "electric_bike", "lat": 38.88663416666667, "lon": -77.1622505, "is_reserved": 0, "fusion_lon": 0.0}, {"rental_uris": {"ios": "https://dc.lft.to/lastmile_qr_scan", "android": "https://dc.lft.to/lastmile_qr_scan"}, "fusion_lat": 0.0, "name": "4ea33e939df455514481b8d19e5d5b71", "bike_id": "4ea33e939df455514481b8d19e5d5b71", "is_disabled": 0, "type": "electric_scooter", "lat": 38.9112265, "lon": -77.02692333333333, "is_reserved": 0, "fusion_lon": 0.0}, {"rental_uris": {"ios": "https://dc.lft.to/lastmile_qr_scan", "android": "https://dc.lft.to/lastmile_qr_scan"}, "fusion_lat": 0.0, "name": "176b46ca28448f622aa825762dac0b25", "bike_id": "176b46ca28448f622aa825762dac0b25", "is_disabled": 0, "type": "electric_scooter", "lat": 38.93255, "lon": -76.99525883333334, "is_reserved": 0, "fusion_lon": 0.0}, {"rental_uris": {"ios": "https://dc.lft.to/lastmile_qr_scan", "android": "https://dc.lft.to/lastmile_qr_scan"}, "fusion_lat": 0.0, "name": "47058ffe5eb6b802815b4468bf7edbcc", "bike_id": "47058ffe5eb6b802815b4468bf7edbcc", "is_disabled": 0, "type": "electric_scooter", "lat": 38.866499833333336, "lon": -76.98886083333333, "is_reserved": 0, "fusion_lon": 0.0}, {"rental_uris": {"ios": "https://dc.lft.to/lastmile_qr_scan", "android": "https://dc.lft.to/lastmile_qr_scan"}, "fusion_lat": 0.0, "name": "6db36b1670ee0f329eb2147fe4636396", "bike_id": "6db36b1670ee0f329eb2147fe4636396", "is_disabled": 0, "type": "electric_scooter", "lat": 38.90234483333333, "lon": -77.05986633333333, "is_reserved": 0, "fusion_lon": 0.0}, {"rental_uris": {"ios": "https://dc.lft.to/lastmile_qr_scan", "android": "https://dc.lft.to/lastmile_qr_scan"}, "fusion_lat": 0.0, "name": "a1affa0271a387728ad78560d91f8d4f", "bike_id": "a1affa0271a387728ad78560d91f8d4f", "is_disabled": 0, "type": "electric_scooter", "lat": 38.903773666666666, "lon": -77.03208066666667, "is_reserved": 0, "fusion_lon": 0.0}, {"rental_uris": {"ios": "https://dc.lft.to/lastmile_qr_scan", "android": "https://dc.lft.to/lastmile_qr_scan"}, "fusion_lat": 0.0, "name": "f334264cd6326718fb5a03e49e34f30c", "bike_id": "f334264cd6326718fb5a03e49e34f30c", "is_disabled": 0, "type": "electric_scooter", "lat": 38.9254915, "lon": -77.05257233333333, "is_reserved": 0, "fusion_lon": 0.0}, {"rental_uris": {"ios": "https://dc.lft.to/lastmile_qr_scan", "android": "https://dc.lft.to/lastmile_qr_scan"}, "fusion_lat": 0.0, "name": "69ecb0fc2afe84aefd267a6ddc70a78b", "bike_id": "69ecb0fc2afe84aefd267a6ddc70a78b", "is_disabled": 0, "type": "electric_scooter", "lat": 38.893002333333335, "lon": -77.0418395, "is_reserved": 0, "fusion_lon": 0.0}, {"rental_uris": {"ios": "https://dc.lft.to/lastmile_qr_scan", "android": "https://dc.lft.to/lastmile_qr_scan"}, "fusion_lat": 0.0, "name": "327cb45decf3fac24bacae3980e411da", "bike_id": "327cb45decf3fac24bacae3980e411da", "is_disabled": 0, "type": "electric_scooter", "lat": 38.86932316666667, "lon": -76.9601125, "is_reserved": 0, "fusion_lon": 0.0}, {"rental_uris": {"ios": "https://dc.lft.to/lastmile_qr_scan", "android": "https://dc.lft.to/lastmile_qr_scan"}, "fusion_lat": 0.0, "name": "b3ca8a1522ae637726d51514e51fd7f5", "bike_id": "b3ca8a1522ae637726d51514e51fd7f5", "is_disabled": 0, "type": "electric_scooter", "lat": 38.92296966666667, "lon": -77.03660666666667, "is_reserved": 0, "fusion_lon": 0.0}, {"rental_uris": {"ios": "https://dc.lft.to/lastmile_qr_scan", "android": "https://dc.lft.to/lastmile_qr_scan"}, "fusion_lat": 0.0, "name": "82fedf0b7eb1bf2935cc22accedf867a", "bike_id": "82fedf0b7eb1bf2935cc22accedf867a", "is_disabled": 0, "type": "electric_bike", "lat": 38.932381666666664, "lon": -76.97422566666667, "is_reserved": 0, "fusion_lon": 0.0}, {"rental_uris": {"ios": "https://dc.lft.to/lastmile_qr_scan", "android": "https://dc.lft.to/lastmile_qr_scan"}, "fusion_lat": 0.0, "name": "76c14bfe0cb4202395fdafba0cb7878f", "bike_id": "76c14bfe0cb4202395fdafba0cb7878f", "is_disabled": 0, "type": "electric_scooter", "lat": 38.862416833333334, "lon": -76.994948, "is_reserved": 0, "fusion_lon": 0.0}, {"rental_uris": {"ios": "https://dc.lft.to/lastmile_qr_scan", "android": "https://dc.lft.to/lastmile_qr_scan"}, "fusion_lat": 0.0, "name": "c8695810052cc6f625e0082e53e8b972", "bike_id": "c8695810052cc6f625e0082e53e8b972", "is_disabled": 0, "type": "electric_scooter", "lat": 38.90266416666667, "lon": -77.04337916666667, "is_reserved": 0, "fusion_lon": 0.0}, {"rental_uris": {"ios": "https://dc.lft.to/lastmile_qr_scan", "android": "https://dc.lft.to/lastmile_qr_scan"}, "fusion_lat": 0.0, "name": "bcd27c027321684ea35227ce06ab3d28", "bike_id": "bcd27c027321684ea35227ce06ab3d28", "is_disabled": 0, "type": "electric_scooter", "lat": 38.90784166666667, "lon": -77.03848516666666, "is_reserved": 0, "fusion_lon": 0.0}, {"rental_uris": {"ios": "https://dc.lft.to/lastmile_qr_scan", "android": "https://dc.lft.to/lastmile_qr_scan"}, "fusion_lat": 0.0, "name": "d6dcd89dd07d202e4732b832eb5359e3", "bike_id": "d6dcd89dd07d202e4732b832eb5359e3", "is_disabled": 0, "type": "electric_scooter", "lat": 38.913755333333334, "lon": -77.03209766666667, "is_reserved": 0, "fusion_lon": 0.0}, {"rental_uris": {"ios": "https://dc.lft.to/lastmile_qr_scan", "android": "https://dc.lft.to/lastmile_qr_scan"}, "fusion_lat": 0.0, "name": "1c020957bb853ba7af171d61542b1f4b", "bike_id": "1c020957bb853ba7af171d61542b1f4b", "is_disabled": 0, "type": "electric_bike", "lat": 38.863686333333334, "lon": -76.97012816666667, "is_reserved": 0, "fusion_lon": 0.0}, {"rental_uris": {"ios": "https://dc.lft.to/lastmile_qr_scan", "android": "https://dc.lft.to/lastmile_qr_scan"}, "fusion_lat": 0.0, "name": "403618da27bbd78974217e53b07483c7", "bike_id": "403618da27bbd78974217e53b07483c7", "is_disabled": 0, "type": "electric_scooter", "lat": 38.8990505, "lon": -76.93351433333333, "is_reserved": 0, "fusion_lon": 0.0}, {"rental_uris": {"ios": "https://dc.lft.to/lastmile_qr_scan", "android": "https://dc.lft.to/lastmile_qr_scan"}, "fusion_lat": 0.0, "name": "dbb91b6be520901296f2e3792ae2c9dc", "bike_id": "dbb91b6be520901296f2e3792ae2c9dc", "is_disabled": 0, "type": "electric_scooter", "lat": 38.910372333333335, "lon": -77.0427285, "is_reserved": 0, "fusion_lon": 0.0}, {"rental_uris": {"ios": "https://dc.lft.to/lastmile_qr_scan", "android": "https://dc.lft.to/lastmile_qr_scan"}, "fusion_lat": 0.0, "name": "07aaf533d1779c80b7fb0f98037c7944", "bike_id": "07aaf533d1779c80b7fb0f98037c7944", "is_disabled": 0, "type": "electric_scooter", "lat": 38.909837333333336, "lon": -76.99483116666667, "is_reserved": 0, "fusion_lon": 0.0}, {"rental_uris": {"ios": "https://dc.lft.to/lastmile_qr_scan", "android": "https://dc.lft.to/lastmile_qr_scan"}, "fusion_lat": 0.0, "name": "ec9725c924f25cd0808ba67db356b68c", "bike_id": "ec9725c924f25cd0808ba67db356b68c", "is_disabled": 0, "type": "electric_scooter", "lat": 38.887426833333336, "lon": -77.025728, "is_reserved": 0, "fusion_lon": 0.0}, {"rental_uris": {"ios": "https://dc.lft.to/lastmile_qr_scan", "android": "https://dc.lft.to/lastmile_qr_scan"}, "fusion_lat": 0.0, "name": "abbf974dab2bf3a4a5c35ca5b90a8be6", "bike_id": "abbf974dab2bf3a4a5c35ca5b90a8be6", "is_disabled": 0, "type": "electric_bike", "lat": 38.82873566666667, "lon": -77.00838116666667, "is_reserved": 0, "fusion_lon": 0.0}, {"rental_uris": {"ios": "https://dc.lft.to/lastmile_qr_scan", "android": "https://dc.lft.to/lastmile_qr_scan"}, "fusion_lat": 0.0, "name": "aff20f1bc00a3978744c3ab6b6952f2c", "bike_id": "aff20f1bc00a3978744c3ab6b6952f2c", "is_disabled": 0, "type": "electric_scooter", "lat": 38.877947666666664, "lon": -77.00117483333334, "is_reserved": 0, "fusion_lon": 0.0}, {"rental_uris": {"ios": "https://dc.lft.to/lastmile_qr_scan", "android": "https://dc.lft.to/lastmile_qr_scan"}, "fusion_lat": 0.0, "name": "eea39c5b055999a015f61dcb26736d83", "bike_id": "eea39c5b055999a015f61dcb26736d83", "is_disabled": 0, "type": "electric_scooter", "lat": 38.91571033333334, "lon": -77.03205266666667, "is_reserved": 0, "fusion_lon": 0.0}, {"rental_uris": {"ios": "https://dc.lft.to/lastmile_qr_scan", "android": "https://dc.lft.to/lastmile_qr_scan"}, "fusion_lat": 0.0, "name": "d81a0ca33f6e1d6f81722fd411759247", "bike_id": "d81a0ca33f6e1d6f81722fd411759247", "is_disabled": 0, "type": "electric_scooter", "lat": 38.90357816666667, "lon": -77.04656466666667, "is_reserved": 0, "fusion_lon": 0.0}, {"rental_uris": {"ios": "https://dc.lft.to/lastmile_qr_scan", "android": "https://dc.lft.to/lastmile_qr_scan"}, "fusion_lat": 0.0, "name": "1b6f4659b9087cb4958a23e497208911", "bike_id": "1b6f4659b9087cb4958a23e497208911", "is_disabled": 0, "type": "electric_scooter", "lat": 38.92140883333333, "lon": -77.07304983333333, "is_reserved": 0, "fusion_lon": 0.0}, {"rental_uris": {"ios": "https://dc.lft.to/lastmile_qr_scan", "android": "https://dc.lft.to/lastmile_qr_scan"}, "fusion_lat": 0.0, "name": "8ecac63fb016ddbe76de175ac432cbf2", "bike_id": "8ecac63fb016ddbe76de175ac432cbf2", "is_disabled": 0, "type": "electric_scooter", "lat": 38.910560333333336, "lon": -77.04167283333334, "is_reserved": 0, "fusion_lon": 0.0}, {"rental_uris": {"ios": "https://dc.lft.to/lastmile_qr_scan", "android": "https://dc.lft.to/lastmile_qr_scan"}, "fusion_lat": 0.0, "name": "fea1af3c5cce0bca82806005c6d382a3", "bike_id": "fea1af3c5cce0bca82806005c6d382a3", "is_disabled": 0, "type": "electric_bike", "lat": 39.0304945, "lon": -77.09481916666667, "is_reserved": 0, "fusion_lon": 0.0}, {"rental_uris": {"ios": "https://dc.lft.to/lastmile_qr_scan", "android": "https://dc.lft.to/lastmile_qr_scan"}, "fusion_lat": 0.0, "name": "d8ce9955b07552a4c286081ca1e0fc93", "bike_id": "d8ce9955b07552a4c286081ca1e0fc93", "is_disabled": 0, "type": "electric_scooter", "lat": 38.87572466666667, "lon": -77.0207635, "is_reserved": 0, "fusion_lon": 0.0}, {"rental_uris": {"ios": "https://dc.lft.to/lastmile_qr_scan", "android": "https://dc.lft.to/lastmile_qr_scan"}, "fusion_lat": 0.0, "name": "b34a1eabf3d91463907e98efa61758de", "bike_id": "b34a1eabf3d91463907e98efa61758de", "is_disabled": 0, "type": "electric_scooter", "lat": 38.9134275, "lon": -77.04881933333333, "is_reserved": 0, "fusion_lon": 0.0}, {"rental_uris": {"ios": "https://dc.lft.to/lastmile_qr_scan", "android": "https://dc.lft.to/lastmile_qr_scan"}, "fusion_lat": 0.0, "name": "ae56d4c65167f4acb2428a2ba0d399c8", "bike_id": "ae56d4c65167f4acb2428a2ba0d399c8", "is_disabled": 0, "type": "electric_scooter", "lat": 38.9057205, "lon": -77.000724, "is_reserved": 0, "fusion_lon": 0.0}, {"rental_uris": {"ios": "https://dc.lft.to/lastmile_qr_scan", "android": "https://dc.lft.to/lastmile_qr_scan"}, "fusion_lat": 0.0, "name": "2c6336c9096ff40bf95136a47f65dbbf", "bike_id": "2c6336c9096ff40bf95136a47f65dbbf", "is_disabled": 0, "type": "electric_scooter", "lat": 38.8843645, "lon": -77.0303495, "is_reserved": 0, "fusion_lon": 0.0}, {"rental_uris": {"ios": "https://dc.lft.to/lastmile_qr_scan", "android": "https://dc.lft.to/lastmile_qr_scan"}, "fusion_lat": 0.0, "name": "eb1d8a111c246f411cccb0020e936307", "bike_id": "eb1d8a111c246f411cccb0020e936307", "is_disabled": 0, "type": "electric_scooter", "lat": 38.916838, "lon": -77.02976133333334, "is_reserved": 0, "fusion_lon": 0.0}, {"rental_uris": {"ios": "https://dc.lft.to/lastmile_qr_scan", "android": "https://dc.lft.to/lastmile_qr_scan"}, "fusion_lat": 0.0, "name": "654bddf6a766d7d0c99d189407124aad", "bike_id": "654bddf6a766d7d0c99d189407124aad", "is_disabled": 0, "type": "electric_scooter", "lat": 38.92069033333333, "lon": -76.995328, "is_reserved": 0, "fusion_lon": 0.0}, {"rental_uris": {"ios": "https://dc.lft.to/lastmile_qr_scan", "android": "https://dc.lft.to/lastmile_qr_scan"}, "fusion_lat": 0.0, "name": "f3708fa519623509d182dcc65ac76bde", "bike_id": "f3708fa519623509d182dcc65ac76bde", "is_disabled": 0, "type": "electric_scooter", "lat": 38.924748666666666, "lon": -77.0355465, "is_reserved": 0, "fusion_lon": 0.0}, {"rental_uris": {"ios": "https://dc.lft.to/lastmile_qr_scan", "android": "https://dc.lft.to/lastmile_qr_scan"}, "fusion_lat": 0.0, "name": "9046615792e52f929aba8ce220bd6bb5", "bike_id": "9046615792e52f929aba8ce220bd6bb5", "is_disabled": 0, "type": "electric_scooter", "lat": 38.904109166666665, "lon": -76.973293, "is_reserved": 0, "fusion_lon": 0.0}, {"rental_uris": {"ios": "https://dc.lft.to/lastmile_qr_scan", "android": "https://dc.lft.to/lastmile_qr_scan"}, "fusion_lat": 0.0, "name": "e31279e8b414b0651b76ff8c4b8af1c4", "bike_id": "e31279e8b414b0651b76ff8c4b8af1c4", "is_disabled": 0, "type": "electric_scooter", "lat": 38.917404, "lon": -77.02388883333333, "is_reserved": 0, "fusion_lon": 0.0}, {"rental_uris": {"ios": "https://dc.lft.to/lastmile_qr_scan", "android": "https://dc.lft.to/lastmile_qr_scan"}, "fusion_lat": 0.0, "name": "c22d1385cd0819d468c8b55ea0e27f87", "bike_id": "c22d1385cd0819d468c8b55ea0e27f87", "is_disabled": 0, "type": "electric_scooter", "lat": 38.893982666666666, "lon": -77.05002866666666, "is_reserved": 0, "fusion_lon": 0.0}, {"rental_uris": {"ios": "https://dc.lft.to/lastmile_qr_scan", "android": "https://dc.lft.to/lastmile_qr_scan"}, "fusion_lat": 0.0, "name": "a6ff5a16569c2ffb63c2802ef73c1661", "bike_id": "a6ff5a16569c2ffb63c2802ef73c1661", "is_disabled": 0, "type": "electric_scooter", "lat": 38.914950166666664, "lon": -76.98359866666667, "is_reserved": 0, "fusion_lon": 0.0}, {"rental_uris": {"ios": "https://dc.lft.to/lastmile_qr_scan", "android": "https://dc.lft.to/lastmile_qr_scan"}, "fusion_lat": 0.0, "name": "d65b3c6459a8f6c6ca21631d270bc38c", "bike_id": "d65b3c6459a8f6c6ca21631d270bc38c", "is_disabled": 0, "type": "electric_scooter", "lat": 38.925389833333334, "lon": -77.02632683333333, "is_reserved": 0, "fusion_lon": 0.0}, {"rental_uris": {"ios": "https://dc.lft.to/lastmile_qr_scan", "android": "https://dc.lft.to/lastmile_qr_scan"}, "fusion_lat": 0.0, "name": "bb0ad10a4aa8d23f92393f2bd50cda46", "bike_id": "bb0ad10a4aa8d23f92393f2bd50cda46", "is_disabled": 0, "type": "electric_scooter", "lat": 38.915521, "lon": -77.00755283333334, "is_reserved": 0, "fusion_lon": 0.0}, {"rental_uris": {"ios": "https://dc.lft.to/lastmile_qr_scan", "android": "https://dc.lft.to/lastmile_qr_scan"}, "fusion_lat": 0.0, "name": "1493e7a27984b3ff4f348bf71b4e5d38", "bike_id": "1493e7a27984b3ff4f348bf71b4e5d38", "is_disabled": 0, "type": "electric_scooter", "lat": 38.904212666666666, "lon": -77.02190216666666, "is_reserved": 0, "fusion_lon": 0.0}, {"rental_uris": {"ios": "https://dc.lft.to/lastmile_qr_scan", "android": "https://dc.lft.to/lastmile_qr_scan"}, "fusion_lat": 0.0, "name": "9e7343436098a940818b9d71286d1687", "bike_id": "9e7343436098a940818b9d71286d1687", "is_disabled": 0, "type": "electric_scooter", "lat": 38.883636, "lon": -76.94153866666667, "is_reserved": 0, "fusion_lon": 0.0}, {"rental_uris": {"ios": "https://dc.lft.to/lastmile_qr_scan", "android": "https://dc.lft.to/lastmile_qr_scan"}, "fusion_lat": 0.0, "name": "b1ef2ef5a2d818ea21270e7da3bb272d", "bike_id": "b1ef2ef5a2d818ea21270e7da3bb272d", "is_disabled": 0, "type": "electric_scooter", "lat": 38.917231, "lon": -77.04174433333333, "is_reserved": 0, "fusion_lon": 0.0}, {"rental_uris": {"ios": "https://dc.lft.to/lastmile_qr_scan", "android": "https://dc.lft.to/lastmile_qr_scan"}, "fusion_lat": 0.0, "name": "30381cb70fa24faef5ebef62f6f769de", "bike_id": "30381cb70fa24faef5ebef62f6f769de", "is_disabled": 0, "type": "electric_scooter", "lat": 38.9360405, "lon": -77.05858516666666, "is_reserved": 0, "fusion_lon": 0.0}, {"rental_uris": {"ios": "https://dc.lft.to/lastmile_qr_scan", "android": "https://dc.lft.to/lastmile_qr_scan"}, "fusion_lat": 0.0, "name": "c4a1ce556e86a61f5029a0ee5fcb67c9", "bike_id": "c4a1ce556e86a61f5029a0ee5fcb67c9", "is_disabled": 0, "type": "electric_bike", "lat": 38.958952, "lon": -76.92500783333334, "is_reserved": 0, "fusion_lon": 0.0}, {"rental_uris": {"ios": "https://dc.lft.to/lastmile_qr_scan", "android": "https://dc.lft.to/lastmile_qr_scan"}, "fusion_lat": 0.0, "name": "a50885e94c04ceb83dfacec86772fb03", "bike_id": "a50885e94c04ceb83dfacec86772fb03", "is_disabled": 0, "type": "electric_scooter", "lat": 38.899016833333334, "lon": -77.03948133333333, "is_reserved": 0, "fusion_lon": 0.0}, {"rental_uris": {"ios": "https://dc.lft.to/lastmile_qr_scan", "android": "https://dc.lft.to/lastmile_qr_scan"}, "fusion_lat": 0.0, "name": "07da5a8d0895cc3db71b2f4f4ff10452", "bike_id": "07da5a8d0895cc3db71b2f4f4ff10452", "is_disabled": 0, "type": "electric_scooter", "lat": 38.87630516666667, "lon": -76.96529233333334, "is_reserved": 0, "fusion_lon": 0.0}, {"rental_uris": {"ios": "https://dc.lft.to/lastmile_qr_scan", "android": "https://dc.lft.to/lastmile_qr_scan"}, "fusion_lat": 0.0, "name": "e49461f497ff04835057351b06266160", "bike_id": "e49461f497ff04835057351b06266160", "is_disabled": 0, "type": "electric_scooter", "lat": 38.89222133333333, "lon": -77.013688, "is_reserved": 0, "fusion_lon": 0.0}, {"rental_uris": {"ios": "https://dc.lft.to/lastmile_qr_scan", "android": "https://dc.lft.to/lastmile_qr_scan"}, "fusion_lat": 0.0, "name": "fa1fe752a2925b6a773a27c1f264621e", "bike_id": "fa1fe752a2925b6a773a27c1f264621e", "is_disabled": 0, "type": "electric_scooter", "lat": 38.90123, "lon": -77.033718, "is_reserved": 0, "fusion_lon": 0.0}, {"rental_uris": {"ios": "https://dc.lft.to/lastmile_qr_scan", "android": "https://dc.lft.to/lastmile_qr_scan"}, "fusion_lat": 0.0, "name": "61e676d6e1eaad8dc47d20579033d55f", "bike_id": "61e676d6e1eaad8dc47d20579033d55f", "is_disabled": 0, "type": "electric_scooter", "lat": 38.9170905, "lon": -77.03721466666667, "is_reserved": 0, "fusion_lon": 0.0}, {"rental_uris": {"ios": "https://dc.lft.to/lastmile_qr_scan", "android": "https://dc.lft.to/lastmile_qr_scan"}, "fusion_lat": 0.0, "name": "217c8c36c9e28a0376231c0fa21de8bc", "bike_id": "217c8c36c9e28a0376231c0fa21de8bc", "is_disabled": 0, "type": "electric_scooter", "lat": 38.9155585, "lon": -77.03860216666666, "is_reserved": 0, "fusion_lon": 0.0}, {"rental_uris": {"ios": "https://dc.lft.to/lastmile_qr_scan", "android": "https://dc.lft.to/lastmile_qr_scan"}, "fusion_lat": 0.0, "name": "257c46f7571b083cda23f8346a55543b", "bike_id": "257c46f7571b083cda23f8346a55543b", "is_disabled": 0, "type": "electric_scooter", "lat": 38.91274266666667, "lon": -77.02218433333333, "is_reserved": 0, "fusion_lon": 0.0}, {"rental_uris": {"ios": "https://dc.lft.to/lastmile_qr_scan", "android": "https://dc.lft.to/lastmile_qr_scan"}, "fusion_lat": 0.0, "name": "e647aafb983342642168a4af84cf56c7", "bike_id": "e647aafb983342642168a4af84cf56c7", "is_disabled": 0, "type": "electric_scooter", "lat": 38.9121865, "lon": -77.04109533333333, "is_reserved": 0, "fusion_lon": 0.0}, {"rental_uris": {"ios": "https://dc.lft.to/lastmile_qr_scan", "android": "https://dc.lft.to/lastmile_qr_scan"}, "fusion_lat": 0.0, "name": "82b31a709034c3298b4b52ed2a815a6b", "bike_id": "82b31a709034c3298b4b52ed2a815a6b", "is_disabled": 0, "type": "electric_scooter", "lat": 38.90739766666667, "lon": -77.02715833333333, "is_reserved": 0, "fusion_lon": 0.0}, {"rental_uris": {"ios": "https://dc.lft.to/lastmile_qr_scan", "android": "https://dc.lft.to/lastmile_qr_scan"}, "fusion_lat": 0.0, "name": "4b142fc607cc96b9972af3c2225b392c", "bike_id": "4b142fc607cc96b9972af3c2225b392c", "is_disabled": 0, "type": "electric_scooter", "lat": 38.8991185, "lon": -77.03324133333334, "is_reserved": 0, "fusion_lon": 0.0}, {"rental_uris": {"ios": "https://dc.lft.to/lastmile_qr_scan", "android": "https://dc.lft.to/lastmile_qr_scan"}, "fusion_lat": 0.0, "name": "705a7c7432daff098fe534518ee616de", "bike_id": "705a7c7432daff098fe534518ee616de", "is_disabled": 0, "type": "electric_scooter", "lat": 38.915670166666665, "lon": -77.02000216666667, "is_reserved": 0, "fusion_lon": 0.0}, {"rental_uris": {"ios": "https://dc.lft.to/lastmile_qr_scan", "android": "https://dc.lft.to/lastmile_qr_scan"}, "fusion_lat": 0.0, "name": "a97ab2f0bc4a610d1f45ad1c43ff0d9f", "bike_id": "a97ab2f0bc4a610d1f45ad1c43ff0d9f", "is_disabled": 0, "type": "electric_scooter", "lat": 38.892306, "lon": -77.02804366666666, "is_reserved": 0, "fusion_lon": 0.0}, {"rental_uris": {"ios": "https://dc.lft.to/lastmile_qr_scan", "android": "https://dc.lft.to/lastmile_qr_scan"}, "fusion_lat": 0.0, "name": "1ace4c25590e8ea5d6c5bc6b5dc3af46", "bike_id": "1ace4c25590e8ea5d6c5bc6b5dc3af46", "is_disabled": 0, "type": "electric_scooter", "lat": 38.84072916666667, "lon": -76.98924666666667, "is_reserved": 0, "fusion_lon": 0.0}, {"rental_uris": {"ios": "https://dc.lft.to/lastmile_qr_scan", "android": "https://dc.lft.to/lastmile_qr_scan"}, "fusion_lat": 0.0, "name": "ed334dccd982c6cabd490d1c434dabf4", "bike_id": "ed334dccd982c6cabd490d1c434dabf4", "is_disabled": 0, "type": "electric_scooter", "lat": 38.919182666666664, "lon": -77.02470083333333, "is_reserved": 0, "fusion_lon": 0.0}, {"rental_uris": {"ios": "https://dc.lft.to/lastmile_qr_scan", "android": "https://dc.lft.to/lastmile_qr_scan"}, "fusion_lat": 0.0, "name": "29e6a2f06f511bc718adf705c50ae25e", "bike_id": "29e6a2f06f511bc718adf705c50ae25e", "is_disabled": 0, "type": "electric_scooter", "lat": 38.89221933333334, "lon": -77.043304, "is_reserved": 0, "fusion_lon": 0.0}, {"rental_uris": {"ios": "https://dc.lft.to/lastmile_qr_scan", "android": "https://dc.lft.to/lastmile_qr_scan"}, "fusion_lat": 0.0, "name": "de7fd3c5e9401994f501979833c5cf66", "bike_id": "de7fd3c5e9401994f501979833c5cf66", "is_disabled": 0, "type": "electric_scooter", "lat": 38.949606333333335, "lon": -77.02721566666666, "is_reserved": 0, "fusion_lon": 0.0}, {"rental_uris": {"ios": "https://dc.lft.to/lastmile_qr_scan", "android": "https://dc.lft.to/lastmile_qr_scan"}, "fusion_lat": 0.0, "name": "49ccd9f14e671b13c660ce8130b3a752", "bike_id": "49ccd9f14e671b13c660ce8130b3a752", "is_disabled": 0, "type": "electric_scooter", "lat": 38.89224166666666, "lon": -77.03341066666667, "is_reserved": 0, "fusion_lon": 0.0}, {"rental_uris": {"ios": "https://dc.lft.to/lastmile_qr_scan", "android": "https://dc.lft.to/lastmile_qr_scan"}, "fusion_lat": 0.0, "name": "5a08b95f47be6d323f8f3584699046a5", "bike_id": "5a08b95f47be6d323f8f3584699046a5", "is_disabled": 0, "type": "electric_scooter", "lat": 38.95166116666667, "lon": -77.02748433333333, "is_reserved": 0, "fusion_lon": 0.0}, {"rental_uris": {"ios": "https://dc.lft.to/lastmile_qr_scan", "android": "https://dc.lft.to/lastmile_qr_scan"}, "fusion_lat": 0.0, "name": "1c661d99e7274b4d1662558c8d4330a1", "bike_id": "1c661d99e7274b4d1662558c8d4330a1", "is_disabled": 0, "type": "electric_scooter", "lat": 38.9251005, "lon": -77.02360616666667, "is_reserved": 0, "fusion_lon": 0.0}, {"rental_uris": {"ios": "https://dc.lft.to/lastmile_qr_scan", "android": "https://dc.lft.to/lastmile_qr_scan"}, "fusion_lat": 0.0, "name": "22428977f42ac578bbb70b050bafc9b6", "bike_id": "22428977f42ac578bbb70b050bafc9b6", "is_disabled": 0, "type": "electric_scooter", "lat": 38.86712433333334, "lon": -76.98724516666667, "is_reserved": 0, "fusion_lon": 0.0}, {"rental_uris": {"ios": "https://dc.lft.to/lastmile_qr_scan", "android": "https://dc.lft.to/lastmile_qr_scan"}, "fusion_lat": 0.0, "name": "aa568c681f28fc4dca354cb4176d9462", "bike_id": "aa568c681f28fc4dca354cb4176d9462", "is_disabled": 0, "type": "electric_scooter", "lat": 38.9313185, "lon": -77.03255883333334, "is_reserved": 0, "fusion_lon": 0.0}, {"rental_uris": {"ios": "https://dc.lft.to/lastmile_qr_scan", "android": "https://dc.lft.to/lastmile_qr_scan"}, "fusion_lat": 0.0, "name": "5ed354c4cf4f63469df6f9278102bb77", "bike_id": "5ed354c4cf4f63469df6f9278102bb77", "is_disabled": 0, "type": "electric_scooter", "lat": 38.922988, "lon": -77.04145166666666, "is_reserved": 0, "fusion_lon": 0.0}, {"rental_uris": {"ios": "https://dc.lft.to/lastmile_qr_scan", "android": "https://dc.lft.to/lastmile_qr_scan"}, "fusion_lat": 0.0, "name": "0d221c7a42c03c1d75107791178ad424", "bike_id": "0d221c7a42c03c1d75107791178ad424", "is_disabled": 0, "type": "electric_scooter", "lat": 38.897687833333336, "lon": -77.031833, "is_reserved": 0, "fusion_lon": 0.0}, {"rental_uris": {"ios": "https://dc.lft.to/lastmile_qr_scan", "android": "https://dc.lft.to/lastmile_qr_scan"}, "fusion_lat": 0.0, "name": "d2fac4838b83f542991fc363706644ac", "bike_id": "d2fac4838b83f542991fc363706644ac", "is_disabled": 0, "type": "electric_scooter", "lat": 38.917409, "lon": -77.031832, "is_reserved": 0, "fusion_lon": 0.0}, {"rental_uris": {"ios": "https://dc.lft.to/lastmile_qr_scan", "android": "https://dc.lft.to/lastmile_qr_scan"}, "fusion_lat": 0.0, "name": "abfafa9f1d10e0db520e28dacff6df3c", "bike_id": "abfafa9f1d10e0db520e28dacff6df3c", "is_disabled": 0, "type": "electric_scooter", "lat": 38.916726833333335, "lon": -77.03683916666667, "is_reserved": 0, "fusion_lon": 0.0}, {"rental_uris": {"ios": "https://dc.lft.to/lastmile_qr_scan", "android": "https://dc.lft.to/lastmile_qr_scan"}, "fusion_lat": 0.0, "name": "e0275686f3a23d4233b80e22eaa95777", "bike_id": "e0275686f3a23d4233b80e22eaa95777", "is_disabled": 0, "type": "electric_scooter", "lat": 38.931157, "lon": -77.02087066666667, "is_reserved": 0, "fusion_lon": 0.0}, {"rental_uris": {"ios": "https://dc.lft.to/lastmile_qr_scan", "android": "https://dc.lft.to/lastmile_qr_scan"}, "fusion_lat": 0.0, "name": "f89d9d6a10a68ef8d5b2ed4b60114e7b", "bike_id": "f89d9d6a10a68ef8d5b2ed4b60114e7b", "is_disabled": 0, "type": "electric_scooter", "lat": 38.89775216666666, "lon": -77.03171133333333, "is_reserved": 0, "fusion_lon": 0.0}, {"rental_uris": {"ios": "https://dc.lft.to/lastmile_qr_scan", "android": "https://dc.lft.to/lastmile_qr_scan"}, "fusion_lat": 0.0, "name": "862849e9f4c1c0e012c68a11f213ee0e", "bike_id": "862849e9f4c1c0e012c68a11f213ee0e", "is_disabled": 0, "type": "electric_scooter", "lat": 38.9127015, "lon": -77.03649883333334, "is_reserved": 0, "fusion_lon": 0.0}, {"rental_uris": {"ios": "https://dc.lft.to/lastmile_qr_scan", "android": "https://dc.lft.to/lastmile_qr_scan"}, "fusion_lat": 0.0, "name": "303fc9b46767a4f2728605285cd95bee", "bike_id": "303fc9b46767a4f2728605285cd95bee", "is_disabled": 0, "type": "electric_scooter", "lat": 38.910742166666665, "lon": -77.027207, "is_reserved": 0, "fusion_lon": 0.0}, {"rental_uris": {"ios": "https://dc.lft.to/lastmile_qr_scan", "android": "https://dc.lft.to/lastmile_qr_scan"}, "fusion_lat": 0.0, "name": "75a58b54c436772041ec055368d8928d", "bike_id": "75a58b54c436772041ec055368d8928d", "is_disabled": 0, "type": "electric_scooter", "lat": 38.884072, "lon": -77.01515816666667, "is_reserved": 0, "fusion_lon": 0.0}, {"rental_uris": {"ios": "https://dc.lft.to/lastmile_qr_scan", "android": "https://dc.lft.to/lastmile_qr_scan"}, "fusion_lat": 0.0, "name": "4ee4a7eff9e82d9e3448e2908a746a98", "bike_id": "4ee4a7eff9e82d9e3448e2908a746a98", "is_disabled": 0, "type": "electric_scooter", "lat": 38.901550666666665, "lon": -77.043524, "is_reserved": 0, "fusion_lon": 0.0}, {"rental_uris": {"ios": "https://dc.lft.to/lastmile_qr_scan", "android": "https://dc.lft.to/lastmile_qr_scan"}, "fusion_lat": 0.0, "name": "864e6a8f6f242f49bb0b6f78f946ad5b", "bike_id": "864e6a8f6f242f49bb0b6f78f946ad5b", "is_disabled": 0, "type": "electric_bike", "lat": 38.869964833333334, "lon": -77.06566633333334, "is_reserved": 0, "fusion_lon": 0.0}, {"rental_uris": {"ios": "https://dc.lft.to/lastmile_qr_scan", "android": "https://dc.lft.to/lastmile_qr_scan"}, "fusion_lat": 0.0, "name": "c9d718d8ee2cce6b9838f1489feeacaf", "bike_id": "c9d718d8ee2cce6b9838f1489feeacaf", "is_disabled": 0, "type": "electric_scooter", "lat": 38.925803333333334, "lon": -77.03987733333334, "is_reserved": 0, "fusion_lon": 0.0}, {"rental_uris": {"ios": "https://dc.lft.to/lastmile_qr_scan", "android": "https://dc.lft.to/lastmile_qr_scan"}, "fusion_lat": 0.0, "name": "ab372c75fc9616dd7b6dcdb4086fc1f7", "bike_id": "ab372c75fc9616dd7b6dcdb4086fc1f7", "is_disabled": 0, "type": "electric_scooter", "lat": 38.91595683333333, "lon": -77.02965633333334, "is_reserved": 0, "fusion_lon": 0.0}, {"rental_uris": {"ios": "https://dc.lft.to/lastmile_qr_scan", "android": "https://dc.lft.to/lastmile_qr_scan"}, "fusion_lat": 0.0, "name": "c24758943c65eaeb53af11e87b46ef7f", "bike_id": "c24758943c65eaeb53af11e87b46ef7f", "is_disabled": 0, "type": "electric_scooter", "lat": 38.9177735, "lon": -77.0363845, "is_reserved": 0, "fusion_lon": 0.0}, {"rental_uris": {"ios": "https://dc.lft.to/lastmile_qr_scan", "android": "https://dc.lft.to/lastmile_qr_scan"}, "fusion_lat": 0.0, "name": "97e657c58f704ba2c57ff6dab39fc9b5", "bike_id": "97e657c58f704ba2c57ff6dab39fc9b5", "is_disabled": 0, "type": "electric_scooter", "lat": 38.906007833333334, "lon": -77.0060275, "is_reserved": 0, "fusion_lon": 0.0}, {"rental_uris": {"ios": "https://dc.lft.to/lastmile_qr_scan", "android": "https://dc.lft.to/lastmile_qr_scan"}, "fusion_lat": 0.0, "name": "bc989f594e546ffd8d911a6dc0377bae", "bike_id": "bc989f594e546ffd8d911a6dc0377bae", "is_disabled": 0, "type": "electric_scooter", "lat": 38.903637, "lon": -77.04514966666666, "is_reserved": 0, "fusion_lon": 0.0}, {"rental_uris": {"ios": "https://dc.lft.to/lastmile_qr_scan", "android": "https://dc.lft.to/lastmile_qr_scan"}, "fusion_lat": 0.0, "name": "e63619732c6ffe88badb7a53d0ea96be", "bike_id": "e63619732c6ffe88badb7a53d0ea96be", "is_disabled": 0, "type": "electric_scooter", "lat": 38.9210175, "lon": -77.04383266666666, "is_reserved": 0, "fusion_lon": 0.0}, {"rental_uris": {"ios": "https://dc.lft.to/lastmile_qr_scan", "android": "https://dc.lft.to/lastmile_qr_scan"}, "fusion_lat": 0.0, "name": "b041dc11ae4071b03eaecf05f8f43f62", "bike_id": "b041dc11ae4071b03eaecf05f8f43f62", "is_disabled": 0, "type": "electric_scooter", "lat": 38.887331333333336, "lon": -77.01530516666666, "is_reserved": 0, "fusion_lon": 0.0},