{"data": {"bikes": [{"fusion_lat": 0.0, "lon": -76.99479616666666, "is_reserved": 0, "bike_id": "abb3209a98fea927206ba1ec44fbf189", "fusion_lon": 0.0, "rental_uris": {"android": "https://dc.lft.to/lastmile_qr_scan", "ios": "https://dc.lft.to/lastmile_qr_scan"}, "name": "abb3209a98fea927206ba1ec44fbf189", "type": "electric_scooter", "lat": 38.86215516666667, "is_disabled": 0}, {"fusion_lat": 0.0, "lon": -77.043743, "is_reserved": 0, "bike_id": "dba0dba57088cd64db577832200c2387", "fusion_lon": 0.0, "rental_uris": {"android": "https://dc.lft.to/lastmile_qr_scan", "ios": "https://dc.lft.to/lastmile_qr_scan"}, "name": "dba0dba57088cd64db577832200c2387", "type": "electric_scooter", "lat": 38.902083833333336, "is_disabled": 0}, {"fusion_lat": 0.0, "lon": -77.046685, "is_reserved": 0, "bike_id": "7dc3b29f5f68d78c9a1c40fe318c2542", "fusion_lon": 0.0, "rental_uris": {"android": "https://dc.lft.to/lastmile_qr_scan", "ios": "https://dc.lft.to/lastmile_qr_scan"}, "name": "7dc3b29f5f68d78c9a1c40fe318c2542", "type": "electric_scooter", "lat": 38.8974105, "is_disabled": 0}, {"fusion_lat": 0.0, "lon": -77.13931616666666, "is_reserved": 0, "bike_id": "09f9046d855f682d9a89134e3c373803", "fusion_lon": 0.0, "rental_uris": {"android": "https://dc.lft.to/lastmile_qr_scan", "ios": "https://dc.lft.to/lastmile_qr_scan"}, "name": "09f9046d855f682d9a89134e3c373803", "type": "electric_bike", "lat": 38.872987333333334, "is_disabled": 0}, {"fusion_lat": 0.0, "lon": -77.0166935, "is_reserved": 0, "bike_id": "15f08bd26f759828451175f739fd0360", "fusion_lon": 0.0, "rental_uris": {"android": "https://dc.lft.to/lastmile_qr_scan", "ios": "https://dc.lft.to/lastmile_qr_scan"}, "name": "15f08bd26f759828451175f739fd0360", "type": "electric_scooter", "lat": 38.88130066666667, "is_disabled": 0}, {"fusion_lat": 0.0, "lon": -76.99938066666667, "is_reserved": 0, "bike_id": "4dc95b1ff1c03b7191b96ddd61dd04d9", "fusion_lon": 0.0, "rental_uris": {"android": "https://dc.lft.to/lastmile_qr_scan", "ios": "https://dc.lft.to/lastmile_qr_scan"}, "name": "4dc95b1ff1c03b7191b96ddd61dd04d9", "type": "electric_scooter", "lat": 38.84301833333333, "is_disabled": 0}, {"fusion_lat": 0.0, "lon": -77.02718083333333, "is_reserved": 0, "bike_id": "b1ea7145806c03da7591292a11450f8b", "fusion_lon": 0.0, "rental_uris": {"android": "https://dc.lft.to/lastmile_qr_scan", "ios": "https://dc.lft.to/lastmile_qr_scan"}, "name": "b1ea7145806c03da7591292a11450f8b", "type": "electric_scooter", "lat": 38.897565666666665, "is_disabled": 0}, {"fusion_lat": 0.0, "lon": -76.99903466666666, "is_reserved": 0, "bike_id": "a61bc3a7a9372c086cb8eeb7cac85c61", "fusion_lon": 0.0, "rental_uris": {"android": "https://dc.lft.to/lastmile_qr_scan", "ios": "https://dc.lft.to/lastmile_qr_scan"}, "name": "a61bc3a7a9372c086cb8eeb7cac85c61", "type": "electric_scooter", "lat": 38.94814983333333, "is_disabled": 0}, {"fusion_lat": 0.0, "lon": -77.04236416666667, "is_reserved": 0, "bike_id": "a7153e87e0ed6fdd15f24f7e4a0458f9", "fusion_lon": 0.0, "rental_uris": {"android": "https://dc.lft.to/lastmile_qr_scan", "ios": "https://dc.lft.to/lastmile_qr_scan"}, "name": "a7153e87e0ed6fdd15f24f7e4a0458f9", "type": "electric_scooter", "lat": 38.92283533333333, "is_disabled": 0}, {"fusion_lat": 0.0, "lon": -76.97205383333333, "is_reserved": 0, "bike_id": "557241eafbe19da65bc7081ae899b525", "fusion_lon": 0.0, "rental_uris": {"android": "https://dc.lft.to/lastmile_qr_scan", "ios": "https://dc.lft.to/lastmile_qr_scan"}, "name": "557241eafbe19da65bc7081ae899b525", "type": "electric_bike", "lat": 38.89290116666667, "is_disabled": 0}, {"fusion_lat": 0.0, "lon": -77.03698833333333, "is_reserved": 0, "bike_id": "9c8d314f7d2aed222c293460118d082a", "fusion_lon": 0.0, "rental_uris": {"android": "https://dc.lft.to/lastmile_qr_scan", "ios": "https://dc.lft.to/lastmile_qr_scan"}, "name": "9c8d314f7d2aed222c293460118d082a", "type": "electric_scooter", "lat": 38.926162166666664, "is_disabled": 0}, {"fusion_lat": 0.0, "lon": -77.03452883333334, "is_reserved": 0, "bike_id": "2d7c3c9e0a15f55dc87e46254ccf3afa", "fusion_lon": 0.0, "rental_uris": {"android": "https://dc.lft.to/lastmile_qr_scan", "ios": "https://dc.lft.to/lastmile_qr_scan"}, "name": "2d7c3c9e0a15f55dc87e46254ccf3afa", "type": "electric_scooter", "lat": 38.905682666666664, "is_disabled": 0}, {"fusion_lat": 0.0, "lon": -76.93077516666666, "is_reserved": 0, "bike_id": "de6fae4e2d82eab29b290adb8b7e8811", "fusion_lon": 0.0, "rental_uris": {"android": "https://dc.lft.to/lastmile_qr_scan", "ios": "https://dc.lft.to/lastmile_qr_scan"}, "name": "de6fae4e2d82eab29b290adb8b7e8811", "type": "electric_scooter", "lat": 38.90164883333333, "is_disabled": 0}, {"fusion_lat": 0.0, "lon": -77.02163666666667, "is_reserved": 0, "bike_id": "ecec872635c58f8fe404123f1977b063", "fusion_lon": 0.0, "rental_uris": {"android": "https://dc.lft.to/lastmile_qr_scan", "ios": "https://dc.lft.to/lastmile_qr_scan"}, "name": "ecec872635c58f8fe404123f1977b063", "type": "electric_scooter", "lat": 38.92612, "is_disabled": 0}, {"fusion_lat": 0.0, "lon": -77.02130083333333, "is_reserved": 0, "bike_id": "c7af531173b36e77ed4fea3886e9c672", "fusion_lon": 0.0, "rental_uris": {"android": "https://dc.lft.to/lastmile_qr_scan", "ios": "https://dc.lft.to/lastmile_qr_scan"}, "name": "c7af531173b36e77ed4fea3886e9c672", "type": "electric_scooter", "lat": 38.89632133333333, "is_disabled": 0}, {"fusion_lat": 0.0, "lon": -77.12735533333333, "is_reserved": 0, "bike_id": "0261dd6b10a05b90faff361b0d8a7c52", "fusion_lon": 0.0, "rental_uris": {"android": "https://dc.lft.to/lastmile_qr_scan", "ios": "https://dc.lft.to/lastmile_qr_scan"}, "name": "0261dd6b10a05b90faff361b0d8a7c52", "type": "electric_bike", "lat": 38.895666166666665, "is_disabled": 0}, {"fusion_lat": 0.0, "lon": -77.042444, "is_reserved": 0, "bike_id": "1c9eca2aa1d3abdff3419049490bc93c", "fusion_lon": 0.0, "rental_uris": {"android": "https://dc.lft.to/lastmile_qr_scan", "ios": "https://dc.lft.to/lastmile_qr_scan"}, "name": "1c9eca2aa1d3abdff3419049490bc93c", "type": "electric_scooter", "lat": 38.9218195, "is_disabled": 0}, {"fusion_lat": 0.0, "lon": -77.01773483333334, "is_reserved": 0, "bike_id": "e007ddbb9043ab1aff3dba86734f1ef0", "fusion_lon": 0.0, "rental_uris": {"android": "https://dc.lft.to/lastmile_qr_scan", "ios": "https://dc.lft.to/lastmile_qr_scan"}, "name": "e007ddbb9043ab1aff3dba86734f1ef0", "type": "electric_scooter", "lat": 38.8722125, "is_disabled": 0}, {"fusion_lat": 0.0, "lon": -77.01763033333333, "is_reserved": 0, "bike_id": "f08a565c7bf6c9bbaa7ba5e1aeb509ab", "fusion_lon": 0.0, "rental_uris": {"android": "https://dc.lft.to/lastmile_qr_scan", "ios": "https://dc.lft.to/lastmile_qr_scan"}, "name": "f08a565c7bf6c9bbaa7ba5e1aeb509ab", "type": "electric_scooter", "lat": 38.877040666666666, "is_disabled": 0}, {"fusion_lat": 0.0, "lon": -77.011537, "is_reserved": 0, "bike_id": "8bf6ac66690756ec87f9745c79c8c075", "fusion_lon": 0.0, "rental_uris": {"android": "https://dc.lft.to/lastmile_qr_scan", "ios": "https://dc.lft.to/lastmile_qr_scan"}, "name": "8bf6ac66690756ec87f9745c79c8c075", "type": "electric_bike", "lat": 38.911531833333335, "is_disabled": 0}, {"fusion_lat": 0.0, "lon": -77.0395595, "is_reserved": 0, "bike_id": "43cc12956471ae2f587f7151e9b2f105", "fusion_lon": 0.0, "rental_uris": {"android": "https://dc.lft.to/lastmile_qr_scan", "ios": "https://dc.lft.to/lastmile_qr_scan"}, "name": "43cc12956471ae2f587f7151e9b2f105", "type": "electric_scooter", "lat": 38.911913, "is_disabled": 0}, {"fusion_lat": 0.0, "lon": -77.04762683333334, "is_reserved": 0, "bike_id": "5778d4d6ffcfc817f8a990d14cd985a9", "fusion_lon": 0.0, "rental_uris": {"android": "https://dc.lft.to/lastmile_qr_scan", "ios": "https://dc.lft.to/lastmile_qr_scan"}, "name": "5778d4d6ffcfc817f8a990d14cd985a9", "type": "electric_bike", "lat": 38.919919666666665, "is_disabled": 0}, {"fusion_lat": 0.0, "lon": -77.03165316666667, "is_reserved": 0, "bike_id": "3701acb98159100231801c45648c2f61", "fusion_lon": 0.0, "rental_uris": {"android": "https://dc.lft.to/lastmile_qr_scan", "ios": "https://dc.lft.to/lastmile_qr_scan"}, "name": "3701acb98159100231801c45648c2f61", "type": "electric_scooter", "lat": 38.887686333333335, "is_disabled": 0}, {"fusion_lat": 0.0, "lon": -77.11850616666666, "is_reserved": 0, "bike_id": "381125e368999fed00fa70e612565543", "fusion_lon": 0.0, "rental_uris": {"android": "https://dc.lft.to/lastmile_qr_scan", "ios": "https://dc.lft.to/lastmile_qr_scan"}, "name": "381125e368999fed00fa70e612565543", "type": "electric_bike", "lat": 38.87733033333333, "is_disabled": 0}, {"fusion_lat": 0.0, "lon": -77.0075645, "is_reserved": 0, "bike_id": "6804df1ab470711e84f6b196e5e2a799", "fusion_lon": 0.0, "rental_uris": {"android": "https://dc.lft.to/lastmile_qr_scan", "ios": "https://dc.lft.to/lastmile_qr_scan"}, "name": "6804df1ab470711e84f6b196e5e2a799", "type": "electric_scooter", "lat": 38.926723833333334, "is_disabled": 0}, {"fusion_lat": 0.0, "lon": -77.03443883333334, "is_reserved": 0, "bike_id": "407a71f420617ecc999a3001c5e10e2c", "fusion_lon": 0.0, "rental_uris": {"android": "https://dc.lft.to/lastmile_qr_scan", "ios": "https://dc.lft.to/lastmile_qr_scan"}, "name": "407a71f420617ecc999a3001c5e10e2c", "type": "electric_scooter", "lat": 38.91009666666667, "is_disabled": 0}, {"fusion_lat": 0.0, "lon": -77.01199383333334, "is_reserved": 0, "bike_id": "d84542c97ea3b08d2d4f129ffde6b789", "fusion_lon": 0.0, "rental_uris": {"android": "https://dc.lft.to/lastmile_qr_scan", "ios": "https://dc.lft.to/lastmile_qr_scan"}, "name": "d84542c97ea3b08d2d4f129ffde6b789", "type": "electric_scooter", "lat": 38.893158666666665, "is_disabled": 0}, {"fusion_lat": 0.0, "lon": -77.04438166666667, "is_reserved": 0, "bike_id": "9122e76a74876646e22392ebed626128", "fusion_lon": 0.0, "rental_uris": {"android": "https://dc.lft.to/lastmile_qr_scan", "ios": "https://dc.lft.to/lastmile_qr_scan"}, "name": "9122e76a74876646e22392ebed626128", "type": "electric_scooter", "lat": 38.9213885, "is_disabled": 0}, {"fusion_lat": 0.0, "lon": -77.02935733333334, "is_reserved": 0, "bike_id": "2d70e5a7addb028045d9601cb4935697", "fusion_lon": 0.0, "rental_uris": {"android": "https://dc.lft.to/lastmile_qr_scan", "ios": "https://dc.lft.to/lastmile_qr_scan"}, "name": "2d70e5a7addb028045d9601cb4935697", "type": "electric_scooter", "lat": 38.89986533333333, "is_disabled": 0}, {"fusion_lat": 0.0, "lon": -77.01137366666667, "is_reserved": 0, "bike_id": "d3fdda48d23cc9ad25742264f1a25ccf", "fusion_lon": 0.0, "rental_uris": {"android": "https://dc.lft.to/lastmile_qr_scan", "ios": "https://dc.lft.to/lastmile_qr_scan"}, "name": "d3fdda48d23cc9ad25742264f1a25ccf", "type": "electric_scooter", "lat": 38.91591966666667, "is_disabled": 0}, {"fusion_lat": 0.0, "lon": -77.00724333333334, "is_reserved": 0, "bike_id": "0d6a873e775c06a6d262de3053f79f38", "fusion_lon": 0.0, "rental_uris": {"android": "https://dc.lft.to/lastmile_qr_scan", "ios": "https://dc.lft.to/lastmile_qr_scan"}, "name": "0d6a873e775c06a6d262de3053f79f38", "type": "electric_scooter", "lat": 38.88492433333333, "is_disabled": 0}, {"fusion_lat": 0.0, "lon": -77.0345365, "is_reserved": 0, "bike_id": "3693f66474d9096e8b66077462779ae8", "fusion_lon": 0.0, "rental_uris": {"android": "https://dc.lft.to/lastmile_qr_scan", "ios": "https://dc.lft.to/lastmile_qr_scan"}, "name": "3693f66474d9096e8b66077462779ae8", "type": "electric_scooter", "lat": 38.92536233333333, "is_disabled": 0}, {"fusion_lat": 0.0, "lon": -76.99533633333333, "is_reserved": 0, "bike_id": "8eaa58768c3bff750b576ea4a5502c88", "fusion_lon": 0.0, "rental_uris": {"android": "https://dc.lft.to/lastmile_qr_scan", "ios": "https://dc.lft.to/lastmile_qr_scan"}, "name": "8eaa58768c3bff750b576ea4a5502c88", "type": "electric_scooter", "lat": 38.862029166666666, "is_disabled": 0}, {"fusion_lat": 0.0, "lon": -76.99788266666667, "is_reserved": 0, "bike_id": "85683f073f3e722da7af1560e03ec4a5", "fusion_lon": 0.0, "rental_uris": {"android": "https://dc.lft.to/lastmile_qr_scan", "ios": "https://dc.lft.to/lastmile_qr_scan"}, "name": "85683f073f3e722da7af1560e03ec4a5", "type": "electric_scooter", "lat": 38.910632, "is_disabled": 0}, {"fusion_lat": 0.0, "lon": -77.036375, "is_reserved": 0, "bike_id": "9d2ecb91678d0c835ba9ff519080843e", "fusion_lon": 0.0, "rental_uris": {"android": "https://dc.lft.to/lastmile_qr_scan", "ios": "https://dc.lft.to/lastmile_qr_scan"}, "name": "9d2ecb91678d0c835ba9ff519080843e", "type": "electric_scooter", "lat": 38.90379, "is_disabled": 0}, {"fusion_lat": 0.0, "lon": -77.07793966666667, "is_reserved": 0, "bike_id": "0934aa42408454503ebe1440e9abaf9d", "fusion_lon": 0.0, "rental_uris": {"android": "https://dc.lft.to/lastmile_qr_scan", "ios": "https://dc.lft.to/lastmile_qr_scan"}, "name": "0934aa42408454503ebe1440e9abaf9d", "type": "electric_bike", "lat": 38.996018666666664, "is_disabled": 0}, {"fusion_lat": 0.0, "lon": -76.99697933333333, "is_reserved": 0, "bike_id": "254183951e6f92a860581ac5a05a5251", "fusion_lon": 0.0, "rental_uris": {"android": "https://dc.lft.to/lastmile_qr_scan", "ios": "https://dc.lft.to/lastmile_qr_scan"}, "name": "254183951e6f92a860581ac5a05a5251", "type": "electric_scooter", "lat": 38.907977833333334, "is_disabled": 0}, {"fusion_lat": 0.0, "lon": -77.04032033333333, "is_reserved": 0, "bike_id": "f0fa4c960182a1567001b516752ad861", "fusion_lon": 0.0, "rental_uris": {"android": "https://dc.lft.to/lastmile_qr_scan", "ios": "https://dc.lft.to/lastmile_qr_scan"}, "name": "f0fa4c960182a1567001b516752ad861", "type": "electric_scooter", "lat": 38.911117, "is_disabled": 0}, {"fusion_lat": 0.0, "lon": -76.9373525, "is_reserved": 0, "bike_id": "387c5519862fffef5e2f03dd226f4187", "fusion_lon": 0.0, "rental_uris": {"android": "https://dc.lft.to/lastmile_qr_scan", "ios": "https://dc.lft.to/lastmile_qr_scan"}, "name": "387c5519862fffef5e2f03dd226f4187", "type": "electric_scooter", "lat": 38.89014933333333, "is_disabled": 0}, {"fusion_lat": 0.0, "lon": -77.03193833333333, "is_reserved": 0, "bike_id": "c22d2f2a03fbd7c77e13aba70945e044", "fusion_lon": 0.0, "rental_uris": {"android": "https://dc.lft.to/lastmile_qr_scan", "ios": "https://dc.lft.to/lastmile_qr_scan"}, "name": "c22d2f2a03fbd7c77e13aba70945e044", "type": "electric_scooter", "lat": 38.919160166666664, "is_disabled": 0}, {"fusion_lat": 0.0, "lon": -77.09061633333333, "is_reserved": 0, "bike_id": "ddab34a4b55ffdb87198b90329dbe2b2", "fusion_lon": 0.0, "rental_uris": {"android": "https://dc.lft.to/lastmile_qr_scan", "ios": "https://dc.lft.to/lastmile_qr_scan"}, "name": "ddab34a4b55ffdb87198b90329dbe2b2", "type": "electric_bike", "lat": 38.862622, "is_disabled": 0}, {"fusion_lat": 0.0, "lon": -76.97831083333334, "is_reserved": 0, "bike_id": "3640b5607d8ba54762fe0063fbe68969", "fusion_lon": 0.0, "rental_uris": {"android": "https://dc.lft.to/lastmile_qr_scan", "ios": "https://dc.lft.to/lastmile_qr_scan"}, "name": "3640b5607d8ba54762fe0063fbe68969", "type": "electric_bike", "lat": 38.843720166666664, "is_disabled": 0}, {"fusion_lat": 0.0, "lon": -76.97423716666667, "is_reserved": 0, "bike_id": "98a91994d96f2e7e13975d08f42de94f", "fusion_lon": 0.0, "rental_uris": {"android": "https://dc.lft.to/lastmile_qr_scan", "ios": "https://dc.lft.to/lastmile_qr_scan"}, "name": "98a91994d96f2e7e13975d08f42de94f", "type": "electric_scooter", "lat": 38.904047166666665, "is_disabled": 0}, {"fusion_lat": 0.0, "lon": -77.03199933333333, "is_reserved": 0, "bike_id": "13e7c90541263f319889ab4a6d64a917", "fusion_lon": 0.0, "rental_uris": {"android": "https://dc.lft.to/lastmile_qr_scan", "ios": "https://dc.lft.to/lastmile_qr_scan"}, "name": "13e7c90541263f319889ab4a6d64a917", "type": "electric_scooter", "lat": 38.89678133333334, "is_disabled": 0}, {"fusion_lat": 0.0, "lon": -76.94380833333334, "is_reserved": 0, "bike_id": "0e8f688ae2d7f9501b25e6655bd68167", "fusion_lon": 0.0, "rental_uris": {"android": "https://dc.lft.to/lastmile_qr_scan", "ios": "https://dc.lft.to/lastmile_qr_scan"}, "name": "0e8f688ae2d7f9501b25e6655bd68167", "type": "electric_scooter", "lat": 38.893237666666664, "is_disabled": 0}, {"fusion_lat": 0.0, "lon": -76.9375355, "is_reserved": 0, "bike_id": "c3915e1788e2d7d54cb5aa6b0d3500eb", "fusion_lon": 0.0, "rental_uris": {"android": "https://dc.lft.to/lastmile_qr_scan", "ios": "https://dc.lft.to/lastmile_qr_scan"}, "name": "c3915e1788e2d7d54cb5aa6b0d3500eb", "type": "electric_scooter", "lat": 38.89044, "is_disabled": 0}, {"fusion_lat": 0.0, "lon": -77.00010283333333, "is_reserved": 0, "bike_id": "f0ed68d3aca05b069762ee271b245d0f", "fusion_lon": 0.0, "rental_uris": {"android": "https://dc.lft.to/lastmile_qr_scan", "ios": "https://dc.lft.to/lastmile_qr_scan"}, "name": "f0ed68d3aca05b069762ee271b245d0f", "type": "electric_scooter", "lat": 38.89304533333333, "is_disabled": 0}, {"fusion_lat": 0.0, "lon": -77.04349016666667, "is_reserved": 0, "bike_id": "8a3d01feedfcc29c4b47a21fff2f4e94", "fusion_lon": 0.0, "rental_uris": {"android": "https://dc.lft.to/lastmile_qr_scan", "ios": "https://dc.lft.to/lastmile_qr_scan"}, "name": "8a3d01feedfcc29c4b47a21fff2f4e94", "type": "electric_scooter", "lat": 38.90727783333333, "is_disabled": 0}, {"fusion_lat": 0.0, "lon": -77.0242595, "is_reserved": 0, "bike_id": "5a95fd90ae5d061c4270fd0ce5a2979c", "fusion_lon": 0.0, "rental_uris": {"android": "https://dc.lft.to/lastmile_qr_scan", "ios": "https://dc.lft.to/lastmile_qr_scan"}, "name": "5a95fd90ae5d061c4270fd0ce5a2979c", "type": "electric_scooter", "lat": 38.93718366666667, "is_disabled": 0}, {"fusion_lat": 0.0, "lon": -76.98625383333334, "is_reserved": 0, "bike_id": "ee05f8a9f79fadab2e692466d1f165d5", "fusion_lon": 0.0, "rental_uris": {"android": "https://dc.lft.to/lastmile_qr_scan", "ios": "https://dc.lft.to/lastmile_qr_scan"}, "name": "ee05f8a9f79fadab2e692466d1f165d5", "type": "electric_scooter", "lat": 38.9011265, "is_disabled": 0}, {"fusion_lat": 0.0, "lon": -77.03374133333334, "is_reserved": 0, "bike_id": "e2266ffcd913a093e8f4032dbd87c9cf", "fusion_lon": 0.0, "rental_uris": {"android": "https://dc.lft.to/lastmile_qr_scan", "ios": "https://dc.lft.to/lastmile_qr_scan"}, "name": "e2266ffcd913a093e8f4032dbd87c9cf", "type": "electric_scooter", "lat": 38.89912416666667, "is_disabled": 0}, {"fusion_lat": 0.0, "lon": -77.0323215, "is_reserved": 0, "bike_id": "a44995c154cfc30706c50727373a2255", "fusion_lon": 0.0, "rental_uris": {"android": "https://dc.lft.to/lastmile_qr_scan", "ios": "https://dc.lft.to/lastmile_qr_scan"}, "name": "a44995c154cfc30706c50727373a2255", "type": "electric_scooter", "lat": 38.915576, "is_disabled": 0}, {"fusion_lat": 0.0, "lon": -76.99774666666667, "is_reserved": 0, "bike_id": "b4272b85c1fe0861e353f96240cc51bf", "fusion_lon": 0.0, "rental_uris": {"android": "https://dc.lft.to/lastmile_qr_scan", "ios": "https://dc.lft.to/lastmile_qr_scan"}, "name": "b4272b85c1fe0861e353f96240cc51bf", "type": "electric_scooter", "lat": 38.84429816666667, "is_disabled": 0}, {"fusion_lat": 0.0, "lon": -77.07402116666667, "is_reserved": 0, "bike_id": "29e5ef4ebced736d54a87beb31f18319", "fusion_lon": 0.0, "rental_uris": {"android": "https://dc.lft.to/lastmile_qr_scan", "ios": "https://dc.lft.to/lastmile_qr_scan"}, "name": "29e5ef4ebced736d54a87beb31f18319", "type": "electric_bike", "lat": 38.96193933333333, "is_disabled": 0}, {"fusion_lat": 0.0, "lon": -77.0317285, "is_reserved": 0, "bike_id": "0e26cd8295fcb326cc18899a19f39786", "fusion_lon": 0.0, "rental_uris": {"android": "https://dc.lft.to/lastmile_qr_scan", "ios": "https://dc.lft.to/lastmile_qr_scan"}, "name": "0e26cd8295fcb326cc18899a19f39786", "type": "electric_scooter", "lat": 38.915518666666664, "is_disabled": 0}, {"fusion_lat": 0.0, "lon": -77.0122925, "is_reserved": 0, "bike_id": "738304a6905de6230aebf685432f390c", "fusion_lon": 0.0, "rental_uris": {"android": "https://dc.lft.to/lastmile_qr_scan", "ios": "https://dc.lft.to/lastmile_qr_scan"}, "name": "738304a6905de6230aebf685432f390c", "type": "electric_scooter", "lat": 38.928729833333335, "is_disabled": 0}, {"fusion_lat": 0.0, "lon": -77.0179565, "is_reserved": 0, "bike_id": "da4b58ab89e79eb8badc4eeb0d2751e3", "fusion_lon": 0.0, "rental_uris": {"android": "https://dc.lft.to/lastmile_qr_scan", "ios": "https://dc.lft.to/lastmile_qr_scan"}, "name": "da4b58ab89e79eb8badc4eeb0d2751e3", "type": "electric_scooter", "lat": 38.9040325, "is_disabled": 0}, {"fusion_lat": 0.0, "lon": -77.02491, "is_reserved": 0, "bike_id": "b6702c4f652b62fbfce74964ae66cd50", "fusion_lon": 0.0, "rental_uris": {"android": "https://dc.lft.to/lastmile_qr_scan", "ios": "https://dc.lft.to/lastmile_qr_scan"}, "name": "b6702c4f652b62fbfce74964ae66cd50", "type": "electric_scooter", "lat": 38.9418355, "is_disabled": 0}, {"fusion_lat": 0.0, "lon": -77.045466, "is_reserved": 0, "bike_id": "a0df1c8d1a6937df693b01df0accaa2b", "fusion_lon": 0.0, "rental_uris": {"android": "https://dc.lft.to/lastmile_qr_scan", "ios": "https://dc.lft.to/lastmile_qr_scan"}, "name": "a0df1c8d1a6937df693b01df0accaa2b", "type": "electric_scooter", "lat": 38.93405, "is_disabled": 0}, {"fusion_lat": 0.0, "lon": -77.039328, "is_reserved": 0, "bike_id": "fa53b7b93154d46539b9a7962667a0b7", "fusion_lon": 0.0, "rental_uris": {"android": "https://dc.lft.to/lastmile_qr_scan", "ios": "https://dc.lft.to/lastmile_qr_scan"}, "name": "fa53b7b93154d46539b9a7962667a0b7", "type": "electric_scooter", "lat": 38.91760416666666, "is_disabled": 0}, {"fusion_lat": 0.0, "lon": -77.037789, "is_reserved": 0, "bike_id": "396f218f7b183b97c840edfc385b1f9f", "fusion_lon": 0.0, "rental_uris": {"android": "https://dc.lft.to/lastmile_qr_scan", "ios": "https://dc.lft.to/lastmile_qr_scan"}, "name": "396f218f7b183b97c840edfc385b1f9f", "type": "electric_scooter", "lat": 38.922065833333335, "is_disabled": 0}, {"fusion_lat": 0.0, "lon": -77.06448316666666, "is_reserved": 0, "bike_id": "00f22dc325a5b519c0a88335d4871032", "fusion_lon": 0.0, "rental_uris": {"android": "https://dc.lft.to/lastmile_qr_scan", "ios": "https://dc.lft.to/lastmile_qr_scan"}, "name": "00f22dc325a5b519c0a88335d4871032", "type": "electric_scooter", "lat": 38.9052085, "is_disabled": 0}, {"fusion_lat": 0.0, "lon": -77.038669, "is_reserved": 0, "bike_id": "1f9df8d851e8e1eff2a45ad695fe7d51", "fusion_lon": 0.0, "rental_uris": {"android": "https://dc.lft.to/lastmile_qr_scan", "ios": "https://dc.lft.to/lastmile_qr_scan"}, "name": "1f9df8d851e8e1eff2a45ad695fe7d51", "type": "electric_scooter", "lat": 38.907876333333334, "is_disabled": 0}, {"fusion_lat": 0.0, "lon": -76.962362, "is_reserved": 0, "bike_id": "abb13eb34b1dcf41a0422797f16cc77e", "fusion_lon": 0.0, "rental_uris": {"android": "https://dc.lft.to/lastmile_qr_scan", "ios": "https://dc.lft.to/lastmile_qr_scan"}, "name": "abb13eb34b1dcf41a0422797f16cc77e", "type": "electric_scooter", "lat": 38.87765316666667, "is_disabled": 0}, {"fusion_lat": 0.0, "lon": -77.01223316666666, "is_reserved": 0, "bike_id": "5a3a78ef91c729d6392ea61d89fefe9c", "fusion_lon": 0.0, "rental_uris": {"android": "https://dc.lft.to/lastmile_qr_scan", "ios": "https://dc.lft.to/lastmile_qr_scan"}, "name": "5a3a78ef91c729d6392ea61d89fefe9c", "type": "electric_scooter", "lat": 38.918327, "is_disabled": 0}, {"fusion_lat": 0.0, "lon": -77.00913133333333, "is_reserved": 0, "bike_id": "6a29bc3815d3e5da850492b97dd4967d", "fusion_lon": 0.0, "rental_uris": {"android": "https://dc.lft.to/lastmile_qr_scan", "ios": "https://dc.lft.to/lastmile_qr_scan"}, "name": "6a29bc3815d3e5da850492b97dd4967d", "type": "electric_scooter", "lat": 38.895657666666665, "is_disabled": 0}, {"fusion_lat": 0.0, "lon": -77.02467633333333, "is_reserved": 0, "bike_id": "514e462c77d8f415a1da49e95ccb70d8", "fusion_lon": 0.0, "rental_uris": {"android": "https://dc.lft.to/lastmile_qr_scan", "ios": "https://dc.lft.to/lastmile_qr_scan"}, "name": "514e462c77d8f415a1da49e95ccb70d8", "type": "electric_scooter", "lat": 38.932984, "is_disabled": 0}, {"fusion_lat": 0.0, "lon": -77.0280675, "is_reserved": 0, "bike_id": "325bab1619e36ed5c471c44d15fb383d", "fusion_lon": 0.0, "rental_uris": {"android": "https://dc.lft.to/lastmile_qr_scan", "ios": "https://dc.lft.to/lastmile_qr_scan"}, "name": "325bab1619e36ed5c471c44d15fb383d", "type": "electric_scooter", "lat": 38.8984355, "is_disabled": 0}, {"fusion_lat": 0.0, "lon": -77.0382775, "is_reserved": 0, "bike_id": "ca3bd7edc4872828e8c900180cbfcaeb", "fusion_lon": 0.0, "rental_uris": {"android": "https://dc.lft.to/lastmile_qr_scan", "ios": "https://dc.lft.to/lastmile_qr_scan"}, "name": "ca3bd7edc4872828e8c900180cbfcaeb", "type": "electric_scooter", "lat": 38.931420333333335, "is_disabled": 0}, {"fusion_lat": 0.0, "lon": -77.03331216666666, "is_reserved": 0, "bike_id": "2dcdc55aacc70fbb14b54fe1e3b16d7d", "fusion_lon": 0.0, "rental_uris": {"android": "https://dc.lft.to/lastmile_qr_scan", "ios": "https://dc.lft.to/lastmile_qr_scan"}, "name": "2dcdc55aacc70fbb14b54fe1e3b16d7d", "type": "electric_scooter", "lat": 38.9036855, "is_disabled": 0}, {"fusion_lat": 0.0, "lon": -77.04105666666666, "is_reserved": 0, "bike_id": "23f9d3b5d124c10d42b47b87a84c4959", "fusion_lon": 0.0, "rental_uris": {"android": "https://dc.lft.to/lastmile_qr_scan", "ios": "https://dc.lft.to/lastmile_qr_scan"}, "name": "23f9d3b5d124c10d42b47b87a84c4959", "type": "electric_scooter", "lat": 38.9279875, "is_disabled": 0}, {"fusion_lat": 0.0, "lon": -77.02220466666667, "is_reserved": 0, "bike_id": "1a63c2f72e4aa8f2f3bb4720c445e8dd", "fusion_lon": 0.0, "rental_uris": {"android": "https://dc.lft.to/lastmile_qr_scan", "ios": "https://dc.lft.to/lastmile_qr_scan"}, "name": "1a63c2f72e4aa8f2f3bb4720c445e8dd", "type": "electric_scooter", "lat": 38.9355105, "is_disabled": 0}, {"fusion_lat": 0.0, "lon": -77.02131483333334, "is_reserved": 0, "bike_id": "c56d3b176eb280121c61d2b1c41bece1", "fusion_lon": 0.0, "rental_uris": {"android": "https://dc.lft.to/lastmile_qr_scan", "ios": "https://dc.lft.to/lastmile_qr_scan"}, "name": "c56d3b176eb280121c61d2b1c41bece1", "type": "electric_scooter", "lat": 38.92417733333333, "is_disabled": 0}, {"fusion_lat": 0.0, "lon": -77.00599566666666, "is_reserved": 0, "bike_id": "ac74167a004d2b21184265a5243e848d", "fusion_lon": 0.0, "rental_uris": {"android": "https://dc.lft.to/lastmile_qr_scan", "ios": "https://dc.lft.to/lastmile_qr_scan"}, "name": "ac74167a004d2b21184265a5243e848d", "type": "electric_scooter", "lat": 38.905716166666664, "is_disabled": 0}, {"fusion_lat": 0.0, "lon": -77.02725466666666, "is_reserved": 0, "bike_id": "0a9331e1e713b44b8fbaeafae3cbdd15", "fusion_lon": 0.0, "rental_uris": {"android": "https://dc.lft.to/lastmile_qr_scan", "ios": "https://dc.lft.to/lastmile_qr_scan"}, "name": "0a9331e1e713b44b8fbaeafae3cbdd15", "type": "electric_scooter", "lat": 38.897414166666664, "is_disabled": 0}, {"fusion_lat": 0.0, "lon": -77.0322475, "is_reserved": 0, "bike_id": "97cfb0a4bb221015cc3f9c6ec87cd2e8", "fusion_lon": 0.0, "rental_uris": {"android": "https://dc.lft.to/lastmile_qr_scan", "ios": "https://dc.lft.to/lastmile_qr_scan"}, "name": "97cfb0a4bb221015cc3f9c6ec87cd2e8", "type": "electric_scooter", "lat": 38.926362833333336, "is_disabled": 0}, {"fusion_lat": 0.0, "lon": -77.02402316666667, "is_reserved": 0, "bike_id": "9c211b45d2a582cea3ab05920dea90ad", "fusion_lon": 0.0, "rental_uris": {"android": "https://dc.lft.to/lastmile_qr_scan", "ios": "https://dc.lft.to/lastmile_qr_scan"}, "name": "9c211b45d2a582cea3ab05920dea90ad", "type": "electric_scooter", "lat": 38.892519666666665, "is_disabled": 0}, {"fusion_lat": 0.0, "lon": -76.99583166666666, "is_reserved": 0, "bike_id": "546a91c6320d71a3575a86e3c90234ee", "fusion_lon": 0.0, "rental_uris": {"android": "https://dc.lft.to/lastmile_qr_scan", "ios": "https://dc.lft.to/lastmile_qr_scan"}, "name": "546a91c6320d71a3575a86e3c90234ee", "type": "electric_bike", "lat": 38.852965166666664, "is_disabled": 0}, {"fusion_lat": 0.0, "lon": -77.344106, "is_reserved": 0, "bike_id": "ccd1ebe2355d44a5335be1d353076d30", "fusion_lon": 0.0, "rental_uris": {"android": "https://dc.lft.to/lastmile_qr_scan", "ios": "https://dc.lft.to/lastmile_qr_scan"}, "name": "ccd1ebe2355d44a5335be1d353076d30", "type": "electric_bike", "lat": 38.94593416666667, "is_disabled": 0}, {"fusion_lat": 0.0, "lon": -77.03208933333333, "is_reserved": 0, "bike_id": "0d6f808046161af7686828cdace2a250", "fusion_lon": 0.0, "rental_uris": {"android": "https://dc.lft.to/lastmile_qr_scan", "ios": "https://dc.lft.to/lastmile_qr_scan"}, "name": "0d6f808046161af7686828cdace2a250", "type": "electric_scooter", "lat": 38.91730783333333, "is_disabled": 0}, {"fusion_lat": 0.0, "lon": -77.04621066666667, "is_reserved": 0, "bike_id": "1a6b8c14965a1126a92f8bfd41e7579d", "fusion_lon": 0.0, "rental_uris": {"android": "https://dc.lft.to/lastmile_qr_scan", "ios": "https://dc.lft.to/lastmile_qr_scan"}, "name": "1a6b8c14965a1126a92f8bfd41e7579d", "type": "electric_scooter", "lat": 38.91610716666667, "is_disabled": 0}, {"fusion_lat": 0.0, "lon": -77.026194, "is_reserved": 0, "bike_id": "ca40e42b7c01640ea7b577d5f2784c56", "fusion_lon": 0.0, "rental_uris": {"android": "https://dc.lft.to/lastmile_qr_scan", "ios": "https://dc.lft.to/lastmile_qr_scan"}, "name": "ca40e42b7c01640ea7b577d5f2784c56", "type": "electric_scooter", "lat": 38.8942565, "is_disabled": 0}, {"fusion_lat": 0.0, "lon": -76.98842733333333, "is_reserved": 0, "bike_id": "0b34b732a2c7c12cb968f1b683690808", "fusion_lon": 0.0, "rental_uris": {"android": "https://dc.lft.to/lastmile_qr_scan", "ios": "https://dc.lft.to/lastmile_qr_scan"}, "name": "0b34b732a2c7c12cb968f1b683690808", "type": "electric_bike", "lat": 38.8427695, "is_disabled": 0}, {"fusion_lat": 0.0, "lon": -76.9760785, "is_reserved": 0, "bike_id": "a833d22b9740a8135072f7badd444734", "fusion_lon": 0.0, "rental_uris": {"android": "https://dc.lft.to/lastmile_qr_scan", "ios": "https://dc.lft.to/lastmile_qr_scan"}, "name": "a833d22b9740a8135072f7badd444734", "type": "electric_scooter", "lat": 38.91291866666667, "is_disabled": 0}, {"fusion_lat": 0.0, "lon": -77.036145, "is_reserved": 0, "bike_id": "537ddb5e0d336abfac4d4378be4e6bdf", "fusion_lon": 0.0, "rental_uris": {"android": "https://dc.lft.to/lastmile_qr_scan", "ios": "https://dc.lft.to/lastmile_qr_scan"}, "name": "537ddb5e0d336abfac4d4378be4e6bdf", "type": "electric_scooter", "lat": 38.930456166666666, "is_disabled": 0}, {"fusion_lat": 0.0, "lon": -77.02057716666667, "is_reserved": 0, "bike_id": "d9252c72ec7929a7d6c7528232fc9f24", "fusion_lon": 0.0, "rental_uris": {"android": "https://dc.lft.to/lastmile_qr_scan", "ios": "https://dc.lft.to/lastmile_qr_scan"}, "name": "d9252c72ec7929a7d6c7528232fc9f24", "type": "electric_scooter", "lat": 38.921892, "is_disabled": 0}, {"fusion_lat": 0.0, "lon": -76.99411416666666, "is_reserved": 0, "bike_id": "f2f21f5fde5923668181d4e37769be56", "fusion_lon": 0.0, "rental_uris": {"android": "https://dc.lft.to/lastmile_qr_scan", "ios": "https://dc.lft.to/lastmile_qr_scan"}, "name": "f2f21f5fde5923668181d4e37769be56", "type": "electric_scooter", "lat": 38.921168333333334, "is_disabled": 0}, {"fusion_lat": 0.0, "lon": -76.98073066666667, "is_reserved": 0, "bike_id": "a8450ba9f2d618ef04e336d358cfe616", "fusion_lon": 0.0, "rental_uris": {"android": "https://dc.lft.to/lastmile_qr_scan", "ios": "https://dc.lft.to/lastmile_qr_scan"}, "name": "a8450ba9f2d618ef04e336d358cfe616", "type": "electric_scooter", "lat": 38.9017155, "is_disabled": 0}, {"fusion_lat": 0.0, "lon": -77.0422655, "is_reserved": 0, "bike_id": "72abea07d9b152ac761191d9e5fcb78a", "fusion_lon": 0.0, "rental_uris": {"android": "https://dc.lft.to/lastmile_qr_scan", "ios": "https://dc.lft.to/lastmile_qr_scan"}, "name": "72abea07d9b152ac761191d9e5fcb78a", "type": "electric_scooter", "lat": 38.931526833333336, "is_disabled": 0}, {"fusion_lat": 0.0, "lon": -77.03194766666667, "is_reserved": 0, "bike_id": "bc6a5326d31b2256481321df094b4f66", "fusion_lon": 0.0, "rental_uris": {"android": "https://dc.lft.to/lastmile_qr_scan", "ios": "https://dc.lft.to/lastmile_qr_scan"}, "name": "bc6a5326d31b2256481321df094b4f66", "type": "electric_scooter", "lat": 38.909842166666664, "is_disabled": 0}, {"fusion_lat": 0.0, "lon": -77.02228783333334, "is_reserved": 0, "bike_id": "251130320d261be7ff66934099c95a97", "fusion_lon": 0.0, "rental_uris": {"android": "https://dc.lft.to/lastmile_qr_scan", "ios": "https://dc.lft.to/lastmile_qr_scan"}, "name": "251130320d261be7ff66934099c95a97", "type": "electric_scooter", "lat": 38.892206333333334, "is_disabled": 0}, {"fusion_lat": 0.0, "lon": -77.0343505, "is_reserved": 0, "bike_id": "604b98736603ac44ec3b34e4e030daae", "fusion_lon": 0.0, "rental_uris": {"android": "https://dc.lft.to/lastmile_qr_scan", "ios": "https://dc.lft.to/lastmile_qr_scan"}, "name": "604b98736603ac44ec3b34e4e030daae", "type": "electric_scooter", "lat": 38.919397833333335, "is_disabled": 0}, {"fusion_lat": 0.0, "lon": -77.02695383333334, "is_reserved": 0, "bike_id": "a1544ba43c32dd96797fb14aca9b023b", "fusion_lon": 0.0, "rental_uris": {"android": "https://dc.lft.to/lastmile_qr_scan", "ios": "https://dc.lft.to/lastmile_qr_scan"}, "name": "a1544ba43c32dd96797fb14aca9b023b", "type": "electric_scooter", "lat": 38.9083935, "is_disabled": 0}, {"fusion_lat": 0.0, "lon": -77.04340033333334, "is_reserved": 0, "bike_id": "65323cb4ced3454d6792ba9fc41ee117", "fusion_lon": 0.0, "rental_uris": {"android": "https://dc.lft.to/lastmile_qr_scan", "ios": "https://dc.lft.to/lastmile_qr_scan"}, "name": "65323cb4ced3454d6792ba9fc41ee117", "type": "electric_scooter", "lat": 38.89225916666667, "is_disabled": 0}, {"fusion_lat": 0.0, "lon": -77.07820216666667, "is_reserved": 0, "bike_id": "4902951e5f718fbb9e9a03567d11a86a", "fusion_lon": 0.0, "rental_uris": {"android": "https://dc.lft.to/lastmile_qr_scan", "ios": "https://dc.lft.to/lastmile_qr_scan"}, "name": "4902951e5f718fbb9e9a03567d11a86a", "type": "electric_bike", "lat": 38.93636633333333, "is_disabled": 0}, {"fusion_lat": 0.0, "lon": -77.02376133333334, "is_reserved": 0, "bike_id": "e1564b816e16199046d89fbdc66d646a", "fusion_lon": 0.0, "rental_uris": {"android": "https://dc.lft.to/lastmile_qr_scan", "ios": "https://dc.lft.to/lastmile_qr_scan"}, "name": "e1564b816e16199046d89fbdc66d646a", "type": "electric_scooter", "lat": 38.902061, "is_disabled": 0}, {"fusion_lat": 0.0, "lon": -77.02727483333334, "is_reserved": 0, "bike_id": "098333ac5d17a9213de0a263fb12f126", "fusion_lon": 0.0, "rental_uris": {"android": "https://dc.lft.to/lastmile_qr_scan", "ios": "https://dc.lft.to/lastmile_qr_scan"}, "name": "098333ac5d17a9213de0a263fb12f126", "type": "electric_scooter", "lat": 38.932518, "is_disabled": 0}, {"fusion_lat": 0.0, "lon": -77.0447075, "is_reserved": 0, "bike_id": "b922b7d0526a295bac4b84a4d35b1c9a", "fusion_lon": 0.0, "rental_uris": {"android": "https://dc.lft.to/lastmile_qr_scan", "ios": "https://dc.lft.to/lastmile_qr_scan"}, "name": "b922b7d0526a295bac4b84a4d35b1c9a", "type": "electric_scooter", "lat": 38.910185166666665, "is_disabled": 0}, {"fusion_lat": 0.0, "lon": -77.04178033333334, "is_reserved": 0, "bike_id": "a75dceb6a2906c3c25d7e91ff33ad12c", "fusion_lon": 0.0, "rental_uris": {"android": "https://dc.lft.to/lastmile_qr_scan", "ios": "https://dc.lft.to/lastmile_qr_scan"}, "name": "a75dceb6a2906c3c25d7e91ff33ad12c", "type": "electric_scooter", "lat": 38.90658216666667, "is_disabled": 0}, {"fusion_lat": 0.0, "lon": -77.01637433333333, "is_reserved": 0, "bike_id": "06bae631e4f97141963e73347c49bb18", "fusion_lon": 0.0, "rental_uris": {"android": "https://dc.lft.to/lastmile_qr_scan", "ios": "https://dc.lft.to/lastmile_qr_scan"}, "name": "06bae631e4f97141963e73347c49bb18", "type": "electric_scooter", "lat": 38.929035, "is_disabled": 0}, {"fusion_lat": 0.0, "lon": -77.01346466666666, "is_reserved": 0, "bike_id": "63d8e18e9a7b7d2969c548dabe5b170d", "fusion_lon": 0.0, "rental_uris": {"android": "https://dc.lft.to/lastmile_qr_scan", "ios": "https://dc.lft.to/lastmile_qr_scan"}, "name": "63d8e18e9a7b7d2969c548dabe5b170d", "type": "electric_scooter", "lat": 38.869731, "is_disabled": 0}, {"fusion_lat": 0.0, "lon": -77.03908116666666, "is_reserved": 0, "bike_id": "129dbfa4d9f0881cbbf7d7fa7832d6c6", "fusion_lon": 0.0, "rental_uris": {"android": "https://dc.lft.to/lastmile_qr_scan", "ios": "https://dc.lft.to/lastmile_qr_scan"}, "name": "129dbfa4d9f0881cbbf7d7fa7832d6c6", "type": "electric_scooter", "lat": 38.923140833333335, "is_disabled": 0}, {"fusion_lat": 0.0, "lon": -77.02159483333334, "is_reserved": 0, "bike_id": "96830a75e10df0b78b4d64a528b47d69", "fusion_lon": 0.0, "rental_uris": {"android": "https://dc.lft.to/lastmile_qr_scan", "ios": "https://dc.lft.to/lastmile_qr_scan"}, "name": "96830a75e10df0b78b4d64a528b47d69", "type": "electric_scooter", "lat": 38.926108166666666, "is_disabled": 0}, {"fusion_lat": 0.0, "lon": -76.9955025, "is_reserved": 0, "bike_id": "aea0ecb93003f494fd73ea94f2ae0fa5", "fusion_lon": 0.0, "rental_uris": {"android": "https://dc.lft.to/lastmile_qr_scan", "ios": "https://dc.lft.to/lastmile_qr_scan"}, "name": "aea0ecb93003f494fd73ea94f2ae0fa5", "type": "electric_scooter", "lat": 38.86261583333334, "is_disabled": 0}, {"fusion_lat": 0.0, "lon": -76.98092433333333, "is_reserved": 0, "bike_id": "77d052156b02c9cbda44102b1e3171a5", "fusion_lon": 0.0, "rental_uris": {"android": "https://dc.lft.to/lastmile_qr_scan", "ios": "https://dc.lft.to/lastmile_qr_scan"}, "name": "77d052156b02c9cbda44102b1e3171a5", "type": "electric_bike", "lat": 38.95356, "is_disabled": 0}, {"fusion_lat": 0.0, "lon": -77.03855733333333, "is_reserved": 0, "bike_id": "65ae7a164860bbfe89e7bdc87d65f900", "fusion_lon": 0.0, "rental_uris": {"android": "https://dc.lft.to/lastmile_qr_scan", "ios": "https://dc.lft.to/lastmile_qr_scan"}, "name": "65ae7a164860bbfe89e7bdc87d65f900", "type": "electric_scooter", "lat": 38.915442666666664, "is_disabled": 0}, {"fusion_lat": 0.0, "lon": -76.93130266666667, "is_reserved": 0, "bike_id": "aa769c96b8f7772ddcd8efe13c59074a", "fusion_lon": 0.0, "rental_uris": {"android": "https://dc.lft.to/lastmile_qr_scan", "ios": "https://dc.lft.to/lastmile_qr_scan"}, "name": "aa769c96b8f7772ddcd8efe13c59074a", "type": "electric_scooter", "lat": 38.87610683333333, "is_disabled": 0}, {"fusion_lat": 0.0, "lon": -77.0236415, "is_reserved": 0, "bike_id": "38b6d87aad51a0824b0160fe7537f7fd", "fusion_lon": 0.0, "rental_uris": {"android": "https://dc.lft.to/lastmile_qr_scan", "ios": "https://dc.lft.to/lastmile_qr_scan"}, "name": "38b6d87aad51a0824b0160fe7537f7fd", "type": "electric_scooter", "lat": 38.892178333333334, "is_disabled": 0}, {"fusion_lat": 0.0, "lon": -77.04871783333333, "is_reserved": 0, "bike_id": "1547c24b4e2e6c304c9c0131d1ec9064", "fusion_lon": 0.0, "rental_uris": {"android": "https://dc.lft.to/lastmile_qr_scan", "ios": "https://dc.lft.to/lastmile_qr_scan"}, "name": "1547c24b4e2e6c304c9c0131d1ec9064", "type": "electric_scooter", "lat": 38.90967166666667, "is_disabled": 0}, {"fusion_lat": 0.0, "lon": -77.0254405, "is_reserved": 0, "bike_id": "72e7fb43471fd5964b8472e38bece143", "fusion_lon": 0.0, "rental_uris": {"android": "https://dc.lft.to/lastmile_qr_scan", "ios": "https://dc.lft.to/lastmile_qr_scan"}, "name": "72e7fb43471fd5964b8472e38bece143", "type": "electric_scooter", "lat": 38.90723366666667, "is_disabled": 0}, {"fusion_lat": 0.0, "lon": -77.0488965, "is_reserved": 0, "bike_id": "5a4f1dadf517146f1162f38cadc6264a", "fusion_lon": 0.0, "rental_uris": {"android": "https://dc.lft.to/lastmile_qr_scan", "ios": "https://dc.lft.to/lastmile_qr_scan"}, "name": "5a4f1dadf517146f1162f38cadc6264a", "type": "electric_scooter", "lat": 38.9011435, "is_disabled": 0}, {"fusion_lat": 0.0, "lon": -77.01977366666667, "is_reserved": 0, "bike_id": "f87bad386f5e7cd2ed81804107ea08fb", "fusion_lon": 0.0, "rental_uris": {"android": "https://dc.lft.to/lastmile_qr_scan", "ios": "https://dc.lft.to/lastmile_qr_scan"}, "name": "f87bad386f5e7cd2ed81804107ea08fb", "type": "electric_scooter", "lat": 38.91276083333333, "is_disabled": 0}, {"fusion_lat": 0.0, "lon": -77.0198525, "is_reserved": 0, "bike_id": "3ea76ddb9b9e9bbaf072943a2bf20c49", "fusion_lon": 0.0, "rental_uris": {"android": "https://dc.lft.to/lastmile_qr_scan", "ios": "https://dc.lft.to/lastmile_qr_scan"}, "name": "3ea76ddb9b9e9bbaf072943a2bf20c49", "type": "electric_scooter", "lat": 38.91097033333333, "is_disabled": 0}, {"fusion_lat": 0.0, "lon": -77.031353, "is_reserved": 0, "bike_id": "9ce812bee826f01bbca47fec7839c6f9", "fusion_lon": 0.0, "rental_uris": {"android": "https://dc.lft.to/lastmile_qr_scan", "ios": "https://dc.lft.to/lastmile_qr_scan"}, "name": "9ce812bee826f01bbca47fec7839c6f9", "type": "electric_scooter", "lat": 38.92573483333334, "is_disabled": 0}, {"fusion_lat": 0.0, "lon": -77.02613633333333, "is_reserved": 0, "bike_id": "a4f72b51cc6ed5dcc39ddef65f3c4849", "fusion_lon": 0.0, "rental_uris": {"android": "https://dc.lft.to/lastmile_qr_scan", "ios": "https://dc.lft.to/lastmile_qr_scan"}, "name": "a4f72b51cc6ed5dcc39ddef65f3c4849", "type": "electric_scooter", "lat": 38.9086045, "is_disabled": 0}, {"fusion_lat": 0.0, "lon": -76.99545816666667, "is_reserved": 0, "bike_id": "42be32cbd55dc9be961313067d593374", "fusion_lon": 0.0, "rental_uris": {"android": "https://dc.lft.to/lastmile_qr_scan", "ios": "https://dc.lft.to/lastmile_qr_scan"}, "name": "42be32cbd55dc9be961313067d593374", "type": "electric_scooter", "lat": 38.926663166666664, "is_disabled": 0}, {"fusion_lat": 0.0, "lon": -77.03515316666666, "is_reserved": 0, "bike_id": "1f96bcc8a2be665423f29adf22a6568c", "fusion_lon": 0.0, "rental_uris": {"android": "https://dc.lft.to/lastmile_qr_scan", "ios": "https://dc.lft.to/lastmile_qr_scan"}, "name": "1f96bcc8a2be665423f29adf22a6568c", "type": "electric_scooter", "lat": 38.921554666666665, "is_disabled": 0}, {"fusion_lat": 0.0, "lon": -77.02113383333334, "is_reserved": 0, "bike_id": "3020ee1b4414f47fd8fd5f82e3156ced", "fusion_lon": 0.0, "rental_uris": {"android": "https://dc.lft.to/lastmile_qr_scan", "ios": "https://dc.lft.to/lastmile_qr_scan"}, "name": "3020ee1b4414f47fd8fd5f82e3156ced", "type": "electric_scooter", "lat": 38.92470266666667, "is_disabled": 0}, {"fusion_lat": 0.0, "lon": -77.04649383333333, "is_reserved": 0, "bike_id": "7091fc703a8069b1d54d8946cea2776e", "fusion_lon": 0.0, "rental_uris": {"android": "https://dc.lft.to/lastmile_qr_scan", "ios": "https://dc.lft.to/lastmile_qr_scan"}, "name": "7091fc703a8069b1d54d8946cea2776e", "type": "electric_scooter", "lat": 38.90012383333333, "is_disabled": 0}, {"fusion_lat": 0.0, "lon": -77.08037583333333, "is_reserved": 0, "bike_id": "c58291cdffe1fd5e0895e7a186329498", "fusion_lon": 0.0, "rental_uris": {"android": "https://dc.lft.to/lastmile_qr_scan", "ios": "https://dc.lft.to/lastmile_qr_scan"}, "name": "c58291cdffe1fd5e0895e7a186329498", "type": "electric_scooter", "lat": 38.923902, "is_disabled": 0}, {"fusion_lat": 0.0, "lon": -77.04233733333334, "is_reserved": 0, "bike_id": "717125220e98aeb3e2b25ebf05671374", "fusion_lon": 0.0, "rental_uris": {"android": "https://dc.lft.to/lastmile_qr_scan", "ios": "https://dc.lft.to/lastmile_qr_scan"}, "name": "717125220e98aeb3e2b25ebf05671374", "type": "electric_scooter", "lat": 38.921563166666665, "is_disabled": 0}, {"fusion_lat": 0.0, "lon": -77.04505033333334, "is_reserved": 0, "bike_id": "e5b0a49f472120ce3931c0441ce3e8cc", "fusion_lon": 0.0, "rental_uris": {"android": "https://dc.lft.to/lastmile_qr_scan", "ios": "https://dc.lft.to/lastmile_qr_scan"}, "name": "e5b0a49f472120ce3931c0441ce3e8cc", "type": "electric_scooter", "lat": 38.90509316666667, "is_disabled": 0}, {"fusion_lat": 0.0, "lon": -77.02904116666667, "is_reserved": 0, "bike_id": "88b962b4a7816444d7cd7501ef79930b", "fusion_lon": 0.0, "rental_uris": {"android": "https://dc.lft.to/lastmile_qr_scan", "ios": "https://dc.lft.to/lastmile_qr_scan"}, "name": "88b962b4a7816444d7cd7501ef79930b", "type": "electric_scooter", "lat": 38.92813566666667, "is_disabled": 0}, {"fusion_lat": 0.0, "lon": -76.99883116666666, "is_reserved": 0, "bike_id": "b086222f2c5032d2c81770dac00e3cdf", "fusion_lon": 0.0, "rental_uris": {"android": "https://dc.lft.to/lastmile_qr_scan", "ios": "https://dc.lft.to/lastmile_qr_scan"}, "name": "b086222f2c5032d2c81770dac00e3cdf", "type": "electric_scooter", "lat": 38.90131066666667, "is_disabled": 0}, {"fusion_lat": 0.0, "lon": -77.02204833333333, "is_reserved": 0, "bike_id": "3597e675eed15acc349fa5e9b54fc8cf", "fusion_lon": 0.0, "rental_uris": {"android": "https://dc.lft.to/lastmile_qr_scan", "ios": "https://dc.lft.to/lastmile_qr_scan"}, "name": "3597e675eed15acc349fa5e9b54fc8cf", "type": "electric_scooter", "lat": 38.925876, "is_disabled": 0}, {"fusion_lat": 0.0, "lon": -76.980209, "is_reserved": 0, "bike_id": "42dcd32a88216871bafa592ab0be5735", "fusion_lon": 0.0, "rental_uris": {"android": "https://dc.lft.to/lastmile_qr_scan", "ios": "https://dc.lft.to/lastmile_qr_scan"}, "name": "42dcd32a88216871bafa592ab0be5735", "type": "electric_scooter", "lat": 38.9028655, "is_disabled": 0}, {"fusion_lat": 0.0, "lon": -77.00203066666667, "is_reserved": 0, "bike_id": "a3f4587f664be997546fed853632e97e", "fusion_lon": 0.0, "rental_uris": {"android": "https://dc.lft.to/lastmile_qr_scan", "ios": "https://dc.lft.to/lastmile_qr_scan"}, "name": "a3f4587f664be997546fed853632e97e", "type": "electric_scooter", "lat": 38.90238166666666, "is_disabled": 0}, {"fusion_lat": 0.0, "lon": -77.04338333333334, "is_reserved": 0, "bike_id": "80b8137ac3cfd7c998848eb58915b45e", "fusion_lon": 0.0, "rental_uris": {"android": "https://dc.lft.to/lastmile_qr_scan", "ios": "https://dc.lft.to/lastmile_qr_scan"}, "name": "80b8137ac3cfd7c998848eb58915b45e", "type": "electric_scooter", "lat": 38.90329916666666, "is_disabled": 0}, {"fusion_lat": 0.0, "lon": -76.97640516666667, "is_reserved": 0, "bike_id": "a0b7228aa8e1f27ee48f3b46f3562360", "fusion_lon": 0.0, "rental_uris": {"android": "https://dc.lft.to/lastmile_qr_scan", "ios": "https://dc.lft.to/lastmile_qr_scan"}, "name": "a0b7228aa8e1f27ee48f3b46f3562360", "type": "electric_scooter", "lat": 38.8645745, "is_disabled": 0}, {"fusion_lat": 0.0, "lon": -76.99942883333334, "is_reserved": 0, "bike_id": "71134e7d3371edc35f34bf51f870f231", "fusion_lon": 0.0, "rental_uris": {"android": "https://dc.lft.to/lastmile_qr_scan", "ios": "https://dc.lft.to/lastmile_qr_scan"}, "name": "71134e7d3371edc35f34bf51f870f231", "type": "electric_scooter", "lat": 38.90758533333333, "is_disabled": 0}, {"fusion_lat": 0.0, "lon": -77.03009866666666, "is_reserved": 0, "bike_id": "b8553b872c3773b817beb9399a4f26da", "fusion_lon": 0.0, "rental_uris": {"android": "https://dc.lft.to/lastmile_qr_scan", "ios": "https://dc.lft.to/lastmile_qr_scan"}, "name": "b8553b872c3773b817beb9399a4f26da", "type": "electric_scooter", "lat": 38.9204345, "is_disabled": 0}, {"fusion_lat": 0.0, "lon": -77.04353733333333, "is_reserved": 0, "bike_id": "15c06b509e1bbb4182d1b820afde220b", "fusion_lon": 0.0, "rental_uris": {"android": "https://dc.lft.to/lastmile_qr_scan", "ios": "https://dc.lft.to/lastmile_qr_scan"}, "name": "15c06b509e1bbb4182d1b820afde220b", "type": "electric_scooter", "lat": 38.9077365, "is_disabled": 0}, {"fusion_lat": 0.0, "lon": -77.03178066666666, "is_reserved": 0, "bike_id": "a706a0ef805e0a1f7369e2c07a3150e4", "fusion_lon": 0.0, "rental_uris": {"android": "https://dc.lft.to/lastmile_qr_scan", "ios": "https://dc.lft.to/lastmile_qr_scan"}, "name": "a706a0ef805e0a1f7369e2c07a3150e4", "type": "electric_scooter", "lat": 38.91801366666667, "is_disabled": 0}, {"fusion_lat": 0.0, "lon": -77.03226866666667, "is_reserved": 0, "bike_id": "ce2d1b69bd6314c4946f6ba3fbbd0668", "fusion_lon": 0.0, "rental_uris": {"android": "https://dc.lft.to/lastmile_qr_scan", "ios": "https://dc.lft.to/lastmile_qr_scan"}, "name": "ce2d1b69bd6314c4946f6ba3fbbd0668", "type": "electric_scooter", "lat": 38.914073, "is_disabled": 0}, {"fusion_lat": 0.0, "lon": -77.00926216666667, "is_reserved": 0, "bike_id": "c2722695679683397d0531d93670a777", "fusion_lon": 0.0, "rental_uris": {"android": "https://dc.lft.to/lastmile_qr_scan", "ios": "https://dc.lft.to/lastmile_qr_scan"}, "name": "c2722695679683397d0531d93670a777", "type": "electric_scooter", "lat": 38.89607183333333, "is_disabled": 0}, {"fusion_lat": 0.0, "lon": -76.9951085, "is_reserved": 0, "bike_id": "87bd153603eefb928c612fa69cd8aa5d", "fusion_lon": 0.0, "rental_uris": {"android": "https://dc.lft.to/lastmile_qr_scan", "ios": "https://dc.lft.to/lastmile_qr_scan"}, "name": "87bd153603eefb928c612fa69cd8aa5d", "type": "electric_scooter", "lat": 38.882617333333336, "is_disabled": 0}, {"fusion_lat": 0.0, "lon": -77.03704016666667, "is_reserved": 0, "bike_id": "6c8da09b067c8b49530acb01ebf4da33", "fusion_lon": 0.0, "rental_uris": {"android": "https://dc.lft.to/lastmile_qr_scan", "ios": "https://dc.lft.to/lastmile_qr_scan"}, "name": "6c8da09b067c8b49530acb01ebf4da33", "type": "electric_scooter", "lat": 38.9263605, "is_disabled": 0}, {"fusion_lat": 0.0, "lon": -77.00495933333333, "is_reserved": 0, "bike_id": "21903b2992d7683230b7d9b73510cbcb", "fusion_lon": 0.0, "rental_uris": {"android": "https://dc.lft.to/lastmile_qr_scan", "ios": "https://dc.lft.to/lastmile_qr_scan"}, "name": "21903b2992d7683230b7d9b73510cbcb", "type": "electric_scooter", "lat": 38.896852833333334, "is_disabled": 0}, {"fusion_lat": 0.0, "lon": -77.0532315, "is_reserved": 0, "bike_id": "2e494498daa368fa55167b733e230b27", "fusion_lon": 0.0, "rental_uris": {"android": "https://dc.lft.to/lastmile_qr_scan", "ios": "https://dc.lft.to/lastmile_qr_scan"}, "name": "2e494498daa368fa55167b733e230b27", "type": "electric_scooter", "lat": 38.9155715, "is_disabled": 0}, {"fusion_lat": 0.0, "lon": -77.048662, "is_reserved": 0, "bike_id": "a492b52e253fba02d53a25dcf3271c3a", "fusion_lon": 0.0, "rental_uris": {"android": "https://dc.lft.to/lastmile_qr_scan", "ios": "https://dc.lft.to/lastmile_qr_scan"}, "name": "a492b52e253fba02d53a25dcf3271c3a", "type": "electric_scooter", "lat": 38.892221166666666, "is_disabled": 0}, {"fusion_lat": 0.0, "lon": -77.0432385, "is_reserved": 0, "bike_id": "718982ed582c3b060fa5ab85a8116a7f", "fusion_lon": 0.0, "rental_uris": {"android": "https://dc.lft.to/lastmile_qr_scan", "ios": "https://dc.lft.to/lastmile_qr_scan"}, "name": "718982ed582c3b060fa5ab85a8116a7f", "type": "electric_scooter", "lat": 38.89219216666667, "is_disabled": 0}, {"fusion_lat": 0.0, "lon": -77.07695333333334, "is_reserved": 0, "bike_id": "7ac97e9a421b9a3c397a99f0dd4d1df2", "fusion_lon": 0.0, "rental_uris": {"android": "https://dc.lft.to/lastmile_qr_scan", "ios": "https://dc.lft.to/lastmile_qr_scan"}, "name": "7ac97e9a421b9a3c397a99f0dd4d1df2", "type": "electric_bike", "lat": 38.840889, "is_disabled": 0}, {"fusion_lat": 0.0, "lon": -77.03499466666666, "is_reserved": 0, "bike_id": "d30e4ee2eaeb361236839d87263a6a25", "fusion_lon": 0.0, "rental_uris": {"android": "https://dc.lft.to/lastmile_qr_scan", "ios": "https://dc.lft.to/lastmile_qr_scan"}, "name": "d30e4ee2eaeb361236839d87263a6a25", "type": "electric_scooter", "lat": 38.92348283333333, "is_disabled": 0}, {"fusion_lat": 0.0, "lon": -77.041412, "is_reserved": 0, "bike_id": "dadda215f1c662dcfb31971f67175e98", "fusion_lon": 0.0, "rental_uris": {"android": "https://dc.lft.to/lastmile_qr_scan", "ios": "https://dc.lft.to/lastmile_qr_scan"}, "name": "dadda215f1c662dcfb31971f67175e98", "type": "electric_scooter", "lat": 38.907408, "is_disabled": 0}, {"fusion_lat": 0.0, "lon": -76.93362733333333, "is_reserved": 0, "bike_id": "82cdc2e79b7c266dd2ab157d6ed36b74", "fusion_lon": 0.0, "rental_uris": {"android": "https://dc.lft.to/lastmile_qr_scan", "ios": "https://dc.lft.to/lastmile_qr_scan"}, "name": "82cdc2e79b7c266dd2ab157d6ed36b74", "type": "electric_scooter", "lat": 38.899125, "is_disabled": 0}, {"fusion_lat": 0.0, "lon": -76.98376816666666, "is_reserved": 0, "bike_id": "364b7c5b4077734acc4c6e72416429fa", "fusion_lon": 0.0, "rental_uris": {"android": "https://dc.lft.to/lastmile_qr_scan", "ios": "https://dc.lft.to/lastmile_qr_scan"}, "name": "364b7c5b4077734acc4c6e72416429fa", "type": "electric_scooter", "lat": 38.91494516666667, "is_disabled": 0}, {"fusion_lat": 0.0, "lon": -77.04225283333334, "is_reserved": 0, "bike_id": "6f6e2f0d3d69aea317db03da7a3df16b", "fusion_lon": 0.0, "rental_uris": {"android": "https://dc.lft.to/lastmile_qr_scan", "ios": "https://dc.lft.to/lastmile_qr_scan"}, "name": "6f6e2f0d3d69aea317db03da7a3df16b", "type": "electric_scooter", "lat": 38.921731, "is_disabled": 0}, {"fusion_lat": 0.0, "lon": -77.04364083333333, "is_reserved": 0, "bike_id": "695a2842c0d2580a5daa45299a9190d5", "fusion_lon": 0.0, "rental_uris": {"android": "https://dc.lft.to/lastmile_qr_scan", "ios": "https://dc.lft.to/lastmile_qr_scan"}, "name": "695a2842c0d2580a5daa45299a9190d5", "type": "electric_scooter", "lat": 38.90578983333333, "is_disabled": 0}, {"fusion_lat": 0.0, "lon": -77.04362233333333, "is_reserved": 0, "bike_id": "02834aa68da591574def3173f58f1e9f", "fusion_lon": 0.0, "rental_uris": {"android": "https://dc.lft.to/lastmile_qr_scan", "ios": "https://dc.lft.to/lastmile_qr_scan"}, "name": "02834aa68da591574def3173f58f1e9f", "type": "electric_scooter", "lat": 38.91118266666667, "is_disabled": 0}, {"fusion_lat": 0.0, "lon": -76.99600383333333, "is_reserved": 0, "bike_id": "6fbb537352fe38ea1e541f149b3687b2", "fusion_lon": 0.0, "rental_uris": {"android": "https://dc.lft.to/lastmile_qr_scan", "ios": "https://dc.lft.to/lastmile_qr_scan"}, "name": "6fbb537352fe38ea1e541f149b3687b2", "type": "electric_scooter", "lat": 38.892252666666664, "is_disabled": 0}, {"fusion_lat": 0.0, "lon": -77.089509, "is_reserved": 0, "bike_id": "253d91edd0cb07463279016071e540de", "fusion_lon": 0.0, "rental_uris": {"android": "https://dc.lft.to/lastmile_qr_scan", "ios": "https://dc.lft.to/lastmile_qr_scan"}, "name": "253d91edd0cb07463279016071e540de", "type": "electric_bike", "lat": 38.841140833333334, "is_disabled": 0}, {"fusion_lat": 0.0, "lon": -77.02692166666667, "is_reserved": 0, "bike_id": "d29191c14ee84c802973c1b05bfef86d", "fusion_lon": 0.0, "rental_uris": {"android": "https://dc.lft.to/lastmile_qr_scan", "ios": "https://dc.lft.to/lastmile_qr_scan"}, "name": "d29191c14ee84c802973c1b05bfef86d", "type": "electric_scooter", "lat": 38.90931583333333, "is_disabled": 0}, {"fusion_lat": 0.0, "lon": -77.022921, "is_reserved": 0, "bike_id": "d7d3188783b0d100512587d86abe6151", "fusion_lon": 0.0, "rental_uris": {"android": "https://dc.lft.to/lastmile_qr_scan", "ios": "https://dc.lft.to/lastmile_qr_scan"}, "name": "d7d3188783b0d100512587d86abe6151", "type": "electric_scooter", "lat": 38.927230333333334, "is_disabled": 0}, {"fusion_lat": 0.0, "lon": -76.99503833333333, "is_reserved": 0, "bike_id": "5433c5ff54482ff30e12cdfac54b7189", "fusion_lon": 0.0, "rental_uris": {"android": "https://dc.lft.to/lastmile_qr_scan", "ios": "https://dc.lft.to/lastmile_qr_scan"}, "name": "5433c5ff54482ff30e12cdfac54b7189", "type": "electric_scooter", "lat": 38.909792, "is_disabled": 0}, {"fusion_lat": 0.0, "lon": -77.02420133333334, "is_reserved": 0, "bike_id": "7c493f78140e021c2053b3ca2be0821a", "fusion_lon": 0.0, "rental_uris": {"android": "https://dc.lft.to/lastmile_qr_scan", "ios": "https://dc.lft.to/lastmile_qr_scan"}, "name": "7c493f78140e021c2053b3ca2be0821a", "type": "electric_scooter", "lat": 38.920837, "is_disabled": 0}, {"fusion_lat": 0.0, "lon": -77.02550383333333, "is_reserved": 0, "bike_id": "bf9f7c3c01d5df2d6d4de07b8e48e681", "fusion_lon": 0.0, "rental_uris": {"android": "https://dc.lft.to/lastmile_qr_scan", "ios": "https://dc.lft.to/lastmile_qr_scan"}, "name": "bf9f7c3c01d5df2d6d4de07b8e48e681", "type": "electric_scooter", "lat": 38.924722333333335, "is_disabled": 0}, {"fusion_lat": 0.0, "lon": -77.0120805, "is_reserved": 0, "bike_id": "8ef075ad048ef018c79c514bd3686050", "fusion_lon": 0.0, "rental_uris": {"android": "https://dc.lft.to/lastmile_qr_scan", "ios": "https://dc.lft.to/lastmile_qr_scan"}, "name": "8ef075ad048ef018c79c514bd3686050", "type": "electric_bike", "lat": 38.870943, "is_disabled": 0}, {"fusion_lat": 0.0, "lon": -77.02404166666666, "is_reserved": 0, "bike_id": "6477d7580e6449aa89184434063e682f", "fusion_lon": 0.0, "rental_uris": {"android": "https://dc.lft.to/lastmile_qr_scan", "ios": "https://dc.lft.to/lastmile_qr_scan"}, "name": "6477d7580e6449aa89184434063e682f", "type": "electric_scooter", "lat": 38.957321666666665, "is_disabled": 0}, {"fusion_lat": 0.0, "lon": -76.94634116666667, "is_reserved": 0, "bike_id": "dd4433eb0716221e9deb63aeb62c6308", "fusion_lon": 0.0, "rental_uris": {"android": "https://dc.lft.to/lastmile_qr_scan", "ios": "https://dc.lft.to/lastmile_qr_scan"}, "name": "dd4433eb0716221e9deb63aeb62c6308", "type": "electric_scooter", "lat": 38.898420333333334, "is_disabled": 0}, {"fusion_lat": 0.0, "lon": -76.981068, "is_reserved": 0, "bike_id": "3ac1ffec014c0a7964ef010328cba073", "fusion_lon": 0.0, "rental_uris": {"android": "https://dc.lft.to/lastmile_qr_scan", "ios": "https://dc.lft.to/lastmile_qr_scan"}, "name": "3ac1ffec014c0a7964ef010328cba073", "type": "electric_scooter", "lat": 38.903927, "is_disabled": 0}, {"fusion_lat": 0.0, "lon": -77.02693166666667, "is_reserved": 0, "bike_id": "508548d72d4b2aad262cf3a3e7b446dc", "fusion_lon": 0.0, "rental_uris": {"android": "https://dc.lft.to/lastmile_qr_scan", "ios": "https://dc.lft.to/lastmile_qr_scan"}, "name": "508548d72d4b2aad262cf3a3e7b446dc", "type": "electric_scooter", "lat": 38.898096333333335, "is_disabled": 0}, {"fusion_lat": 0.0, "lon": -76.94880616666667, "is_reserved": 0, "bike_id": "b3d99c673acbf1425ef380d5796ca8eb", "fusion_lon": 0.0, "rental_uris": {"android": "https://dc.lft.to/lastmile_qr_scan", "ios": "https://dc.lft.to/lastmile_qr_scan"}, "name": "b3d99c673acbf1425ef380d5796ca8eb", "type": "electric_scooter", "lat": 38.8955215, "is_disabled": 0}, {"fusion_lat": 0.0, "lon": -77.0507275, "is_reserved": 0, "bike_id": "26d292430e2018865df68f3d5f4f069b", "fusion_lon": 0.0, "rental_uris": {"android": "https://dc.lft.to/lastmile_qr_scan", "ios": "https://dc.lft.to/lastmile_qr_scan"}, "name": "26d292430e2018865df68f3d5f4f069b", "type": "electric_scooter", "lat": 38.89673716666667, "is_disabled": 0}, {"fusion_lat": 0.0, "lon": -77.05537033333333, "is_reserved": 0, "bike_id": "d824cab835a8b7563de44a4693916152", "fusion_lon": 0.0, "rental_uris": {"android": "https://dc.lft.to/lastmile_qr_scan", "ios": "https://dc.lft.to/lastmile_qr_scan"}, "name": "d824cab835a8b7563de44a4693916152", "type": "electric_scooter", "lat": 38.927963, "is_disabled": 0}, {"fusion_lat": 0.0, "lon": -77.04300716666667, "is_reserved": 0, "bike_id": "a7f98e8313da4088ea9c33650e7994f8", "fusion_lon": 0.0, "rental_uris": {"android": "https://dc.lft.to/lastmile_qr_scan", "ios": "https://dc.lft.to/lastmile_qr_scan"}, "name": "a7f98e8313da4088ea9c33650e7994f8", "type": "electric_scooter", "lat": 38.89357716666667, "is_disabled": 0}, {"fusion_lat": 0.0, "lon": -77.00726283333333, "is_reserved": 0, "bike_id": "fd7f355affedcb4eded9e7996d6d4411", "fusion_lon": 0.0, "rental_uris": {"android": "https://dc.lft.to/lastmile_qr_scan", "ios": "https://dc.lft.to/lastmile_qr_scan"}, "name": "fd7f355affedcb4eded9e7996d6d4411", "type": "electric_scooter", "lat": 38.884866333333335, "is_disabled": 0}, {"fusion_lat": 0.0, "lon": -77.0241115, "is_reserved": 0, "bike_id": "1e4f8e4c721b706f9433630c9895fad8", "fusion_lon": 0.0, "rental_uris": {"android": "https://dc.lft.to/lastmile_qr_scan", "ios": "https://dc.lft.to/lastmile_qr_scan"}, "name": "1e4f8e4c721b706f9433630c9895fad8", "type": "electric_scooter", "lat": 38.894466333333334, "is_disabled": 0}, {"fusion_lat": 0.0, "lon": -77.04650266666667, "is_reserved": 0, "bike_id": "7faa9fff1564da7b9d8e1ce0c5ca41f3", "fusion_lon": 0.0, "rental_uris": {"android": "https://dc.lft.to/lastmile_qr_scan", "ios": "https://dc.lft.to/lastmile_qr_scan"}, "name": "7faa9fff1564da7b9d8e1ce0c5ca41f3", "type": "electric_scooter", "lat": 38.896425, "is_disabled": 0}, {"fusion_lat": 0.0, "lon": -76.94879283333333, "is_reserved": 0, "bike_id": "15a387889b162cd45a967addd14be38f", "fusion_lon": 0.0, "rental_uris": {"android": "https://dc.lft.to/lastmile_qr_scan", "ios": "https://dc.lft.to/lastmile_qr_scan"}, "name": "15a387889b162cd45a967addd14be38f", "type": "electric_scooter", "lat": 38.89553566666667, "is_disabled": 0}, {"fusion_lat": 0.0, "lon": -77.0074825, "is_reserved": 0, "bike_id": "8f00532cf3f8041aaaf68276608d1ac1", "fusion_lon": 0.0, "rental_uris": {"android": "https://dc.lft.to/lastmile_qr_scan", "ios": "https://dc.lft.to/lastmile_qr_scan"}, "name": "8f00532cf3f8041aaaf68276608d1ac1", "type": "electric_scooter", "lat": 38.8766495, "is_disabled": 0}, {"fusion_lat": 0.0, "lon": -76.99710733333333, "is_reserved": 0, "bike_id": "a66d5bfa2544c3b1b1dc06f0bbba1b76", "fusion_lon": 0.0, "rental_uris": {"android": "https://dc.lft.to/lastmile_qr_scan", "ios": "https://dc.lft.to/lastmile_qr_scan"}, "name": "a66d5bfa2544c3b1b1dc06f0bbba1b76", "type": "electric_scooter", "lat": 38.90775383333333, "is_disabled": 0}, {"fusion_lat": 0.0, "lon": -76.9906415, "is_reserved": 0, "bike_id": "cb52024f188da05656c4d8398c7e1a70", "fusion_lon": 0.0, "rental_uris": {"android": "https://dc.lft.to/lastmile_qr_scan", "ios": "https://dc.lft.to/lastmile_qr_scan"}, "name": "cb52024f188da05656c4d8398c7e1a70", "type": "electric_scooter", "lat": 38.863640333333336, "is_disabled": 0}, {"fusion_lat": 0.0, "lon": -76.98721333333333, "is_reserved": 0, "bike_id": "95f3ee0aa2cfdb0ba7598e214732ac18", "fusion_lon": 0.0, "rental_uris": {"android": "https://dc.lft.to/lastmile_qr_scan", "ios": "https://dc.lft.to/lastmile_qr_scan"}, "name": "95f3ee0aa2cfdb0ba7598e214732ac18", "type": "electric_scooter", "lat": 38.866828166666664, "is_disabled": 0}, {"fusion_lat": 0.0, "lon": -77.0386645, "is_reserved": 0, "bike_id": "162fb6ea725440719484727dba4479d5", "fusion_lon": 0.0, "rental_uris": {"android": "https://dc.lft.to/lastmile_qr_scan", "ios": "https://dc.lft.to/lastmile_qr_scan"}, "name": "162fb6ea725440719484727dba4479d5", "type": "electric_scooter", "lat": 38.94503516666666, "is_disabled": 0}, {"fusion_lat": 0.0, "lon": -76.986458, "is_reserved": 0, "bike_id": "ffdef7c145359a8060b4d340701abb0c", "fusion_lon": 0.0, "rental_uris": {"android": "https://dc.lft.to/lastmile_qr_scan", "ios": "https://dc.lft.to/lastmile_qr_scan"}, "name": "ffdef7c145359a8060b4d340701abb0c", "type": "electric_scooter", "lat": 38.901601, "is_disabled": 0}, {"fusion_lat": 0.0, "lon": -76.95017166666666, "is_reserved": 0, "bike_id": "bb6e9a3a58bcc07b84380e260d240fdf", "fusion_lon": 0.0, "rental_uris": {"android": "https://dc.lft.to/lastmile_qr_scan", "ios": "https://dc.lft.to/lastmile_qr_scan"}, "name": "bb6e9a3a58bcc07b84380e260d240fdf", "type": "electric_scooter", "lat": 38.893873666666664, "is_disabled": 0}, {"fusion_lat": 0.0, "lon": -77.00363916666667, "is_reserved": 0, "bike_id": "81bef977214c5f6b2047aad1773c732c", "fusion_lon": 0.0, "rental_uris": {"android": "https://dc.lft.to/lastmile_qr_scan", "ios": "https://dc.lft.to/lastmile_qr_scan"}, "name": "81bef977214c5f6b2047aad1773c732c", "type": "electric_scooter", "lat": 38.90732633333333, "is_disabled": 0}, {"fusion_lat": 0.0, "lon": -76.99961, "is_reserved": 0, "bike_id": "e0db77eff72ef8c5e2aabd47f05ee464", "fusion_lon": 0.0, "rental_uris": {"android": "https://dc.lft.to/lastmile_qr_scan", "ios": "https://dc.lft.to/lastmile_qr_scan"}, "name": "e0db77eff72ef8c5e2aabd47f05ee464", "type": "electric_bike", "lat": 38.90861316666667, "is_disabled": 0}, {"fusion_lat": 0.0, "lon": -77.035836, "is_reserved": 0, "bike_id": "a205a69a36727e1d48fc8fccf41b7493", "fusion_lon": 0.0, "rental_uris": {"android": "https://dc.lft.to/lastmile_qr_scan", "ios": "https://dc.lft.to/lastmile_qr_scan"}, "name": "a205a69a36727e1d48fc8fccf41b7493", "type": "electric_scooter", "lat": 38.907611, "is_disabled": 0}, {"fusion_lat": 0.0, "lon": -77.00374783333334, "is_reserved": 0, "bike_id": "67de2363164dd1808b111c7b642a623a", "fusion_lon": 0.0, "rental_uris": {"android": "https://dc.lft.to/lastmile_qr_scan", "ios": "https://dc.lft.to/lastmile_qr_scan"}, "name": "67de2363164dd1808b111c7b642a623a", "type": "electric_scooter", "lat": 38.89731166666667, "is_disabled": 0}, {"fusion_lat": 0.0, "lon": -77.018169, "is_reserved": 0, "bike_id": "be1d0485ecc2352db4bdf35de083bfa7", "fusion_lon": 0.0, "rental_uris": {"android": "https://dc.lft.to/lastmile_qr_scan", "ios": "https://dc.lft.to/lastmile_qr_scan"}, "name": "be1d0485ecc2352db4bdf35de083bfa7", "type": "electric_scooter", "lat": 38.9097005, "is_disabled": 0}, {"fusion_lat": 0.0, "lon": -77.04519333333333, "is_reserved": 0, "bike_id": "928016476368987ba3f8d260b7a8446b", "fusion_lon": 0.0, "rental_uris": {"android": "https://dc.lft.to/lastmile_qr_scan", "ios": "https://dc.lft.to/lastmile_qr_scan"}, "name": "928016476368987ba3f8d260b7a8446b", "type": "electric_scooter", "lat": 38.90971533333333, "is_disabled": 0}, {"fusion_lat": 0.0, "lon": -77.0214855, "is_reserved": 0, "bike_id": "a4768547971a5286b1145fc86fc3678c", "fusion_lon": 0.0, "rental_uris": {"android": "https://dc.lft.to/lastmile_qr_scan", "ios": "https://dc.lft.to/lastmile_qr_scan"}, "name": "a4768547971a5286b1145fc86fc3678c", "type": "electric_scooter", "lat": 38.8791925, "is_disabled": 0}, {"fusion_lat": 0.0, "lon": -77.01137166666666, "is_reserved": 0, "bike_id": "ada3d5aa8e45cbd71de2e54623a3a619", "fusion_lon": 0.0, "rental_uris": {"android": "https://dc.lft.to/lastmile_qr_scan", "ios": "https://dc.lft.to/lastmile_qr_scan"}, "name": "ada3d5aa8e45cbd71de2e54623a3a619", "type": "electric_scooter", "lat": 38.880401166666665, "is_disabled": 0}, {"fusion_lat": 0.0, "lon": -77.03347233333334, "is_reserved": 0, "bike_id": "f05e88c5cc393abcdbf07c9c49424fbd", "fusion_lon": 0.0, "rental_uris": {"android": "https://dc.lft.to/lastmile_qr_scan", "ios": "https://dc.lft.to/lastmile_qr_scan"}, "name": "f05e88c5cc393abcdbf07c9c49424fbd", "type": "electric_scooter", "lat": 38.89900016666667, "is_disabled": 0}, {"fusion_lat": 0.0, "lon": -77.0269365, "is_reserved": 0, "bike_id": "e60a0cfe50b0b2f04acd721496128f05", "fusion_lon": 0.0, "rental_uris": {"android": "https://dc.lft.to/lastmile_qr_scan", "ios": "https://dc.lft.to/lastmile_qr_scan"}, "name": "e60a0cfe50b0b2f04acd721496128f05", "type": "electric_scooter", "lat": 38.91249466666667, "is_disabled": 0}, {"fusion_lat": 0.0, "lon": -77.04810416666666, "is_reserved": 0, "bike_id": "8f252d13e1043befbfeb7163385c0fc3", "fusion_lon": 0.0, "rental_uris": {"android": "https://dc.lft.to/lastmile_qr_scan", "ios": "https://dc.lft.to/lastmile_qr_scan"}, "name": "8f252d13e1043befbfeb7163385c0fc3", "type": "electric_scooter", "lat": 38.919186333333336, "is_disabled": 0}, {"fusion_lat": 0.0, "lon": -76.93874166666667, "is_reserved": 0, "bike_id": "9192b8109b7c5c3f94273eb04ae76de1", "fusion_lon": 0.0, "rental_uris": {"android": "https://dc.lft.to/lastmile_qr_scan", "ios": "https://dc.lft.to/lastmile_qr_scan"}, "name": "9192b8109b7c5c3f94273eb04ae76de1", "type": "electric_bike", "lat": 38.956323166666664, "is_disabled": 0}, {"fusion_lat": 0.0, "lon": -77.00710516666666, "is_reserved": 0, "bike_id": "8cc97ecfe9eacf5130112a4a5257aa43", "fusion_lon": 0.0, "rental_uris": {"android": "https://dc.lft.to/lastmile_qr_scan", "ios": "https://dc.lft.to/lastmile_qr_scan"}, "name": "8cc97ecfe9eacf5130112a4a5257aa43", "type": "electric_scooter", "lat": 38.905788333333334, "is_disabled": 0}, {"fusion_lat": 0.0, "lon": -77.00986, "is_reserved": 0, "bike_id": "8036e14819d2ec94183c7c16d6c5f326", "fusion_lon": 0.0, "rental_uris": {"android": "https://dc.lft.to/lastmile_qr_scan", "ios": "https://dc.lft.to/lastmile_qr_scan"}, "name": "8036e14819d2ec94183c7c16d6c5f326", "type": "electric_scooter", "lat": 38.87290983333333, "is_disabled": 0}, {"fusion_lat": 0.0, "lon": -77.031536, "is_reserved": 0, "bike_id": "f3f5c3901f4f86449ce3ff1f55580d91", "fusion_lon": 0.0, "rental_uris": {"android": "https://dc.lft.to/lastmile_qr_scan", "ios": "https://dc.lft.to/lastmile_qr_scan"}, "name": "f3f5c3901f4f86449ce3ff1f55580d91", "type": "electric_scooter", "lat": 38.90354216666667, "is_disabled": 0}, {"fusion_lat": 0.0, "lon": -77.023831, "is_reserved": 0, "bike_id": "fbc04a5e80bf4d89039ca925fccf2c3b", "fusion_lon": 0.0, "rental_uris": {"android": "https://dc.lft.to/lastmile_qr_scan", "ios": "https://dc.lft.to/lastmile_qr_scan"}, "name": "fbc04a5e80bf4d89039ca925fccf2c3b", "type": "electric_scooter", "lat": 38.916062333333336, "is_disabled": 0}, {"fusion_lat": 0.0, "lon": -77.021817, "is_reserved": 0, "bike_id": "530e75910da55cf828561b7f7f458d51", "fusion_lon": 0.0, "rental_uris": {"android": "https://dc.lft.to/lastmile_qr_scan", "ios": "https://dc.lft.to/lastmile_qr_scan"}, "name": "530e75910da55cf828561b7f7f458d51", "type": "electric_scooter", "lat": 38.9073905, "is_disabled": 0}, {"fusion_lat": 0.0, "lon": -77.04653833333333, "is_reserved": 0, "bike_id": "09f772670fc3e2701357392a0abf0ee3", "fusion_lon": 0.0, "rental_uris": {"android": "https://dc.lft.to/lastmile_qr_scan", "ios": "https://dc.lft.to/lastmile_qr_scan"}, "name": "09f772670fc3e2701357392a0abf0ee3", "type": "electric_scooter", "lat": 38.9096145, "is_disabled": 0}, {"fusion_lat": 0.0, "lon": -77.02229616666666, "is_reserved": 0, "bike_id": "34106a7cbbc6f513856e5522c3c6d4d5", "fusion_lon": 0.0, "rental_uris": {"android": "https://dc.lft.to/lastmile_qr_scan", "ios": "https://dc.lft.to/lastmile_qr_scan"}, "name": "34106a7cbbc6f513856e5522c3c6d4d5", "type": "electric_scooter", "lat": 38.892192333333334, "is_disabled": 0}, {"fusion_lat": 0.0, "lon": -76.99765933333333, "is_reserved": 0, "bike_id": "7dcad7f094aa660c7477e624d6b8dd33", "fusion_lon": 0.0, "rental_uris": {"android": "https://dc.lft.to/lastmile_qr_scan", "ios": "https://dc.lft.to/lastmile_qr_scan"}, "name": "7dcad7f094aa660c7477e624d6b8dd33", "type": "electric_scooter", "lat": 38.924445166666665, "is_disabled": 0}, {"fusion_lat": 0.0, "lon": -77.038706, "is_reserved": 0, "bike_id": "6c7a54bc11866010cefcb79ee75a6fab", "fusion_lon": 0.0, "rental_uris": {"android": "https://dc.lft.to/lastmile_qr_scan", "ios": "https://dc.lft.to/lastmile_qr_scan"}, "name": "6c7a54bc11866010cefcb79ee75a6fab", "type": "electric_scooter", "lat": 38.89186933333333, "is_disabled": 0}, {"fusion_lat": 0.0, "lon": -77.02947516666667, "is_reserved": 0, "bike_id": "7ddf86003dd48c09186e783b1b78ac9b", "fusion_lon": 0.0, "rental_uris": {"android": "https://dc.lft.to/lastmile_qr_scan", "ios": "https://dc.lft.to/lastmile_qr_scan"}, "name": "7ddf86003dd48c09186e783b1b78ac9b", "type": "electric_scooter", "lat": 38.9050465, "is_disabled": 0}, {"fusion_lat": 0.0, "lon": -77.00337633333334, "is_reserved": 0, "bike_id": "e7481c313bbc99c16842549e52e2b063", "fusion_lon": 0.0, "rental_uris": {"android": "https://dc.lft.to/lastmile_qr_scan", "ios": "https://dc.lft.to/lastmile_qr_scan"}, "name": "e7481c313bbc99c16842549e52e2b063", "type": "electric_scooter", "lat": 38.89525966666667, "is_disabled": 0}, {"fusion_lat": 0.0, "lon": -77.034999, "is_reserved": 0, "bike_id": "7c6e686d178b60029d6d4395bea3a302", "fusion_lon": 0.0, "rental_uris": {"android": "https://dc.lft.to/lastmile_qr_scan", "ios": "https://dc.lft.to/lastmile_qr_scan"}, "name": "7c6e686d178b60029d6d4395bea3a302", "type": "electric_scooter", "lat": 38.92352983333333, "is_disabled": 0}, {"fusion_lat": 0.0, "lon": -76.97754033333334, "is_reserved": 0, "bike_id": "7ed9c4268c50b3e7b1e014120be7052b", "fusion_lon": 0.0, "rental_uris": {"android": "https://dc.lft.to/lastmile_qr_scan", "ios": "https://dc.lft.to/lastmile_qr_scan"}, "name": "7ed9c4268c50b3e7b1e014120be7052b", "type": "electric_bike", "lat": 38.864586833333334, "is_disabled": 0}, {"fusion_lat": 0.0, "lon": -77.05152933333333, "is_reserved": 0, "bike_id": "80833698f44641851ad19e5767ebcdde", "fusion_lon": 0.0, "rental_uris": {"android": "https://dc.lft.to/lastmile_qr_scan", "ios": "https://dc.lft.to/lastmile_qr_scan"}, "name": "80833698f44641851ad19e5767ebcdde", "type": "electric_scooter", "lat": 38.90510583333333, "is_disabled": 0}, {"fusion_lat": 0.0, "lon": -77.02988383333333, "is_reserved": 0, "bike_id": "b5a43756426e41b9ee83681678f7fe29", "fusion_lon": 0.0, "rental_uris": {"android": "https://dc.lft.to/lastmile_qr_scan", "ios": "https://dc.lft.to/lastmile_qr_scan"}, "name": "b5a43756426e41b9ee83681678f7fe29", "type": "electric_bike", "lat": 38.9744095, "is_disabled": 0}, {"fusion_lat": 0.0, "lon": -77.03260616666667, "is_reserved": 0, "bike_id": "01651e0357ed36b89addf18e60249147", "fusion_lon": 0.0, "rental_uris": {"android": "https://dc.lft.to/lastmile_qr_scan", "ios": "https://dc.lft.to/lastmile_qr_scan"}, "name": "01651e0357ed36b89addf18e60249147", "type": "electric_scooter", "lat": 38.93897116666667, "is_disabled": 0}, {"fusion_lat": 0.0, "lon": -77.02410083333334, "is_reserved": 0, "bike_id": "1af51bcf44b6ebccc21361cbefe3b463", "fusion_lon": 0.0, "rental_uris": {"android": "https://dc.lft.to/lastmile_qr_scan", "ios": "https://dc.lft.to/lastmile_qr_scan"}, "name": "1af51bcf44b6ebccc21361cbefe3b463", "type": "electric_scooter", "lat": 38.936996666666666, "is_disabled": 0}, {"fusion_lat": 0.0, "lon": -77.04663233333333, "is_reserved": 0, "bike_id": "d86cd79f0c691a816cd2b2a9c2f9ecb0", "fusion_lon": 0.0, "rental_uris": {"android": "https://dc.lft.to/lastmile_qr_scan", "ios": "https://dc.lft.to/lastmile_qr_scan"}, "name": "d86cd79f0c691a816cd2b2a9c2f9ecb0", "type": "electric_scooter", "lat": 38.90421283333333, "is_disabled": 0}, {"fusion_lat": 0.0, "lon": -77.02206183333334, "is_reserved": 0, "bike_id": "09db4c9346611180e657ec2c3c7bd4c9", "fusion_lon": 0.0, "rental_uris": {"android": "https://dc.lft.to/lastmile_qr_scan", "ios": "https://dc.lft.to/lastmile_qr_scan"}, "name": "09db4c9346611180e657ec2c3c7bd4c9", "type": "electric_scooter", "lat": 38.887185, "is_disabled": 0}, {"fusion_lat": 0.0, "lon": -77.03911266666667, "is_reserved": 0, "bike_id": "54ba9a5e72854378e9b04d6eddd618d6", "fusion_lon": 0.0, "rental_uris": {"android": "https://dc.lft.to/lastmile_qr_scan", "ios": "https://dc.lft.to/lastmile_qr_scan"}, "name": "54ba9a5e72854378e9b04d6eddd618d6", "type": "electric_scooter", "lat": 38.923148166666664, "is_disabled": 0}, {"fusion_lat": 0.0, "lon": -76.99528316666667, "is_reserved": 0, "bike_id": "3e05313dc9e1816e2fbe5ec483088d34", "fusion_lon": 0.0, "rental_uris": {"android": "https://dc.lft.to/lastmile_qr_scan", "ios": "https://dc.lft.to/lastmile_qr_scan"}, "name": "3e05313dc9e1816e2fbe5ec483088d34", "type": "electric_scooter", "lat": 38.8837685, "is_disabled": 0}, {"fusion_lat": 0.0, "lon": -77.01301566666666, "is_reserved": 0, "bike_id": "9b228d9a7f89bd505cc11cfbdc3c8ca1", "fusion_lon": 0.0, "rental_uris": {"android": "https://dc.lft.to/lastmile_qr_scan", "ios": "https://dc.lft.to/lastmile_qr_scan"}, "name": "9b228d9a7f89bd505cc11cfbdc3c8ca1", "type": "electric_scooter", "lat": 38.929964166666664, "is_disabled": 0}, {"fusion_lat": 0.0, "lon": -77.034586, "is_reserved": 0, "bike_id": "c89b5929896f7f87156882cdda3d763a", "fusion_lon": 0.0, "rental_uris": {"android": "https://dc.lft.to/lastmile_qr_scan", "ios": "https://dc.lft.to/lastmile_qr_scan"}, "name": "c89b5929896f7f87156882cdda3d763a", "type": "electric_scooter", "lat": 38.9057095, "is_disabled": 0}, {"fusion_lat": 0.0, "lon": -77.011069, "is_reserved": 0, "bike_id": "abbf975a1938b10285f47f59c1f22039", "fusion_lon": 0.0, "rental_uris": {"android": "https://dc.lft.to/lastmile_qr_scan", "ios": "https://dc.lft.to/lastmile_qr_scan"}, "name": "abbf975a1938b10285f47f59c1f22039", "type": "electric_scooter", "lat": 38.90354083333333, "is_disabled": 0}, {"fusion_lat": 0.0, "lon": -77.04649783333333, "is_reserved": 0, "bike_id": "71d992df93002f50fe5ae44d9c8085ea", "fusion_lon": 0.0, "rental_uris": {"android": "https://dc.lft.to/lastmile_qr_scan", "ios": "https://dc.lft.to/lastmile_qr_scan"}, "name": "71d992df93002f50fe5ae44d9c8085ea", "type": "electric_scooter", "lat": 38.900129166666666, "is_disabled": 0}, {"fusion_lat": 0.0, "lon": -77.03846466666667, "is_reserved": 0, "bike_id": "f26b73954c53d5b55dd59cda4a11c885", "fusion_lon": 0.0, "rental_uris": {"android": "https://dc.lft.to/lastmile_qr_scan", "ios": "https://dc.lft.to/lastmile_qr_scan"}, "name": "f26b73954c53d5b55dd59cda4a11c885", "type": "electric_scooter", "lat": 38.903679333333336, "is_disabled": 0}, {"fusion_lat": 0.0, "lon": -77.02365383333333, "is_reserved": 0, "bike_id": "2754937661d7b386b63aeb4736afa101", "fusion_lon": 0.0, "rental_uris": {"android": "https://dc.lft.to/lastmile_qr_scan", "ios": "https://dc.lft.to/lastmile_qr_scan"}, "name": "2754937661d7b386b63aeb4736afa101", "type": "electric_scooter", "lat": 38.893991666666665, "is_disabled": 0}, {"fusion_lat": 0.0, "lon": -77.04414283333334, "is_reserved": 0, "bike_id": "b1fef83c419e6c609a64170ffa7b25c0", "fusion_lon": 0.0, "rental_uris": {"android": "https://dc.lft.to/lastmile_qr_scan", "ios": "https://dc.lft.to/lastmile_qr_scan"}, "name": "b1fef83c419e6c609a64170ffa7b25c0", "type": "electric_scooter", "lat": 38.895799, "is_disabled": 0}, {"fusion_lat": 0.0, "lon": -76.95183233333333, "is_reserved": 0, "bike_id": "6e5c8cde81d078642e1b2a42eeb7ff6c", "fusion_lon": 0.0, "rental_uris": {"android": "https://dc.lft.to/lastmile_qr_scan", "ios": "https://dc.lft.to/lastmile_qr_scan"}, "name": "6e5c8cde81d078642e1b2a42eeb7ff6c", "type": "electric_scooter", "lat": 38.90736, "is_disabled": 0}, {"fusion_lat": 0.0, "lon": -77.022539, "is_reserved": 0, "bike_id": "c6812009b152dbbe5c644e261ffe6042", "fusion_lon": 0.0, "rental_uris": {"android": "https://dc.lft.to/lastmile_qr_scan", "ios": "https://dc.lft.to/lastmile_qr_scan"}, "name": "c6812009b152dbbe5c644e261ffe6042", "type": "electric_scooter", "lat": 38.893902833333335, "is_disabled": 0}, {"fusion_lat": 0.0, "lon": -76.98378816666667, "is_reserved": 0, "bike_id": "493d9721b5459bbf4cb1059d78e93a46", "fusion_lon": 0.0, "rental_uris": {"android": "https://dc.lft.to/lastmile_qr_scan", "ios": "https://dc.lft.to/lastmile_qr_scan"}, "name": "493d9721b5459bbf4cb1059d78e93a46", "type": "electric_scooter", "lat": 38.906504166666664, "is_disabled": 0}, {"fusion_lat": 0.0, "lon": -77.0034755, "is_reserved": 0, "bike_id": "f102cba57c14e6f62aeb9cd0ee5dee82", "fusion_lon": 0.0, "rental_uris": {"android": "https://dc.lft.to/lastmile_qr_scan", "ios": "https://dc.lft.to/lastmile_qr_scan"}, "name": "f102cba57c14e6f62aeb9cd0ee5dee82", "type": "electric_scooter", "lat": 38.88701283333333, "is_disabled": 0}, {"fusion_lat": 0.0, "lon": -77.04372416666666, "is_reserved": 0, "bike_id": "528f6127cf2de68ea18d07c4ffc0158a", "fusion_lon": 0.0, "rental_uris": {"android": "https://dc.lft.to/lastmile_qr_scan", "ios": "https://dc.lft.to/lastmile_qr_scan"}, "name": "528f6127cf2de68ea18d07c4ffc0158a", "type": "electric_scooter", "lat": 38.89220483333333, "is_disabled": 0}, {"fusion_lat": 0.0, "lon": -76.98715416666667, "is_reserved": 0, "bike_id": "24525b51a39e22ed4f3017b8c6d6f039", "fusion_lon": 0.0, "rental_uris": {"android": "https://dc.lft.to/lastmile_qr_scan", "ios": "https://dc.lft.to/lastmile_qr_scan"}, "name": "24525b51a39e22ed4f3017b8c6d6f039", "type": "electric_scooter", "lat": 38.86627333333333, "is_disabled": 0}, {"fusion_lat": 0.0, "lon": -76.98959533333333, "is_reserved": 0, "bike_id": "e8ab5b936822876cc39ff8d48552e584", "fusion_lon": 0.0, "rental_uris": {"android": "https://dc.lft.to/lastmile_qr_scan", "ios": "https://dc.lft.to/lastmile_qr_scan"}, "name": "e8ab5b936822876cc39ff8d48552e584", "type": "electric_scooter", "lat": 38.856931, "is_disabled": 0}, {"fusion_lat": 0.0, "lon": -77.029468, "is_reserved": 0, "bike_id": "3afe82206a06a520e64d01625f92f18c", "fusion_lon": 0.0, "rental_uris": {"android": "https://dc.lft.to/lastmile_qr_scan", "ios": "https://dc.lft.to/lastmile_qr_scan"}, "name": "3afe82206a06a520e64d01625f92f18c", "type": "electric_scooter", "lat": 38.905023, "is_disabled": 0}, {"fusion_lat": 0.0, "lon": -77.00896183333333, "is_reserved": 0, "bike_id": "7ac9708ece3d4808123220eb2d1e7a19", "fusion_lon": 0.0, "rental_uris": {"android": "https://dc.lft.to/lastmile_qr_scan", "ios": "https://dc.lft.to/lastmile_qr_scan"}, "name": "7ac9708ece3d4808123220eb2d1e7a19", "type": "electric_scooter", "lat": 38.90036516666667, "is_disabled": 0}, {"fusion_lat": 0.0, "lon": -77.01972666666667, "is_reserved": 0, "bike_id": "884c426193b69063fbeb26d5e5c6649a", "fusion_lon": 0.0, "rental_uris": {"android": "https://dc.lft.to/lastmile_qr_scan", "ios": "https://dc.lft.to/lastmile_qr_scan"}, "name": "884c426193b69063fbeb26d5e5c6649a", "type": "electric_scooter", "lat": 38.878446333333336, "is_disabled": 0}, {"fusion_lat": 0.0, "lon": -76.9980605, "is_reserved": 0, "bike_id": "3e34942b4dad7fdc66ad89ff3e2b2fe9", "fusion_lon": 0.0, "rental_uris": {"android": "https://dc.lft.to/lastmile_qr_scan", "ios": "https://dc.lft.to/lastmile_qr_scan"}, "name": "3e34942b4dad7fdc66ad89ff3e2b2fe9", "type": "electric_scooter", "lat": 38.900076166666665, "is_disabled": 0}, {"fusion_lat": 0.0, "lon": -77.03293183333334, "is_reserved": 0, "bike_id": "1e8336bb6cc6c3363a92f24c1129f482", "fusion_lon": 0.0, "rental_uris": {"android": "https://dc.lft.to/lastmile_qr_scan", "ios": "https://dc.lft.to/lastmile_qr_scan"}, "name": "1e8336bb6cc6c3363a92f24c1129f482", "type": "electric_scooter", "lat": 38.9287995, "is_disabled": 0}, {"fusion_lat": 0.0, "lon": -77.033168, "is_reserved": 0, "bike_id": "3984b69511d51962b37962c6284d8531", "fusion_lon": 0.0, "rental_uris": {"android": "https://dc.lft.to/lastmile_qr_scan", "ios": "https://dc.lft.to/lastmile_qr_scan"}, "name": "3984b69511d51962b37962c6284d8531", "type": "electric_scooter", "lat": 38.9169955, "is_disabled": 0}, {"fusion_lat": 0.0, "lon": -77.02690866666667, "is_reserved": 0, "bike_id": "b8e00160628b1f013757ff86f3dc5dc7", "fusion_lon": 0.0, "rental_uris": {"android": "https://dc.lft.to/lastmile_qr_scan", "ios": "https://dc.lft.to/lastmile_qr_scan"}, "name": "b8e00160628b1f013757ff86f3dc5dc7", "type": "electric_scooter", "lat": 38.902444, "is_disabled": 0}, {"fusion_lat": 0.0, "lon": -77.02190483333334, "is_reserved": 0, "bike_id": "30bed5aac3f591a5b3843bedbec672fa", "fusion_lon": 0.0, "rental_uris": {"android": "https://dc.lft.to/lastmile_qr_scan", "ios": "https://dc.lft.to/lastmile_qr_scan"}, "name": "30bed5aac3f591a5b3843bedbec672fa", "type": "electric_scooter", "lat": 38.901868, "is_disabled": 0}, {"fusion_lat": 0.0, "lon": -77.03957083333333, "is_reserved": 0, "bike_id": "1608205bb2dc961ac73588ceeec35303", "fusion_lon": 0.0, "rental_uris": {"android": "https://dc.lft.to/lastmile_qr_scan", "ios": "https://dc.lft.to/lastmile_qr_scan"}, "name": "1608205bb2dc961ac73588ceeec35303", "type": "electric_scooter", "lat": 38.931507333333336, "is_disabled": 0}, {"fusion_lat": 0.0, "lon": -76.94154233333333, "is_reserved": 0, "bike_id": "39df1a64781c05f1db3fa3d249e3aeab", "fusion_lon": 0.0, "rental_uris": {"android": "https://dc.lft.to/lastmile_qr_scan", "ios": "https://dc.lft.to/lastmile_qr_scan"}, "name": "39df1a64781c05f1db3fa3d249e3aeab", "type": "electric_scooter", "lat": 38.87907633333333, "is_disabled": 0}, {"fusion_lat": 0.0, "lon": -77.01353933333333, "is_reserved": 0, "bike_id": "67d202e75c3f0d035a29618350850602", "fusion_lon": 0.0, "rental_uris": {"android": "https://dc.lft.to/lastmile_qr_scan", "ios": "https://dc.lft.to/lastmile_qr_scan"}, "name": "67d202e75c3f0d035a29618350850602", "type": "electric_scooter", "lat": 38.908624833333334, "is_disabled": 0}, {"fusion_lat": 0.0, "lon": -76.99274516666667, "is_reserved": 0, "bike_id": "02438798846693153d1bedba03971012", "fusion_lon": 0.0, "rental_uris": {"android": "https://dc.lft.to/lastmile_qr_scan", "ios": "https://dc.lft.to/lastmile_qr_scan"}, "name": "02438798846693153d1bedba03971012", "type": "electric_scooter", "lat": 38.897656833333336, "is_disabled": 0}, {"fusion_lat": 0.0, "lon": -76.97695216666666, "is_reserved": 0, "bike_id": "5835be3bda55fd71ad096acd0c6a8f1c", "fusion_lon": 0.0, "rental_uris": {"android": "https://dc.lft.to/lastmile_qr_scan", "ios": "https://dc.lft.to/lastmile_qr_scan"}, "name": "5835be3bda55fd71ad096acd0c6a8f1c", "type": "electric_scooter", "lat": 38.898894166666665, "is_disabled": 0}, {"fusion_lat": 0.0, "lon": -77.00776333333333, "is_reserved": 0, "bike_id": "4cd57d070ffac70592600e315e65d118", "fusion_lon": 0.0, "rental_uris": {"android": "https://dc.lft.to/lastmile_qr_scan", "ios": "https://dc.lft.to/lastmile_qr_scan"}, "name": "4cd57d070ffac70592600e315e65d118", "type": "electric_scooter", "lat": 38.8973505, "is_disabled": 0}, {"fusion_lat": 0.0, "lon": -76.99025766666666, "is_reserved": 0, "bike_id": "de3cd53c300e50e9e33a666dcaa15cac", "fusion_lon": 0.0, "rental_uris": {"android": "https://dc.lft.to/lastmile_qr_scan", "ios": "https://dc.lft.to/lastmile_qr_scan"}, "name": "de3cd53c300e50e9e33a666dcaa15cac", "type": "electric_bike", "lat": 38.865867, "is_disabled": 0}, {"fusion_lat": 0.0, "lon": -77.04004783333333, "is_reserved": 0, "bike_id": "874050322dab122859509db6de953435", "fusion_lon": 0.0, "rental_uris": {"android": "https://dc.lft.to/lastmile_qr_scan", "ios": "https://dc.lft.to/lastmile_qr_scan"}, "name": "874050322dab122859509db6de953435", "type": "electric_scooter", "lat": 38.903288333333336, "is_disabled": 0}, {"fusion_lat": 0.0, "lon": -77.0434335, "is_reserved": 0, "bike_id": "6773cd14c188e489144f507e948623ea", "fusion_lon": 0.0, "rental_uris": {"android": "https://dc.lft.to/lastmile_qr_scan", "ios": "https://dc.lft.to/lastmile_qr_scan"}, "name": "6773cd14c188e489144f507e948623ea", "type": "electric_scooter", "lat": 38.90225266666667, "is_disabled": 0}, {"fusion_lat": 0.0, "lon": -77.04475916666667, "is_reserved": 0, "bike_id": "e786df8af137847f1ed01286cc50f5fc", "fusion_lon": 0.0, "rental_uris": {"android": "https://dc.lft.to/lastmile_qr_scan", "ios": "https://dc.lft.to/lastmile_qr_scan"}, "name": "e786df8af137847f1ed01286cc50f5fc", "type": "electric_scooter", "lat": 38.921367833333335, "is_disabled": 0}, {"fusion_lat": 0.0, "lon": -77.04304116666667, "is_reserved": 0, "bike_id": "834f4dac1aab22a8cd29bae9ada1e88b", "fusion_lon": 0.0, "rental_uris": {"android": "https://dc.lft.to/lastmile_qr_scan", "ios": "https://dc.lft.to/lastmile_qr_scan"}, "name": "834f4dac1aab22a8cd29bae9ada1e88b", "type": "electric_scooter", "lat": 38.9225625, "is_disabled": 0}, {"fusion_lat": 0.0, "lon": -77.026906, "is_reserved": 0, "bike_id": "276cda40d9cc2415b04c9d79c4234caf", "fusion_lon": 0.0, "rental_uris": {"android": "https://dc.lft.to/lastmile_qr_scan", "ios": "https://dc.lft.to/lastmile_qr_scan"}, "name": "276cda40d9cc2415b04c9d79c4234caf", "type": "electric_scooter", "lat": 38.91132283333334, "is_disabled": 0}, {"fusion_lat": 0.0, "lon": -77.0059755, "is_reserved": 0, "bike_id": "0913a09ac3aec75685fceb84bc3487f8", "fusion_lon": 0.0, "rental_uris": {"android": "https://dc.lft.to/lastmile_qr_scan", "ios": "https://dc.lft.to/lastmile_qr_scan"}, "name": "0913a09ac3aec75685fceb84bc3487f8", "type": "electric_scooter", "lat": 38.885175333333336, "is_disabled": 0}, {"fusion_lat": 0.0, "lon": -77.02362933333333, "is_reserved": 0, "bike_id": "051f4ec4e5f5db6ce4e3a7907683fed7", "fusion_lon": 0.0, "rental_uris": {"android": "https://dc.lft.to/lastmile_qr_scan", "ios": "https://dc.lft.to/lastmile_qr_scan"}, "name": "051f4ec4e5f5db6ce4e3a7907683fed7", "type": "electric_scooter", "lat": 38.8921975, "is_disabled": 0}, {"fusion_lat": 0.0, "lon": -77.0269225, "is_reserved": 0, "bike_id": "2b5ce045d4b7e8ade7d8737294d802b6", "fusion_lon": 0.0, "rental_uris": {"android": "https://dc.lft.to/lastmile_qr_scan", "ios": "https://dc.lft.to/lastmile_qr_scan"}, "name": "2b5ce045d4b7e8ade7d8737294d802b6", "type": "electric_scooter", "lat": 38.902482666666664, "is_disabled": 0}, {"fusion_lat": 0.0, "lon": -77.05023566666667, "is_reserved": 0, "bike_id": "c4f81ad573dab8ca20096d3d211209d7", "fusion_lon": 0.0, "rental_uris": {"android": "https://dc.lft.to/lastmile_qr_scan", "ios": "https://dc.lft.to/lastmile_qr_scan"}, "name": "c4f81ad573dab8ca20096d3d211209d7", "type": "electric_scooter", "lat": 38.907162666666665, "is_disabled": 0}, {"fusion_lat": 0.0, "lon": -77.02625333333333, "is_reserved": 0, "bike_id": "12c86b819e353760a33a52bd845d07eb", "fusion_lon": 0.0, "rental_uris": {"android": "https://dc.lft.to/lastmile_qr_scan", "ios": "https://dc.lft.to/lastmile_qr_scan"}, "name": "12c86b819e353760a33a52bd845d07eb", "type": "electric_bike", "lat": 38.962264166666664, "is_disabled": 0}, {"fusion_lat": 0.0, "lon": -77.03220166666667, "is_reserved": 0, "bike_id": "22d2198ecb209a2467233f00ae1cd25c", "fusion_lon": 0.0, "rental_uris": {"android": "https://dc.lft.to/lastmile_qr_scan", "ios": "https://dc.lft.to/lastmile_qr_scan"}, "name": "22d2198ecb209a2467233f00ae1cd25c", "type": "electric_scooter", "lat": 38.908851166666665, "is_disabled": 0}, {"fusion_lat": 0.0, "lon": -76.980021, "is_reserved": 0, "bike_id": "5cfdd89f81dc59673e232969d349ba4b", "fusion_lon": 0.0, "rental_uris": {"android": "https://dc.lft.to/lastmile_qr_scan", "ios": "https://dc.lft.to/lastmile_qr_scan"}, "name": "5cfdd89f81dc59673e232969d349ba4b", "type": "electric_bike", "lat": 38.902552666666665, "is_disabled": 0}, {"fusion_lat": 0.0, "lon": -77.01934116666666, "is_reserved": 0, "bike_id": "f3e7b92bda9d16630467a4e97591f42d", "fusion_lon": 0.0, "rental_uris": {"android": "https://dc.lft.to/lastmile_qr_scan", "ios": "https://dc.lft.to/lastmile_qr_scan"}, "name": "f3e7b92bda9d16630467a4e97591f42d", "type": "electric_scooter", "lat": 38.905589, "is_disabled": 0}, {"fusion_lat": 0.0, "lon": -77.03229583333334, "is_reserved": 0, "bike_id": "a6c54cf9127151b7b8a4eb6019fed5c9", "fusion_lon": 0.0, "rental_uris": {"android": "https://dc.lft.to/lastmile_qr_scan", "ios": "https://dc.lft.to/lastmile_qr_scan"}, "name": "a6c54cf9127151b7b8a4eb6019fed5c9", "type": "electric_scooter", "lat": 38.91402716666666, "is_disabled": 0}, {"fusion_lat": 0.0, "lon": -76.95147383333334, "is_reserved": 0, "bike_id": "4d31f795531d2ce260788b4547ba4a02", "fusion_lon": 0.0, "rental_uris": {"android": "https://dc.lft.to/lastmile_qr_scan", "ios": "https://dc.lft.to/lastmile_qr_scan"}, "name": "4d31f795531d2ce260788b4547ba4a02", "type": "electric_scooter", "lat": 38.8903595, "is_disabled": 0}, {"fusion_lat": 0.0, "lon": -77.0121105, "is_reserved": 0, "bike_id": "39fd948161e73a02fd61382d40a26e68", "fusion_lon": 0.0, "rental_uris": {"android": "https://dc.lft.to/lastmile_qr_scan", "ios": "https://dc.lft.to/lastmile_qr_scan"}, "name": "39fd948161e73a02fd61382d40a26e68", "type": "electric_scooter", "lat": 38.8772525, "is_disabled": 0}, {"fusion_lat": 0.0, "lon": -77.03206, "is_reserved": 0, "bike_id": "14b0c777a088970c73f41db9d736c074", "fusion_lon": 0.0, "rental_uris": {"android": "https://dc.lft.to/lastmile_qr_scan", "ios": "https://dc.lft.to/lastmile_qr_scan"}, "name": "14b0c777a088970c73f41db9d736c074", "type": "electric_scooter", "lat": 38.910964666666665, "is_disabled": 0}, {"fusion_lat": 0.0, "lon": -76.98614816666667, "is_reserved": 0, "bike_id": "19e479a7aedae888c8ce616b140a25e8", "fusion_lon": 0.0, "rental_uris": {"android": "https://dc.lft.to/lastmile_qr_scan", "ios": "https://dc.lft.to/lastmile_qr_scan"}, "name": "19e479a7aedae888c8ce616b140a25e8", "type": "electric_scooter", "lat": 38.938280666666664, "is_disabled": 0}, {"fusion_lat": 0.0, "lon": -76.9082565, "is_reserved": 0, "bike_id": "597d8a9b8ad4ec07feced1833826caa9", "fusion_lon": 0.0, "rental_uris": {"android": "https://dc.lft.to/lastmile_qr_scan", "ios": "https://dc.lft.to/lastmile_qr_scan"}, "name": "597d8a9b8ad4ec07feced1833826caa9", "type": "electric_bike", "lat": 39.002649166666664, "is_disabled": 0}, {"fusion_lat": 0.0, "lon": -76.97704233333333, "is_reserved": 0, "bike_id": "37e461a94a396d3833983756b5bc5821", "fusion_lon": 0.0, "rental_uris": {"android": "https://dc.lft.to/lastmile_qr_scan", "ios": "https://dc.lft.to/lastmile_qr_scan"}, "name": "37e461a94a396d3833983756b5bc5821", "type": "electric_bike", "lat": 38.94912383333333, "is_disabled": 0}, {"fusion_lat": 0.0, "lon": -77.0434625, "is_reserved": 0, "bike_id": "41d89bb55976b397de9ad356f2a6bfb4", "fusion_lon": 0.0, "rental_uris": {"android": "https://dc.lft.to/lastmile_qr_scan", "ios": "https://dc.lft.to/lastmile_qr_scan"}, "name": "41d89bb55976b397de9ad356f2a6bfb4", "type": "electric_scooter", "lat": 38.8996135, "is_disabled": 0}, {"fusion_lat": 0.0, "lon": -77.028899, "is_reserved": 0, "bike_id": "05fa7c138bd6d77448e243f4b5733958", "fusion_lon": 0.0, "rental_uris": {"android": "https://dc.lft.to/lastmile_qr_scan", "ios": "https://dc.lft.to/lastmile_qr_scan"}, "name": "05fa7c138bd6d77448e243f4b5733958", "type": "electric_scooter", "lat": 38.93982716666667, "is_disabled": 0}, {"fusion_lat": 0.0, "lon": -77.00402816666667, "is_reserved": 0, "bike_id": "cdea4a2e821a2e8a048b91a5bd2d9d23", "fusion_lon": 0.0, "rental_uris": {"android": "https://dc.lft.to/lastmile_qr_scan", "ios": "https://dc.lft.to/lastmile_qr_scan"}, "name": "cdea4a2e821a2e8a048b91a5bd2d9d23", "type": "electric_scooter", "lat": 38.9213295, "is_disabled": 0}, {"fusion_lat": 0.0, "lon": -77.3609775, "is_reserved": 0, "bike_id": "b277ddbbafe6793645a8932c3284117d", "fusion_lon": 0.0, "rental_uris": {"android": "https://dc.lft.to/lastmile_qr_scan", "ios": "https://dc.lft.to/lastmile_qr_scan"}, "name": "b277ddbbafe6793645a8932c3284117d", "type": "electric_bike", "lat": 38.939584333333336, "is_disabled": 0}, {"fusion_lat": 0.0, "lon": -77.038651, "is_reserved": 0, "bike_id": "0afe59511f6c02f1f5628609784eba88", "fusion_lon": 0.0, "rental_uris": {"android": "https://dc.lft.to/lastmile_qr_scan", "ios": "https://dc.lft.to/lastmile_qr_scan"}, "name": "0afe59511f6c02f1f5628609784eba88", "type": "electric_scooter", "lat": 38.90283266666667, "is_disabled": 0}, {"fusion_lat": 0.0, "lon": -77.02399683333333, "is_reserved": 0, "bike_id": "3eb92e35781c01705af91de2f21adaaa", "fusion_lon": 0.0, "rental_uris": {"android": "https://dc.lft.to/lastmile_qr_scan", "ios": "https://dc.lft.to/lastmile_qr_scan"}, "name": "3eb92e35781c01705af91de2f21adaaa", "type": "electric_scooter", "lat": 38.9073255, "is_disabled": 0}, {"fusion_lat": 0.0, "lon": -77.00865183333333, "is_reserved": 0, "bike_id": "ff12557a9d937525fa5c4f3992889464", "fusion_lon": 0.0, "rental_uris": {"android": "https://dc.lft.to/lastmile_qr_scan", "ios": "https://dc.lft.to/lastmile_qr_scan"}, "name": "ff12557a9d937525fa5c4f3992889464", "type": "electric_scooter", "lat": 38.9064335, "is_disabled": 0}, {"fusion_lat": 0.0, "lon": -77.02441216666666, "is_reserved": 0, "bike_id": "f9f5c8022b7b04c04383d885c15e0a20", "fusion_lon": 0.0, "rental_uris": {"android": "https://dc.lft.to/lastmile_qr_scan", "ios": "https://dc.lft.to/lastmile_qr_scan"}, "name": "f9f5c8022b7b04c04383d885c15e0a20", "type": "electric_scooter", "lat": 38.90003983333333, "is_disabled": 0}, {"fusion_lat": 0.0, "lon": -77.044558, "is_reserved": 0, "bike_id": "58bd0d3cff8c462ccdb5e07a2d468114", "fusion_lon": 0.0, "rental_uris": {"android": "https://dc.lft.to/lastmile_qr_scan", "ios": "https://dc.lft.to/lastmile_qr_scan"}, "name": "58bd0d3cff8c462ccdb5e07a2d468114", "type": "electric_scooter", "lat": 38.90545133333333, "is_disabled": 0}, {"fusion_lat": 0.0, "lon": -77.03868816666666, "is_reserved": 0, "bike_id": "dbb0268f832bc721a4acf3cf034510cb", "fusion_lon": 0.0, "rental_uris": {"android": "https://dc.lft.to/lastmile_qr_scan", "ios": "https://dc.lft.to/lastmile_qr_scan"}, "name": "dbb0268f832bc721a4acf3cf034510cb", "type": "electric_scooter", "lat": 38.9026745, "is_disabled": 0}, {"fusion_lat": 0.0, "lon": -77.0280045, "is_reserved": 0, "bike_id": "dbfa1a2335079b5dcca8e9cb34bf974d", "fusion_lon": 0.0, "rental_uris": {"android": "https://dc.lft.to/lastmile_qr_scan", "ios": "https://dc.lft.to/lastmile_qr_scan"}, "name": "dbfa1a2335079b5dcca8e9cb34bf974d", "type": "electric_scooter", "lat": 38.892326833333335, "is_disabled": 0}, {"fusion_lat": 0.0, "lon": -77.01321016666667, "is_reserved": 0, "bike_id": "144292df36d0308278e8100f513b7b88", "fusion_lon": 0.0, "rental_uris": {"android": "https://dc.lft.to/lastmile_qr_scan", "ios": "https://dc.lft.to/lastmile_qr_scan"}, "name": "144292df36d0308278e8100f513b7b88", "type": "electric_scooter", "lat": 38.87156183333333, "is_disabled": 0}, {"fusion_lat": 0.0, "lon": -77.043081, "is_reserved": 0, "bike_id": "ba8f31c213eefaf38a3adf1474f55cae", "fusion_lon": 0.0, "rental_uris": {"android": "https://dc.lft.to/lastmile_qr_scan", "ios": "https://dc.lft.to/lastmile_qr_scan"}, "name": "ba8f31c213eefaf38a3adf1474f55cae", "type": "electric_scooter", "lat": 38.92320316666667, "is_disabled": 0}, {"fusion_lat": 0.0, "lon": -76.99548916666667, "is_reserved": 0, "bike_id": "dc0e8fc3b7dbf2e0f420bcb56798bc29", "fusion_lon": 0.0, "rental_uris": {"android": "https://dc.lft.to/lastmile_qr_scan", "ios": "https://dc.lft.to/lastmile_qr_scan"}, "name": "dc0e8fc3b7dbf2e0f420bcb56798bc29", "type": "electric_scooter", "lat": 38.86258483333334, "is_disabled": 0}, {"fusion_lat": 0.0, "lon": -77.00049316666667, "is_reserved": 0, "bike_id": "981f24047e7688fda51f02bdd25d9e0b", "fusion_lon": 0.0, "rental_uris": {"android": "https://dc.lft.to/lastmile_qr_scan", "ios": "https://dc.lft.to/lastmile_qr_scan"}, "name": "981f24047e7688fda51f02bdd25d9e0b", "type": "electric_scooter", "lat": 38.896414166666666, "is_disabled": 0}, {"fusion_lat": 0.0, "lon": -77.01740616666666, "is_reserved": 0, "bike_id": "83fb7142906e2046cefc01ddcfabf3e4", "fusion_lon": 0.0, "rental_uris": {"android": "https://dc.lft.to/lastmile_qr_scan", "ios": "https://dc.lft.to/lastmile_qr_scan"}, "name": "83fb7142906e2046cefc01ddcfabf3e4", "type": "electric_scooter", "lat": 38.8833085, "is_disabled": 0}, {"fusion_lat": 0.0, "lon": -77.028897, "is_reserved": 0, "bike_id": "063ada62ebaceb967739500b03b7bc86", "fusion_lon": 0.0, "rental_uris": {"android": "https://dc.lft.to/lastmile_qr_scan", "ios": "https://dc.lft.to/lastmile_qr_scan"}, "name": "063ada62ebaceb967739500b03b7bc86", "type": "electric_scooter", "lat": 38.917065666666666, "is_disabled": 0}, {"fusion_lat": 0.0, "lon": -77.00933066666667, "is_reserved": 0, "bike_id": "4f714501b21ecc4c2e63ee3ca4c94771", "fusion_lon": 0.0, "rental_uris": {"android": "https://dc.lft.to/lastmile_qr_scan", "ios": "https://dc.lft.to/lastmile_qr_scan"}, "name": "4f714501b21ecc4c2e63ee3ca4c94771", "type": "electric_scooter", "lat": 38.91254133333333, "is_disabled": 0}, {"fusion_lat": 0.0, "lon": -77.086568, "is_reserved": 0, "bike_id": "0a76f2959c7a835592804340bcdda530", "fusion_lon": 0.0, "rental_uris": {"android": "https://dc.lft.to/lastmile_qr_scan", "ios": "https://dc.lft.to/lastmile_qr_scan"}, "name": "0a76f2959c7a835592804340bcdda530", "type": "electric_bike", "lat": 38.86248583333333, "is_disabled": 0}, {"fusion_lat": 0.0, "lon": -76.99454666666666, "is_reserved": 0, "bike_id": "c71b11217aa45a9e15c5aa79c607ba6b", "fusion_lon": 0.0, "rental_uris": {"android": "https://dc.lft.to/lastmile_qr_scan", "ios": "https://dc.lft.to/lastmile_qr_scan"}, "name": "c71b11217aa45a9e15c5aa79c607ba6b", "type": "electric_bike", "lat": 38.9661575, "is_disabled": 0}, {"fusion_lat": 0.0, "lon": -77.030803, "is_reserved": 0, "bike_id": "05868c5e81afccc9b8ae84025a174fd0", "fusion_lon": 0.0, "rental_uris": {"android": "https://dc.lft.to/lastmile_qr_scan", "ios": "https://dc.lft.to/lastmile_qr_scan"}, "name": "05868c5e81afccc9b8ae84025a174fd0", "type": "electric_scooter", "lat": 38.92389433333334, "is_disabled": 0}, {"fusion_lat": 0.0, "lon": -77.03051583333334, "is_reserved": 0, "bike_id": "1463db9ed692190b1ed9930080f6f034", "fusion_lon": 0.0, "rental_uris": {"android": "https://dc.lft.to/lastmile_qr_scan", "ios": "https://dc.lft.to/lastmile_qr_scan"}, "name": "1463db9ed692190b1ed9930080f6f034", "type": "electric_scooter", "lat": 38.884096166666666, "is_disabled": 0}, {"fusion_lat": 0.0, "lon": -77.003747, "is_reserved": 0, "bike_id": "c7e9fb34a6b42c45c0171e0e0c6df7c3", "fusion_lon": 0.0, "rental_uris": {"android": "https://dc.lft.to/lastmile_qr_scan", "ios": "https://dc.lft.to/lastmile_qr_scan"}, "name": "c7e9fb34a6b42c45c0171e0e0c6df7c3", "type": "electric_scooter", "lat": 38.897309666666665, "is_disabled": 0}, {"fusion_lat": 0.0, "lon": -77.04698566666667, "is_reserved": 0, "bike_id": "606de1fd5ed45b66c2bb271286779614", "fusion_lon": 0.0, "rental_uris": {"android": "https://dc.lft.to/lastmile_qr_scan", "ios": "https://dc.lft.to/lastmile_qr_scan"}, "name": "606de1fd5ed45b66c2bb271286779614", "type": "electric_scooter", "lat": 38.921616666666665, "is_disabled": 0},