{"data": {"bikes": [{"fusion_lon": 0.0, "name": "2e8127f571b323f2390c165778980213", "rental_uris": {"android": "https://dc.lft.to/lastmile_qr_scan", "ios": "https://dc.lft.to/lastmile_qr_scan"}, "lat": 38.9064575, "bike_id": "2e8127f571b323f2390c165778980213", "is_disabled": 0, "lon": -77.01441383333334, "is_reserved": 0, "fusion_lat": 0.0, "type": "electric_scooter"}, {"fusion_lon": 0.0, "name": "07be4dc11747a2a1318275f19199c6b6", "rental_uris": {"android": "https://dc.lft.to/lastmile_qr_scan", "ios": "https://dc.lft.to/lastmile_qr_scan"}, "lat": 38.912586833333336, "bike_id": "07be4dc11747a2a1318275f19199c6b6", "is_disabled": 0, "lon": -77.03823016666666, "is_reserved": 0, "fusion_lat": 0.0, "type": "electric_scooter"}, {"fusion_lon": 0.0, "name": "44564f50323eb4858f779ab75cb5cc3f", "rental_uris": {"android": "https://dc.lft.to/lastmile_qr_scan", "ios": "https://dc.lft.to/lastmile_qr_scan"}, "lat": 38.91554133333333, "bike_id": "44564f50323eb4858f779ab75cb5cc3f", "is_disabled": 0, "lon": -77.03673283333333, "is_reserved": 0, "fusion_lat": 0.0, "type": "electric_scooter"}, {"fusion_lon": 0.0, "name": "cc15e8f8744cec0d00752c1abff674d2", "rental_uris": {"android": "https://dc.lft.to/lastmile_qr_scan", "ios": "https://dc.lft.to/lastmile_qr_scan"}, "lat": 38.941845666666666, "bike_id": "cc15e8f8744cec0d00752c1abff674d2", "is_disabled": 0, "lon": -77.0249145, "is_reserved": 0, "fusion_lat": 0.0, "type": "electric_scooter"}, {"fusion_lon": 0.0, "name": "b52213e1cf7f2fdfde86e230afa5440f", "rental_uris": {"android": "https://dc.lft.to/lastmile_qr_scan", "ios": "https://dc.lft.to/lastmile_qr_scan"}, "lat": 38.9215195, "bike_id": "b52213e1cf7f2fdfde86e230afa5440f", "is_disabled": 0, "lon": -77.035373, "is_reserved": 0, "fusion_lat": 0.0, "type": "electric_scooter"}, {"fusion_lon": 0.0, "name": "106aea638d50701451eda87ec469dbb3", "rental_uris": {"android": "https://dc.lft.to/lastmile_qr_scan", "ios": "https://dc.lft.to/lastmile_qr_scan"}, "lat": 38.916744666666666, "bike_id": "106aea638d50701451eda87ec469dbb3", "is_disabled": 0, "lon": -77.022836, "is_reserved": 0, "fusion_lat": 0.0, "type": "electric_scooter"}, {"fusion_lon": 0.0, "name": "3db4236891c54eaa0630664b86c2e3c7", "rental_uris": {"android": "https://dc.lft.to/lastmile_qr_scan", "ios": "https://dc.lft.to/lastmile_qr_scan"}, "lat": 38.937452, "bike_id": "3db4236891c54eaa0630664b86c2e3c7", "is_disabled": 0, "lon": -77.0325995, "is_reserved": 0, "fusion_lat": 0.0, "type": "electric_scooter"}, {"fusion_lon": 0.0, "name": "4ac62059715b8513b8df7dc779525b20", "rental_uris": {"android": "https://dc.lft.to/lastmile_qr_scan", "ios": "https://dc.lft.to/lastmile_qr_scan"}, "lat": 38.900801, "bike_id": "4ac62059715b8513b8df7dc779525b20", "is_disabled": 0, "lon": -77.02011666666667, "is_reserved": 0, "fusion_lat": 0.0, "type": "electric_scooter"}, {"fusion_lon": 0.0, "name": "f406f88a5a9aa2782c824fcc2fee2a13", "rental_uris": {"android": "https://dc.lft.to/lastmile_qr_scan", "ios": "https://dc.lft.to/lastmile_qr_scan"}, "lat": 38.9285935, "bike_id": "f406f88a5a9aa2782c824fcc2fee2a13", "is_disabled": 0, "lon": -77.03615833333333, "is_reserved": 0, "fusion_lat": 0.0, "type": "electric_scooter"}, {"fusion_lon": 0.0, "name": "c0f9457bf78d215e9cb5318505ad6308", "rental_uris": {"android": "https://dc.lft.to/lastmile_qr_scan", "ios": "https://dc.lft.to/lastmile_qr_scan"}, "lat": 38.915920166666666, "bike_id": "c0f9457bf78d215e9cb5318505ad6308", "is_disabled": 0, "lon": -77.04177833333334, "is_reserved": 0, "fusion_lat": 0.0, "type": "electric_scooter"}, {"fusion_lon": 0.0, "name": "4d39376ac3ecb3779dcda169045c6a31", "rental_uris": {"android": "https://dc.lft.to/lastmile_qr_scan", "ios": "https://dc.lft.to/lastmile_qr_scan"}, "lat": 38.8952575, "bike_id": "4d39376ac3ecb3779dcda169045c6a31", "is_disabled": 0, "lon": -76.99219666666667, "is_reserved": 0, "fusion_lat": 0.0, "type": "electric_scooter"}, {"fusion_lon": 0.0, "name": "07cdd645d1c42c3ef1c21a5d829847dd", "rental_uris": {"android": "https://dc.lft.to/lastmile_qr_scan", "ios": "https://dc.lft.to/lastmile_qr_scan"}, "lat": 39.02544566666667, "bike_id": "07cdd645d1c42c3ef1c21a5d829847dd", "is_disabled": 0, "lon": -77.04448533333333, "is_reserved": 0, "fusion_lat": 0.0, "type": "electric_bike"}, {"fusion_lon": 0.0, "name": "baf6482eb55b575556abf73c456f652f", "rental_uris": {"android": "https://dc.lft.to/lastmile_qr_scan", "ios": "https://dc.lft.to/lastmile_qr_scan"}, "lat": 38.908541, "bike_id": "baf6482eb55b575556abf73c456f652f", "is_disabled": 0, "lon": -77.02335683333334, "is_reserved": 0, "fusion_lat": 0.0, "type": "electric_scooter"}, {"fusion_lon": 0.0, "name": "18528685a6aa9e4e5c363de581852098", "rental_uris": {"android": "https://dc.lft.to/lastmile_qr_scan", "ios": "https://dc.lft.to/lastmile_qr_scan"}, "lat": 38.87842416666667, "bike_id": "18528685a6aa9e4e5c363de581852098", "is_disabled": 0, "lon": -77.01968233333334, "is_reserved": 0, "fusion_lat": 0.0, "type": "electric_scooter"}, {"fusion_lon": 0.0, "name": "3d6c8bec341fe7af9296b419fa5b2859", "rental_uris": {"android": "https://dc.lft.to/lastmile_qr_scan", "ios": "https://dc.lft.to/lastmile_qr_scan"}, "lat": 38.914905833333336, "bike_id": "3d6c8bec341fe7af9296b419fa5b2859", "is_disabled": 0, "lon": -77.02178483333333, "is_reserved": 0, "fusion_lat": 0.0, "type": "electric_scooter"}, {"fusion_lon": 0.0, "name": "11d5c0221dcd53f8cbe4a804b5075470", "rental_uris": {"android": "https://dc.lft.to/lastmile_qr_scan", "ios": "https://dc.lft.to/lastmile_qr_scan"}, "lat": 38.92331683333333, "bike_id": "11d5c0221dcd53f8cbe4a804b5075470", "is_disabled": 0, "lon": -77.03609633333333, "is_reserved": 0, "fusion_lat": 0.0, "type": "electric_scooter"}, {"fusion_lon": 0.0, "name": "1b10df6ab1547ce09d6b6120f3c75e45", "rental_uris": {"android": "https://dc.lft.to/lastmile_qr_scan", "ios": "https://dc.lft.to/lastmile_qr_scan"}, "lat": 38.92238116666667, "bike_id": "1b10df6ab1547ce09d6b6120f3c75e45", "is_disabled": 0, "lon": -77.021504, "is_reserved": 0, "fusion_lat": 0.0, "type": "electric_scooter"}, {"fusion_lon": 0.0, "name": "6d038b93d450f34ccc488312c573348e", "rental_uris": {"android": "https://dc.lft.to/lastmile_qr_scan", "ios": "https://dc.lft.to/lastmile_qr_scan"}, "lat": 38.92488633333333, "bike_id": "6d038b93d450f34ccc488312c573348e", "is_disabled": 0, "lon": -77.008916, "is_reserved": 0, "fusion_lat": 0.0, "type": "electric_scooter"}, {"fusion_lon": 0.0, "name": "3af44e0861dd11b8430e27f0346d3e9d", "rental_uris": {"android": "https://dc.lft.to/lastmile_qr_scan", "ios": "https://dc.lft.to/lastmile_qr_scan"}, "lat": 38.891943166666664, "bike_id": "3af44e0861dd11b8430e27f0346d3e9d", "is_disabled": 0, "lon": -76.95812366666667, "is_reserved": 0, "fusion_lat": 0.0, "type": "electric_scooter"}, {"fusion_lon": 0.0, "name": "a0a80e18779f9718e95b6462c86df8c9", "rental_uris": {"android": "https://dc.lft.to/lastmile_qr_scan", "ios": "https://dc.lft.to/lastmile_qr_scan"}, "lat": 38.93081383333333, "bike_id": "a0a80e18779f9718e95b6462c86df8c9", "is_disabled": 0, "lon": -77.03652216666667, "is_reserved": 0, "fusion_lat": 0.0, "type": "electric_scooter"}, {"fusion_lon": 0.0, "name": "6fb1f97653a52ee3accc995e42910632", "rental_uris": {"android": "https://dc.lft.to/lastmile_qr_scan", "ios": "https://dc.lft.to/lastmile_qr_scan"}, "lat": 38.902650666666666, "bike_id": "6fb1f97653a52ee3accc995e42910632", "is_disabled": 0, "lon": -77.01748466666666, "is_reserved": 0, "fusion_lat": 0.0, "type": "electric_scooter"}, {"fusion_lon": 0.0, "name": "3b0fa53b189d5e76060d8ab2b05dd8ca", "rental_uris": {"android": "https://dc.lft.to/lastmile_qr_scan", "ios": "https://dc.lft.to/lastmile_qr_scan"}, "lat": 38.902665999999996, "bike_id": "3b0fa53b189d5e76060d8ab2b05dd8ca", "is_disabled": 0, "lon": -77.00328, "is_reserved": 0, "fusion_lat": 0.0, "type": "electric_scooter"}, {"fusion_lon": 0.0, "name": "5550d92a1216dd60c1542a6a810af29d", "rental_uris": {"android": "https://dc.lft.to/lastmile_qr_scan", "ios": "https://dc.lft.to/lastmile_qr_scan"}, "lat": 38.919862333333334, "bike_id": "5550d92a1216dd60c1542a6a810af29d", "is_disabled": 0, "lon": -77.03265316666666, "is_reserved": 0, "fusion_lat": 0.0, "type": "electric_scooter"}, {"fusion_lon": 0.0, "name": "280242e3765edf4f5901f9532cfa0dd3", "rental_uris": {"android": "https://dc.lft.to/lastmile_qr_scan", "ios": "https://dc.lft.to/lastmile_qr_scan"}, "lat": 38.892319, "bike_id": "280242e3765edf4f5901f9532cfa0dd3", "is_disabled": 0, "lon": -77.050029, "is_reserved": 0, "fusion_lat": 0.0, "type": "electric_scooter"}, {"fusion_lon": 0.0, "name": "ad11087a3ac904f1ee43e67253b01657", "rental_uris": {"android": "https://dc.lft.to/lastmile_qr_scan", "ios": "https://dc.lft.to/lastmile_qr_scan"}, "lat": 38.9204895, "bike_id": "ad11087a3ac904f1ee43e67253b01657", "is_disabled": 0, "lon": -77.04186183333333, "is_reserved": 0, "fusion_lat": 0.0, "type": "electric_scooter"}, {"fusion_lon": 0.0, "name": "8d99b6439ef470d4995e703a66b7d657", "rental_uris": {"android": "https://dc.lft.to/lastmile_qr_scan", "ios": "https://dc.lft.to/lastmile_qr_scan"}, "lat": 38.8837095, "bike_id": "8d99b6439ef470d4995e703a66b7d657", "is_disabled": 0, "lon": -76.9242095, "is_reserved": 0, "fusion_lat": 0.0, "type": "electric_scooter"}, {"fusion_lon": 0.0, "name": "8b25f942036a7e90ef00f73f0533ebfd", "rental_uris": {"android": "https://dc.lft.to/lastmile_qr_scan", "ios": "https://dc.lft.to/lastmile_qr_scan"}, "lat": 38.92359316666667, "bike_id": "8b25f942036a7e90ef00f73f0533ebfd", "is_disabled": 0, "lon": -77.05047033333334, "is_reserved": 0, "fusion_lat": 0.0, "type": "electric_scooter"}, {"fusion_lon": 0.0, "name": "97a91f72681916dc21d5ef65acb0c6d7", "rental_uris": {"android": "https://dc.lft.to/lastmile_qr_scan", "ios": "https://dc.lft.to/lastmile_qr_scan"}, "lat": 38.90847016666667, "bike_id": "97a91f72681916dc21d5ef65acb0c6d7", "is_disabled": 0, "lon": -77.07305133333334, "is_reserved": 0, "fusion_lat": 0.0, "type": "electric_scooter"}, {"fusion_lon": 0.0, "name": "e4e746a73dfeade2d8891041e68f7e08", "rental_uris": {"android": "https://dc.lft.to/lastmile_qr_scan", "ios": "https://dc.lft.to/lastmile_qr_scan"}, "lat": 38.920526333333335, "bike_id": "e4e746a73dfeade2d8891041e68f7e08", "is_disabled": 0, "lon": -77.024297, "is_reserved": 0, "fusion_lat": 0.0, "type": "electric_scooter"}, {"fusion_lon": 0.0, "name": "70c59a752337642890604884747243fc", "rental_uris": {"android": "https://dc.lft.to/lastmile_qr_scan", "ios": "https://dc.lft.to/lastmile_qr_scan"}, "lat": 38.9435705, "bike_id": "70c59a752337642890604884747243fc", "is_disabled": 0, "lon": -77.06129166666666, "is_reserved": 0, "fusion_lat": 0.0, "type": "electric_scooter"}, {"fusion_lon": 0.0, "name": "70c13e13b1158f8cbd6b669e93bb2101", "rental_uris": {"android": "https://dc.lft.to/lastmile_qr_scan", "ios": "https://dc.lft.to/lastmile_qr_scan"}, "lat": 38.922706166666664, "bike_id": "70c13e13b1158f8cbd6b669e93bb2101", "is_disabled": 0, "lon": -77.0339595, "is_reserved": 0, "fusion_lat": 0.0, "type": "electric_scooter"}, {"fusion_lon": 0.0, "name": "d5e2be34b0960f79b4748ec8f7fff95f", "rental_uris": {"android": "https://dc.lft.to/lastmile_qr_scan", "ios": "https://dc.lft.to/lastmile_qr_scan"}, "lat": 38.920595, "bike_id": "d5e2be34b0960f79b4748ec8f7fff95f", "is_disabled": 0, "lon": -76.99111433333333, "is_reserved": 0, "fusion_lat": 0.0, "type": "electric_bike"}, {"fusion_lon": 0.0, "name": "149e89c8af8c7f4963d78b4041a3ac04", "rental_uris": {"android": "https://dc.lft.to/lastmile_qr_scan", "ios": "https://dc.lft.to/lastmile_qr_scan"}, "lat": 38.955164833333335, "bike_id": "149e89c8af8c7f4963d78b4041a3ac04", "is_disabled": 0, "lon": -77.0104135, "is_reserved": 0, "fusion_lat": 0.0, "type": "electric_scooter"}, {"fusion_lon": 0.0, "name": "80eef754386f2f1c460304c54fbf9167", "rental_uris": {"android": "https://dc.lft.to/lastmile_qr_scan", "ios": "https://dc.lft.to/lastmile_qr_scan"}, "lat": 38.9185855, "bike_id": "80eef754386f2f1c460304c54fbf9167", "is_disabled": 0, "lon": -77.04483416666666, "is_reserved": 0, "fusion_lat": 0.0, "type": "electric_scooter"}, {"fusion_lon": 0.0, "name": "5da00288742a18d17d13a80cd2744d11", "rental_uris": {"android": "https://dc.lft.to/lastmile_qr_scan", "ios": "https://dc.lft.to/lastmile_qr_scan"}, "lat": 38.87690716666667, "bike_id": "5da00288742a18d17d13a80cd2744d11", "is_disabled": 0, "lon": -77.00070733333334, "is_reserved": 0, "fusion_lat": 0.0, "type": "electric_scooter"}, {"fusion_lon": 0.0, "name": "b0ca2d7b941d9e00f14fa8a1f0e64f0a", "rental_uris": {"android": "https://dc.lft.to/lastmile_qr_scan", "ios": "https://dc.lft.to/lastmile_qr_scan"}, "lat": 38.92092516666666, "bike_id": "b0ca2d7b941d9e00f14fa8a1f0e64f0a", "is_disabled": 0, "lon": -77.02321183333333, "is_reserved": 0, "fusion_lat": 0.0, "type": "electric_scooter"}, {"fusion_lon": 0.0, "name": "309b06fc3fff9f2d29933ef8750f44f2", "rental_uris": {"android": "https://dc.lft.to/lastmile_qr_scan", "ios": "https://dc.lft.to/lastmile_qr_scan"}, "lat": 38.921644, "bike_id": "309b06fc3fff9f2d29933ef8750f44f2", "is_disabled": 0, "lon": -77.0267095, "is_reserved": 0, "fusion_lat": 0.0, "type": "electric_scooter"}, {"fusion_lon": 0.0, "name": "fb02ec03b4979192b91ff2e09b72d75b", "rental_uris": {"android": "https://dc.lft.to/lastmile_qr_scan", "ios": "https://dc.lft.to/lastmile_qr_scan"}, "lat": 38.9575645, "bike_id": "fb02ec03b4979192b91ff2e09b72d75b", "is_disabled": 0, "lon": -77.0091545, "is_reserved": 0, "fusion_lat": 0.0, "type": "electric_scooter"}, {"fusion_lon": 0.0, "name": "5811fee0c61d8fec62a2c71da6822fcb", "rental_uris": {"android": "https://dc.lft.to/lastmile_qr_scan", "ios": "https://dc.lft.to/lastmile_qr_scan"}, "lat": 38.912477, "bike_id": "5811fee0c61d8fec62a2c71da6822fcb", "is_disabled": 0, "lon": -77.03213833333334, "is_reserved": 0, "fusion_lat": 0.0, "type": "electric_scooter"}, {"fusion_lon": 0.0, "name": "ae4001b1e8b2f2621532ff998fc39e78", "rental_uris": {"android": "https://dc.lft.to/lastmile_qr_scan", "ios": "https://dc.lft.to/lastmile_qr_scan"}, "lat": 38.9214815, "bike_id": "ae4001b1e8b2f2621532ff998fc39e78", "is_disabled": 0, "lon": -77.03384133333333, "is_reserved": 0, "fusion_lat": 0.0, "type": "electric_scooter"}, {"fusion_lon": 0.0, "name": "440497b4bf0b72087b75540ed341ecc5", "rental_uris": {"android": "https://dc.lft.to/lastmile_qr_scan", "ios": "https://dc.lft.to/lastmile_qr_scan"}, "lat": 38.92075966666667, "bike_id": "440497b4bf0b72087b75540ed341ecc5", "is_disabled": 0, "lon": -77.02407583333333, "is_reserved": 0, "fusion_lat": 0.0, "type": "electric_scooter"}, {"fusion_lon": 0.0, "name": "f3eef20ccb51cb806b4f20d16cd1d072", "rental_uris": {"android": "https://dc.lft.to/lastmile_qr_scan", "ios": "https://dc.lft.to/lastmile_qr_scan"}, "lat": 38.892322, "bike_id": "f3eef20ccb51cb806b4f20d16cd1d072", "is_disabled": 0, "lon": -77.02386316666667, "is_reserved": 0, "fusion_lat": 0.0, "type": "electric_scooter"}, {"fusion_lon": 0.0, "name": "649e36b495ae67b0bdd8fe6ee0df44ba", "rental_uris": {"android": "https://dc.lft.to/lastmile_qr_scan", "ios": "https://dc.lft.to/lastmile_qr_scan"}, "lat": 38.92603416666667, "bike_id": "649e36b495ae67b0bdd8fe6ee0df44ba", "is_disabled": 0, "lon": -77.0215725, "is_reserved": 0, "fusion_lat": 0.0, "type": "electric_scooter"}, {"fusion_lon": 0.0, "name": "5347d2262250a1a383690e1ed8c16448", "rental_uris": {"android": "https://dc.lft.to/lastmile_qr_scan", "ios": "https://dc.lft.to/lastmile_qr_scan"}, "lat": 38.905727, "bike_id": "5347d2262250a1a383690e1ed8c16448", "is_disabled": 0, "lon": -77.02180533333333, "is_reserved": 0, "fusion_lat": 0.0, "type": "electric_scooter"}, {"fusion_lon": 0.0, "name": "b92100e0ccdb86c558c98d0e826ed99e", "rental_uris": {"android": "https://dc.lft.to/lastmile_qr_scan", "ios": "https://dc.lft.to/lastmile_qr_scan"}, "lat": 38.96610483333333, "bike_id": "b92100e0ccdb86c558c98d0e826ed99e", "is_disabled": 0, "lon": -77.02291083333333, "is_reserved": 0, "fusion_lat": 0.0, "type": "electric_scooter"}, {"fusion_lon": 0.0, "name": "a823ee7e09c150c929cde27844bcf4d9", "rental_uris": {"android": "https://dc.lft.to/lastmile_qr_scan", "ios": "https://dc.lft.to/lastmile_qr_scan"}, "lat": 38.9923465, "bike_id": "a823ee7e09c150c929cde27844bcf4d9", "is_disabled": 0, "lon": -77.02384633333334, "is_reserved": 0, "fusion_lat": 0.0, "type": "electric_bike"}, {"fusion_lon": 0.0, "name": "a10a6aebc62d68a8ce255944a67b9df3", "rental_uris": {"android": "https://dc.lft.to/lastmile_qr_scan", "ios": "https://dc.lft.to/lastmile_qr_scan"}, "lat": 38.92869783333333, "bike_id": "a10a6aebc62d68a8ce255944a67b9df3", "is_disabled": 0, "lon": -77.03348816666667, "is_reserved": 0, "fusion_lat": 0.0, "type": "electric_scooter"}, {"fusion_lon": 0.0, "name": "d36625dad787cc2ccd8c0989669bf0ad", "rental_uris": {"android": "https://dc.lft.to/lastmile_qr_scan", "ios": "https://dc.lft.to/lastmile_qr_scan"}, "lat": 38.92071216666667, "bike_id": "d36625dad787cc2ccd8c0989669bf0ad", "is_disabled": 0, "lon": -77.0232235, "is_reserved": 0, "fusion_lat": 0.0, "type": "electric_scooter"}, {"fusion_lon": 0.0, "name": "149315d225cd8412d53f91e5b783a7b6", "rental_uris": {"android": "https://dc.lft.to/lastmile_qr_scan", "ios": "https://dc.lft.to/lastmile_qr_scan"}, "lat": 38.85789, "bike_id": "149315d225cd8412d53f91e5b783a7b6", "is_disabled": 0, "lon": -76.98749383333333, "is_reserved": 0, "fusion_lat": 0.0, "type": "electric_bike"}, {"fusion_lon": 0.0, "name": "f6bf16c64f6506cc14498f1c19c7be59", "rental_uris": {"android": "https://dc.lft.to/lastmile_qr_scan", "ios": "https://dc.lft.to/lastmile_qr_scan"}, "lat": 38.89523066666667, "bike_id": "f6bf16c64f6506cc14498f1c19c7be59", "is_disabled": 0, "lon": -77.01199416666667, "is_reserved": 0, "fusion_lat": 0.0, "type": "electric_scooter"}, {"fusion_lon": 0.0, "name": "79ee399c856b8f4c26c04d88a66558df", "rental_uris": {"android": "https://dc.lft.to/lastmile_qr_scan", "ios": "https://dc.lft.to/lastmile_qr_scan"}, "lat": 38.900576, "bike_id": "79ee399c856b8f4c26c04d88a66558df", "is_disabled": 0, "lon": -77.0506775, "is_reserved": 0, "fusion_lat": 0.0, "type": "electric_scooter"}, {"fusion_lon": 0.0, "name": "4c95937c64470eff5884488dda300492", "rental_uris": {"android": "https://dc.lft.to/lastmile_qr_scan", "ios": "https://dc.lft.to/lastmile_qr_scan"}, "lat": 38.9612505, "bike_id": "4c95937c64470eff5884488dda300492", "is_disabled": 0, "lon": -77.032797, "is_reserved": 0, "fusion_lat": 0.0, "type": "electric_bike"}, {"fusion_lon": 0.0, "name": "4e56e71c292dbcee9e24c894e51e5b14", "rental_uris": {"android": "https://dc.lft.to/lastmile_qr_scan", "ios": "https://dc.lft.to/lastmile_qr_scan"}, "lat": 38.8942535, "bike_id": "4e56e71c292dbcee9e24c894e51e5b14", "is_disabled": 0, "lon": -76.99777666666667, "is_reserved": 0, "fusion_lat": 0.0, "type": "electric_scooter"}, {"fusion_lon": 0.0, "name": "1a28dfe832ee48e7f40a5ea431a6b850", "rental_uris": {"android": "https://dc.lft.to/lastmile_qr_scan", "ios": "https://dc.lft.to/lastmile_qr_scan"}, "lat": 38.9037005, "bike_id": "1a28dfe832ee48e7f40a5ea431a6b850", "is_disabled": 0, "lon": -76.98060083333333, "is_reserved": 0, "fusion_lat": 0.0, "type": "electric_scooter"}, {"fusion_lon": 0.0, "name": "915bed3e50983a691eb68e9c392c7c06", "rental_uris": {"android": "https://dc.lft.to/lastmile_qr_scan", "ios": "https://dc.lft.to/lastmile_qr_scan"}, "lat": 38.91360733333333, "bike_id": "915bed3e50983a691eb68e9c392c7c06", "is_disabled": 0, "lon": -77.019844, "is_reserved": 0, "fusion_lat": 0.0, "type": "electric_scooter"}, {"fusion_lon": 0.0, "name": "27f52177bcad75154fa815dc14d862c5", "rental_uris": {"android": "https://dc.lft.to/lastmile_qr_scan", "ios": "https://dc.lft.to/lastmile_qr_scan"}, "lat": 38.92999233333333, "bike_id": "27f52177bcad75154fa815dc14d862c5", "is_disabled": 0, "lon": -77.0221285, "is_reserved": 0, "fusion_lat": 0.0, "type": "electric_scooter"}, {"fusion_lon": 0.0, "name": "4fa5ece95f57fda44ead41819637b918", "rental_uris": {"android": "https://dc.lft.to/lastmile_qr_scan", "ios": "https://dc.lft.to/lastmile_qr_scan"}, "lat": 38.8861705, "bike_id": "4fa5ece95f57fda44ead41819637b918", "is_disabled": 0, "lon": -77.02175483333333, "is_reserved": 0, "fusion_lat": 0.0, "type": "electric_scooter"}, {"fusion_lon": 0.0, "name": "dd0c380841ae2f96ac2a0c2e572f14bc", "rental_uris": {"android": "https://dc.lft.to/lastmile_qr_scan", "ios": "https://dc.lft.to/lastmile_qr_scan"}, "lat": 38.8772715, "bike_id": "dd0c380841ae2f96ac2a0c2e572f14bc", "is_disabled": 0, "lon": -77.005909, "is_reserved": 0, "fusion_lat": 0.0, "type": "electric_scooter"}, {"fusion_lon": 0.0, "name": "655ad67bee12a22220a3577ba55258fa", "rental_uris": {"android": "https://dc.lft.to/lastmile_qr_scan", "ios": "https://dc.lft.to/lastmile_qr_scan"}, "lat": 38.9332655, "bike_id": "655ad67bee12a22220a3577ba55258fa", "is_disabled": 0, "lon": -77.02917533333333, "is_reserved": 0, "fusion_lat": 0.0, "type": "electric_scooter"}, {"fusion_lon": 0.0, "name": "73dc1a3c7feb728fd9eb32ce81ef7ede", "rental_uris": {"android": "https://dc.lft.to/lastmile_qr_scan", "ios": "https://dc.lft.to/lastmile_qr_scan"}, "lat": 38.938916666666664, "bike_id": "73dc1a3c7feb728fd9eb32ce81ef7ede", "is_disabled": 0, "lon": -77.01767266666667, "is_reserved": 0, "fusion_lat": 0.0, "type": "electric_scooter"}, {"fusion_lon": 0.0, "name": "3a01ec26cbe8fabb8b1c46962bb91776", "rental_uris": {"android": "https://dc.lft.to/lastmile_qr_scan", "ios": "https://dc.lft.to/lastmile_qr_scan"}, "lat": 38.90684233333333, "bike_id": "3a01ec26cbe8fabb8b1c46962bb91776", "is_disabled": 0, "lon": -77.02693783333333, "is_reserved": 0, "fusion_lat": 0.0, "type": "electric_scooter"}, {"fusion_lon": 0.0, "name": "aca698c698d555487d939c3eb765b533", "rental_uris": {"android": "https://dc.lft.to/lastmile_qr_scan", "ios": "https://dc.lft.to/lastmile_qr_scan"}, "lat": 38.904599833333336, "bike_id": "aca698c698d555487d939c3eb765b533", "is_disabled": 0, "lon": -77.04863283333333, "is_reserved": 0, "fusion_lat": 0.0, "type": "electric_scooter"}, {"fusion_lon": 0.0, "name": "c73a4fab505ebdc0cb09d6f859b9d12b", "rental_uris": {"android": "https://dc.lft.to/lastmile_qr_scan", "ios": "https://dc.lft.to/lastmile_qr_scan"}, "lat": 38.92697483333333, "bike_id": "c73a4fab505ebdc0cb09d6f859b9d12b", "is_disabled": 0, "lon": -77.02085533333333, "is_reserved": 0, "fusion_lat": 0.0, "type": "electric_scooter"}, {"fusion_lon": 0.0, "name": "cc929f1bf02f36e8b0414fd1eebbde8c", "rental_uris": {"android": "https://dc.lft.to/lastmile_qr_scan", "ios": "https://dc.lft.to/lastmile_qr_scan"}, "lat": 38.91677633333333, "bike_id": "cc929f1bf02f36e8b0414fd1eebbde8c", "is_disabled": 0, "lon": -77.02283833333334, "is_reserved": 0, "fusion_lat": 0.0, "type": "electric_scooter"}, {"fusion_lon": 0.0, "name": "e7c1a791cb019d5a404adf56df8ab1ac", "rental_uris": {"android": "https://dc.lft.to/lastmile_qr_scan", "ios": "https://dc.lft.to/lastmile_qr_scan"}, "lat": 38.94318166666667, "bike_id": "e7c1a791cb019d5a404adf56df8ab1ac", "is_disabled": 0, "lon": -76.99014466666667, "is_reserved": 0, "fusion_lat": 0.0, "type": "electric_bike"}, {"fusion_lon": 0.0, "name": "b2147494749d05670b3b839ec5b762eb", "rental_uris": {"android": "https://dc.lft.to/lastmile_qr_scan", "ios": "https://dc.lft.to/lastmile_qr_scan"}, "lat": 38.96025916666667, "bike_id": "b2147494749d05670b3b839ec5b762eb", "is_disabled": 0, "lon": -77.02426116666666, "is_reserved": 0, "fusion_lat": 0.0, "type": "electric_scooter"}, {"fusion_lon": 0.0, "name": "60ac760cc49f90366ac37f3bcc36e4eb", "rental_uris": {"android": "https://dc.lft.to/lastmile_qr_scan", "ios": "https://dc.lft.to/lastmile_qr_scan"}, "lat": 38.8882235, "bike_id": "60ac760cc49f90366ac37f3bcc36e4eb", "is_disabled": 0, "lon": -76.97708683333333, "is_reserved": 0, "fusion_lat": 0.0, "type": "electric_scooter"}, {"fusion_lon": 0.0, "name": "cce5beedab2cfd13f45b5bf5feacc13e", "rental_uris": {"android": "https://dc.lft.to/lastmile_qr_scan", "ios": "https://dc.lft.to/lastmile_qr_scan"}, "lat": 38.855722666666665, "bike_id": "cce5beedab2cfd13f45b5bf5feacc13e", "is_disabled": 0, "lon": -76.97415833333334, "is_reserved": 0, "fusion_lat": 0.0, "type": "electric_bike"}, {"fusion_lon": 0.0, "name": "517537d9fb4d4332b90be107d6dc2b7f", "rental_uris": {"android": "https://dc.lft.to/lastmile_qr_scan", "ios": "https://dc.lft.to/lastmile_qr_scan"}, "lat": 38.93147166666667, "bike_id": "517537d9fb4d4332b90be107d6dc2b7f", "is_disabled": 0, "lon": -77.0570655, "is_reserved": 0, "fusion_lat": 0.0, "type": "electric_scooter"}, {"fusion_lon": 0.0, "name": "81db78ec5ed386c3766b072ff8855efd", "rental_uris": {"android": "https://dc.lft.to/lastmile_qr_scan", "ios": "https://dc.lft.to/lastmile_qr_scan"}, "lat": 38.930256, "bike_id": "81db78ec5ed386c3766b072ff8855efd", "is_disabled": 0, "lon": -77.05562883333333, "is_reserved": 0, "fusion_lat": 0.0, "type": "electric_scooter"}, {"fusion_lon": 0.0, "name": "b3950f3901359981a23872194fe13f98", "rental_uris": {"android": "https://dc.lft.to/lastmile_qr_scan", "ios": "https://dc.lft.to/lastmile_qr_scan"}, "lat": 38.905045333333334, "bike_id": "b3950f3901359981a23872194fe13f98", "is_disabled": 0, "lon": -77.0295815, "is_reserved": 0, "fusion_lat": 0.0, "type": "electric_scooter"}, {"fusion_lon": 0.0, "name": "2fb2b35703b0907d3d22f4a35da89db2", "rental_uris": {"android": "https://dc.lft.to/lastmile_qr_scan", "ios": "https://dc.lft.to/lastmile_qr_scan"}, "lat": 38.92345016666667, "bike_id": "2fb2b35703b0907d3d22f4a35da89db2", "is_disabled": 0, "lon": -77.03418983333333, "is_reserved": 0, "fusion_lat": 0.0, "type": "electric_scooter"}, {"fusion_lon": 0.0, "name": "9670bc3aba3b6f41795bdc082af3d2b9", "rental_uris": {"android": "https://dc.lft.to/lastmile_qr_scan", "ios": "https://dc.lft.to/lastmile_qr_scan"}, "lat": 38.920069833333336, "bike_id": "9670bc3aba3b6f41795bdc082af3d2b9", "is_disabled": 0, "lon": -76.98504516666667, "is_reserved": 0, "fusion_lat": 0.0, "type": "electric_scooter"}, {"fusion_lon": 0.0, "name": "4624259c9a5f2c047f0b85738d7e8bdf", "rental_uris": {"android": "https://dc.lft.to/lastmile_qr_scan", "ios": "https://dc.lft.to/lastmile_qr_scan"}, "lat": 38.907552, "bike_id": "4624259c9a5f2c047f0b85738d7e8bdf", "is_disabled": 0, "lon": -77.04528866666666, "is_reserved": 0, "fusion_lat": 0.0, "type": "electric_scooter"}, {"fusion_lon": 0.0, "name": "eb18364e2df9a1e742ab296c5d59ab20", "rental_uris": {"android": "https://dc.lft.to/lastmile_qr_scan", "ios": "https://dc.lft.to/lastmile_qr_scan"}, "lat": 38.80660316666667, "bike_id": "eb18364e2df9a1e742ab296c5d59ab20", "is_disabled": 0, "lon": -77.087603, "is_reserved": 0, "fusion_lat": 0.0, "type": "electric_bike"}, {"fusion_lon": 0.0, "name": "db8034fbaf915f7d180762d5f058b159", "rental_uris": {"android": "https://dc.lft.to/lastmile_qr_scan", "ios": "https://dc.lft.to/lastmile_qr_scan"}, "lat": 38.913296833333334, "bike_id": "db8034fbaf915f7d180762d5f058b159", "is_disabled": 0, "lon": -77.03184783333333, "is_reserved": 0, "fusion_lat": 0.0, "type": "electric_scooter"}, {"fusion_lon": 0.0, "name": "5e9fad7ee3e2b39cf1176af7d3d50b2e", "rental_uris": {"android": "https://dc.lft.to/lastmile_qr_scan", "ios": "https://dc.lft.to/lastmile_qr_scan"}, "lat": 38.88192816666667, "bike_id": "5e9fad7ee3e2b39cf1176af7d3d50b2e", "is_disabled": 0, "lon": -77.0285535, "is_reserved": 0, "fusion_lat": 0.0, "type": "electric_scooter"}, {"fusion_lon": 0.0, "name": "ad803285d879dc90e58555eb58d33434", "rental_uris": {"android": "https://dc.lft.to/lastmile_qr_scan", "ios": "https://dc.lft.to/lastmile_qr_scan"}, "lat": 38.923849, "bike_id": "ad803285d879dc90e58555eb58d33434", "is_disabled": 0, "lon": -77.03672166666666, "is_reserved": 0, "fusion_lat": 0.0, "type": "electric_scooter"}, {"fusion_lon": 0.0, "name": "2ff69dfb67e86aecf86d1acdd250aad7", "rental_uris": {"android": "https://dc.lft.to/lastmile_qr_scan", "ios": "https://dc.lft.to/lastmile_qr_scan"}, "lat": 38.905593, "bike_id": "2ff69dfb67e86aecf86d1acdd250aad7", "is_disabled": 0, "lon": -77.03498983333333, "is_reserved": 0, "fusion_lat": 0.0, "type": "electric_scooter"}, {"fusion_lon": 0.0, "name": "4136d9a00a56253a201dff81573fd54d", "rental_uris": {"android": "https://dc.lft.to/lastmile_qr_scan", "ios": "https://dc.lft.to/lastmile_qr_scan"}, "lat": 38.89360766666667, "bike_id": "4136d9a00a56253a201dff81573fd54d", "is_disabled": 0, "lon": -76.984595, "is_reserved": 0, "fusion_lat": 0.0, "type": "electric_scooter"}, {"fusion_lon": 0.0, "name": "3df5b1371a3f35ac14b35b432e3cf6f9", "rental_uris": {"android": "https://dc.lft.to/lastmile_qr_scan", "ios": "https://dc.lft.to/lastmile_qr_scan"}, "lat": 38.915597, "bike_id": "3df5b1371a3f35ac14b35b432e3cf6f9", "is_disabled": 0, "lon": -77.036707, "is_reserved": 0, "fusion_lat": 0.0, "type": "electric_scooter"}, {"fusion_lon": 0.0, "name": "17e3306b0a2f71bcaeaa3f23725ae640", "rental_uris": {"android": "https://dc.lft.to/lastmile_qr_scan", "ios": "https://dc.lft.to/lastmile_qr_scan"}, "lat": 38.90203916666667, "bike_id": "17e3306b0a2f71bcaeaa3f23725ae640", "is_disabled": 0, "lon": -77.06116883333333, "is_reserved": 0, "fusion_lat": 0.0, "type": "electric_scooter"}, {"fusion_lon": 0.0, "name": "334dd36dafecdb2c5dd6438e3487c5e2", "rental_uris": {"android": "https://dc.lft.to/lastmile_qr_scan", "ios": "https://dc.lft.to/lastmile_qr_scan"}, "lat": 38.90192833333333, "bike_id": "334dd36dafecdb2c5dd6438e3487c5e2", "is_disabled": 0, "lon": -77.02189033333333, "is_reserved": 0, "fusion_lat": 0.0, "type": "electric_scooter"}, {"fusion_lon": 0.0, "name": "ef3b4bb631bf139bd3a934fcce92b480", "rental_uris": {"android": "https://dc.lft.to/lastmile_qr_scan", "ios": "https://dc.lft.to/lastmile_qr_scan"}, "lat": 38.91969433333333, "bike_id": "ef3b4bb631bf139bd3a934fcce92b480", "is_disabled": 0, "lon": -77.02338866666666, "is_reserved": 0, "fusion_lat": 0.0, "type": "electric_scooter"}, {"fusion_lon": 0.0, "name": "ead0d0d85170e499b1da20cf2355cf48", "rental_uris": {"android": "https://dc.lft.to/lastmile_qr_scan", "ios": "https://dc.lft.to/lastmile_qr_scan"}, "lat": 38.926236333333335, "bike_id": "ead0d0d85170e499b1da20cf2355cf48", "is_disabled": 0, "lon": -77.00592316666666, "is_reserved": 0, "fusion_lat": 0.0, "type": "electric_bike"}, {"fusion_lon": 0.0, "name": "9cf4f375c08f0af204d43f6ba618c206", "rental_uris": {"android": "https://dc.lft.to/lastmile_qr_scan", "ios": "https://dc.lft.to/lastmile_qr_scan"}, "lat": 38.908941166666665, "bike_id": "9cf4f375c08f0af204d43f6ba618c206", "is_disabled": 0, "lon": -77.03017633333333, "is_reserved": 0, "fusion_lat": 0.0, "type": "electric_scooter"}, {"fusion_lon": 0.0, "name": "5271a472e282bacae9a607ac8ff639c5", "rental_uris": {"android": "https://dc.lft.to/lastmile_qr_scan", "ios": "https://dc.lft.to/lastmile_qr_scan"}, "lat": 38.94153166666667, "bike_id": "5271a472e282bacae9a607ac8ff639c5", "is_disabled": 0, "lon": -77.00199183333334, "is_reserved": 0, "fusion_lat": 0.0, "type": "electric_bike"}, {"fusion_lon": 0.0, "name": "c5dec3486c51b9cbe669fcada1d506c8", "rental_uris": {"android": "https://dc.lft.to/lastmile_qr_scan", "ios": "https://dc.lft.to/lastmile_qr_scan"}, "lat": 38.956313, "bike_id": "c5dec3486c51b9cbe669fcada1d506c8", "is_disabled": 0, "lon": -77.02952366666666, "is_reserved": 0, "fusion_lat": 0.0, "type": "electric_scooter"}, {"fusion_lon": 0.0, "name": "bd53e3f686d1265085614c014b0c1312", "rental_uris": {"android": "https://dc.lft.to/lastmile_qr_scan", "ios": "https://dc.lft.to/lastmile_qr_scan"}, "lat": 38.873129166666665, "bike_id": "bd53e3f686d1265085614c014b0c1312", "is_disabled": 0, "lon": -77.01392716666666, "is_reserved": 0, "fusion_lat": 0.0, "type": "electric_scooter"}, {"fusion_lon": 0.0, "name": "e0599647356d7c9b08d7a7f379376252", "rental_uris": {"android": "https://dc.lft.to/lastmile_qr_scan", "ios": "https://dc.lft.to/lastmile_qr_scan"}, "lat": 38.89622416666667, "bike_id": "e0599647356d7c9b08d7a7f379376252", "is_disabled": 0, "lon": -76.92976516666667, "is_reserved": 0, "fusion_lat": 0.0, "type": "electric_scooter"}, {"fusion_lon": 0.0, "name": "696bab7976228a42e6cdc92cb158179b", "rental_uris": {"android": "https://dc.lft.to/lastmile_qr_scan", "ios": "https://dc.lft.to/lastmile_qr_scan"}, "lat": 38.895587166666665, "bike_id": "696bab7976228a42e6cdc92cb158179b", "is_disabled": 0, "lon": -77.12737583333333, "is_reserved": 0, "fusion_lat": 0.0, "type": "electric_bike"}, {"fusion_lon": 0.0, "name": "4d70d47d19aca6ed6f1bb2f53489468d", "rental_uris": {"android": "https://dc.lft.to/lastmile_qr_scan", "ios": "https://dc.lft.to/lastmile_qr_scan"}, "lat": 38.880726, "bike_id": "4d70d47d19aca6ed6f1bb2f53489468d", "is_disabled": 0, "lon": -77.0372205, "is_reserved": 0, "fusion_lat": 0.0, "type": "electric_scooter"}, {"fusion_lon": 0.0, "name": "807fbc8c951fa4de1b88c4310efd0b13", "rental_uris": {"android": "https://dc.lft.to/lastmile_qr_scan", "ios": "https://dc.lft.to/lastmile_qr_scan"}, "lat": 38.920655333333336, "bike_id": "807fbc8c951fa4de1b88c4310efd0b13", "is_disabled": 0, "lon": -77.0243995, "is_reserved": 0, "fusion_lat": 0.0, "type": "electric_scooter"}, {"fusion_lon": 0.0, "name": "3da0feb9d8669981d355db82d565c333", "rental_uris": {"android": "https://dc.lft.to/lastmile_qr_scan", "ios": "https://dc.lft.to/lastmile_qr_scan"}, "lat": 38.938291, "bike_id": "3da0feb9d8669981d355db82d565c333", "is_disabled": 0, "lon": -77.02457333333334, "is_reserved": 0, "fusion_lat": 0.0, "type": "electric_scooter"}, {"fusion_lon": 0.0, "name": "8c97bb44769cd32d9b5ed285e0de1b5b", "rental_uris": {"android": "https://dc.lft.to/lastmile_qr_scan", "ios": "https://dc.lft.to/lastmile_qr_scan"}, "lat": 38.91407616666667, "bike_id": "8c97bb44769cd32d9b5ed285e0de1b5b", "is_disabled": 0, "lon": -77.018514, "is_reserved": 0, "fusion_lat": 0.0, "type": "electric_scooter"}, {"fusion_lon": 0.0, "name": "36696c82d6b1764edfe86a37c2fe1993", "rental_uris": {"android": "https://dc.lft.to/lastmile_qr_scan", "ios": "https://dc.lft.to/lastmile_qr_scan"}, "lat": 38.89690616666667, "bike_id": "36696c82d6b1764edfe86a37c2fe1993", "is_disabled": 0, "lon": -77.0433785, "is_reserved": 0, "fusion_lat": 0.0, "type": "electric_scooter"}, {"fusion_lon": 0.0, "name": "419b97bccf4f6ae50e74550242d5d98e", "rental_uris": {"android": "https://dc.lft.to/lastmile_qr_scan", "ios": "https://dc.lft.to/lastmile_qr_scan"}, "lat": 38.908822666666666, "bike_id": "419b97bccf4f6ae50e74550242d5d98e", "is_disabled": 0, "lon": -77.0433575, "is_reserved": 0, "fusion_lat": 0.0, "type": "electric_scooter"}, {"fusion_lon": 0.0, "name": "21011fb226bc4d0003490ac50763a591", "rental_uris": {"android": "https://dc.lft.to/lastmile_qr_scan", "ios": "https://dc.lft.to/lastmile_qr_scan"}, "lat": 38.91482116666667, "bike_id": "21011fb226bc4d0003490ac50763a591", "is_disabled": 0, "lon": -77.0218255, "is_reserved": 0, "fusion_lat": 0.0, "type": "electric_scooter"}, {"fusion_lon": 0.0, "name": "655047cf51e32fa47848ac049a38871e", "rental_uris": {"android": "https://dc.lft.to/lastmile_qr_scan", "ios": "https://dc.lft.to/lastmile_qr_scan"}, "lat": 38.903416, "bike_id": "655047cf51e32fa47848ac049a38871e", "is_disabled": 0, "lon": -77.061992, "is_reserved": 0, "fusion_lat": 0.0, "type": "electric_scooter"}, {"fusion_lon": 0.0, "name": "b0d4b26282b5a3912f3f35ec4e1a6bf0", "rental_uris": {"android": "https://dc.lft.to/lastmile_qr_scan", "ios": "https://dc.lft.to/lastmile_qr_scan"}, "lat": 38.923718, "bike_id": "b0d4b26282b5a3912f3f35ec4e1a6bf0", "is_disabled": 0, "lon": -77.01915016666666, "is_reserved": 0, "fusion_lat": 0.0, "type": "electric_scooter"}, {"fusion_lon": 0.0, "name": "33fc21e3f0f864cfdd3dc2fc4c3d08cd", "rental_uris": {"android": "https://dc.lft.to/lastmile_qr_scan", "ios": "https://dc.lft.to/lastmile_qr_scan"}, "lat": 38.936794666666664, "bike_id": "33fc21e3f0f864cfdd3dc2fc4c3d08cd", "is_disabled": 0, "lon": -77.01946266666667, "is_reserved": 0, "fusion_lat": 0.0, "type": "electric_scooter"}, {"fusion_lon": 0.0, "name": "5731f2f12011ee2028e8de86edb1a75a", "rental_uris": {"android": "https://dc.lft.to/lastmile_qr_scan", "ios": "https://dc.lft.to/lastmile_qr_scan"}, "lat": 38.927995833333334, "bike_id": "5731f2f12011ee2028e8de86edb1a75a", "is_disabled": 0, "lon": -77.03698983333334, "is_reserved": 0, "fusion_lat": 0.0, "type": "electric_scooter"}, {"fusion_lon": 0.0, "name": "3a8d78adf27bccec3ce34b5c8c1ae4e0", "rental_uris": {"android": "https://dc.lft.to/lastmile_qr_scan", "ios": "https://dc.lft.to/lastmile_qr_scan"}, "lat": 38.91014833333333, "bike_id": "3a8d78adf27bccec3ce34b5c8c1ae4e0", "is_disabled": 0, "lon": -77.03858916666667, "is_reserved": 0, "fusion_lat": 0.0, "type": "electric_scooter"}, {"fusion_lon": 0.0, "name": "7c8772e0189fa7f29109370782c879dd", "rental_uris": {"android": "https://dc.lft.to/lastmile_qr_scan", "ios": "https://dc.lft.to/lastmile_qr_scan"}, "lat": 38.95068533333333, "bike_id": "7c8772e0189fa7f29109370782c879dd", "is_disabled": 0, "lon": -77.06632016666667, "is_reserved": 0, "fusion_lat": 0.0, "type": "electric_bike"}, {"fusion_lon": 0.0, "name": "1faae8c36b4e052867968a0ec951e62c", "rental_uris": {"android": "https://dc.lft.to/lastmile_qr_scan", "ios": "https://dc.lft.to/lastmile_qr_scan"}, "lat": 38.89947733333333, "bike_id": "1faae8c36b4e052867968a0ec951e62c", "is_disabled": 0, "lon": -77.04786866666667, "is_reserved": 0, "fusion_lat": 0.0, "type": "electric_scooter"}, {"fusion_lon": 0.0, "name": "9efe64a62e297693d396c214583b8fc7", "rental_uris": {"android": "https://dc.lft.to/lastmile_qr_scan", "ios": "https://dc.lft.to/lastmile_qr_scan"}, "lat": 38.89608283333333, "bike_id": "9efe64a62e297693d396c214583b8fc7", "is_disabled": 0, "lon": -77.0116435, "is_reserved": 0, "fusion_lat": 0.0, "type": "electric_scooter"}, {"fusion_lon": 0.0, "name": "3b6ba2f32fb5c42a130d1b4757c31fe0", "rental_uris": {"android": "https://dc.lft.to/lastmile_qr_scan", "ios": "https://dc.lft.to/lastmile_qr_scan"}, "lat": 38.87629733333333, "bike_id": "3b6ba2f32fb5c42a130d1b4757c31fe0", "is_disabled": 0, "lon": -77.016547, "is_reserved": 0, "fusion_lat": 0.0, "type": "electric_scooter"}, {"fusion_lon": 0.0, "name": "359a93ad50e305cff8de6ba0f95a4d4f", "rental_uris": {"android": "https://dc.lft.to/lastmile_qr_scan", "ios": "https://dc.lft.to/lastmile_qr_scan"}, "lat": 38.90830533333333, "bike_id": "359a93ad50e305cff8de6ba0f95a4d4f", "is_disabled": 0, "lon": -77.00207433333334, "is_reserved": 0, "fusion_lat": 0.0, "type": "electric_scooter"}, {"fusion_lon": 0.0, "name": "f4614c5f4b28bc94d385fafd79e83628", "rental_uris": {"android": "https://dc.lft.to/lastmile_qr_scan", "ios": "https://dc.lft.to/lastmile_qr_scan"}, "lat": 38.9006965, "bike_id": "f4614c5f4b28bc94d385fafd79e83628", "is_disabled": 0, "lon": -76.92745466666666, "is_reserved": 0, "fusion_lat": 0.0, "type": "electric_scooter"}, {"fusion_lon": 0.0, "name": "f4f53e2cc46c583560d73016d679a1af", "rental_uris": {"android": "https://dc.lft.to/lastmile_qr_scan", "ios": "https://dc.lft.to/lastmile_qr_scan"}, "lat": 38.878618333333335, "bike_id": "f4f53e2cc46c583560d73016d679a1af", "is_disabled": 0, "lon": -76.991651, "is_reserved": 0, "fusion_lat": 0.0, "type": "electric_scooter"}, {"fusion_lon": 0.0, "name": "2d5806a725ce28c244a37fe11e63fb8c", "rental_uris": {"android": "https://dc.lft.to/lastmile_qr_scan", "ios": "https://dc.lft.to/lastmile_qr_scan"}, "lat": 38.89899333333334, "bike_id": "2d5806a725ce28c244a37fe11e63fb8c", "is_disabled": 0, "lon": -77.03295216666666, "is_reserved": 0, "fusion_lat": 0.0, "type": "electric_scooter"}, {"fusion_lon": 0.0, "name": "21ff2a7176bde2d91e68fe3a5cb0b7fd", "rental_uris": {"android": "https://dc.lft.to/lastmile_qr_scan", "ios": "https://dc.lft.to/lastmile_qr_scan"}, "lat": 38.961237833333335, "bike_id": "21ff2a7176bde2d91e68fe3a5cb0b7fd", "is_disabled": 0, "lon": -77.02798416666667, "is_reserved": 0, "fusion_lat": 0.0, "type": "electric_scooter"}, {"fusion_lon": 0.0, "name": "539894698a75b6f121343b93ceceb1fa", "rental_uris": {"android": "https://dc.lft.to/lastmile_qr_scan", "ios": "https://dc.lft.to/lastmile_qr_scan"}, "lat": 38.886225833333334, "bike_id": "539894698a75b6f121343b93ceceb1fa", "is_disabled": 0, "lon": -76.990122, "is_reserved": 0, "fusion_lat": 0.0, "type": "electric_scooter"}, {"fusion_lon": 0.0, "name": "8239a39c0d92fb82206352ac97295fa2", "rental_uris": {"android": "https://dc.lft.to/lastmile_qr_scan", "ios": "https://dc.lft.to/lastmile_qr_scan"}, "lat": 38.9352655, "bike_id": "8239a39c0d92fb82206352ac97295fa2", "is_disabled": 0, "lon": -77.02845533333333, "is_reserved": 0, "fusion_lat": 0.0, "type": "electric_scooter"}, {"fusion_lon": 0.0, "name": "89763c091204e86938b800184c68dadc", "rental_uris": {"android": "https://dc.lft.to/lastmile_qr_scan", "ios": "https://dc.lft.to/lastmile_qr_scan"}, "lat": 38.89743633333333, "bike_id": "89763c091204e86938b800184c68dadc", "is_disabled": 0, "lon": -77.02582983333333, "is_reserved": 0, "fusion_lat": 0.0, "type": "electric_scooter"}, {"fusion_lon": 0.0, "name": "c9278a15049b62afa0b76f1ef619b1f3", "rental_uris": {"android": "https://dc.lft.to/lastmile_qr_scan", "ios": "https://dc.lft.to/lastmile_qr_scan"}, "lat": 38.91952533333333, "bike_id": "c9278a15049b62afa0b76f1ef619b1f3", "is_disabled": 0, "lon": -77.0178245, "is_reserved": 0, "fusion_lat": 0.0, "type": "electric_scooter"}, {"fusion_lon": 0.0, "name": "0adee54a62f1e7c508722952334ede5c", "rental_uris": {"android": "https://dc.lft.to/lastmile_qr_scan", "ios": "https://dc.lft.to/lastmile_qr_scan"}, "lat": 38.91794616666667, "bike_id": "0adee54a62f1e7c508722952334ede5c", "is_disabled": 0, "lon": -77.03442816666667, "is_reserved": 0, "fusion_lat": 0.0, "type": "electric_scooter"}, {"fusion_lon": 0.0, "name": "67a54964a32fb5925b4c67bb4ed6e6be", "rental_uris": {"android": "https://dc.lft.to/lastmile_qr_scan", "ios": "https://dc.lft.to/lastmile_qr_scan"}, "lat": 38.92934966666667, "bike_id": "67a54964a32fb5925b4c67bb4ed6e6be", "is_disabled": 0, "lon": -76.9957855, "is_reserved": 0, "fusion_lat": 0.0, "type": "electric_scooter"}, {"fusion_lon": 0.0, "name": "99b7f0cd5f432b2e40ad769be95f71a0", "rental_uris": {"android": "https://dc.lft.to/lastmile_qr_scan", "ios": "https://dc.lft.to/lastmile_qr_scan"}, "lat": 38.83812116666667, "bike_id": "99b7f0cd5f432b2e40ad769be95f71a0", "is_disabled": 0, "lon": -77.0952635, "is_reserved": 0, "fusion_lat": 0.0, "type": "electric_bike"}, {"fusion_lon": 0.0, "name": "f6ca037c3940b3e121ef389a2890fc62", "rental_uris": {"android": "https://dc.lft.to/lastmile_qr_scan", "ios": "https://dc.lft.to/lastmile_qr_scan"}, "lat": 38.9239485, "bike_id": "f6ca037c3940b3e121ef389a2890fc62", "is_disabled": 0, "lon": -77.03411366666667, "is_reserved": 0, "fusion_lat": 0.0, "type": "electric_scooter"}, {"fusion_lon": 0.0, "name": "308b926e2e2cbccc5c45ae06e2b68ab1", "rental_uris": {"android": "https://dc.lft.to/lastmile_qr_scan", "ios": "https://dc.lft.to/lastmile_qr_scan"}, "lat": 38.926887, "bike_id": "308b926e2e2cbccc5c45ae06e2b68ab1", "is_disabled": 0, "lon": -77.02967516666666, "is_reserved": 0, "fusion_lat": 0.0, "type": "electric_scooter"}, {"fusion_lon": 0.0, "name": "091430891ed714e0dfbf2ef7f7cf82ca", "rental_uris": {"android": "https://dc.lft.to/lastmile_qr_scan", "ios": "https://dc.lft.to/lastmile_qr_scan"}, "lat": 38.870712166666664, "bike_id": "091430891ed714e0dfbf2ef7f7cf82ca", "is_disabled": 0, "lon": -77.11051866666666, "is_reserved": 0, "fusion_lat": 0.0, "type": "electric_bike"}, {"fusion_lon": 0.0, "name": "277ba91d54f0009de9dbfa13243d6562", "rental_uris": {"android": "https://dc.lft.to/lastmile_qr_scan", "ios": "https://dc.lft.to/lastmile_qr_scan"}, "lat": 38.964107, "bike_id": "277ba91d54f0009de9dbfa13243d6562", "is_disabled": 0, "lon": -77.03287266666666, "is_reserved": 0, "fusion_lat": 0.0, "type": "electric_scooter"}, {"fusion_lon": 0.0, "name": "51be8f6d4a52db9227dec8d050021e45", "rental_uris": {"android": "https://dc.lft.to/lastmile_qr_scan", "ios": "https://dc.lft.to/lastmile_qr_scan"}, "lat": 38.929665666666665, "bike_id": "51be8f6d4a52db9227dec8d050021e45", "is_disabled": 0, "lon": -77.02343533333334, "is_reserved": 0, "fusion_lat": 0.0, "type": "electric_scooter"}, {"fusion_lon": 0.0, "name": "4a7ca6da1cb8b122b18a349bd2881a50", "rental_uris": {"android": "https://dc.lft.to/lastmile_qr_scan", "ios": "https://dc.lft.to/lastmile_qr_scan"}, "lat": 38.926842, "bike_id": "4a7ca6da1cb8b122b18a349bd2881a50", "is_disabled": 0, "lon": -77.022688, "is_reserved": 0, "fusion_lat": 0.0, "type": "electric_scooter"}, {"fusion_lon": 0.0, "name": "4362c9ac5a514a25c42a4891d2cfee36", "rental_uris": {"android": "https://dc.lft.to/lastmile_qr_scan", "ios": "https://dc.lft.to/lastmile_qr_scan"}, "lat": 38.874899, "bike_id": "4362c9ac5a514a25c42a4891d2cfee36", "is_disabled": 0, "lon": -76.99793866666667, "is_reserved": 0, "fusion_lat": 0.0, "type": "electric_scooter"}, {"fusion_lon": 0.0, "name": "b4113960aebe9484ff6c1178f57dc624", "rental_uris": {"android": "https://dc.lft.to/lastmile_qr_scan", "ios": "https://dc.lft.to/lastmile_qr_scan"}, "lat": 38.92330416666667, "bike_id": "b4113960aebe9484ff6c1178f57dc624", "is_disabled": 0, "lon": -77.04189033333333, "is_reserved": 0, "fusion_lat": 0.0, "type": "electric_scooter"}, {"fusion_lon": 0.0, "name": "2e9cb658196965fb9f1ea0fe61a37979", "rental_uris": {"android": "https://dc.lft.to/lastmile_qr_scan", "ios": "https://dc.lft.to/lastmile_qr_scan"}, "lat": 38.92309083333333, "bike_id": "2e9cb658196965fb9f1ea0fe61a37979", "is_disabled": 0, "lon": -77.0401675, "is_reserved": 0, "fusion_lat": 0.0, "type": "electric_scooter"}, {"fusion_lon": 0.0, "name": "2741094e66c1f1bfd505a44589529cd8", "rental_uris": {"android": "https://dc.lft.to/lastmile_qr_scan", "ios": "https://dc.lft.to/lastmile_qr_scan"}, "lat": 38.900962666666665, "bike_id": "2741094e66c1f1bfd505a44589529cd8", "is_disabled": 0, "lon": -77.04751833333333, "is_reserved": 0, "fusion_lat": 0.0, "type": "electric_scooter"}, {"fusion_lon": 0.0, "name": "ad00f1e469ad911168a74c17aa7258ba", "rental_uris": {"android": "https://dc.lft.to/lastmile_qr_scan", "ios": "https://dc.lft.to/lastmile_qr_scan"}, "lat": 38.903451833333335, "bike_id": "ad00f1e469ad911168a74c17aa7258ba", "is_disabled": 0, "lon": -77.02575316666666, "is_reserved": 0, "fusion_lat": 0.0, "type": "electric_scooter"}, {"fusion_lon": 0.0, "name": "85e7461c09be661586e354e9a4f4edb4", "rental_uris": {"android": "https://dc.lft.to/lastmile_qr_scan", "ios": "https://dc.lft.to/lastmile_qr_scan"}, "lat": 38.93657133333333, "bike_id": "85e7461c09be661586e354e9a4f4edb4", "is_disabled": 0, "lon": -77.055914, "is_reserved": 0, "fusion_lat": 0.0, "type": "electric_scooter"}, {"fusion_lon": 0.0, "name": "7de9643d61b55bed48d8d27360ccab59", "rental_uris": {"android": "https://dc.lft.to/lastmile_qr_scan", "ios": "https://dc.lft.to/lastmile_qr_scan"}, "lat": 38.8982025, "bike_id": "7de9643d61b55bed48d8d27360ccab59", "is_disabled": 0, "lon": -77.03052283333334, "is_reserved": 0, "fusion_lat": 0.0, "type": "electric_scooter"}, {"fusion_lon": 0.0, "name": "18ef939a2873992eb8e3963924edb90f", "rental_uris": {"android": "https://dc.lft.to/lastmile_qr_scan", "ios": "https://dc.lft.to/lastmile_qr_scan"}, "lat": 38.90249766666667, "bike_id": "18ef939a2873992eb8e3963924edb90f", "is_disabled": 0, "lon": -77.030299, "is_reserved": 0, "fusion_lat": 0.0, "type": "electric_scooter"}, {"fusion_lon": 0.0, "name": "34101b48618df918a730d7f754a12dc3", "rental_uris": {"android": "https://dc.lft.to/lastmile_qr_scan", "ios": "https://dc.lft.to/lastmile_qr_scan"}, "lat": 38.920600666666665, "bike_id": "34101b48618df918a730d7f754a12dc3", "is_disabled": 0, "lon": -77.0346495, "is_reserved": 0, "fusion_lat": 0.0, "type": "electric_scooter"}, {"fusion_lon": 0.0, "name": "74f8c51a5fd9f1bbccbf56091bfb730e", "rental_uris": {"android": "https://dc.lft.to/lastmile_qr_scan", "ios": "https://dc.lft.to/lastmile_qr_scan"}, "lat": 38.9230915, "bike_id": "74f8c51a5fd9f1bbccbf56091bfb730e", "is_disabled": 0, "lon": -77.02909766666667, "is_reserved": 0, "fusion_lat": 0.0, "type": "electric_scooter"}, {"fusion_lon": 0.0, "name": "c9318651bac65185dcb31dc1c8577a51", "rental_uris": {"android": "https://dc.lft.to/lastmile_qr_scan", "ios": "https://dc.lft.to/lastmile_qr_scan"}, "lat": 38.98732733333333, "bike_id": "c9318651bac65185dcb31dc1c8577a51", "is_disabled": 0, "lon": -77.0091745, "is_reserved": 0, "fusion_lat": 0.0, "type": "electric_bike"}, {"fusion_lon": 0.0, "name": "ac70af1134743eec8e8e1d39151f5680", "rental_uris": {"android": "https://dc.lft.to/lastmile_qr_scan", "ios": "https://dc.lft.to/lastmile_qr_scan"}, "lat": 38.905762833333334, "bike_id": "ac70af1134743eec8e8e1d39151f5680", "is_disabled": 0, "lon": -77.02182066666667, "is_reserved": 0, "fusion_lat": 0.0, "type": "electric_scooter"}, {"fusion_lon": 0.0, "name": "6cd23d5c28398557149723394afdd3b7", "rental_uris": {"android": "https://dc.lft.to/lastmile_qr_scan", "ios": "https://dc.lft.to/lastmile_qr_scan"}, "lat": 38.928964, "bike_id": "6cd23d5c28398557149723394afdd3b7", "is_disabled": 0, "lon": -77.03483866666667, "is_reserved": 0, "fusion_lat": 0.0, "type": "electric_scooter"}, {"fusion_lon": 0.0, "name": "4cea6e2205ab3e080ee8162362a19c9e", "rental_uris": {"android": "https://dc.lft.to/lastmile_qr_scan", "ios": "https://dc.lft.to/lastmile_qr_scan"}, "lat": 38.904413166666664, "bike_id": "4cea6e2205ab3e080ee8162362a19c9e", "is_disabled": 0, "lon": -77.053246, "is_reserved": 0, "fusion_lat": 0.0, "type": "electric_scooter"}, {"fusion_lon": 0.0, "name": "d5c83147a67d3c825fbae61cb1849c5e", "rental_uris": {"android": "https://dc.lft.to/lastmile_qr_scan", "ios": "https://dc.lft.to/lastmile_qr_scan"}, "lat": 38.917994166666666, "bike_id": "d5c83147a67d3c825fbae61cb1849c5e", "is_disabled": 0, "lon": -77.04028916666667, "is_reserved": 0, "fusion_lat": 0.0, "type": "electric_scooter"}, {"fusion_lon": 0.0, "name": "2e80e7856fed3c1f445c65dd4d985a27", "rental_uris": {"android": "https://dc.lft.to/lastmile_qr_scan", "ios": "https://dc.lft.to/lastmile_qr_scan"}, "lat": 38.91988533333333, "bike_id": "2e80e7856fed3c1f445c65dd4d985a27", "is_disabled": 0, "lon": -77.03270966666666, "is_reserved": 0, "fusion_lat": 0.0, "type": "electric_scooter"}, {"fusion_lon": 0.0, "name": "8a02aadbb016f0a8a3802831d4586a41", "rental_uris": {"android": "https://dc.lft.to/lastmile_qr_scan", "ios": "https://dc.lft.to/lastmile_qr_scan"}, "lat": 38.93351883333333, "bike_id": "8a02aadbb016f0a8a3802831d4586a41", "is_disabled": 0, "lon": -77.08575933333333, "is_reserved": 0, "fusion_lat": 0.0, "type": "electric_scooter"}, {"fusion_lon": 0.0, "name": "17ce6e69123423d61d9783c173d38fb6", "rental_uris": {"android": "https://dc.lft.to/lastmile_qr_scan", "ios": "https://dc.lft.to/lastmile_qr_scan"}, "lat": 38.899083166666664, "bike_id": "17ce6e69123423d61d9783c173d38fb6", "is_disabled": 0, "lon": -76.93389616666667, "is_reserved": 0, "fusion_lat": 0.0, "type": "electric_scooter"}, {"fusion_lon": 0.0, "name": "ab6e79bd625ed9bac465cf75452c108f", "rental_uris": {"android": "https://dc.lft.to/lastmile_qr_scan", "ios": "https://dc.lft.to/lastmile_qr_scan"}, "lat": 38.90399716666667, "bike_id": "ab6e79bd625ed9bac465cf75452c108f", "is_disabled": 0, "lon": -77.01754216666667, "is_reserved": 0, "fusion_lat": 0.0, "type": "electric_scooter"}, {"fusion_lon": 0.0, "name": "7b5947f8c10c9e6cd116ebe16e5ab610", "rental_uris": {"android": "https://dc.lft.to/lastmile_qr_scan", "ios": "https://dc.lft.to/lastmile_qr_scan"}, "lat": 38.911136666666664, "bike_id": "7b5947f8c10c9e6cd116ebe16e5ab610", "is_disabled": 0, "lon": -77.02200516666667, "is_reserved": 0, "fusion_lat": 0.0, "type": "electric_scooter"}, {"fusion_lon": 0.0, "name": "a9f8c58568367182db2f8d63c429fd2b", "rental_uris": {"android": "https://dc.lft.to/lastmile_qr_scan", "ios": "https://dc.lft.to/lastmile_qr_scan"}, "lat": 38.91343033333333, "bike_id": "a9f8c58568367182db2f8d63c429fd2b", "is_disabled": 0, "lon": -76.988979, "is_reserved": 0, "fusion_lat": 0.0, "type": "electric_scooter"}, {"fusion_lon": 0.0, "name": "c10a3f7d4ba91b8a7b64948c5b40afc2", "rental_uris": {"android": "https://dc.lft.to/lastmile_qr_scan", "ios": "https://dc.lft.to/lastmile_qr_scan"}, "lat": 38.907667833333335, "bike_id": "c10a3f7d4ba91b8a7b64948c5b40afc2", "is_disabled": 0, "lon": -77.01792, "is_reserved": 0, "fusion_lat": 0.0, "type": "electric_scooter"}, {"fusion_lon": 0.0, "name": "6c13bf973addde61feefe7a9bb5356b5", "rental_uris": {"android": "https://dc.lft.to/lastmile_qr_scan", "ios": "https://dc.lft.to/lastmile_qr_scan"}, "lat": 38.85218016666666, "bike_id": "6c13bf973addde61feefe7a9bb5356b5", "is_disabled": 0, "lon": -76.9943115, "is_reserved": 0, "fusion_lat": 0.0, "type": "electric_scooter"}, {"fusion_lon": 0.0, "name": "23e066fc70648749ab81c5272f6c6342", "rental_uris": {"android": "https://dc.lft.to/lastmile_qr_scan", "ios": "https://dc.lft.to/lastmile_qr_scan"}, "lat": 38.87551283333333, "bike_id": "23e066fc70648749ab81c5272f6c6342", "is_disabled": 0, "lon": -77.00584916666666, "is_reserved": 0, "fusion_lat": 0.0, "type": "electric_scooter"}, {"fusion_lon": 0.0, "name": "12e2264d74851c6e00f8df4677ccc90a", "rental_uris": {"android": "https://dc.lft.to/lastmile_qr_scan", "ios": "https://dc.lft.to/lastmile_qr_scan"}, "lat": 38.901568, "bike_id": "12e2264d74851c6e00f8df4677ccc90a", "is_disabled": 0, "lon": -76.92137733333334, "is_reserved": 0, "fusion_lat": 0.0, "type": "electric_scooter"}, {"fusion_lon": 0.0, "name": "d7b041fd4babeefdd7e447e67830cd67", "rental_uris": {"android": "https://dc.lft.to/lastmile_qr_scan", "ios": "https://dc.lft.to/lastmile_qr_scan"}, "lat": 38.936220166666665, "bike_id": "d7b041fd4babeefdd7e447e67830cd67", "is_disabled": 0, "lon": -77.03210816666666, "is_reserved": 0, "fusion_lat": 0.0, "type": "electric_scooter"}, {"fusion_lon": 0.0, "name": "148c942be473512580ffa2c0ac939807", "rental_uris": {"android": "https://dc.lft.to/lastmile_qr_scan", "ios": "https://dc.lft.to/lastmile_qr_scan"}, "lat": 38.9285435, "bike_id": "148c942be473512580ffa2c0ac939807", "is_disabled": 0, "lon": -77.054324, "is_reserved": 0, "fusion_lat": 0.0, "type": "electric_scooter"}, {"fusion_lon": 0.0, "name": "b7ad65ae276c1699230aaac4e71e4d58", "rental_uris": {"android": "https://dc.lft.to/lastmile_qr_scan", "ios": "https://dc.lft.to/lastmile_qr_scan"}, "lat": 38.905168333333336, "bike_id": "b7ad65ae276c1699230aaac4e71e4d58", "is_disabled": 0, "lon": -77.0616975, "is_reserved": 0, "fusion_lat": 0.0, "type": "electric_scooter"}, {"fusion_lon": 0.0, "name": "5769044e538db5840b9fdcd4346c8f1e", "rental_uris": {"android": "https://dc.lft.to/lastmile_qr_scan", "ios": "https://dc.lft.to/lastmile_qr_scan"}, "lat": 38.871762, "bike_id": "5769044e538db5840b9fdcd4346c8f1e", "is_disabled": 0, "lon": -77.00625933333333, "is_reserved": 0, "fusion_lat": 0.0, "type": "electric_scooter"}, {"fusion_lon": 0.0, "name": "6e2f810c0395d4b05b6a1d2236b46044", "rental_uris": {"android": "https://dc.lft.to/lastmile_qr_scan", "ios": "https://dc.lft.to/lastmile_qr_scan"}, "lat": 38.9096395, "bike_id": "6e2f810c0395d4b05b6a1d2236b46044", "is_disabled": 0, "lon": -77.02442783333333, "is_reserved": 0, "fusion_lat": 0.0, "type": "electric_scooter"}, {"fusion_lon": 0.0, "name": "70f4aa452e5350f718226d991179bf73", "rental_uris": {"android": "https://dc.lft.to/lastmile_qr_scan", "ios": "https://dc.lft.to/lastmile_qr_scan"}, "lat": 38.916065333333336, "bike_id": "70f4aa452e5350f718226d991179bf73", "is_disabled": 0, "lon": -77.02299866666667, "is_reserved": 0, "fusion_lat": 0.0, "type": "electric_scooter"}, {"fusion_lon": 0.0, "name": "f36530618006d05cde1f813b51344a27", "rental_uris": {"android": "https://dc.lft.to/lastmile_qr_scan", "ios": "https://dc.lft.to/lastmile_qr_scan"}, "lat": 38.97370033333333, "bike_id": "f36530618006d05cde1f813b51344a27", "is_disabled": 0, "lon": -77.018648, "is_reserved": 0, "fusion_lat": 0.0, "type": "electric_scooter"}, {"fusion_lon": 0.0, "name": "733df8eb19d207c2447b490e2262b876", "rental_uris": {"android": "https://dc.lft.to/lastmile_qr_scan", "ios": "https://dc.lft.to/lastmile_qr_scan"}, "lat": 38.90776433333333, "bike_id": "733df8eb19d207c2447b490e2262b876", "is_disabled": 0, "lon": -76.99858233333333, "is_reserved": 0, "fusion_lat": 0.0, "type": "electric_scooter"}, {"fusion_lon": 0.0, "name": "a0d3404d820c4f5bdbc17def4844bb96", "rental_uris": {"android": "https://dc.lft.to/lastmile_qr_scan", "ios": "https://dc.lft.to/lastmile_qr_scan"}, "lat": 38.94167233333334, "bike_id": "a0d3404d820c4f5bdbc17def4844bb96", "is_disabled": 0, "lon": -77.0256135, "is_reserved": 0, "fusion_lat": 0.0, "type": "electric_scooter"}, {"fusion_lon": 0.0, "name": "a3a03cd01662c0ffb1eb0578cdfa7779", "rental_uris": {"android": "https://dc.lft.to/lastmile_qr_scan", "ios": "https://dc.lft.to/lastmile_qr_scan"}, "lat": 38.905843, "bike_id": "a3a03cd01662c0ffb1eb0578cdfa7779", "is_disabled": 0, "lon": -77.04693166666667, "is_reserved": 0, "fusion_lat": 0.0, "type": "electric_scooter"}, {"fusion_lon": 0.0, "name": "e8ae9835268c856a488df281e5f48fbe", "rental_uris": {"android": "https://dc.lft.to/lastmile_qr_scan", "ios": "https://dc.lft.to/lastmile_qr_scan"}, "lat": 38.909597833333336, "bike_id": "e8ae9835268c856a488df281e5f48fbe", "is_disabled": 0, "lon": -77.044989, "is_reserved": 0, "fusion_lat": 0.0, "type": "electric_scooter"}, {"fusion_lon": 0.0, "name": "a484e08e0cf61d31f288cdba88076d65", "rental_uris": {"android": "https://dc.lft.to/lastmile_qr_scan", "ios": "https://dc.lft.to/lastmile_qr_scan"}, "lat": 38.917619, "bike_id": "a484e08e0cf61d31f288cdba88076d65", "is_disabled": 0, "lon": -77.0092155, "is_reserved": 0, "fusion_lat": 0.0, "type": "electric_scooter"}, {"fusion_lon": 0.0, "name": "4b7d3bf7b418ee86527043dd83d226c7", "rental_uris": {"android": "https://dc.lft.to/lastmile_qr_scan", "ios": "https://dc.lft.to/lastmile_qr_scan"}, "lat": 38.90365083333333, "bike_id": "4b7d3bf7b418ee86527043dd83d226c7", "is_disabled": 0, "lon": -76.99838266666667, "is_reserved": 0, "fusion_lat": 0.0, "type": "electric_scooter"}, {"fusion_lon": 0.0, "name": "c012939e22622a7cc1a0eb0eabc8b87a", "rental_uris": {"android": "https://dc.lft.to/lastmile_qr_scan", "ios": "https://dc.lft.to/lastmile_qr_scan"}, "lat": 38.90525066666667, "bike_id": "c012939e22622a7cc1a0eb0eabc8b87a", "is_disabled": 0, "lon": -77.06239666666667, "is_reserved": 0, "fusion_lat": 0.0, "type": "electric_scooter"}, {"fusion_lon": 0.0, "name": "333d72e1ca29c3816d60f13dfc5c9cef", "rental_uris": {"android": "https://dc.lft.to/lastmile_qr_scan", "ios": "https://dc.lft.to/lastmile_qr_scan"}, "lat": 38.9148245, "bike_id": "333d72e1ca29c3816d60f13dfc5c9cef", "is_disabled": 0, "lon": -77.0402115, "is_reserved": 0, "fusion_lat": 0.0, "type": "electric_scooter"}, {"fusion_lon": 0.0, "name": "816e8aadf75ec2555f83b03d4e148acb", "rental_uris": {"android": "https://dc.lft.to/lastmile_qr_scan", "ios": "https://dc.lft.to/lastmile_qr_scan"}, "lat": 38.91655316666667, "bike_id": "816e8aadf75ec2555f83b03d4e148acb", "is_disabled": 0, "lon": -77.00949333333334, "is_reserved": 0, "fusion_lat": 0.0, "type": "electric_scooter"}, {"fusion_lon": 0.0, "name": "163cb237b7383fefd676d843dc08cc98", "rental_uris": {"android": "https://dc.lft.to/lastmile_qr_scan", "ios": "https://dc.lft.to/lastmile_qr_scan"}, "lat": 38.8086595, "bike_id": "163cb237b7383fefd676d843dc08cc98", "is_disabled": 0, "lon": -77.112536, "is_reserved": 0, "fusion_lat": 0.0, "type": "electric_bike"}, {"fusion_lon": 0.0, "name": "5c33ae0eb651e46911800af5c0cbdde3", "rental_uris": {"android": "https://dc.lft.to/lastmile_qr_scan", "ios": "https://dc.lft.to/lastmile_qr_scan"}, "lat": 38.87199433333333, "bike_id": "5c33ae0eb651e46911800af5c0cbdde3", "is_disabled": 0, "lon": -77.00935716666666, "is_reserved": 0, "fusion_lat": 0.0, "type": "electric_scooter"}, {"fusion_lon": 0.0, "name": "f12d14c9c8bd5546d370a9d0a5bf2023", "rental_uris": {"android": "https://dc.lft.to/lastmile_qr_scan", "ios": "https://dc.lft.to/lastmile_qr_scan"}, "lat": 38.87170066666667, "bike_id": "f12d14c9c8bd5546d370a9d0a5bf2023", "is_disabled": 0, "lon": -77.23387216666667, "is_reserved": 0, "fusion_lat": 0.0, "type": "electric_bike"}, {"fusion_lon": 0.0, "name": "99eb3065de8f3075623105f2615d6bf8", "rental_uris": {"android": "https://dc.lft.to/lastmile_qr_scan", "ios": "https://dc.lft.to/lastmile_qr_scan"}, "lat": 38.87568066666667, "bike_id": "99eb3065de8f3075623105f2615d6bf8", "is_disabled": 0, "lon": -77.00578383333334, "is_reserved": 0, "fusion_lat": 0.0, "type": "electric_scooter"}, {"fusion_lon": 0.0, "name": "e84915635f259d714c79d382f7ec9a3d", "rental_uris": {"android": "https://dc.lft.to/lastmile_qr_scan", "ios": "https://dc.lft.to/lastmile_qr_scan"}, "lat": 38.92997833333333, "bike_id": "e84915635f259d714c79d382f7ec9a3d", "is_disabled": 0, "lon": -77.032295, "is_reserved": 0, "fusion_lat": 0.0, "type": "electric_scooter"}, {"fusion_lon": 0.0, "name": "337858563cac20d1191642775132ed22", "rental_uris": {"android": "https://dc.lft.to/lastmile_qr_scan", "ios": "https://dc.lft.to/lastmile_qr_scan"}, "lat": 38.920756833333336, "bike_id": "337858563cac20d1191642775132ed22", "is_disabled": 0, "lon": -77.0232205, "is_reserved": 0, "fusion_lat": 0.0, "type": "electric_scooter"}, {"fusion_lon": 0.0, "name": "6a831ba077b22489a6d4423e6f3ffe0e", "rental_uris": {"android": "https://dc.lft.to/lastmile_qr_scan", "ios": "https://dc.lft.to/lastmile_qr_scan"}, "lat": 38.905908833333335, "bike_id": "6a831ba077b22489a6d4423e6f3ffe0e", "is_disabled": 0, "lon": -77.00274116666667, "is_reserved": 0, "fusion_lat": 0.0, "type": "electric_scooter"}, {"fusion_lon": 0.0, "name": "5d549d4096a08debdd9b6c3dcff46f18", "rental_uris": {"android": "https://dc.lft.to/lastmile_qr_scan", "ios": "https://dc.lft.to/lastmile_qr_scan"}, "lat": 38.927971666666664, "bike_id": "5d549d4096a08debdd9b6c3dcff46f18", "is_disabled": 0, "lon": -77.03696533333333, "is_reserved": 0, "fusion_lat": 0.0, "type": "electric_scooter"}, {"fusion_lon": 0.0, "name": "2fb6f4c93da13bc62eadd3e31df5613a", "rental_uris": {"android": "https://dc.lft.to/lastmile_qr_scan", "ios": "https://dc.lft.to/lastmile_qr_scan"}, "lat": 38.9224425, "bike_id": "2fb6f4c93da13bc62eadd3e31df5613a", "is_disabled": 0, "lon": -77.030435, "is_reserved": 0, "fusion_lat": 0.0, "type": "electric_scooter"}, {"fusion_lon": 0.0, "name": "07526cea545b9f0f9117cb72b1543583", "rental_uris": {"android": "https://dc.lft.to/lastmile_qr_scan", "ios": "https://dc.lft.to/lastmile_qr_scan"}, "lat": 38.923216833333335, "bike_id": "07526cea545b9f0f9117cb72b1543583", "is_disabled": 0, "lon": -77.03675166666666, "is_reserved": 0, "fusion_lat": 0.0, "type": "electric_scooter"}, {"fusion_lon": 0.0, "name": "a630c4d766a49567240c13683868c804", "rental_uris": {"android": "https://dc.lft.to/lastmile_qr_scan", "ios": "https://dc.lft.to/lastmile_qr_scan"}, "lat": 38.9191035, "bike_id": "a630c4d766a49567240c13683868c804", "is_disabled": 0, "lon": -77.04631683333334, "is_reserved": 0, "fusion_lat": 0.0, "type": "electric_scooter"}, {"fusion_lon": 0.0, "name": "eaf0dff5799f35ee5efe8c21f22ba01d", "rental_uris": {"android": "https://dc.lft.to/lastmile_qr_scan", "ios": "https://dc.lft.to/lastmile_qr_scan"}, "lat": 38.85705266666667, "bike_id": "eaf0dff5799f35ee5efe8c21f22ba01d", "is_disabled": 0, "lon": -76.98126616666667, "is_reserved": 0, "fusion_lat": 0.0, "type": "electric_scooter"}, {"fusion_lon": 0.0, "name": "dd3b2ef96ec281ad8eac182242c58188", "rental_uris": {"android": "https://dc.lft.to/lastmile_qr_scan", "ios": "https://dc.lft.to/lastmile_qr_scan"}, "lat": 38.925957833333335, "bike_id": "dd3b2ef96ec281ad8eac182242c58188", "is_disabled": 0, "lon": -77.024909, "is_reserved": 0, "fusion_lat": 0.0, "type": "electric_scooter"}, {"fusion_lon": 0.0, "name": "39eaa1850c202cd7a54af8009271ee3c", "rental_uris": {"android": "https://dc.lft.to/lastmile_qr_scan", "ios": "https://dc.lft.to/lastmile_qr_scan"}, "lat": 38.92738966666667, "bike_id": "39eaa1850c202cd7a54af8009271ee3c", "is_disabled": 0, "lon": -77.02590633333334, "is_reserved": 0, "fusion_lat": 0.0, "type": "electric_scooter"}, {"fusion_lon": 0.0, "name": "fe03bf7872add3bc4f7fa957e3f8f0b6", "rental_uris": {"android": "https://dc.lft.to/lastmile_qr_scan", "ios": "https://dc.lft.to/lastmile_qr_scan"}, "lat": 38.8756435, "bike_id": "fe03bf7872add3bc4f7fa957e3f8f0b6", "is_disabled": 0, "lon": -77.00605533333334, "is_reserved": 0, "fusion_lat": 0.0, "type": "electric_scooter"}, {"fusion_lon": 0.0, "name": "e7e8cac036bb260f7118921bf3a4984f", "rental_uris": {"android": "https://dc.lft.to/lastmile_qr_scan", "ios": "https://dc.lft.to/lastmile_qr_scan"}, "lat": 38.86508833333333, "bike_id": "e7e8cac036bb260f7118921bf3a4984f", "is_disabled": 0, "lon": -76.968999, "is_reserved": 0, "fusion_lat": 0.0, "type": "electric_scooter"}, {"fusion_lon": 0.0, "name": "ba671e3abb489a8bb333c549410641f7", "rental_uris": {"android": "https://dc.lft.to/lastmile_qr_scan", "ios": "https://dc.lft.to/lastmile_qr_scan"}, "lat": 38.897125833333334, "bike_id": "ba671e3abb489a8bb333c549410641f7", "is_disabled": 0, "lon": -77.02152483333333, "is_reserved": 0, "fusion_lat": 0.0, "type": "electric_scooter"}, {"fusion_lon": 0.0, "name": "4bc81b513ac657577951ca4477ad0e14", "rental_uris": {"android": "https://dc.lft.to/lastmile_qr_scan", "ios": "https://dc.lft.to/lastmile_qr_scan"}, "lat": 38.8647275, "bike_id": "4bc81b513ac657577951ca4477ad0e14", "is_disabled": 0, "lon": -76.98228316666666, "is_reserved": 0, "fusion_lat": 0.0, "type": "electric_scooter"}, {"fusion_lon": 0.0, "name": "1ec31e2e19be8bd3327e6e46132253f0", "rental_uris": {"android": "https://dc.lft.to/lastmile_qr_scan", "ios": "https://dc.lft.to/lastmile_qr_scan"}, "lat": 38.918816, "bike_id": "1ec31e2e19be8bd3327e6e46132253f0", "is_disabled": 0, "lon": -77.01897433333333, "is_reserved": 0, "fusion_lat": 0.0, "type": "electric_scooter"}, {"fusion_lon": 0.0, "name": "24533479b35eaa1f68daaf356d0a681f", "rental_uris": {"android": "https://dc.lft.to/lastmile_qr_scan", "ios": "https://dc.lft.to/lastmile_qr_scan"}, "lat": 38.9121225, "bike_id": "24533479b35eaa1f68daaf356d0a681f", "is_disabled": 0, "lon": -77.04661216666666, "is_reserved": 0, "fusion_lat": 0.0, "type": "electric_scooter"}, {"fusion_lon": 0.0, "name": "68303e57ab1965d64ac32e90a8612ab4", "rental_uris": {"android": "https://dc.lft.to/lastmile_qr_scan", "ios": "https://dc.lft.to/lastmile_qr_scan"}, "lat": 38.91330133333334, "bike_id": "68303e57ab1965d64ac32e90a8612ab4", "is_disabled": 0, "lon": -77.0448155, "is_reserved": 0, "fusion_lat": 0.0, "type": "electric_scooter"}, {"fusion_lon": 0.0, "name": "b0bf913c827ebe8df2833c497e8d7d73", "rental_uris": {"android": "https://dc.lft.to/lastmile_qr_scan", "ios": "https://dc.lft.to/lastmile_qr_scan"}, "lat": 38.903518166666665, "bike_id": "b0bf913c827ebe8df2833c497e8d7d73", "is_disabled": 0, "lon": -77.02520416666667, "is_reserved": 0, "fusion_lat": 0.0, "type": "electric_scooter"}, {"fusion_lon": 0.0, "name": "aa8ab60a9246bc84c1a6685e9e1e2642", "rental_uris": {"android": "https://dc.lft.to/lastmile_qr_scan", "ios": "https://dc.lft.to/lastmile_qr_scan"}, "lat": 38.90565, "bike_id": "aa8ab60a9246bc84c1a6685e9e1e2642", "is_disabled": 0, "lon": -77.006097, "is_reserved": 0, "fusion_lat": 0.0, "type": "electric_scooter"}, {"fusion_lon": 0.0, "name": "8b68fd98a7a3930375e85feb5172c584", "rental_uris": {"android": "https://dc.lft.to/lastmile_qr_scan", "ios": "https://dc.lft.to/lastmile_qr_scan"}, "lat": 38.896037166666666, "bike_id": "8b68fd98a7a3930375e85feb5172c584", "is_disabled": 0, "lon": -77.00930233333334, "is_reserved": 0, "fusion_lat": 0.0, "type": "electric_scooter"}, {"fusion_lon": 0.0, "name": "1bd5b513215a8651b7831bd8007e7f38", "rental_uris": {"android": "https://dc.lft.to/lastmile_qr_scan", "ios": "https://dc.lft.to/lastmile_qr_scan"}, "lat": 38.901884, "bike_id": "1bd5b513215a8651b7831bd8007e7f38", "is_disabled": 0, "lon": -76.930031, "is_reserved": 0, "fusion_lat": 0.0, "type": "electric_scooter"}, {"fusion_lon": 0.0, "name": "b0ef462ea3f7bd16aa7304e9f147334c", "rental_uris": {"android": "https://dc.lft.to/lastmile_qr_scan", "ios": "https://dc.lft.to/lastmile_qr_scan"}, "lat": 38.9025025, "bike_id": "b0ef462ea3f7bd16aa7304e9f147334c", "is_disabled": 0, "lon": -77.0317095, "is_reserved": 0, "fusion_lat": 0.0, "type": "electric_scooter"}, {"fusion_lon": 0.0, "name": "61e2293ae1fc06707c246651c837266b", "rental_uris": {"android": "https://dc.lft.to/lastmile_qr_scan", "ios": "https://dc.lft.to/lastmile_qr_scan"}, "lat": 38.92397833333333, "bike_id": "61e2293ae1fc06707c246651c837266b", "is_disabled": 0, "lon": -77.02374866666666, "is_reserved": 0, "fusion_lat": 0.0, "type": "electric_scooter"}, {"fusion_lon": 0.0, "name": "0d50e42c87c36969f4394c94247df28e", "rental_uris": {"android": "https://dc.lft.to/lastmile_qr_scan", "ios": "https://dc.lft.to/lastmile_qr_scan"}, "lat": 38.921615, "bike_id": "0d50e42c87c36969f4394c94247df28e", "is_disabled": 0, "lon": -77.03368816666666, "is_reserved": 0, "fusion_lat": 0.0, "type": "electric_scooter"}, {"fusion_lon": 0.0, "name": "266fbdaf2fe16e4314c3226a5ef32def", "rental_uris": {"android": "https://dc.lft.to/lastmile_qr_scan", "ios": "https://dc.lft.to/lastmile_qr_scan"}, "lat": 38.919194, "bike_id": "266fbdaf2fe16e4314c3226a5ef32def", "is_disabled": 0, "lon": -77.03424816666667, "is_reserved": 0, "fusion_lat": 0.0, "type": "electric_scooter"}, {"fusion_lon": 0.0, "name": "d7e392198a8f4ce79eb61c2d5c285f19", "rental_uris": {"android": "https://dc.lft.to/lastmile_qr_scan", "ios": "https://dc.lft.to/lastmile_qr_scan"}, "lat": 38.936044333333335, "bike_id": "d7e392198a8f4ce79eb61c2d5c285f19", "is_disabled": 0, "lon": -77.03656183333334, "is_reserved": 0, "fusion_lat": 0.0, "type": "electric_scooter"}, {"fusion_lon": 0.0, "name": "f6b7fb1f4c5bad5a777069eba05559ea", "rental_uris": {"android": "https://dc.lft.to/lastmile_qr_scan", "ios": "https://dc.lft.to/lastmile_qr_scan"}, "lat": 38.933846833333334, "bike_id": "f6b7fb1f4c5bad5a777069eba05559ea", "is_disabled": 0, "lon": -77.03255666666666, "is_reserved": 0, "fusion_lat": 0.0, "type": "electric_scooter"}, {"fusion_lon": 0.0, "name": "b6eea062a65f4bbf4443c5c018a8c9b5", "rental_uris": {"android": "https://dc.lft.to/lastmile_qr_scan", "ios": "https://dc.lft.to/lastmile_qr_scan"}, "lat": 38.9183705, "bike_id": "b6eea062a65f4bbf4443c5c018a8c9b5", "is_disabled": 0, "lon": -77.03858866666667, "is_reserved": 0, "fusion_lat": 0.0, "type": "electric_scooter"}, {"fusion_lon": 0.0, "name": "ad2700ad908c8be4b383f7fb16d502c0", "rental_uris": {"android": "https://dc.lft.to/lastmile_qr_scan", "ios": "https://dc.lft.to/lastmile_qr_scan"}, "lat": 38.888177666666664, "bike_id": "ad2700ad908c8be4b383f7fb16d502c0", "is_disabled": 0, "lon": -76.93966633333334, "is_reserved": 0, "fusion_lat": 0.0, "type": "electric_scooter"}, {"fusion_lon": 0.0, "name": "b805b9144d2e563b667a7703c7de2d67", "rental_uris": {"android": "https://dc.lft.to/lastmile_qr_scan", "ios": "https://dc.lft.to/lastmile_qr_scan"}, "lat": 38.91880583333333, "bike_id": "b805b9144d2e563b667a7703c7de2d67", "is_disabled": 0, "lon": -77.03505, "is_reserved": 0, "fusion_lat": 0.0, "type": "electric_scooter"}, {"fusion_lon": 0.0, "name": "5835386d5d1b37e909974625bbbd2db0", "rental_uris": {"android": "https://dc.lft.to/lastmile_qr_scan", "ios": "https://dc.lft.to/lastmile_qr_scan"}, "lat": 38.996716166666666, "bike_id": "5835386d5d1b37e909974625bbbd2db0", "is_disabled": 0, "lon": -77.03780983333333, "is_reserved": 0, "fusion_lat": 0.0, "type": "electric_bike"}, {"fusion_lon": 0.0, "name": "b9a91f90b0087e69e0b6b3bc491175a8", "rental_uris": {"android": "https://dc.lft.to/lastmile_qr_scan", "ios": "https://dc.lft.to/lastmile_qr_scan"}, "lat": 38.924377, "bike_id": "b9a91f90b0087e69e0b6b3bc491175a8", "is_disabled": 0, "lon": -77.021619, "is_reserved": 0, "fusion_lat": 0.0, "type": "electric_scooter"}, {"fusion_lon": 0.0, "name": "e0f75fe74e3c16cbd52d42220e5eea5a", "rental_uris": {"android": "https://dc.lft.to/lastmile_qr_scan", "ios": "https://dc.lft.to/lastmile_qr_scan"}, "lat": 38.921062166666665, "bike_id": "e0f75fe74e3c16cbd52d42220e5eea5a", "is_disabled": 0, "lon": -77.04689633333334, "is_reserved": 0, "fusion_lat": 0.0, "type": "electric_scooter"}, {"fusion_lon": 0.0, "name": "10baf0dd1bd19383c652f30bedcabaf7", "rental_uris": {"android": "https://dc.lft.to/lastmile_qr_scan", "ios": "https://dc.lft.to/lastmile_qr_scan"}, "lat": 38.903598, "bike_id": "10baf0dd1bd19383c652f30bedcabaf7", "is_disabled": 0, "lon": -77.03215233333333, "is_reserved": 0, "fusion_lat": 0.0, "type": "electric_scooter"}, {"fusion_lon": 0.0, "name": "f3651f2b5dbcd9a3440b7ad69e0a31b5", "rental_uris": {"android": "https://dc.lft.to/lastmile_qr_scan", "ios": "https://dc.lft.to/lastmile_qr_scan"}, "lat": 38.96917083333334, "bike_id": "f3651f2b5dbcd9a3440b7ad69e0a31b5", "is_disabled": 0, "lon": -76.9949435, "is_reserved": 0, "fusion_lat": 0.0, "type": "electric_bike"}, {"fusion_lon": 0.0, "name": "4fde460f429f84f3ee82d82ecff51bd4", "rental_uris": {"android": "https://dc.lft.to/lastmile_qr_scan", "ios": "https://dc.lft.to/lastmile_qr_scan"}, "lat": 38.920800666666665, "bike_id": "4fde460f429f84f3ee82d82ecff51bd4", "is_disabled": 0, "lon": -77.02384933333333, "is_reserved": 0, "fusion_lat": 0.0, "type": "electric_scooter"}, {"fusion_lon": 0.0, "name": "86b119bb4e0e28cb1ec64646599e3c36", "rental_uris": {"android": "https://dc.lft.to/lastmile_qr_scan", "ios": "https://dc.lft.to/lastmile_qr_scan"}, "lat": 38.924709, "bike_id": "86b119bb4e0e28cb1ec64646599e3c36", "is_disabled": 0, "lon": -77.02206716666667, "is_reserved": 0, "fusion_lat": 0.0, "type": "electric_scooter"}, {"fusion_lon": 0.0, "name": "04ec73364019ec22b28d9244ff6270a9", "rental_uris": {"android": "https://dc.lft.to/lastmile_qr_scan", "ios": "https://dc.lft.to/lastmile_qr_scan"}, "lat": 38.91363666666667, "bike_id": "04ec73364019ec22b28d9244ff6270a9", "is_disabled": 0, "lon": -77.01998633333334, "is_reserved": 0, "fusion_lat": 0.0, "type": "electric_scooter"}, {"fusion_lon": 0.0, "name": "06d6c860fcf6f021fceeeab46c80c921", "rental_uris": {"android": "https://dc.lft.to/lastmile_qr_scan", "ios": "https://dc.lft.to/lastmile_qr_scan"}, "lat": 38.87844966666667, "bike_id": "06d6c860fcf6f021fceeeab46c80c921", "is_disabled": 0, "lon": -77.00488033333333, "is_reserved": 0, "fusion_lat": 0.0, "type": "electric_scooter"}, {"fusion_lon": 0.0, "name": "4f4320ea4242e8cc6ad428ea10d1f40a", "rental_uris": {"android": "https://dc.lft.to/lastmile_qr_scan", "ios": "https://dc.lft.to/lastmile_qr_scan"}, "lat": 38.9199485, "bike_id": "4f4320ea4242e8cc6ad428ea10d1f40a", "is_disabled": 0, "lon": -77.03264716666666, "is_reserved": 0, "fusion_lat": 0.0, "type": "electric_scooter"}, {"fusion_lon": 0.0, "name": "e79a6fe8600ddc96c8d871aa919b8f7b", "rental_uris": {"android": "https://dc.lft.to/lastmile_qr_scan", "ios": "https://dc.lft.to/lastmile_qr_scan"}, "lat": 38.91820933333333, "bike_id": "e79a6fe8600ddc96c8d871aa919b8f7b", "is_disabled": 0, "lon": -77.041827, "is_reserved": 0, "fusion_lat": 0.0, "type": "electric_scooter"}, {"fusion_lon": 0.0, "name": "2475726a0e690f3d5a56273deb8bddc2", "rental_uris": {"android": "https://dc.lft.to/lastmile_qr_scan", "ios": "https://dc.lft.to/lastmile_qr_scan"}, "lat": 38.92619033333333, "bike_id": "2475726a0e690f3d5a56273deb8bddc2", "is_disabled": 0, "lon": -77.02223616666667, "is_reserved": 0, "fusion_lat": 0.0, "type": "electric_scooter"}, {"fusion_lon": 0.0, "name": "bce730835794708ab1a1760827cea94e", "rental_uris": {"android": "https://dc.lft.to/lastmile_qr_scan", "ios": "https://dc.lft.to/lastmile_qr_scan"}, "lat": 38.85814533333333, "bike_id": "bce730835794708ab1a1760827cea94e", "is_disabled": 0, "lon": -76.98996816666667, "is_reserved": 0, "fusion_lat": 0.0, "type": "electric_scooter"}, {"fusion_lon": 0.0, "name": "2c2e6d57e5329d18b65c4f74c5989e7f", "rental_uris": {"android": "https://dc.lft.to/lastmile_qr_scan", "ios": "https://dc.lft.to/lastmile_qr_scan"}, "lat": 38.9171925, "bike_id": "2c2e6d57e5329d18b65c4f74c5989e7f", "is_disabled": 0, "lon": -77.03136883333333, "is_reserved": 0, "fusion_lat": 0.0, "type": "electric_scooter"}, {"fusion_lon": 0.0, "name": "7972f26db20be9096f12e345d14c31d4", "rental_uris": {"android": "https://dc.lft.to/lastmile_qr_scan", "ios": "https://dc.lft.to/lastmile_qr_scan"}, "lat": 38.905061333333336, "bike_id": "7972f26db20be9096f12e345d14c31d4", "is_disabled": 0, "lon": -77.02965716666667, "is_reserved": 0, "fusion_lat": 0.0, "type": "electric_scooter"}, {"fusion_lon": 0.0, "name": "9bc83ed5e515edfd8dd444baf83c27bd", "rental_uris": {"android": "https://dc.lft.to/lastmile_qr_scan", "ios": "https://dc.lft.to/lastmile_qr_scan"}, "lat": 38.909811833333336, "bike_id": "9bc83ed5e515edfd8dd444baf83c27bd", "is_disabled": 0, "lon": -77.034242, "is_reserved": 0, "fusion_lat": 0.0, "type": "electric_scooter"}, {"fusion_lon": 0.0, "name": "cb9e7c70ca6c8791e96a8e145f3b0107", "rental_uris": {"android": "https://dc.lft.to/lastmile_qr_scan", "ios": "https://dc.lft.to/lastmile_qr_scan"}, "lat": 38.905615833333336, "bike_id": "cb9e7c70ca6c8791e96a8e145f3b0107", "is_disabled": 0, "lon": -77.00590866666667, "is_reserved": 0, "fusion_lat": 0.0, "type": "electric_scooter"}, {"fusion_lon": 0.0, "name": "d727b9e7a6e314da66625e0e5c6396a6", "rental_uris": {"android": "https://dc.lft.to/lastmile_qr_scan", "ios": "https://dc.lft.to/lastmile_qr_scan"}, "lat": 38.9128325, "bike_id": "d727b9e7a6e314da66625e0e5c6396a6", "is_disabled": 0, "lon": -77.02301733333333, "is_reserved": 0, "fusion_lat": 0.0, "type": "electric_scooter"}, {"fusion_lon": 0.0, "name": "f564ed174f35bbba64b6dbe3e78720aa", "rental_uris": {"android": "https://dc.lft.to/lastmile_qr_scan", "ios": "https://dc.lft.to/lastmile_qr_scan"}, "lat": 38.92436683333333, "bike_id": "f564ed174f35bbba64b6dbe3e78720aa", "is_disabled": 0, "lon": -77.019381, "is_reserved": 0, "fusion_lat": 0.0, "type": "electric_scooter"}, {"fusion_lon": 0.0, "name": "822d51601c7994b1c4cd8f7d9351554d", "rental_uris": {"android": "https://dc.lft.to/lastmile_qr_scan", "ios": "https://dc.lft.to/lastmile_qr_scan"}, "lat": 38.916289, "bike_id": "822d51601c7994b1c4cd8f7d9351554d", "is_disabled": 0, "lon": -77.04588466666667, "is_reserved": 0, "fusion_lat": 0.0, "type": "electric_scooter"}, {"fusion_lon": 0.0, "name": "91fc927aad90fdea5298caf396fe378e", "rental_uris": {"android": "https://dc.lft.to/lastmile_qr_scan", "ios": "https://dc.lft.to/lastmile_qr_scan"}, "lat": 38.881206, "bike_id": "91fc927aad90fdea5298caf396fe378e", "is_disabled": 0, "lon": -76.9928675, "is_reserved": 0, "fusion_lat": 0.0, "type": "electric_scooter"}, {"fusion_lon": 0.0, "name": "d5717d82ebb16b7c3ee3671c8f6233af", "rental_uris": {"android": "https://dc.lft.to/lastmile_qr_scan", "ios": "https://dc.lft.to/lastmile_qr_scan"}, "lat": 38.92569866666667, "bike_id": "d5717d82ebb16b7c3ee3671c8f6233af", "is_disabled": 0, "lon": -76.99958933333333, "is_reserved": 0, "fusion_lat": 0.0, "type": "electric_scooter"}, {"fusion_lon": 0.0, "name": "8731614fc3e54ecd611227d092607d85", "rental_uris": {"android": "https://dc.lft.to/lastmile_qr_scan", "ios": "https://dc.lft.to/lastmile_qr_scan"}, "lat": 38.92625733333333, "bike_id": "8731614fc3e54ecd611227d092607d85", "is_disabled": 0, "lon": -77.04255333333333, "is_reserved": 0, "fusion_lat": 0.0, "type": "electric_scooter"}, {"fusion_lon": 0.0, "name": "b071419305aff0a2cc2275118f2229db", "rental_uris": {"android": "https://dc.lft.to/lastmile_qr_scan", "ios": "https://dc.lft.to/lastmile_qr_scan"}, "lat": 38.91798416666666, "bike_id": "b071419305aff0a2cc2275118f2229db", "is_disabled": 0, "lon": -77.03444, "is_reserved": 0, "fusion_lat": 0.0, "type": "electric_scooter"}, {"fusion_lon": 0.0, "name": "2922326a2399bb296fa1fd80efb0c899", "rental_uris": {"android": "https://dc.lft.to/lastmile_qr_scan", "ios": "https://dc.lft.to/lastmile_qr_scan"}, "lat": 38.91817483333333, "bike_id": "2922326a2399bb296fa1fd80efb0c899", "is_disabled": 0, "lon": -77.0367105, "is_reserved": 0, "fusion_lat": 0.0, "type": "electric_scooter"}, {"fusion_lon": 0.0, "name": "44196568db5621ce07bf8949b68f5d0f", "rental_uris": {"android": "https://dc.lft.to/lastmile_qr_scan", "ios": "https://dc.lft.to/lastmile_qr_scan"}, "lat": 38.91417383333334, "bike_id": "44196568db5621ce07bf8949b68f5d0f", "is_disabled": 0, "lon": -77.01801433333333, "is_reserved": 0, "fusion_lat": 0.0, "type": "electric_scooter"}, {"fusion_lon": 0.0, "name": "877e0cebb3e743e48d1a8d9104828505", "rental_uris": {"android": "https://dc.lft.to/lastmile_qr_scan", "ios": "https://dc.lft.to/lastmile_qr_scan"}, "lat": 38.921192, "bike_id": "877e0cebb3e743e48d1a8d9104828505", "is_disabled": 0, "lon": -77.04387766666666, "is_reserved": 0, "fusion_lat": 0.0, "type": "electric_scooter"}, {"fusion_lon": 0.0, "name": "f7fa29f3f374e927f31692e5231e79fb", "rental_uris": {"android": "https://dc.lft.to/lastmile_qr_scan", "ios": "https://dc.lft.to/lastmile_qr_scan"}, "lat": 38.91675883333333, "bike_id": "f7fa29f3f374e927f31692e5231e79fb", "is_disabled": 0, "lon": -77.02808966666667, "is_reserved": 0, "fusion_lat": 0.0, "type": "electric_scooter"}, {"fusion_lon": 0.0, "name": "8e59464eb079c5f48e11c413e0430689", "rental_uris": {"android": "https://dc.lft.to/lastmile_qr_scan", "ios": "https://dc.lft.to/lastmile_qr_scan"}, "lat": 38.9016625, "bike_id": "8e59464eb079c5f48e11c413e0430689", "is_disabled": 0, "lon": -76.9498365, "is_reserved": 0, "fusion_lat": 0.0, "type": "electric_scooter"}, {"fusion_lon": 0.0, "name": "7757b20d4acaad5b11908f9099e36cfb", "rental_uris": {"android": "https://dc.lft.to/lastmile_qr_scan", "ios": "https://dc.lft.to/lastmile_qr_scan"}, "lat": 38.920140833333335, "bike_id": "7757b20d4acaad5b11908f9099e36cfb", "is_disabled": 0, "lon": -77.021816, "is_reserved": 0, "fusion_lat": 0.0, "type": "electric_scooter"}, {"fusion_lon": 0.0, "name": "eb2b99145e5e8c7bad3909d26b79e232", "rental_uris": {"android": "https://dc.lft.to/lastmile_qr_scan", "ios": "https://dc.lft.to/lastmile_qr_scan"}, "lat": 38.88122716666667, "bike_id": "eb2b99145e5e8c7bad3909d26b79e232", "is_disabled": 0, "lon": -77.016624, "is_reserved": 0, "fusion_lat": 0.0, "type": "electric_bike"}, {"fusion_lon": 0.0, "name": "3c44e7221f7fa4615769e27404086339", "rental_uris": {"android": "https://dc.lft.to/lastmile_qr_scan", "ios": "https://dc.lft.to/lastmile_qr_scan"}, "lat": 38.928293333333336, "bike_id": "3c44e7221f7fa4615769e27404086339", "is_disabled": 0, "lon": -77.02332083333333, "is_reserved": 0, "fusion_lat": 0.0, "type": "electric_scooter"}, {"fusion_lon": 0.0, "name": "63d2fbf3df27d62fb3cc934aad578862", "rental_uris": {"android": "https://dc.lft.to/lastmile_qr_scan", "ios": "https://dc.lft.to/lastmile_qr_scan"}, "lat": 38.884709, "bike_id": "63d2fbf3df27d62fb3cc934aad578862", "is_disabled": 0, "lon": -76.926093, "is_reserved": 0, "fusion_lat": 0.0, "type": "electric_scooter"}, {"fusion_lon": 0.0, "name": "e4857d82c840cd485883659f495d5dfd", "rental_uris": {"android": "https://dc.lft.to/lastmile_qr_scan", "ios": "https://dc.lft.to/lastmile_qr_scan"}, "lat": 38.892238666666664, "bike_id": "e4857d82c840cd485883659f495d5dfd", "is_disabled": 0, "lon": -77.02162433333334, "is_reserved": 0, "fusion_lat": 0.0, "type": "electric_scooter"}, {"fusion_lon": 0.0, "name": "b8a179312c74b2c6373d17b3063fef70", "rental_uris": {"android": "https://dc.lft.to/lastmile_qr_scan", "ios": "https://dc.lft.to/lastmile_qr_scan"}, "lat": 38.90215933333333, "bike_id": "b8a179312c74b2c6373d17b3063fef70", "is_disabled": 0, "lon": -77.046083, "is_reserved": 0, "fusion_lat": 0.0, "type": "electric_scooter"}, {"fusion_lon": 0.0, "name": "5ccbad86719f3147acd58187797e79cd", "rental_uris": {"android": "https://dc.lft.to/lastmile_qr_scan", "ios": "https://dc.lft.to/lastmile_qr_scan"}, "lat": 38.931956166666666, "bike_id": "5ccbad86719f3147acd58187797e79cd", "is_disabled": 0, "lon": -77.0282145, "is_reserved": 0, "fusion_lat": 0.0, "type": "electric_scooter"}, {"fusion_lon": 0.0, "name": "1ddec93aaaecba414351680843573d83", "rental_uris": {"android": "https://dc.lft.to/lastmile_qr_scan", "ios": "https://dc.lft.to/lastmile_qr_scan"}, "lat": 38.92398216666667, "bike_id": "1ddec93aaaecba414351680843573d83", "is_disabled": 0, "lon": -76.99370066666667, "is_reserved": 0, "fusion_lat": 0.0, "type": "electric_scooter"}, {"fusion_lon": 0.0, "name": "1ff9a15a4e47aab1154fa73758038d32", "rental_uris": {"android": "https://dc.lft.to/lastmile_qr_scan", "ios": "https://dc.lft.to/lastmile_qr_scan"}, "lat": 38.92211433333333, "bike_id": "1ff9a15a4e47aab1154fa73758038d32", "is_disabled": 0, "lon": -77.02663233333334, "is_reserved": 0, "fusion_lat": 0.0, "type": "electric_scooter"}, {"fusion_lon": 0.0, "name": "a3e0b3a47e468bd77fcc769895592c1b", "rental_uris": {"android": "https://dc.lft.to/lastmile_qr_scan", "ios": "https://dc.lft.to/lastmile_qr_scan"}, "lat": 38.90649616666666, "bike_id": "a3e0b3a47e468bd77fcc769895592c1b", "is_disabled": 0, "lon": -77.0591835, "is_reserved": 0, "fusion_lat": 0.0, "type": "electric_scooter"}, {"fusion_lon": 0.0, "name": "a6000a9027a5775a39333cbfae1916e3", "rental_uris": {"android": "https://dc.lft.to/lastmile_qr_scan", "ios": "https://dc.lft.to/lastmile_qr_scan"}, "lat": 38.9186525, "bike_id": "a6000a9027a5775a39333cbfae1916e3", "is_disabled": 0, "lon": -77.048336, "is_reserved": 0, "fusion_lat": 0.0, "type": "electric_scooter"}, {"fusion_lon": 0.0, "name": "c3c48e1bf19053d219b8afbf7fd3190a", "rental_uris": {"android": "https://dc.lft.to/lastmile_qr_scan", "ios": "https://dc.lft.to/lastmile_qr_scan"}, "lat": 38.888687, "bike_id": "c3c48e1bf19053d219b8afbf7fd3190a", "is_disabled": 0, "lon": -77.04000633333334, "is_reserved": 0, "fusion_lat": 0.0, "type": "electric_scooter"}, {"fusion_lon": 0.0, "name": "f16fd7a6081f726ab6b4e848af17a5ae", "rental_uris": {"android": "https://dc.lft.to/lastmile_qr_scan", "ios": "https://dc.lft.to/lastmile_qr_scan"}, "lat": 38.9041415, "bike_id": "f16fd7a6081f726ab6b4e848af17a5ae", "is_disabled": 0, "lon": -77.053343, "is_reserved": 0, "fusion_lat": 0.0, "type": "electric_scooter"}, {"fusion_lon": 0.0, "name": "40e742511c00ae1ebfbea33d4400ce26", "rental_uris": {"android": "https://dc.lft.to/lastmile_qr_scan", "ios": "https://dc.lft.to/lastmile_qr_scan"}, "lat": 38.91175583333333, "bike_id": "40e742511c00ae1ebfbea33d4400ce26", "is_disabled": 0, "lon": -77.038624, "is_reserved": 0, "fusion_lat": 0.0, "type": "electric_scooter"}, {"fusion_lon": 0.0, "name": "d8eb027fb0e3171b6663ff8ce0f95f1c", "rental_uris": {"android": "https://dc.lft.to/lastmile_qr_scan", "ios": "https://dc.lft.to/lastmile_qr_scan"}, "lat": 38.92363916666667, "bike_id": "d8eb027fb0e3171b6663ff8ce0f95f1c", "is_disabled": 0, "lon": -77.05027, "is_reserved": 0, "fusion_lat": 0.0, "type": "electric_scooter"}, {"fusion_lon": 0.0, "name": "d0edac83333f47c5bec116c2a4cbf67a", "rental_uris": {"android": "https://dc.lft.to/lastmile_qr_scan", "ios": "https://dc.lft.to/lastmile_qr_scan"}, "lat": 38.90333733333333, "bike_id": "d0edac83333f47c5bec116c2a4cbf67a", "is_disabled": 0, "lon": -76.93369983333334, "is_reserved": 0, "fusion_lat": 0.0, "type": "electric_bike"}, {"fusion_lon": 0.0, "name": "7db9583f85fce8fa52388781298550c8", "rental_uris": {"android": "https://dc.lft.to/lastmile_qr_scan", "ios": "https://dc.lft.to/lastmile_qr_scan"}, "lat": 38.931251833333334, "bike_id": "7db9583f85fce8fa52388781298550c8", "is_disabled": 0, "lon": -77.02073833333333, "is_reserved": 0, "fusion_lat": 0.0, "type": "electric_scooter"}, {"fusion_lon": 0.0, "name": "bd610e4d5c0b49f3e6aac935ff646ee7", "rental_uris": {"android": "https://dc.lft.to/lastmile_qr_scan", "ios": "https://dc.lft.to/lastmile_qr_scan"}, "lat": 38.793362, "bike_id": "bd610e4d5c0b49f3e6aac935ff646ee7", "is_disabled": 0, "lon": -77.000562, "is_reserved": 0, "fusion_lat": 0.0, "type": "electric_bike"}, {"fusion_lon": 0.0, "name": "7f159ee0fdf41e724f52445dd005a06a", "rental_uris": {"android": "https://dc.lft.to/lastmile_qr_scan", "ios": "https://dc.lft.to/lastmile_qr_scan"}, "lat": 38.928135833333336, "bike_id": "7f159ee0fdf41e724f52445dd005a06a", "is_disabled": 0, "lon": -77.01951616666666, "is_reserved": 0, "fusion_lat": 0.0, "type": "electric_scooter"}, {"fusion_lon": 0.0, "name": "d8b7dd06a43bb4c3ed6313436f360386", "rental_uris": {"android": "https://dc.lft.to/lastmile_qr_scan", "ios": "https://dc.lft.to/lastmile_qr_scan"}, "lat": 38.89887233333334, "bike_id": "d8b7dd06a43bb4c3ed6313436f360386", "is_disabled": 0, "lon": -76.93174116666667, "is_reserved": 0, "fusion_lat": 0.0, "type": "electric_scooter"}, {"fusion_lon": 0.0, "name": "1baddf5d7fcb3ab50bc7cafdc06a0694", "rental_uris": {"android": "https://dc.lft.to/lastmile_qr_scan", "ios": "https://dc.lft.to/lastmile_qr_scan"}, "lat": 38.878425166666666, "bike_id": "1baddf5d7fcb3ab50bc7cafdc06a0694", "is_disabled": 0, "lon": -77.01969883333334, "is_reserved": 0, "fusion_lat": 0.0, "type": "electric_scooter"}, {"fusion_lon": 0.0, "name": "5ef03343b0334723c929dd08d3ad93b0", "rental_uris": {"android": "https://dc.lft.to/lastmile_qr_scan", "ios": "https://dc.lft.to/lastmile_qr_scan"}, "lat": 38.92751966666667, "bike_id": "5ef03343b0334723c929dd08d3ad93b0", "is_disabled": 0, "lon": -77.02970033333334, "is_reserved": 0, "fusion_lat": 0.0, "type": "electric_scooter"}, {"fusion_lon": 0.0, "name": "5b5cfd30e1e7ae8520028da3fa5b3089", "rental_uris": {"android": "https://dc.lft.to/lastmile_qr_scan", "ios": "https://dc.lft.to/lastmile_qr_scan"}, "lat": 38.909816, "bike_id": "5b5cfd30e1e7ae8520028da3fa5b3089", "is_disabled": 0, "lon": -77.0318835, "is_reserved": 0, "fusion_lat": 0.0, "type": "electric_scooter"}, {"fusion_lon": 0.0, "name": "0cf17947692ec97f017d80af05acb7d4", "rental_uris": {"android": "https://dc.lft.to/lastmile_qr_scan", "ios": "https://dc.lft.to/lastmile_qr_scan"}, "lat": 38.9191525, "bike_id": "0cf17947692ec97f017d80af05acb7d4", "is_disabled": 0, "lon": -77.044643, "is_reserved": 0, "fusion_lat": 0.0, "type": "electric_scooter"}, {"fusion_lon": 0.0, "name": "ec03323e6dfbd206b57440fb7f6c8fe0", "rental_uris": {"android": "https://dc.lft.to/lastmile_qr_scan", "ios": "https://dc.lft.to/lastmile_qr_scan"}, "lat": 38.905648, "bike_id": "ec03323e6dfbd206b57440fb7f6c8fe0", "is_disabled": 0, "lon": -77.0307445, "is_reserved": 0, "fusion_lat": 0.0, "type": "electric_scooter"}, {"fusion_lon": 0.0, "name": "bf993d3d517b7c2d3807182a51ba12e6", "rental_uris": {"android": "https://dc.lft.to/lastmile_qr_scan", "ios": "https://dc.lft.to/lastmile_qr_scan"}, "lat": 38.88732, "bike_id": "bf993d3d517b7c2d3807182a51ba12e6", "is_disabled": 0, "lon": -77.013463, "is_reserved": 0, "fusion_lat": 0.0, "type": "electric_scooter"}, {"fusion_lon": 0.0, "name": "b89fc04ca36945df44858e8bdb44c9c9", "rental_uris": {"android": "https://dc.lft.to/lastmile_qr_scan", "ios": "https://dc.lft.to/lastmile_qr_scan"}, "lat": 38.90055483333333, "bike_id": "b89fc04ca36945df44858e8bdb44c9c9", "is_disabled": 0, "lon": -77.04898233333333, "is_reserved": 0, "fusion_lat": 0.0, "type": "electric_scooter"}, {"fusion_lon": 0.0, "name": "21e10bc69233171300ae84d6f8afc5be", "rental_uris": {"android": "https://dc.lft.to/lastmile_qr_scan", "ios": "https://dc.lft.to/lastmile_qr_scan"}, "lat": 38.88988333333333, "bike_id": "21e10bc69233171300ae84d6f8afc5be", "is_disabled": 0, "lon": -76.92111366666667, "is_reserved": 0, "fusion_lat": 0.0, "type": "electric_scooter"}, {"fusion_lon": 0.0, "name": "53126f6a7499f295165f1655073ba65b", "rental_uris": {"android": "https://dc.lft.to/lastmile_qr_scan", "ios": "https://dc.lft.to/lastmile_qr_scan"}, "lat": 38.8927265, "bike_id": "53126f6a7499f295165f1655073ba65b", "is_disabled": 0, "lon": -77.05030516666666, "is_reserved": 0, "fusion_lat": 0.0, "type": "electric_bike"}, {"fusion_lon": 0.0, "name": "e0f89d7b77188817c478ba3d4f828bf6", "rental_uris": {"android": "https://dc.lft.to/lastmile_qr_scan", "ios": "https://dc.lft.to/lastmile_qr_scan"}, "lat": 38.8946105, "bike_id": "e0f89d7b77188817c478ba3d4f828bf6", "is_disabled": 0, "lon": -77.19133283333333, "is_reserved": 0, "fusion_lat": 0.0, "type": "electric_bike"}, {"fusion_lon": 0.0, "name": "b7c0ac51f8d85461de91d8abda7a6f26", "rental_uris": {"android": "https://dc.lft.to/lastmile_qr_scan", "ios": "https://dc.lft.to/lastmile_qr_scan"}, "lat": 38.90142, "bike_id": "b7c0ac51f8d85461de91d8abda7a6f26", "is_disabled": 0, "lon": -76.989696, "is_reserved": 0, "fusion_lat": 0.0, "type": "electric_scooter"}, {"fusion_lon": 0.0, "name": "1f276be71534eaec606a523ccefb950f", "rental_uris": {"android": "https://dc.lft.to/lastmile_qr_scan", "ios": "https://dc.lft.to/lastmile_qr_scan"}, "lat": 38.916262, "bike_id": "1f276be71534eaec606a523ccefb950f", "is_disabled": 0, "lon": -77.035025, "is_reserved": 0, "fusion_lat": 0.0, "type": "electric_scooter"}, {"fusion_lon": 0.0, "name": "f36b7ee96411b4259b8142e50299a836", "rental_uris": {"android": "https://dc.lft.to/lastmile_qr_scan", "ios": "https://dc.lft.to/lastmile_qr_scan"}, "lat": 38.90826883333333, "bike_id": "f36b7ee96411b4259b8142e50299a836", "is_disabled": 0, "lon": -77.04344066666667, "is_reserved": 0, "fusion_lat": 0.0, "type": "electric_scooter"}, {"fusion_lon": 0.0, "name": "b0682263a3abd54cbfe390c9ee427254", "rental_uris": {"android": "https://dc.lft.to/lastmile_qr_scan", "ios": "https://dc.lft.to/lastmile_qr_scan"}, "lat": 38.87336033333333, "bike_id": "b0682263a3abd54cbfe390c9ee427254", "is_disabled": 0, "lon": -76.9917015, "is_reserved": 0, "fusion_lat": 0.0, "type": "electric_scooter"}, {"fusion_lon": 0.0, "name": "60f04b7d004333ea104144c8c7f56aed", "rental_uris": {"android": "https://dc.lft.to/lastmile_qr_scan", "ios": "https://dc.lft.to/lastmile_qr_scan"}, "lat": 38.89739933333333, "bike_id": "60f04b7d004333ea104144c8c7f56aed", "is_disabled": 0, "lon": -77.02568166666667, "is_reserved": 0, "fusion_lat": 0.0, "type": "electric_scooter"}, {"fusion_lon": 0.0, "name": "cc0dfec1a6f6f3a7447922f66923374f", "rental_uris": {"android": "https://dc.lft.to/lastmile_qr_scan", "ios": "https://dc.lft.to/lastmile_qr_scan"}, "lat": 38.9220165, "bike_id": "cc0dfec1a6f6f3a7447922f66923374f", "is_disabled": 0, "lon": -76.98373333333333, "is_reserved": 0, "fusion_lat": 0.0, "type": "electric_scooter"}, {"fusion_lon": 0.0, "name": "fce5d8b63d1a4d5f0f10af15c037390b", "rental_uris": {"android": "https://dc.lft.to/lastmile_qr_scan", "ios": "https://dc.lft.to/lastmile_qr_scan"}, "lat": 38.909538166666664, "bike_id": "fce5d8b63d1a4d5f0f10af15c037390b", "is_disabled": 0, "lon": -77.034469, "is_reserved": 0, "fusion_lat": 0.0, "type": "electric_scooter"}, {"fusion_lon": 0.0, "name": "b07a41aab4f14a4a13a2a4495fef187b", "rental_uris": {"android": "https://dc.lft.to/lastmile_qr_scan", "ios": "https://dc.lft.to/lastmile_qr_scan"}, "lat": 38.90279433333333, "bike_id": "b07a41aab4f14a4a13a2a4495fef187b", "is_disabled": 0, "lon": -77.01816466666666, "is_reserved": 0, "fusion_lat": 0.0, "type": "electric_scooter"}, {"fusion_lon": 0.0, "name": "986b89de078b564dcd9c00479da12786", "rental_uris": {"android": "https://dc.lft.to/lastmile_qr_scan", "ios": "https://dc.lft.to/lastmile_qr_scan"}, "lat": 38.905743, "bike_id": "986b89de078b564dcd9c00479da12786", "is_disabled": 0, "lon": -77.0218055, "is_reserved": 0, "fusion_lat": 0.0, "type": "electric_scooter"}, {"fusion_lon": 0.0, "name": "30327e9c87d56f44efdc78d74e1f7500", "rental_uris": {"android": "https://dc.lft.to/lastmile_qr_scan", "ios": "https://dc.lft.to/lastmile_qr_scan"}, "lat": 38.88051183333334, "bike_id": "30327e9c87d56f44efdc78d74e1f7500", "is_disabled": 0, "lon": -77.00530333333333, "is_reserved": 0, "fusion_lat": 0.0, "type": "electric_scooter"}, {"fusion_lon": 0.0, "name": "5d25079a54c4e24f584ffca0708f0eda", "rental_uris": {"android": "https://dc.lft.to/lastmile_qr_scan", "ios": "https://dc.lft.to/lastmile_qr_scan"}, "lat": 38.941851, "bike_id": "5d25079a54c4e24f584ffca0708f0eda", "is_disabled": 0, "lon": -77.0249215, "is_reserved": 0, "fusion_lat": 0.0, "type": "electric_scooter"}, {"fusion_lon": 0.0, "name": "fedb99c1d3bb0bb5b0dcee2c841eab31", "rental_uris": {"android": "https://dc.lft.to/lastmile_qr_scan", "ios": "https://dc.lft.to/lastmile_qr_scan"}, "lat": 38.90707966666667, "bike_id": "fedb99c1d3bb0bb5b0dcee2c841eab31", "is_disabled": 0, "lon": -77.03212866666667, "is_reserved": 0, "fusion_lat": 0.0, "type": "electric_scooter"}, {"fusion_lon": 0.0, "name": "8e4ad17cea29267de336c749258a33d5", "rental_uris": {"android": "https://dc.lft.to/lastmile_qr_scan", "ios": "https://dc.lft.to/lastmile_qr_scan"}, "lat": 38.86011933333333, "bike_id": "8e4ad17cea29267de336c749258a33d5", "is_disabled": 0, "lon": -77.06527733333333, "is_reserved": 0, "fusion_lat": 0.0, "type": "electric_bike"}, {"fusion_lon": 0.0, "name": "2a86e1d17cb03069fd090a99df441263", "rental_uris": {"android": "https://dc.lft.to/lastmile_qr_scan", "ios": "https://dc.lft.to/lastmile_qr_scan"}, "lat": 38.915606333333336, "bike_id": "2a86e1d17cb03069fd090a99df441263", "is_disabled": 0, "lon": -77.00721766666666, "is_reserved": 0, "fusion_lat": 0.0, "type": "electric_scooter"}, {"fusion_lon": 0.0, "name": "79ea34a783199e40d98e99bbea5b07d9", "rental_uris": {"android": "https://dc.lft.to/lastmile_qr_scan", "ios": "https://dc.lft.to/lastmile_qr_scan"}, "lat": 38.908912, "bike_id": "79ea34a783199e40d98e99bbea5b07d9", "is_disabled": 0, "lon": -77.07273883333333, "is_reserved": 0, "fusion_lat": 0.0, "type": "electric_scooter"}, {"fusion_lon": 0.0, "name": "a676f327241c1110a7479bce4860aaf9", "rental_uris": {"android": "https://dc.lft.to/lastmile_qr_scan", "ios": "https://dc.lft.to/lastmile_qr_scan"}, "lat": 38.928543833333336, "bike_id": "a676f327241c1110a7479bce4860aaf9", "is_disabled": 0, "lon": -77.05425, "is_reserved": 0, "fusion_lat": 0.0, "type": "electric_scooter"}, {"fusion_lon": 0.0, "name": "47c1c71da0599345e1f9712df028c809", "rental_uris": {"android": "https://dc.lft.to/lastmile_qr_scan", "ios": "https://dc.lft.to/lastmile_qr_scan"}, "lat": 38.92792416666666, "bike_id": "47c1c71da0599345e1f9712df028c809", "is_disabled": 0, "lon": -77.03086166666667, "is_reserved": 0, "fusion_lat": 0.0, "type": "electric_scooter"}, {"fusion_lon": 0.0, "name": "a1be8e6a3e94d1c9ee319cabd9de0566", "rental_uris": {"android": "https://dc.lft.to/lastmile_qr_scan", "ios": "https://dc.lft.to/lastmile_qr_scan"}, "lat": 38.927585666666666, "bike_id": "a1be8e6a3e94d1c9ee319cabd9de0566", "is_disabled": 0, "lon": -77.02785733333333, "is_reserved": 0, "fusion_lat": 0.0, "type": "electric_scooter"}, {"fusion_lon": 0.0, "name": "249c0172e1f350b96e4dced30d08798b", "rental_uris": {"android": "https://dc.lft.to/lastmile_qr_scan", "ios": "https://dc.lft.to/lastmile_qr_scan"}, "lat": 38.933735, "bike_id": "249c0172e1f350b96e4dced30d08798b", "is_disabled": 0, "lon": -77.02739133333333, "is_reserved": 0, "fusion_lat": 0.0, "type": "electric_scooter"}, {"fusion_lon": 0.0, "name": "e154d2ca4b8e47e520db2be2220ba93f", "rental_uris": {"android": "https://dc.lft.to/lastmile_qr_scan", "ios": "https://dc.lft.to/lastmile_qr_scan"}, "lat": 38.905113666666665, "bike_id": "e154d2ca4b8e47e520db2be2220ba93f", "is_disabled": 0, "lon": -77.02956133333333, "is_reserved": 0, "fusion_lat": 0.0, "type": "electric_scooter"}, {"fusion_lon": 0.0, "name": "442c24d41fbce0060f1a10a2dec2227d", "rental_uris": {"android": "https://dc.lft.to/lastmile_qr_scan", "ios": "https://dc.lft.to/lastmile_qr_scan"}, "lat": 38.914165833333335, "bike_id": "442c24d41fbce0060f1a10a2dec2227d", "is_disabled": 0, "lon": -77.04075083333333, "is_reserved": 0, "fusion_lat": 0.0, "type": "electric_scooter"}, {"fusion_lon": 0.0, "name": "104417dea5b8b8256b758f81ef549d42", "rental_uris": {"android": "https://dc.lft.to/lastmile_qr_scan", "ios": "https://dc.lft.to/lastmile_qr_scan"}, "lat": 38.912747333333336, "bike_id": "104417dea5b8b8256b758f81ef549d42", "is_disabled": 0, "lon": -77.016085, "is_reserved": 0, "fusion_lat": 0.0, "type": "electric_scooter"}, {"fusion_lon": 0.0, "name": "785e8a4cad50da4e181c9f0630bc1ccc", "rental_uris": {"android": "https://dc.lft.to/lastmile_qr_scan", "ios": "https://dc.lft.to/lastmile_qr_scan"}, "lat": 38.939060166666664, "bike_id": "785e8a4cad50da4e181c9f0630bc1ccc", "is_disabled": 0, "lon": -77.0604435, "is_reserved": 0, "fusion_lat": 0.0, "type": "electric_scooter"}, {"fusion_lon": 0.0, "name": "2479df2d60371793c67795e94727526c", "rental_uris": {"android": "https://dc.lft.to/lastmile_qr_scan", "ios": "https://dc.lft.to/lastmile_qr_scan"},