{"data": {"bikes": [{"lat": 38.876858, "is_disabled": 0, "type": "electric_bike", "lon": -77.01761133333333, "bike_id": "54da0acdbb89bf5f283729c79eaaba5e", "fusion_lat": 0.0, "name": "54da0acdbb89bf5f283729c79eaaba5e", "is_reserved": 0, "rental_uris": {"android": "https://dc.lft.to/lastmile_qr_scan", "ios": "https://dc.lft.to/lastmile_qr_scan"}, "fusion_lon": 0.0}, {"lat": 38.9268095, "is_disabled": 0, "type": "electric_scooter", "lon": -77.02116266666667, "bike_id": "bad41fe9d5f930bd720fc32055ca9a5c", "fusion_lat": 0.0, "name": "bad41fe9d5f930bd720fc32055ca9a5c", "is_reserved": 0, "rental_uris": {"android": "https://dc.lft.to/lastmile_qr_scan", "ios": "https://dc.lft.to/lastmile_qr_scan"}, "fusion_lon": 0.0}, {"lat": 38.9041845, "is_disabled": 0, "type": "electric_scooter", "lon": -77.05911516666667, "bike_id": "17a18f76c3218d213cd464d7fadadb04", "fusion_lat": 0.0, "name": "17a18f76c3218d213cd464d7fadadb04", "is_reserved": 0, "rental_uris": {"android": "https://dc.lft.to/lastmile_qr_scan", "ios": "https://dc.lft.to/lastmile_qr_scan"}, "fusion_lon": 0.0}, {"lat": 38.91605166666667, "is_disabled": 0, "type": "electric_scooter", "lon": -77.0214505, "bike_id": "935a2b15ea768657e0938e5fa6b8a5d0", "fusion_lat": 0.0, "name": "935a2b15ea768657e0938e5fa6b8a5d0", "is_reserved": 0, "rental_uris": {"android": "https://dc.lft.to/lastmile_qr_scan", "ios": "https://dc.lft.to/lastmile_qr_scan"}, "fusion_lon": 0.0}, {"lat": 38.839797, "is_disabled": 0, "type": "electric_bike", "lon": -77.0057455, "bike_id": "dd18104664700dd2a6bde6a26f0c4088", "fusion_lat": 0.0, "name": "dd18104664700dd2a6bde6a26f0c4088", "is_reserved": 0, "rental_uris": {"android": "https://dc.lft.to/lastmile_qr_scan", "ios": "https://dc.lft.to/lastmile_qr_scan"}, "fusion_lon": 0.0}, {"lat": 38.916896, "is_disabled": 0, "type": "electric_scooter", "lon": -77.03719166666667, "bike_id": "5640d11630c8c962d6e6fc9b3a5a33e6", "fusion_lat": 0.0, "name": "5640d11630c8c962d6e6fc9b3a5a33e6", "is_reserved": 0, "rental_uris": {"android": "https://dc.lft.to/lastmile_qr_scan", "ios": "https://dc.lft.to/lastmile_qr_scan"}, "fusion_lon": 0.0}, {"lat": 38.92407633333333, "is_disabled": 0, "type": "electric_scooter", "lon": -77.05246233333334, "bike_id": "6614e8dc7d88efc1898067977f2d02cf", "fusion_lat": 0.0, "name": "6614e8dc7d88efc1898067977f2d02cf", "is_reserved": 0, "rental_uris": {"android": "https://dc.lft.to/lastmile_qr_scan", "ios": "https://dc.lft.to/lastmile_qr_scan"}, "fusion_lon": 0.0}, {"lat": 38.909844, "is_disabled": 0, "type": "electric_scooter", "lon": -76.98466966666666, "bike_id": "90f345741422e79894fa8ddd848a4e0e", "fusion_lat": 0.0, "name": "90f345741422e79894fa8ddd848a4e0e", "is_reserved": 0, "rental_uris": {"android": "https://dc.lft.to/lastmile_qr_scan", "ios": "https://dc.lft.to/lastmile_qr_scan"}, "fusion_lon": 0.0}, {"lat": 38.908516, "is_disabled": 0, "type": "electric_scooter", "lon": -76.99969033333333, "bike_id": "3d753f7678b9b1231cbbb0de1ab97069", "fusion_lat": 0.0, "name": "3d753f7678b9b1231cbbb0de1ab97069", "is_reserved": 0, "rental_uris": {"android": "https://dc.lft.to/lastmile_qr_scan", "ios": "https://dc.lft.to/lastmile_qr_scan"}, "fusion_lon": 0.0}, {"lat": 38.93342233333333, "is_disabled": 0, "type": "electric_scooter", "lon": -77.02622466666666, "bike_id": "e4d05f4313975e5d871f589c451e5ccf", "fusion_lat": 0.0, "name": "e4d05f4313975e5d871f589c451e5ccf", "is_reserved": 0, "rental_uris": {"android": "https://dc.lft.to/lastmile_qr_scan", "ios": "https://dc.lft.to/lastmile_qr_scan"}, "fusion_lon": 0.0}, {"lat": 38.8801015, "is_disabled": 0, "type": "electric_scooter", "lon": -77.02482183333333, "bike_id": "f4d98af86059b571570622a0cd21843f", "fusion_lat": 0.0, "name": "f4d98af86059b571570622a0cd21843f", "is_reserved": 0, "rental_uris": {"android": "https://dc.lft.to/lastmile_qr_scan", "ios": "https://dc.lft.to/lastmile_qr_scan"}, "fusion_lon": 0.0}, {"lat": 38.90040116666667, "is_disabled": 0, "type": "electric_scooter", "lon": -76.99505916666666, "bike_id": "eb8e671720b06a1fbfb75053b81e9242", "fusion_lat": 0.0, "name": "eb8e671720b06a1fbfb75053b81e9242", "is_reserved": 0, "rental_uris": {"android": "https://dc.lft.to/lastmile_qr_scan", "ios": "https://dc.lft.to/lastmile_qr_scan"}, "fusion_lon": 0.0}, {"lat": 38.9162125, "is_disabled": 0, "type": "electric_scooter", "lon": -77.048683, "bike_id": "b5e7cf30c39332f780e125aacca7eaa0", "fusion_lat": 0.0, "name": "b5e7cf30c39332f780e125aacca7eaa0", "is_reserved": 0, "rental_uris": {"android": "https://dc.lft.to/lastmile_qr_scan", "ios": "https://dc.lft.to/lastmile_qr_scan"}, "fusion_lon": 0.0}, {"lat": 38.914224833333336, "is_disabled": 0, "type": "electric_scooter", "lon": -77.04645816666667, "bike_id": "e5cb582688447df23ad4e5b44ee77a74", "fusion_lat": 0.0, "name": "e5cb582688447df23ad4e5b44ee77a74", "is_reserved": 0, "rental_uris": {"android": "https://dc.lft.to/lastmile_qr_scan", "ios": "https://dc.lft.to/lastmile_qr_scan"}, "fusion_lon": 0.0}, {"lat": 38.90634883333333, "is_disabled": 0, "type": "electric_scooter", "lon": -77.0250085, "bike_id": "3104e64f4a9a8859e39927bc7a5b281d", "fusion_lat": 0.0, "name": "3104e64f4a9a8859e39927bc7a5b281d", "is_reserved": 0, "rental_uris": {"android": "https://dc.lft.to/lastmile_qr_scan", "ios": "https://dc.lft.to/lastmile_qr_scan"}, "fusion_lon": 0.0}, {"lat": 38.900702, "is_disabled": 0, "type": "electric_scooter", "lon": -77.050759, "bike_id": "042a83cf2038fc3f61970a37212c9ebb", "fusion_lat": 0.0, "name": "042a83cf2038fc3f61970a37212c9ebb", "is_reserved": 0, "rental_uris": {"android": "https://dc.lft.to/lastmile_qr_scan", "ios": "https://dc.lft.to/lastmile_qr_scan"}, "fusion_lon": 0.0}, {"lat": 38.871491666666664, "is_disabled": 0, "type": "electric_bike", "lon": -76.9370795, "bike_id": "7132984751450fcf4d201d65e184328b", "fusion_lat": 0.0, "name": "7132984751450fcf4d201d65e184328b", "is_reserved": 0, "rental_uris": {"android": "https://dc.lft.to/lastmile_qr_scan", "ios": "https://dc.lft.to/lastmile_qr_scan"}, "fusion_lon": 0.0}, {"lat": 38.83692683333334, "is_disabled": 0, "type": "electric_scooter", "lon": -77.1030815, "bike_id": "d748c3418d6f3f3fcaa57d2412570a42", "fusion_lat": 0.0, "name": "d748c3418d6f3f3fcaa57d2412570a42", "is_reserved": 0, "rental_uris": {"android": "https://dc.lft.to/lastmile_qr_scan", "ios": "https://dc.lft.to/lastmile_qr_scan"}, "fusion_lon": 0.0}, {"lat": 38.91607666666667, "is_disabled": 0, "type": "electric_scooter", "lon": -77.0325385, "bike_id": "7f5f1fa1acfe70abc27dafc64fe179f6", "fusion_lat": 0.0, "name": "7f5f1fa1acfe70abc27dafc64fe179f6", "is_reserved": 0, "rental_uris": {"android": "https://dc.lft.to/lastmile_qr_scan", "ios": "https://dc.lft.to/lastmile_qr_scan"}, "fusion_lon": 0.0}, {"lat": 38.86834, "is_disabled": 0, "type": "electric_scooter", "lon": -76.97739933333334, "bike_id": "10c413a6d2895ee0174af859939598c3", "fusion_lat": 0.0, "name": "10c413a6d2895ee0174af859939598c3", "is_reserved": 0, "rental_uris": {"android": "https://dc.lft.to/lastmile_qr_scan", "ios": "https://dc.lft.to/lastmile_qr_scan"}, "fusion_lon": 0.0}, {"lat": 38.92705266666667, "is_disabled": 0, "type": "electric_scooter", "lon": -77.02101433333333, "bike_id": "a723e4ace94ca0b194fe59d4ec667aa8", "fusion_lat": 0.0, "name": "a723e4ace94ca0b194fe59d4ec667aa8", "is_reserved": 0, "rental_uris": {"android": "https://dc.lft.to/lastmile_qr_scan", "ios": "https://dc.lft.to/lastmile_qr_scan"}, "fusion_lon": 0.0}, {"lat": 38.92234166666667, "is_disabled": 0, "type": "electric_scooter", "lon": -77.04253833333334, "bike_id": "01cb94df9fc3fc9d9062c74c54fc0f1b", "fusion_lat": 0.0, "name": "01cb94df9fc3fc9d9062c74c54fc0f1b", "is_reserved": 0, "rental_uris": {"android": "https://dc.lft.to/lastmile_qr_scan", "ios": "https://dc.lft.to/lastmile_qr_scan"}, "fusion_lon": 0.0}, {"lat": 38.900100333333334, "is_disabled": 0, "type": "electric_scooter", "lon": -76.9223535, "bike_id": "b8b0d7148c728acd74f2c04449eb056b", "fusion_lat": 0.0, "name": "b8b0d7148c728acd74f2c04449eb056b", "is_reserved": 0, "rental_uris": {"android": "https://dc.lft.to/lastmile_qr_scan", "ios": "https://dc.lft.to/lastmile_qr_scan"}, "fusion_lon": 0.0}, {"lat": 38.90437333333333, "is_disabled": 0, "type": "electric_scooter", "lon": -77.0202985, "bike_id": "056e29c355d8add6e6b4ca4ea961ac20", "fusion_lat": 0.0, "name": "056e29c355d8add6e6b4ca4ea961ac20", "is_reserved": 0, "rental_uris": {"android": "https://dc.lft.to/lastmile_qr_scan", "ios": "https://dc.lft.to/lastmile_qr_scan"}, "fusion_lon": 0.0}, {"lat": 38.914469, "is_disabled": 0, "type": "electric_scooter", "lon": -77.02973983333334, "bike_id": "34e9ce14db5bd1e796ac58ad14025322", "fusion_lat": 0.0, "name": "34e9ce14db5bd1e796ac58ad14025322", "is_reserved": 0, "rental_uris": {"android": "https://dc.lft.to/lastmile_qr_scan", "ios": "https://dc.lft.to/lastmile_qr_scan"}, "fusion_lon": 0.0}, {"lat": 38.9334265, "is_disabled": 0, "type": "electric_scooter", "lon": -76.99305366666667, "bike_id": "45814449eb5679d6205378555cf9eec7", "fusion_lat": 0.0, "name": "45814449eb5679d6205378555cf9eec7", "is_reserved": 0, "rental_uris": {"android": "https://dc.lft.to/lastmile_qr_scan", "ios": "https://dc.lft.to/lastmile_qr_scan"}, "fusion_lon": 0.0}, {"lat": 38.93131616666667, "is_disabled": 0, "type": "electric_scooter", "lon": -77.02155333333333, "bike_id": "c7701c587fcb6593b1ff68b22a0b0d66", "fusion_lat": 0.0, "name": "c7701c587fcb6593b1ff68b22a0b0d66", "is_reserved": 0, "rental_uris": {"android": "https://dc.lft.to/lastmile_qr_scan", "ios": "https://dc.lft.to/lastmile_qr_scan"}, "fusion_lon": 0.0}, {"lat": 38.899367, "is_disabled": 0, "type": "electric_scooter", "lon": -77.003564, "bike_id": "69f3c13e71f9f686b399405e2bb3ba66", "fusion_lat": 0.0, "name": "69f3c13e71f9f686b399405e2bb3ba66", "is_reserved": 0, "rental_uris": {"android": "https://dc.lft.to/lastmile_qr_scan", "ios": "https://dc.lft.to/lastmile_qr_scan"}, "fusion_lon": 0.0}, {"lat": 38.90961733333333, "is_disabled": 0, "type": "electric_scooter", "lon": -77.021616, "bike_id": "c21a9e7f5a707be7afce3d9b41225d3b", "fusion_lat": 0.0, "name": "c21a9e7f5a707be7afce3d9b41225d3b", "is_reserved": 0, "rental_uris": {"android": "https://dc.lft.to/lastmile_qr_scan", "ios": "https://dc.lft.to/lastmile_qr_scan"}, "fusion_lon": 0.0}, {"lat": 38.917026166666666, "is_disabled": 0, "type": "electric_scooter", "lon": -77.02867266666667, "bike_id": "8524effcce91cd63dcb8831db497828d", "fusion_lat": 0.0, "name": "8524effcce91cd63dcb8831db497828d", "is_reserved": 0, "rental_uris": {"android": "https://dc.lft.to/lastmile_qr_scan", "ios": "https://dc.lft.to/lastmile_qr_scan"}, "fusion_lon": 0.0}, {"lat": 38.91566516666666, "is_disabled": 0, "type": "electric_scooter", "lon": -77.03175033333333, "bike_id": "2538d82474717212b79aabbab79e1d09", "fusion_lat": 0.0, "name": "2538d82474717212b79aabbab79e1d09", "is_reserved": 0, "rental_uris": {"android": "https://dc.lft.to/lastmile_qr_scan", "ios": "https://dc.lft.to/lastmile_qr_scan"}, "fusion_lon": 0.0}, {"lat": 38.91687733333333, "is_disabled": 0, "type": "electric_scooter", "lon": -77.02386816666667, "bike_id": "1f40d23d874a6cbdb4b3b4384d485b78", "fusion_lat": 0.0, "name": "1f40d23d874a6cbdb4b3b4384d485b78", "is_reserved": 0, "rental_uris": {"android": "https://dc.lft.to/lastmile_qr_scan", "ios": "https://dc.lft.to/lastmile_qr_scan"}, "fusion_lon": 0.0}, {"lat": 38.91558633333333, "is_disabled": 0, "type": "electric_bike", "lon": -77.03171466666667, "bike_id": "2e3566ccb1e7034cf5399bc0bdbabaae", "fusion_lat": 0.0, "name": "2e3566ccb1e7034cf5399bc0bdbabaae", "is_reserved": 0, "rental_uris": {"android": "https://dc.lft.to/lastmile_qr_scan", "ios": "https://dc.lft.to/lastmile_qr_scan"}, "fusion_lon": 0.0}, {"lat": 38.895535833333334, "is_disabled": 0, "type": "electric_scooter", "lon": -77.0036265, "bike_id": "9eaf3c77482b1063e86c9113fad18b5b", "fusion_lat": 0.0, "name": "9eaf3c77482b1063e86c9113fad18b5b", "is_reserved": 0, "rental_uris": {"android": "https://dc.lft.to/lastmile_qr_scan", "ios": "https://dc.lft.to/lastmile_qr_scan"}, "fusion_lon": 0.0}, {"lat": 38.907818, "is_disabled": 0, "type": "electric_scooter", "lon": -77.01100383333333, "bike_id": "4b7ab546105f2d43420377022f3a6b82", "fusion_lat": 0.0, "name": "4b7ab546105f2d43420377022f3a6b82", "is_reserved": 0, "rental_uris": {"android": "https://dc.lft.to/lastmile_qr_scan", "ios": "https://dc.lft.to/lastmile_qr_scan"}, "fusion_lon": 0.0}, {"lat": 38.9097245, "is_disabled": 0, "type": "electric_scooter", "lon": -77.03185866666666, "bike_id": "f4ca465d3972167548b01550a7c8e883", "fusion_lat": 0.0, "name": "f4ca465d3972167548b01550a7c8e883", "is_reserved": 0, "rental_uris": {"android": "https://dc.lft.to/lastmile_qr_scan", "ios": "https://dc.lft.to/lastmile_qr_scan"}, "fusion_lon": 0.0}, {"lat": 38.9000865, "is_disabled": 0, "type": "electric_scooter", "lon": -77.03312383333333, "bike_id": "9ca7b4d2c110dfa9d79bc07ce14857df", "fusion_lat": 0.0, "name": "9ca7b4d2c110dfa9d79bc07ce14857df", "is_reserved": 0, "rental_uris": {"android": "https://dc.lft.to/lastmile_qr_scan", "ios": "https://dc.lft.to/lastmile_qr_scan"}, "fusion_lon": 0.0}, {"lat": 38.813438, "is_disabled": 0, "type": "electric_bike", "lon": -77.04923266666667, "bike_id": "4469909dd05894258eba35fb514e4f6b", "fusion_lat": 0.0, "name": "4469909dd05894258eba35fb514e4f6b", "is_reserved": 0, "rental_uris": {"android": "https://dc.lft.to/lastmile_qr_scan", "ios": "https://dc.lft.to/lastmile_qr_scan"}, "fusion_lon": 0.0}, {"lat": 38.9620325, "is_disabled": 0, "type": "electric_bike", "lon": -77.0351385, "bike_id": "a9d7883d392c73eb277822cf25dea8bc", "fusion_lat": 0.0, "name": "a9d7883d392c73eb277822cf25dea8bc", "is_reserved": 0, "rental_uris": {"android": "https://dc.lft.to/lastmile_qr_scan", "ios": "https://dc.lft.to/lastmile_qr_scan"}, "fusion_lon": 0.0}, {"lat": 38.8719365, "is_disabled": 0, "type": "electric_scooter", "lon": -77.01352, "bike_id": "b6f615dccc6e0e94aa380a1c6b860e0c", "fusion_lat": 0.0, "name": "b6f615dccc6e0e94aa380a1c6b860e0c", "is_reserved": 0, "rental_uris": {"android": "https://dc.lft.to/lastmile_qr_scan", "ios": "https://dc.lft.to/lastmile_qr_scan"}, "fusion_lon": 0.0}, {"lat": 38.907242, "is_disabled": 0, "type": "electric_scooter", "lon": -77.029813, "bike_id": "54a6a9feb77b2abef330bd15dc40eefb", "fusion_lat": 0.0, "name": "54a6a9feb77b2abef330bd15dc40eefb", "is_reserved": 0, "rental_uris": {"android": "https://dc.lft.to/lastmile_qr_scan", "ios": "https://dc.lft.to/lastmile_qr_scan"}, "fusion_lon": 0.0}, {"lat": 38.925802, "is_disabled": 0, "type": "electric_scooter", "lon": -77.04014766666667, "bike_id": "f8001c1ab95f43c8d839f7f8997e18d3", "fusion_lat": 0.0, "name": "f8001c1ab95f43c8d839f7f8997e18d3", "is_reserved": 0, "rental_uris": {"android": "https://dc.lft.to/lastmile_qr_scan", "ios": "https://dc.lft.to/lastmile_qr_scan"}, "fusion_lon": 0.0}, {"lat": 38.91126766666667, "is_disabled": 0, "type": "electric_scooter", "lon": -77.038191, "bike_id": "a286fa9fc11d48bde8cebd602aa8b38e", "fusion_lat": 0.0, "name": "a286fa9fc11d48bde8cebd602aa8b38e", "is_reserved": 0, "rental_uris": {"android": "https://dc.lft.to/lastmile_qr_scan", "ios": "https://dc.lft.to/lastmile_qr_scan"}, "fusion_lon": 0.0}, {"lat": 38.896143, "is_disabled": 0, "type": "electric_scooter", "lon": -76.95650383333333, "bike_id": "70be25a4396a2aface2ef22e0f45f441", "fusion_lat": 0.0, "name": "70be25a4396a2aface2ef22e0f45f441", "is_reserved": 0, "rental_uris": {"android": "https://dc.lft.to/lastmile_qr_scan", "ios": "https://dc.lft.to/lastmile_qr_scan"}, "fusion_lon": 0.0}, {"lat": 38.90432883333333, "is_disabled": 0, "type": "electric_scooter", "lon": -77.00208616666667, "bike_id": "2b9d5e9461799c8ca532dfe5081182d2", "fusion_lat": 0.0, "name": "2b9d5e9461799c8ca532dfe5081182d2", "is_reserved": 0, "rental_uris": {"android": "https://dc.lft.to/lastmile_qr_scan", "ios": "https://dc.lft.to/lastmile_qr_scan"}, "fusion_lon": 0.0}, {"lat": 38.94511766666667, "is_disabled": 0, "type": "electric_scooter", "lon": -77.0639455, "bike_id": "ae96c8c1e37708ac4cf72f59719aec34", "fusion_lat": 0.0, "name": "ae96c8c1e37708ac4cf72f59719aec34", "is_reserved": 0, "rental_uris": {"android": "https://dc.lft.to/lastmile_qr_scan", "ios": "https://dc.lft.to/lastmile_qr_scan"}, "fusion_lon": 0.0}, {"lat": 38.912893333333336, "is_disabled": 0, "type": "electric_scooter", "lon": -77.03854183333333, "bike_id": "508c19e87e32473562b7a5a9bdcb1d96", "fusion_lat": 0.0, "name": "508c19e87e32473562b7a5a9bdcb1d96", "is_reserved": 0, "rental_uris": {"android": "https://dc.lft.to/lastmile_qr_scan", "ios": "https://dc.lft.to/lastmile_qr_scan"}, "fusion_lon": 0.0}, {"lat": 38.90258766666667, "is_disabled": 0, "type": "electric_scooter", "lon": -77.00325416666666, "bike_id": "0c4bdb6d39b1d7f73216808b071987fd", "fusion_lat": 0.0, "name": "0c4bdb6d39b1d7f73216808b071987fd", "is_reserved": 0, "rental_uris": {"android": "https://dc.lft.to/lastmile_qr_scan", "ios": "https://dc.lft.to/lastmile_qr_scan"}, "fusion_lon": 0.0}, {"lat": 38.941088666666666, "is_disabled": 0, "type": "electric_scooter", "lon": -77.0004675, "bike_id": "a38be8c221b6926b584c00fcb7c11821", "fusion_lat": 0.0, "name": "a38be8c221b6926b584c00fcb7c11821", "is_reserved": 0, "rental_uris": {"android": "https://dc.lft.to/lastmile_qr_scan", "ios": "https://dc.lft.to/lastmile_qr_scan"}, "fusion_lon": 0.0}, {"lat": 38.92354366666667, "is_disabled": 0, "type": "electric_scooter", "lon": -77.04322616666667, "bike_id": "3fe9cc551079d185d0fe3581e50b45de", "fusion_lat": 0.0, "name": "3fe9cc551079d185d0fe3581e50b45de", "is_reserved": 0, "rental_uris": {"android": "https://dc.lft.to/lastmile_qr_scan", "ios": "https://dc.lft.to/lastmile_qr_scan"}, "fusion_lon": 0.0}, {"lat": 38.9038195, "is_disabled": 0, "type": "electric_scooter", "lon": -77.04035666666667, "bike_id": "337b1066e960508d9363f8ffae45857f", "fusion_lat": 0.0, "name": "337b1066e960508d9363f8ffae45857f", "is_reserved": 0, "rental_uris": {"android": "https://dc.lft.to/lastmile_qr_scan", "ios": "https://dc.lft.to/lastmile_qr_scan"}, "fusion_lon": 0.0}, {"lat": 38.943608833333336, "is_disabled": 0, "type": "electric_bike", "lon": -76.9677745, "bike_id": "7e593f60948bde204a195326f8e8e456", "fusion_lat": 0.0, "name": "7e593f60948bde204a195326f8e8e456", "is_reserved": 0, "rental_uris": {"android": "https://dc.lft.to/lastmile_qr_scan", "ios": "https://dc.lft.to/lastmile_qr_scan"}, "fusion_lon": 0.0}, {"lat": 38.90623866666667, "is_disabled": 0, "type": "electric_scooter", "lon": -77.04133316666666, "bike_id": "8334c745080eb2ce3a2d017c835c98cb", "fusion_lat": 0.0, "name": "8334c745080eb2ce3a2d017c835c98cb", "is_reserved": 0, "rental_uris": {"android": "https://dc.lft.to/lastmile_qr_scan", "ios": "https://dc.lft.to/lastmile_qr_scan"}, "fusion_lon": 0.0}, {"lat": 38.896233333333335, "is_disabled": 0, "type": "electric_scooter", "lon": -77.03031683333333, "bike_id": "6ad0e2dd5530ded435a063ed9d4b12f5", "fusion_lat": 0.0, "name": "6ad0e2dd5530ded435a063ed9d4b12f5", "is_reserved": 0, "rental_uris": {"android": "https://dc.lft.to/lastmile_qr_scan", "ios": "https://dc.lft.to/lastmile_qr_scan"}, "fusion_lon": 0.0}, {"lat": 38.913017333333336, "is_disabled": 0, "type": "electric_scooter", "lon": -77.0162465, "bike_id": "eef6c8b1ad30e57f2f7f42f4c28aee88", "fusion_lat": 0.0, "name": "eef6c8b1ad30e57f2f7f42f4c28aee88", "is_reserved": 0, "rental_uris": {"android": "https://dc.lft.to/lastmile_qr_scan", "ios": "https://dc.lft.to/lastmile_qr_scan"}, "fusion_lon": 0.0}, {"lat": 38.92750483333333, "is_disabled": 0, "type": "electric_scooter", "lon": -76.99722983333334, "bike_id": "8052efe52c65d89ee712e74e708b49a2", "fusion_lat": 0.0, "name": "8052efe52c65d89ee712e74e708b49a2", "is_reserved": 0, "rental_uris": {"android": "https://dc.lft.to/lastmile_qr_scan", "ios": "https://dc.lft.to/lastmile_qr_scan"}, "fusion_lon": 0.0}, {"lat": 39.0305, "is_disabled": 0, "type": "electric_bike", "lon": -77.09487233333333, "bike_id": "44b477cd73601012fee702c9121cea0f", "fusion_lat": 0.0, "name": "44b477cd73601012fee702c9121cea0f", "is_reserved": 0, "rental_uris": {"android": "https://dc.lft.to/lastmile_qr_scan", "ios": "https://dc.lft.to/lastmile_qr_scan"}, "fusion_lon": 0.0}, {"lat": 38.8636845, "is_disabled": 0, "type": "electric_scooter", "lon": -76.99032216666667, "bike_id": "c0037f54a2c6b15b58b46810e1249e44", "fusion_lat": 0.0, "name": "c0037f54a2c6b15b58b46810e1249e44", "is_reserved": 0, "rental_uris": {"android": "https://dc.lft.to/lastmile_qr_scan", "ios": "https://dc.lft.to/lastmile_qr_scan"}, "fusion_lon": 0.0}, {"lat": 38.903665, "is_disabled": 0, "type": "electric_scooter", "lon": -77.02915083333333, "bike_id": "f1a25c75b5ee2140401af5be08f06bcd", "fusion_lat": 0.0, "name": "f1a25c75b5ee2140401af5be08f06bcd", "is_reserved": 0, "rental_uris": {"android": "https://dc.lft.to/lastmile_qr_scan", "ios": "https://dc.lft.to/lastmile_qr_scan"}, "fusion_lon": 0.0}, {"lat": 38.913396, "is_disabled": 0, "type": "electric_scooter", "lon": -77.04880466666667, "bike_id": "7e52c11b74c9f2764d45e6760a8042fe", "fusion_lat": 0.0, "name": "7e52c11b74c9f2764d45e6760a8042fe", "is_reserved": 0, "rental_uris": {"android": "https://dc.lft.to/lastmile_qr_scan", "ios": "https://dc.lft.to/lastmile_qr_scan"}, "fusion_lon": 0.0}, {"lat": 38.88513666666667, "is_disabled": 0, "type": "electric_scooter", "lon": -77.00680766666666, "bike_id": "01821ddb145b55a283459864183cc46d", "fusion_lat": 0.0, "name": "01821ddb145b55a283459864183cc46d", "is_reserved": 0, "rental_uris": {"android": "https://dc.lft.to/lastmile_qr_scan", "ios": "https://dc.lft.to/lastmile_qr_scan"}, "fusion_lon": 0.0}, {"lat": 38.877259333333335, "is_disabled": 0, "type": "electric_scooter", "lon": -77.00363933333334, "bike_id": "eac532ca22d5b900107741b24f393e96", "fusion_lat": 0.0, "name": "eac532ca22d5b900107741b24f393e96", "is_reserved": 0, "rental_uris": {"android": "https://dc.lft.to/lastmile_qr_scan", "ios": "https://dc.lft.to/lastmile_qr_scan"}, "fusion_lon": 0.0}, {"lat": 38.932986, "is_disabled": 0, "type": "electric_scooter", "lon": -77.0453235, "bike_id": "4bbcdba68f72295e666146a479233658", "fusion_lat": 0.0, "name": "4bbcdba68f72295e666146a479233658", "is_reserved": 0, "rental_uris": {"android": "https://dc.lft.to/lastmile_qr_scan", "ios": "https://dc.lft.to/lastmile_qr_scan"}, "fusion_lon": 0.0}, {"lat": 38.91461833333334, "is_disabled": 0, "type": "electric_scooter", "lon": -77.01428183333333, "bike_id": "db39d18dff1f7c703e9699bd3f42526c", "fusion_lat": 0.0, "name": "db39d18dff1f7c703e9699bd3f42526c", "is_reserved": 0, "rental_uris": {"android": "https://dc.lft.to/lastmile_qr_scan", "ios": "https://dc.lft.to/lastmile_qr_scan"}, "fusion_lon": 0.0}, {"lat": 38.9232865, "is_disabled": 0, "type": "electric_scooter", "lon": -77.03547483333334, "bike_id": "bcb921c931a4cc2bbfb9e5ab6a93f533", "fusion_lat": 0.0, "name": "bcb921c931a4cc2bbfb9e5ab6a93f533", "is_reserved": 0, "rental_uris": {"android": "https://dc.lft.to/lastmile_qr_scan", "ios": "https://dc.lft.to/lastmile_qr_scan"}, "fusion_lon": 0.0}, {"lat": 38.8880125, "is_disabled": 0, "type": "electric_scooter", "lon": -76.93360383333334, "bike_id": "3ec29e586cb9f2c48b4c7f8e9daf7fc3", "fusion_lat": 0.0, "name": "3ec29e586cb9f2c48b4c7f8e9daf7fc3", "is_reserved": 0, "rental_uris": {"android": "https://dc.lft.to/lastmile_qr_scan", "ios": "https://dc.lft.to/lastmile_qr_scan"}, "fusion_lon": 0.0}, {"lat": 38.8819915, "is_disabled": 0, "type": "electric_scooter", "lon": -76.98932616666667, "bike_id": "7332847ab48d340f41fd34f32e56c957", "fusion_lat": 0.0, "name": "7332847ab48d340f41fd34f32e56c957", "is_reserved": 0, "rental_uris": {"android": "https://dc.lft.to/lastmile_qr_scan", "ios": "https://dc.lft.to/lastmile_qr_scan"}, "fusion_lon": 0.0}, {"lat": 38.870734166666665, "is_disabled": 0, "type": "electric_bike", "lon": -76.97833483333334, "bike_id": "8339a4a083e3741b5fbe5ffa79b4a15b", "fusion_lat": 0.0, "name": "8339a4a083e3741b5fbe5ffa79b4a15b", "is_reserved": 0, "rental_uris": {"android": "https://dc.lft.to/lastmile_qr_scan", "ios": "https://dc.lft.to/lastmile_qr_scan"}, "fusion_lon": 0.0}, {"lat": 38.920528166666664, "is_disabled": 0, "type": "electric_scooter", "lon": -77.04188316666666, "bike_id": "1d7c3a46888543232d97a6cbf188421f", "fusion_lat": 0.0, "name": "1d7c3a46888543232d97a6cbf188421f", "is_reserved": 0, "rental_uris": {"android": "https://dc.lft.to/lastmile_qr_scan", "ios": "https://dc.lft.to/lastmile_qr_scan"}, "fusion_lon": 0.0}, {"lat": 38.87702433333333, "is_disabled": 0, "type": "electric_bike", "lon": -77.00350333333333, "bike_id": "af23fd9bceae13fc28a608d952476a7e", "fusion_lat": 0.0, "name": "af23fd9bceae13fc28a608d952476a7e", "is_reserved": 0, "rental_uris": {"android": "https://dc.lft.to/lastmile_qr_scan", "ios": "https://dc.lft.to/lastmile_qr_scan"}, "fusion_lon": 0.0}, {"lat": 38.94902916666667, "is_disabled": 0, "type": "electric_bike", "lon": -76.97236483333333, "bike_id": "9e61884e8db0781befac5b2a8e2a0070", "fusion_lat": 0.0, "name": "9e61884e8db0781befac5b2a8e2a0070", "is_reserved": 0, "rental_uris": {"android": "https://dc.lft.to/lastmile_qr_scan", "ios": "https://dc.lft.to/lastmile_qr_scan"}, "fusion_lon": 0.0}, {"lat": 38.79324483333333, "is_disabled": 0, "type": "electric_bike", "lon": -77.0401725, "bike_id": "38a1b5d7f078270e1552bd8e13b49915", "fusion_lat": 0.0, "name": "38a1b5d7f078270e1552bd8e13b49915", "is_reserved": 0, "rental_uris": {"android": "https://dc.lft.to/lastmile_qr_scan", "ios": "https://dc.lft.to/lastmile_qr_scan"}, "fusion_lon": 0.0}, {"lat": 38.92682083333333, "is_disabled": 0, "type": "electric_scooter", "lon": -77.015709, "bike_id": "af95b7520024f7c98bf58800bb475f49", "fusion_lat": 0.0, "name": "af95b7520024f7c98bf58800bb475f49", "is_reserved": 0, "rental_uris": {"android": "https://dc.lft.to/lastmile_qr_scan", "ios": "https://dc.lft.to/lastmile_qr_scan"}, "fusion_lon": 0.0}, {"lat": 38.906082, "is_disabled": 0, "type": "electric_scooter", "lon": -77.03399616666667, "bike_id": "cfc191fac767768c4fac6e65935cd300", "fusion_lat": 0.0, "name": "cfc191fac767768c4fac6e65935cd300", "is_reserved": 0, "rental_uris": {"android": "https://dc.lft.to/lastmile_qr_scan", "ios": "https://dc.lft.to/lastmile_qr_scan"}, "fusion_lon": 0.0}, {"lat": 38.883359, "is_disabled": 0, "type": "electric_scooter", "lon": -77.00939166666667, "bike_id": "26c2250b633c97d7e886a2ba6690b71b", "fusion_lat": 0.0, "name": "26c2250b633c97d7e886a2ba6690b71b", "is_reserved": 0, "rental_uris": {"android": "https://dc.lft.to/lastmile_qr_scan", "ios": "https://dc.lft.to/lastmile_qr_scan"}, "fusion_lon": 0.0}, {"lat": 38.8971615, "is_disabled": 0, "type": "electric_scooter", "lon": -77.007962, "bike_id": "136fc9d7844e1b0fc68f813f61a9589f", "fusion_lat": 0.0, "name": "136fc9d7844e1b0fc68f813f61a9589f", "is_reserved": 0, "rental_uris": {"android": "https://dc.lft.to/lastmile_qr_scan", "ios": "https://dc.lft.to/lastmile_qr_scan"}, "fusion_lon": 0.0}, {"lat": 38.8980425, "is_disabled": 0, "type": "electric_scooter", "lon": -77.0503485, "bike_id": "3ef1123b62e9b909f7edf6a6d82c71e8", "fusion_lat": 0.0, "name": "3ef1123b62e9b909f7edf6a6d82c71e8", "is_reserved": 0, "rental_uris": {"android": "https://dc.lft.to/lastmile_qr_scan", "ios": "https://dc.lft.to/lastmile_qr_scan"}, "fusion_lon": 0.0}, {"lat": 38.926315, "is_disabled": 0, "type": "electric_scooter", "lon": -77.04187083333333, "bike_id": "09c4a5fae2bb06d5416146b19715d408", "fusion_lat": 0.0, "name": "09c4a5fae2bb06d5416146b19715d408", "is_reserved": 0, "rental_uris": {"android": "https://dc.lft.to/lastmile_qr_scan", "ios": "https://dc.lft.to/lastmile_qr_scan"}, "fusion_lon": 0.0}, {"lat": 38.9440665, "is_disabled": 0, "type": "electric_scooter", "lon": -77.06236716666666, "bike_id": "48ae9a76361be714daa1185edbbcfad2", "fusion_lat": 0.0, "name": "48ae9a76361be714daa1185edbbcfad2", "is_reserved": 0, "rental_uris": {"android": "https://dc.lft.to/lastmile_qr_scan", "ios": "https://dc.lft.to/lastmile_qr_scan"}, "fusion_lon": 0.0}, {"lat": 38.9202455, "is_disabled": 0, "type": "electric_scooter", "lon": -77.01326583333334, "bike_id": "49572d3a91d4272f377307c19f337acc", "fusion_lat": 0.0, "name": "49572d3a91d4272f377307c19f337acc", "is_reserved": 0, "rental_uris": {"android": "https://dc.lft.to/lastmile_qr_scan", "ios": "https://dc.lft.to/lastmile_qr_scan"}, "fusion_lon": 0.0}, {"lat": 38.9075115, "is_disabled": 0, "type": "electric_scooter", "lon": -76.999047, "bike_id": "9f970095b7cc3721e2eac0918f475e1a", "fusion_lat": 0.0, "name": "9f970095b7cc3721e2eac0918f475e1a", "is_reserved": 0, "rental_uris": {"android": "https://dc.lft.to/lastmile_qr_scan", "ios": "https://dc.lft.to/lastmile_qr_scan"}, "fusion_lon": 0.0}, {"lat": 38.927155166666665, "is_disabled": 0, "type": "electric_bike", "lon": -77.02964266666666, "bike_id": "6a177029969b77a5b9808987f46385a9", "fusion_lat": 0.0, "name": "6a177029969b77a5b9808987f46385a9", "is_reserved": 0, "rental_uris": {"android": "https://dc.lft.to/lastmile_qr_scan", "ios": "https://dc.lft.to/lastmile_qr_scan"}, "fusion_lon": 0.0}, {"lat": 38.89607016666667, "is_disabled": 0, "type": "electric_scooter", "lon": -77.04494383333333, "bike_id": "6b4f3039cbaa821471625dcdf6cb24fe", "fusion_lat": 0.0, "name": "6b4f3039cbaa821471625dcdf6cb24fe", "is_reserved": 0, "rental_uris": {"android": "https://dc.lft.to/lastmile_qr_scan", "ios": "https://dc.lft.to/lastmile_qr_scan"}, "fusion_lon": 0.0}, {"lat": 38.9374725, "is_disabled": 0, "type": "electric_scooter", "lon": -77.0345655, "bike_id": "71dd738c40a0d7fa6b96a69dc9658b88", "fusion_lat": 0.0, "name": "71dd738c40a0d7fa6b96a69dc9658b88", "is_reserved": 0, "rental_uris": {"android": "https://dc.lft.to/lastmile_qr_scan", "ios": "https://dc.lft.to/lastmile_qr_scan"}, "fusion_lon": 0.0}, {"lat": 38.89500116666667, "is_disabled": 0, "type": "electric_scooter", "lon": -77.0021515, "bike_id": "3199573167e4a581c1ce91d9b5ecaee4", "fusion_lat": 0.0, "name": "3199573167e4a581c1ce91d9b5ecaee4", "is_reserved": 0, "rental_uris": {"android": "https://dc.lft.to/lastmile_qr_scan", "ios": "https://dc.lft.to/lastmile_qr_scan"}, "fusion_lon": 0.0}, {"lat": 38.916425, "is_disabled": 0, "type": "electric_bike", "lon": -77.02132283333333, "bike_id": "289fbb03d13570f1f3a8fce89aae2bd4", "fusion_lat": 0.0, "name": "289fbb03d13570f1f3a8fce89aae2bd4", "is_reserved": 0, "rental_uris": {"android": "https://dc.lft.to/lastmile_qr_scan", "ios": "https://dc.lft.to/lastmile_qr_scan"}, "fusion_lon": 0.0}, {"lat": 38.91559766666666, "is_disabled": 0, "type": "electric_scooter", "lon": -77.0298305, "bike_id": "3882425e7d982d16746a217cfe9b4606", "fusion_lat": 0.0, "name": "3882425e7d982d16746a217cfe9b4606", "is_reserved": 0, "rental_uris": {"android": "https://dc.lft.to/lastmile_qr_scan", "ios": "https://dc.lft.to/lastmile_qr_scan"}, "fusion_lon": 0.0}, {"lat": 38.9962575, "is_disabled": 0, "type": "electric_bike", "lon": -77.02967933333333, "bike_id": "c926cc4be8ff962e89457890763e6155", "fusion_lat": 0.0, "name": "c926cc4be8ff962e89457890763e6155", "is_reserved": 0, "rental_uris": {"android": "https://dc.lft.to/lastmile_qr_scan", "ios": "https://dc.lft.to/lastmile_qr_scan"}, "fusion_lon": 0.0}, {"lat": 38.907355833333334, "is_disabled": 0, "type": "electric_scooter", "lon": -77.02802616666666, "bike_id": "a5fcbb31792144f78eef269b5d023a4a", "fusion_lat": 0.0, "name": "a5fcbb31792144f78eef269b5d023a4a", "is_reserved": 0, "rental_uris": {"android": "https://dc.lft.to/lastmile_qr_scan", "ios": "https://dc.lft.to/lastmile_qr_scan"}, "fusion_lon": 0.0}, {"lat": 38.92699183333333, "is_disabled": 0, "type": "electric_scooter", "lon": -77.02076833333334, "bike_id": "0c18472f4cc301037fb2f215738ffe37", "fusion_lat": 0.0, "name": "0c18472f4cc301037fb2f215738ffe37", "is_reserved": 0, "rental_uris": {"android": "https://dc.lft.to/lastmile_qr_scan", "ios": "https://dc.lft.to/lastmile_qr_scan"}, "fusion_lon": 0.0}, {"lat": 38.914222, "is_disabled": 0, "type": "electric_scooter", "lon": -77.02201633333334, "bike_id": "cea889781c863ed65d61ce06450dba4a", "fusion_lat": 0.0, "name": "cea889781c863ed65d61ce06450dba4a", "is_reserved": 0, "rental_uris": {"android": "https://dc.lft.to/lastmile_qr_scan", "ios": "https://dc.lft.to/lastmile_qr_scan"}, "fusion_lon": 0.0}, {"lat": 38.91819683333333, "is_disabled": 0, "type": "electric_scooter", "lon": -77.03913716666666, "bike_id": "1c1f1af7258478471da50bd13b1c7448", "fusion_lat": 0.0, "name": "1c1f1af7258478471da50bd13b1c7448", "is_reserved": 0, "rental_uris": {"android": "https://dc.lft.to/lastmile_qr_scan", "ios": "https://dc.lft.to/lastmile_qr_scan"}, "fusion_lon": 0.0}, {"lat": 38.903746, "is_disabled": 0, "type": "electric_scooter", "lon": -77.0399535, "bike_id": "43390221a4a7f21d373778ac56ea0042", "fusion_lat": 0.0, "name": "43390221a4a7f21d373778ac56ea0042", "is_reserved": 0, "rental_uris": {"android": "https://dc.lft.to/lastmile_qr_scan", "ios": "https://dc.lft.to/lastmile_qr_scan"}, "fusion_lon": 0.0}, {"lat": 38.907544666666666, "is_disabled": 0, "type": "electric_scooter", "lon": -77.03602866666667, "bike_id": "45a2af4aff851789ef3e8535795690cc", "fusion_lat": 0.0, "name": "45a2af4aff851789ef3e8535795690cc", "is_reserved": 0, "rental_uris": {"android": "https://dc.lft.to/lastmile_qr_scan", "ios": "https://dc.lft.to/lastmile_qr_scan"}, "fusion_lon": 0.0}, {"lat": 38.953983, "is_disabled": 0, "type": "electric_scooter", "lon": -77.036326, "bike_id": "4fb06568d5735c7bb1c123fb75b0b4ed", "fusion_lat": 0.0, "name": "4fb06568d5735c7bb1c123fb75b0b4ed", "is_reserved": 0, "rental_uris": {"android": "https://dc.lft.to/lastmile_qr_scan", "ios": "https://dc.lft.to/lastmile_qr_scan"}, "fusion_lon": 0.0}, {"lat": 38.90501583333333, "is_disabled": 0, "type": "electric_scooter", "lon": -77.028161, "bike_id": "56e80ea7d3e8fb73fb641397c2e0bc89", "fusion_lat": 0.0, "name": "56e80ea7d3e8fb73fb641397c2e0bc89", "is_reserved": 0, "rental_uris": {"android": "https://dc.lft.to/lastmile_qr_scan", "ios": "https://dc.lft.to/lastmile_qr_scan"}, "fusion_lon": 0.0}, {"lat": 38.8691335, "is_disabled": 0, "type": "electric_bike", "lon": -77.13179533333333, "bike_id": "5a9c791c9542225575baccbf18ee4c57", "fusion_lat": 0.0, "name": "5a9c791c9542225575baccbf18ee4c57", "is_reserved": 0, "rental_uris": {"android": "https://dc.lft.to/lastmile_qr_scan", "ios": "https://dc.lft.to/lastmile_qr_scan"}, "fusion_lon": 0.0}, {"lat": 38.90765616666667, "is_disabled": 0, "type": "electric_scooter", "lon": -77.042567, "bike_id": "35097f1d1b061ebbe11e366d7d8b0671", "fusion_lat": 0.0, "name": "35097f1d1b061ebbe11e366d7d8b0671", "is_reserved": 0, "rental_uris": {"android": "https://dc.lft.to/lastmile_qr_scan", "ios": "https://dc.lft.to/lastmile_qr_scan"}, "fusion_lon": 0.0}, {"lat": 38.91044933333333, "is_disabled": 0, "type": "electric_scooter", "lon": -77.015089, "bike_id": "8cdef37f7fb5c90525e02493f5103066", "fusion_lat": 0.0, "name": "8cdef37f7fb5c90525e02493f5103066", "is_reserved": 0, "rental_uris": {"android": "https://dc.lft.to/lastmile_qr_scan", "ios": "https://dc.lft.to/lastmile_qr_scan"}, "fusion_lon": 0.0}, {"lat": 38.92005283333334, "is_disabled": 0, "type": "electric_scooter", "lon": -77.0205875, "bike_id": "ef0e5ecfb40f30c2ddeebb335a8d9767", "fusion_lat": 0.0, "name": "ef0e5ecfb40f30c2ddeebb335a8d9767", "is_reserved": 0, "rental_uris": {"android": "https://dc.lft.to/lastmile_qr_scan", "ios": "https://dc.lft.to/lastmile_qr_scan"}, "fusion_lon": 0.0}, {"lat": 38.9195285, "is_disabled": 0, "type": "electric_scooter", "lon": -77.02478533333333, "bike_id": "9a2c20205ef5963e954fe4026a71c94a", "fusion_lat": 0.0, "name": "9a2c20205ef5963e954fe4026a71c94a", "is_reserved": 0, "rental_uris": {"android": "https://dc.lft.to/lastmile_qr_scan", "ios": "https://dc.lft.to/lastmile_qr_scan"}, "fusion_lon": 0.0}, {"lat": 38.80441016666666, "is_disabled": 0, "type": "electric_bike", "lon": -77.06090233333333, "bike_id": "7dfb8eb2c8b7dd6276182fcc19ba454f", "fusion_lat": 0.0, "name": "7dfb8eb2c8b7dd6276182fcc19ba454f", "is_reserved": 0, "rental_uris": {"android": "https://dc.lft.to/lastmile_qr_scan", "ios": "https://dc.lft.to/lastmile_qr_scan"}, "fusion_lon": 0.0}, {"lat": 39.015780666666664, "is_disabled": 0, "type": "electric_bike", "lon": -77.042362, "bike_id": "57cb1d3928e7b02f80883d65d63e300f", "fusion_lat": 0.0, "name": "57cb1d3928e7b02f80883d65d63e300f", "is_reserved": 0, "rental_uris": {"android": "https://dc.lft.to/lastmile_qr_scan", "ios": "https://dc.lft.to/lastmile_qr_scan"}, "fusion_lon": 0.0}, {"lat": 38.905513166666665, "is_disabled": 0, "type": "electric_scooter", "lon": -77.05710183333333, "bike_id": "d2bbb2f43accb3bce7cff8e489b85c3f", "fusion_lat": 0.0, "name": "d2bbb2f43accb3bce7cff8e489b85c3f", "is_reserved": 0, "rental_uris": {"android": "https://dc.lft.to/lastmile_qr_scan", "ios": "https://dc.lft.to/lastmile_qr_scan"}, "fusion_lon": 0.0}, {"lat": 38.920906, "is_disabled": 0, "type": "electric_scooter", "lon": -77.04209783333333, "bike_id": "2e1f78c8218eb126663e4463231d4161", "fusion_lat": 0.0, "name": "2e1f78c8218eb126663e4463231d4161", "is_reserved": 0, "rental_uris": {"android": "https://dc.lft.to/lastmile_qr_scan", "ios": "https://dc.lft.to/lastmile_qr_scan"}, "fusion_lon": 0.0}, {"lat": 38.897146, "is_disabled": 0, "type": "electric_scooter", "lon": -77.00799483333333, "bike_id": "c2dd48a9a02c8fdeb3f7554ff750d084", "fusion_lat": 0.0, "name": "c2dd48a9a02c8fdeb3f7554ff750d084", "is_reserved": 0, "rental_uris": {"android": "https://dc.lft.to/lastmile_qr_scan", "ios": "https://dc.lft.to/lastmile_qr_scan"}, "fusion_lon": 0.0}, {"lat": 38.9587935, "is_disabled": 0, "type": "electric_bike", "lon": -77.010321, "bike_id": "a49d3d560bc4d2194e29d068f92a0dc4", "fusion_lat": 0.0, "name": "a49d3d560bc4d2194e29d068f92a0dc4", "is_reserved": 0, "rental_uris": {"android": "https://dc.lft.to/lastmile_qr_scan", "ios": "https://dc.lft.to/lastmile_qr_scan"}, "fusion_lon": 0.0}, {"lat": 38.92196583333333, "is_disabled": 0, "type": "electric_scooter", "lon": -77.04015433333333, "bike_id": "6606a94305c11d68d153dfdafde7a0f7", "fusion_lat": 0.0, "name": "6606a94305c11d68d153dfdafde7a0f7", "is_reserved": 0, "rental_uris": {"android": "https://dc.lft.to/lastmile_qr_scan", "ios": "https://dc.lft.to/lastmile_qr_scan"}, "fusion_lon": 0.0}, {"lat": 38.90978333333334, "is_disabled": 0, "type": "electric_scooter", "lon": -77.03442816666667, "bike_id": "184e523c61e8fe40456c02e8438d0d43", "fusion_lat": 0.0, "name": "184e523c61e8fe40456c02e8438d0d43", "is_reserved": 0, "rental_uris": {"android": "https://dc.lft.to/lastmile_qr_scan", "ios": "https://dc.lft.to/lastmile_qr_scan"}, "fusion_lon": 0.0}, {"lat": 38.890428666666665, "is_disabled": 0, "type": "electric_scooter", "lon": -76.9513855, "bike_id": "44ce2751f45d05ef4ba4c12ed42a8206", "fusion_lat": 0.0, "name": "44ce2751f45d05ef4ba4c12ed42a8206", "is_reserved": 0, "rental_uris": {"android": "https://dc.lft.to/lastmile_qr_scan", "ios": "https://dc.lft.to/lastmile_qr_scan"}, "fusion_lon": 0.0}, {"lat": 38.880579833333336, "is_disabled": 0, "type": "electric_scooter", "lon": -77.02482833333333, "bike_id": "e48a0c21451ec49d1c3835206aaff688", "fusion_lat": 0.0, "name": "e48a0c21451ec49d1c3835206aaff688", "is_reserved": 0, "rental_uris": {"android": "https://dc.lft.to/lastmile_qr_scan", "ios": "https://dc.lft.to/lastmile_qr_scan"}, "fusion_lon": 0.0}, {"lat": 38.955719, "is_disabled": 0, "type": "electric_scooter", "lon": -77.0700595, "bike_id": "8bc8e00d351da3b5f6990db43112875c", "fusion_lat": 0.0, "name": "8bc8e00d351da3b5f6990db43112875c", "is_reserved": 0, "rental_uris": {"android": "https://dc.lft.to/lastmile_qr_scan", "ios": "https://dc.lft.to/lastmile_qr_scan"}, "fusion_lon": 0.0}, {"lat": 38.912033, "is_disabled": 0, "type": "electric_scooter", "lon": -77.04490366666667, "bike_id": "205ac7679f760609495140138d6c4aaf", "fusion_lat": 0.0, "name": "205ac7679f760609495140138d6c4aaf", "is_reserved": 0, "rental_uris": {"android": "https://dc.lft.to/lastmile_qr_scan", "ios": "https://dc.lft.to/lastmile_qr_scan"}, "fusion_lon": 0.0}, {"lat": 38.89936683333333, "is_disabled": 0, "type": "electric_scooter", "lon": -77.03291033333333, "bike_id": "66c086c8f0534e30ebf40b1b7ecf5f1a", "fusion_lat": 0.0, "name": "66c086c8f0534e30ebf40b1b7ecf5f1a", "is_reserved": 0, "rental_uris": {"android": "https://dc.lft.to/lastmile_qr_scan", "ios": "https://dc.lft.to/lastmile_qr_scan"}, "fusion_lon": 0.0}, {"lat": 38.9225535, "is_disabled": 0, "type": "electric_scooter", "lon": -77.0338695, "bike_id": "8e93d6ec7e9503991f984c40f4753c9b", "fusion_lat": 0.0, "name": "8e93d6ec7e9503991f984c40f4753c9b", "is_reserved": 0, "rental_uris": {"android": "https://dc.lft.to/lastmile_qr_scan", "ios": "https://dc.lft.to/lastmile_qr_scan"}, "fusion_lon": 0.0}, {"lat": 38.940968833333336, "is_disabled": 0, "type": "electric_scooter", "lon": -77.02110616666667, "bike_id": "56f64b0af1ad35978609c7527cf1be28", "fusion_lat": 0.0, "name": "56f64b0af1ad35978609c7527cf1be28", "is_reserved": 0, "rental_uris": {"android": "https://dc.lft.to/lastmile_qr_scan", "ios": "https://dc.lft.to/lastmile_qr_scan"}, "fusion_lon": 0.0}, {"lat": 38.8550605, "is_disabled": 0, "type": "electric_bike", "lon": -77.12012916666667, "bike_id": "7923d13c47e618cf6835bf5507ab752e", "fusion_lat": 0.0, "name": "7923d13c47e618cf6835bf5507ab752e", "is_reserved": 0, "rental_uris": {"android": "https://dc.lft.to/lastmile_qr_scan", "ios": "https://dc.lft.to/lastmile_qr_scan"}, "fusion_lon": 0.0}, {"lat": 38.908433333333335, "is_disabled": 0, "type": "electric_scooter", "lon": -77.038516, "bike_id": "e620bb79418677c4af1d05f241b9bc45", "fusion_lat": 0.0, "name": "e620bb79418677c4af1d05f241b9bc45", "is_reserved": 0, "rental_uris": {"android": "https://dc.lft.to/lastmile_qr_scan", "ios": "https://dc.lft.to/lastmile_qr_scan"}, "fusion_lon": 0.0}, {"lat": 38.9056605, "is_disabled": 0, "type": "electric_scooter", "lon": -77.01954283333333, "bike_id": "132376bfe5a01cfb9edcafc30b9aa621", "fusion_lat": 0.0, "name": "132376bfe5a01cfb9edcafc30b9aa621", "is_reserved": 0, "rental_uris": {"android": "https://dc.lft.to/lastmile_qr_scan", "ios": "https://dc.lft.to/lastmile_qr_scan"}, "fusion_lon": 0.0}, {"lat": 38.944353, "is_disabled": 0, "type": "electric_scooter", "lon": -77.01505016666667, "bike_id": "eb9085eda0d5c106f2c2ccab8788a0e0", "fusion_lat": 0.0, "name": "eb9085eda0d5c106f2c2ccab8788a0e0", "is_reserved": 0, "rental_uris": {"android": "https://dc.lft.to/lastmile_qr_scan", "ios": "https://dc.lft.to/lastmile_qr_scan"}, "fusion_lon": 0.0}, {"lat": 38.943904833333335, "is_disabled": 0, "type": "electric_scooter", "lon": -77.0198345, "bike_id": "0fb9e11e36b9ebfabeb39d20cb4dddd5", "fusion_lat": 0.0, "name": "0fb9e11e36b9ebfabeb39d20cb4dddd5", "is_reserved": 0, "rental_uris": {"android": "https://dc.lft.to/lastmile_qr_scan", "ios": "https://dc.lft.to/lastmile_qr_scan"}, "fusion_lon": 0.0}, {"lat": 38.91698316666667, "is_disabled": 0, "type": "electric_scooter", "lon": -77.02964433333334, "bike_id": "53a9b1f34b568547d180e3106dae9148", "fusion_lat": 0.0, "name": "53a9b1f34b568547d180e3106dae9148", "is_reserved": 0, "rental_uris": {"android": "https://dc.lft.to/lastmile_qr_scan", "ios": "https://dc.lft.to/lastmile_qr_scan"}, "fusion_lon": 0.0}, {"lat": 38.90207066666667, "is_disabled": 0, "type": "electric_scooter", "lon": -77.02675433333333, "bike_id": "9971873bc2ed3c72a9df04ca9c8b3bff", "fusion_lat": 0.0, "name": "9971873bc2ed3c72a9df04ca9c8b3bff", "is_reserved": 0, "rental_uris": {"android": "https://dc.lft.to/lastmile_qr_scan", "ios": "https://dc.lft.to/lastmile_qr_scan"}, "fusion_lon": 0.0}, {"lat": 38.8518935, "is_disabled": 0, "type": "electric_bike", "lon": -76.96110316666666, "bike_id": "d7e75a90493cedca273ef1db25e69084", "fusion_lat": 0.0, "name": "d7e75a90493cedca273ef1db25e69084", "is_reserved": 0, "rental_uris": {"android": "https://dc.lft.to/lastmile_qr_scan", "ios": "https://dc.lft.to/lastmile_qr_scan"}, "fusion_lon": 0.0}, {"lat": 38.9006885, "is_disabled": 0, "type": "electric_scooter", "lon": -77.00211833333333, "bike_id": "4f13f32f4aa312fb59ec26db155048e6", "fusion_lat": 0.0, "name": "4f13f32f4aa312fb59ec26db155048e6", "is_reserved": 0, "rental_uris": {"android": "https://dc.lft.to/lastmile_qr_scan", "ios": "https://dc.lft.to/lastmile_qr_scan"}, "fusion_lon": 0.0}, {"lat": 38.914102, "is_disabled": 0, "type": "electric_scooter", "lon": -77.03154716666667, "bike_id": "11b57a16db43d6dc5398eedd4ee7f883", "fusion_lat": 0.0, "name": "11b57a16db43d6dc5398eedd4ee7f883", "is_reserved": 0, "rental_uris": {"android": "https://dc.lft.to/lastmile_qr_scan", "ios": "https://dc.lft.to/lastmile_qr_scan"}, "fusion_lon": 0.0}, {"lat": 38.93014766666667, "is_disabled": 0, "type": "electric_scooter", "lon": -77.04453016666666, "bike_id": "294ab78097310148e0170bdba442e9bb", "fusion_lat": 0.0, "name": "294ab78097310148e0170bdba442e9bb", "is_reserved": 0, "rental_uris": {"android": "https://dc.lft.to/lastmile_qr_scan", "ios": "https://dc.lft.to/lastmile_qr_scan"}, "fusion_lon": 0.0}, {"lat": 38.897033666666665, "is_disabled": 0, "type": "electric_scooter", "lon": -77.04879566666666, "bike_id": "3e3cd92b728b50a6b46b81074437cbe2", "fusion_lat": 0.0, "name": "3e3cd92b728b50a6b46b81074437cbe2", "is_reserved": 0, "rental_uris": {"android": "https://dc.lft.to/lastmile_qr_scan", "ios": "https://dc.lft.to/lastmile_qr_scan"}, "fusion_lon": 0.0}, {"lat": 38.9435215, "is_disabled": 0, "type": "electric_scooter", "lon": -77.00215966666667, "bike_id": "7ca9c809e0cc07e50fc399651d198708", "fusion_lat": 0.0, "name": "7ca9c809e0cc07e50fc399651d198708", "is_reserved": 0, "rental_uris": {"android": "https://dc.lft.to/lastmile_qr_scan", "ios": "https://dc.lft.to/lastmile_qr_scan"}, "fusion_lon": 0.0}, {"lat": 38.895556, "is_disabled": 0, "type": "electric_scooter", "lon": -77.00916316666667, "bike_id": "bd98bfe6f2228d428afe98eaaec188c0", "fusion_lat": 0.0, "name": "bd98bfe6f2228d428afe98eaaec188c0", "is_reserved": 0, "rental_uris": {"android": "https://dc.lft.to/lastmile_qr_scan", "ios": "https://dc.lft.to/lastmile_qr_scan"}, "fusion_lon": 0.0}, {"lat": 38.91526366666667, "is_disabled": 0, "type": "electric_scooter", "lon": -77.03207016666667, "bike_id": "175356a172aa89fc4e48cf5b548663b7", "fusion_lat": 0.0, "name": "175356a172aa89fc4e48cf5b548663b7", "is_reserved": 0, "rental_uris": {"android": "https://dc.lft.to/lastmile_qr_scan", "ios": "https://dc.lft.to/lastmile_qr_scan"}, "fusion_lon": 0.0}, {"lat": 38.911910166666665, "is_disabled": 0, "type": "electric_scooter", "lon": -77.01076883333333, "bike_id": "f0faad232c0d9b03dd3fdac418c75d72", "fusion_lat": 0.0, "name": "f0faad232c0d9b03dd3fdac418c75d72", "is_reserved": 0, "rental_uris": {"android": "https://dc.lft.to/lastmile_qr_scan", "ios": "https://dc.lft.to/lastmile_qr_scan"}, "fusion_lon": 0.0}, {"lat": 38.935632, "is_disabled": 0, "type": "electric_scooter", "lon": -77.03274566666667, "bike_id": "5e4b085a9a91dd118619b11a029a6a92", "fusion_lat": 0.0, "name": "5e4b085a9a91dd118619b11a029a6a92", "is_reserved": 0, "rental_uris": {"android": "https://dc.lft.to/lastmile_qr_scan", "ios": "https://dc.lft.to/lastmile_qr_scan"}, "fusion_lon": 0.0}, {"lat": 38.89707, "is_disabled": 0, "type": "electric_scooter", "lon": -77.00842233333333, "bike_id": "a83589983d7fc51921ae7a46d67b1dbd", "fusion_lat": 0.0, "name": "a83589983d7fc51921ae7a46d67b1dbd", "is_reserved": 0, "rental_uris": {"android": "https://dc.lft.to/lastmile_qr_scan", "ios": "https://dc.lft.to/lastmile_qr_scan"}, "fusion_lon": 0.0}, {"lat": 38.932589, "is_disabled": 0, "type": "electric_scooter", "lon": -77.03459116666667, "bike_id": "84ee94cc38445aede5bf4ae4534027e3", "fusion_lat": 0.0, "name": "84ee94cc38445aede5bf4ae4534027e3", "is_reserved": 0, "rental_uris": {"android": "https://dc.lft.to/lastmile_qr_scan", "ios": "https://dc.lft.to/lastmile_qr_scan"}, "fusion_lon": 0.0}, {"lat": 38.92578433333333, "is_disabled": 0, "type": "electric_scooter", "lon": -77.0283285, "bike_id": "e034f471bbb2c4c54e4dea000cefe86d", "fusion_lat": 0.0, "name": "e034f471bbb2c4c54e4dea000cefe86d", "is_reserved": 0, "rental_uris": {"android": "https://dc.lft.to/lastmile_qr_scan", "ios": "https://dc.lft.to/lastmile_qr_scan"}, "fusion_lon": 0.0}, {"lat": 38.9126005, "is_disabled": 0, "type": "electric_scooter", "lon": -77.03798766666667, "bike_id": "117a6b862bb0617fc512f1bf03f198d4", "fusion_lat": 0.0, "name": "117a6b862bb0617fc512f1bf03f198d4", "is_reserved": 0, "rental_uris": {"android": "https://dc.lft.to/lastmile_qr_scan", "ios": "https://dc.lft.to/lastmile_qr_scan"}, "fusion_lon": 0.0}, {"lat": 38.90367883333333, "is_disabled": 0, "type": "electric_scooter", "lon": -76.992312, "bike_id": "2e3cb98dd01122ba1e321407ffd35724", "fusion_lat": 0.0, "name": "2e3cb98dd01122ba1e321407ffd35724", "is_reserved": 0, "rental_uris": {"android": "https://dc.lft.to/lastmile_qr_scan", "ios": "https://dc.lft.to/lastmile_qr_scan"}, "fusion_lon": 0.0}, {"lat": 38.90806716666667, "is_disabled": 0, "type": "electric_scooter", "lon": -77.00100616666667, "bike_id": "88dabb18e33aba431f6515f739f2e0b0", "fusion_lat": 0.0, "name": "88dabb18e33aba431f6515f739f2e0b0", "is_reserved": 0, "rental_uris": {"android": "https://dc.lft.to/lastmile_qr_scan", "ios": "https://dc.lft.to/lastmile_qr_scan"}, "fusion_lon": 0.0}, {"lat": 38.9170505, "is_disabled": 0, "type": "electric_scooter", "lon": -77.033465, "bike_id": "a4506b75e53dd00c696e00af0034a577", "fusion_lat": 0.0, "name": "a4506b75e53dd00c696e00af0034a577", "is_reserved": 0, "rental_uris": {"android": "https://dc.lft.to/lastmile_qr_scan", "ios": "https://dc.lft.to/lastmile_qr_scan"}, "fusion_lon": 0.0}, {"lat": 38.93472933333334, "is_disabled": 0, "type": "electric_scooter", "lon": -77.04116116666667, "bike_id": "6ed2167c277d5641c012d2e553019325", "fusion_lat": 0.0, "name": "6ed2167c277d5641c012d2e553019325", "is_reserved": 0, "rental_uris": {"android": "https://dc.lft.to/lastmile_qr_scan", "ios": "https://dc.lft.to/lastmile_qr_scan"}, "fusion_lon": 0.0}, {"lat": 38.895545, "is_disabled": 0, "type": "electric_scooter", "lon": -77.00916533333333, "bike_id": "a7a2a844a99b28b262983c7f9f7ff209", "fusion_lat": 0.0, "name": "a7a2a844a99b28b262983c7f9f7ff209", "is_reserved": 0, "rental_uris": {"android": "https://dc.lft.to/lastmile_qr_scan", "ios": "https://dc.lft.to/lastmile_qr_scan"}, "fusion_lon": 0.0}, {"lat": 38.897326166666666, "is_disabled": 0, "type": "electric_scooter", "lon": -77.023856, "bike_id": "2045c93ca3311152217944a88de1bcf7", "fusion_lat": 0.0, "name": "2045c93ca3311152217944a88de1bcf7", "is_reserved": 0, "rental_uris": {"android": "https://dc.lft.to/lastmile_qr_scan", "ios": "https://dc.lft.to/lastmile_qr_scan"}, "fusion_lon": 0.0}, {"lat": 38.94437033333333, "is_disabled": 0, "type": "electric_scooter", "lon": -77.02342183333333, "bike_id": "04a4081b7ac25828346523c0fc7d0d31", "fusion_lat": 0.0, "name": "04a4081b7ac25828346523c0fc7d0d31", "is_reserved": 0, "rental_uris": {"android": "https://dc.lft.to/lastmile_qr_scan", "ios": "https://dc.lft.to/lastmile_qr_scan"}, "fusion_lon": 0.0}, {"lat": 38.90459633333333, "is_disabled": 0, "type": "electric_scooter", "lon": -77.06291433333334, "bike_id": "2f2c51d9b6f08fd4f4d6617b139059d1", "fusion_lat": 0.0, "name": "2f2c51d9b6f08fd4f4d6617b139059d1", "is_reserved": 0, "rental_uris": {"android": "https://dc.lft.to/lastmile_qr_scan", "ios": "https://dc.lft.to/lastmile_qr_scan"}, "fusion_lon": 0.0}, {"lat": 38.9292375, "is_disabled": 0, "type": "electric_scooter", "lon": -77.03264766666666, "bike_id": "b0e844a68ed671558790de8910794234", "fusion_lat": 0.0, "name": "b0e844a68ed671558790de8910794234", "is_reserved": 0, "rental_uris": {"android": "https://dc.lft.to/lastmile_qr_scan", "ios": "https://dc.lft.to/lastmile_qr_scan"}, "fusion_lon": 0.0}, {"lat": 38.927639166666665, "is_disabled": 0, "type": "electric_scooter", "lon": -77.02617616666667, "bike_id": "347359b63133a4fccb53830be91789ed", "fusion_lat": 0.0, "name": "347359b63133a4fccb53830be91789ed", "is_reserved": 0, "rental_uris": {"android": "https://dc.lft.to/lastmile_qr_scan", "ios": "https://dc.lft.to/lastmile_qr_scan"}, "fusion_lon": 0.0}, {"lat": 38.913282, "is_disabled": 0, "type": "electric_scooter", "lon": -77.03181966666666, "bike_id": "58ad97e3d9a7ca1fa6ce9d8145f79af7", "fusion_lat": 0.0, "name": "58ad97e3d9a7ca1fa6ce9d8145f79af7", "is_reserved": 0, "rental_uris": {"android": "https://dc.lft.to/lastmile_qr_scan", "ios": "https://dc.lft.to/lastmile_qr_scan"}, "fusion_lon": 0.0}, {"lat": 38.98141533333333, "is_disabled": 0, "type": "electric_bike", "lon": -77.007658, "bike_id": "eea0cc4793d446b90c518c36f4bb5890", "fusion_lat": 0.0, "name": "eea0cc4793d446b90c518c36f4bb5890", "is_reserved": 0, "rental_uris": {"android": "https://dc.lft.to/lastmile_qr_scan", "ios": "https://dc.lft.to/lastmile_qr_scan"}, "fusion_lon": 0.0}, {"lat": 38.90391733333333, "is_disabled": 0, "type": "electric_scooter", "lon": -77.0480735, "bike_id": "4676a538561c70fa7a982caa4ef6e69c", "fusion_lat": 0.0, "name": "4676a538561c70fa7a982caa4ef6e69c", "is_reserved": 0, "rental_uris": {"android": "https://dc.lft.to/lastmile_qr_scan", "ios": "https://dc.lft.to/lastmile_qr_scan"}, "fusion_lon": 0.0}, {"lat": 38.8573025, "is_disabled": 0, "type": "electric_scooter", "lon": -76.99435783333334, "bike_id": "649e889660cd959a4fe5306785ec3171", "fusion_lat": 0.0, "name": "649e889660cd959a4fe5306785ec3171", "is_reserved": 0, "rental_uris": {"android": "https://dc.lft.to/lastmile_qr_scan", "ios": "https://dc.lft.to/lastmile_qr_scan"}, "fusion_lon": 0.0}, {"lat": 38.9171865, "is_disabled": 0, "type": "electric_scooter", "lon": -77.03664166666667, "bike_id": "956364884afc217be5e48707f6a079e8", "fusion_lat": 0.0, "name": "956364884afc217be5e48707f6a079e8", "is_reserved": 0, "rental_uris": {"android": "https://dc.lft.to/lastmile_qr_scan", "ios": "https://dc.lft.to/lastmile_qr_scan"}, "fusion_lon": 0.0}, {"lat": 38.954095, "is_disabled": 0, "type": "electric_bike", "lon": -76.98058583333334, "bike_id": "93e455a1e012e4f21e12496759b2165d", "fusion_lat": 0.0, "name": "93e455a1e012e4f21e12496759b2165d", "is_reserved": 0, "rental_uris": {"android": "https://dc.lft.to/lastmile_qr_scan", "ios": "https://dc.lft.to/lastmile_qr_scan"}, "fusion_lon": 0.0}, {"lat": 38.924488, "is_disabled": 0, "type": "electric_scooter", "lon": -77.04025166666666, "bike_id": "f84810cc015974ac2ccab3ed65ff97d6", "fusion_lat": 0.0, "name": "f84810cc015974ac2ccab3ed65ff97d6", "is_reserved": 0, "rental_uris": {"android": "https://dc.lft.to/lastmile_qr_scan", "ios": "https://dc.lft.to/lastmile_qr_scan"}, "fusion_lon": 0.0}, {"lat": 38.873465833333334, "is_disabled": 0, "type": "electric_scooter", "lon": -76.99167166666666, "bike_id": "8610dd53b464af82945a46b3b42a4856", "fusion_lat": 0.0, "name": "8610dd53b464af82945a46b3b42a4856", "is_reserved": 0, "rental_uris": {"android": "https://dc.lft.to/lastmile_qr_scan", "ios": "https://dc.lft.to/lastmile_qr_scan"}, "fusion_lon": 0.0}, {"lat": 38.907168166666665, "is_disabled": 0, "type": "electric_scooter", "lon": -77.027503, "bike_id": "c346fb294800ac3e39f8cd407dd59336", "fusion_lat": 0.0, "name": "c346fb294800ac3e39f8cd407dd59336", "is_reserved": 0, "rental_uris": {"android": "https://dc.lft.to/lastmile_qr_scan", "ios": "https://dc.lft.to/lastmile_qr_scan"}, "fusion_lon": 0.0}, {"lat": 38.919045, "is_disabled": 0, "type": "electric_scooter", "lon": -77.0246155, "bike_id": "dcd9ca409ad474072fe4854c0f2474de", "fusion_lat": 0.0, "name": "dcd9ca409ad474072fe4854c0f2474de", "is_reserved": 0, "rental_uris": {"android": "https://dc.lft.to/lastmile_qr_scan", "ios": "https://dc.lft.to/lastmile_qr_scan"}, "fusion_lon": 0.0}, {"lat": 38.9061935, "is_disabled": 0, "type": "electric_scooter", "lon": -77.02179583333333, "bike_id": "239d0f3d24c1d63a5f253de94d36e450", "fusion_lat": 0.0, "name": "239d0f3d24c1d63a5f253de94d36e450", "is_reserved": 0, "rental_uris": {"android": "https://dc.lft.to/lastmile_qr_scan", "ios": "https://dc.lft.to/lastmile_qr_scan"}, "fusion_lon": 0.0}, {"lat": 38.90064783333333, "is_disabled": 0, "type": "electric_scooter", "lon": -77.04404083333333, "bike_id": "210e0d2eaa7758e046bd7fa22e4cec4c", "fusion_lat": 0.0, "name": "210e0d2eaa7758e046bd7fa22e4cec4c", "is_reserved": 0, "rental_uris": {"android": "https://dc.lft.to/lastmile_qr_scan", "ios": "https://dc.lft.to/lastmile_qr_scan"}, "fusion_lon": 0.0}, {"lat": 38.876295166666665, "is_disabled": 0, "type": "electric_scooter", "lon": -76.96524533333333, "bike_id": "ebb9fc6d677fefec7b848389b91595c6", "fusion_lat": 0.0, "name": "ebb9fc6d677fefec7b848389b91595c6", "is_reserved": 0, "rental_uris": {"android": "https://dc.lft.to/lastmile_qr_scan", "ios": "https://dc.lft.to/lastmile_qr_scan"}, "fusion_lon": 0.0}, {"lat": 38.91566316666667, "is_disabled": 0, "type": "electric_scooter", "lon": -77.0200605, "bike_id": "e1649979546d3e17a3316050824b08da", "fusion_lat": 0.0, "name": "e1649979546d3e17a3316050824b08da", "is_reserved": 0, "rental_uris": {"android": "https://dc.lft.to/lastmile_qr_scan", "ios": "https://dc.lft.to/lastmile_qr_scan"}, "fusion_lon": 0.0}, {"lat": 38.90129816666666, "is_disabled": 0, "type": "electric_scooter", "lon": -77.0330315, "bike_id": "aa7149331e1034bf93cf2d366adb29f2", "fusion_lat": 0.0, "name": "aa7149331e1034bf93cf2d366adb29f2", "is_reserved": 0, "rental_uris": {"android": "https://dc.lft.to/lastmile_qr_scan", "ios": "https://dc.lft.to/lastmile_qr_scan"}, "fusion_lon": 0.0}, {"lat": 38.921411166666665, "is_disabled": 0, "type": "electric_scooter", "lon": -77.04364966666667, "bike_id": "00178d739b4e07bd30e8a9b1b7414b31", "fusion_lat": 0.0, "name": "00178d739b4e07bd30e8a9b1b7414b31", "is_reserved": 0, "rental_uris": {"android": "https://dc.lft.to/lastmile_qr_scan", "ios": "https://dc.lft.to/lastmile_qr_scan"}, "fusion_lon": 0.0}, {"lat": 38.907611333333335, "is_disabled": 0, "type": "electric_scooter", "lon": -77.07024483333333, "bike_id": "9e689763165b3824888d3462a0460ccc", "fusion_lat": 0.0, "name": "9e689763165b3824888d3462a0460ccc", "is_reserved": 0, "rental_uris": {"android": "https://dc.lft.to/lastmile_qr_scan", "ios": "https://dc.lft.to/lastmile_qr_scan"}, "fusion_lon": 0.0}, {"lat": 38.9178575, "is_disabled": 0, "type": "electric_scooter", "lon": -77.04329983333334, "bike_id": "7c1240ebbb7158a6cd7bff37106ac650", "fusion_lat": 0.0, "name": "7c1240ebbb7158a6cd7bff37106ac650", "is_reserved": 0, "rental_uris": {"android": "https://dc.lft.to/lastmile_qr_scan", "ios": "https://dc.lft.to/lastmile_qr_scan"}, "fusion_lon": 0.0}, {"lat": 38.907314666666664, "is_disabled": 0, "type": "electric_scooter", "lon": -76.93546483333333, "bike_id": "8f7656f60c8540ef9db2cb9b44bb669e", "fusion_lat": 0.0, "name": "8f7656f60c8540ef9db2cb9b44bb669e", "is_reserved": 0, "rental_uris": {"android": "https://dc.lft.to/lastmile_qr_scan", "ios": "https://dc.lft.to/lastmile_qr_scan"}, "fusion_lon": 0.0}, {"lat": 38.92563616666666, "is_disabled": 0, "type": "electric_scooter", "lon": -77.057658, "bike_id": "a8c9c179f7c8524527cd858e3bd0f019", "fusion_lat": 0.0, "name": "a8c9c179f7c8524527cd858e3bd0f019", "is_reserved": 0, "rental_uris": {"android": "https://dc.lft.to/lastmile_qr_scan", "ios": "https://dc.lft.to/lastmile_qr_scan"}, "fusion_lon": 0.0}, {"lat": 38.8067785, "is_disabled": 0, "type": "electric_bike", "lon": -77.08124233333334, "bike_id": "7d92df70d54e597f299f52addcb07bd9", "fusion_lat": 0.0, "name": "7d92df70d54e597f299f52addcb07bd9", "is_reserved": 0, "rental_uris": {"android": "https://dc.lft.to/lastmile_qr_scan", "ios": "https://dc.lft.to/lastmile_qr_scan"}, "fusion_lon": 0.0}, {"lat": 38.866565666666666, "is_disabled": 0, "type": "electric_scooter", "lon": -76.98883083333334, "bike_id": "9404cd4dc33ef7e5b5845ee787486f55", "fusion_lat": 0.0, "name": "9404cd4dc33ef7e5b5845ee787486f55", "is_reserved": 0, "rental_uris": {"android": "https://dc.lft.to/lastmile_qr_scan", "ios": "https://dc.lft.to/lastmile_qr_scan"}, "fusion_lon": 0.0}, {"lat": 38.90333716666667, "is_disabled": 0, "type": "electric_scooter", "lon": -76.97594783333334, "bike_id": "88432bf6bf88045d3a6b51abbd6eb463", "fusion_lat": 0.0, "name": "88432bf6bf88045d3a6b51abbd6eb463", "is_reserved": 0, "rental_uris": {"android": "https://dc.lft.to/lastmile_qr_scan", "ios": "https://dc.lft.to/lastmile_qr_scan"}, "fusion_lon": 0.0}, {"lat": 38.91116233333333, "is_disabled": 0, "type": "electric_scooter", "lon": -77.0436025, "bike_id": "fd47790257434d9e9ad25b23572d6e89", "fusion_lat": 0.0, "name": "fd47790257434d9e9ad25b23572d6e89", "is_reserved": 0, "rental_uris": {"android": "https://dc.lft.to/lastmile_qr_scan", "ios": "https://dc.lft.to/lastmile_qr_scan"}, "fusion_lon": 0.0}, {"lat": 38.85188616666667, "is_disabled": 0, "type": "electric_scooter", "lon": -76.9761985, "bike_id": "34a7d0675297b395c7cdfbb281460d5d", "fusion_lat": 0.0, "name": "34a7d0675297b395c7cdfbb281460d5d", "is_reserved": 0, "rental_uris": {"android": "https://dc.lft.to/lastmile_qr_scan", "ios": "https://dc.lft.to/lastmile_qr_scan"}, "fusion_lon": 0.0}, {"lat": 38.8443275, "is_disabled": 0, "type": "electric_scooter", "lon": -76.99657366666666, "bike_id": "96537c7f8d3de9acc4baec5a67ec07d8", "fusion_lat": 0.0, "name": "96537c7f8d3de9acc4baec5a67ec07d8", "is_reserved": 0, "rental_uris": {"android": "https://dc.lft.to/lastmile_qr_scan", "ios": "https://dc.lft.to/lastmile_qr_scan"}, "fusion_lon": 0.0}, {"lat": 38.890722, "is_disabled": 0, "type": "electric_scooter", "lon": -76.98837866666666, "bike_id": "f13c143cab3bdd6ec5107d6aa2b34619", "fusion_lat": 0.0, "name": "f13c143cab3bdd6ec5107d6aa2b34619", "is_reserved": 0, "rental_uris": {"android": "https://dc.lft.to/lastmile_qr_scan", "ios": "https://dc.lft.to/lastmile_qr_scan"}, "fusion_lon": 0.0}, {"lat": 38.901205166666664, "is_disabled": 0, "type": "electric_scooter", "lon": -77.043483, "bike_id": "896b2c50c2e1473f2a68a0506908a5f6", "fusion_lat": 0.0, "name": "896b2c50c2e1473f2a68a0506908a5f6", "is_reserved": 0, "rental_uris": {"android": "https://dc.lft.to/lastmile_qr_scan", "ios": "https://dc.lft.to/lastmile_qr_scan"}, "fusion_lon": 0.0}, {"lat": 38.9455145, "is_disabled": 0, "type": "electric_bike", "lon": -76.8953845, "bike_id": "8bbafc1519d28539d60ddf237f48199a", "fusion_lat": 0.0, "name": "8bbafc1519d28539d60ddf237f48199a", "is_reserved": 0, "rental_uris": {"android": "https://dc.lft.to/lastmile_qr_scan", "ios": "https://dc.lft.to/lastmile_qr_scan"}, "fusion_lon": 0.0}, {"lat": 38.90076083333334, "is_disabled": 0, "type": "electric_scooter", "lon": -77.04888966666667, "bike_id": "e57cd51c24a6ed4428fe067b423eb649", "fusion_lat": 0.0, "name": "e57cd51c24a6ed4428fe067b423eb649", "is_reserved": 0, "rental_uris": {"android": "https://dc.lft.to/lastmile_qr_scan", "ios": "https://dc.lft.to/lastmile_qr_scan"}, "fusion_lon": 0.0}, {"lat": 39.03420766666667, "is_disabled": 0, "type": "electric_bike", "lon": -77.04306883333334, "bike_id": "ca6621d4ef2809131cbdb214f7b419cf", "fusion_lat": 0.0, "name": "ca6621d4ef2809131cbdb214f7b419cf", "is_reserved": 0, "rental_uris": {"android": "https://dc.lft.to/lastmile_qr_scan", "ios": "https://dc.lft.to/lastmile_qr_scan"}, "fusion_lon": 0.0}, {"lat": 38.99255216666667, "is_disabled": 0, "type": "electric_scooter", "lon": -77.0365805, "bike_id": "b3ba0dcd1370a8b2cf11d3f3d5af91bb", "fusion_lat": 0.0, "name": "b3ba0dcd1370a8b2cf11d3f3d5af91bb", "is_reserved": 0, "rental_uris": {"android": "https://dc.lft.to/lastmile_qr_scan", "ios": "https://dc.lft.to/lastmile_qr_scan"}, "fusion_lon": 0.0}, {"lat": 38.8571575, "is_disabled": 0, "type": "electric_scooter", "lon": -76.98675, "bike_id": "c5f33b23d912b9d4a6b46466af5c0f90", "fusion_lat": 0.0, "name": "c5f33b23d912b9d4a6b46466af5c0f90", "is_reserved": 0, "rental_uris": {"android": "https://dc.lft.to/lastmile_qr_scan", "ios": "https://dc.lft.to/lastmile_qr_scan"}, "fusion_lon": 0.0}, {"lat": 38.9365505, "is_disabled": 0, "type": "electric_bike", "lon": -76.95220166666667, "bike_id": "942780f55e82224e357f242347e33995", "fusion_lat": 0.0, "name": "942780f55e82224e357f242347e33995", "is_reserved": 0, "rental_uris": {"android": "https://dc.lft.to/lastmile_qr_scan", "ios": "https://dc.lft.to/lastmile_qr_scan"}, "fusion_lon": 0.0}, {"lat": 38.8934705, "is_disabled": 0, "type": "electric_scooter", "lon": -77.0414455, "bike_id": "ddf8ce6e381714816d1271ad344bd23e", "fusion_lat": 0.0, "name": "ddf8ce6e381714816d1271ad344bd23e", "is_reserved": 0, "rental_uris": {"android": "https://dc.lft.to/lastmile_qr_scan", "ios": "https://dc.lft.to/lastmile_qr_scan"}, "fusion_lon": 0.0}, {"lat": 38.925795666666666, "is_disabled": 0, "type": "electric_scooter", "lon": -77.04414633333333, "bike_id": "6348d79be1ba4fe988cff8f44230216a", "fusion_lat": 0.0, "name": "6348d79be1ba4fe988cff8f44230216a", "is_reserved": 0, "rental_uris": {"android": "https://dc.lft.to/lastmile_qr_scan", "ios": "https://dc.lft.to/lastmile_qr_scan"}, "fusion_lon": 0.0}, {"lat": 38.9096885, "is_disabled": 0, "type": "electric_scooter", "lon": -77.04620483333333, "bike_id": "0e993c6fcf9de4c5f406f1c88c9318f9", "fusion_lat": 0.0, "name": "0e993c6fcf9de4c5f406f1c88c9318f9", "is_reserved": 0, "rental_uris": {"android": "https://dc.lft.to/lastmile_qr_scan", "ios": "https://dc.lft.to/lastmile_qr_scan"}, "fusion_lon": 0.0}, {"lat": 38.90511433333333, "is_disabled": 0, "type": "electric_scooter", "lon": -77.06179383333334, "bike_id": "d45c666ddcef9d78d5b04b1dd7f81a55", "fusion_lat": 0.0, "name": "d45c666ddcef9d78d5b04b1dd7f81a55", "is_reserved": 0, "rental_uris": {"android": "https://dc.lft.to/lastmile_qr_scan", "ios": "https://dc.lft.to/lastmile_qr_scan"}, "fusion_lon": 0.0}, {"lat": 38.930995, "is_disabled": 0, "type": "electric_scooter", "lon": -77.02474283333333, "bike_id": "77f7e0ae889ebd8b0b1e88f9a096aa1e", "fusion_lat": 0.0, "name": "77f7e0ae889ebd8b0b1e88f9a096aa1e", "is_reserved": 0, "rental_uris": {"android": "https://dc.lft.to/lastmile_qr_scan", "ios": "https://dc.lft.to/lastmile_qr_scan"}, "fusion_lon": 0.0}, {"lat": 38.937355333333336, "is_disabled": 0, "type": "electric_scooter", "lon": -77.0362145, "bike_id": "42a2d75d6387ec1b6697811f1699d724", "fusion_lat": 0.0, "name": "42a2d75d6387ec1b6697811f1699d724", "is_reserved": 0, "rental_uris": {"android": "https://dc.lft.to/lastmile_qr_scan", "ios": "https://dc.lft.to/lastmile_qr_scan"}, "fusion_lon": 0.0}, {"lat": 38.93980716666667, "is_disabled": 0, "type": "electric_scooter", "lon": -77.0263045, "bike_id": "667e0b594c83b802df9625d0046144cd", "fusion_lat": 0.0, "name": "667e0b594c83b802df9625d0046144cd", "is_reserved": 0, "rental_uris": {"android": "https://dc.lft.to/lastmile_qr_scan", "ios": "https://dc.lft.to/lastmile_qr_scan"}, "fusion_lon": 0.0}, {"lat": 38.91912266666667, "is_disabled": 0, "type": "electric_scooter", "lon": -77.02463433333334, "bike_id": "a62bd219e8c1bda4ac56d899a5cb44a8", "fusion_lat": 0.0, "name": "a62bd219e8c1bda4ac56d899a5cb44a8", "is_reserved": 0, "rental_uris": {"android": "https://dc.lft.to/lastmile_qr_scan", "ios": "https://dc.lft.to/lastmile_qr_scan"}, "fusion_lon": 0.0}, {"lat": 38.911901, "is_disabled": 0, "type": "electric_scooter", "lon": -77.03637433333333, "bike_id": "a0cb0e559471b38a5b71cd33c8af8599", "fusion_lat": 0.0, "name": "a0cb0e559471b38a5b71cd33c8af8599", "is_reserved": 0, "rental_uris": {"android": "https://dc.lft.to/lastmile_qr_scan", "ios": "https://dc.lft.to/lastmile_qr_scan"}, "fusion_lon": 0.0}, {"lat": 38.89890066666667, "is_disabled": 0, "type": "electric_scooter", "lon": -77.072309, "bike_id": "80261cc294ba40a1ec366795e9841682", "fusion_lat": 0.0, "name": "80261cc294ba40a1ec366795e9841682", "is_reserved": 0, "rental_uris": {"android": "https://dc.lft.to/lastmile_qr_scan", "ios": "https://dc.lft.to/lastmile_qr_scan"}, "fusion_lon": 0.0}, {"lat": 38.90405716666667, "is_disabled": 0, "type": "electric_scooter", "lon": -77.04478266666666, "bike_id": "4fd606dbe9ca37aec201b41273bbbb48", "fusion_lat": 0.0, "name": "4fd606dbe9ca37aec201b41273bbbb48", "is_reserved": 0, "rental_uris": {"android": "https://dc.lft.to/lastmile_qr_scan", "ios": "https://dc.lft.to/lastmile_qr_scan"}, "fusion_lon": 0.0}, {"lat": 38.9229895, "is_disabled": 0, "type": "electric_scooter", "lon": -77.02331033333333, "bike_id": "db07ce666c5698e66f2e67e2095eca5e", "fusion_lat": 0.0, "name": "db07ce666c5698e66f2e67e2095eca5e", "is_reserved": 0, "rental_uris": {"android": "https://dc.lft.to/lastmile_qr_scan", "ios": "https://dc.lft.to/lastmile_qr_scan"}, "fusion_lon": 0.0}, {"lat": 38.917624333333336, "is_disabled": 0, "type": "electric_scooter", "lon": -77.03197216666666, "bike_id": "11f76a6d9976af455270e08eb21836ca", "fusion_lat": 0.0, "name": "11f76a6d9976af455270e08eb21836ca", "is_reserved": 0, "rental_uris": {"android": "https://dc.lft.to/lastmile_qr_scan", "ios": "https://dc.lft.to/lastmile_qr_scan"}, "fusion_lon": 0.0}, {"lat": 38.84437466666667, "is_disabled": 0, "type": "electric_bike", "lon": -77.06841666666666, "bike_id": "ad1b9a1791819bfa1931deed998f3a1a", "fusion_lat": 0.0, "name": "ad1b9a1791819bfa1931deed998f3a1a", "is_reserved": 0, "rental_uris": {"android": "https://dc.lft.to/lastmile_qr_scan", "ios": "https://dc.lft.to/lastmile_qr_scan"}, "fusion_lon": 0.0}, {"lat": 38.9329475, "is_disabled": 0, "type": "electric_scooter", "lon": -77.02195366666666, "bike_id": "68e4d26059d062f05e45bfa9c4bf7277", "fusion_lat": 0.0, "name": "68e4d26059d062f05e45bfa9c4bf7277", "is_reserved": 0, "rental_uris": {"android": "https://dc.lft.to/lastmile_qr_scan", "ios": "https://dc.lft.to/lastmile_qr_scan"}, "fusion_lon": 0.0}, {"lat": 38.924535166666665, "is_disabled": 0, "type": "electric_scooter", "lon": -77.04201466666666, "bike_id": "334bff0ff98bc570f72a7e07c69f4b29", "fusion_lat": 0.0, "name": "334bff0ff98bc570f72a7e07c69f4b29", "is_reserved": 0, "rental_uris": {"android": "https://dc.lft.to/lastmile_qr_scan", "ios": "https://dc.lft.to/lastmile_qr_scan"}, "fusion_lon": 0.0}, {"lat": 38.89684366666667, "is_disabled": 0, "type": "electric_scooter", "lon": -76.93607883333334, "bike_id": "2fd4b717e9519db8975aa283f054d67c", "fusion_lat": 0.0, "name": "2fd4b717e9519db8975aa283f054d67c", "is_reserved": 0, "rental_uris": {"android": "https://dc.lft.to/lastmile_qr_scan", "ios": "https://dc.lft.to/lastmile_qr_scan"}, "fusion_lon": 0.0}, {"lat": 38.918040166666664, "is_disabled": 0, "type": "electric_scooter", "lon": -77.0401375, "bike_id": "a8a3ea48c7af4b4cf8d95d0f57fc27a9", "fusion_lat": 0.0, "name": "a8a3ea48c7af4b4cf8d95d0f57fc27a9", "is_reserved": 0, "rental_uris": {"android": "https://dc.lft.to/lastmile_qr_scan", "ios": "https://dc.lft.to/lastmile_qr_scan"}, "fusion_lon": 0.0}, {"lat": 38.90235666666667, "is_disabled": 0, "type": "electric_scooter", "lon": -77.06042533333333, "bike_id": "29848fb75be41e348ccfb12413248b83", "fusion_lat": 0.0, "name": "29848fb75be41e348ccfb12413248b83", "is_reserved": 0, "rental_uris": {"android": "https://dc.lft.to/lastmile_qr_scan", "ios": "https://dc.lft.to/lastmile_qr_scan"}, "fusion_lon": 0.0}, {"lat": 38.930786499999996, "is_disabled": 0, "type": "electric_scooter", "lon": -77.03390883333333, "bike_id": "e3ca576704494eac96be68d4a3134599", "fusion_lat": 0.0, "name": "e3ca576704494eac96be68d4a3134599", "is_reserved": 0, "rental_uris": {"android": "https://dc.lft.to/lastmile_qr_scan", "ios": "https://dc.lft.to/lastmile_qr_scan"}, "fusion_lon": 0.0}, {"lat": 38.91733333333333, "is_disabled": 0, "type": "electric_scooter", "lon": -77.03194166666667, "bike_id": "75e6f67dc9169c42a18525716d8d77fc", "fusion_lat": 0.0, "name": "75e6f67dc9169c42a18525716d8d77fc", "is_reserved": 0, "rental_uris": {"android": "https://dc.lft.to/lastmile_qr_scan", "ios": "https://dc.lft.to/lastmile_qr_scan"}, "fusion_lon": 0.0}, {"lat": 38.92008766666667, "is_disabled": 0, "type": "electric_scooter", "lon": -77.03230216666667, "bike_id": "42b0065d25dc6ab6dfc46777e4cac8fe", "fusion_lat": 0.0, "name": "42b0065d25dc6ab6dfc46777e4cac8fe", "is_reserved": 0, "rental_uris": {"android": "https://dc.lft.to/lastmile_qr_scan", "ios": "https://dc.lft.to/lastmile_qr_scan"}, "fusion_lon": 0.0}, {"lat": 38.93040716666667, "is_disabled": 0, "type": "electric_bike", "lon": -77.0730725, "bike_id": "f3a800a77ef16453de4f36a59eeb4521", "fusion_lat": 0.0, "name": "f3a800a77ef16453de4f36a59eeb4521", "is_reserved": 0, "rental_uris": {"android": "https://dc.lft.to/lastmile_qr_scan", "ios": "https://dc.lft.to/lastmile_qr_scan"}, "fusion_lon": 0.0}, {"lat": 38.92106966666667, "is_disabled": 0, "type": "electric_scooter", "lon": -77.04166883333333, "bike_id": "cf3ef05e23069899717006fcafeced0c", "fusion_lat": 0.0, "name": "cf3ef05e23069899717006fcafeced0c", "is_reserved": 0, "rental_uris": {"android": "https://dc.lft.to/lastmile_qr_scan", "ios": "https://dc.lft.to/lastmile_qr_scan"}, "fusion_lon": 0.0}, {"lat": 38.988102166666664, "is_disabled": 0, "type": "electric_bike", "lon": -77.02661016666667, "bike_id": "3ffa5b0efb532a2c0556c9828cd422e7", "fusion_lat": 0.0, "name": "3ffa5b0efb532a2c0556c9828cd422e7", "is_reserved": 0, "rental_uris": {"android": "https://dc.lft.to/lastmile_qr_scan", "ios": "https://dc.lft.to/lastmile_qr_scan"}, "fusion_lon": 0.0}, {"lat": 38.915586166666664, "is_disabled": 0, "type": "electric_scooter", "lon": -77.03187966666667, "bike_id": "be4f4c51d73451ca1072b7da842d4001", "fusion_lat": 0.0, "name": "be4f4c51d73451ca1072b7da842d4001", "is_reserved": 0, "rental_uris": {"android": "https://dc.lft.to/lastmile_qr_scan", "ios": "https://dc.lft.to/lastmile_qr_scan"}, "fusion_lon": 0.0}, {"lat": 38.884505833333336, "is_disabled": 0, "type": "electric_scooter", "lon": -76.95095933333333, "bike_id": "0ff18c7f586bee3a6938b8d13feb8631", "fusion_lat": 0.0, "name": "0ff18c7f586bee3a6938b8d13feb8631", "is_reserved": 0, "rental_uris": {"android": "https://dc.lft.to/lastmile_qr_scan", "ios": "https://dc.lft.to/lastmile_qr_scan"}, "fusion_lon": 0.0}, {"lat": 38.926893166666666, "is_disabled": 0, "type": "electric_scooter", "lon": -77.0144535, "bike_id": "70d719abc74e9374fd05e0b4c29f505e", "fusion_lat": 0.0, "name": "70d719abc74e9374fd05e0b4c29f505e", "is_reserved": 0, "rental_uris": {"android": "https://dc.lft.to/lastmile_qr_scan", "ios": "https://dc.lft.to/lastmile_qr_scan"}, "fusion_lon": 0.0}, {"lat": 38.9025485, "is_disabled": 0, "type": "electric_scooter", "lon": -77.0393645, "bike_id": "64ff18bc5320346e77cad240a786d973", "fusion_lat": 0.0, "name": "64ff18bc5320346e77cad240a786d973", "is_reserved": 0, "rental_uris": {"android": "https://dc.lft.to/lastmile_qr_scan", "ios": "https://dc.lft.to/lastmile_qr_scan"}, "fusion_lon": 0.0}, {"lat": 38.948217, "is_disabled": 0, "type": "electric_scooter", "lon": -76.99906066666667, "bike_id": "7a4894ef1fcda03bd248c183e1258f1b", "fusion_lat": 0.0, "name": "7a4894ef1fcda03bd248c183e1258f1b", "is_reserved": 0, "rental_uris": {"android": "https://dc.lft.to/lastmile_qr_scan", "ios": "https://dc.lft.to/lastmile_qr_scan"}, "fusion_lon": 0.0}, {"lat": 38.94461233333333, "is_disabled": 0, "type": "electric_scooter", "lon": -77.06031533333334, "bike_id": "5a9a09c20cfb2aaba1b2925fa610ed95", "fusion_lat": 0.0, "name": "5a9a09c20cfb2aaba1b2925fa610ed95", "is_reserved": 0, "rental_uris": {"android": "https://dc.lft.to/lastmile_qr_scan", "ios": "https://dc.lft.to/lastmile_qr_scan"}, "fusion_lon": 0.0}, {"lat": 38.903715166666665, "is_disabled": 0, "type": "electric_scooter", "lon": -76.97652566666666, "bike_id": "082a3d8cb13b85ec732d5492c2046f23", "fusion_lat": 0.0, "name": "082a3d8cb13b85ec732d5492c2046f23", "is_reserved": 0, "rental_uris": {"android": "https://dc.lft.to/lastmile_qr_scan", "ios": "https://dc.lft.to/lastmile_qr_scan"}, "fusion_lon": 0.0}, {"lat": 38.91710833333333, "is_disabled": 0, "type": "electric_scooter", "lon": -77.03973983333333, "bike_id": "6263e1ca4e3a0544b49b079bd71911ac", "fusion_lat": 0.0, "name": "6263e1ca4e3a0544b49b079bd71911ac", "is_reserved": 0, "rental_uris": {"android": "https://dc.lft.to/lastmile_qr_scan", "ios": "https://dc.lft.to/lastmile_qr_scan"}, "fusion_lon": 0.0}, {"lat": 38.915526666666665, "is_disabled": 0, "type": "electric_scooter", "lon": -77.041494, "bike_id": "1c8cc225c955ccf0c8e3563058f1e80f", "fusion_lat": 0.0, "name": "1c8cc225c955ccf0c8e3563058f1e80f", "is_reserved": 0, "rental_uris": {"android": "https://dc.lft.to/lastmile_qr_scan", "ios": "https://dc.lft.to/lastmile_qr_scan"}, "fusion_lon": 0.0}, {"lat": 38.947705666666664, "is_disabled": 0, "type": "electric_scooter", "lon": -77.06544916666667, "bike_id": "6a701c12dc4df7c067d8fac5edba423f", "fusion_lat": 0.0, "name": "6a701c12dc4df7c067d8fac5edba423f", "is_reserved": 0, "rental_uris": {"android": "https://dc.lft.to/lastmile_qr_scan", "ios": "https://dc.lft.to/lastmile_qr_scan"}, "fusion_lon": 0.0}, {"lat": 38.902531333333336, "is_disabled": 0, "type": "electric_bike", "lon": -77.0078305, "bike_id": "9912b21c9a63a80aea032fc76a5963cc", "fusion_lat": 0.0, "name": "9912b21c9a63a80aea032fc76a5963cc", "is_reserved": 0, "rental_uris": {"android": "https://dc.lft.to/lastmile_qr_scan", "ios": "https://dc.lft.to/lastmile_qr_scan"}, "fusion_lon": 0.0}, {"lat": 38.91484116666667, "is_disabled": 0, "type": "electric_scooter", "lon": -77.0321315, "bike_id": "05f828bc952a5fb2efd2a6ad39753021", "fusion_lat": 0.0, "name": "05f828bc952a5fb2efd2a6ad39753021", "is_reserved": 0, "rental_uris": {"android": "https://dc.lft.to/lastmile_qr_scan", "ios": "https://dc.lft.to/lastmile_qr_scan"}, "fusion_lon": 0.0}, {"lat": 38.9211945, "is_disabled": 0, "type": "electric_scooter", "lon": -77.0319865, "bike_id": "a65f695f37c4b529a9283c2bf59f7373", "fusion_lat": 0.0, "name": "a65f695f37c4b529a9283c2bf59f7373", "is_reserved": 0, "rental_uris": {"android": "https://dc.lft.to/lastmile_qr_scan", "ios": "https://dc.lft.to/lastmile_qr_scan"}, "fusion_lon": 0.0}, {"lat": 38.91682083333333, "is_disabled": 0, "type": "electric_scooter", "lon": -77.02385216666667, "bike_id": "abea70418af3f863e5f7ae514c8db0f3", "fusion_lat": 0.0, "name": "abea70418af3f863e5f7ae514c8db0f3", "is_reserved": 0, "rental_uris": {"android": "https://dc.lft.to/lastmile_qr_scan", "ios": "https://dc.lft.to/lastmile_qr_scan"}, "fusion_lon": 0.0}, {"lat": 38.923223, "is_disabled": 0, "type": "electric_scooter", "lon": -77.02978516666667, "bike_id": "1c70d9b4183e88ee9633f70010287687", "fusion_lat": 0.0, "name": "1c70d9b4183e88ee9633f70010287687", "is_reserved": 0, "rental_uris": {"android": "https://dc.lft.to/lastmile_qr_scan", "ios": "https://dc.lft.to/lastmile_qr_scan"}, "fusion_lon": 0.0}, {"lat": 38.876803833333334, "is_disabled": 0, "type": "electric_scooter", "lon": -77.01792366666666, "bike_id": "4b59d59f4ed9c54148e91612d8db21b0", "fusion_lat": 0.0, "name": "4b59d59f4ed9c54148e91612d8db21b0", "is_reserved": 0, "rental_uris": {"android": "https://dc.lft.to/lastmile_qr_scan", "ios": "https://dc.lft.to/lastmile_qr_scan"}, "fusion_lon": 0.0}, {"lat": 38.8734265, "is_disabled": 0, "type": "electric_scooter", "lon": -76.99165966666666, "bike_id": "8b138404c53ec7127035b1dce4005ae3", "fusion_lat": 0.0, "name": "8b138404c53ec7127035b1dce4005ae3", "is_reserved": 0, "rental_uris": {"android": "https://dc.lft.to/lastmile_qr_scan", "ios": "https://dc.lft.to/lastmile_qr_scan"}, "fusion_lon": 0.0}, {"lat": 38.9370465, "is_disabled": 0, "type": "electric_scooter", "lon": -77.032335, "bike_id": "c5d71bb15bc388c16e5d95fab2cc6c41", "fusion_lat": 0.0, "name": "c5d71bb15bc388c16e5d95fab2cc6c41", "is_reserved": 0, "rental_uris": {"android": "https://dc.lft.to/lastmile_qr_scan", "ios": "https://dc.lft.to/lastmile_qr_scan"}, "fusion_lon": 0.0}, {"lat": 38.895548, "is_disabled": 0, "type": "electric_scooter", "lon": -76.93363016666666, "bike_id": "43d2cc5000cb9666bfab14c8c58ae798", "fusion_lat": 0.0, "name": "43d2cc5000cb9666bfab14c8c58ae798", "is_reserved": 0, "rental_uris": {"android": "https://dc.lft.to/lastmile_qr_scan", "ios": "https://dc.lft.to/lastmile_qr_scan"}, "fusion_lon": 0.0}, {"lat": 38.926633, "is_disabled": 0, "type": "electric_scooter", "lon": -77.05596966666667, "bike_id": "d765064e93bb55fa08489d9799f2a5ed", "fusion_lat": 0.0, "name": "d765064e93bb55fa08489d9799f2a5ed", "is_reserved": 0, "rental_uris": {"android": "https://dc.lft.to/lastmile_qr_scan", "ios": "https://dc.lft.to/lastmile_qr_scan"}, "fusion_lon": 0.0}, {"lat": 38.9388015, "is_disabled": 0, "type": "electric_scooter", "lon": -77.03262683333334, "bike_id": "8cafd1ce47df1d008c26eb57e9ca8233", "fusion_lat": 0.0, "name": "8cafd1ce47df1d008c26eb57e9ca8233", "is_reserved": 0, "rental_uris": {"android": "https://dc.lft.to/lastmile_qr_scan", "ios": "https://dc.lft.to/lastmile_qr_scan"}, "fusion_lon": 0.0}, {"lat": 38.917004666666664, "is_disabled": 0, "type": "electric_scooter", "lon": -77.04689766666667, "bike_id": "677807947abba29cad3e2c34d4af3743", "fusion_lat": 0.0, "name": "677807947abba29cad3e2c34d4af3743", "is_reserved": 0, "rental_uris": {"android": "https://dc.lft.to/lastmile_qr_scan", "ios": "https://dc.lft.to/lastmile_qr_scan"}, "fusion_lon": 0.0}, {"lat": 38.91685616666667, "is_disabled": 0, "type": "electric_scooter", "lon": -77.02969066666667, "bike_id": "0e454e365bc09a981e112ec869b29188", "fusion_lat": 0.0, "name": "0e454e365bc09a981e112ec869b29188", "is_reserved": 0, "rental_uris": {"android": "https://dc.lft.to/lastmile_qr_scan", "ios": "https://dc.lft.to/lastmile_qr_scan"}, "fusion_lon": 0.0}, {"lat": 38.87063933333334, "is_disabled": 0, "type": "electric_scooter", "lon": -77.0083625, "bike_id": "03ccde483bb2f8bfb90c140b0947cbd7", "fusion_lat": 0.0, "name": "03ccde483bb2f8bfb90c140b0947cbd7", "is_reserved": 0, "rental_uris": {"android": "https://dc.lft.to/lastmile_qr_scan", "ios": "https://dc.lft.to/lastmile_qr_scan"}, "fusion_lon": 0.0}, {"lat": 38.91923233333333, "is_disabled": 0, "type": "electric_scooter", "lon": -77.034273, "bike_id": "57365f3c6899d56fcf6c96d7a7cde804", "fusion_lat": 0.0, "name": "57365f3c6899d56fcf6c96d7a7cde804", "is_reserved": 0, "rental_uris": {"android": "https://dc.lft.to/lastmile_qr_scan", "ios": "https://dc.lft.to/lastmile_qr_scan"}, "fusion_lon": 0.0}, {"lat": 38.86674683333333, "is_disabled": 0, "type": "electric_scooter", "lon": -76.98541383333334, "bike_id": "99339e3a321bc698be6da5e4d3815fc6", "fusion_lat": 0.0, "name": "99339e3a321bc698be6da5e4d3815fc6", "is_reserved": 0, "rental_uris": {"android": "https://dc.lft.to/lastmile_qr_scan", "ios": "https://dc.lft.to/lastmile_qr_scan"}, "fusion_lon": 0.0}, {"lat": 38.862109333333336, "is_disabled": 0, "type": "electric_bike", "lon": -76.99777233333333, "bike_id": "221423b5a65c53050496ed07a171ec44", "fusion_lat": 0.0, "name": "221423b5a65c53050496ed07a171ec44", "is_reserved": 0, "rental_uris": {"android": "https://dc.lft.to/lastmile_qr_scan", "ios": "https://dc.lft.to/lastmile_qr_scan"}, "fusion_lon": 0.0}, {"lat": 38.897049333333335, "is_disabled": 0, "type": "electric_scooter", "lon": -77.00715533333333, "bike_id": "c999618c57fea8cc9a7f52549c96e6c0", "fusion_lat": 0.0, "name": "c999618c57fea8cc9a7f52549c96e6c0", "is_reserved": 0, "rental_uris": {"android": "https://dc.lft.to/lastmile_qr_scan", "ios": "https://dc.lft.to/lastmile_qr_scan"}, "fusion_lon": 0.0}, {"lat": 38.9153935, "is_disabled": 0, "type": "electric_scooter", "lon": -77.02202266666667, "bike_id": "1e4c88647fa49e098c8eb11c3d3ece26", "fusion_lat": 0.0, "name": "1e4c88647fa49e098c8eb11c3d3ece26", "is_reserved": 0, "rental_uris": {"android": "https://dc.lft.to/lastmile_qr_scan", "ios": "https://dc.lft.to/lastmile_qr_scan"}, "fusion_lon": 0.0}, {"lat": 38.90411783333333, "is_disabled": 0, "type": "electric_scooter", "lon": -77.05328566666667, "bike_id": "91fb3da5b1dbb18e0a8f0cd1227acc79", "fusion_lat": 0.0, "name": "91fb3da5b1dbb18e0a8f0cd1227acc79", "is_reserved": 0, "rental_uris": {"android": "https://dc.lft.to/lastmile_qr_scan", "ios": "https://dc.lft.to/lastmile_qr_scan"}, "fusion_lon": 0.0}, {"lat": 38.920008, "is_disabled": 0, "type": "electric_scooter", "lon": -77.03225033333334, "bike_id": "6dbd8c93f054307f18f34dfcde342c61", "fusion_lat": 0.0, "name": "6dbd8c93f054307f18f34dfcde342c61", "is_reserved": 0, "rental_uris": {"android": "https://dc.lft.to/lastmile_qr_scan", "ios": "https://dc.lft.to/lastmile_qr_scan"}, "fusion_lon": 0.0}, {"lat": 38.9355825, "is_disabled": 0, "type": "electric_bike", "lon": -77.03699366666666, "bike_id": "540d4c48175e239f09aff5802cb23fb5", "fusion_lat": 0.0, "name": "540d4c48175e239f09aff5802cb23fb5", "is_reserved": 0, "rental_uris": {"android": "https://dc.lft.to/lastmile_qr_scan", "ios": "https://dc.lft.to/lastmile_qr_scan"}, "fusion_lon": 0.0}, {"lat": 38.922855, "is_disabled": 0, "type": "electric_scooter", "lon": -77.042627, "bike_id": "58cf91d060b404b4b445fe278636ad0a", "fusion_lat": 0.0, "name": "58cf91d060b404b4b445fe278636ad0a", "is_reserved": 0, "rental_uris": {"android": "https://dc.lft.to/lastmile_qr_scan", "ios": "https://dc.lft.to/lastmile_qr_scan"}, "fusion_lon": 0.0}, {"lat": 38.929752, "is_disabled": 0, "type": "electric_scooter", "lon": -77.01300516666667, "bike_id": "dfcad168fbec7e680f71d69c2938527a", "fusion_lat": 0.0, "name": "dfcad168fbec7e680f71d69c2938527a", "is_reserved": 0, "rental_uris": {"android": "https://dc.lft.to/lastmile_qr_scan", "ios": "https://dc.lft.to/lastmile_qr_scan"}, "fusion_lon": 0.0}, {"lat": 38.90659616666667, "is_disabled": 0, "type": "electric_scooter", "lon": -77.038613, "bike_id": "3c484ad7503cbf6924d17825c8e43e30", "fusion_lat": 0.0, "name": "3c484ad7503cbf6924d17825c8e43e30", "is_reserved": 0, "rental_uris": {"android": "https://dc.lft.to/lastmile_qr_scan", "ios": "https://dc.lft.to/lastmile_qr_scan"}, "fusion_lon": 0.0}, {"lat": 38.922465333333335, "is_disabled": 0, "type": "electric_scooter", "lon": -77.03009366666667, "bike_id": "bcc87a718a60d07431f9adc60c290ee6", "fusion_lat": 0.0, "name": "bcc87a718a60d07431f9adc60c290ee6", "is_reserved": 0, "rental_uris": {"android": "https://dc.lft.to/lastmile_qr_scan", "ios": "https://dc.lft.to/lastmile_qr_scan"}, "fusion_lon": 0.0}, {"lat": 38.9282775, "is_disabled": 0, "type": "electric_scooter", "lon": -77.02256933333334, "bike_id": "2235c78fa92fb31bb9bd42306eeb077a", "fusion_lat": 0.0, "name": "2235c78fa92fb31bb9bd42306eeb077a", "is_reserved": 0, "rental_uris": {"android": "https://dc.lft.to/lastmile_qr_scan", "ios": "https://dc.lft.to/lastmile_qr_scan"}, "fusion_lon": 0.0}, {"lat": 38.961369833333336, "is_disabled": 0, "type": "electric_scooter", "lon": -77.02236483333333, "bike_id": "9c689fd2803deaeb439285c5e27cb9fc", "fusion_lat": 0.0, "name": "9c689fd2803deaeb439285c5e27cb9fc", "is_reserved": 0, "rental_uris": {"android": "https://dc.lft.to/lastmile_qr_scan", "ios": "https://dc.lft.to/lastmile_qr_scan"}, "fusion_lon": 0.0}, {"lat": 38.857201333333336, "is_disabled": 0, "type": "electric_bike", "lon": -76.971132, "bike_id": "d410352ec00cb081afa0a33a043b2be1", "fusion_lat": 0.0, "name": "d410352ec00cb081afa0a33a043b2be1", "is_reserved": 0, "rental_uris": {"android": "https://dc.lft.to/lastmile_qr_scan", "ios": "https://dc.lft.to/lastmile_qr_scan"}, "fusion_lon": 0.0}, {"lat": 38.899230333333335, "is_disabled": 0, "type": "electric_scooter", "lon": -77.04150983333334, "bike_id": "d0c7b0d067571b49692bd924f57b6c19", "fusion_lat": 0.0, "name": "d0c7b0d067571b49692bd924f57b6c19", "is_reserved": 0, "rental_uris": {"android": "https://dc.lft.to/lastmile_qr_scan", "ios": "https://dc.lft.to/lastmile_qr_scan"}, "fusion_lon": 0.0}, {"lat": 38.916168666666664, "is_disabled": 0, "type": "electric_scooter", "lon": -77.0229885, "bike_id": "15f036ba15ba0702b749716596a46c7e", "fusion_lat": 0.0, "name": "15f036ba15ba0702b749716596a46c7e", "is_reserved": 0, "rental_uris": {"android": "https://dc.lft.to/lastmile_qr_scan", "ios": "https://dc.lft.to/lastmile_qr_scan"}, "fusion_lon": 0.0}, {"lat": 38.871440166666666, "is_disabled": 0, "type": "electric_bike", "lon": -76.93703316666667, "bike_id": "e3c9e0d391fc829118961cda70d1c26f", "fusion_lat": 0.0, "name": "e3c9e0d391fc829118961cda70d1c26f", "is_reserved": 0, "rental_uris": {"android": "https://dc.lft.to/lastmile_qr_scan", "ios": "https://dc.lft.to/lastmile_qr_scan"}, "fusion_lon": 0.0}, {"lat": 38.9306055, "is_disabled": 0, "type": "electric_bike", "lon": -77.023005, "bike_id": "4933f335252b1aac6d563b6666e7315e", "fusion_lat": 0.0, "name": "4933f335252b1aac6d563b6666e7315e", "is_reserved": 0, "rental_uris": {"android": "https://dc.lft.to/lastmile_qr_scan", "ios": "https://dc.lft.to/lastmile_qr_scan"}, "fusion_lon": 0.0}, {"lat": 38.86996383333334, "is_disabled": 0, "type": "electric_bike", "lon": -77.06569283333333, "bike_id": "fbe2b909d80888d18a49913cc79db235", "fusion_lat": 0.0, "name": "fbe2b909d80888d18a49913cc79db235", "is_reserved": 0, "rental_uris": {"android": "https://dc.lft.to/lastmile_qr_scan", "ios": "https://dc.lft.to/lastmile_qr_scan"}, "fusion_lon": 0.0}, {"lat": 38.90608016666667, "is_disabled": 0, "type": "electric_scooter", "lon": -76.98982783333334, "bike_id": "0acbc02a4dfce3ac3e12b412cb78ef5f", "fusion_lat": 0.0, "name": "0acbc02a4dfce3ac3e12b412cb78ef5f", "is_reserved": 0, "rental_uris": {"android": "https://dc.lft.to/lastmile_qr_scan", "ios": "https://dc.lft.to/lastmile_qr_scan"}, "fusion_lon": 0.0}, {"lat": 38.8592665, "is_disabled": 0, "type": "electric_scooter", "lon": -76.99718483333334, "bike_id": "17e0d0ebb884cb51e03459d877199a12", "fusion_lat": 0.0, "name": "17e0d0ebb884cb51e03459d877199a12", "is_reserved": 0, "rental_uris": {"android": "https://dc.lft.to/lastmile_qr_scan", "ios": "https://dc.lft.to/lastmile_qr_scan"}, "fusion_lon": 0.0}, {"lat": 38.86519716666667, "is_disabled": 0, "type": "electric_scooter", "lon": -76.99030233333333, "bike_id": "0d5fd46569a0e9229684164b4c766a3d", "fusion_lat": 0.0, "name": "0d5fd46569a0e9229684164b4c766a3d", "is_reserved": 0, "rental_uris": {"android": "https://dc.lft.to/lastmile_qr_scan", "ios": "https://dc.lft.to/lastmile_qr_scan"}, "fusion_lon": 0.0}, {"lat": 38.934502, "is_disabled": 0, "type": "electric_scooter", "lon": -77.03078516666666, "bike_id": "8f231feb087bad56273fa70882d2a722", "fusion_lat": 0.0, "name": "8f231feb087bad56273fa70882d2a722", "is_reserved": 0, "rental_uris": {"android": "https://dc.lft.to/lastmile_qr_scan", "ios": "https://dc.lft.to/lastmile_qr_scan"}, "fusion_lon": 0.0}, {"lat": 38.919868, "is_disabled": 0, "type": "electric_scooter", "lon": -77.02394833333334, "bike_id": "05556c31a5707dea2db4ccf1334a834f", "fusion_lat": 0.0, "name": "05556c31a5707dea2db4ccf1334a834f", "is_reserved": 0, "rental_uris": {"android": "https://dc.lft.to/lastmile_qr_scan", "ios": "https://dc.lft.to/lastmile_qr_scan"}, "fusion_lon": 0.0}, {"lat": 38.9053185, "is_disabled": 0, "type": "electric_scooter", "lon": -77.06246333333333, "bike_id": "38256f7aed8648dfbba2fcff2d035923", "fusion_lat": 0.0, "name": "38256f7aed8648dfbba2fcff2d035923", "is_reserved": 0, "rental_uris": {"android": "https://dc.lft.to/lastmile_qr_scan", "ios": "https://dc.lft.to/lastmile_qr_scan"}, "fusion_lon": 0.0}, {"lat": 38.87629183333333, "is_disabled": 0, "type": "electric_scooter", "lon": -76.96525483333333, "bike_id": "793c23e568ce1b97cb194016ed248716", "fusion_lat": 0.0, "name": "793c23e568ce1b97cb194016ed248716", "is_reserved": 0, "rental_uris": {"android": "https://dc.lft.to/lastmile_qr_scan", "ios": "https://dc.lft.to/lastmile_qr_scan"}, "fusion_lon": 0.0}, {"lat": 38.9038175, "is_disabled": 0, "type": "electric_scooter", "lon": -77.04240833333333, "bike_id": "ba3bd9ceaa0359bb86ebff6879dc5f2e", "fusion_lat": 0.0, "name": "ba3bd9ceaa0359bb86ebff6879dc5f2e", "is_reserved": 0, "rental_uris": {"android": "https://dc.lft.to/lastmile_qr_scan", "ios": "https://dc.lft.to/lastmile_qr_scan"}, "fusion_lon": 0.0}, {"lat": 38.916915333333336, "is_disabled": 0, "type": "electric_scooter", "lon": -77.02686316666667, "bike_id": "60af8a52e5a5cdac6b10cdbcf4cee3fc", "fusion_lat": 0.0, "name": "60af8a52e5a5cdac6b10cdbcf4cee3fc", "is_reserved": 0, "rental_uris": {"android": "https://dc.lft.to/lastmile_qr_scan", "ios": "https://dc.lft.to/lastmile_qr_scan"}, "fusion_lon": 0.0}, {"lat": 38.92403316666667, "is_disabled": 0, "type": "electric_scooter", "lon": -77.02745733333333, "bike_id": "8ef4331eb7a4db60f212ff338e00b3dc", "fusion_lat": 0.0, "name": "8ef4331eb7a4db60f212ff338e00b3dc", "is_reserved": 0, "rental_uris": {"android": "https://dc.lft.to/lastmile_qr_scan", "ios": "https://dc.lft.to/lastmile_qr_scan"}, "fusion_lon": 0.0}, {"lat": 38.894006166666664, "is_disabled": 0, "type": "electric_scooter", "lon": -76.9866915, "bike_id": "e6513fa38888ed00755609266f8cf35a", "fusion_lat": 0.0, "name": "e6513fa38888ed00755609266f8cf35a", "is_reserved": 0, "rental_uris": {"android": "https://dc.lft.to/lastmile_qr_scan", "ios": "https://dc.lft.to/lastmile_qr_scan"}, "fusion_lon": 0.0}, {"lat": 38.916852666666664, "is_disabled": 0, "type": "electric_scooter", "lon": -77.0317965, "bike_id": "9bb4036f21dd04421e87bd0d4875494b", "fusion_lat": 0.0, "name": "9bb4036f21dd04421e87bd0d4875494b", "is_reserved": 0, "rental_uris": {"android": "https://dc.lft.to/lastmile_qr_scan", "ios": "https://dc.lft.to/lastmile_qr_scan"}, "fusion_lon": 0.0}, {"lat": 38.88156433333333, "is_disabled": 0, "type": "electric_scooter", "lon": -77.02735833333334, "bike_id": "413d26e6ac183ec360cc5e493f4eecd8", "fusion_lat": 0.0, "name": "413d26e6ac183ec360cc5e493f4eecd8", "is_reserved": 0, "rental_uris": {"android": "https://dc.lft.to/lastmile_qr_scan", "ios": "https://dc.lft.to/lastmile_qr_scan"}, "fusion_lon": 0.0}, {"lat": 38.9283025, "is_disabled": 0, "type": "electric_scooter", "lon": -77.01380916666666, "bike_id": "a2956dcdfb1deb1b187179c348c0c2ab", "fusion_lat": 0.0, "name": "a2956dcdfb1deb1b187179c348c0c2ab", "is_reserved": 0, "rental_uris": {"android": "https://dc.lft.to/lastmile_qr_scan", "ios": "https://dc.lft.to/lastmile_qr_scan"}, "fusion_lon": 0.0}, {"lat": 38.933572, "is_disabled": 0, "type": "electric_bike", "lon": -77.09960366666667, "bike_id": "75aeb3ad7194b7cad1ae1c397b24f478", "fusion_lat": 0.0, "name": "75aeb3ad7194b7cad1ae1c397b24f478", "is_reserved": 0, "rental_uris": {"android": "https://dc.lft.to/lastmile_qr_scan", "ios": "https://dc.lft.to/lastmile_qr_scan"}, "fusion_lon": 0.0}, {"lat": 38.951635333333336, "is_disabled": 0, "type": "electric_bike", "lon": -76.96894016666667, "bike_id": "a41c34a510797f0deed141f00351a5cc", "fusion_lat": 0.0, "name": "a41c34a510797f0deed141f00351a5cc", "is_reserved": 0, "rental_uris": {"android": "https://dc.lft.to/lastmile_qr_scan", "ios": "https://dc.lft.to/lastmile_qr_scan"}, "fusion_lon": 0.0}, {"lat": 38.918729666666664, "is_disabled": 0, "type": "electric_scooter", "lon": -77.01219216666667, "bike_id": "c7c71afcb3007260ce9fbf614ce8b474", "fusion_lat": 0.0, "name": "c7c71afcb3007260ce9fbf614ce8b474", "is_reserved": 0, "rental_uris": {"android": "https://dc.lft.to/lastmile_qr_scan", "ios": "https://dc.lft.to/lastmile_qr_scan"}, "fusion_lon": 0.0}, {"lat": 38.900704, "is_disabled": 0, "type": "electric_scooter", "lon": -77.002086, "bike_id": "7dd1d8243c312f20e81ddb1b88f04a1b", "fusion_lat": 0.0, "name": "7dd1d8243c312f20e81ddb1b88f04a1b", "is_reserved": 0, "rental_uris": {"android": "https://dc.lft.to/lastmile_qr_scan", "ios": "https://dc.lft.to/lastmile_qr_scan"}, "fusion_lon": 0.0}, {"lat": 38.913030166666665, "is_disabled": 0, "type": "electric_scooter", "lon": -77.02399933333334, "bike_id": "2be7eefba82446f10b79630d4dc95370", "fusion_lat": 0.0, "name": "2be7eefba82446f10b79630d4dc95370", "is_reserved": 0, "rental_uris": {"android": "https://dc.lft.to/lastmile_qr_scan", "ios": "https://dc.lft.to/lastmile_qr_scan"}, "fusion_lon": 0.0}, {"lat": 38.907371833333336, "is_disabled": 0, "type": "electric_scooter", "lon": -77.03461566666667, "bike_id": "1dab6aa2e7a9f55e449fa8998e19afa8", "fusion_lat": 0.0, "name": "1dab6aa2e7a9f55e449fa8998e19afa8", "is_reserved": 0, "rental_uris": {"android": "https://dc.lft.to/lastmile_qr_scan", "ios": "https://dc.lft.to/lastmile_qr_scan"}, "fusion_lon": 0.0}, {"lat": 38.9036, "is_disabled": 0, "type": "electric_scooter", "lon": -77.04466166666667, "bike_id": "0b69b967f84dfc3d22bb7d78fb213744", "fusion_lat": 0.0, "name": "0b69b967f84dfc3d22bb7d78fb213744", "is_reserved": 0, "rental_uris": {"android": "https://dc.lft.to/lastmile_qr_scan", "ios": "https://dc.lft.to/lastmile_qr_scan"}, "fusion_lon": 0.0}, {"lat": 38.9027045, "is_disabled": 0, "type": "electric_scooter", "lon": -77.03946066666667, "bike_id": "9fd6d5b5a6dcc94bbd69407882b8f9e7", "fusion_lat": 0.0, "name": "9fd6d5b5a6dcc94bbd69407882b8f9e7", "is_reserved": 0, "rental_uris": {"android": "https://dc.lft.to/lastmile_qr_scan", "ios": "https://dc.lft.to/lastmile_qr_scan"}, "fusion_lon": 0.0}, {"lat": 38.866187333333336, "is_disabled": 0, "type": "electric_scooter", "lon": -76.98640583333334, "bike_id": "229ae5c9fc1f126d75611c532843d1bd", "fusion_lat": 0.0, "name": "229ae5c9fc1f126d75611c532843d1bd", "is_reserved": 0, "rental_uris": {"android": "https://dc.lft.to/lastmile_qr_scan", "ios": "https://dc.lft.to/lastmile_qr_scan"}, "fusion_lon": 0.0}, {"lat": 38.93340533333333, "is_disabled": 0, "type": "electric_scooter", "lon": -76.99302266666666, "bike_id": "17a56130216560fc62a8f06d96107563", "fusion_lat": 0.0, "name": "17a56130216560fc62a8f06d96107563", "is_reserved": 0, "rental_uris": {"android": "https://dc.lft.to/lastmile_qr_scan", "ios": "https://dc.lft.to/lastmile_qr_scan"}, "fusion_lon": 0.0}, {"lat": 38.92119183333333, "is_disabled": 0, "type": "electric_scooter", "lon": -77.04109383333333, "bike_id": "2889831637dc6af18b7896acc9d9eda5", "fusion_lat": 0.0, "name": "2889831637dc6af18b7896acc9d9eda5", "is_reserved": 0, "rental_uris": {"android": "https://dc.lft.to/lastmile_qr_scan", "ios": "https://dc.lft.to/lastmile_qr_scan"}, "fusion_lon": 0.0}, {"lat": 38.9183525, "is_disabled": 0, "type": "electric_scooter", "lon": -77.023095, "bike_id": "b5a0cccba0437d77b2290c940157e535", "fusion_lat": 0.0, "name": "b5a0cccba0437d77b2290c940157e535", "is_reserved": 0, "rental_uris": {"android": "https://dc.lft.to/lastmile_qr_scan", "ios": "https://dc.lft.to/lastmile_qr_scan"}, "fusion_lon": 0.0}, {"lat": 38.9375025, "is_disabled": 0, "type": "electric_scooter", "lon": -77.0345385, "bike_id": "5c9a767683aac3c99980fa05c4ce8b02", "fusion_lat": 0.0, "name": "5c9a767683aac3c99980fa05c4ce8b02", "is_reserved": 0, "rental_uris": {"android": "https://dc.lft.to/lastmile_qr_scan", "ios": "https://dc.lft.to/lastmile_qr_scan"}, "fusion_lon": 0.0}, {"lat": 38.845459166666664, "is_disabled": 0, "type": "electric_bike", "lon": -76.990626, "bike_id": "e87d8bd4d791fbfd12201f44da9d257d", "fusion_lat": 0.0, "name": "e87d8bd4d791fbfd12201f44da9d257d", "is_reserved": 0, "rental_uris": {"android": "https://dc.lft.to/lastmile_qr_scan", "ios": "https://dc.lft.to/lastmile_qr_scan"}, "fusion_lon": 0.0}, {"lat": 38.91125566666667, "is_disabled": 0, "type": "electric_scooter", "lon": -77.02199483333334, "bike_id": "2a1d57f3208fa96c93a362912ca7b9f9", "fusion_lat": 0.0, "name": "2a1d57f3208fa96c93a362912ca7b9f9", "is_reserved": 0, "rental_uris": {"android": "https://dc.lft.to/lastmile_qr_scan", "ios": "https://dc.lft.to/lastmile_qr_scan"}, "fusion_lon": 0.0}, {"lat": 38.8049895, "is_disabled": 0, "type": "electric_bike", "lon": -77.04133266666666, "bike_id": "de6f32dfc46cd265057fffe34ecd102e", "fusion_lat": 0.0, "name": "de6f32dfc46cd265057fffe34ecd102e", "is_reserved": 0, "rental_uris": {"android": "https://dc.lft.to/lastmile_qr_scan", "ios": "https://dc.lft.to/lastmile_qr_scan"}, "fusion_lon": 0.0}, {"lat": 38.917554, "is_disabled": 0, "type": "electric_scooter", "lon": -77.031999, "bike_id": "b79508bf612ac4bf7fddc4591780e14e", "fusion_lat": 0.0, "name": "b79508bf612ac4bf7fddc4591780e14e", "is_reserved": 0, "rental_uris": {"android": "https://dc.lft.to/lastmile_qr_scan", "ios": "https://dc.lft.to/lastmile_qr_scan"}, "fusion_lon": 0.0}, {"lat": 38.9132985, "is_disabled": 0, "type": "electric_scooter", "lon": -77.03181733333334, "bike_id": "a57cc1a6a57e79769913b0a6cd2c1af1", "fusion_lat": 0.0, "name": "a57cc1a6a57e79769913b0a6cd2c1af1", "is_reserved": 0, "rental_uris": {"android": "https://dc.lft.to/lastmile_qr_scan", "ios": "https://dc.lft.to/lastmile_qr_scan"}, "fusion_lon": 0.0}, {"lat": 38.897583166666664, "is_disabled": 0, "type": "electric_scooter", "lon": -77.055025, "bike_id": "be36fe84748600edefd9bcc5a077df08", "fusion_lat": 0.0, "name": "be36fe84748600edefd9bcc5a077df08", "is_reserved": 0, "rental_uris": {"android": "https://dc.lft.to/lastmile_qr_scan", "ios": "https://dc.lft.to/lastmile_qr_scan"},