{"data": {"bikes": [{"lon": -77.00872133333333, "bike_id": "086f56b92c4dada018151ab2a46d889a", "lat": 38.906570333333335, "fusion_lon": 0.0, "fusion_lat": 0.0, "type": "electric_scooter", "name": "086f56b92c4dada018151ab2a46d889a", "is_disabled": 0, "rental_uris": {"ios": "https://dc.lft.to/lastmile_qr_scan", "android": "https://dc.lft.to/lastmile_qr_scan"}, "is_reserved": 0}, {"lon": -77.0083325, "bike_id": "4daa5c95a178c302e2e232e0e15795fe", "lat": 38.915625666666664, "fusion_lon": 0.0, "fusion_lat": 0.0, "type": "electric_scooter", "name": "4daa5c95a178c302e2e232e0e15795fe", "is_disabled": 0, "rental_uris": {"ios": "https://dc.lft.to/lastmile_qr_scan", "android": "https://dc.lft.to/lastmile_qr_scan"}, "is_reserved": 0}, {"lon": -77.04584366666667, "bike_id": "63343b93f4613329f474d6debc0687b1", "lat": 38.92127716666667, "fusion_lon": 0.0, "fusion_lat": 0.0, "type": "electric_scooter", "name": "63343b93f4613329f474d6debc0687b1", "is_disabled": 0, "rental_uris": {"ios": "https://dc.lft.to/lastmile_qr_scan", "android": "https://dc.lft.to/lastmile_qr_scan"}, "is_reserved": 0}, {"lon": -77.04155683333333, "bike_id": "120b8f7bad3e9f70aea2e0c52fc2183a", "lat": 38.91550066666667, "fusion_lon": 0.0, "fusion_lat": 0.0, "type": "electric_scooter", "name": "120b8f7bad3e9f70aea2e0c52fc2183a", "is_disabled": 0, "rental_uris": {"ios": "https://dc.lft.to/lastmile_qr_scan", "android": "https://dc.lft.to/lastmile_qr_scan"}, "is_reserved": 0}, {"lon": -76.99001566666666, "bike_id": "6ec57325efe9fe01a617c5f6cb4f99ff", "lat": 38.86507483333333, "fusion_lon": 0.0, "fusion_lat": 0.0, "type": "electric_scooter", "name": "6ec57325efe9fe01a617c5f6cb4f99ff", "is_disabled": 0, "rental_uris": {"ios": "https://dc.lft.to/lastmile_qr_scan", "android": "https://dc.lft.to/lastmile_qr_scan"}, "is_reserved": 0}, {"lon": -77.00584516666666, "bike_id": "0769ac1b9dfdccd3c98d6acfa4b324e2", "lat": 38.87621866666667, "fusion_lon": 0.0, "fusion_lat": 0.0, "type": "electric_scooter", "name": "0769ac1b9dfdccd3c98d6acfa4b324e2", "is_disabled": 0, "rental_uris": {"ios": "https://dc.lft.to/lastmile_qr_scan", "android": "https://dc.lft.to/lastmile_qr_scan"}, "is_reserved": 0}, {"lon": -77.0556875, "bike_id": "abc309785bce5a9d2ba5641d622c4f2e", "lat": 38.8998075, "fusion_lon": 0.0, "fusion_lat": 0.0, "type": "electric_scooter", "name": "abc309785bce5a9d2ba5641d622c4f2e", "is_disabled": 0, "rental_uris": {"ios": "https://dc.lft.to/lastmile_qr_scan", "android": "https://dc.lft.to/lastmile_qr_scan"}, "is_reserved": 0}, {"lon": -76.99542716666667, "bike_id": "873cec858a7377b7eb035b5e87540b68", "lat": 38.862575, "fusion_lon": 0.0, "fusion_lat": 0.0, "type": "electric_scooter", "name": "873cec858a7377b7eb035b5e87540b68", "is_disabled": 0, "rental_uris": {"ios": "https://dc.lft.to/lastmile_qr_scan", "android": "https://dc.lft.to/lastmile_qr_scan"}, "is_reserved": 0}, {"lon": -77.00675033333333, "bike_id": "b04da4774800b81dfeb047e700cfbb9f", "lat": 38.876472666666665, "fusion_lon": 0.0, "fusion_lat": 0.0, "type": "electric_scooter", "name": "b04da4774800b81dfeb047e700cfbb9f", "is_disabled": 0, "rental_uris": {"ios": "https://dc.lft.to/lastmile_qr_scan", "android": "https://dc.lft.to/lastmile_qr_scan"}, "is_reserved": 0}, {"lon": -77.00375133333333, "bike_id": "e0065b5a9f3f73aa6daad2ea68b566ff", "lat": 38.89733966666667, "fusion_lon": 0.0, "fusion_lat": 0.0, "type": "electric_scooter", "name": "e0065b5a9f3f73aa6daad2ea68b566ff", "is_disabled": 0, "rental_uris": {"ios": "https://dc.lft.to/lastmile_qr_scan", "android": "https://dc.lft.to/lastmile_qr_scan"}, "is_reserved": 0}, {"lon": -77.0343345, "bike_id": "3468c369697a2a2607837c4a4d8afa70", "lat": 38.91032633333333, "fusion_lon": 0.0, "fusion_lat": 0.0, "type": "electric_scooter", "name": "3468c369697a2a2607837c4a4d8afa70", "is_disabled": 0, "rental_uris": {"ios": "https://dc.lft.to/lastmile_qr_scan", "android": "https://dc.lft.to/lastmile_qr_scan"}, "is_reserved": 0}, {"lon": -77.00059133333333, "bike_id": "e4fa1b293114bd9186de382e2994d9f7", "lat": 38.89654133333333, "fusion_lon": 0.0, "fusion_lat": 0.0, "type": "electric_scooter", "name": "e4fa1b293114bd9186de382e2994d9f7", "is_disabled": 0, "rental_uris": {"ios": "https://dc.lft.to/lastmile_qr_scan", "android": "https://dc.lft.to/lastmile_qr_scan"}, "is_reserved": 0}, {"lon": -76.99457983333333, "bike_id": "6e60cb02b83b79b360434420cbf41720", "lat": 38.96622083333333, "fusion_lon": 0.0, "fusion_lat": 0.0, "type": "electric_bike", "name": "6e60cb02b83b79b360434420cbf41720", "is_disabled": 0, "rental_uris": {"ios": "https://dc.lft.to/lastmile_qr_scan", "android": "https://dc.lft.to/lastmile_qr_scan"}, "is_reserved": 0}, {"lon": -77.02485733333333, "bike_id": "a10d4de66c01401f7840a137ff60219b", "lat": 38.919356666666665, "fusion_lon": 0.0, "fusion_lat": 0.0, "type": "electric_scooter", "name": "a10d4de66c01401f7840a137ff60219b", "is_disabled": 0, "rental_uris": {"ios": "https://dc.lft.to/lastmile_qr_scan", "android": "https://dc.lft.to/lastmile_qr_scan"}, "is_reserved": 0}, {"lon": -77.03545683333333, "bike_id": "3e6552c0d349cf9bf9ca563183fef74f", "lat": 38.917054666666665, "fusion_lon": 0.0, "fusion_lat": 0.0, "type": "electric_scooter", "name": "3e6552c0d349cf9bf9ca563183fef74f", "is_disabled": 0, "rental_uris": {"ios": "https://dc.lft.to/lastmile_qr_scan", "android": "https://dc.lft.to/lastmile_qr_scan"}, "is_reserved": 0}, {"lon": -77.025604, "bike_id": "a8f1e89244256451ee2dfbdbc59e9623", "lat": 38.92534783333333, "fusion_lon": 0.0, "fusion_lat": 0.0, "type": "electric_scooter", "name": "a8f1e89244256451ee2dfbdbc59e9623", "is_disabled": 0, "rental_uris": {"ios": "https://dc.lft.to/lastmile_qr_scan", "android": "https://dc.lft.to/lastmile_qr_scan"}, "is_reserved": 0}, {"lon": -77.0131595, "bike_id": "b91a44d102643691cefd6198d2f591f7", "lat": 38.8714885, "fusion_lon": 0.0, "fusion_lat": 0.0, "type": "electric_scooter", "name": "b91a44d102643691cefd6198d2f591f7", "is_disabled": 0, "rental_uris": {"ios": "https://dc.lft.to/lastmile_qr_scan", "android": "https://dc.lft.to/lastmile_qr_scan"}, "is_reserved": 0}, {"lon": -77.09867266666667, "bike_id": "0ca774324ad4614aba53cd518e74b018", "lat": 38.94971066666667, "fusion_lon": 0.0, "fusion_lat": 0.0, "type": "electric_scooter", "name": "0ca774324ad4614aba53cd518e74b018", "is_disabled": 0, "rental_uris": {"ios": "https://dc.lft.to/lastmile_qr_scan", "android": "https://dc.lft.to/lastmile_qr_scan"}, "is_reserved": 0}, {"lon": -77.02613716666667, "bike_id": "c5520e5c5b6de2215b4cdf5371d8deba", "lat": 38.92989, "fusion_lon": 0.0, "fusion_lat": 0.0, "type": "electric_scooter", "name": "c5520e5c5b6de2215b4cdf5371d8deba", "is_disabled": 0, "rental_uris": {"ios": "https://dc.lft.to/lastmile_qr_scan", "android": "https://dc.lft.to/lastmile_qr_scan"}, "is_reserved": 0}, {"lon": -77.054677, "bike_id": "6996a1609bd4196c53a59dd5299b7196", "lat": 38.8979035, "fusion_lon": 0.0, "fusion_lat": 0.0, "type": "electric_scooter", "name": "6996a1609bd4196c53a59dd5299b7196", "is_disabled": 0, "rental_uris": {"ios": "https://dc.lft.to/lastmile_qr_scan", "android": "https://dc.lft.to/lastmile_qr_scan"}, "is_reserved": 0}, {"lon": -77.0159165, "bike_id": "057a0e2890db1e70b88d7983bbd6774c", "lat": 38.872141666666664, "fusion_lon": 0.0, "fusion_lat": 0.0, "type": "electric_scooter", "name": "057a0e2890db1e70b88d7983bbd6774c", "is_disabled": 0, "rental_uris": {"ios": "https://dc.lft.to/lastmile_qr_scan", "android": "https://dc.lft.to/lastmile_qr_scan"}, "is_reserved": 0}, {"lon": -77.0064685, "bike_id": "363a281f6ab112cbe8e26adaf8478491", "lat": 38.8807665, "fusion_lon": 0.0, "fusion_lat": 0.0, "type": "electric_scooter", "name": "363a281f6ab112cbe8e26adaf8478491", "is_disabled": 0, "rental_uris": {"ios": "https://dc.lft.to/lastmile_qr_scan", "android": "https://dc.lft.to/lastmile_qr_scan"}, "is_reserved": 0}, {"lon": -77.027722, "bike_id": "c0d19ac3965f96373318a447f4ac66a3", "lat": 38.9622105, "fusion_lon": 0.0, "fusion_lat": 0.0, "type": "electric_scooter", "name": "c0d19ac3965f96373318a447f4ac66a3", "is_disabled": 0, "rental_uris": {"ios": "https://dc.lft.to/lastmile_qr_scan", "android": "https://dc.lft.to/lastmile_qr_scan"}, "is_reserved": 0}, {"lon": -77.021801, "bike_id": "2fb77db678e9a256848e568ee6b8f9ac", "lat": 38.90008616666667, "fusion_lon": 0.0, "fusion_lat": 0.0, "type": "electric_scooter", "name": "2fb77db678e9a256848e568ee6b8f9ac", "is_disabled": 0, "rental_uris": {"ios": "https://dc.lft.to/lastmile_qr_scan", "android": "https://dc.lft.to/lastmile_qr_scan"}, "is_reserved": 0}, {"lon": -77.05107033333333, "bike_id": "505d799fe8d7da06dbdf05e969b66218", "lat": 38.923093333333334, "fusion_lon": 0.0, "fusion_lat": 0.0, "type": "electric_scooter", "name": "505d799fe8d7da06dbdf05e969b66218", "is_disabled": 0, "rental_uris": {"ios": "https://dc.lft.to/lastmile_qr_scan", "android": "https://dc.lft.to/lastmile_qr_scan"}, "is_reserved": 0}, {"lon": -77.03842266666666, "bike_id": "032cfc197274ce5d704b6b1075493016", "lat": 38.9101885, "fusion_lon": 0.0, "fusion_lat": 0.0, "type": "electric_scooter", "name": "032cfc197274ce5d704b6b1075493016", "is_disabled": 0, "rental_uris": {"ios": "https://dc.lft.to/lastmile_qr_scan", "android": "https://dc.lft.to/lastmile_qr_scan"}, "is_reserved": 0}, {"lon": -77.02411533333333, "bike_id": "597d2ee48c45e697a6151bef2b22d0aa", "lat": 38.90412716666667, "fusion_lon": 0.0, "fusion_lat": 0.0, "type": "electric_scooter", "name": "597d2ee48c45e697a6151bef2b22d0aa", "is_disabled": 0, "rental_uris": {"ios": "https://dc.lft.to/lastmile_qr_scan", "android": "https://dc.lft.to/lastmile_qr_scan"}, "is_reserved": 0}, {"lon": -77.02348433333333, "bike_id": "554da86207ca0ca521d89686a407815e", "lat": 38.8997515, "fusion_lon": 0.0, "fusion_lat": 0.0, "type": "electric_scooter", "name": "554da86207ca0ca521d89686a407815e", "is_disabled": 0, "rental_uris": {"ios": "https://dc.lft.to/lastmile_qr_scan", "android": "https://dc.lft.to/lastmile_qr_scan"}, "is_reserved": 0}, {"lon": -77.02273633333333, "bike_id": "dda2d610b13fd66517d85069a8e01d76", "lat": 38.926863, "fusion_lon": 0.0, "fusion_lat": 0.0, "type": "electric_scooter", "name": "dda2d610b13fd66517d85069a8e01d76", "is_disabled": 0, "rental_uris": {"ios": "https://dc.lft.to/lastmile_qr_scan", "android": "https://dc.lft.to/lastmile_qr_scan"}, "is_reserved": 0}, {"lon": -76.96910416666667, "bike_id": "d4bfd9776b1f0b1855063742663d3dc6", "lat": 38.846119, "fusion_lon": 0.0, "fusion_lat": 0.0, "type": "electric_bike", "name": "d4bfd9776b1f0b1855063742663d3dc6", "is_disabled": 0, "rental_uris": {"ios": "https://dc.lft.to/lastmile_qr_scan", "android": "https://dc.lft.to/lastmile_qr_scan"}, "is_reserved": 0}, {"lon": -77.01413033333333, "bike_id": "fc3db86a1c4dc3ac6557c12fc9f76582", "lat": 38.928195333333335, "fusion_lon": 0.0, "fusion_lat": 0.0, "type": "electric_scooter", "name": "fc3db86a1c4dc3ac6557c12fc9f76582", "is_disabled": 0, "rental_uris": {"ios": "https://dc.lft.to/lastmile_qr_scan", "android": "https://dc.lft.to/lastmile_qr_scan"}, "is_reserved": 0}, {"lon": -77.012097, "bike_id": "dd47766a4c9c43eb10aa24cce8551002", "lat": 38.91652366666667, "fusion_lon": 0.0, "fusion_lat": 0.0, "type": "electric_scooter", "name": "dd47766a4c9c43eb10aa24cce8551002", "is_disabled": 0, "rental_uris": {"ios": "https://dc.lft.to/lastmile_qr_scan", "android": "https://dc.lft.to/lastmile_qr_scan"}, "is_reserved": 0}, {"lon": -77.00211216666666, "bike_id": "6f6f830a0ec568a678686ea3ccbf6840", "lat": 38.905196, "fusion_lon": 0.0, "fusion_lat": 0.0, "type": "electric_scooter", "name": "6f6f830a0ec568a678686ea3ccbf6840", "is_disabled": 0, "rental_uris": {"ios": "https://dc.lft.to/lastmile_qr_scan", "android": "https://dc.lft.to/lastmile_qr_scan"}, "is_reserved": 0}, {"lon": -77.115905, "bike_id": "00371074d1740847c03690e7d3b8a3e0", "lat": 39.074944, "fusion_lon": 0.0, "fusion_lat": 0.0, "type": "electric_bike", "name": "00371074d1740847c03690e7d3b8a3e0", "is_disabled": 0, "rental_uris": {"ios": "https://dc.lft.to/lastmile_qr_scan", "android": "https://dc.lft.to/lastmile_qr_scan"}, "is_reserved": 0}, {"lon": -76.98714166666667, "bike_id": "7981e253e7a8de9ac20916e9bda58aae", "lat": 38.866309333333334, "fusion_lon": 0.0, "fusion_lat": 0.0, "type": "electric_scooter", "name": "7981e253e7a8de9ac20916e9bda58aae", "is_disabled": 0, "rental_uris": {"ios": "https://dc.lft.to/lastmile_qr_scan", "android": "https://dc.lft.to/lastmile_qr_scan"}, "is_reserved": 0}, {"lon": -76.94988466666666, "bike_id": "d0b98325068275f5cec16b2d63227412", "lat": 38.8938625, "fusion_lon": 0.0, "fusion_lat": 0.0, "type": "electric_scooter", "name": "d0b98325068275f5cec16b2d63227412", "is_disabled": 0, "rental_uris": {"ios": "https://dc.lft.to/lastmile_qr_scan", "android": "https://dc.lft.to/lastmile_qr_scan"}, "is_reserved": 0}, {"lon": -77.05861566666667, "bike_id": "eb6706051dc47f368a81874bb7af2a10", "lat": 38.93608433333333, "fusion_lon": 0.0, "fusion_lat": 0.0, "type": "electric_scooter", "name": "eb6706051dc47f368a81874bb7af2a10", "is_disabled": 0, "rental_uris": {"ios": "https://dc.lft.to/lastmile_qr_scan", "android": "https://dc.lft.to/lastmile_qr_scan"}, "is_reserved": 0}, {"lon": -77.07432616666667, "bike_id": "78a6431529fc8dce9e8c83d83022a475", "lat": 38.99947383333333, "fusion_lon": 0.0, "fusion_lat": 0.0, "type": "electric_bike", "name": "78a6431529fc8dce9e8c83d83022a475", "is_disabled": 0, "rental_uris": {"ios": "https://dc.lft.to/lastmile_qr_scan", "android": "https://dc.lft.to/lastmile_qr_scan"}, "is_reserved": 0}, {"lon": -77.02428483333334, "bike_id": "ab535ca1ef198f37fd7c9bbb5e438eed", "lat": 38.91407616666667, "fusion_lon": 0.0, "fusion_lat": 0.0, "type": "electric_scooter", "name": "ab535ca1ef198f37fd7c9bbb5e438eed", "is_disabled": 0, "rental_uris": {"ios": "https://dc.lft.to/lastmile_qr_scan", "android": "https://dc.lft.to/lastmile_qr_scan"}, "is_reserved": 0}, {"lon": -76.9801595, "bike_id": "bf35ff816485426dadff38f80c9a3ab8", "lat": 38.89891766666667, "fusion_lon": 0.0, "fusion_lat": 0.0, "type": "electric_scooter", "name": "bf35ff816485426dadff38f80c9a3ab8", "is_disabled": 0, "rental_uris": {"ios": "https://dc.lft.to/lastmile_qr_scan", "android": "https://dc.lft.to/lastmile_qr_scan"}, "is_reserved": 0}, {"lon": -77.00737316666667, "bike_id": "8eaf5a00b18ed7b8ae3015ac01c53f23", "lat": 38.916278166666665, "fusion_lon": 0.0, "fusion_lat": 0.0, "type": "electric_scooter", "name": "8eaf5a00b18ed7b8ae3015ac01c53f23", "is_disabled": 0, "rental_uris": {"ios": "https://dc.lft.to/lastmile_qr_scan", "android": "https://dc.lft.to/lastmile_qr_scan"}, "is_reserved": 0}, {"lon": -77.01431016666666, "bike_id": "312b8ae1fa94cd84d0d705a8340ac0d5", "lat": 38.9146475, "fusion_lon": 0.0, "fusion_lat": 0.0, "type": "electric_scooter", "name": "312b8ae1fa94cd84d0d705a8340ac0d5", "is_disabled": 0, "rental_uris": {"ios": "https://dc.lft.to/lastmile_qr_scan", "android": "https://dc.lft.to/lastmile_qr_scan"}, "is_reserved": 0}, {"lon": -77.03259516666667, "bike_id": "f80b4bbba9ad8a97e517632f29220f4a", "lat": 38.93563983333333, "fusion_lon": 0.0, "fusion_lat": 0.0, "type": "electric_scooter", "name": "f80b4bbba9ad8a97e517632f29220f4a", "is_disabled": 0, "rental_uris": {"ios": "https://dc.lft.to/lastmile_qr_scan", "android": "https://dc.lft.to/lastmile_qr_scan"}, "is_reserved": 0}, {"lon": -77.01447833333333, "bike_id": "9edea2c2e0e3bf0447a8ee7a3add9c03", "lat": 38.8793735, "fusion_lon": 0.0, "fusion_lat": 0.0, "type": "electric_scooter", "name": "9edea2c2e0e3bf0447a8ee7a3add9c03", "is_disabled": 0, "rental_uris": {"ios": "https://dc.lft.to/lastmile_qr_scan", "android": "https://dc.lft.to/lastmile_qr_scan"}, "is_reserved": 0}, {"lon": -76.981033, "bike_id": "871c1b5d7a0087f13f718a3f872fec03", "lat": 38.90410383333333, "fusion_lon": 0.0, "fusion_lat": 0.0, "type": "electric_scooter", "name": "871c1b5d7a0087f13f718a3f872fec03", "is_disabled": 0, "rental_uris": {"ios": "https://dc.lft.to/lastmile_qr_scan", "android": "https://dc.lft.to/lastmile_qr_scan"}, "is_reserved": 0}, {"lon": -76.98689933333333, "bike_id": "ce331c13b2ae69cf12d365c5d3170869", "lat": 38.912246833333334, "fusion_lon": 0.0, "fusion_lat": 0.0, "type": "electric_scooter", "name": "ce331c13b2ae69cf12d365c5d3170869", "is_disabled": 0, "rental_uris": {"ios": "https://dc.lft.to/lastmile_qr_scan", "android": "https://dc.lft.to/lastmile_qr_scan"}, "is_reserved": 0}, {"lon": -77.0258685, "bike_id": "1731d467786de64c87749c8b9592e673", "lat": 38.89232483333333, "fusion_lon": 0.0, "fusion_lat": 0.0, "type": "electric_scooter", "name": "1731d467786de64c87749c8b9592e673", "is_disabled": 0, "rental_uris": {"ios": "https://dc.lft.to/lastmile_qr_scan", "android": "https://dc.lft.to/lastmile_qr_scan"}, "is_reserved": 0}, {"lon": -76.98171166666667, "bike_id": "8b77d5c5924fb29b4da27041017c3879", "lat": 38.9044185, "fusion_lon": 0.0, "fusion_lat": 0.0, "type": "electric_scooter", "name": "8b77d5c5924fb29b4da27041017c3879", "is_disabled": 0, "rental_uris": {"ios": "https://dc.lft.to/lastmile_qr_scan", "android": "https://dc.lft.to/lastmile_qr_scan"}, "is_reserved": 0}, {"lon": -77.02397283333333, "bike_id": "7d0a5c7d2b76dd3ded228270758c5efd", "lat": 38.90952716666666, "fusion_lon": 0.0, "fusion_lat": 0.0, "type": "electric_scooter", "name": "7d0a5c7d2b76dd3ded228270758c5efd", "is_disabled": 0, "rental_uris": {"ios": "https://dc.lft.to/lastmile_qr_scan", "android": "https://dc.lft.to/lastmile_qr_scan"}, "is_reserved": 0}, {"lon": -77.02162016666666, "bike_id": "b1dc0a15c61ac45e12aa63735722253f", "lat": 38.8930045, "fusion_lon": 0.0, "fusion_lat": 0.0, "type": "electric_scooter", "name": "b1dc0a15c61ac45e12aa63735722253f", "is_disabled": 0, "rental_uris": {"ios": "https://dc.lft.to/lastmile_qr_scan", "android": "https://dc.lft.to/lastmile_qr_scan"}, "is_reserved": 0}, {"lon": -77.02161883333333, "bike_id": "08c23002c8346ecf16cd1caf51d1699d", "lat": 38.9097395, "fusion_lon": 0.0, "fusion_lat": 0.0, "type": "electric_scooter", "name": "08c23002c8346ecf16cd1caf51d1699d", "is_disabled": 0, "rental_uris": {"ios": "https://dc.lft.to/lastmile_qr_scan", "android": "https://dc.lft.to/lastmile_qr_scan"}, "is_reserved": 0}, {"lon": -77.023452, "bike_id": "ccc2fb4475f1032ae56ee00e9a406f16", "lat": 38.922539, "fusion_lon": 0.0, "fusion_lat": 0.0, "type": "electric_scooter", "name": "ccc2fb4475f1032ae56ee00e9a406f16", "is_disabled": 0, "rental_uris": {"ios": "https://dc.lft.to/lastmile_qr_scan", "android": "https://dc.lft.to/lastmile_qr_scan"}, "is_reserved": 0}, {"lon": -77.02249783333333, "bike_id": "a040d6de7aebc072aeaeae74e25ae1a4", "lat": 38.89467766666667, "fusion_lon": 0.0, "fusion_lat": 0.0, "type": "electric_scooter", "name": "a040d6de7aebc072aeaeae74e25ae1a4", "is_disabled": 0, "rental_uris": {"ios": "https://dc.lft.to/lastmile_qr_scan", "android": "https://dc.lft.to/lastmile_qr_scan"}, "is_reserved": 0}, {"lon": -76.96385133333334, "bike_id": "45794e3eb2bd8c5ed6659c6bce00bed1", "lat": 38.951745, "fusion_lon": 0.0, "fusion_lat": 0.0, "type": "electric_bike", "name": "45794e3eb2bd8c5ed6659c6bce00bed1", "is_disabled": 0, "rental_uris": {"ios": "https://dc.lft.to/lastmile_qr_scan", "android": "https://dc.lft.to/lastmile_qr_scan"}, "is_reserved": 0}, {"lon": -77.00789666666667, "bike_id": "7c3fbafbf43c3cae4ac19ae07026fd0b", "lat": 38.89671033333333, "fusion_lon": 0.0, "fusion_lat": 0.0, "type": "electric_scooter", "name": "7c3fbafbf43c3cae4ac19ae07026fd0b", "is_disabled": 0, "rental_uris": {"ios": "https://dc.lft.to/lastmile_qr_scan", "android": "https://dc.lft.to/lastmile_qr_scan"}, "is_reserved": 0}, {"lon": -77.03614266666666, "bike_id": "ba579cc6ecb8b371ccc2fae00c0196a2", "lat": 38.937433, "fusion_lon": 0.0, "fusion_lat": 0.0, "type": "electric_scooter", "name": "ba579cc6ecb8b371ccc2fae00c0196a2", "is_disabled": 0, "rental_uris": {"ios": "https://dc.lft.to/lastmile_qr_scan", "android": "https://dc.lft.to/lastmile_qr_scan"}, "is_reserved": 0}, {"lon": -77.03071483333333, "bike_id": "d2a9a4eb2726732290a7d598374a7514", "lat": 38.918211666666664, "fusion_lon": 0.0, "fusion_lat": 0.0, "type": "electric_scooter", "name": "d2a9a4eb2726732290a7d598374a7514", "is_disabled": 0, "rental_uris": {"ios": "https://dc.lft.to/lastmile_qr_scan", "android": "https://dc.lft.to/lastmile_qr_scan"}, "is_reserved": 0}, {"lon": -77.01141, "bike_id": "3a679b2802deb424cdc84bc0a8115c77", "lat": 38.90650316666667, "fusion_lon": 0.0, "fusion_lat": 0.0, "type": "electric_scooter", "name": "3a679b2802deb424cdc84bc0a8115c77", "is_disabled": 0, "rental_uris": {"ios": "https://dc.lft.to/lastmile_qr_scan", "android": "https://dc.lft.to/lastmile_qr_scan"}, "is_reserved": 0}, {"lon": -77.03250616666666, "bike_id": "2a423f9e84d193cd43efbe5dd3b55eb6", "lat": 38.90452783333333, "fusion_lon": 0.0, "fusion_lat": 0.0, "type": "electric_scooter", "name": "2a423f9e84d193cd43efbe5dd3b55eb6", "is_disabled": 0, "rental_uris": {"ios": "https://dc.lft.to/lastmile_qr_scan", "android": "https://dc.lft.to/lastmile_qr_scan"}, "is_reserved": 0}, {"lon": -76.9859135, "bike_id": "34ef69ad57fb8053d53e0a5fe59b26ab", "lat": 38.908132333333334, "fusion_lon": 0.0, "fusion_lat": 0.0, "type": "electric_scooter", "name": "34ef69ad57fb8053d53e0a5fe59b26ab", "is_disabled": 0, "rental_uris": {"ios": "https://dc.lft.to/lastmile_qr_scan", "android": "https://dc.lft.to/lastmile_qr_scan"}, "is_reserved": 0}, {"lon": -76.93373933333334, "bike_id": "bdc571e1a2dca4b6c22cdbc86e52c093", "lat": 38.89914316666667, "fusion_lon": 0.0, "fusion_lat": 0.0, "type": "electric_scooter", "name": "bdc571e1a2dca4b6c22cdbc86e52c093", "is_disabled": 0, "rental_uris": {"ios": "https://dc.lft.to/lastmile_qr_scan", "android": "https://dc.lft.to/lastmile_qr_scan"}, "is_reserved": 0}, {"lon": -76.94436366666666, "bike_id": "c179a48e49f5875b5556264bc4927635", "lat": 38.90044, "fusion_lon": 0.0, "fusion_lat": 0.0, "type": "electric_scooter", "name": "c179a48e49f5875b5556264bc4927635", "is_disabled": 0, "rental_uris": {"ios": "https://dc.lft.to/lastmile_qr_scan", "android": "https://dc.lft.to/lastmile_qr_scan"}, "is_reserved": 0}, {"lon": -77.00133633333333, "bike_id": "87432bd82b586ebff5609241c59f76ae", "lat": 38.9255405, "fusion_lon": 0.0, "fusion_lat": 0.0, "type": "electric_bike", "name": "87432bd82b586ebff5609241c59f76ae", "is_disabled": 0, "rental_uris": {"ios": "https://dc.lft.to/lastmile_qr_scan", "android": "https://dc.lft.to/lastmile_qr_scan"}, "is_reserved": 0}, {"lon": -77.0270895, "bike_id": "b5992fda4666fd3470af8f841067abec", "lat": 38.90670583333333, "fusion_lon": 0.0, "fusion_lat": 0.0, "type": "electric_scooter", "name": "b5992fda4666fd3470af8f841067abec", "is_disabled": 0, "rental_uris": {"ios": "https://dc.lft.to/lastmile_qr_scan", "android": "https://dc.lft.to/lastmile_qr_scan"}, "is_reserved": 0}, {"lon": -77.10092233333333, "bike_id": "e79875e46e71531e7b6f36cb084a973a", "lat": 38.959566833333334, "fusion_lon": 0.0, "fusion_lat": 0.0, "type": "electric_bike", "name": "e79875e46e71531e7b6f36cb084a973a", "is_disabled": 0, "rental_uris": {"ios": "https://dc.lft.to/lastmile_qr_scan", "android": "https://dc.lft.to/lastmile_qr_scan"}, "is_reserved": 0}, {"lon": -77.011476, "bike_id": "e3160a431cf996505cb99192127a39f0", "lat": 38.914079666666666, "fusion_lon": 0.0, "fusion_lat": 0.0, "type": "electric_scooter", "name": "e3160a431cf996505cb99192127a39f0", "is_disabled": 0, "rental_uris": {"ios": "https://dc.lft.to/lastmile_qr_scan", "android": "https://dc.lft.to/lastmile_qr_scan"}, "is_reserved": 0}, {"lon": -76.98378333333334, "bike_id": "61e9c2657ce7d4c7d7d47ab924fedc92", "lat": 38.91499066666667, "fusion_lon": 0.0, "fusion_lat": 0.0, "type": "electric_scooter", "name": "61e9c2657ce7d4c7d7d47ab924fedc92", "is_disabled": 0, "rental_uris": {"ios": "https://dc.lft.to/lastmile_qr_scan", "android": "https://dc.lft.to/lastmile_qr_scan"}, "is_reserved": 0}, {"lon": -76.98773883333334, "bike_id": "c1ba18f7c316d1b4ced978f0ac3ebed6", "lat": 38.906659833333336, "fusion_lon": 0.0, "fusion_lat": 0.0, "type": "electric_scooter", "name": "c1ba18f7c316d1b4ced978f0ac3ebed6", "is_disabled": 0, "rental_uris": {"ios": "https://dc.lft.to/lastmile_qr_scan", "android": "https://dc.lft.to/lastmile_qr_scan"}, "is_reserved": 0}, {"lon": -77.01183483333334, "bike_id": "4de2a13b2d011695d5084a0c7b376782", "lat": 38.8723485, "fusion_lon": 0.0, "fusion_lat": 0.0, "type": "electric_bike", "name": "4de2a13b2d011695d5084a0c7b376782", "is_disabled": 0, "rental_uris": {"ios": "https://dc.lft.to/lastmile_qr_scan", "android": "https://dc.lft.to/lastmile_qr_scan"}, "is_reserved": 0}, {"lon": -77.01253866666667, "bike_id": "0434ed301183c978755a3558f3119f35", "lat": 38.90851883333333, "fusion_lon": 0.0, "fusion_lat": 0.0, "type": "electric_scooter", "name": "0434ed301183c978755a3558f3119f35", "is_disabled": 0, "rental_uris": {"ios": "https://dc.lft.to/lastmile_qr_scan", "android": "https://dc.lft.to/lastmile_qr_scan"}, "is_reserved": 0}, {"lon": -77.04648183333333, "bike_id": "c0820298b155461ab21111b1a393047a", "lat": 38.91577633333333, "fusion_lon": 0.0, "fusion_lat": 0.0, "type": "electric_scooter", "name": "c0820298b155461ab21111b1a393047a", "is_disabled": 0, "rental_uris": {"ios": "https://dc.lft.to/lastmile_qr_scan", "android": "https://dc.lft.to/lastmile_qr_scan"}, "is_reserved": 0}, {"lon": -76.99405383333334, "bike_id": "db5e778a1ab8de71ec9e9e82a6e93c82", "lat": 38.831403333333334, "fusion_lon": 0.0, "fusion_lat": 0.0, "type": "electric_bike", "name": "db5e778a1ab8de71ec9e9e82a6e93c82", "is_disabled": 0, "rental_uris": {"ios": "https://dc.lft.to/lastmile_qr_scan", "android": "https://dc.lft.to/lastmile_qr_scan"}, "is_reserved": 0}, {"lon": -77.03066033333333, "bike_id": "0e5c33565096c651a027d1d5be7c4a71", "lat": 38.90806666666667, "fusion_lon": 0.0, "fusion_lat": 0.0, "type": "electric_scooter", "name": "0e5c33565096c651a027d1d5be7c4a71", "is_disabled": 0, "rental_uris": {"ios": "https://dc.lft.to/lastmile_qr_scan", "android": "https://dc.lft.to/lastmile_qr_scan"}, "is_reserved": 0}, {"lon": -77.017663, "bike_id": "8623b9c521c7c839266be4917b6a585d", "lat": 38.921082, "fusion_lon": 0.0, "fusion_lat": 0.0, "type": "electric_scooter", "name": "8623b9c521c7c839266be4917b6a585d", "is_disabled": 0, "rental_uris": {"ios": "https://dc.lft.to/lastmile_qr_scan", "android": "https://dc.lft.to/lastmile_qr_scan"}, "is_reserved": 0}, {"lon": -77.03658566666667, "bike_id": "2947cc7b2204fb036f2cc6c1c6c435d4", "lat": 38.91752533333333, "fusion_lon": 0.0, "fusion_lat": 0.0, "type": "electric_scooter", "name": "2947cc7b2204fb036f2cc6c1c6c435d4", "is_disabled": 0, "rental_uris": {"ios": "https://dc.lft.to/lastmile_qr_scan", "android": "https://dc.lft.to/lastmile_qr_scan"}, "is_reserved": 0}, {"lon": -77.02536066666667, "bike_id": "73e81dc5337f18dba6b14e76deec2e73", "lat": 38.92749283333333, "fusion_lon": 0.0, "fusion_lat": 0.0, "type": "electric_scooter", "name": "73e81dc5337f18dba6b14e76deec2e73", "is_disabled": 0, "rental_uris": {"ios": "https://dc.lft.to/lastmile_qr_scan", "android": "https://dc.lft.to/lastmile_qr_scan"}, "is_reserved": 0}, {"lon": -76.9849685, "bike_id": "14dc1cd7bf1fb9f589480e98921c8e34", "lat": 38.92006583333333, "fusion_lon": 0.0, "fusion_lat": 0.0, "type": "electric_scooter", "name": "14dc1cd7bf1fb9f589480e98921c8e34", "is_disabled": 0, "rental_uris": {"ios": "https://dc.lft.to/lastmile_qr_scan", "android": "https://dc.lft.to/lastmile_qr_scan"}, "is_reserved": 0}, {"lon": -77.02838133333333, "bike_id": "5a9cf1da8ba6597fb6dce12dcdf50938", "lat": 38.887755166666665, "fusion_lon": 0.0, "fusion_lat": 0.0, "type": "electric_scooter", "name": "5a9cf1da8ba6597fb6dce12dcdf50938", "is_disabled": 0, "rental_uris": {"ios": "https://dc.lft.to/lastmile_qr_scan", "android": "https://dc.lft.to/lastmile_qr_scan"}, "is_reserved": 0}, {"lon": -77.0185635, "bike_id": "949a06ab71ce9cae6cf6b1150f213d66", "lat": 38.92026933333333, "fusion_lon": 0.0, "fusion_lat": 0.0, "type": "electric_scooter", "name": "949a06ab71ce9cae6cf6b1150f213d66", "is_disabled": 0, "rental_uris": {"ios": "https://dc.lft.to/lastmile_qr_scan", "android": "https://dc.lft.to/lastmile_qr_scan"}, "is_reserved": 0}, {"lon": -76.94991683333333, "bike_id": "2ed6ee4db4a058b1e458aeaddcc2f6d2", "lat": 38.893853, "fusion_lon": 0.0, "fusion_lat": 0.0, "type": "electric_scooter", "name": "2ed6ee4db4a058b1e458aeaddcc2f6d2", "is_disabled": 0, "rental_uris": {"ios": "https://dc.lft.to/lastmile_qr_scan", "android": "https://dc.lft.to/lastmile_qr_scan"}, "is_reserved": 0}, {"lon": -76.98873366666666, "bike_id": "3743397d6f2c8e1eb54f21649188c2b7", "lat": 38.866665833333336, "fusion_lon": 0.0, "fusion_lat": 0.0, "type": "electric_scooter", "name": "3743397d6f2c8e1eb54f21649188c2b7", "is_disabled": 0, "rental_uris": {"ios": "https://dc.lft.to/lastmile_qr_scan", "android": "https://dc.lft.to/lastmile_qr_scan"}, "is_reserved": 0}, {"lon": -77.00888066666667, "bike_id": "c2e5be81b460c8d690ff6484167dda5f", "lat": 38.922761, "fusion_lon": 0.0, "fusion_lat": 0.0, "type": "electric_scooter", "name": "c2e5be81b460c8d690ff6484167dda5f", "is_disabled": 0, "rental_uris": {"ios": "https://dc.lft.to/lastmile_qr_scan", "android": "https://dc.lft.to/lastmile_qr_scan"}, "is_reserved": 0}, {"lon": -77.0237465, "bike_id": "38fe6a0672fc1b8d56357b39418efa4d", "lat": 38.91742333333333, "fusion_lon": 0.0, "fusion_lat": 0.0, "type": "electric_scooter", "name": "38fe6a0672fc1b8d56357b39418efa4d", "is_disabled": 0, "rental_uris": {"ios": "https://dc.lft.to/lastmile_qr_scan", "android": "https://dc.lft.to/lastmile_qr_scan"}, "is_reserved": 0}, {"lon": -77.0340105, "bike_id": "34215bc4f7cbec99575a65d1156c82f0", "lat": 38.92643233333333, "fusion_lon": 0.0, "fusion_lat": 0.0, "type": "electric_scooter", "name": "34215bc4f7cbec99575a65d1156c82f0", "is_disabled": 0, "rental_uris": {"ios": "https://dc.lft.to/lastmile_qr_scan", "android": "https://dc.lft.to/lastmile_qr_scan"}, "is_reserved": 0}, {"lon": -77.018981, "bike_id": "b600fff86e1222396775412ad475d553", "lat": 38.903193, "fusion_lon": 0.0, "fusion_lat": 0.0, "type": "electric_bike", "name": "b600fff86e1222396775412ad475d553", "is_disabled": 0, "rental_uris": {"ios": "https://dc.lft.to/lastmile_qr_scan", "android": "https://dc.lft.to/lastmile_qr_scan"}, "is_reserved": 0}, {"lon": -77.01188166666667, "bike_id": "0b3256e4a392481fd739c901c4746a33", "lat": 38.915490166666665, "fusion_lon": 0.0, "fusion_lat": 0.0, "type": "electric_scooter", "name": "0b3256e4a392481fd739c901c4746a33", "is_disabled": 0, "rental_uris": {"ios": "https://dc.lft.to/lastmile_qr_scan", "android": "https://dc.lft.to/lastmile_qr_scan"}, "is_reserved": 0}, {"lon": -77.23330083333333, "bike_id": "349f2c9bca1f488c8fdf9f867e68443d", "lat": 38.8727715, "fusion_lon": 0.0, "fusion_lat": 0.0, "type": "electric_bike", "name": "349f2c9bca1f488c8fdf9f867e68443d", "is_disabled": 0, "rental_uris": {"ios": "https://dc.lft.to/lastmile_qr_scan", "android": "https://dc.lft.to/lastmile_qr_scan"}, "is_reserved": 0}, {"lon": -77.02882016666666, "bike_id": "ae058e28ab703147d94389c88a37df57", "lat": 38.90424683333333, "fusion_lon": 0.0, "fusion_lat": 0.0, "type": "electric_scooter", "name": "ae058e28ab703147d94389c88a37df57", "is_disabled": 0, "rental_uris": {"ios": "https://dc.lft.to/lastmile_qr_scan", "android": "https://dc.lft.to/lastmile_qr_scan"}, "is_reserved": 0}, {"lon": -77.02702583333334, "bike_id": "492a5fbe1a2d378907179e30c03b0793", "lat": 38.927791666666664, "fusion_lon": 0.0, "fusion_lat": 0.0, "type": "electric_scooter", "name": "492a5fbe1a2d378907179e30c03b0793", "is_disabled": 0, "rental_uris": {"ios": "https://dc.lft.to/lastmile_qr_scan", "android": "https://dc.lft.to/lastmile_qr_scan"}, "is_reserved": 0}, {"lon": -77.0588895, "bike_id": "9ad5285ab6d5fb8ce5b0a2621ce67960", "lat": 38.936133, "fusion_lon": 0.0, "fusion_lat": 0.0, "type": "electric_scooter", "name": "9ad5285ab6d5fb8ce5b0a2621ce67960", "is_disabled": 0, "rental_uris": {"ios": "https://dc.lft.to/lastmile_qr_scan", "android": "https://dc.lft.to/lastmile_qr_scan"}, "is_reserved": 0}, {"lon": -76.97299133333334, "bike_id": "59556daa4b9f9e593134cbe21434c7da", "lat": 38.91645916666667, "fusion_lon": 0.0, "fusion_lat": 0.0, "type": "electric_bike", "name": "59556daa4b9f9e593134cbe21434c7da", "is_disabled": 0, "rental_uris": {"ios": "https://dc.lft.to/lastmile_qr_scan", "android": "https://dc.lft.to/lastmile_qr_scan"}, "is_reserved": 0}, {"lon": -77.03628966666666, "bike_id": "45430430d7d5c2e69dd3ded89a64426f", "lat": 38.94818016666667, "fusion_lon": 0.0, "fusion_lat": 0.0, "type": "electric_scooter", "name": "45430430d7d5c2e69dd3ded89a64426f", "is_disabled": 0, "rental_uris": {"ios": "https://dc.lft.to/lastmile_qr_scan", "android": "https://dc.lft.to/lastmile_qr_scan"}, "is_reserved": 0}, {"lon": -77.032699, "bike_id": "6ab91bb70ef479749eb1cd2316dc1f60", "lat": 38.9038425, "fusion_lon": 0.0, "fusion_lat": 0.0, "type": "electric_scooter", "name": "6ab91bb70ef479749eb1cd2316dc1f60", "is_disabled": 0, "rental_uris": {"ios": "https://dc.lft.to/lastmile_qr_scan", "android": "https://dc.lft.to/lastmile_qr_scan"}, "is_reserved": 0}, {"lon": -77.23319883333333, "bike_id": "ef582e027d69871af21d206be06d7561", "lat": 38.872842, "fusion_lon": 0.0, "fusion_lat": 0.0, "type": "electric_bike", "name": "ef582e027d69871af21d206be06d7561", "is_disabled": 0, "rental_uris": {"ios": "https://dc.lft.to/lastmile_qr_scan", "android": "https://dc.lft.to/lastmile_qr_scan"}, "is_reserved": 0}, {"lon": -77.04119433333334, "bike_id": "9666bb86b695e7cb6fdd1b6b675f1a88", "lat": 38.92544983333333, "fusion_lon": 0.0, "fusion_lat": 0.0, "type": "electric_scooter", "name": "9666bb86b695e7cb6fdd1b6b675f1a88", "is_disabled": 0, "rental_uris": {"ios": "https://dc.lft.to/lastmile_qr_scan", "android": "https://dc.lft.to/lastmile_qr_scan"}, "is_reserved": 0}, {"lon": -77.04104933333333, "bike_id": "1314c393dedd7ba88288544555b1d28c", "lat": 38.918584833333334, "fusion_lon": 0.0, "fusion_lat": 0.0, "type": "electric_scooter", "name": "1314c393dedd7ba88288544555b1d28c", "is_disabled": 0, "rental_uris": {"ios": "https://dc.lft.to/lastmile_qr_scan", "android": "https://dc.lft.to/lastmile_qr_scan"}, "is_reserved": 0}, {"lon": -77.04830866666667, "bike_id": "2f0a48c909f331c08738336c0481fac0", "lat": 38.91886483333333, "fusion_lon": 0.0, "fusion_lat": 0.0, "type": "electric_scooter", "name": "2f0a48c909f331c08738336c0481fac0", "is_disabled": 0, "rental_uris": {"ios": "https://dc.lft.to/lastmile_qr_scan", "android": "https://dc.lft.to/lastmile_qr_scan"}, "is_reserved": 0}, {"lon": -77.02379833333333, "bike_id": "63d0ce3ef6ce53e2e38412cba6a20ec7", "lat": 38.91834466666667, "fusion_lon": 0.0, "fusion_lat": 0.0, "type": "electric_scooter", "name": "63d0ce3ef6ce53e2e38412cba6a20ec7", "is_disabled": 0, "rental_uris": {"ios": "https://dc.lft.to/lastmile_qr_scan", "android": "https://dc.lft.to/lastmile_qr_scan"}, "is_reserved": 0}, {"lon": -76.99837783333334, "bike_id": "a7fbab77935c7185048ef0e55afd5c09", "lat": 38.90239483333333, "fusion_lon": 0.0, "fusion_lat": 0.0, "type": "electric_scooter", "name": "a7fbab77935c7185048ef0e55afd5c09", "is_disabled": 0, "rental_uris": {"ios": "https://dc.lft.to/lastmile_qr_scan", "android": "https://dc.lft.to/lastmile_qr_scan"}, "is_reserved": 0}, {"lon": -76.93172966666667, "bike_id": "666aaffc6c3df0b7e700a2241563341f", "lat": 38.898847833333335, "fusion_lon": 0.0, "fusion_lat": 0.0, "type": "electric_scooter", "name": "666aaffc6c3df0b7e700a2241563341f", "is_disabled": 0, "rental_uris": {"ios": "https://dc.lft.to/lastmile_qr_scan", "android": "https://dc.lft.to/lastmile_qr_scan"}, "is_reserved": 0}, {"lon": -76.98090183333333, "bike_id": "e989af83c25a8854f0f9ccd73635be2f", "lat": 38.881356333333336, "fusion_lon": 0.0, "fusion_lat": 0.0, "type": "electric_bike", "name": "e989af83c25a8854f0f9ccd73635be2f", "is_disabled": 0, "rental_uris": {"ios": "https://dc.lft.to/lastmile_qr_scan", "android": "https://dc.lft.to/lastmile_qr_scan"}, "is_reserved": 0}, {"lon": -77.005862, "bike_id": "50e4557adb712456717913b7ce71c1de", "lat": 38.87861616666667, "fusion_lon": 0.0, "fusion_lat": 0.0, "type": "electric_scooter", "name": "50e4557adb712456717913b7ce71c1de", "is_disabled": 0, "rental_uris": {"ios": "https://dc.lft.to/lastmile_qr_scan", "android": "https://dc.lft.to/lastmile_qr_scan"}, "is_reserved": 0}, {"lon": -76.9495915, "bike_id": "084a69ba49282058bc2f7093c7aeaaa7", "lat": 38.89443833333333, "fusion_lon": 0.0, "fusion_lat": 0.0, "type": "electric_scooter", "name": "084a69ba49282058bc2f7093c7aeaaa7", "is_disabled": 0, "rental_uris": {"ios": "https://dc.lft.to/lastmile_qr_scan", "android": "https://dc.lft.to/lastmile_qr_scan"}, "is_reserved": 0}, {"lon": -77.034726, "bike_id": "c010a5932df014bc7ddb6715c17c5263", "lat": 38.92877266666667, "fusion_lon": 0.0, "fusion_lat": 0.0, "type": "electric_scooter", "name": "c010a5932df014bc7ddb6715c17c5263", "is_disabled": 0, "rental_uris": {"ios": "https://dc.lft.to/lastmile_qr_scan", "android": "https://dc.lft.to/lastmile_qr_scan"}, "is_reserved": 0}, {"lon": -76.994712, "bike_id": "db94c8c654172ddef46f6de251acb0fe", "lat": 38.8621835, "fusion_lon": 0.0, "fusion_lat": 0.0, "type": "electric_scooter", "name": "db94c8c654172ddef46f6de251acb0fe", "is_disabled": 0, "rental_uris": {"ios": "https://dc.lft.to/lastmile_qr_scan", "android": "https://dc.lft.to/lastmile_qr_scan"}, "is_reserved": 0}, {"lon": -77.047142, "bike_id": "50b90a0e4c87db3443acffbf7c7623c7", "lat": 38.92230583333333, "fusion_lon": 0.0, "fusion_lat": 0.0, "type": "electric_scooter", "name": "50b90a0e4c87db3443acffbf7c7623c7", "is_disabled": 0, "rental_uris": {"ios": "https://dc.lft.to/lastmile_qr_scan", "android": "https://dc.lft.to/lastmile_qr_scan"}, "is_reserved": 0}, {"lon": -77.0332155, "bike_id": "92cb4a9208058c151ef6ccf175c112bc", "lat": 38.947202833333336, "fusion_lon": 0.0, "fusion_lat": 0.0, "type": "electric_scooter", "name": "92cb4a9208058c151ef6ccf175c112bc", "is_disabled": 0, "rental_uris": {"ios": "https://dc.lft.to/lastmile_qr_scan", "android": "https://dc.lft.to/lastmile_qr_scan"}, "is_reserved": 0}, {"lon": -77.0113585, "bike_id": "7240ec30a4e54d1f87cbb04bdc48f1d8", "lat": 38.912597166666664, "fusion_lon": 0.0, "fusion_lat": 0.0, "type": "electric_scooter", "name": "7240ec30a4e54d1f87cbb04bdc48f1d8", "is_disabled": 0, "rental_uris": {"ios": "https://dc.lft.to/lastmile_qr_scan", "android": "https://dc.lft.to/lastmile_qr_scan"}, "is_reserved": 0}, {"lon": -77.005355, "bike_id": "3663177f348f174afbd9055b95555d35", "lat": 38.879310833333335, "fusion_lon": 0.0, "fusion_lat": 0.0, "type": "electric_scooter", "name": "3663177f348f174afbd9055b95555d35", "is_disabled": 0, "rental_uris": {"ios": "https://dc.lft.to/lastmile_qr_scan", "android": "https://dc.lft.to/lastmile_qr_scan"}, "is_reserved": 0}, {"lon": -77.00503666666667, "bike_id": "b4d793868040a65f4e7eb52d058369f6", "lat": 38.91690166666667, "fusion_lon": 0.0, "fusion_lat": 0.0, "type": "electric_scooter", "name": "b4d793868040a65f4e7eb52d058369f6", "is_disabled": 0, "rental_uris": {"ios": "https://dc.lft.to/lastmile_qr_scan", "android": "https://dc.lft.to/lastmile_qr_scan"}, "is_reserved": 0}, {"lon": -76.95188116666667, "bike_id": "eab1626331df4f5428afd97f87d44928", "lat": 38.89998966666667, "fusion_lon": 0.0, "fusion_lat": 0.0, "type": "electric_scooter", "name": "eab1626331df4f5428afd97f87d44928", "is_disabled": 0, "rental_uris": {"ios": "https://dc.lft.to/lastmile_qr_scan", "android": "https://dc.lft.to/lastmile_qr_scan"}, "is_reserved": 0}, {"lon": -77.041876, "bike_id": "6e85104454d681808770f310bb0d4340", "lat": 38.926288666666665, "fusion_lon": 0.0, "fusion_lat": 0.0, "type": "electric_scooter", "name": "6e85104454d681808770f310bb0d4340", "is_disabled": 0, "rental_uris": {"ios": "https://dc.lft.to/lastmile_qr_scan", "android": "https://dc.lft.to/lastmile_qr_scan"}, "is_reserved": 0}, {"lon": -76.93370033333333, "bike_id": "02ee23f88e45348a2e7b36ffcea86b7f", "lat": 38.89916083333333, "fusion_lon": 0.0, "fusion_lat": 0.0, "type": "electric_scooter", "name": "02ee23f88e45348a2e7b36ffcea86b7f", "is_disabled": 0, "rental_uris": {"ios": "https://dc.lft.to/lastmile_qr_scan", "android": "https://dc.lft.to/lastmile_qr_scan"}, "is_reserved": 0}, {"lon": -77.02713566666667, "bike_id": "7fc8310535792e61828f4ab60e36ce58", "lat": 38.92237133333333, "fusion_lon": 0.0, "fusion_lat": 0.0, "type": "electric_scooter", "name": "7fc8310535792e61828f4ab60e36ce58", "is_disabled": 0, "rental_uris": {"ios": "https://dc.lft.to/lastmile_qr_scan", "android": "https://dc.lft.to/lastmile_qr_scan"}, "is_reserved": 0}, {"lon": -77.0448145, "bike_id": "523129b9cee67927cf0e2e24fa5ff296", "lat": 38.90287083333333, "fusion_lon": 0.0, "fusion_lat": 0.0, "type": "electric_scooter", "name": "523129b9cee67927cf0e2e24fa5ff296", "is_disabled": 0, "rental_uris": {"ios": "https://dc.lft.to/lastmile_qr_scan", "android": "https://dc.lft.to/lastmile_qr_scan"}, "is_reserved": 0}, {"lon": -77.02199883333333, "bike_id": "202b07feaf1adebb8c3d0db3458f06cf", "lat": 38.905416833333334, "fusion_lon": 0.0, "fusion_lat": 0.0, "type": "electric_scooter", "name": "202b07feaf1adebb8c3d0db3458f06cf", "is_disabled": 0, "rental_uris": {"ios": "https://dc.lft.to/lastmile_qr_scan", "android": "https://dc.lft.to/lastmile_qr_scan"}, "is_reserved": 0}, {"lon": -76.977504, "bike_id": "cc0c6791e0f3994c3567c91eb7c2c294", "lat": 38.865111, "fusion_lon": 0.0, "fusion_lat": 0.0, "type": "electric_scooter", "name": "cc0c6791e0f3994c3567c91eb7c2c294", "is_disabled": 0, "rental_uris": {"ios": "https://dc.lft.to/lastmile_qr_scan", "android": "https://dc.lft.to/lastmile_qr_scan"}, "is_reserved": 0}, {"lon": -77.02696866666666, "bike_id": "90689204459905ae177bf594a4e27ec0", "lat": 38.908395666666664, "fusion_lon": 0.0, "fusion_lat": 0.0, "type": "electric_scooter", "name": "90689204459905ae177bf594a4e27ec0", "is_disabled": 0, "rental_uris": {"ios": "https://dc.lft.to/lastmile_qr_scan", "android": "https://dc.lft.to/lastmile_qr_scan"}, "is_reserved": 0}, {"lon": -77.02111166666667, "bike_id": "508646967c29f8a5fa5955082adba366", "lat": 38.91771716666667, "fusion_lon": 0.0, "fusion_lat": 0.0, "type": "electric_scooter", "name": "508646967c29f8a5fa5955082adba366", "is_disabled": 0, "rental_uris": {"ios": "https://dc.lft.to/lastmile_qr_scan", "android": "https://dc.lft.to/lastmile_qr_scan"}, "is_reserved": 0}, {"lon": -77.07691633333333, "bike_id": "4454f1464e9af198c233e1f2a61f6b4b", "lat": 38.840789666666666, "fusion_lon": 0.0, "fusion_lat": 0.0, "type": "electric_bike", "name": "4454f1464e9af198c233e1f2a61f6b4b", "is_disabled": 0, "rental_uris": {"ios": "https://dc.lft.to/lastmile_qr_scan", "android": "https://dc.lft.to/lastmile_qr_scan"}, "is_reserved": 0}, {"lon": -77.01140666666667, "bike_id": "a292fd69272e014670a988d6d7852418", "lat": 38.8947885, "fusion_lon": 0.0, "fusion_lat": 0.0, "type": "electric_scooter", "name": "a292fd69272e014670a988d6d7852418", "is_disabled": 0, "rental_uris": {"ios": "https://dc.lft.to/lastmile_qr_scan", "android": "https://dc.lft.to/lastmile_qr_scan"}, "is_reserved": 0}, {"lon": -77.02974766666667, "bike_id": "573fe8959ce636cda668719299fff509", "lat": 38.93008583333334, "fusion_lon": 0.0, "fusion_lat": 0.0, "type": "electric_scooter", "name": "573fe8959ce636cda668719299fff509", "is_disabled": 0, "rental_uris": {"ios": "https://dc.lft.to/lastmile_qr_scan", "android": "https://dc.lft.to/lastmile_qr_scan"}, "is_reserved": 0}, {"lon": -77.02692583333334, "bike_id": "d2ce3d70b9f877a07fb284ba63b06955", "lat": 38.906855666666665, "fusion_lon": 0.0, "fusion_lat": 0.0, "type": "electric_scooter", "name": "d2ce3d70b9f877a07fb284ba63b06955", "is_disabled": 0, "rental_uris": {"ios": "https://dc.lft.to/lastmile_qr_scan", "android": "https://dc.lft.to/lastmile_qr_scan"}, "is_reserved": 0}, {"lon": -77.01147533333334, "bike_id": "6c92eef79ffaa44fee8c5bb510c6257b", "lat": 38.89594616666667, "fusion_lon": 0.0, "fusion_lat": 0.0, "type": "electric_scooter", "name": "6c92eef79ffaa44fee8c5bb510c6257b", "is_disabled": 0, "rental_uris": {"ios": "https://dc.lft.to/lastmile_qr_scan", "android": "https://dc.lft.to/lastmile_qr_scan"}, "is_reserved": 0}, {"lon": -76.957523, "bike_id": "2721da3b08faabb527fd10ad8642603e", "lat": 38.884377, "fusion_lon": 0.0, "fusion_lat": 0.0, "type": "electric_scooter", "name": "2721da3b08faabb527fd10ad8642603e", "is_disabled": 0, "rental_uris": {"ios": "https://dc.lft.to/lastmile_qr_scan", "android": "https://dc.lft.to/lastmile_qr_scan"}, "is_reserved": 0}, {"lon": -77.007299, "bike_id": "daadc5e8a51cadca2de3f559b4c7220c", "lat": 38.87654933333334, "fusion_lon": 0.0, "fusion_lat": 0.0, "type": "electric_scooter", "name": "daadc5e8a51cadca2de3f559b4c7220c", "is_disabled": 0, "rental_uris": {"ios": "https://dc.lft.to/lastmile_qr_scan", "android": "https://dc.lft.to/lastmile_qr_scan"}, "is_reserved": 0}, {"lon": -77.0055805, "bike_id": "429781bfe1a93dd5b105b51603137c8a", "lat": 38.874742833333336, "fusion_lon": 0.0, "fusion_lat": 0.0, "type": "electric_scooter", "name": "429781bfe1a93dd5b105b51603137c8a", "is_disabled": 0, "rental_uris": {"ios": "https://dc.lft.to/lastmile_qr_scan", "android": "https://dc.lft.to/lastmile_qr_scan"}, "is_reserved": 0}, {"lon": -76.99594666666667, "bike_id": "14936c25e9eb626ab7c7219d01acfe54", "lat": 38.857023833333336, "fusion_lon": 0.0, "fusion_lat": 0.0, "type": "electric_scooter", "name": "14936c25e9eb626ab7c7219d01acfe54", "is_disabled": 0, "rental_uris": {"ios": "https://dc.lft.to/lastmile_qr_scan", "android": "https://dc.lft.to/lastmile_qr_scan"}, "is_reserved": 0}, {"lon": -77.05366416666666, "bike_id": "a516ac58bd09f71f2281759aeef36c6c", "lat": 38.92728433333333, "fusion_lon": 0.0, "fusion_lat": 0.0, "type": "electric_scooter", "name": "a516ac58bd09f71f2281759aeef36c6c", "is_disabled": 0, "rental_uris": {"ios": "https://dc.lft.to/lastmile_qr_scan", "android": "https://dc.lft.to/lastmile_qr_scan"}, "is_reserved": 0}, {"lon": -77.030431, "bike_id": "7756ac3d66216932e794e6fb22c08516", "lat": 38.898328166666666, "fusion_lon": 0.0, "fusion_lat": 0.0, "type": "electric_scooter", "name": "7756ac3d66216932e794e6fb22c08516", "is_disabled": 0, "rental_uris": {"ios": "https://dc.lft.to/lastmile_qr_scan", "android": "https://dc.lft.to/lastmile_qr_scan"}, "is_reserved": 0}, {"lon": -77.01366633333333, "bike_id": "21c83b1aea29eeb08ae6d70d4aa8024f", "lat": 38.887101, "fusion_lon": 0.0, "fusion_lat": 0.0, "type": "electric_scooter", "name": "21c83b1aea29eeb08ae6d70d4aa8024f", "is_disabled": 0, "rental_uris": {"ios": "https://dc.lft.to/lastmile_qr_scan", "android": "https://dc.lft.to/lastmile_qr_scan"}, "is_reserved": 0}, {"lon": -77.02582533333333, "bike_id": "77d3fa6d88bce57098e19b3e7b8ee431", "lat": 38.927339, "fusion_lon": 0.0, "fusion_lat": 0.0, "type": "electric_scooter", "name": "77d3fa6d88bce57098e19b3e7b8ee431", "is_disabled": 0, "rental_uris": {"ios": "https://dc.lft.to/lastmile_qr_scan", "android": "https://dc.lft.to/lastmile_qr_scan"}, "is_reserved": 0}, {"lon": -77.04599233333333, "bike_id": "5861ef517196bb83b13bc529c6029bdb", "lat": 38.916110833333335, "fusion_lon": 0.0, "fusion_lat": 0.0, "type": "electric_scooter", "name": "5861ef517196bb83b13bc529c6029bdb", "is_disabled": 0, "rental_uris": {"ios": "https://dc.lft.to/lastmile_qr_scan", "android": "https://dc.lft.to/lastmile_qr_scan"}, "is_reserved": 0}, {"lon": -77.0239415, "bike_id": "1cb81bf1489c264fe731f109a44c56f7", "lat": 38.9200185, "fusion_lon": 0.0, "fusion_lat": 0.0, "type": "electric_scooter", "name": "1cb81bf1489c264fe731f109a44c56f7", "is_disabled": 0, "rental_uris": {"ios": "https://dc.lft.to/lastmile_qr_scan", "android": "https://dc.lft.to/lastmile_qr_scan"}, "is_reserved": 0}, {"lon": -76.98826383333333, "bike_id": "62dcab625a59bbd5dbc272a078ddacd9", "lat": 38.890747166666664, "fusion_lon": 0.0, "fusion_lat": 0.0, "type": "electric_scooter", "name": "62dcab625a59bbd5dbc272a078ddacd9", "is_disabled": 0, "rental_uris": {"ios": "https://dc.lft.to/lastmile_qr_scan", "android": "https://dc.lft.to/lastmile_qr_scan"}, "is_reserved": 0}, {"lon": -77.02914766666666, "bike_id": "d7223aeb0dcf814fedc97fdbef616089", "lat": 38.89825116666667, "fusion_lon": 0.0, "fusion_lat": 0.0, "type": "electric_scooter", "name": "d7223aeb0dcf814fedc97fdbef616089", "is_disabled": 0, "rental_uris": {"ios": "https://dc.lft.to/lastmile_qr_scan", "android": "https://dc.lft.to/lastmile_qr_scan"}, "is_reserved": 0}, {"lon": -77.0195955, "bike_id": "fd4f8f707dc6eef95afce11d11bb3141", "lat": 38.952340166666666, "fusion_lon": 0.0, "fusion_lat": 0.0, "type": "electric_scooter", "name": "fd4f8f707dc6eef95afce11d11bb3141", "is_disabled": 0, "rental_uris": {"ios": "https://dc.lft.to/lastmile_qr_scan", "android": "https://dc.lft.to/lastmile_qr_scan"}, "is_reserved": 0}, {"lon": -76.96522216666666, "bike_id": "ed8dc1cf7ff07f6dfeecdc80a53869ad", "lat": 38.87478866666667, "fusion_lon": 0.0, "fusion_lat": 0.0, "type": "electric_scooter", "name": "ed8dc1cf7ff07f6dfeecdc80a53869ad", "is_disabled": 0, "rental_uris": {"ios": "https://dc.lft.to/lastmile_qr_scan", "android": "https://dc.lft.to/lastmile_qr_scan"}, "is_reserved": 0}, {"lon": -77.0424525, "bike_id": "23df973a34d9c3630b5c14979ce25eed", "lat": 38.9064705, "fusion_lon": 0.0, "fusion_lat": 0.0, "type": "electric_scooter", "name": "23df973a34d9c3630b5c14979ce25eed", "is_disabled": 0, "rental_uris": {"ios": "https://dc.lft.to/lastmile_qr_scan", "android": "https://dc.lft.to/lastmile_qr_scan"}, "is_reserved": 0}, {"lon": -77.04555833333333, "bike_id": "b3dd3c46e45a301f282d91df49d35631", "lat": 38.9192895, "fusion_lon": 0.0, "fusion_lat": 0.0, "type": "electric_scooter", "name": "b3dd3c46e45a301f282d91df49d35631", "is_disabled": 0, "rental_uris": {"ios": "https://dc.lft.to/lastmile_qr_scan", "android": "https://dc.lft.to/lastmile_qr_scan"}, "is_reserved": 0}, {"lon": -77.00923183333333, "bike_id": "ec07729bdce44df45db08b84966ab0cf", "lat": 38.89652366666667, "fusion_lon": 0.0, "fusion_lat": 0.0, "type": "electric_scooter", "name": "ec07729bdce44df45db08b84966ab0cf", "is_disabled": 0, "rental_uris": {"ios": "https://dc.lft.to/lastmile_qr_scan", "android": "https://dc.lft.to/lastmile_qr_scan"}, "is_reserved": 0}, {"lon": -76.9920355, "bike_id": "7cf499312377db6e3affe71b633a0df3", "lat": 38.89832666666667, "fusion_lon": 0.0, "fusion_lat": 0.0, "type": "electric_scooter", "name": "7cf499312377db6e3affe71b633a0df3", "is_disabled": 0, "rental_uris": {"ios": "https://dc.lft.to/lastmile_qr_scan", "android": "https://dc.lft.to/lastmile_qr_scan"}, "is_reserved": 0}, {"lon": -77.0181245, "bike_id": "7c9140506e2cdc913d14bcb0928d1730", "lat": 38.920282, "fusion_lon": 0.0, "fusion_lat": 0.0, "type": "electric_scooter", "name": "7c9140506e2cdc913d14bcb0928d1730", "is_disabled": 0, "rental_uris": {"ios": "https://dc.lft.to/lastmile_qr_scan", "android": "https://dc.lft.to/lastmile_qr_scan"}, "is_reserved": 0}, {"lon": -77.02168216666666, "bike_id": "e8800ff3bcf9abbc1fb56674cbf446a0", "lat": 38.94292766666667, "fusion_lon": 0.0, "fusion_lat": 0.0, "type": "electric_scooter", "name": "e8800ff3bcf9abbc1fb56674cbf446a0", "is_disabled": 0, "rental_uris": {"ios": "https://dc.lft.to/lastmile_qr_scan", "android": "https://dc.lft.to/lastmile_qr_scan"}, "is_reserved": 0}, {"lon": -77.004603, "bike_id": "ce2b4cc804f4bc658bc4e3e9d2d5f662", "lat": 38.91180333333333, "fusion_lon": 0.0, "fusion_lat": 0.0, "type": "electric_scooter", "name": "ce2b4cc804f4bc658bc4e3e9d2d5f662", "is_disabled": 0, "rental_uris": {"ios": "https://dc.lft.to/lastmile_qr_scan", "android": "https://dc.lft.to/lastmile_qr_scan"}, "is_reserved": 0}, {"lon": -76.94632366666667, "bike_id": "36f8b09ef646f7053a3c0154c7ea1e61", "lat": 38.898334, "fusion_lon": 0.0, "fusion_lat": 0.0, "type": "electric_scooter", "name": "36f8b09ef646f7053a3c0154c7ea1e61", "is_disabled": 0, "rental_uris": {"ios": "https://dc.lft.to/lastmile_qr_scan", "android": "https://dc.lft.to/lastmile_qr_scan"}, "is_reserved": 0}, {"lon": -77.023126, "bike_id": "e97ecac69d7dae3b99a36b932d3a178d", "lat": 38.907337, "fusion_lon": 0.0, "fusion_lat": 0.0, "type": "electric_scooter", "name": "e97ecac69d7dae3b99a36b932d3a178d", "is_disabled": 0, "rental_uris": {"ios": "https://dc.lft.to/lastmile_qr_scan", "android": "https://dc.lft.to/lastmile_qr_scan"}, "is_reserved": 0}, {"lon": -77.03940616666667, "bike_id": "13444baa80be4719b4e7241c5f4cd46c", "lat": 38.919411833333335, "fusion_lon": 0.0, "fusion_lat": 0.0, "type": "electric_scooter", "name": "13444baa80be4719b4e7241c5f4cd46c", "is_disabled": 0, "rental_uris": {"ios": "https://dc.lft.to/lastmile_qr_scan", "android": "https://dc.lft.to/lastmile_qr_scan"}, "is_reserved": 0}, {"lon": -77.07671733333333, "bike_id": "89772871c3eabb08a0c14f7fa8305a80", "lat": 38.943252333333334, "fusion_lon": 0.0, "fusion_lat": 0.0, "type": "electric_scooter", "name": "89772871c3eabb08a0c14f7fa8305a80", "is_disabled": 0, "rental_uris": {"ios": "https://dc.lft.to/lastmile_qr_scan", "android": "https://dc.lft.to/lastmile_qr_scan"}, "is_reserved": 0}, {"lon": -77.05612033333334, "bike_id": "7e7247ddb4367bc30baa67f48dbbce4e", "lat": 38.923420666666665, "fusion_lon": 0.0, "fusion_lat": 0.0, "type": "electric_scooter", "name": "7e7247ddb4367bc30baa67f48dbbce4e", "is_disabled": 0, "rental_uris": {"ios": "https://dc.lft.to/lastmile_qr_scan", "android": "https://dc.lft.to/lastmile_qr_scan"}, "is_reserved": 0}, {"lon": -76.99858433333333, "bike_id": "adb805d432ae11406ec5d17f7ca3fa13", "lat": 38.9077815, "fusion_lon": 0.0, "fusion_lat": 0.0, "type": "electric_scooter", "name": "adb805d432ae11406ec5d17f7ca3fa13", "is_disabled": 0, "rental_uris": {"ios": "https://dc.lft.to/lastmile_qr_scan", "android": "https://dc.lft.to/lastmile_qr_scan"}, "is_reserved": 0}, {"lon": -77.02348283333333, "bike_id": "5bbb4b1ffdafc32d79299391328a1273", "lat": 38.922528, "fusion_lon": 0.0, "fusion_lat": 0.0, "type": "electric_scooter", "name": "5bbb4b1ffdafc32d79299391328a1273", "is_disabled": 0, "rental_uris": {"ios": "https://dc.lft.to/lastmile_qr_scan", "android": "https://dc.lft.to/lastmile_qr_scan"}, "is_reserved": 0}, {"lon": -77.04826866666667, "bike_id": "09c30a4755cec68be85a0d928a7674c0", "lat": 38.897369, "fusion_lon": 0.0, "fusion_lat": 0.0, "type": "electric_scooter", "name": "09c30a4755cec68be85a0d928a7674c0", "is_disabled": 0, "rental_uris": {"ios": "https://dc.lft.to/lastmile_qr_scan", "android": "https://dc.lft.to/lastmile_qr_scan"}, "is_reserved": 0}, {"lon": -77.01246166666667, "bike_id": "2b86be5e317aa633e4836e4e4f0a5d0d", "lat": 38.91574966666667, "fusion_lon": 0.0, "fusion_lat": 0.0, "type": "electric_scooter", "name": "2b86be5e317aa633e4836e4e4f0a5d0d", "is_disabled": 0, "rental_uris": {"ios": "https://dc.lft.to/lastmile_qr_scan", "android": "https://dc.lft.to/lastmile_qr_scan"}, "is_reserved": 0}, {"lon": -77.02198316666667, "bike_id": "3daa4d16ea4e978be2422ebd8d6a2e07", "lat": 38.910591, "fusion_lon": 0.0, "fusion_lat": 0.0, "type": "electric_scooter", "name": "3daa4d16ea4e978be2422ebd8d6a2e07", "is_disabled": 0, "rental_uris": {"ios": "https://dc.lft.to/lastmile_qr_scan", "android": "https://dc.lft.to/lastmile_qr_scan"}, "is_reserved": 0}, {"lon": -77.01182066666667, "bike_id": "344d47a3c33f260a5402fda4b61f2ad4", "lat": 38.9003355, "fusion_lon": 0.0, "fusion_lat": 0.0, "type": "electric_scooter", "name": "344d47a3c33f260a5402fda4b61f2ad4", "is_disabled": 0, "rental_uris": {"ios": "https://dc.lft.to/lastmile_qr_scan", "android": "https://dc.lft.to/lastmile_qr_scan"}, "is_reserved": 0}, {"lon": -77.02384033333334, "bike_id": "d70e39404bcb6e8e1ec4c528da04dbc4", "lat": 38.909598833333334, "fusion_lon": 0.0, "fusion_lat": 0.0, "type": "electric_scooter", "name": "d70e39404bcb6e8e1ec4c528da04dbc4", "is_disabled": 0, "rental_uris": {"ios": "https://dc.lft.to/lastmile_qr_scan", "android": "https://dc.lft.to/lastmile_qr_scan"}, "is_reserved": 0}, {"lon": -77.0384975, "bike_id": "7e99109cfb92124bf5dbbe165cad6edd", "lat": 38.917515, "fusion_lon": 0.0, "fusion_lat": 0.0, "type": "electric_scooter", "name": "7e99109cfb92124bf5dbbe165cad6edd", "is_disabled": 0, "rental_uris": {"ios": "https://dc.lft.to/lastmile_qr_scan", "android": "https://dc.lft.to/lastmile_qr_scan"}, "is_reserved": 0}, {"lon": -77.034458, "bike_id": "851da0ec4fc3919db2db193e0add97c5", "lat": 38.909502833333335, "fusion_lon": 0.0, "fusion_lat": 0.0, "type": "electric_scooter", "name": "851da0ec4fc3919db2db193e0add97c5", "is_disabled": 0, "rental_uris": {"ios": "https://dc.lft.to/lastmile_qr_scan", "android": "https://dc.lft.to/lastmile_qr_scan"}, "is_reserved": 0}, {"lon": -77.03458433333333, "bike_id": "d5ef5edcf9a99f2942958b2bf20354b4", "lat": 38.93442433333333, "fusion_lon": 0.0, "fusion_lat": 0.0, "type": "electric_scooter", "name": "d5ef5edcf9a99f2942958b2bf20354b4", "is_disabled": 0, "rental_uris": {"ios": "https://dc.lft.to/lastmile_qr_scan", "android": "https://dc.lft.to/lastmile_qr_scan"}, "is_reserved": 0}, {"lon": -77.029832, "bike_id": "4ee674d262fce9af0bbcc233855e3a3f", "lat": 38.9219795, "fusion_lon": 0.0, "fusion_lat": 0.0, "type": "electric_scooter", "name": "4ee674d262fce9af0bbcc233855e3a3f", "is_disabled": 0, "rental_uris": {"ios": "https://dc.lft.to/lastmile_qr_scan", "android": "https://dc.lft.to/lastmile_qr_scan"}, "is_reserved": 0}, {"lon": -77.01988016666667, "bike_id": "2bc816c38bad89a0c97760ff37483d7c", "lat": 38.91144283333333, "fusion_lon": 0.0, "fusion_lat": 0.0, "type": "electric_scooter", "name": "2bc816c38bad89a0c97760ff37483d7c", "is_disabled": 0, "rental_uris": {"ios": "https://dc.lft.to/lastmile_qr_scan", "android": "https://dc.lft.to/lastmile_qr_scan"}, "is_reserved": 0}, {"lon": -76.99680966666666, "bike_id": "75d6cecd9673408ed377df4f545b9984", "lat": 38.88126366666667, "fusion_lon": 0.0, "fusion_lat": 0.0, "type": "electric_scooter", "name": "75d6cecd9673408ed377df4f545b9984", "is_disabled": 0, "rental_uris": {"ios": "https://dc.lft.to/lastmile_qr_scan", "android": "https://dc.lft.to/lastmile_qr_scan"}, "is_reserved": 0}, {"lon": -77.07581216666667, "bike_id": "ecd20fd7bc0ad03c19a8bb403577e5c0", "lat": 38.91266066666667, "fusion_lon": 0.0, "fusion_lat": 0.0, "type": "electric_scooter", "name": "ecd20fd7bc0ad03c19a8bb403577e5c0", "is_disabled": 0, "rental_uris": {"ios": "https://dc.lft.to/lastmile_qr_scan", "android": "https://dc.lft.to/lastmile_qr_scan"}, "is_reserved": 0}, {"lon": -77.02955116666666, "bike_id": "8ad9af721ab9615548f8db7668cfb9e0", "lat": 38.91249366666667, "fusion_lon": 0.0, "fusion_lat": 0.0, "type": "electric_scooter", "name": "8ad9af721ab9615548f8db7668cfb9e0", "is_disabled": 0, "rental_uris": {"ios": "https://dc.lft.to/lastmile_qr_scan", "android": "https://dc.lft.to/lastmile_qr_scan"}, "is_reserved": 0}, {"lon": -77.027429, "bike_id": "fb0c62968656a5c571e664be14f11bf3", "lat": 38.927725833333334, "fusion_lon": 0.0, "fusion_lat": 0.0, "type": "electric_scooter", "name": "fb0c62968656a5c571e664be14f11bf3", "is_disabled": 0, "rental_uris": {"ios": "https://dc.lft.to/lastmile_qr_scan", "android": "https://dc.lft.to/lastmile_qr_scan"}, "is_reserved": 0}, {"lon": -77.02277816666667, "bike_id": "d5e37ffae5e83fec08e427febf94699e", "lat": 38.916388166666664, "fusion_lon": 0.0, "fusion_lat": 0.0, "type": "electric_scooter", "name": "d5e37ffae5e83fec08e427febf94699e", "is_disabled": 0, "rental_uris": {"ios": "https://dc.lft.to/lastmile_qr_scan", "android": "https://dc.lft.to/lastmile_qr_scan"}, "is_reserved": 0}, {"lon": -76.988421, "bike_id": "6353c3be55bb3ff43c38dfffaf01574b", "lat": 38.84282133333333, "fusion_lon": 0.0, "fusion_lat": 0.0, "type": "electric_bike", "name": "6353c3be55bb3ff43c38dfffaf01574b", "is_disabled": 0, "rental_uris": {"ios": "https://dc.lft.to/lastmile_qr_scan", "android": "https://dc.lft.to/lastmile_qr_scan"}, "is_reserved": 0}, {"lon": -77.024177, "bike_id": "a3e3a6783c80887256b266acafdd3dd6", "lat": 38.91785866666667, "fusion_lon": 0.0, "fusion_lat": 0.0, "type": "electric_scooter", "name": "a3e3a6783c80887256b266acafdd3dd6", "is_disabled": 0, "rental_uris": {"ios": "https://dc.lft.to/lastmile_qr_scan", "android": "https://dc.lft.to/lastmile_qr_scan"}, "is_reserved": 0}, {"lon": -77.03648983333333, "bike_id": "e2c3d395a478bf227cb8baaf03d8e683", "lat": 38.902878333333334, "fusion_lon": 0.0, "fusion_lat": 0.0, "type": "electric_scooter", "name": "e2c3d395a478bf227cb8baaf03d8e683", "is_disabled": 0, "rental_uris": {"ios": "https://dc.lft.to/lastmile_qr_scan", "android": "https://dc.lft.to/lastmile_qr_scan"}, "is_reserved": 0}, {"lon": -77.01769083333333, "bike_id": "1a5188cea7d6b2c1323ecf2bc54139fb", "lat": 38.902589166666665, "fusion_lon": 0.0, "fusion_lat": 0.0, "type": "electric_scooter", "name": "1a5188cea7d6b2c1323ecf2bc54139fb", "is_disabled": 0, "rental_uris": {"ios": "https://dc.lft.to/lastmile_qr_scan", "android": "https://dc.lft.to/lastmile_qr_scan"}, "is_reserved": 0}, {"lon": -77.02364016666667, "bike_id": "b30260941a02c8ce69f30a5879ee6ca1", "lat": 38.892224666666664, "fusion_lon": 0.0, "fusion_lat": 0.0, "type": "electric_scooter", "name": "b30260941a02c8ce69f30a5879ee6ca1", "is_disabled": 0, "rental_uris": {"ios": "https://dc.lft.to/lastmile_qr_scan", "android": "https://dc.lft.to/lastmile_qr_scan"}, "is_reserved": 0}, {"lon": -77.0004355, "bike_id": "cecdcbdc62a4e097ce49eb7890eaeede", "lat": 38.923998, "fusion_lon": 0.0, "fusion_lat": 0.0, "type": "electric_scooter", "name": "cecdcbdc62a4e097ce49eb7890eaeede", "is_disabled": 0, "rental_uris": {"ios": "https://dc.lft.to/lastmile_qr_scan", "android": "https://dc.lft.to/lastmile_qr_scan"}, "is_reserved": 0}, {"lon": -76.9705155, "bike_id": "2e91db59b0c08d7b406b484892c4022f", "lat": 38.8977905, "fusion_lon": 0.0, "fusion_lat": 0.0, "type": "electric_scooter", "name": "2e91db59b0c08d7b406b484892c4022f", "is_disabled": 0, "rental_uris": {"ios": "https://dc.lft.to/lastmile_qr_scan", "android": "https://dc.lft.to/lastmile_qr_scan"}, "is_reserved": 0}, {"lon": -77.0571975, "bike_id": "e9643fa0462bbf0e8765ac64138b8fe9", "lat": 38.933649833333334, "fusion_lon": 0.0, "fusion_lat": 0.0, "type": "electric_scooter", "name": "e9643fa0462bbf0e8765ac64138b8fe9", "is_disabled": 0, "rental_uris": {"ios": "https://dc.lft.to/lastmile_qr_scan", "android": "https://dc.lft.to/lastmile_qr_scan"}, "is_reserved": 0}, {"lon": -77.00928216666667, "bike_id": "72b9c6f052f7650c98497db56639cd1c", "lat": 38.896572666666664, "fusion_lon": 0.0, "fusion_lat": 0.0, "type": "electric_scooter", "name": "72b9c6f052f7650c98497db56639cd1c", "is_disabled": 0, "rental_uris": {"ios": "https://dc.lft.to/lastmile_qr_scan", "android": "https://dc.lft.to/lastmile_qr_scan"}, "is_reserved": 0}, {"lon": -77.00150233333333, "bike_id": "2a1255e97516b2aee36251d08f8b7492", "lat": 38.889942833333336, "fusion_lon": 0.0, "fusion_lat": 0.0, "type": "electric_scooter", "name": "2a1255e97516b2aee36251d08f8b7492", "is_disabled": 0, "rental_uris": {"ios": "https://dc.lft.to/lastmile_qr_scan", "android": "https://dc.lft.to/lastmile_qr_scan"}, "is_reserved": 0}, {"lon": -77.0462485, "bike_id": "e360c705d2f590806ce276e07ab5b67f", "lat": 38.9055185, "fusion_lon": 0.0, "fusion_lat": 0.0, "type": "electric_scooter", "name": "e360c705d2f590806ce276e07ab5b67f", "is_disabled": 0, "rental_uris": {"ios": "https://dc.lft.to/lastmile_qr_scan", "android": "https://dc.lft.to/lastmile_qr_scan"}, "is_reserved": 0}, {"lon": -77.03380466666667, "bike_id": "49a69e3af6749ba95a28dd9542fa033d", "lat": 38.93842266666667, "fusion_lon": 0.0, "fusion_lat": 0.0, "type": "electric_scooter", "name": "49a69e3af6749ba95a28dd9542fa033d", "is_disabled": 0, "rental_uris": {"ios": "https://dc.lft.to/lastmile_qr_scan", "android": "https://dc.lft.to/lastmile_qr_scan"}, "is_reserved": 0}, {"lon": -76.98597766666667, "bike_id": "8b4cd7802b68917623175487aaabb9ea", "lat": 38.90626016666667, "fusion_lon": 0.0, "fusion_lat": 0.0, "type": "electric_bike", "name": "8b4cd7802b68917623175487aaabb9ea", "is_disabled": 0, "rental_uris": {"ios": "https://dc.lft.to/lastmile_qr_scan", "android": "https://dc.lft.to/lastmile_qr_scan"}, "is_reserved": 0}, {"lon": -77.02166, "bike_id": "bf203e645217897235856c9e4af12d2f", "lat": 38.887473, "fusion_lon": 0.0, "fusion_lat": 0.0, "type": "electric_scooter", "name": "bf203e645217897235856c9e4af12d2f", "is_disabled": 0, "rental_uris": {"ios": "https://dc.lft.to/lastmile_qr_scan", "android": "https://dc.lft.to/lastmile_qr_scan"}, "is_reserved": 0}, {"lon": -77.04926583333334, "bike_id": "c053fe8b9be6d5557c12679cf7a46763", "lat": 39.02934616666667, "fusion_lon": 0.0, "fusion_lat": 0.0, "type": "electric_bike", "name": "c053fe8b9be6d5557c12679cf7a46763", "is_disabled": 0, "rental_uris": {"ios": "https://dc.lft.to/lastmile_qr_scan", "android": "https://dc.lft.to/lastmile_qr_scan"}, "is_reserved": 0}, {"lon": -77.0230035, "bike_id": "37a119709149600fe77a213acf7fb962", "lat": 38.940909, "fusion_lon": 0.0, "fusion_lat": 0.0, "type": "electric_scooter", "name": "37a119709149600fe77a213acf7fb962", "is_disabled": 0, "rental_uris": {"ios": "https://dc.lft.to/lastmile_qr_scan", "android": "https://dc.lft.to/lastmile_qr_scan"}, "is_reserved": 0}, {"lon": -76.98878316666666, "bike_id": "13bdcae6e8bb9a7f94d72feb2574821b", "lat": 38.86670766666667, "fusion_lon": 0.0, "fusion_lat": 0.0, "type": "electric_scooter", "name": "13bdcae6e8bb9a7f94d72feb2574821b", "is_disabled": 0, "rental_uris": {"ios": "https://dc.lft.to/lastmile_qr_scan", "android": "https://dc.lft.to/lastmile_qr_scan"}, "is_reserved": 0}, {"lon": -77.0239455, "bike_id": "ec1c06e80e311d7db1dab1dffc50193c", "lat": 38.920003666666666, "fusion_lon": 0.0, "fusion_lat": 0.0, "type": "electric_scooter", "name": "ec1c06e80e311d7db1dab1dffc50193c", "is_disabled": 0, "rental_uris": {"ios": "https://dc.lft.to/lastmile_qr_scan", "android": "https://dc.lft.to/lastmile_qr_scan"}, "is_reserved": 0}, {"lon": -77.03253966666666, "bike_id": "71abaf5733093cb251c119e04cbb98a8", "lat": 38.9313585, "fusion_lon": 0.0, "fusion_lat": 0.0, "type": "electric_scooter", "name": "71abaf5733093cb251c119e04cbb98a8", "is_disabled": 0, "rental_uris": {"ios": "https://dc.lft.to/lastmile_qr_scan", "android": "https://dc.lft.to/lastmile_qr_scan"}, "is_reserved": 0}, {"lon": -77.02154783333333, "bike_id": "61e5f0ca9337b6e5de1a8c96e7cdcba4", "lat": 38.892225333333336, "fusion_lon": 0.0, "fusion_lat": 0.0, "type": "electric_scooter", "name": "61e5f0ca9337b6e5de1a8c96e7cdcba4", "is_disabled": 0, "rental_uris": {"ios": "https://dc.lft.to/lastmile_qr_scan", "android": "https://dc.lft.to/lastmile_qr_scan"}, "is_reserved": 0}, {"lon": -77.03993533333333, "bike_id": "bafcb0438d29f65ad1579806e124bb3c", "lat": 38.9246535, "fusion_lon": 0.0, "fusion_lat": 0.0, "type": "electric_scooter", "name": "bafcb0438d29f65ad1579806e124bb3c", "is_disabled": 0, "rental_uris": {"ios": "https://dc.lft.to/lastmile_qr_scan", "android": "https://dc.lft.to/lastmile_qr_scan"}, "is_reserved": 0}, {"lon": -77.012184, "bike_id": "d73c4fb2e4e887ee378c736fbd868d11", "lat": 38.89027983333333, "fusion_lon": 0.0, "fusion_lat": 0.0, "type": "electric_scooter", "name": "d73c4fb2e4e887ee378c736fbd868d11", "is_disabled": 0, "rental_uris": {"ios": "https://dc.lft.to/lastmile_qr_scan", "android": "https://dc.lft.to/lastmile_qr_scan"}, "is_reserved": 0}, {"lon": -77.0259905, "bike_id": "403471649c33de793be302fc60da2dc3", "lat": 38.926585333333335, "fusion_lon": 0.0, "fusion_lat": 0.0, "type": "electric_scooter", "name": "403471649c33de793be302fc60da2dc3", "is_disabled": 0, "rental_uris": {"ios": "https://dc.lft.to/lastmile_qr_scan", "android": "https://dc.lft.to/lastmile_qr_scan"}, "is_reserved": 0}, {"lon": -77.003705, "bike_id": "d932ee4fb58dc30b7a69ecb843595bc9", "lat": 38.90596383333333, "fusion_lon": 0.0, "fusion_lat": 0.0, "type": "electric_scooter", "name": "d932ee4fb58dc30b7a69ecb843595bc9", "is_disabled": 0, "rental_uris": {"ios": "https://dc.lft.to/lastmile_qr_scan", "android": "https://dc.lft.to/lastmile_qr_scan"}, "is_reserved": 0}, {"lon": -77.04646016666666, "bike_id": "f1b57b0fae601ee3de997a48d0360b9d", "lat": 38.90341516666667, "fusion_lon": 0.0, "fusion_lat": 0.0, "type": "electric_scooter", "name": "f1b57b0fae601ee3de997a48d0360b9d", "is_disabled": 0, "rental_uris": {"ios": "https://dc.lft.to/lastmile_qr_scan", "android": "https://dc.lft.to/lastmile_qr_scan"}, "is_reserved": 0}, {"lon": -77.02400083333333, "bike_id": "8fc29221cbbe9fe88b24e451e1320493", "lat": 38.934748166666665, "fusion_lon": 0.0, "fusion_lat": 0.0, "type": "electric_scooter", "name": "8fc29221cbbe9fe88b24e451e1320493", "is_disabled": 0, "rental_uris": {"ios": "https://dc.lft.to/lastmile_qr_scan", "android": "https://dc.lft.to/lastmile_qr_scan"}, "is_reserved": 0}, {"lon": -77.04812166666666, "bike_id": "8e5b6fb266a11715eb7e8215339f6e6e", "lat": 38.9133475, "fusion_lon": 0.0, "fusion_lat": 0.0, "type": "electric_scooter", "name": "8e5b6fb266a11715eb7e8215339f6e6e", "is_disabled": 0, "rental_uris": {"ios": "https://dc.lft.to/lastmile_qr_scan", "android": "https://dc.lft.to/lastmile_qr_scan"}, "is_reserved": 0}, {"lon": -77.02421483333333, "bike_id": "3dd3a42309012657a11b41e46c5a08e9", "lat": 38.9141005, "fusion_lon": 0.0, "fusion_lat": 0.0, "type": "electric_scooter", "name": "3dd3a42309012657a11b41e46c5a08e9", "is_disabled": 0, "rental_uris": {"ios": "https://dc.lft.to/lastmile_qr_scan", "android": "https://dc.lft.to/lastmile_qr_scan"}, "is_reserved": 0}, {"lon": -77.01148733333333, "bike_id": "943d5ba04f7bce452c192a1358976e6f", "lat": 38.911088666666664, "fusion_lon": 0.0, "fusion_lat": 0.0, "type": "electric_scooter", "name": "943d5ba04f7bce452c192a1358976e6f", "is_disabled": 0, "rental_uris": {"ios": "https://dc.lft.to/lastmile_qr_scan", "android": "https://dc.lft.to/lastmile_qr_scan"}, "is_reserved": 0}, {"lon": -77.03265733333333, "bike_id": "d2c48671a1ef9c947e81cf2a785dea4c", "lat": 38.934408, "fusion_lon": 0.0, "fusion_lat": 0.0, "type": "electric_scooter", "name": "d2c48671a1ef9c947e81cf2a785dea4c", "is_disabled": 0, "rental_uris": {"ios": "https://dc.lft.to/lastmile_qr_scan", "android": "https://dc.lft.to/lastmile_qr_scan"}, "is_reserved": 0}, {"lon": -77.015499, "bike_id": "737513ea7d87a8d71d4f37f8415f1355", "lat": 38.892203, "fusion_lon": 0.0, "fusion_lat": 0.0, "type": "electric_scooter", "name": "737513ea7d87a8d71d4f37f8415f1355", "is_disabled": 0, "rental_uris": {"ios": "https://dc.lft.to/lastmile_qr_scan", "android": "https://dc.lft.to/lastmile_qr_scan"}, "is_reserved": 0}, {"lon": -77.00191183333334, "bike_id": "d02af2730aec63987edbf5dd214d590a", "lat": 38.9084145, "fusion_lon": 0.0, "fusion_lat": 0.0, "type": "electric_scooter", "name": "d02af2730aec63987edbf5dd214d590a", "is_disabled": 0, "rental_uris": {"ios": "https://dc.lft.to/lastmile_qr_scan", "android": "https://dc.lft.to/lastmile_qr_scan"}, "is_reserved": 0}, {"lon": -76.99516183333333, "bike_id": "42e2f7932b523bbc52369dbb7b00dd52", "lat": 38.896140833333334, "fusion_lon": 0.0, "fusion_lat": 0.0, "type": "electric_scooter", "name": "42e2f7932b523bbc52369dbb7b00dd52", "is_disabled": 0, "rental_uris": {"ios": "https://dc.lft.to/lastmile_qr_scan", "android": "https://dc.lft.to/lastmile_qr_scan"}, "is_reserved": 0}, {"lon": -77.017676, "bike_id": "bd43d0c018f62adbef3ab0ff12bea6a5", "lat": 38.88323033333333, "fusion_lon": 0.0, "fusion_lat": 0.0, "type": "electric_scooter", "name": "bd43d0c018f62adbef3ab0ff12bea6a5", "is_disabled": 0, "rental_uris": {"ios": "https://dc.lft.to/lastmile_qr_scan", "android": "https://dc.lft.to/lastmile_qr_scan"}, "is_reserved": 0}, {"lon": -77.04667483333333, "bike_id": "a3c38742e2fbfceff3e88d979a671d4f", "lat": 38.90907383333333, "fusion_lon": 0.0, "fusion_lat": 0.0, "type": "electric_scooter", "name": "a3c38742e2fbfceff3e88d979a671d4f", "is_disabled": 0, "rental_uris": {"ios": "https://dc.lft.to/lastmile_qr_scan", "android": "https://dc.lft.to/lastmile_qr_scan"}, "is_reserved": 0}, {"lon": -76.947994, "bike_id": "50c1b05f7f206ed9810c84a21b60df32", "lat": 38.86196783333333, "fusion_lon": 0.0, "fusion_lat": 0.0, "type": "electric_bike", "name": "50c1b05f7f206ed9810c84a21b60df32", "is_disabled": 0, "rental_uris": {"ios": "https://dc.lft.to/lastmile_qr_scan", "android": "https://dc.lft.to/lastmile_qr_scan"}, "is_reserved": 0}, {"lon": -76.93753133333334, "bike_id": "b57183ffc412cdace3a8f4a57366bfc6", "lat": 38.890510666666664, "fusion_lon": 0.0, "fusion_lat": 0.0, "type": "electric_scooter", "name": "b57183ffc412cdace3a8f4a57366bfc6", "is_disabled": 0, "rental_uris": {"ios": "https://dc.lft.to/lastmile_qr_scan", "android": "https://dc.lft.to/lastmile_qr_scan"}, "is_reserved": 0}, {"lon": -76.99776566666667, "bike_id": "a0c43c0523c519e6c02a1a34afcebd3c", "lat": 38.84302016666667, "fusion_lon": 0.0, "fusion_lat": 0.0, "type": "electric_scooter", "name": "a0c43c0523c519e6c02a1a34afcebd3c", "is_disabled": 0, "rental_uris": {"ios": "https://dc.lft.to/lastmile_qr_scan", "android": "https://dc.lft.to/lastmile_qr_scan"}, "is_reserved": 0}, {"lon": -77.041069, "bike_id": "2329b181d237dd1ddb71c4fdca16878c", "lat": 38.898414333333335, "fusion_lon": 0.0, "fusion_lat": 0.0, "type": "electric_scooter", "name": "2329b181d237dd1ddb71c4fdca16878c", "is_disabled": 0, "rental_uris": {"ios": "https://dc.lft.to/lastmile_qr_scan", "android": "https://dc.lft.to/lastmile_qr_scan"}, "is_reserved": 0}, {"lon": -76.98834033333333, "bike_id": "433b3cc6f08f0d9ecea75319c5b37e84", "lat": 38.9007585, "fusion_lon": 0.0, "fusion_lat": 0.0, "type": "electric_scooter", "name": "433b3cc6f08f0d9ecea75319c5b37e84", "is_disabled": 0, "rental_uris": {"ios": "https://dc.lft.to/lastmile_qr_scan", "android": "https://dc.lft.to/lastmile_qr_scan"}, "is_reserved": 0}, {"lon": -77.02303083333334, "bike_id": "eb3d33b8a2219fc09d38e4b7ec6dfd25", "lat": 38.926742833333336, "fusion_lon": 0.0, "fusion_lat": 0.0, "type": "electric_scooter", "name": "eb3d33b8a2219fc09d38e4b7ec6dfd25", "is_disabled": 0, "rental_uris": {"ios": "https://dc.lft.to/lastmile_qr_scan", "android": "https://dc.lft.to/lastmile_qr_scan"}, "is_reserved": 0}, {"lon": -77.04518233333333, "bike_id": "d425cc809d6a327c9d0bf2e4557784d8", "lat": 38.94197533333333, "fusion_lon": 0.0, "fusion_lat": 0.0, "type": "electric_bike", "name": "d425cc809d6a327c9d0bf2e4557784d8", "is_disabled": 0, "rental_uris": {"ios": "https://dc.lft.to/lastmile_qr_scan", "android": "https://dc.lft.to/lastmile_qr_scan"}, "is_reserved": 0}, {"lon": -77.0421285, "bike_id": "c509939d2b8b1b10de4a431b54445b3b", "lat": 38.892721, "fusion_lon": 0.0, "fusion_lat": 0.0, "type": "electric_scooter", "name": "c509939d2b8b1b10de4a431b54445b3b", "is_disabled": 0, "rental_uris": {"ios": "https://dc.lft.to/lastmile_qr_scan", "android": "https://dc.lft.to/lastmile_qr_scan"}, "is_reserved": 0}, {"lon": -77.03380966666667, "bike_id": "39f6e636b7bbe688454255aa23ce2c66", "lat": 38.938665, "fusion_lon": 0.0, "fusion_lat": 0.0, "type": "electric_scooter", "name": "39f6e636b7bbe688454255aa23ce2c66", "is_disabled": 0, "rental_uris": {"ios": "https://dc.lft.to/lastmile_qr_scan", "android": "https://dc.lft.to/lastmile_qr_scan"}, "is_reserved": 0}, {"lon": -77.0397695, "bike_id": "fcbbb781d886a4bee1c8dd1ea504b9fc", "lat": 38.92316016666667, "fusion_lon": 0.0, "fusion_lat": 0.0, "type": "electric_scooter", "name": "fcbbb781d886a4bee1c8dd1ea504b9fc", "is_disabled": 0, "rental_uris": {"ios": "https://dc.lft.to/lastmile_qr_scan", "android": "https://dc.lft.to/lastmile_qr_scan"}, "is_reserved": 0}, {"lon": -77.05347666666667, "bike_id": "923ff956423af65a5fa8f6e558431082", "lat": 38.927120333333335, "fusion_lon": 0.0, "fusion_lat": 0.0, "type": "electric_scooter", "name": "923ff956423af65a5fa8f6e558431082", "is_disabled": 0, "rental_uris": {"ios": "https://dc.lft.to/lastmile_qr_scan", "android": "https://dc.lft.to/lastmile_qr_scan"}, "is_reserved": 0}, {"lon": -77.02812766666666, "bike_id": "0ad15450bcd60ca072acb15a8f3d7b8e", "lat": 38.92475733333333, "fusion_lon": 0.0, "fusion_lat": 0.0, "type": "electric_scooter", "name": "0ad15450bcd60ca072acb15a8f3d7b8e", "is_disabled": 0, "rental_uris": {"ios": "https://dc.lft.to/lastmile_qr_scan", "android": "https://dc.lft.to/lastmile_qr_scan"}, "is_reserved": 0}, {"lon": -77.019229, "bike_id": "7d784f1287259d8d0b4d7f8b4a75f154", "lat": 38.886075, "fusion_lon": 0.0, "fusion_lat": 0.0, "type": "electric_scooter", "name": "7d784f1287259d8d0b4d7f8b4a75f154", "is_disabled": 0, "rental_uris": {"ios": "https://dc.lft.to/lastmile_qr_scan", "android": "https://dc.lft.to/lastmile_qr_scan"}, "is_reserved": 0}, {"lon": -77.0247505, "bike_id": "8b88511ec78ca0d80088c256ea573f40", "lat": 38.897237833333335, "fusion_lon": 0.0, "fusion_lat": 0.0, "type": "electric_scooter", "name": "8b88511ec78ca0d80088c256ea573f40", "is_disabled": 0, "rental_uris": {"ios": "https://dc.lft.to/lastmile_qr_scan", "android": "https://dc.lft.to/lastmile_qr_scan"}, "is_reserved": 0}, {"lon": -77.00061233333334, "bike_id": "68acc2704e9fbf5dde5072a41be6eae7", "lat": 38.876655666666665, "fusion_lon": 0.0, "fusion_lat": 0.0, "type": "electric_scooter", "name": "68acc2704e9fbf5dde5072a41be6eae7", "is_disabled": 0, "rental_uris": {"ios": "https://dc.lft.to/lastmile_qr_scan", "android": "https://dc.lft.to/lastmile_qr_scan"}, "is_reserved": 0}, {"lon": -77.02785916666667, "bike_id": "59cb4738300d97a4bf7f416978c5ae8c", "lat": 38.94191766666667, "fusion_lon": 0.0, "fusion_lat": 0.0, "type": "electric_scooter", "name": "59cb4738300d97a4bf7f416978c5ae8c", "is_disabled": 0, "rental_uris": {"ios": "https://dc.lft.to/lastmile_qr_scan", "android": "https://dc.lft.to/lastmile_qr_scan"}, "is_reserved": 0}, {"lon": -76.9991235, "bike_id": "c10e5ed047c197ef16d69da473cb81c0", "lat": 38.92459983333333, "fusion_lon": 0.0, "fusion_lat": 0.0, "type": "electric_scooter", "name": "c10e5ed047c197ef16d69da473cb81c0", "is_disabled": 0, "rental_uris": {"ios": "https://dc.lft.to/lastmile_qr_scan", "android": "https://dc.lft.to/lastmile_qr_scan"}, "is_reserved": 0}, {"lon": -77.02794133333333, "bike_id": "5c6a09680c3724372d76277030ecb65c", "lat": 38.934275166666666, "fusion_lon": 0.0, "fusion_lat": 0.0, "type": "electric_scooter", "name": "5c6a09680c3724372d76277030ecb65c", "is_disabled": 0, "rental_uris": {"ios": "https://dc.lft.to/lastmile_qr_scan", "android": "https://dc.lft.to/lastmile_qr_scan"}, "is_reserved": 0}, {"lon": -77.01221566666666, "bike_id": "d62bf1305131699b5954a1d662751390", "lat": 38.87188333333334, "fusion_lon": 0.0, "fusion_lat": 0.0, "type": "electric_scooter", "name": "d62bf1305131699b5954a1d662751390", "is_disabled": 0, "rental_uris": {"ios": "https://dc.lft.to/lastmile_qr_scan", "android": "https://dc.lft.to/lastmile_qr_scan"}, "is_reserved": 0}, {"lon": -77.03348783333334, "bike_id": "da59b335cca968472dfabac4c1bb7373", "lat": 38.902918166666666, "fusion_lon": 0.0, "fusion_lat": 0.0, "type": "electric_scooter", "name": "da59b335cca968472dfabac4c1bb7373", "is_disabled": 0, "rental_uris": {"ios": "https://dc.lft.to/lastmile_qr_scan", "android": "https://dc.lft.to/lastmile_qr_scan"}, "is_reserved": 0}, {"lon": -77.029594, "bike_id": "92507d2a508534487ed02b5555480677", "lat": 38.90807433333333, "fusion_lon": 0.0, "fusion_lat": 0.0, "type": "electric_scooter", "name": "92507d2a508534487ed02b5555480677", "is_disabled": 0, "rental_uris": {"ios": "https://dc.lft.to/lastmile_qr_scan", "android": "https://dc.lft.to/lastmile_qr_scan"}, "is_reserved": 0}, {"lon": -77.0192555, "bike_id": "96843819a8f08c5efe834ab40799f4c7", "lat": 38.9346475, "fusion_lon": 0.0, "fusion_lat": 0.0, "type": "electric_scooter", "name": "96843819a8f08c5efe834ab40799f4c7", "is_disabled": 0, "rental_uris": {"ios": "https://dc.lft.to/lastmile_qr_scan", "android": "https://dc.lft.to/lastmile_qr_scan"}, "is_reserved": 0}, {"lon": -77.05248983333334, "bike_id": "bf5ff338b2f769e4338256c1df9974ef", "lat": 38.9274115, "fusion_lon": 0.0, "fusion_lat": 0.0, "type": "electric_scooter", "name": "bf5ff338b2f769e4338256c1df9974ef", "is_disabled": 0, "rental_uris": {"ios": "https://dc.lft.to/lastmile_qr_scan", "android": "https://dc.lft.to/lastmile_qr_scan"}, "is_reserved": 0}, {"lon": -77.02207283333334, "bike_id": "0b67da04b8d8b371e753da59e2fa8b1e", "lat": 38.914160833333334, "fusion_lon": 0.0, "fusion_lat": 0.0, "type": "electric_scooter", "name": "0b67da04b8d8b371e753da59e2fa8b1e", "is_disabled": 0, "rental_uris": {"ios": "https://dc.lft.to/lastmile_qr_scan", "android": "https://dc.lft.to/lastmile_qr_scan"}, "is_reserved": 0}, {"lon": -76.9822445, "bike_id": "bc552068b85961e44984e0164cd681f9", "lat": 38.886474166666666, "fusion_lon": 0.0, "fusion_lat": 0.0, "type": "electric_scooter", "name": "bc552068b85961e44984e0164cd681f9", "is_disabled": 0, "rental_uris": {"ios": "https://dc.lft.to/lastmile_qr_scan", "android": "https://dc.lft.to/lastmile_qr_scan"}, "is_reserved": 0}, {"lon": -77.05731033333333, "bike_id": "65585f7acb4405512fde48e1400f1076", "lat": 38.9336625, "fusion_lon": 0.0, "fusion_lat": 0.0, "type": "electric_scooter", "name": "65585f7acb4405512fde48e1400f1076", "is_disabled": 0, "rental_uris": {"ios": "https://dc.lft.to/lastmile_qr_scan", "android": "https://dc.lft.to/lastmile_qr_scan"}, "is_reserved": 0}, {"lon": -77.072963, "bike_id": "809de3b6def5d4e1ce306076ae0c54ef", "lat": 38.924689666666666, "fusion_lon": 0.0, "fusion_lat": 0.0, "type": "electric_scooter", "name": "809de3b6def5d4e1ce306076ae0c54ef", "is_disabled": 0, "rental_uris": {"ios": "https://dc.lft.to/lastmile_qr_scan", "android": "https://dc.lft.to/lastmile_qr_scan"}, "is_reserved": 0}, {"lon": -77.16625733333333, "bike_id": "f2cc20d6f075179257a5d8e409587693", "lat": 38.888404333333334, "fusion_lon": 0.0, "fusion_lat": 0.0, "type": "electric_bike", "name": "f2cc20d6f075179257a5d8e409587693", "is_disabled": 0, "rental_uris": {"ios": "https://dc.lft.to/lastmile_qr_scan", "android": "https://dc.lft.to/lastmile_qr_scan"}, "is_reserved": 0}, {"lon": -77.10489483333333, "bike_id": "679379462444fd609042149ed67eb68b", "lat": 38.8560745, "fusion_lon": 0.0, "fusion_lat": 0.0, "type": "electric_bike", "name": "679379462444fd609042149ed67eb68b", "is_disabled": 0, "rental_uris": {"ios": "https://dc.lft.to/lastmile_qr_scan", "android": "https://dc.lft.to/lastmile_qr_scan"}, "is_reserved": 0}, {"lon": -77.11155333333333, "bike_id": "6b1c8ac79f4de464623f83e37180f127", "lat": 38.85518533333333, "fusion_lon": 0.0, "fusion_lat": 0.0, "type": "electric_bike", "name": "6b1c8ac79f4de464623f83e37180f127", "is_disabled": 0, "rental_uris": {"ios": "https://dc.lft.to/lastmile_qr_scan", "android": "https://dc.lft.to/lastmile_qr_scan"}, "is_reserved": 0}, {"lon": -77.01583583333333, "bike_id": "ed31de4252945f0834804c98459e616a", "lat": 38.886132, "fusion_lon": 0.0, "fusion_lat": 0.0, "type": "electric_scooter", "name": "ed31de4252945f0834804c98459e616a", "is_disabled": 0, "rental_uris": {"ios": "https://dc.lft.to/lastmile_qr_scan", "android": "https://dc.lft.to/lastmile_qr_scan"}, "is_reserved": 0}, {"lon": -76.9731115, "bike_id": "e5517c5449ef132e0648cbe13e19647a", "lat": 38.865643166666665, "fusion_lon": 0.0, "fusion_lat": 0.0, "type": "electric_scooter", "name": "e5517c5449ef132e0648cbe13e19647a", "is_disabled": 0, "rental_uris": {"ios": "https://dc.lft.to/lastmile_qr_scan", "android": "https://dc.lft.to/lastmile_qr_scan"}, "is_reserved": 0}, {"lon": -77.044734, "bike_id": "3e7efe37864c53aef037d32764baa792", "lat": 38.91577316666667, "fusion_lon": 0.0, "fusion_lat": 0.0, "type": "electric_scooter", "name": "3e7efe37864c53aef037d32764baa792", "is_disabled": 0, "rental_uris": {"ios": "https://dc.lft.to/lastmile_qr_scan", "android": "https://dc.lft.to/lastmile_qr_scan"}, "is_reserved": 0}, {"lon": -77.0285595, "bike_id": "beb28b328448df19aadf9b621c07734b", "lat": 38.88748283333334, "fusion_lon": 0.0, "fusion_lat": 0.0, "type": "electric_scooter", "name": "beb28b328448df19aadf9b621c07734b", "is_disabled": 0, "rental_uris": {"ios": "https://dc.lft.to/lastmile_qr_scan", "android": "https://dc.lft.to/lastmile_qr_scan"}, "is_reserved": 0}, {"lon": -77.023739, "bike_id": "77e5a64e75bfd352f57ef47f8ea6e554", "lat": 38.9019635, "fusion_lon": 0.0, "fusion_lat": 0.0, "type": "electric_scooter", "name": "77e5a64e75bfd352f57ef47f8ea6e554", "is_disabled": 0, "rental_uris": {"ios": "https://dc.lft.to/lastmile_qr_scan", "android": "https://dc.lft.to/lastmile_qr_scan"}, "is_reserved": 0}, {"lon": -77.04690716666667, "bike_id": "87c5c47aed4aded7225e75f9b5e47f50", "lat": 39.0239685, "fusion_lon": 0.0, "fusion_lat": 0.0, "type": "electric_bike", "name": "87c5c47aed4aded7225e75f9b5e47f50", "is_disabled": 0, "rental_uris": {"ios": "https://dc.lft.to/lastmile_qr_scan", "android": "https://dc.lft.to/lastmile_qr_scan"}, "is_reserved": 0}, {"lon": -77.024495, "bike_id": "c4f610b2c89b49fd2f42c478393f06a2", "lat": 38.937985166666664, "fusion_lon": 0.0, "fusion_lat": 0.0, "type": "electric_scooter", "name": "c4f610b2c89b49fd2f42c478393f06a2", "is_disabled": 0, "rental_uris": {"ios": "https://dc.lft.to/lastmile_qr_scan", "android": "https://dc.lft.to/lastmile_qr_scan"}, "is_reserved": 0}, {"lon": -77.01043283333334, "bike_id": "955efd8eb37e326c4b8c1a0b67c037ed", "lat": 38.963497333333336, "fusion_lon": 0.0, "fusion_lat": 0.0, "type": "electric_scooter", "name": "955efd8eb37e326c4b8c1a0b67c037ed", "is_disabled": 0, "rental_uris": {"ios": "https://dc.lft.to/lastmile_qr_scan", "android": "https://dc.lft.to/lastmile_qr_scan"}, "is_reserved": 0}, {"lon": -77.0260165, "bike_id": "f2bc5cc9d714c68e3b7d6dc770b2d610", "lat": 38.92800533333333, "fusion_lon": 0.0, "fusion_lat": 0.0, "type": "electric_scooter", "name": "f2bc5cc9d714c68e3b7d6dc770b2d610", "is_disabled": 0, "rental_uris": {"ios": "https://dc.lft.to/lastmile_qr_scan", "android": "https://dc.lft.to/lastmile_qr_scan"}, "is_reserved": 0}, {"lon": -77.0056855, "bike_id": "fcd9c6a0f57a85cde39682491ccdf671", "lat": 38.87689366666667, "fusion_lon": 0.0, "fusion_lat": 0.0, "type": "electric_scooter", "name": "fcd9c6a0f57a85cde39682491ccdf671", "is_disabled": 0, "rental_uris": {"ios": "https://dc.lft.to/lastmile_qr_scan", "android": "https://dc.lft.to/lastmile_qr_scan"}, "is_reserved": 0}, {"lon": -77.11918283333333, "bike_id": "b91cf593804f927819bb0dee5e6b91b3", "lat": 38.87635016666667, "fusion_lon": 0.0, "fusion_lat": 0.0, "type": "electric_bike", "name": "b91cf593804f927819bb0dee5e6b91b3", "is_disabled": 0, "rental_uris": {"ios": "https://dc.lft.to/lastmile_qr_scan", "android": "https://dc.lft.to/lastmile_qr_scan"}, "is_reserved": 0}, {"lon": -77.07008733333333, "bike_id": "3743ef8b4dc49dcc79a00d799428aeea", "lat": 38.9059615, "fusion_lon": 0.0, "fusion_lat": 0.0, "type": "electric_bike", "name": "3743ef8b4dc49dcc79a00d799428aeea", "is_disabled": 0, "rental_uris": {"ios": "https://dc.lft.to/lastmile_qr_scan", "android": "https://dc.lft.to/lastmile_qr_scan"}, "is_reserved": 0}, {"lon": -77.03973783333333, "bike_id": "f505f1d1dc71f72b41d25a2b48ff8b17", "lat": 38.92322383333333, "fusion_lon": 0.0, "fusion_lat": 0.0, "type": "electric_scooter", "name": "f505f1d1dc71f72b41d25a2b48ff8b17", "is_disabled": 0, "rental_uris": {"ios": "https://dc.lft.to/lastmile_qr_scan", "android": "https://dc.lft.to/lastmile_qr_scan"}, "is_reserved": 0}, {"lon": -77.07820166666667, "bike_id": "1237e960dbf989ffd9756c650c339e2d", "lat": 38.92458583333333, "fusion_lon": 0.0, "fusion_lat": 0.0, "type": "electric_scooter", "name": "1237e960dbf989ffd9756c650c339e2d", "is_disabled": 0, "rental_uris": {"ios": "https://dc.lft.to/lastmile_qr_scan", "android": "https://dc.lft.to/lastmile_qr_scan"}, "is_reserved": 0}, {"lon": -77.0091675, "bike_id": "9fbd173f34970b689fd1c92c0566e49e", "lat": 38.910706, "fusion_lon": 0.0, "fusion_lat": 0.0, "type": "electric_scooter", "name": "9fbd173f34970b689fd1c92c0566e49e", "is_disabled": 0, "rental_uris": {"ios": "https://dc.lft.to/lastmile_qr_scan", "android": "https://dc.lft.to/lastmile_qr_scan"}, "is_reserved": 0}, {"lon": -77.03438083333333, "bike_id": "f9d559307bd5b1419be37a433beecf1b", "lat": 38.91717083333333, "fusion_lon": 0.0, "fusion_lat": 0.0, "type": "electric_scooter", "name": "f9d559307bd5b1419be37a433beecf1b", "is_disabled": 0, "rental_uris": {"ios": "https://dc.lft.to/lastmile_qr_scan", "android": "https://dc.lft.to/lastmile_qr_scan"}, "is_reserved": 0}, {"lon": -77.00226033333334, "bike_id": "b5063cca1709d2aa96edcf63dcd9fcc6", "lat": 38.90250416666667, "fusion_lon": 0.0, "fusion_lat": 0.0, "type": "electric_scooter", "name": "b5063cca1709d2aa96edcf63dcd9fcc6", "is_disabled": 0, "rental_uris": {"ios": "https://dc.lft.to/lastmile_qr_scan", "android": "https://dc.lft.to/lastmile_qr_scan"}, "is_reserved": 0}, {"lon": -77.053319, "bike_id": "b191ba4a8c887b55fcfb48f226ca0495", "lat": 38.89876183333333, "fusion_lon": 0.0, "fusion_lat": 0.0, "type": "electric_scooter", "name": "b191ba4a8c887b55fcfb48f226ca0495", "is_disabled": 0, "rental_uris": {"ios": "https://dc.lft.to/lastmile_qr_scan", "android": "https://dc.lft.to/lastmile_qr_scan"}, "is_reserved": 0}, {"lon": -77.01764383333334, "bike_id": "344ea431d130e355330ba57715406c47", "lat": 38.87217666666667, "fusion_lon": 0.0, "fusion_lat": 0.0, "type": "electric_scooter", "name": "344ea431d130e355330ba57715406c47", "is_disabled": 0, "rental_uris": {"ios": "https://dc.lft.to/lastmile_qr_scan", "android": "https://dc.lft.to/lastmile_qr_scan"}, "is_reserved": 0}, {"lon": -77.02499016666667, "bike_id": "db597c546a4b6b064dee147a0e822323", "lat": 38.925860666666665, "fusion_lon": 0.0, "fusion_lat": 0.0, "type": "electric_scooter", "name": "db597c546a4b6b064dee147a0e822323", "is_disabled": 0, "rental_uris": {"ios": "https://dc.lft.to/lastmile_qr_scan", "android": "https://dc.lft.to/lastmile_qr_scan"}, "is_reserved": 0}, {"lon": -76.98662466666667, "bike_id": "315de76ed4a62e9eba0bf07b2f5557c4", "lat": 38.867344333333335, "fusion_lon": 0.0, "fusion_lat": 0.0, "type": "electric_scooter", "name": "315de76ed4a62e9eba0bf07b2f5557c4", "is_disabled": 0, "rental_uris": {"ios": "https://dc.lft.to/lastmile_qr_scan", "android": "https://dc.lft.to/lastmile_qr_scan"}, "is_reserved": 0}, {"lon": -77.00556116666667, "bike_id": "6760247cec7d56ed3d7bbc0cbd969e1a", "lat": 38.87472433333333, "fusion_lon": 0.0, "fusion_lat": 0.0, "type": "electric_scooter", "name": "6760247cec7d56ed3d7bbc0cbd969e1a", "is_disabled": 0, "rental_uris": {"ios": "https://dc.lft.to/lastmile_qr_scan", "android": "https://dc.lft.to/lastmile_qr_scan"}, "is_reserved": 0}, {"lon": -77.03438866666667, "bike_id": "db122194407df85ffa5bf32d97288aa2", "lat": 38.9344065, "fusion_lon": 0.0, "fusion_lat": 0.0, "type": "electric_scooter", "name": "db122194407df85ffa5bf32d97288aa2", "is_disabled": 0, "rental_uris": {"ios": "https://dc.lft.to/lastmile_qr_scan", "android": "https://dc.lft.to/lastmile_qr_scan"}, "is_reserved": 0}, {"lon": -76.99881916666666, "bike_id": "2938c43c6c7dde5738e90de588cb6316", "lat": 38.9205735, "fusion_lon": 0.0, "fusion_lat": 0.0, "type": "electric_scooter", "name": "2938c43c6c7dde5738e90de588cb6316", "is_disabled": 0, "rental_uris": {"ios": "https://dc.lft.to/lastmile_qr_scan", "android": "https://dc.lft.to/lastmile_qr_scan"}, "is_reserved": 0}, {"lon": -77.04897666666666, "bike_id": "24987bb8ad4ebc0100d9648c583dd76b", "lat": 38.892328666666664, "fusion_lon": 0.0, "fusion_lat": 0.0, "type": "electric_scooter", "name": "24987bb8ad4ebc0100d9648c583dd76b", "is_disabled": 0, "rental_uris": {"ios": "https://dc.lft.to/lastmile_qr_scan", "android": "https://dc.lft.to/lastmile_qr_scan"}, "is_reserved": 0}, {"lon": -77.01168183333333, "bike_id": "36f12da7be8f4903f4013729959c59ae", "lat": 38.895776833333336, "fusion_lon": 0.0, "fusion_lat": 0.0, "type": "electric_scooter", "name": "36f12da7be8f4903f4013729959c59ae", "is_disabled": 0, "rental_uris": {"ios": "https://dc.lft.to/lastmile_qr_scan", "android": "https://dc.lft.to/lastmile_qr_scan"}, "is_reserved": 0}, {"lon": -77.04593333333334, "bike_id": "a45e8b543b324917bcfa636b89d85424", "lat": 38.90770166666667, "fusion_lon": 0.0, "fusion_lat": 0.0, "type": "electric_scooter", "name": "a45e8b543b324917bcfa636b89d85424", "is_disabled": 0, "rental_uris": {"ios": "https://dc.lft.to/lastmile_qr_scan", "android": "https://dc.lft.to/lastmile_qr_scan"}, "is_reserved": 0}, {"lon": -77.02157766666667, "bike_id": "6fa96ac32b6b65d89edd449897c1cc2f", "lat": 38.90975316666667, "fusion_lon": 0.0, "fusion_lat": 0.0, "type": "electric_scooter", "name": "6fa96ac32b6b65d89edd449897c1cc2f", "is_disabled": 0, "rental_uris": {"ios": "https://dc.lft.to/lastmile_qr_scan", "android": "https://dc.lft.to/lastmile_qr_scan"}, "is_reserved": 0}, {"lon": -76.9547575, "bike_id": "f0afd9165bcfad765ed5f50e7d395c3d", "lat": 38.88658816666667, "fusion_lon": 0.0, "fusion_lat": 0.0, "type": "electric_scooter", "name": "f0afd9165bcfad765ed5f50e7d395c3d", "is_disabled": 0, "rental_uris": {"ios": "https://dc.lft.to/lastmile_qr_scan", "android": "https://dc.lft.to/lastmile_qr_scan"}, "is_reserved": 0}, {"lon": -77.03279033333334, "bike_id": "576192a55f4838ef2cc93b7c44d78386", "lat": 38.93457933333333, "fusion_lon": 0.0, "fusion_lat": 0.0, "type": "electric_scooter", "name": "576192a55f4838ef2cc93b7c44d78386", "is_disabled": 0, "rental_uris": {"ios": "https://dc.lft.to/lastmile_qr_scan", "android": "https://dc.lft.to/lastmile_qr_scan"}, "is_reserved": 0}, {"lon": -76.96217533333333, "bike_id": "579279e93a36dcc71c646814ee64a431", "lat": 38.877835, "fusion_lon": 0.0, "fusion_lat": 0.0, "type": "electric_scooter", "name": "579279e93a36dcc71c646814ee64a431", "is_disabled": 0, "rental_uris": {"ios": "https://dc.lft.to/lastmile_qr_scan", "android": "https://dc.lft.to/lastmile_qr_scan"}, "is_reserved": 0}, {"lon": -77.073193, "bike_id": "1ea2f7ce25d6389b7b4448d4f69c4900", "lat": 38.9140525, "fusion_lon": 0.0, "fusion_lat": 0.0, "type": "electric_scooter", "name": "1ea2f7ce25d6389b7b4448d4f69c4900", "is_disabled": 0, "rental_uris": {"ios": "https://dc.lft.to/lastmile_qr_scan", "android": "https://dc.lft.to/lastmile_qr_scan"}, "is_reserved": 0}, {"lon": -77.033619, "bike_id": "c65421edc26ca4e9a98c7e616d3736cf", "lat": 38.9353065, "fusion_lon": 0.0, "fusion_lat": 0.0, "type": "electric_scooter", "name": "c65421edc26ca4e9a98c7e616d3736cf", "is_disabled": 0, "rental_uris": {"ios": "https://dc.lft.to/lastmile_qr_scan", "android": "https://dc.lft.to/lastmile_qr_scan"}, "is_reserved": 0}, {"lon": -77.04246933333333, "bike_id": "ea3cfaa9b605bd44e77c178c407db03d", "lat": 38.9243385, "fusion_lon": 0.0, "fusion_lat": 0.0, "type": "electric_scooter", "name": "ea3cfaa9b605bd44e77c178c407db03d", "is_disabled": 0, "rental_uris": {"ios": "https://dc.lft.to/lastmile_qr_scan", "android": "https://dc.lft.to/lastmile_qr_scan"}, "is_reserved": 0}, {"lon": -77.03863283333334, "bike_id": "edb9730e53c4f9b0f484a46c1fd5a9b6", "lat": 38.91261633333333, "fusion_lon": 0.0, "fusion_lat": 0.0, "type": "electric_scooter", "name": "edb9730e53c4f9b0f484a46c1fd5a9b6", "is_disabled": 0, "rental_uris": {"ios": "https://dc.lft.to/lastmile_qr_scan", "android": "https://dc.lft.to/lastmile_qr_scan"}, "is_reserved": 0}, {"lon": -77.03324066666667, "bike_id": "bd9d89d804aa79fe832daa482f46c24b", "lat": 38.939032833333336, "fusion_lon": 0.0, "fusion_lat": 0.0, "type": "electric_scooter", "name": "bd9d89d804aa79fe832daa482f46c24b", "is_disabled": 0, "rental_uris": {"ios": "https://dc.lft.to/lastmile_qr_scan", "android": "https://dc.lft.to/lastmile_qr_scan"}, "is_reserved": 0}, {"lon": -77.044697, "bike_id": "99c43a1d185d0904cec88d60228567fa", "lat": 38.91882783333333, "fusion_lon": 0.0, "fusion_lat": 0.0, "type": "electric_scooter", "name": "99c43a1d185d0904cec88d60228567fa", "is_disabled": 0, "rental_uris": {"ios": "https://dc.lft.to/lastmile_qr_scan", "android": "https://dc.lft.to/lastmile_qr_scan"}, "is_reserved": 0}, {"lon": -77.03863266666667, "bike_id": "b2cab0c3afd9b119eb153f37a0680c1d", "lat": 38.9155465, "fusion_lon": 0.0, "fusion_lat": 0.0, "type": "electric_scooter", "name": "b2cab0c3afd9b119eb153f37a0680c1d", "is_disabled": 0, "rental_uris": {"ios": "https://dc.lft.to/lastmile_qr_scan", "android": "https://dc.lft.to/lastmile_qr_scan"}, "is_reserved": 0}, {"lon": -77.0454695, "bike_id": "c2f6cbff9303733f6f156c3731cb79b4", "lat": 38.934086, "fusion_lon": 0.0, "fusion_lat": 0.0, "type": "electric_scooter", "name": "c2f6cbff9303733f6f156c3731cb79b4", "is_disabled": 0, "rental_uris": {"ios": "https://dc.lft.to/lastmile_qr_scan", "android": "https://dc.lft.to/lastmile_qr_scan"}, "is_reserved": 0}, {"lon": -77.02343233333333, "bike_id": "f47963211d567d6e224de22d1bca3b26", "lat": 38.917698, "fusion_lon": 0.0, "fusion_lat": 0.0, "type": "electric_scooter", "name": "f47963211d567d6e224de22d1bca3b26", "is_disabled": 0, "rental_uris": {"ios": "https://dc.lft.to/lastmile_qr_scan", "android": "https://dc.lft.to/lastmile_qr_scan"}, "is_reserved": 0}, {"lon": -77.02287483333333, "bike_id": "11042afbcb15439ac117f5e21270436d", "lat": 38.92686916666667, "fusion_lon": 0.0, "fusion_lat": 0.0, "type": "electric_scooter", "name": "11042afbcb15439ac117f5e21270436d", "is_disabled": 0, "rental_uris": {"ios": "https://dc.lft.to/lastmile_qr_scan", "android": "https://dc.lft.to/lastmile_qr_scan"}, "is_reserved": 0}, {"lon": -77.0173845, "bike_id": "a395ff519b9976edf64d1f8f05a24432", "lat": 38.90400283333334, "fusion_lon": 0.0, "fusion_lat": 0.0, "type": "electric_scooter", "name": "a395ff519b9976edf64d1f8f05a24432", "is_disabled": 0, "rental_uris": {"ios": "https://dc.lft.to/lastmile_qr_scan", "android": "https://dc.lft.to/lastmile_qr_scan"}, "is_reserved": 0}, {"lon": -77.019957, "bike_id": "23c4bebcd1880c417dc86b395ac53646", "lat": 38.875916, "fusion_lon": 0.0, "fusion_lat": 0.0, "type": "electric_scooter", "name": "23c4bebcd1880c417dc86b395ac53646", "is_disabled": 0, "rental_uris": {"ios": "https://dc.lft.to/lastmile_qr_scan", "android": "https://dc.lft.to/lastmile_qr_scan"}, "is_reserved": 0}, {"lon": -77.034749, "bike_id": "44582115e0973f5ec45cf8c23ee46031", "lat": 38.884891, "fusion_lon": 0.0, "fusion_lat": 0.0, "type": "electric_scooter", "name": "44582115e0973f5ec45cf8c23ee46031", "is_disabled": 0, "rental_uris": {"ios": "https://dc.lft.to/lastmile_qr_scan", "android": "https://dc.lft.to/lastmile_qr_scan"}, "is_reserved": 0}, {"lon": -77.04162416666667, "bike_id": "06050770a1a61ee8da6d4d8094eb23dc", "lat": 38.90341333333333, "fusion_lon": 0.0, "fusion_lat": 0.0, "type": "electric_scooter", "name": "06050770a1a61ee8da6d4d8094eb23dc", "is_disabled": 0, "rental_uris": {"ios": "https://dc.lft.to/lastmile_qr_scan", "android": "https://dc.lft.to/lastmile_qr_scan"}, "is_reserved": 0}, {"lon": -77.033473, "bike_id": "5291d2c1d9cd4a44ca59327b64430b47", "lat": 38.90292216666667, "fusion_lon": 0.0, "fusion_lat": 0.0, "type": "electric_scooter", "name": "5291d2c1d9cd4a44ca59327b64430b47", "is_disabled": 0, "rental_uris": {"ios": "https://dc.lft.to/lastmile_qr_scan", "android": "https://dc.lft.to/lastmile_qr_scan"}, "is_reserved": 0}, {"lon": -76.98742683333333, "bike_id": "5d66d027115abcd9b01509b043a7746c", "lat": 38.88613866666667, "fusion_lon": 0.0, "fusion_lat": 0.0, "type": "electric_scooter", "name": "5d66d027115abcd9b01509b043a7746c", "is_disabled": 0, "rental_uris": {"ios": "https://dc.lft.to/lastmile_qr_scan", "android": "https://dc.lft.to/lastmile_qr_scan"}, "is_reserved": 0}, {"lon": -77.02162016666666, "bike_id": "59a2f6e75c165cd2a3d23c0fcaf1db63", "lat": 38.9429605, "fusion_lon": 0.0, "fusion_lat": 0.0, "type": "electric_scooter", "name": "59a2f6e75c165cd2a3d23c0fcaf1db63", "is_disabled": 0, "rental_uris": {"ios": "https://dc.lft.to/lastmile_qr_scan", "android": "https://dc.lft.to/lastmile_qr_scan"}, "is_reserved": 0}, {"lon": -77.00026583333333, "bike_id": "f622bb8645be2198e6e5239a9d66a173", "lat": 38.967977833333336, "fusion_lon": 0.0, "fusion_lat": 0.0, "type": "electric_bike", "name": "f622bb8645be2198e6e5239a9d66a173", "is_disabled": 0, "rental_uris": {"ios": "https://dc.lft.to/lastmile_qr_scan", "android": "https://dc.lft.to/lastmile_qr_scan"}, "is_reserved": 0}, {"lon": -77.029804, "bike_id": "f3c4d2507bb8676ea3032f55fa258ca1", "lat": 38.9306955, "fusion_lon": 0.0, "fusion_lat": 0.0, "type": "electric_scooter", "name": "f3c4d2507bb8676ea3032f55fa258ca1", "is_disabled": 0, "rental_uris": {"ios": "https://dc.lft.to/lastmile_qr_scan", "android": "https://dc.lft.to/lastmile_qr_scan"}, "is_reserved": 0},