{"data": {"bikes": [{"bike_id": "7f7f29ccea0068c591dc30cdc3be48fc", "type": "electric_scooter", "fusion_lat": 0.0, "lat": 38.90393183333333, "lon": -77.04134966666666, "fusion_lon": 0.0, "name": "7f7f29ccea0068c591dc30cdc3be48fc", "rental_uris": {"ios": "https://dc.lft.to/lastmile_qr_scan", "android": "https://dc.lft.to/lastmile_qr_scan"}, "is_disabled": 0, "is_reserved": 0}, {"bike_id": "9da388417bc256b4c784a6614359258d", "type": "electric_scooter", "fusion_lat": 0.0, "lat": 38.91267583333333, "lon": -77.0222785, "fusion_lon": 0.0, "name": "9da388417bc256b4c784a6614359258d", "rental_uris": {"ios": "https://dc.lft.to/lastmile_qr_scan", "android": "https://dc.lft.to/lastmile_qr_scan"}, "is_disabled": 0, "is_reserved": 0}, {"bike_id": "3c5c55350dcea6cdb40f1fc4ee1dc265", "type": "electric_scooter", "fusion_lat": 0.0, "lat": 38.89624033333333, "lon": -76.997319, "fusion_lon": 0.0, "name": "3c5c55350dcea6cdb40f1fc4ee1dc265", "rental_uris": {"ios": "https://dc.lft.to/lastmile_qr_scan", "android": "https://dc.lft.to/lastmile_qr_scan"}, "is_disabled": 0, "is_reserved": 0}, {"bike_id": "9d3cb2d4e50d109848a948cf480bd6f6", "type": "electric_scooter", "fusion_lat": 0.0, "lat": 38.8998755, "lon": -77.030782, "fusion_lon": 0.0, "name": "9d3cb2d4e50d109848a948cf480bd6f6", "rental_uris": {"ios": "https://dc.lft.to/lastmile_qr_scan", "android": "https://dc.lft.to/lastmile_qr_scan"}, "is_disabled": 0, "is_reserved": 0}, {"bike_id": "700ca7e593d198998ad4deda9d3c5648", "type": "electric_scooter", "fusion_lat": 0.0, "lat": 38.938546, "lon": -77.0245565, "fusion_lon": 0.0, "name": "700ca7e593d198998ad4deda9d3c5648", "rental_uris": {"ios": "https://dc.lft.to/lastmile_qr_scan", "android": "https://dc.lft.to/lastmile_qr_scan"}, "is_disabled": 0, "is_reserved": 0}, {"bike_id": "c504526b24f9aa20d7c45b19386f0778", "type": "electric_scooter", "fusion_lat": 0.0, "lat": 38.89842466666666, "lon": -77.04546616666667, "fusion_lon": 0.0, "name": "c504526b24f9aa20d7c45b19386f0778", "rental_uris": {"ios": "https://dc.lft.to/lastmile_qr_scan", "android": "https://dc.lft.to/lastmile_qr_scan"}, "is_disabled": 0, "is_reserved": 0}, {"bike_id": "c1327dd3ebea4a3747bb8b490381eb1e", "type": "electric_scooter", "fusion_lat": 0.0, "lat": 38.90038083333334, "lon": -76.9914655, "fusion_lon": 0.0, "name": "c1327dd3ebea4a3747bb8b490381eb1e", "rental_uris": {"ios": "https://dc.lft.to/lastmile_qr_scan", "android": "https://dc.lft.to/lastmile_qr_scan"}, "is_disabled": 0, "is_reserved": 0}, {"bike_id": "5cfdd47d5239e7f45110d2ee8934b308", "type": "electric_scooter", "fusion_lat": 0.0, "lat": 38.906317333333334, "lon": -77.05127283333333, "fusion_lon": 0.0, "name": "5cfdd47d5239e7f45110d2ee8934b308", "rental_uris": {"ios": "https://dc.lft.to/lastmile_qr_scan", "android": "https://dc.lft.to/lastmile_qr_scan"}, "is_disabled": 0, "is_reserved": 0}, {"bike_id": "dd81138ec6f91e7c6ef4194931ece2af", "type": "electric_scooter", "fusion_lat": 0.0, "lat": 38.948395166666664, "lon": -77.02529916666667, "fusion_lon": 0.0, "name": "dd81138ec6f91e7c6ef4194931ece2af", "rental_uris": {"ios": "https://dc.lft.to/lastmile_qr_scan", "android": "https://dc.lft.to/lastmile_qr_scan"}, "is_disabled": 0, "is_reserved": 0}, {"bike_id": "444f2251ea52a2ea8917869a4346c6dd", "type": "electric_scooter", "fusion_lat": 0.0, "lat": 38.91577766666666, "lon": -77.044404, "fusion_lon": 0.0, "name": "444f2251ea52a2ea8917869a4346c6dd", "rental_uris": {"ios": "https://dc.lft.to/lastmile_qr_scan", "android": "https://dc.lft.to/lastmile_qr_scan"}, "is_disabled": 0, "is_reserved": 0}, {"bike_id": "8fc93fa74d2b09388abfefc0d20d33e2", "type": "electric_scooter", "fusion_lat": 0.0, "lat": 38.937826, "lon": -77.0199045, "fusion_lon": 0.0, "name": "8fc93fa74d2b09388abfefc0d20d33e2", "rental_uris": {"ios": "https://dc.lft.to/lastmile_qr_scan", "android": "https://dc.lft.to/lastmile_qr_scan"}, "is_disabled": 0, "is_reserved": 0}, {"bike_id": "a7a7109a8231deb47b1ed20231f29452", "type": "electric_scooter", "fusion_lat": 0.0, "lat": 38.86034083333333, "lon": -76.98371783333333, "fusion_lon": 0.0, "name": "a7a7109a8231deb47b1ed20231f29452", "rental_uris": {"ios": "https://dc.lft.to/lastmile_qr_scan", "android": "https://dc.lft.to/lastmile_qr_scan"}, "is_disabled": 0, "is_reserved": 0}, {"bike_id": "2a9496b3ce2626f6ad76f0f1ed82f6ee", "type": "electric_scooter", "fusion_lat": 0.0, "lat": 38.901091, "lon": -77.04326266666666, "fusion_lon": 0.0, "name": "2a9496b3ce2626f6ad76f0f1ed82f6ee", "rental_uris": {"ios": "https://dc.lft.to/lastmile_qr_scan", "android": "https://dc.lft.to/lastmile_qr_scan"}, "is_disabled": 0, "is_reserved": 0}, {"bike_id": "aa7286ca2cf694ff7759e89934fea969", "type": "electric_scooter", "fusion_lat": 0.0, "lat": 38.911133666666665, "lon": -77.00368833333333, "fusion_lon": 0.0, "name": "aa7286ca2cf694ff7759e89934fea969", "rental_uris": {"ios": "https://dc.lft.to/lastmile_qr_scan", "android": "https://dc.lft.to/lastmile_qr_scan"}, "is_disabled": 0, "is_reserved": 0}, {"bike_id": "68b4bf1c520ccef278769bc0bd29def1", "type": "electric_bike", "fusion_lat": 0.0, "lat": 38.928951, "lon": -77.23174816666666, "fusion_lon": 0.0, "name": "68b4bf1c520ccef278769bc0bd29def1", "rental_uris": {"ios": "https://dc.lft.to/lastmile_qr_scan", "android": "https://dc.lft.to/lastmile_qr_scan"}, "is_disabled": 0, "is_reserved": 0}, {"bike_id": "888cac702975fc07dcf003515faea4f3", "type": "electric_scooter", "fusion_lat": 0.0, "lat": 38.903348333333334, "lon": -77.0589655, "fusion_lon": 0.0, "name": "888cac702975fc07dcf003515faea4f3", "rental_uris": {"ios": "https://dc.lft.to/lastmile_qr_scan", "android": "https://dc.lft.to/lastmile_qr_scan"}, "is_disabled": 0, "is_reserved": 0}, {"bike_id": "2dcb320b799156cb00ec445924d5d02b", "type": "electric_scooter", "fusion_lat": 0.0, "lat": 38.90965083333333, "lon": -77.01453366666667, "fusion_lon": 0.0, "name": "2dcb320b799156cb00ec445924d5d02b", "rental_uris": {"ios": "https://dc.lft.to/lastmile_qr_scan", "android": "https://dc.lft.to/lastmile_qr_scan"}, "is_disabled": 0, "is_reserved": 0}, {"bike_id": "dd80cacfdf57d2442c1873f38ca67bec", "type": "electric_scooter", "fusion_lat": 0.0, "lat": 38.913934833333336, "lon": -77.04343916666667, "fusion_lon": 0.0, "name": "dd80cacfdf57d2442c1873f38ca67bec", "rental_uris": {"ios": "https://dc.lft.to/lastmile_qr_scan", "android": "https://dc.lft.to/lastmile_qr_scan"}, "is_disabled": 0, "is_reserved": 0}, {"bike_id": "ef769a4dc0652271e108f93e2856c239", "type": "electric_bike", "fusion_lat": 0.0, "lat": 38.83828666666667, "lon": -77.07911516666667, "fusion_lon": 0.0, "name": "ef769a4dc0652271e108f93e2856c239", "rental_uris": {"ios": "https://dc.lft.to/lastmile_qr_scan", "android": "https://dc.lft.to/lastmile_qr_scan"}, "is_disabled": 0, "is_reserved": 0}, {"bike_id": "9b1fb9943708198b31f01d611012394f", "type": "electric_scooter", "fusion_lat": 0.0, "lat": 38.920777, "lon": -77.02365566666667, "fusion_lon": 0.0, "name": "9b1fb9943708198b31f01d611012394f", "rental_uris": {"ios": "https://dc.lft.to/lastmile_qr_scan", "android": "https://dc.lft.to/lastmile_qr_scan"}, "is_disabled": 0, "is_reserved": 0}, {"bike_id": "d1f0b586fac5102c487bc17afeeb9dbc", "type": "electric_scooter", "fusion_lat": 0.0, "lat": 38.924159333333336, "lon": -77.0194435, "fusion_lon": 0.0, "name": "d1f0b586fac5102c487bc17afeeb9dbc", "rental_uris": {"ios": "https://dc.lft.to/lastmile_qr_scan", "android": "https://dc.lft.to/lastmile_qr_scan"}, "is_disabled": 0, "is_reserved": 0}, {"bike_id": "39c1e7d266604bbc5b2c06f126f91bf5", "type": "electric_bike", "fusion_lat": 0.0, "lat": 38.831358, "lon": -77.11319133333333, "fusion_lon": 0.0, "name": "39c1e7d266604bbc5b2c06f126f91bf5", "rental_uris": {"ios": "https://dc.lft.to/lastmile_qr_scan", "android": "https://dc.lft.to/lastmile_qr_scan"}, "is_disabled": 0, "is_reserved": 0}, {"bike_id": "967613bb056199e2d7e4ede388e56f54", "type": "electric_scooter", "fusion_lat": 0.0, "lat": 38.94884533333333, "lon": -77.08054916666667, "fusion_lon": 0.0, "name": "967613bb056199e2d7e4ede388e56f54", "rental_uris": {"ios": "https://dc.lft.to/lastmile_qr_scan", "android": "https://dc.lft.to/lastmile_qr_scan"}, "is_disabled": 0, "is_reserved": 0}, {"bike_id": "3116c7c2a011a8ee4da90eeeea184e01", "type": "electric_scooter", "fusion_lat": 0.0, "lat": 38.89221933333334, "lon": -77.03170366666667, "fusion_lon": 0.0, "name": "3116c7c2a011a8ee4da90eeeea184e01", "rental_uris": {"ios": "https://dc.lft.to/lastmile_qr_scan", "android": "https://dc.lft.to/lastmile_qr_scan"}, "is_disabled": 0, "is_reserved": 0}, {"bike_id": "e2153edc686d07804a376bed6101f5f9", "type": "electric_scooter", "fusion_lat": 0.0, "lat": 38.898982333333336, "lon": -77.03924883333333, "fusion_lon": 0.0, "name": "e2153edc686d07804a376bed6101f5f9", "rental_uris": {"ios": "https://dc.lft.to/lastmile_qr_scan", "android": "https://dc.lft.to/lastmile_qr_scan"}, "is_disabled": 0, "is_reserved": 0}, {"bike_id": "b431b54d235b8b5c26cb9c345f92e236", "type": "electric_scooter", "fusion_lat": 0.0, "lat": 38.886413, "lon": -77.00093666666666, "fusion_lon": 0.0, "name": "b431b54d235b8b5c26cb9c345f92e236", "rental_uris": {"ios": "https://dc.lft.to/lastmile_qr_scan", "android": "https://dc.lft.to/lastmile_qr_scan"}, "is_disabled": 0, "is_reserved": 0}, {"bike_id": "f4495dd61ec2665b0be8d2ec6eb6fbbf", "type": "electric_scooter", "fusion_lat": 0.0, "lat": 38.92784016666667, "lon": -77.0276175, "fusion_lon": 0.0, "name": "f4495dd61ec2665b0be8d2ec6eb6fbbf", "rental_uris": {"ios": "https://dc.lft.to/lastmile_qr_scan", "android": "https://dc.lft.to/lastmile_qr_scan"}, "is_disabled": 0, "is_reserved": 0}, {"bike_id": "5ed5e5f8005377fbbd6a47bceef110ff", "type": "electric_scooter", "fusion_lat": 0.0, "lat": 38.958122833333334, "lon": -77.014525, "fusion_lon": 0.0, "name": "5ed5e5f8005377fbbd6a47bceef110ff", "rental_uris": {"ios": "https://dc.lft.to/lastmile_qr_scan", "android": "https://dc.lft.to/lastmile_qr_scan"}, "is_disabled": 0, "is_reserved": 0}, {"bike_id": "56beef4b7efbfd2bda67d13d940675ea", "type": "electric_scooter", "fusion_lat": 0.0, "lat": 38.90771183333333, "lon": -77.04498583333333, "fusion_lon": 0.0, "name": "56beef4b7efbfd2bda67d13d940675ea", "rental_uris": {"ios": "https://dc.lft.to/lastmile_qr_scan", "android": "https://dc.lft.to/lastmile_qr_scan"}, "is_disabled": 0, "is_reserved": 0}, {"bike_id": "2d7f9ead87e1f11ef17abfd4b5794611", "type": "electric_scooter", "fusion_lat": 0.0, "lat": 38.916162666666665, "lon": -77.04503266666667, "fusion_lon": 0.0, "name": "2d7f9ead87e1f11ef17abfd4b5794611", "rental_uris": {"ios": "https://dc.lft.to/lastmile_qr_scan", "android": "https://dc.lft.to/lastmile_qr_scan"}, "is_disabled": 0, "is_reserved": 0}, {"bike_id": "8a46ab906a1722787745ea848909ccaf", "type": "electric_scooter", "fusion_lat": 0.0, "lat": 38.93267783333334, "lon": -77.02093783333333, "fusion_lon": 0.0, "name": "8a46ab906a1722787745ea848909ccaf", "rental_uris": {"ios": "https://dc.lft.to/lastmile_qr_scan", "android": "https://dc.lft.to/lastmile_qr_scan"}, "is_disabled": 0, "is_reserved": 0}, {"bike_id": "d7634f1361845f90435a79ad14295790", "type": "electric_scooter", "fusion_lat": 0.0, "lat": 38.90968616666667, "lon": -77.018821, "fusion_lon": 0.0, "name": "d7634f1361845f90435a79ad14295790", "rental_uris": {"ios": "https://dc.lft.to/lastmile_qr_scan", "android": "https://dc.lft.to/lastmile_qr_scan"}, "is_disabled": 0, "is_reserved": 0}, {"bike_id": "07735eb8961e84d8ff9e58cc7dcde798", "type": "electric_scooter", "fusion_lat": 0.0, "lat": 38.893668, "lon": -77.00329666666667, "fusion_lon": 0.0, "name": "07735eb8961e84d8ff9e58cc7dcde798", "rental_uris": {"ios": "https://dc.lft.to/lastmile_qr_scan", "android": "https://dc.lft.to/lastmile_qr_scan"}, "is_disabled": 0, "is_reserved": 0}, {"bike_id": "5592460a7cd075552993ef5265c0b2d8", "type": "electric_scooter", "fusion_lat": 0.0, "lat": 38.920934333333335, "lon": -77.02497083333333, "fusion_lon": 0.0, "name": "5592460a7cd075552993ef5265c0b2d8", "rental_uris": {"ios": "https://dc.lft.to/lastmile_qr_scan", "android": "https://dc.lft.to/lastmile_qr_scan"}, "is_disabled": 0, "is_reserved": 0}, {"bike_id": "f575b647d7fd7eb2dd1c52bd5bcbf8b1", "type": "electric_bike", "fusion_lat": 0.0, "lat": 38.96460233333333, "lon": -77.03569766666666, "fusion_lon": 0.0, "name": "f575b647d7fd7eb2dd1c52bd5bcbf8b1", "rental_uris": {"ios": "https://dc.lft.to/lastmile_qr_scan", "android": "https://dc.lft.to/lastmile_qr_scan"}, "is_disabled": 0, "is_reserved": 0}, {"bike_id": "94a24939aba66683aa6d3d8cc4b773ca", "type": "electric_bike", "fusion_lat": 0.0, "lat": 38.997844, "lon": -77.00755616666666, "fusion_lon": 0.0, "name": "94a24939aba66683aa6d3d8cc4b773ca", "rental_uris": {"ios": "https://dc.lft.to/lastmile_qr_scan", "android": "https://dc.lft.to/lastmile_qr_scan"}, "is_disabled": 0, "is_reserved": 0}, {"bike_id": "cec95ca613d9af38203e50b3fdb27d67", "type": "electric_bike", "fusion_lat": 0.0, "lat": 38.952460333333335, "lon": -77.09625983333333, "fusion_lon": 0.0, "name": "cec95ca613d9af38203e50b3fdb27d67", "rental_uris": {"ios": "https://dc.lft.to/lastmile_qr_scan", "android": "https://dc.lft.to/lastmile_qr_scan"}, "is_disabled": 0, "is_reserved": 0}, {"bike_id": "a8c5047b9ff8371826666994194d0303", "type": "electric_scooter", "fusion_lat": 0.0, "lat": 38.92464566666666, "lon": -77.02269216666667, "fusion_lon": 0.0, "name": "a8c5047b9ff8371826666994194d0303", "rental_uris": {"ios": "https://dc.lft.to/lastmile_qr_scan", "android": "https://dc.lft.to/lastmile_qr_scan"}, "is_disabled": 0, "is_reserved": 0}, {"bike_id": "0c225bbb0c89d9652c87596e6abf992b", "type": "electric_bike", "fusion_lat": 0.0, "lat": 38.87965416666667, "lon": -77.01007966666667, "fusion_lon": 0.0, "name": "0c225bbb0c89d9652c87596e6abf992b", "rental_uris": {"ios": "https://dc.lft.to/lastmile_qr_scan", "android": "https://dc.lft.to/lastmile_qr_scan"}, "is_disabled": 0, "is_reserved": 0}, {"bike_id": "6eb0660fdd8c3e26c2a1447e90436886", "type": "electric_bike", "fusion_lat": 0.0, "lat": 38.9360365, "lon": -77.00217533333333, "fusion_lon": 0.0, "name": "6eb0660fdd8c3e26c2a1447e90436886", "rental_uris": {"ios": "https://dc.lft.to/lastmile_qr_scan", "android": "https://dc.lft.to/lastmile_qr_scan"}, "is_disabled": 0, "is_reserved": 0}, {"bike_id": "1556d69c3d793a53e185b1c1cc7e5483", "type": "electric_scooter", "fusion_lat": 0.0, "lat": 38.926396, "lon": -77.01341666666667, "fusion_lon": 0.0, "name": "1556d69c3d793a53e185b1c1cc7e5483", "rental_uris": {"ios": "https://dc.lft.to/lastmile_qr_scan", "android": "https://dc.lft.to/lastmile_qr_scan"}, "is_disabled": 0, "is_reserved": 0}, {"bike_id": "04414022eeda30f9155a01ba230bc41c", "type": "electric_scooter", "fusion_lat": 0.0, "lat": 38.92472183333334, "lon": -77.05235066666667, "fusion_lon": 0.0, "name": "04414022eeda30f9155a01ba230bc41c", "rental_uris": {"ios": "https://dc.lft.to/lastmile_qr_scan", "android": "https://dc.lft.to/lastmile_qr_scan"}, "is_disabled": 0, "is_reserved": 0}, {"bike_id": "b9cc041d19859af9224de16cba47427d", "type": "electric_scooter", "fusion_lat": 0.0, "lat": 38.87658066666667, "lon": -77.00448016666667, "fusion_lon": 0.0, "name": "b9cc041d19859af9224de16cba47427d", "rental_uris": {"ios": "https://dc.lft.to/lastmile_qr_scan", "android": "https://dc.lft.to/lastmile_qr_scan"}, "is_disabled": 0, "is_reserved": 0}, {"bike_id": "323b473a4d7886920a446c6c58061d02", "type": "electric_scooter", "fusion_lat": 0.0, "lat": 38.87380516666666, "lon": -77.00130866666667, "fusion_lon": 0.0, "name": "323b473a4d7886920a446c6c58061d02", "rental_uris": {"ios": "https://dc.lft.to/lastmile_qr_scan", "android": "https://dc.lft.to/lastmile_qr_scan"}, "is_disabled": 0, "is_reserved": 0}, {"bike_id": "e3cd77e6f16c94ff81e6f766db2ece6e", "type": "electric_scooter", "fusion_lat": 0.0, "lat": 38.9096965, "lon": -77.007437, "fusion_lon": 0.0, "name": "e3cd77e6f16c94ff81e6f766db2ece6e", "rental_uris": {"ios": "https://dc.lft.to/lastmile_qr_scan", "android": "https://dc.lft.to/lastmile_qr_scan"}, "is_disabled": 0, "is_reserved": 0}, {"bike_id": "f76328d846b5f3d50aa14d5407eaad16", "type": "electric_bike", "fusion_lat": 0.0, "lat": 38.98380616666667, "lon": -76.94719283333333, "fusion_lon": 0.0, "name": "f76328d846b5f3d50aa14d5407eaad16", "rental_uris": {"ios": "https://dc.lft.to/lastmile_qr_scan", "android": "https://dc.lft.to/lastmile_qr_scan"}, "is_disabled": 0, "is_reserved": 0}, {"bike_id": "d5a71918a68e4b271ebdf725b976c0e7", "type": "electric_scooter", "fusion_lat": 0.0, "lat": 38.924271166666664, "lon": -77.05171933333334, "fusion_lon": 0.0, "name": "d5a71918a68e4b271ebdf725b976c0e7", "rental_uris": {"ios": "https://dc.lft.to/lastmile_qr_scan", "android": "https://dc.lft.to/lastmile_qr_scan"}, "is_disabled": 0, "is_reserved": 0}, {"bike_id": "acc8d42c5c035e83fcb1fe4d1bd3788c", "type": "electric_bike", "fusion_lat": 0.0, "lat": 38.907758666666666, "lon": -77.057006, "fusion_lon": 0.0, "name": "acc8d42c5c035e83fcb1fe4d1bd3788c", "rental_uris": {"ios": "https://dc.lft.to/lastmile_qr_scan", "android": "https://dc.lft.to/lastmile_qr_scan"}, "is_disabled": 0, "is_reserved": 0}, {"bike_id": "4d779001c62e19d7558f392ca52ef08d", "type": "electric_scooter", "fusion_lat": 0.0, "lat": 38.901389, "lon": -77.01509133333333, "fusion_lon": 0.0, "name": "4d779001c62e19d7558f392ca52ef08d", "rental_uris": {"ios": "https://dc.lft.to/lastmile_qr_scan", "android": "https://dc.lft.to/lastmile_qr_scan"}, "is_disabled": 0, "is_reserved": 0}, {"bike_id": "65ef4af267ebafc947b4dd6bb392d07b", "type": "electric_scooter", "fusion_lat": 0.0, "lat": 38.894673, "lon": -77.01095533333333, "fusion_lon": 0.0, "name": "65ef4af267ebafc947b4dd6bb392d07b", "rental_uris": {"ios": "https://dc.lft.to/lastmile_qr_scan", "android": "https://dc.lft.to/lastmile_qr_scan"}, "is_disabled": 0, "is_reserved": 0}, {"bike_id": "8a86ff46e8cd04236b292f9f84f6a815", "type": "electric_scooter", "fusion_lat": 0.0, "lat": 38.90815083333333, "lon": -77.03902183333334, "fusion_lon": 0.0, "name": "8a86ff46e8cd04236b292f9f84f6a815", "rental_uris": {"ios": "https://dc.lft.to/lastmile_qr_scan", "android": "https://dc.lft.to/lastmile_qr_scan"}, "is_disabled": 0, "is_reserved": 0}, {"bike_id": "36e177a605ed840a68b3c4d9fbcbe954", "type": "electric_scooter", "fusion_lat": 0.0, "lat": 38.89221233333333, "lon": -77.04685433333333, "fusion_lon": 0.0, "name": "36e177a605ed840a68b3c4d9fbcbe954", "rental_uris": {"ios": "https://dc.lft.to/lastmile_qr_scan", "android": "https://dc.lft.to/lastmile_qr_scan"}, "is_disabled": 0, "is_reserved": 0}, {"bike_id": "7e42fe88eaf91fbbdae4569c66382c83", "type": "electric_scooter", "fusion_lat": 0.0, "lat": 38.887411166666666, "lon": -77.0257815, "fusion_lon": 0.0, "name": "7e42fe88eaf91fbbdae4569c66382c83", "rental_uris": {"ios": "https://dc.lft.to/lastmile_qr_scan", "android": "https://dc.lft.to/lastmile_qr_scan"}, "is_disabled": 0, "is_reserved": 0}, {"bike_id": "1fb95298ea42fbb880e8d92776234c92", "type": "electric_scooter", "fusion_lat": 0.0, "lat": 38.931223, "lon": -77.09120433333334, "fusion_lon": 0.0, "name": "1fb95298ea42fbb880e8d92776234c92", "rental_uris": {"ios": "https://dc.lft.to/lastmile_qr_scan", "android": "https://dc.lft.to/lastmile_qr_scan"}, "is_disabled": 0, "is_reserved": 0}, {"bike_id": "a8946742a4cee1e773179586ee115808", "type": "electric_scooter", "fusion_lat": 0.0, "lat": 38.8987135, "lon": -76.946633, "fusion_lon": 0.0, "name": "a8946742a4cee1e773179586ee115808", "rental_uris": {"ios": "https://dc.lft.to/lastmile_qr_scan", "android": "https://dc.lft.to/lastmile_qr_scan"}, "is_disabled": 0, "is_reserved": 0}, {"bike_id": "9e97de265eac462e8f6756ccfa0b78c1", "type": "electric_scooter", "fusion_lat": 0.0, "lat": 38.906746, "lon": -77.0714495, "fusion_lon": 0.0, "name": "9e97de265eac462e8f6756ccfa0b78c1", "rental_uris": {"ios": "https://dc.lft.to/lastmile_qr_scan", "android": "https://dc.lft.to/lastmile_qr_scan"}, "is_disabled": 0, "is_reserved": 0}, {"bike_id": "455eadb9ea16f2fcacbeb574a608d32a", "type": "electric_scooter", "fusion_lat": 0.0, "lat": 38.9180575, "lon": -76.99965833333333, "fusion_lon": 0.0, "name": "455eadb9ea16f2fcacbeb574a608d32a", "rental_uris": {"ios": "https://dc.lft.to/lastmile_qr_scan", "android": "https://dc.lft.to/lastmile_qr_scan"}, "is_disabled": 0, "is_reserved": 0}, {"bike_id": "9094c3af00606e80a29448be658628b0", "type": "electric_scooter", "fusion_lat": 0.0, "lat": 38.899468166666665, "lon": -77.04330383333334, "fusion_lon": 0.0, "name": "9094c3af00606e80a29448be658628b0", "rental_uris": {"ios": "https://dc.lft.to/lastmile_qr_scan", "android": "https://dc.lft.to/lastmile_qr_scan"}, "is_disabled": 0, "is_reserved": 0}, {"bike_id": "a7bffdc9b76b22dffd2b4885f3c09c1e", "type": "electric_scooter", "fusion_lat": 0.0, "lat": 38.919242, "lon": -77.033618, "fusion_lon": 0.0, "name": "a7bffdc9b76b22dffd2b4885f3c09c1e", "rental_uris": {"ios": "https://dc.lft.to/lastmile_qr_scan", "android": "https://dc.lft.to/lastmile_qr_scan"}, "is_disabled": 0, "is_reserved": 0}, {"bike_id": "ff94b3564ef43124eb18d3351736451a", "type": "electric_scooter", "fusion_lat": 0.0, "lat": 38.87718783333333, "lon": -77.00641766666666, "fusion_lon": 0.0, "name": "ff94b3564ef43124eb18d3351736451a", "rental_uris": {"ios": "https://dc.lft.to/lastmile_qr_scan", "android": "https://dc.lft.to/lastmile_qr_scan"}, "is_disabled": 0, "is_reserved": 0}, {"bike_id": "6d9d4734e70730a14715574fdc906972", "type": "electric_scooter", "fusion_lat": 0.0, "lat": 38.89293416666667, "lon": -77.01962483333334, "fusion_lon": 0.0, "name": "6d9d4734e70730a14715574fdc906972", "rental_uris": {"ios": "https://dc.lft.to/lastmile_qr_scan", "android": "https://dc.lft.to/lastmile_qr_scan"}, "is_disabled": 0, "is_reserved": 0}, {"bike_id": "8d76bb410494a32ac6b039cec4ff3377", "type": "electric_scooter", "fusion_lat": 0.0, "lat": 38.9206455, "lon": -77.02546316666667, "fusion_lon": 0.0, "name": "8d76bb410494a32ac6b039cec4ff3377", "rental_uris": {"ios": "https://dc.lft.to/lastmile_qr_scan", "android": "https://dc.lft.to/lastmile_qr_scan"}, "is_disabled": 0, "is_reserved": 0}, {"bike_id": "13449bfa77d22392d518f14b34ddbe8a", "type": "electric_scooter", "fusion_lat": 0.0, "lat": 38.886101833333335, "lon": -77.03099883333333, "fusion_lon": 0.0, "name": "13449bfa77d22392d518f14b34ddbe8a", "rental_uris": {"ios": "https://dc.lft.to/lastmile_qr_scan", "android": "https://dc.lft.to/lastmile_qr_scan"}, "is_disabled": 0, "is_reserved": 0}, {"bike_id": "d3c867a00015969fd63df2930dd5eccd", "type": "electric_scooter", "fusion_lat": 0.0, "lat": 38.928905, "lon": -77.0136195, "fusion_lon": 0.0, "name": "d3c867a00015969fd63df2930dd5eccd", "rental_uris": {"ios": "https://dc.lft.to/lastmile_qr_scan", "android": "https://dc.lft.to/lastmile_qr_scan"}, "is_disabled": 0, "is_reserved": 0}, {"bike_id": "78b61a7892eb4e1e53ff9801f6f534e0", "type": "electric_scooter", "fusion_lat": 0.0, "lat": 38.865087333333335, "lon": -76.97339766666667, "fusion_lon": 0.0, "name": "78b61a7892eb4e1e53ff9801f6f534e0", "rental_uris": {"ios": "https://dc.lft.to/lastmile_qr_scan", "android": "https://dc.lft.to/lastmile_qr_scan"}, "is_disabled": 0, "is_reserved": 0}, {"bike_id": "b528ee32629f454db26dfe59e51feec9", "type": "electric_scooter", "fusion_lat": 0.0, "lat": 38.910428833333334, "lon": -76.9973745, "fusion_lon": 0.0, "name": "b528ee32629f454db26dfe59e51feec9", "rental_uris": {"ios": "https://dc.lft.to/lastmile_qr_scan", "android": "https://dc.lft.to/lastmile_qr_scan"}, "is_disabled": 0, "is_reserved": 0}, {"bike_id": "fd0e2b60b2bf9e920fd29b5e6bdc8584", "type": "electric_scooter", "fusion_lat": 0.0, "lat": 38.89845316666667, "lon": -77.04249316666667, "fusion_lon": 0.0, "name": "fd0e2b60b2bf9e920fd29b5e6bdc8584", "rental_uris": {"ios": "https://dc.lft.to/lastmile_qr_scan", "android": "https://dc.lft.to/lastmile_qr_scan"}, "is_disabled": 0, "is_reserved": 0}, {"bike_id": "6a52d79fcda5ccae993f2cea94458430", "type": "electric_scooter", "fusion_lat": 0.0, "lat": 38.911046, "lon": -77.00288333333333, "fusion_lon": 0.0, "name": "6a52d79fcda5ccae993f2cea94458430", "rental_uris": {"ios": "https://dc.lft.to/lastmile_qr_scan", "android": "https://dc.lft.to/lastmile_qr_scan"}, "is_disabled": 0, "is_reserved": 0}, {"bike_id": "de82c7fe9f6b6c26655ec8fe168ecd86", "type": "electric_scooter", "fusion_lat": 0.0, "lat": 38.902828666666665, "lon": -77.00192816666667, "fusion_lon": 0.0, "name": "de82c7fe9f6b6c26655ec8fe168ecd86", "rental_uris": {"ios": "https://dc.lft.to/lastmile_qr_scan", "android": "https://dc.lft.to/lastmile_qr_scan"}, "is_disabled": 0, "is_reserved": 0}, {"bike_id": "68fd7737bd4833204ad401c23b3cb221", "type": "electric_scooter", "fusion_lat": 0.0, "lat": 38.904138833333334, "lon": -76.973301, "fusion_lon": 0.0, "name": "68fd7737bd4833204ad401c23b3cb221", "rental_uris": {"ios": "https://dc.lft.to/lastmile_qr_scan", "android": "https://dc.lft.to/lastmile_qr_scan"}, "is_disabled": 0, "is_reserved": 0}, {"bike_id": "fb5715af954abc861317fd85a05210a9", "type": "electric_scooter", "fusion_lat": 0.0, "lat": 38.8913465, "lon": -76.99027083333333, "fusion_lon": 0.0, "name": "fb5715af954abc861317fd85a05210a9", "rental_uris": {"ios": "https://dc.lft.to/lastmile_qr_scan", "android": "https://dc.lft.to/lastmile_qr_scan"}, "is_disabled": 0, "is_reserved": 0}, {"bike_id": "c708b4519474e17c6c1534abc4e6c490", "type": "electric_scooter", "fusion_lat": 0.0, "lat": 38.89690366666667, "lon": -77.0049095, "fusion_lon": 0.0, "name": "c708b4519474e17c6c1534abc4e6c490", "rental_uris": {"ios": "https://dc.lft.to/lastmile_qr_scan", "android": "https://dc.lft.to/lastmile_qr_scan"}, "is_disabled": 0, "is_reserved": 0}, {"bike_id": "b6fb374e40e7b0f0d0bc21c7ebbeca8d", "type": "electric_scooter", "fusion_lat": 0.0, "lat": 38.94456666666667, "lon": -77.06340733333333, "fusion_lon": 0.0, "name": "b6fb374e40e7b0f0d0bc21c7ebbeca8d", "rental_uris": {"ios": "https://dc.lft.to/lastmile_qr_scan", "android": "https://dc.lft.to/lastmile_qr_scan"}, "is_disabled": 0, "is_reserved": 0}, {"bike_id": "3b2dc3020e1b255c1348bf69148cd885", "type": "electric_scooter", "fusion_lat": 0.0, "lat": 38.915281666666665, "lon": -77.04449666666666, "fusion_lon": 0.0, "name": "3b2dc3020e1b255c1348bf69148cd885", "rental_uris": {"ios": "https://dc.lft.to/lastmile_qr_scan", "android": "https://dc.lft.to/lastmile_qr_scan"}, "is_disabled": 0, "is_reserved": 0}, {"bike_id": "4f52992269b369d379113f45fb986da9", "type": "electric_scooter", "fusion_lat": 0.0, "lat": 38.904016, "lon": -77.04031066666667, "fusion_lon": 0.0, "name": "4f52992269b369d379113f45fb986da9", "rental_uris": {"ios": "https://dc.lft.to/lastmile_qr_scan", "android": "https://dc.lft.to/lastmile_qr_scan"}, "is_disabled": 0, "is_reserved": 0}, {"bike_id": "fdcfab100eb9ffdf456be3fc3d8198bc", "type": "electric_scooter", "fusion_lat": 0.0, "lat": 38.91985966666667, "lon": -77.02178883333333, "fusion_lon": 0.0, "name": "fdcfab100eb9ffdf456be3fc3d8198bc", "rental_uris": {"ios": "https://dc.lft.to/lastmile_qr_scan", "android": "https://dc.lft.to/lastmile_qr_scan"}, "is_disabled": 0, "is_reserved": 0}, {"bike_id": "116f7d4ce92ffe74d14c6d32ae89edda", "type": "electric_scooter", "fusion_lat": 0.0, "lat": 38.9157265, "lon": -77.03183233333333, "fusion_lon": 0.0, "name": "116f7d4ce92ffe74d14c6d32ae89edda", "rental_uris": {"ios": "https://dc.lft.to/lastmile_qr_scan", "android": "https://dc.lft.to/lastmile_qr_scan"}, "is_disabled": 0, "is_reserved": 0}, {"bike_id": "fa57c3395b1e6ee2a400ba402b3b96b5", "type": "electric_scooter", "fusion_lat": 0.0, "lat": 38.932318333333335, "lon": -77.072873, "fusion_lon": 0.0, "name": "fa57c3395b1e6ee2a400ba402b3b96b5", "rental_uris": {"ios": "https://dc.lft.to/lastmile_qr_scan", "android": "https://dc.lft.to/lastmile_qr_scan"}, "is_disabled": 0, "is_reserved": 0}, {"bike_id": "a7fb0caef00d20b911c09e516047bf0c", "type": "electric_scooter", "fusion_lat": 0.0, "lat": 38.91597866666667, "lon": -77.04902883333334, "fusion_lon": 0.0, "name": "a7fb0caef00d20b911c09e516047bf0c", "rental_uris": {"ios": "https://dc.lft.to/lastmile_qr_scan", "android": "https://dc.lft.to/lastmile_qr_scan"}, "is_disabled": 0, "is_reserved": 0}, {"bike_id": "009eafc330c2adc3e550005494c50ff8", "type": "electric_scooter", "fusion_lat": 0.0, "lat": 38.89363766666666, "lon": -77.003264, "fusion_lon": 0.0, "name": "009eafc330c2adc3e550005494c50ff8", "rental_uris": {"ios": "https://dc.lft.to/lastmile_qr_scan", "android": "https://dc.lft.to/lastmile_qr_scan"}, "is_disabled": 0, "is_reserved": 0}, {"bike_id": "324c7360c1e806b3f410d1c53c9e9be7", "type": "electric_scooter", "fusion_lat": 0.0, "lat": 38.92497816666667, "lon": -77.02175283333334, "fusion_lon": 0.0, "name": "324c7360c1e806b3f410d1c53c9e9be7", "rental_uris": {"ios": "https://dc.lft.to/lastmile_qr_scan", "android": "https://dc.lft.to/lastmile_qr_scan"}, "is_disabled": 0, "is_reserved": 0}, {"bike_id": "ea6097542ef9e60e1ef1c300f3a104c5", "type": "electric_scooter", "fusion_lat": 0.0, "lat": 38.87382983333333, "lon": -77.00172616666667, "fusion_lon": 0.0, "name": "ea6097542ef9e60e1ef1c300f3a104c5", "rental_uris": {"ios": "https://dc.lft.to/lastmile_qr_scan", "android": "https://dc.lft.to/lastmile_qr_scan"}, "is_disabled": 0, "is_reserved": 0}, {"bike_id": "be24f6dfea629a277e6d5cfed275c36f", "type": "electric_scooter", "fusion_lat": 0.0, "lat": 38.92067566666667, "lon": -77.015371, "fusion_lon": 0.0, "name": "be24f6dfea629a277e6d5cfed275c36f", "rental_uris": {"ios": "https://dc.lft.to/lastmile_qr_scan", "android": "https://dc.lft.to/lastmile_qr_scan"}, "is_disabled": 0, "is_reserved": 0}, {"bike_id": "97ed8d7d618fb94cfd0034a4f4b2a582", "type": "electric_scooter", "fusion_lat": 0.0, "lat": 38.898093, "lon": -77.01210033333334, "fusion_lon": 0.0, "name": "97ed8d7d618fb94cfd0034a4f4b2a582", "rental_uris": {"ios": "https://dc.lft.to/lastmile_qr_scan", "android": "https://dc.lft.to/lastmile_qr_scan"}, "is_disabled": 0, "is_reserved": 0}, {"bike_id": "d1fb4cda2f527acf343fc838d76a1196", "type": "electric_scooter", "fusion_lat": 0.0, "lat": 38.8974825, "lon": -77.01881066666667, "fusion_lon": 0.0, "name": "d1fb4cda2f527acf343fc838d76a1196", "rental_uris": {"ios": "https://dc.lft.to/lastmile_qr_scan", "android": "https://dc.lft.to/lastmile_qr_scan"}, "is_disabled": 0, "is_reserved": 0}, {"bike_id": "47cab1bffa9d9b5fc0f5fa3e0e05cecd", "type": "electric_scooter", "fusion_lat": 0.0, "lat": 38.936893, "lon": -77.0363285, "fusion_lon": 0.0, "name": "47cab1bffa9d9b5fc0f5fa3e0e05cecd", "rental_uris": {"ios": "https://dc.lft.to/lastmile_qr_scan", "android": "https://dc.lft.to/lastmile_qr_scan"}, "is_disabled": 0, "is_reserved": 0}, {"bike_id": "2e69148e0ac9126617519450253edeaa", "type": "electric_bike", "fusion_lat": 0.0, "lat": 38.94172233333333, "lon": -76.95350483333333, "fusion_lon": 0.0, "name": "2e69148e0ac9126617519450253edeaa", "rental_uris": {"ios": "https://dc.lft.to/lastmile_qr_scan", "android": "https://dc.lft.to/lastmile_qr_scan"}, "is_disabled": 0, "is_reserved": 0}, {"bike_id": "d8c7efe1a3365f3c6ce3a269fba16f0a", "type": "electric_bike", "fusion_lat": 0.0, "lat": 38.9743655, "lon": -77.096179, "fusion_lon": 0.0, "name": "d8c7efe1a3365f3c6ce3a269fba16f0a", "rental_uris": {"ios": "https://dc.lft.to/lastmile_qr_scan", "android": "https://dc.lft.to/lastmile_qr_scan"}, "is_disabled": 0, "is_reserved": 0}, {"bike_id": "b729cc3cc7f4d7cc57ec043506073f38", "type": "electric_scooter", "fusion_lat": 0.0, "lat": 38.91764383333334, "lon": -77.0270555, "fusion_lon": 0.0, "name": "b729cc3cc7f4d7cc57ec043506073f38", "rental_uris": {"ios": "https://dc.lft.to/lastmile_qr_scan", "android": "https://dc.lft.to/lastmile_qr_scan"}, "is_disabled": 0, "is_reserved": 0}, {"bike_id": "82ae09938d2446e618bd98a86c918bf7", "type": "electric_scooter", "fusion_lat": 0.0, "lat": 38.89227966666667, "lon": -77.05000166666666, "fusion_lon": 0.0, "name": "82ae09938d2446e618bd98a86c918bf7", "rental_uris": {"ios": "https://dc.lft.to/lastmile_qr_scan", "android": "https://dc.lft.to/lastmile_qr_scan"}, "is_disabled": 0, "is_reserved": 0}, {"bike_id": "45f8d7f403d19862c89a8a17458b92ea", "type": "electric_scooter", "fusion_lat": 0.0, "lat": 38.934231, "lon": -77.04002983333334, "fusion_lon": 0.0, "name": "45f8d7f403d19862c89a8a17458b92ea", "rental_uris": {"ios": "https://dc.lft.to/lastmile_qr_scan", "android": "https://dc.lft.to/lastmile_qr_scan"}, "is_disabled": 0, "is_reserved": 0}, {"bike_id": "4f7edd136b8be7cacf97c57edf8174fa", "type": "electric_scooter", "fusion_lat": 0.0, "lat": 38.918799166666666, "lon": -77.00915983333333, "fusion_lon": 0.0, "name": "4f7edd136b8be7cacf97c57edf8174fa", "rental_uris": {"ios": "https://dc.lft.to/lastmile_qr_scan", "android": "https://dc.lft.to/lastmile_qr_scan"}, "is_disabled": 0, "is_reserved": 0}, {"bike_id": "e81a40ee70ddddf52e3ed5c8430fedeb", "type": "electric_scooter", "fusion_lat": 0.0, "lat": 38.901176166666666, "lon": -77.043299, "fusion_lon": 0.0, "name": "e81a40ee70ddddf52e3ed5c8430fedeb", "rental_uris": {"ios": "https://dc.lft.to/lastmile_qr_scan", "android": "https://dc.lft.to/lastmile_qr_scan"}, "is_disabled": 0, "is_reserved": 0}, {"bike_id": "47b13a4f9d879dc257d7e5156368c804", "type": "electric_scooter", "fusion_lat": 0.0, "lat": 38.936666833333334, "lon": -77.03279666666667, "fusion_lon": 0.0, "name": "47b13a4f9d879dc257d7e5156368c804", "rental_uris": {"ios": "https://dc.lft.to/lastmile_qr_scan", "android": "https://dc.lft.to/lastmile_qr_scan"}, "is_disabled": 0, "is_reserved": 0}, {"bike_id": "c6fae488d51ab120f5065efc97d00b2a", "type": "electric_scooter", "fusion_lat": 0.0, "lat": 38.92249233333333, "lon": -77.01947033333333, "fusion_lon": 0.0, "name": "c6fae488d51ab120f5065efc97d00b2a", "rental_uris": {"ios": "https://dc.lft.to/lastmile_qr_scan", "android": "https://dc.lft.to/lastmile_qr_scan"}, "is_disabled": 0, "is_reserved": 0}, {"bike_id": "af93df465bb84a0d26d3fc1ba7ff7feb", "type": "electric_scooter", "fusion_lat": 0.0, "lat": 38.8901275, "lon": -76.93733066666667, "fusion_lon": 0.0, "name": "af93df465bb84a0d26d3fc1ba7ff7feb", "rental_uris": {"ios": "https://dc.lft.to/lastmile_qr_scan", "android": "https://dc.lft.to/lastmile_qr_scan"}, "is_disabled": 0, "is_reserved": 0}, {"bike_id": "a5edbe721c7b829ec5fafa0f6868a66c", "type": "electric_scooter", "fusion_lat": 0.0, "lat": 38.89751783333333, "lon": -77.03316233333334, "fusion_lon": 0.0, "name": "a5edbe721c7b829ec5fafa0f6868a66c", "rental_uris": {"ios": "https://dc.lft.to/lastmile_qr_scan", "android": "https://dc.lft.to/lastmile_qr_scan"}, "is_disabled": 0, "is_reserved": 0}, {"bike_id": "47be2eb5e31211e348ddd87fe1793c05", "type": "electric_scooter", "fusion_lat": 0.0, "lat": 38.90704083333333, "lon": -77.0031195, "fusion_lon": 0.0, "name": "47be2eb5e31211e348ddd87fe1793c05", "rental_uris": {"ios": "https://dc.lft.to/lastmile_qr_scan", "android": "https://dc.lft.to/lastmile_qr_scan"}, "is_disabled": 0, "is_reserved": 0}, {"bike_id": "477b4221a71cdad5c9e2f1fa60db94f3", "type": "electric_scooter", "fusion_lat": 0.0, "lat": 38.87897, "lon": -76.93523683333333, "fusion_lon": 0.0, "name": "477b4221a71cdad5c9e2f1fa60db94f3", "rental_uris": {"ios": "https://dc.lft.to/lastmile_qr_scan", "android": "https://dc.lft.to/lastmile_qr_scan"}, "is_disabled": 0, "is_reserved": 0}, {"bike_id": "6e7b2db46a8a8e306d1609eea9eda1be", "type": "electric_scooter", "fusion_lat": 0.0, "lat": 38.93985766666667, "lon": -77.023128, "fusion_lon": 0.0, "name": "6e7b2db46a8a8e306d1609eea9eda1be", "rental_uris": {"ios": "https://dc.lft.to/lastmile_qr_scan", "android": "https://dc.lft.to/lastmile_qr_scan"}, "is_disabled": 0, "is_reserved": 0}, {"bike_id": "fd736aa49bd4ed601ba5b529f4114e34", "type": "electric_scooter", "fusion_lat": 0.0, "lat": 38.8849295, "lon": -77.00710716666667, "fusion_lon": 0.0, "name": "fd736aa49bd4ed601ba5b529f4114e34", "rental_uris": {"ios": "https://dc.lft.to/lastmile_qr_scan", "android": "https://dc.lft.to/lastmile_qr_scan"}, "is_disabled": 0, "is_reserved": 0}, {"bike_id": "e7cbe2d6f1145b769b72a3a10eb713b3", "type": "electric_scooter", "fusion_lat": 0.0, "lat": 38.92362166666667, "lon": -77.072295, "fusion_lon": 0.0, "name": "e7cbe2d6f1145b769b72a3a10eb713b3", "rental_uris": {"ios": "https://dc.lft.to/lastmile_qr_scan", "android": "https://dc.lft.to/lastmile_qr_scan"}, "is_disabled": 0, "is_reserved": 0}, {"bike_id": "d42a789bceef5f68e39d32b2e0890f37", "type": "electric_scooter", "fusion_lat": 0.0, "lat": 38.9081725, "lon": -77.035865, "fusion_lon": 0.0, "name": "d42a789bceef5f68e39d32b2e0890f37", "rental_uris": {"ios": "https://dc.lft.to/lastmile_qr_scan", "android": "https://dc.lft.to/lastmile_qr_scan"}, "is_disabled": 0, "is_reserved": 0}, {"bike_id": "3446d6251c942ecf1551695b9e572192", "type": "electric_scooter", "fusion_lat": 0.0, "lat": 38.90459366666666, "lon": -77.04862, "fusion_lon": 0.0, "name": "3446d6251c942ecf1551695b9e572192", "rental_uris": {"ios": "https://dc.lft.to/lastmile_qr_scan", "android": "https://dc.lft.to/lastmile_qr_scan"}, "is_disabled": 0, "is_reserved": 0}, {"bike_id": "6fc250166067f6825ae50243aa4eae75", "type": "electric_scooter", "fusion_lat": 0.0, "lat": 38.967278, "lon": -77.02526216666666, "fusion_lon": 0.0, "name": "6fc250166067f6825ae50243aa4eae75", "rental_uris": {"ios": "https://dc.lft.to/lastmile_qr_scan", "android": "https://dc.lft.to/lastmile_qr_scan"}, "is_disabled": 0, "is_reserved": 0}, {"bike_id": "397d303ae55214198740dd3de007eafd", "type": "electric_scooter", "fusion_lat": 0.0, "lat": 38.90574, "lon": -77.00598416666666, "fusion_lon": 0.0, "name": "397d303ae55214198740dd3de007eafd", "rental_uris": {"ios": "https://dc.lft.to/lastmile_qr_scan", "android": "https://dc.lft.to/lastmile_qr_scan"}, "is_disabled": 0, "is_reserved": 0}, {"bike_id": "7bb50c7b020ff653e3af9879d7c4c2a4", "type": "electric_scooter", "fusion_lat": 0.0, "lat": 38.92914733333333, "lon": -77.03474616666666, "fusion_lon": 0.0, "name": "7bb50c7b020ff653e3af9879d7c4c2a4", "rental_uris": {"ios": "https://dc.lft.to/lastmile_qr_scan", "android": "https://dc.lft.to/lastmile_qr_scan"}, "is_disabled": 0, "is_reserved": 0}, {"bike_id": "f52448dc029bd72efb39d55e4af1f4da", "type": "electric_scooter", "fusion_lat": 0.0, "lat": 38.89975533333333, "lon": -76.99146416666666, "fusion_lon": 0.0, "name": "f52448dc029bd72efb39d55e4af1f4da", "rental_uris": {"ios": "https://dc.lft.to/lastmile_qr_scan", "android": "https://dc.lft.to/lastmile_qr_scan"}, "is_disabled": 0, "is_reserved": 0}, {"bike_id": "708401e730032ec8d7c45dc8c618aa3c", "type": "electric_scooter", "fusion_lat": 0.0, "lat": 38.90587133333333, "lon": -76.98543566666666, "fusion_lon": 0.0, "name": "708401e730032ec8d7c45dc8c618aa3c", "rental_uris": {"ios": "https://dc.lft.to/lastmile_qr_scan", "android": "https://dc.lft.to/lastmile_qr_scan"}, "is_disabled": 0, "is_reserved": 0}, {"bike_id": "26a90008db71608e554fbd4521661915", "type": "electric_scooter", "fusion_lat": 0.0, "lat": 38.94929833333333, "lon": -77.01850733333333, "fusion_lon": 0.0, "name": "26a90008db71608e554fbd4521661915", "rental_uris": {"ios": "https://dc.lft.to/lastmile_qr_scan", "android": "https://dc.lft.to/lastmile_qr_scan"}, "is_disabled": 0, "is_reserved": 0}, {"bike_id": "846fd3abcb5239b89ecc6ca6ef2dbb10", "type": "electric_scooter", "fusion_lat": 0.0, "lat": 38.920884666666666, "lon": -77.02532766666667, "fusion_lon": 0.0, "name": "846fd3abcb5239b89ecc6ca6ef2dbb10", "rental_uris": {"ios": "https://dc.lft.to/lastmile_qr_scan", "android": "https://dc.lft.to/lastmile_qr_scan"}, "is_disabled": 0, "is_reserved": 0}, {"bike_id": "fb742d4ac7465fb26da4e69d880a42e1", "type": "electric_scooter", "fusion_lat": 0.0, "lat": 38.9214635, "lon": -77.01796283333333, "fusion_lon": 0.0, "name": "fb742d4ac7465fb26da4e69d880a42e1", "rental_uris": {"ios": "https://dc.lft.to/lastmile_qr_scan", "android": "https://dc.lft.to/lastmile_qr_scan"}, "is_disabled": 0, "is_reserved": 0}, {"bike_id": "032ab958f9839fc4e694abd02aa7e863", "type": "electric_scooter", "fusion_lat": 0.0, "lat": 38.92899383333334, "lon": -77.05457783333334, "fusion_lon": 0.0, "name": "032ab958f9839fc4e694abd02aa7e863", "rental_uris": {"ios": "https://dc.lft.to/lastmile_qr_scan", "android": "https://dc.lft.to/lastmile_qr_scan"}, "is_disabled": 0, "is_reserved": 0}, {"bike_id": "77377e6e38785b29ae4ea0c247d54211", "type": "electric_scooter", "fusion_lat": 0.0, "lat": 38.905643, "lon": -77.04256616666666, "fusion_lon": 0.0, "name": "77377e6e38785b29ae4ea0c247d54211", "rental_uris": {"ios": "https://dc.lft.to/lastmile_qr_scan", "android": "https://dc.lft.to/lastmile_qr_scan"}, "is_disabled": 0, "is_reserved": 0}, {"bike_id": "15f814e32965d0a78a7377df1741fb71", "type": "electric_scooter", "fusion_lat": 0.0, "lat": 38.902726666666666, "lon": -77.03836633333333, "fusion_lon": 0.0, "name": "15f814e32965d0a78a7377df1741fb71", "rental_uris": {"ios": "https://dc.lft.to/lastmile_qr_scan", "android": "https://dc.lft.to/lastmile_qr_scan"}, "is_disabled": 0, "is_reserved": 0}, {"bike_id": "1d94c3c7997b610e39c00928789713ed", "type": "electric_scooter", "fusion_lat": 0.0, "lat": 38.892104, "lon": -77.00293966666666, "fusion_lon": 0.0, "name": "1d94c3c7997b610e39c00928789713ed", "rental_uris": {"ios": "https://dc.lft.to/lastmile_qr_scan", "android": "https://dc.lft.to/lastmile_qr_scan"}, "is_disabled": 0, "is_reserved": 0}, {"bike_id": "11e7ebf269d07d7589413eafb90437d8", "type": "electric_scooter", "fusion_lat": 0.0, "lat": 38.89409116666667, "lon": -77.0221235, "fusion_lon": 0.0, "name": "11e7ebf269d07d7589413eafb90437d8", "rental_uris": {"ios": "https://dc.lft.to/lastmile_qr_scan", "android": "https://dc.lft.to/lastmile_qr_scan"}, "is_disabled": 0, "is_reserved": 0}, {"bike_id": "f516424ecc6feaaad204e102e8e55aa6", "type": "electric_scooter", "fusion_lat": 0.0, "lat": 38.924536833333335, "lon": -77.0203385, "fusion_lon": 0.0, "name": "f516424ecc6feaaad204e102e8e55aa6", "rental_uris": {"ios": "https://dc.lft.to/lastmile_qr_scan", "android": "https://dc.lft.to/lastmile_qr_scan"}, "is_disabled": 0, "is_reserved": 0}, {"bike_id": "b9fd2fdec22a2e68d3e2e54fcd6be060", "type": "electric_scooter", "fusion_lat": 0.0, "lat": 38.910328166666666, "lon": -77.03430816666666, "fusion_lon": 0.0, "name": "b9fd2fdec22a2e68d3e2e54fcd6be060", "rental_uris": {"ios": "https://dc.lft.to/lastmile_qr_scan", "android": "https://dc.lft.to/lastmile_qr_scan"}, "is_disabled": 0, "is_reserved": 0}, {"bike_id": "a01e4e7bc28f44e2c684cd4c8518ea71", "type": "electric_scooter", "fusion_lat": 0.0, "lat": 38.91341, "lon": -77.009245, "fusion_lon": 0.0, "name": "a01e4e7bc28f44e2c684cd4c8518ea71", "rental_uris": {"ios": "https://dc.lft.to/lastmile_qr_scan", "android": "https://dc.lft.to/lastmile_qr_scan"}, "is_disabled": 0, "is_reserved": 0}, {"bike_id": "4865c917e8ebe8647aee49f245bf749b", "type": "electric_bike", "fusion_lat": 0.0, "lat": 38.873262, "lon": -77.1140905, "fusion_lon": 0.0, "name": "4865c917e8ebe8647aee49f245bf749b", "rental_uris": {"ios": "https://dc.lft.to/lastmile_qr_scan", "android": "https://dc.lft.to/lastmile_qr_scan"}, "is_disabled": 0, "is_reserved": 0}, {"bike_id": "b235e591d3e4f9e943cf4006bd473124", "type": "electric_scooter", "fusion_lat": 0.0, "lat": 38.89805583333333, "lon": -77.0488155, "fusion_lon": 0.0, "name": "b235e591d3e4f9e943cf4006bd473124", "rental_uris": {"ios": "https://dc.lft.to/lastmile_qr_scan", "android": "https://dc.lft.to/lastmile_qr_scan"}, "is_disabled": 0, "is_reserved": 0}, {"bike_id": "b787a5c833a96b70bab3420aa74cfe9b", "type": "electric_scooter", "fusion_lat": 0.0, "lat": 38.9358585, "lon": -77.05838866666667, "fusion_lon": 0.0, "name": "b787a5c833a96b70bab3420aa74cfe9b", "rental_uris": {"ios": "https://dc.lft.to/lastmile_qr_scan", "android": "https://dc.lft.to/lastmile_qr_scan"}, "is_disabled": 0, "is_reserved": 0}, {"bike_id": "648bb334f27c7d61b96bc9357eda41ab", "type": "electric_scooter", "fusion_lat": 0.0, "lat": 38.89738066666666, "lon": -77.0417415, "fusion_lon": 0.0, "name": "648bb334f27c7d61b96bc9357eda41ab", "rental_uris": {"ios": "https://dc.lft.to/lastmile_qr_scan", "android": "https://dc.lft.to/lastmile_qr_scan"}, "is_disabled": 0, "is_reserved": 0}, {"bike_id": "8678cf36bb4d161dd9488c3b094884f6", "type": "electric_scooter", "fusion_lat": 0.0, "lat": 38.89347, "lon": -77.0019645, "fusion_lon": 0.0, "name": "8678cf36bb4d161dd9488c3b094884f6", "rental_uris": {"ios": "https://dc.lft.to/lastmile_qr_scan", "android": "https://dc.lft.to/lastmile_qr_scan"}, "is_disabled": 0, "is_reserved": 0}, {"bike_id": "6ea914778ffd0a6df26a9c1ad4913ded", "type": "electric_bike", "fusion_lat": 0.0, "lat": 39.001871, "lon": -76.90181766666667, "fusion_lon": 0.0, "name": "6ea914778ffd0a6df26a9c1ad4913ded", "rental_uris": {"ios": "https://dc.lft.to/lastmile_qr_scan", "android": "https://dc.lft.to/lastmile_qr_scan"}, "is_disabled": 0, "is_reserved": 0}, {"bike_id": "43a6f1583468043b9fe2f010830b2276", "type": "electric_scooter", "fusion_lat": 0.0, "lat": 38.893569166666666, "lon": -77.0033435, "fusion_lon": 0.0, "name": "43a6f1583468043b9fe2f010830b2276", "rental_uris": {"ios": "https://dc.lft.to/lastmile_qr_scan", "android": "https://dc.lft.to/lastmile_qr_scan"}, "is_disabled": 0, "is_reserved": 0}, {"bike_id": "0fd4c4554bd209077512fc703e764216", "type": "electric_scooter", "fusion_lat": 0.0, "lat": 38.91753, "lon": -77.04154533333333, "fusion_lon": 0.0, "name": "0fd4c4554bd209077512fc703e764216", "rental_uris": {"ios": "https://dc.lft.to/lastmile_qr_scan", "android": "https://dc.lft.to/lastmile_qr_scan"}, "is_disabled": 0, "is_reserved": 0}, {"bike_id": "dd85199365caff535f4879a48caf4c5b", "type": "electric_scooter", "fusion_lat": 0.0, "lat": 38.899114, "lon": -76.93391466666667, "fusion_lon": 0.0, "name": "dd85199365caff535f4879a48caf4c5b", "rental_uris": {"ios": "https://dc.lft.to/lastmile_qr_scan", "android": "https://dc.lft.to/lastmile_qr_scan"}, "is_disabled": 0, "is_reserved": 0}, {"bike_id": "e1f55d5cfff3c84733bf6b1cda0d9324", "type": "electric_scooter", "fusion_lat": 0.0, "lat": 38.92326383333333, "lon": -77.0432795, "fusion_lon": 0.0, "name": "e1f55d5cfff3c84733bf6b1cda0d9324", "rental_uris": {"ios": "https://dc.lft.to/lastmile_qr_scan", "android": "https://dc.lft.to/lastmile_qr_scan"}, "is_disabled": 0, "is_reserved": 0}, {"bike_id": "252171a8a153156bbae5e67fe8049087", "type": "electric_scooter", "fusion_lat": 0.0, "lat": 38.91935933333333, "lon": -77.03183066666666, "fusion_lon": 0.0, "name": "252171a8a153156bbae5e67fe8049087", "rental_uris": {"ios": "https://dc.lft.to/lastmile_qr_scan", "android": "https://dc.lft.to/lastmile_qr_scan"}, "is_disabled": 0, "is_reserved": 0}, {"bike_id": "e0d60f0e828f78a05cdb452a08e7a0d0", "type": "electric_scooter", "fusion_lat": 0.0, "lat": 38.873951166666664, "lon": -77.00015183333333, "fusion_lon": 0.0, "name": "e0d60f0e828f78a05cdb452a08e7a0d0", "rental_uris": {"ios": "https://dc.lft.to/lastmile_qr_scan", "android": "https://dc.lft.to/lastmile_qr_scan"}, "is_disabled": 0, "is_reserved": 0}, {"bike_id": "d06fe086da43cb8bef4be7d8dcfb6b77", "type": "electric_scooter", "fusion_lat": 0.0, "lat": 38.892235166666666, "lon": -77.02760083333334, "fusion_lon": 0.0, "name": "d06fe086da43cb8bef4be7d8dcfb6b77", "rental_uris": {"ios": "https://dc.lft.to/lastmile_qr_scan", "android": "https://dc.lft.to/lastmile_qr_scan"}, "is_disabled": 0, "is_reserved": 0}, {"bike_id": "6a4d04191b2e8038b0832afc7650b93c", "type": "electric_scooter", "fusion_lat": 0.0, "lat": 38.87144116666666, "lon": -76.97733183333334, "fusion_lon": 0.0, "name": "6a4d04191b2e8038b0832afc7650b93c", "rental_uris": {"ios": "https://dc.lft.to/lastmile_qr_scan", "android": "https://dc.lft.to/lastmile_qr_scan"}, "is_disabled": 0, "is_reserved": 0}, {"bike_id": "ef33d77022267b1402accf98b7f34677", "type": "electric_scooter", "fusion_lat": 0.0, "lat": 38.90436566666666, "lon": -77.043568, "fusion_lon": 0.0, "name": "ef33d77022267b1402accf98b7f34677", "rental_uris": {"ios": "https://dc.lft.to/lastmile_qr_scan", "android": "https://dc.lft.to/lastmile_qr_scan"}, "is_disabled": 0, "is_reserved": 0}, {"bike_id": "4f5ae9df6b5e0266467cd4a4560e7f13", "type": "electric_scooter", "fusion_lat": 0.0, "lat": 38.926064, "lon": -77.02158216666666, "fusion_lon": 0.0, "name": "4f5ae9df6b5e0266467cd4a4560e7f13", "rental_uris": {"ios": "https://dc.lft.to/lastmile_qr_scan", "android": "https://dc.lft.to/lastmile_qr_scan"}, "is_disabled": 0, "is_reserved": 0}, {"bike_id": "662f6fe963e9893055c6001c37f80cc8", "type": "electric_scooter", "fusion_lat": 0.0, "lat": 38.880513666666666, "lon": -76.93219883333333, "fusion_lon": 0.0, "name": "662f6fe963e9893055c6001c37f80cc8", "rental_uris": {"ios": "https://dc.lft.to/lastmile_qr_scan", "android": "https://dc.lft.to/lastmile_qr_scan"}, "is_disabled": 0, "is_reserved": 0}, {"bike_id": "227c3fc296b2b4de391447661bec78c3", "type": "electric_scooter", "fusion_lat": 0.0, "lat": 38.92718033333333, "lon": -77.0600335, "fusion_lon": 0.0, "name": "227c3fc296b2b4de391447661bec78c3", "rental_uris": {"ios": "https://dc.lft.to/lastmile_qr_scan", "android": "https://dc.lft.to/lastmile_qr_scan"}, "is_disabled": 0, "is_reserved": 0}, {"bike_id": "28887a193ce8571b1ab893d2ed087003", "type": "electric_scooter", "fusion_lat": 0.0, "lat": 38.900127166666664, "lon": -77.02586866666667, "fusion_lon": 0.0, "name": "28887a193ce8571b1ab893d2ed087003", "rental_uris": {"ios": "https://dc.lft.to/lastmile_qr_scan", "android": "https://dc.lft.to/lastmile_qr_scan"}, "is_disabled": 0, "is_reserved": 0}, {"bike_id": "753797a9ff6796880836cf8eb64051f4", "type": "electric_scooter", "fusion_lat": 0.0, "lat": 38.896414666666665, "lon": -77.02668216666666, "fusion_lon": 0.0, "name": "753797a9ff6796880836cf8eb64051f4", "rental_uris": {"ios": "https://dc.lft.to/lastmile_qr_scan", "android": "https://dc.lft.to/lastmile_qr_scan"}, "is_disabled": 0, "is_reserved": 0}, {"bike_id": "bffd7b75a3305115b83cf037453395ce", "type": "electric_scooter", "fusion_lat": 0.0, "lat": 38.89906516666667, "lon": -77.03183933333334, "fusion_lon": 0.0, "name": "bffd7b75a3305115b83cf037453395ce", "rental_uris": {"ios": "https://dc.lft.to/lastmile_qr_scan", "android": "https://dc.lft.to/lastmile_qr_scan"}, "is_disabled": 0, "is_reserved": 0}, {"bike_id": "fa16d1632985c213bece6599f60be23c", "type": "electric_scooter", "fusion_lat": 0.0, "lat": 38.9213995, "lon": -77.02414116666667, "fusion_lon": 0.0, "name": "fa16d1632985c213bece6599f60be23c", "rental_uris": {"ios": "https://dc.lft.to/lastmile_qr_scan", "android": "https://dc.lft.to/lastmile_qr_scan"}, "is_disabled": 0, "is_reserved": 0}, {"bike_id": "68b16d80ad6c1a65f284665e0b4afc56", "type": "electric_scooter", "fusion_lat": 0.0, "lat": 38.908918666666665, "lon": -76.9823355, "fusion_lon": 0.0, "name": "68b16d80ad6c1a65f284665e0b4afc56", "rental_uris": {"ios": "https://dc.lft.to/lastmile_qr_scan", "android": "https://dc.lft.to/lastmile_qr_scan"}, "is_disabled": 0, "is_reserved": 0}, {"bike_id": "2dd622236621f59f50d0b036b1c15659", "type": "electric_scooter", "fusion_lat": 0.0, "lat": 38.91100766666667, "lon": -77.0021355, "fusion_lon": 0.0, "name": "2dd622236621f59f50d0b036b1c15659", "rental_uris": {"ios": "https://dc.lft.to/lastmile_qr_scan", "android": "https://dc.lft.to/lastmile_qr_scan"}, "is_disabled": 0, "is_reserved": 0}, {"bike_id": "b1eb14bce1e31c786166783bb58c9a28", "type": "electric_scooter", "fusion_lat": 0.0, "lat": 38.96627866666667, "lon": -77.0199565, "fusion_lon": 0.0, "name": "b1eb14bce1e31c786166783bb58c9a28", "rental_uris": {"ios": "https://dc.lft.to/lastmile_qr_scan", "android": "https://dc.lft.to/lastmile_qr_scan"}, "is_disabled": 0, "is_reserved": 0}, {"bike_id": "53c4d7c95015967ed42cf33f4e8a4d79", "type": "electric_scooter", "fusion_lat": 0.0, "lat": 38.9011545, "lon": -77.0337845, "fusion_lon": 0.0, "name": "53c4d7c95015967ed42cf33f4e8a4d79", "rental_uris": {"ios": "https://dc.lft.to/lastmile_qr_scan", "android": "https://dc.lft.to/lastmile_qr_scan"}, "is_disabled": 0, "is_reserved": 0}, {"bike_id": "4fb38a448a9c986a5b6b5552fbc17091", "type": "electric_scooter", "fusion_lat": 0.0, "lat": 38.899279666666665, "lon": -76.94578616666666, "fusion_lon": 0.0, "name": "4fb38a448a9c986a5b6b5552fbc17091", "rental_uris": {"ios": "https://dc.lft.to/lastmile_qr_scan", "android": "https://dc.lft.to/lastmile_qr_scan"}, "is_disabled": 0, "is_reserved": 0}, {"bike_id": "891d12da35d21f6a8a2a1b2cee27d2e9", "type": "electric_scooter", "fusion_lat": 0.0, "lat": 38.91528316666667, "lon": -77.04444216666667, "fusion_lon": 0.0, "name": "891d12da35d21f6a8a2a1b2cee27d2e9", "rental_uris": {"ios": "https://dc.lft.to/lastmile_qr_scan", "android": "https://dc.lft.to/lastmile_qr_scan"}, "is_disabled": 0, "is_reserved": 0}, {"bike_id": "441045d98b9ab2753465f8f41457a121", "type": "electric_bike", "fusion_lat": 0.0, "lat": 38.920615833333336, "lon": -76.970735, "fusion_lon": 0.0, "name": "441045d98b9ab2753465f8f41457a121", "rental_uris": {"ios": "https://dc.lft.to/lastmile_qr_scan", "android": "https://dc.lft.to/lastmile_qr_scan"}, "is_disabled": 0, "is_reserved": 0}, {"bike_id": "4089eb4c9681b796a35ec889582627a8", "type": "electric_scooter", "fusion_lat": 0.0, "lat": 38.9233975, "lon": -77.041368, "fusion_lon": 0.0, "name": "4089eb4c9681b796a35ec889582627a8", "rental_uris": {"ios": "https://dc.lft.to/lastmile_qr_scan", "android": "https://dc.lft.to/lastmile_qr_scan"}, "is_disabled": 0, "is_reserved": 0}, {"bike_id": "65e6e7382823816f59636f17013fb861", "type": "electric_bike", "fusion_lat": 0.0, "lat": 39.0262205, "lon": -77.0387835, "fusion_lon": 0.0, "name": "65e6e7382823816f59636f17013fb861", "rental_uris": {"ios": "https://dc.lft.to/lastmile_qr_scan", "android": "https://dc.lft.to/lastmile_qr_scan"}, "is_disabled": 0, "is_reserved": 0}, {"bike_id": "0164698cf62661b0512f52bbaf1a9813", "type": "electric_scooter", "fusion_lat": 0.0, "lat": 38.919599166666664, "lon": -77.0414555, "fusion_lon": 0.0, "name": "0164698cf62661b0512f52bbaf1a9813", "rental_uris": {"ios": "https://dc.lft.to/lastmile_qr_scan", "android": "https://dc.lft.to/lastmile_qr_scan"}, "is_disabled": 0, "is_reserved": 0}, {"bike_id": "5b8f61a178f735fb6f2b36a4c6fdff80", "type": "electric_scooter", "fusion_lat": 0.0, "lat": 38.8922145, "lon": -77.02406966666666, "fusion_lon": 0.0, "name": "5b8f61a178f735fb6f2b36a4c6fdff80", "rental_uris": {"ios": "https://dc.lft.to/lastmile_qr_scan", "android": "https://dc.lft.to/lastmile_qr_scan"}, "is_disabled": 0, "is_reserved": 0}, {"bike_id": "ef18cc18fdb8d64489a15a47160457e2", "type": "electric_bike", "fusion_lat": 0.0, "lat": 38.94303133333333, "lon": -76.99889533333334, "fusion_lon": 0.0, "name": "ef18cc18fdb8d64489a15a47160457e2", "rental_uris": {"ios": "https://dc.lft.to/lastmile_qr_scan", "android": "https://dc.lft.to/lastmile_qr_scan"}, "is_disabled": 0, "is_reserved": 0}, {"bike_id": "046f500bb651b96356c40d6ae2e9a6d3", "type": "electric_bike", "fusion_lat": 0.0, "lat": 38.955383166666664, "lon": -76.9566945, "fusion_lon": 0.0, "name": "046f500bb651b96356c40d6ae2e9a6d3", "rental_uris": {"ios": "https://dc.lft.to/lastmile_qr_scan", "android": "https://dc.lft.to/lastmile_qr_scan"}, "is_disabled": 0, "is_reserved": 0}, {"bike_id": "fd0c8261db39d94496b5317b8c206b17", "type": "electric_scooter", "fusion_lat": 0.0, "lat": 38.901518833333334, "lon": -77.04975566666667, "fusion_lon": 0.0, "name": "fd0c8261db39d94496b5317b8c206b17", "rental_uris": {"ios": "https://dc.lft.to/lastmile_qr_scan", "android": "https://dc.lft.to/lastmile_qr_scan"}, "is_disabled": 0, "is_reserved": 0}, {"bike_id": "d9f2f90951d0b846500ed2c99f54a395", "type": "electric_scooter", "fusion_lat": 0.0, "lat": 38.892001, "lon": -77.02375433333333, "fusion_lon": 0.0, "name": "d9f2f90951d0b846500ed2c99f54a395", "rental_uris": {"ios": "https://dc.lft.to/lastmile_qr_scan", "android": "https://dc.lft.to/lastmile_qr_scan"}, "is_disabled": 0, "is_reserved": 0}, {"bike_id": "c76107e44236970b2b836ed95485602b", "type": "electric_scooter", "fusion_lat": 0.0, "lat": 38.91964316666667, "lon": -77.03851083333333, "fusion_lon": 0.0, "name": "c76107e44236970b2b836ed95485602b", "rental_uris": {"ios": "https://dc.lft.to/lastmile_qr_scan", "android": "https://dc.lft.to/lastmile_qr_scan"}, "is_disabled": 0, "is_reserved": 0}, {"bike_id": "2c060209cd2570a769066988295b15ea", "type": "electric_bike", "fusion_lat": 0.0, "lat": 38.9090255, "lon": -77.089964, "fusion_lon": 0.0, "name": "2c060209cd2570a769066988295b15ea", "rental_uris": {"ios": "https://dc.lft.to/lastmile_qr_scan", "android": "https://dc.lft.to/lastmile_qr_scan"}, "is_disabled": 0, "is_reserved": 0}, {"bike_id": "bf9c41b17c8bacd7077b47a9b89fbaa8", "type": "electric_scooter", "fusion_lat": 0.0, "lat": 38.9024735, "lon": -77.03473683333333, "fusion_lon": 0.0, "name": "bf9c41b17c8bacd7077b47a9b89fbaa8", "rental_uris": {"ios": "https://dc.lft.to/lastmile_qr_scan", "android": "https://dc.lft.to/lastmile_qr_scan"}, "is_disabled": 0, "is_reserved": 0}, {"bike_id": "f232557a650933412da896d8fa7ac78a", "type": "electric_scooter", "fusion_lat": 0.0, "lat": 38.898711666666664, "lon": -76.946657, "fusion_lon": 0.0, "name": "f232557a650933412da896d8fa7ac78a", "rental_uris": {"ios": "https://dc.lft.to/lastmile_qr_scan", "android": "https://dc.lft.to/lastmile_qr_scan"}, "is_disabled": 0, "is_reserved": 0}, {"bike_id": "0d23988ab55d5e226149a1f33feb1fa3", "type": "electric_scooter", "fusion_lat": 0.0, "lat": 38.956539, "lon": -77.03290283333334, "fusion_lon": 0.0, "name": "0d23988ab55d5e226149a1f33feb1fa3", "rental_uris": {"ios": "https://dc.lft.to/lastmile_qr_scan", "android": "https://dc.lft.to/lastmile_qr_scan"}, "is_disabled": 0, "is_reserved": 0}, {"bike_id": "15191385a92010560a7c3c59ec347e6a", "type": "electric_scooter", "fusion_lat": 0.0, "lat": 38.920243, "lon": -77.07126933333333, "fusion_lon": 0.0, "name": "15191385a92010560a7c3c59ec347e6a", "rental_uris": {"ios": "https://dc.lft.to/lastmile_qr_scan", "android": "https://dc.lft.to/lastmile_qr_scan"}, "is_disabled": 0, "is_reserved": 0}, {"bike_id": "51cf100f62a1cffc9e3e4bdd37779937", "type": "electric_scooter", "fusion_lat": 0.0, "lat": 38.9111325, "lon": -77.05029516666667, "fusion_lon": 0.0, "name": "51cf100f62a1cffc9e3e4bdd37779937", "rental_uris": {"ios": "https://dc.lft.to/lastmile_qr_scan", "android": "https://dc.lft.to/lastmile_qr_scan"}, "is_disabled": 0, "is_reserved": 0}, {"bike_id": "0d4fadda84e0c4baf682398f45cbe404", "type": "electric_scooter", "fusion_lat": 0.0, "lat": 38.91379583333333, "lon": -77.06658633333333, "fusion_lon": 0.0, "name": "0d4fadda84e0c4baf682398f45cbe404", "rental_uris": {"ios": "https://dc.lft.to/lastmile_qr_scan", "android": "https://dc.lft.to/lastmile_qr_scan"}, "is_disabled": 0, "is_reserved": 0}, {"bike_id": "b70ac13562ac166c6d3d55b90c90e097", "type": "electric_scooter", "fusion_lat": 0.0, "lat": 38.93519, "lon": -77.08703466666667, "fusion_lon": 0.0, "name": "b70ac13562ac166c6d3d55b90c90e097", "rental_uris": {"ios": "https://dc.lft.to/lastmile_qr_scan", "android": "https://dc.lft.to/lastmile_qr_scan"}, "is_disabled": 0, "is_reserved": 0}, {"bike_id": "ca50f812c798589e0e6371c829b57932", "type": "electric_scooter", "fusion_lat": 0.0, "lat": 38.90570916666667, "lon": -77.03444083333333, "fusion_lon": 0.0, "name": "ca50f812c798589e0e6371c829b57932", "rental_uris": {"ios": "https://dc.lft.to/lastmile_qr_scan", "android": "https://dc.lft.to/lastmile_qr_scan"}, "is_disabled": 0, "is_reserved": 0}, {"bike_id": "b0854622672abf25f993e47d00c6f941", "type": "electric_scooter", "fusion_lat": 0.0, "lat": 38.90348933333333, "lon": -76.92941816666666, "fusion_lon": 0.0, "name": "b0854622672abf25f993e47d00c6f941", "rental_uris": {"ios": "https://dc.lft.to/lastmile_qr_scan", "android": "https://dc.lft.to/lastmile_qr_scan"}, "is_disabled": 0, "is_reserved": 0}, {"bike_id": "0451308719a5dde6aad8632566a63e8b", "type": "electric_scooter", "fusion_lat": 0.0, "lat": 38.9025255, "lon": -77.0191495, "fusion_lon": 0.0, "name": "0451308719a5dde6aad8632566a63e8b", "rental_uris": {"ios": "https://dc.lft.to/lastmile_qr_scan", "android": "https://dc.lft.to/lastmile_qr_scan"}, "is_disabled": 0, "is_reserved": 0}, {"bike_id": "84b7d7bc73bed13a4950d20c697ed4ef", "type": "electric_scooter", "fusion_lat": 0.0, "lat": 38.904917, "lon": -77.04153966666667, "fusion_lon": 0.0, "name": "84b7d7bc73bed13a4950d20c697ed4ef", "rental_uris": {"ios": "https://dc.lft.to/lastmile_qr_scan", "android": "https://dc.lft.to/lastmile_qr_scan"}, "is_disabled": 0, "is_reserved": 0}, {"bike_id": "b5cd3779bd7c8bd16e9a6b04badf2df2", "type": "electric_scooter", "fusion_lat": 0.0, "lat": 38.904049666666666, "lon": -77.0435145, "fusion_lon": 0.0, "name": "b5cd3779bd7c8bd16e9a6b04badf2df2", "rental_uris": {"ios": "https://dc.lft.to/lastmile_qr_scan", "android": "https://dc.lft.to/lastmile_qr_scan"}, "is_disabled": 0, "is_reserved": 0}, {"bike_id": "2deb9a82ba2d5e7624e8ca182008c0a9", "type": "electric_bike", "fusion_lat": 0.0, "lat": 39.0000105, "lon": -76.91804283333333, "fusion_lon": 0.0, "name": "2deb9a82ba2d5e7624e8ca182008c0a9", "rental_uris": {"ios": "https://dc.lft.to/lastmile_qr_scan", "android": "https://dc.lft.to/lastmile_qr_scan"}, "is_disabled": 0, "is_reserved": 0}, {"bike_id": "91b0c555eb200d36b4d3d7c57f6458df", "type": "electric_scooter", "fusion_lat": 0.0, "lat": 38.93113133333333, "lon": -77.02095533333333, "fusion_lon": 0.0, "name": "91b0c555eb200d36b4d3d7c57f6458df", "rental_uris": {"ios": "https://dc.lft.to/lastmile_qr_scan", "android": "https://dc.lft.to/lastmile_qr_scan"}, "is_disabled": 0, "is_reserved": 0}, {"bike_id": "ce47ce26962bd5c31d22f0f853d2e483", "type": "electric_scooter", "fusion_lat": 0.0, "lat": 38.895088333333334, "lon": -77.00888933333333, "fusion_lon": 0.0, "name": "ce47ce26962bd5c31d22f0f853d2e483", "rental_uris": {"ios": "https://dc.lft.to/lastmile_qr_scan", "android": "https://dc.lft.to/lastmile_qr_scan"}, "is_disabled": 0, "is_reserved": 0}, {"bike_id": "3c6a8fed0cbe4b471eed2c3a8ef5669b", "type": "electric_scooter", "fusion_lat": 0.0, "lat": 38.880841, "lon": -76.99502833333334, "fusion_lon": 0.0, "name": "3c6a8fed0cbe4b471eed2c3a8ef5669b", "rental_uris": {"ios": "https://dc.lft.to/lastmile_qr_scan", "android": "https://dc.lft.to/lastmile_qr_scan"}, "is_disabled": 0, "is_reserved": 0}, {"bike_id": "0004b8879fcdc32ba6b1254e15f7dc32", "type": "electric_scooter", "fusion_lat": 0.0, "lat": 38.908699666666664, "lon": -77.071397, "fusion_lon": 0.0, "name": "0004b8879fcdc32ba6b1254e15f7dc32", "rental_uris": {"ios": "https://dc.lft.to/lastmile_qr_scan", "android": "https://dc.lft.to/lastmile_qr_scan"}, "is_disabled": 0, "is_reserved": 0}, {"bike_id": "1ca92d956de0a988201eee65a03e5303", "type": "electric_scooter", "fusion_lat": 0.0, "lat": 38.934238, "lon": -77.04002166666666, "fusion_lon": 0.0, "name": "1ca92d956de0a988201eee65a03e5303", "rental_uris": {"ios": "https://dc.lft.to/lastmile_qr_scan", "android": "https://dc.lft.to/lastmile_qr_scan"}, "is_disabled": 0, "is_reserved": 0}, {"bike_id": "3d938e89e712a43a27214cce4976b7ec", "type": "electric_scooter", "fusion_lat": 0.0, "lat": 38.908458833333334, "lon": -77.05487216666667, "fusion_lon": 0.0, "name": "3d938e89e712a43a27214cce4976b7ec", "rental_uris": {"ios": "https://dc.lft.to/lastmile_qr_scan", "android": "https://dc.lft.to/lastmile_qr_scan"}, "is_disabled": 0, "is_reserved": 0}, {"bike_id": "9d0c39ea32e0ded8aa23dfb2a050505c", "type": "electric_bike", "fusion_lat": 0.0, "lat": 38.990941666666664, "lon": -76.993682, "fusion_lon": 0.0, "name": "9d0c39ea32e0ded8aa23dfb2a050505c", "rental_uris": {"ios": "https://dc.lft.to/lastmile_qr_scan", "android": "https://dc.lft.to/lastmile_qr_scan"}, "is_disabled": 0, "is_reserved": 0}, {"bike_id": "f47347495d055d6c6df8291e46709d05", "type": "electric_scooter", "fusion_lat": 0.0, "lat": 38.8835185, "lon": -76.93629083333333, "fusion_lon": 0.0, "name": "f47347495d055d6c6df8291e46709d05", "rental_uris": {"ios": "https://dc.lft.to/lastmile_qr_scan", "android": "https://dc.lft.to/lastmile_qr_scan"}, "is_disabled": 0, "is_reserved": 0}, {"bike_id": "8fceb2a2745cb3617039e913f4bd68a7", "type": "electric_scooter", "fusion_lat": 0.0, "lat": 38.898157166666664, "lon": -77.03175216666666, "fusion_lon": 0.0, "name": "8fceb2a2745cb3617039e913f4bd68a7", "rental_uris": {"ios": "https://dc.lft.to/lastmile_qr_scan", "android": "https://dc.lft.to/lastmile_qr_scan"}, "is_disabled": 0, "is_reserved": 0}, {"bike_id": "47690252d51cab3a61d89bbc8fd01e6d", "type": "electric_scooter", "fusion_lat": 0.0, "lat": 38.892433833333335, "lon": -77.05021216666667, "fusion_lon": 0.0, "name": "47690252d51cab3a61d89bbc8fd01e6d", "rental_uris": {"ios": "https://dc.lft.to/lastmile_qr_scan", "android": "https://dc.lft.to/lastmile_qr_scan"}, "is_disabled": 0, "is_reserved": 0}, {"bike_id": "9a32cf17b6d629b6ff12d3506efc8c97", "type": "electric_scooter", "fusion_lat": 0.0, "lat": 38.8984245, "lon": -76.94633883333333, "fusion_lon": 0.0, "name": "9a32cf17b6d629b6ff12d3506efc8c97", "rental_uris": {"ios": "https://dc.lft.to/lastmile_qr_scan", "android": "https://dc.lft.to/lastmile_qr_scan"}, "is_disabled": 0, "is_reserved": 0}, {"bike_id": "db18f9d40fb99b72827605b4236920bf", "type": "electric_scooter", "fusion_lat": 0.0, "lat": 38.920444333333336, "lon": -77.0167525, "fusion_lon": 0.0, "name": "db18f9d40fb99b72827605b4236920bf", "rental_uris": {"ios": "https://dc.lft.to/lastmile_qr_scan", "android": "https://dc.lft.to/lastmile_qr_scan"}, "is_disabled": 0, "is_reserved": 0}, {"bike_id": "5f5706f3e88e3837bf9e286687b3a2e6", "type": "electric_scooter", "fusion_lat": 0.0, "lat": 38.906030333333334, "lon": -77.06302233333334, "fusion_lon": 0.0, "name": "5f5706f3e88e3837bf9e286687b3a2e6", "rental_uris": {"ios": "https://dc.lft.to/lastmile_qr_scan", "android": "https://dc.lft.to/lastmile_qr_scan"}, "is_disabled": 0, "is_reserved": 0}, {"bike_id": "707274f17c14f36a83446014c21eab78", "type": "electric_scooter", "fusion_lat": 0.0, "lat": 38.9166185, "lon": -77.027052, "fusion_lon": 0.0, "name": "707274f17c14f36a83446014c21eab78", "rental_uris": {"ios": "https://dc.lft.to/lastmile_qr_scan", "android": "https://dc.lft.to/lastmile_qr_scan"}, "is_disabled": 0, "is_reserved": 0}, {"bike_id": "06a1003ad83379961efc19611d7c9f3c", "type": "electric_scooter", "fusion_lat": 0.0, "lat": 38.89717366666667, "lon": -77.01320066666666, "fusion_lon": 0.0, "name": "06a1003ad83379961efc19611d7c9f3c", "rental_uris": {"ios": "https://dc.lft.to/lastmile_qr_scan", "android": "https://dc.lft.to/lastmile_qr_scan"}, "is_disabled": 0, "is_reserved": 0}, {"bike_id": "57fcb369daa60674d18f8b46e89fecf7", "type": "electric_scooter", "fusion_lat": 0.0, "lat": 38.92088533333333, "lon": -77.02504166666667, "fusion_lon": 0.0, "name": "57fcb369daa60674d18f8b46e89fecf7", "rental_uris": {"ios": "https://dc.lft.to/lastmile_qr_scan", "android": "https://dc.lft.to/lastmile_qr_scan"}, "is_disabled": 0, "is_reserved": 0}, {"bike_id": "8abe0f6e2c9d0cdf21504c417ad95e66", "type": "electric_scooter", "fusion_lat": 0.0, "lat": 38.9100005, "lon": -77.02189216666666, "fusion_lon": 0.0, "name": "8abe0f6e2c9d0cdf21504c417ad95e66", "rental_uris": {"ios": "https://dc.lft.to/lastmile_qr_scan", "android": "https://dc.lft.to/lastmile_qr_scan"}, "is_disabled": 0, "is_reserved": 0}, {"bike_id": "34ef0dbe0f00718a6c8a9309b570c131", "type": "electric_scooter", "fusion_lat": 0.0, "lat": 38.91880033333333, "lon": -77.0431035, "fusion_lon": 0.0, "name": "34ef0dbe0f00718a6c8a9309b570c131", "rental_uris": {"ios": "https://dc.lft.to/lastmile_qr_scan", "android": "https://dc.lft.to/lastmile_qr_scan"}, "is_disabled": 0, "is_reserved": 0}, {"bike_id": "cd792c0fcb1c5c838e95ca60d5a0c4c7", "type": "electric_scooter", "fusion_lat": 0.0, "lat": 38.90152716666667, "lon": -77.040558, "fusion_lon": 0.0, "name": "cd792c0fcb1c5c838e95ca60d5a0c4c7", "rental_uris": {"ios": "https://dc.lft.to/lastmile_qr_scan", "android": "https://dc.lft.to/lastmile_qr_scan"}, "is_disabled": 0, "is_reserved": 0}, {"bike_id": "a94ae4e0e6d73a172f07230189fb8d48", "type": "electric_scooter", "fusion_lat": 0.0, "lat": 38.887332, "lon": -77.01386383333333, "fusion_lon": 0.0, "name": "a94ae4e0e6d73a172f07230189fb8d48", "rental_uris": {"ios": "https://dc.lft.to/lastmile_qr_scan", "android": "https://dc.lft.to/lastmile_qr_scan"}, "is_disabled": 0, "is_reserved": 0}, {"bike_id": "603419323d76d0b3cb2d5bccb9692fa0", "type": "electric_bike", "fusion_lat": 0.0, "lat": 38.865518, "lon": -76.94149866666666, "fusion_lon": 0.0, "name": "603419323d76d0b3cb2d5bccb9692fa0", "rental_uris": {"ios": "https://dc.lft.to/lastmile_qr_scan", "android": "https://dc.lft.to/lastmile_qr_scan"}, "is_disabled": 0, "is_reserved": 0}, {"bike_id": "896a331c3aff18926ee1689383afbfcd", "type": "electric_scooter", "fusion_lat": 0.0, "lat": 38.926087333333335, "lon": -77.021588, "fusion_lon": 0.0, "name": "896a331c3aff18926ee1689383afbfcd", "rental_uris": {"ios": "https://dc.lft.to/lastmile_qr_scan", "android": "https://dc.lft.to/lastmile_qr_scan"}, "is_disabled": 0, "is_reserved": 0}, {"bike_id": "359aa6490f3df49d2e656b90eaf239ab", "type": "electric_bike", "fusion_lat": 0.0, "lat": 38.856443166666665, "lon": -77.08527266666667, "fusion_lon": 0.0, "name": "359aa6490f3df49d2e656b90eaf239ab", "rental_uris": {"ios": "https://dc.lft.to/lastmile_qr_scan", "android": "https://dc.lft.to/lastmile_qr_scan"}, "is_disabled": 0, "is_reserved": 0}, {"bike_id": "032d8b15fdcc31cdfd992f081c921239", "type": "electric_scooter", "fusion_lat": 0.0, "lat": 38.921792833333335, "lon": -77.020484, "fusion_lon": 0.0, "name": "032d8b15fdcc31cdfd992f081c921239", "rental_uris": {"ios": "https://dc.lft.to/lastmile_qr_scan", "android": "https://dc.lft.to/lastmile_qr_scan"}, "is_disabled": 0, "is_reserved": 0}, {"bike_id": "d3dc462a87f44a6b361c0af5d6f3a03e", "type": "electric_scooter", "fusion_lat": 0.0, "lat": 38.9258385, "lon": -77.02260333333334, "fusion_lon": 0.0, "name": "d3dc462a87f44a6b361c0af5d6f3a03e", "rental_uris": {"ios": "https://dc.lft.to/lastmile_qr_scan", "android": "https://dc.lft.to/lastmile_qr_scan"}, "is_disabled": 0, "is_reserved": 0}, {"bike_id": "126edaec4616b0019e75d919c98f7106", "type": "electric_scooter", "fusion_lat": 0.0, "lat": 38.922408, "lon": -77.0366615, "fusion_lon": 0.0, "name": "126edaec4616b0019e75d919c98f7106", "rental_uris": {"ios": "https://dc.lft.to/lastmile_qr_scan", "android": "https://dc.lft.to/lastmile_qr_scan"}, "is_disabled": 0, "is_reserved": 0}, {"bike_id": "c4b0978e71c50f1f0580c43decb05e10", "type": "electric_scooter", "fusion_lat": 0.0, "lat": 38.880332333333335, "lon": -77.02508933333333, "fusion_lon": 0.0, "name": "c4b0978e71c50f1f0580c43decb05e10", "rental_uris": {"ios": "https://dc.lft.to/lastmile_qr_scan", "android": "https://dc.lft.to/lastmile_qr_scan"}, "is_disabled": 0, "is_reserved": 0}, {"bike_id": "3428575b9ecdd577e66d5d3645ce0acf", "type": "electric_scooter", "fusion_lat": 0.0, "lat": 38.93586716666667, "lon": -77.035095, "fusion_lon": 0.0, "name": "3428575b9ecdd577e66d5d3645ce0acf", "rental_uris": {"ios": "https://dc.lft.to/lastmile_qr_scan", "android": "https://dc.lft.to/lastmile_qr_scan"}, "is_disabled": 0, "is_reserved": 0}, {"bike_id": "acb9a63fcda77d186bdd7846f802f059", "type": "electric_scooter", "fusion_lat": 0.0, "lat": 38.924189, "lon": -77.02128283333333, "fusion_lon": 0.0, "name": "acb9a63fcda77d186bdd7846f802f059", "rental_uris": {"ios": "https://dc.lft.to/lastmile_qr_scan", "android": "https://dc.lft.to/lastmile_qr_scan"}, "is_disabled": 0, "is_reserved": 0}, {"bike_id": "680fc28b07715d84d956032b82787327", "type": "electric_scooter", "fusion_lat": 0.0, "lat": 38.9530035, "lon": -77.02767766666666, "fusion_lon": 0.0, "name": "680fc28b07715d84d956032b82787327", "rental_uris": {"ios": "https://dc.lft.to/lastmile_qr_scan", "android": "https://dc.lft.to/lastmile_qr_scan"}, "is_disabled": 0, "is_reserved": 0}, {"bike_id": "44837adfef484b42d3321447fbd1aada", "type": "electric_scooter", "fusion_lat": 0.0, "lat": 38.883566, "lon": -76.957707, "fusion_lon": 0.0, "name": "44837adfef484b42d3321447fbd1aada", "rental_uris": {"ios": "https://dc.lft.to/lastmile_qr_scan", "android": "https://dc.lft.to/lastmile_qr_scan"}, "is_disabled": 0, "is_reserved": 0}, {"bike_id": "fd0abe2c7a013543d4fae9cf6c2e481a", "type": "electric_bike", "fusion_lat": 0.0, "lat": 38.915987666666666, "lon": -77.04171466666666, "fusion_lon": 0.0, "name": "fd0abe2c7a013543d4fae9cf6c2e481a", "rental_uris": {"ios": "https://dc.lft.to/lastmile_qr_scan", "android": "https://dc.lft.to/lastmile_qr_scan"}, "is_disabled": 0, "is_reserved": 0}, {"bike_id": "a9be7080e4452a314f564d7ecf66e7c5", "type": "electric_scooter", "fusion_lat": 0.0, "lat": 38.92357033333333, "lon": -77.02053866666667, "fusion_lon": 0.0, "name": "a9be7080e4452a314f564d7ecf66e7c5", "rental_uris": {"ios": "https://dc.lft.to/lastmile_qr_scan", "android": "https://dc.lft.to/lastmile_qr_scan"}, "is_disabled": 0, "is_reserved": 0}, {"bike_id": "7b43255e338a78b46816da8324acee12", "type": "electric_scooter", "fusion_lat": 0.0, "lat": 38.905982333333334, "lon": -77.07005716666667, "fusion_lon": 0.0, "name": "7b43255e338a78b46816da8324acee12", "rental_uris": {"ios": "https://dc.lft.to/lastmile_qr_scan", "android": "https://dc.lft.to/lastmile_qr_scan"}, "is_disabled": 0, "is_reserved": 0}, {"bike_id": "b012e582b51a586ea0227d53acb3c584", "type": "electric_scooter", "fusion_lat": 0.0, "lat": 38.898705166666666, "lon": -76.9466805, "fusion_lon": 0.0, "name": "b012e582b51a586ea0227d53acb3c584", "rental_uris": {"ios": "https://dc.lft.to/lastmile_qr_scan", "android": "https://dc.lft.to/lastmile_qr_scan"}, "is_disabled": 0, "is_reserved": 0}, {"bike_id": "3b728a915b3a9b04d7c2f6c83dd8082c", "type": "electric_scooter", "fusion_lat": 0.0, "lat": 38.90241016666667, "lon": -77.03432383333333, "fusion_lon": 0.0, "name": "3b728a915b3a9b04d7c2f6c83dd8082c", "rental_uris": {"ios": "https://dc.lft.to/lastmile_qr_scan", "android": "https://dc.lft.to/lastmile_qr_scan"}, "is_disabled": 0, "is_reserved": 0}, {"bike_id": "03eee13e81ae00506ddcd8f929fdac68", "type": "electric_scooter", "fusion_lat": 0.0, "lat": 38.8974265, "lon": -77.02454466666667, "fusion_lon": 0.0, "name": "03eee13e81ae00506ddcd8f929fdac68", "rental_uris": {"ios": "https://dc.lft.to/lastmile_qr_scan", "android": "https://dc.lft.to/lastmile_qr_scan"}, "is_disabled": 0, "is_reserved": 0}, {"bike_id": "1b70159b3782ff044b4df7743b9593b1", "type": "electric_scooter", "fusion_lat": 0.0, "lat": 38.87520333333333, "lon": -77.005847, "fusion_lon": 0.0, "name": "1b70159b3782ff044b4df7743b9593b1", "rental_uris": {"ios": "https://dc.lft.to/lastmile_qr_scan", "android": "https://dc.lft.to/lastmile_qr_scan"}, "is_disabled": 0, "is_reserved": 0}, {"bike_id": "42b00a88b4e49c777f6929c2af8a99b1", "type": "electric_scooter", "fusion_lat": 0.0, "lat": 38.900132, "lon": -77.04135933333333, "fusion_lon": 0.0, "name": "42b00a88b4e49c777f6929c2af8a99b1", "rental_uris": {"ios": "https://dc.lft.to/lastmile_qr_scan", "android": "https://dc.lft.to/lastmile_qr_scan"}, "is_disabled": 0, "is_reserved": 0}, {"bike_id": "58f0c6057ed8ae071e4149ba7585dc4c", "type": "electric_bike", "fusion_lat": 0.0, "lat": 38.81236883333333, "lon": -77.04071833333333, "fusion_lon": 0.0, "name": "58f0c6057ed8ae071e4149ba7585dc4c", "rental_uris": {"ios": "https://dc.lft.to/lastmile_qr_scan", "android": "https://dc.lft.to/lastmile_qr_scan"}, "is_disabled": 0, "is_reserved": 0}, {"bike_id": "21a801676bab8db361a9e4a874ff3d50", "type": "electric_scooter", "fusion_lat": 0.0, "lat": 38.923416, "lon": -77.01898833333334, "fusion_lon": 0.0, "name": "21a801676bab8db361a9e4a874ff3d50", "rental_uris": {"ios": "https://dc.lft.to/lastmile_qr_scan", "android": "https://dc.lft.to/lastmile_qr_scan"}, "is_disabled": 0, "is_reserved": 0}, {"bike_id": "530ee73f93c01601e2d07ae89c4c91a9", "type": "electric_scooter", "fusion_lat": 0.0, "lat": 38.897519333333335, "lon": -77.02681483333333, "fusion_lon": 0.0, "name": "530ee73f93c01601e2d07ae89c4c91a9", "rental_uris": {"ios": "https://dc.lft.to/lastmile_qr_scan", "android": "https://dc.lft.to/lastmile_qr_scan"}, "is_disabled": 0, "is_reserved": 0}, {"bike_id": "477bbfadbe4a37ed7fce4cd345b298c8", "type": "electric_scooter", "fusion_lat": 0.0, "lat": 38.902780166666666, "lon": -77.0210515, "fusion_lon": 0.0, "name": "477bbfadbe4a37ed7fce4cd345b298c8", "rental_uris": {"ios": "https://dc.lft.to/lastmile_qr_scan", "android": "https://dc.lft.to/lastmile_qr_scan"}, "is_disabled": 0, "is_reserved": 0}, {"bike_id": "d7c7175207ccd924286c2659513f1bae", "type": "electric_scooter", "fusion_lat": 0.0, "lat": 38.900184, "lon": -77.002043, "fusion_lon": 0.0, "name": "d7c7175207ccd924286c2659513f1bae", "rental_uris": {"ios": "https://dc.lft.to/lastmile_qr_scan", "android": "https://dc.lft.to/lastmile_qr_scan"}, "is_disabled": 0, "is_reserved": 0}, {"bike_id": "40570b5ef1efc421abe8f0b85409c6eb", "type": "electric_scooter", "fusion_lat": 0.0, "lat": 38.904702, "lon": -77.03545983333333, "fusion_lon": 0.0, "name": "40570b5ef1efc421abe8f0b85409c6eb", "rental_uris": {"ios": "https://dc.lft.to/lastmile_qr_scan", "android": "https://dc.lft.to/lastmile_qr_scan"}, "is_disabled": 0, "is_reserved": 0}, {"bike_id": "f50c72b1423f3d535bd8a6877e73dbcc", "type": "electric_scooter", "fusion_lat": 0.0, "lat": 38.9247, "lon": -77.0372535, "fusion_lon": 0.0, "name": "f50c72b1423f3d535bd8a6877e73dbcc", "rental_uris": {"ios": "https://dc.lft.to/lastmile_qr_scan", "android": "https://dc.lft.to/lastmile_qr_scan"}, "is_disabled": 0, "is_reserved": 0}, {"bike_id": "834f0c1a6890bfe43e740a579d763618", "type": "electric_scooter", "fusion_lat": 0.0, "lat": 38.8831815, "lon": -77.03000016666667, "fusion_lon": 0.0, "name": "834f0c1a6890bfe43e740a579d763618", "rental_uris": {"ios": "https://dc.lft.to/lastmile_qr_scan", "android": "https://dc.lft.to/lastmile_qr_scan"}, "is_disabled": 0, "is_reserved": 0}, {"bike_id": "0efaa928ae0b059dc1913ce7361c461e", "type": "electric_scooter", "fusion_lat": 0.0, "lat": 38.9133185, "lon": -77.0244865, "fusion_lon": 0.0, "name": "0efaa928ae0b059dc1913ce7361c461e", "rental_uris": {"ios": "https://dc.lft.to/lastmile_qr_scan", "android": "https://dc.lft.to/lastmile_qr_scan"}, "is_disabled": 0, "is_reserved": 0}, {"bike_id": "e9e043d43a4ee60ff44a71ed883053ac", "type": "electric_scooter", "fusion_lat": 0.0, "lat": 38.90331716666667, "lon": -77.0331035, "fusion_lon": 0.0, "name": "e9e043d43a4ee60ff44a71ed883053ac", "rental_uris": {"ios": "https://dc.lft.to/lastmile_qr_scan", "android": "https://dc.lft.to/lastmile_qr_scan"}, "is_disabled": 0, "is_reserved": 0}, {"bike_id": "07b4f8edad97758272854d7250e3610b", "type": "electric_scooter", "fusion_lat": 0.0, "lat": 38.925863166666666, "lon": -77.04407833333333, "fusion_lon": 0.0, "name": "07b4f8edad97758272854d7250e3610b", "rental_uris": {"ios": "https://dc.lft.to/lastmile_qr_scan", "android": "https://dc.lft.to/lastmile_qr_scan"}, "is_disabled": 0, "is_reserved": 0}, {"bike_id": "ac20355d4a67f5d4fbd9d640bc9f9c12", "type": "electric_scooter", "fusion_lat": 0.0, "lat": 38.9017445, "lon": -77.05090133333333, "fusion_lon": 0.0, "name": "ac20355d4a67f5d4fbd9d640bc9f9c12", "rental_uris": {"ios": "https://dc.lft.to/lastmile_qr_scan", "android": "https://dc.lft.to/lastmile_qr_scan"}, "is_disabled": 0, "is_reserved": 0}, {"bike_id": "9a0510bfb4ef7722afc3fce8dffda911", "type": "electric_scooter", "fusion_lat": 0.0, "lat": 38.946091333333335, "lon": -77.08017033333333, "fusion_lon": 0.0, "name": "9a0510bfb4ef7722afc3fce8dffda911", "rental_uris": {"ios": "https://dc.lft.to/lastmile_qr_scan", "android": "https://dc.lft.to/lastmile_qr_scan"}, "is_disabled": 0, "is_reserved": 0}, {"bike_id": "b3cc6ce70225002d7a6721690c97ac83", "type": "electric_scooter", "fusion_lat": 0.0, "lat": 38.89754516666667, "lon": -76.9258085, "fusion_lon": 0.0, "name": "b3cc6ce70225002d7a6721690c97ac83", "rental_uris": {"ios": "https://dc.lft.to/lastmile_qr_scan", "android": "https://dc.lft.to/lastmile_qr_scan"}, "is_disabled": 0, "is_reserved": 0}, {"bike_id": "43c570de3b3d41c0ca037caddf60cc75", "type": "electric_scooter", "fusion_lat": 0.0, "lat": 38.899906333333334, "lon": -76.99015233333333, "fusion_lon": 0.0, "name": "43c570de3b3d41c0ca037caddf60cc75", "rental_uris": {"ios": "https://dc.lft.to/lastmile_qr_scan", "android": "https://dc.lft.to/lastmile_qr_scan"}, "is_disabled": 0, "is_reserved": 0}, {"bike_id": "84dceaf3376e7f4eda7a4455892368cf", "type": "electric_scooter", "fusion_lat": 0.0, "lat": 38.90026866666667, "lon": -76.9885985, "fusion_lon": 0.0, "name": "84dceaf3376e7f4eda7a4455892368cf", "rental_uris": {"ios": "https://dc.lft.to/lastmile_qr_scan", "android": "https://dc.lft.to/lastmile_qr_scan"}, "is_disabled": 0, "is_reserved": 0}, {"bike_id": "1adcebb19fbf3aaf8c4304be8cf2c1cb", "type": "electric_scooter", "fusion_lat": 0.0, "lat": 38.9035445, "lon": -77.01092716666666, "fusion_lon": 0.0, "name": "1adcebb19fbf3aaf8c4304be8cf2c1cb", "rental_uris": {"ios": "https://dc.lft.to/lastmile_qr_scan", "android": "https://dc.lft.to/lastmile_qr_scan"}, "is_disabled": 0, "is_reserved": 0}, {"bike_id": "09fa913c66ba071b75bc2383e83df4b9", "type": "electric_scooter", "fusion_lat": 0.0, "lat": 38.8989435, "lon": -77.0457875, "fusion_lon": 0.0, "name": "09fa913c66ba071b75bc2383e83df4b9", "rental_uris": {"ios": "https://dc.lft.to/lastmile_qr_scan", "android": "https://dc.lft.to/lastmile_qr_scan"}, "is_disabled": 0, "is_reserved": 0}, {"bike_id": "0a1430e40a58a7b03d26fbea50ac8853", "type": "electric_scooter", "fusion_lat": 0.0, "lat": 38.901255, "lon": -77.03914183333333, "fusion_lon": 0.0, "name": "0a1430e40a58a7b03d26fbea50ac8853", "rental_uris": {"ios": "https://dc.lft.to/lastmile_qr_scan", "android": "https://dc.lft.to/lastmile_qr_scan"}, "is_disabled": 0, "is_reserved": 0}, {"bike_id": "c008d1107f1c4a3fc28043b82d811ef6", "type": "electric_bike", "fusion_lat": 0.0, "lat": 38.8981775, "lon": -76.99070166666667, "fusion_lon": 0.0, "name": "c008d1107f1c4a3fc28043b82d811ef6", "rental_uris": {"ios": "https://dc.lft.to/lastmile_qr_scan", "android": "https://dc.lft.to/lastmile_qr_scan"}, "is_disabled": 0, "is_reserved": 0}, {"bike_id": "68e660b273fa36a1195ce4605e6e5cee", "type": "electric_scooter", "fusion_lat": 0.0, "lat": 38.887431666666664, "lon": -77.0171225, "fusion_lon": 0.0, "name": "68e660b273fa36a1195ce4605e6e5cee", "rental_uris": {"ios": "https://dc.lft.to/lastmile_qr_scan", "android": "https://dc.lft.to/lastmile_qr_scan"}, "is_disabled": 0, "is_reserved": 0}, {"bike_id": "fa90d40e29dd8622568419997f7b3d66", "type": "electric_scooter", "fusion_lat": 0.0, "lat": 38.916304333333336, "lon": -77.0220795, "fusion_lon": 0.0, "name": "fa90d40e29dd8622568419997f7b3d66", "rental_uris": {"ios": "https://dc.lft.to/lastmile_qr_scan", "android": "https://dc.lft.to/lastmile_qr_scan"}, "is_disabled": 0, "is_reserved": 0}, {"bike_id": "8671013657e7bde935b9557da035cc8a", "type": "electric_scooter", "fusion_lat": 0.0, "lat": 38.904323166666664, "lon": -77.028374, "fusion_lon": 0.0, "name": "8671013657e7bde935b9557da035cc8a", "rental_uris": {"ios": "https://dc.lft.to/lastmile_qr_scan", "android": "https://dc.lft.to/lastmile_qr_scan"}, "is_disabled": 0, "is_reserved": 0}, {"bike_id": "604af9ca3022011e3cdd783882dbedf1", "type": "electric_scooter", "fusion_lat": 0.0, "lat": 38.937243333333335, "lon": -77.01903483333334, "fusion_lon": 0.0, "name": "604af9ca3022011e3cdd783882dbedf1", "rental_uris": {"ios": "https://dc.lft.to/lastmile_qr_scan", "android": "https://dc.lft.to/lastmile_qr_scan"}, "is_disabled": 0, "is_reserved": 0}, {"bike_id": "18a50b32a56281eb7a30e458a670f3c8", "type": "electric_scooter", "fusion_lat": 0.0, "lat": 38.920448666666665, "lon": -77.0176045, "fusion_lon": 0.0, "name": "18a50b32a56281eb7a30e458a670f3c8", "rental_uris": {"ios": "https://dc.lft.to/lastmile_qr_scan", "android": "https://dc.lft.to/lastmile_qr_scan"}, "is_disabled": 0, "is_reserved": 0}, {"bike_id": "2528f806552a91b747ca7363c8991d0d", "type": "electric_bike", "fusion_lat": 0.0, "lat": 38.8583375, "lon": -77.1147485, "fusion_lon": 0.0, "name": "2528f806552a91b747ca7363c8991d0d", "rental_uris": {"ios": "https://dc.lft.to/lastmile_qr_scan", "android": "https://dc.lft.to/lastmile_qr_scan"}, "is_disabled": 0, "is_reserved": 0}, {"bike_id": "5a63f30e6997721ad834982ec18abbcc", "type": "electric_scooter", "fusion_lat": 0.0, "lat": 38.89557716666667, "lon": -77.0467745, "fusion_lon": 0.0, "name": "5a63f30e6997721ad834982ec18abbcc", "rental_uris": {"ios": "https://dc.lft.to/lastmile_qr_scan", "android": "https://dc.lft.to/lastmile_qr_scan"}, "is_disabled": 0, "is_reserved": 0}, {"bike_id": "c7d637b4b69e96a74edacf0e94ad96ad", "type": "electric_scooter", "fusion_lat": 0.0, "lat": 38.9030855, "lon": -77.03068433333334, "fusion_lon": 0.0, "name": "c7d637b4b69e96a74edacf0e94ad96ad", "rental_uris": {"ios": "https://dc.lft.to/lastmile_qr_scan", "android": "https://dc.lft.to/lastmile_qr_scan"}, "is_disabled": 0, "is_reserved": 0}, {"bike_id": "06a7b44d817fba639e0d9edcf278f332", "type": "electric_scooter", "fusion_lat": 0.0, "lat": 38.905873, "lon": -77.06286516666667, "fusion_lon": 0.0, "name": "06a7b44d817fba639e0d9edcf278f332", "rental_uris": {"ios": "https://dc.lft.to/lastmile_qr_scan", "android": "https://dc.lft.to/lastmile_qr_scan"}, "is_disabled": 0, "is_reserved": 0}, {"bike_id": "2c8a297b26cc7baac366c89569e3b69a", "type": "electric_scooter", "fusion_lat": 0.0, "lat": 38.92288583333333, "lon": -77.04284933333334, "fusion_lon": 0.0, "name": "2c8a297b26cc7baac366c89569e3b69a", "rental_uris": {"ios": "https://dc.lft.to/lastmile_qr_scan", "android": "https://dc.lft.to/lastmile_qr_scan"}, "is_disabled": 0, "is_reserved": 0}, {"bike_id": "866c42e346ce8f979ce53f9daced4e32", "type": "electric_scooter", "fusion_lat": 0.0, "lat": 38.92032483333333, "lon": -77.0192455, "fusion_lon": 0.0, "name": "866c42e346ce8f979ce53f9daced4e32", "rental_uris": {"ios": "https://dc.lft.to/lastmile_qr_scan", "android": "https://dc.lft.to/lastmile_qr_scan"}, "is_disabled": 0, "is_reserved": 0}, {"bike_id": "cae04e0b4c063d4e0dcb332c9ef3aff5", "type": "electric_scooter", "fusion_lat": 0.0, "lat": 38.9074335, "lon": -77.04208983333334, "fusion_lon": 0.0, "name": "cae04e0b4c063d4e0dcb332c9ef3aff5", "rental_uris": {"ios": "https://dc.lft.to/lastmile_qr_scan", "android": "https://dc.lft.to/lastmile_qr_scan"}, "is_disabled": 0, "is_reserved": 0}, {"bike_id": "95aeb8e5248ed212a273febad8c0fd21", "type": "electric_scooter", "fusion_lat": 0.0, "lat": 38.911966166666666, "lon": -77.06084916666667, "fusion_lon": 0.0, "name": "95aeb8e5248ed212a273febad8c0fd21", "rental_uris": {"ios": "https://dc.lft.to/lastmile_qr_scan", "android": "https://dc.lft.to/lastmile_qr_scan"}, "is_disabled": 0, "is_reserved": 0}, {"bike_id": "ade27a1319a0a6409a33afe31b405d97", "type": "electric_scooter", "fusion_lat": 0.0, "lat": 38.90605033333333, "lon": -77.04022183333333, "fusion_lon": 0.0, "name": "ade27a1319a0a6409a33afe31b405d97", "rental_uris": {"ios": "https://dc.lft.to/lastmile_qr_scan", "android": "https://dc.lft.to/lastmile_qr_scan"}, "is_disabled": 0, "is_reserved": 0}, {"bike_id": "e9876963cb4d3ce4254ecef9ee53873a", "type": "electric_scooter", "fusion_lat": 0.0, "lat": 38.937660666666666, "lon": -77.02444066666666, "fusion_lon": 0.0, "name": "e9876963cb4d3ce4254ecef9ee53873a", "rental_uris": {"ios": "https://dc.lft.to/lastmile_qr_scan", "android": "https://dc.lft.to/lastmile_qr_scan"}, "is_disabled": 0, "is_reserved": 0}, {"bike_id": "9234778f76d32d5ce1267a8340b27136", "type": "electric_scooter", "fusion_lat": 0.0, "lat": 38.914036333333335, "lon": -77.032544, "fusion_lon": 0.0, "name": "9234778f76d32d5ce1267a8340b27136", "rental_uris": {"ios": "https://dc.lft.to/lastmile_qr_scan", "android": "https://dc.lft.to/lastmile_qr_scan"}, "is_disabled": 0, "is_reserved": 0}, {"bike_id": "9d0075b98229057b2e2ce146e4fbe4fe", "type": "electric_scooter", "fusion_lat": 0.0, "lat": 38.9247535, "lon": -77.03915566666667, "fusion_lon": 0.0, "name": "9d0075b98229057b2e2ce146e4fbe4fe", "rental_uris": {"ios": "https://dc.lft.to/lastmile_qr_scan", "android": "https://dc.lft.to/lastmile_qr_scan"}, "is_disabled": 0, "is_reserved": 0}, {"bike_id": "6a8f2923c5878194cc39b02ff1ab1da0", "type": "electric_scooter", "fusion_lat": 0.0, "lat": 38.8985255, "lon": -77.02869066666666, "fusion_lon": 0.0, "name": "6a8f2923c5878194cc39b02ff1ab1da0", "rental_uris": {"ios": "https://dc.lft.to/lastmile_qr_scan", "android": "https://dc.lft.to/lastmile_qr_scan"}, "is_disabled": 0, "is_reserved": 0}, {"bike_id": "e8712767576fbd7c045bfb3b832992ab", "type": "electric_scooter", "fusion_lat": 0.0, "lat": 38.87221483333333, "lon": -77.0057265, "fusion_lon": 0.0, "name": "e8712767576fbd7c045bfb3b832992ab", "rental_uris": {"ios": "https://dc.lft.to/lastmile_qr_scan", "android": "https://dc.lft.to/lastmile_qr_scan"}, "is_disabled": 0, "is_reserved": 0}, {"bike_id": "e2e035a783ff77ab4df6b92bad1467bb", "type": "electric_scooter", "fusion_lat": 0.0, "lat": 38.913544333333334, "lon": -77.04597166666667, "fusion_lon": 0.0, "name": "e2e035a783ff77ab4df6b92bad1467bb", "rental_uris": {"ios": "https://dc.lft.to/lastmile_qr_scan", "android": "https://dc.lft.to/lastmile_qr_scan"}, "is_disabled": 0, "is_reserved": 0}, {"bike_id": "fdce3a421794d3a2765c6f8def0fd717", "type": "electric_scooter", "fusion_lat": 0.0, "lat": 38.88871983333333, "lon": -77.00179816666666, "fusion_lon": 0.0, "name": "fdce3a421794d3a2765c6f8def0fd717", "rental_uris": {"ios": "https://dc.lft.to/lastmile_qr_scan", "android": "https://dc.lft.to/lastmile_qr_scan"}, "is_disabled": 0, "is_reserved": 0}, {"bike_id": "d2167090013b55d39ff94bbea4bebf02", "type": "electric_scooter", "fusion_lat": 0.0, "lat": 38.935617666666666, "lon": -77.05877933333333, "fusion_lon": 0.0, "name": "d2167090013b55d39ff94bbea4bebf02", "rental_uris": {"ios": "https://dc.lft.to/lastmile_qr_scan", "android": "https://dc.lft.to/lastmile_qr_scan"}, "is_disabled": 0, "is_reserved": 0}, {"bike_id": "b00aea39fc7dadc843e165074b2685d2", "type": "electric_scooter", "fusion_lat": 0.0, "lat": 38.8936315, "lon": -77.003349, "fusion_lon": 0.0, "name": "b00aea39fc7dadc843e165074b2685d2", "rental_uris": {"ios": "https://dc.lft.to/lastmile_qr_scan", "android": "https://dc.lft.to/lastmile_qr_scan"}, "is_disabled": 0, "is_reserved": 0}, {"bike_id": "62efc598abbfea63fdcce58a0ddcfd68", "type": "electric_scooter", "fusion_lat": 0.0, "lat": 38.88717416666667, "lon": -77.021657, "fusion_lon": 0.0, "name": "62efc598abbfea63fdcce58a0ddcfd68", "rental_uris": {"ios": "https://dc.lft.to/lastmile_qr_scan", "android": "https://dc.lft.to/lastmile_qr_scan"}, "is_disabled": 0, "is_reserved": 0}, {"bike_id": "0b0244b468d9348245f11765d742a54d", "type": "electric_scooter", "fusion_lat": 0.0, "lat": 38.904878833333335, "lon": -77.06788066666667, "fusion_lon": 0.0, "name": "0b0244b468d9348245f11765d742a54d", "rental_uris": {"ios": "https://dc.lft.to/lastmile_qr_scan", "android": "https://dc.lft.to/lastmile_qr_scan"}, "is_disabled": 0, "is_reserved": 0}, {"bike_id": "af86617c8b0cbdbf44442556b74feb4f", "type": "electric_scooter", "fusion_lat": 0.0, "lat": 38.9248165, "lon": -77.02230083333333, "fusion_lon": 0.0, "name": "af86617c8b0cbdbf44442556b74feb4f", "rental_uris": {"ios": "https://dc.lft.to/lastmile_qr_scan", "android": "https://dc.lft.to/lastmile_qr_scan"}, "is_disabled": 0, "is_reserved": 0}, {"bike_id": "4ea6ba46d505336298172cfe4b2f3303", "type": "electric_scooter", "fusion_lat": 0.0, "lat": 38.91102583333333, "lon": -77.02637366666667, "fusion_lon": 0.0, "name": "4ea6ba46d505336298172cfe4b2f3303", "rental_uris": {"ios": "https://dc.lft.to/lastmile_qr_scan", "android": "https://dc.lft.to/lastmile_qr_scan"}, "is_disabled": 0, "is_reserved": 0}, {"bike_id": "3d0aae09c97419a5299fcf2e0b937392", "type": "electric_scooter", "fusion_lat": 0.0, "lat": 38.891934166666665, "lon": -77.00280833333333, "fusion_lon": 0.0, "name": "3d0aae09c97419a5299fcf2e0b937392", "rental_uris": {"ios": "https://dc.lft.to/lastmile_qr_scan", "android": "https://dc.lft.to/lastmile_qr_scan"}, "is_disabled": 0, "is_reserved": 0}, {"bike_id": "f2a5326276e3c882c5917a5f54a0cfca", "type": "electric_scooter", "fusion_lat": 0.0, "lat": 38.89229733333333, "lon": -77.049998, "fusion_lon": 0.0, "name": "f2a5326276e3c882c5917a5f54a0cfca", "rental_uris": {"ios": "https://dc.lft.to/lastmile_qr_scan", "android": "https://dc.lft.to/lastmile_qr_scan"}, "is_disabled": 0, "is_reserved": 0}, {"bike_id": "68199b101ebc2676edf674aa22206216", "type": "electric_scooter", "fusion_lat": 0.0, "lat": 38.907924666666666, "lon": -77.003378, "fusion_lon": 0.0, "name": "68199b101ebc2676edf674aa22206216", "rental_uris": {"ios": "https://dc.lft.to/lastmile_qr_scan", "android": "https://dc.lft.to/lastmile_qr_scan"}, "is_disabled": 0, "is_reserved": 0}, {"bike_id": "97ffc4d1ef6dc3f62d1370f076d8e594", "type": "electric_scooter", "fusion_lat": 0.0, "lat": 38.91626933333333, "lon": -77.031551, "fusion_lon": 0.0, "name": "97ffc4d1ef6dc3f62d1370f076d8e594", "rental_uris": {"ios": "https://dc.lft.to/lastmile_qr_scan", "android": "https://dc.lft.to/lastmile_qr_scan"}, "is_disabled": 0, "is_reserved": 0}, {"bike_id": "d2814097b0a40e99fd0996aaf854ac67", "type": "electric_scooter", "fusion_lat": 0.0, "lat": 38.93258516666667, "lon": -77.02093383333333, "fusion_lon": 0.0, "name": "d2814097b0a40e99fd0996aaf854ac67", "rental_uris": {"ios": "https://dc.lft.to/lastmile_qr_scan", "android": "https://dc.lft.to/lastmile_qr_scan"}, "is_disabled": 0, "is_reserved": 0}, {"bike_id": "ae6630f5f87192ead6ee00d6fa2bb165", "type": "electric_scooter", "fusion_lat": 0.0, "lat": 38.9660405, "lon": -77.02103866666667, "fusion_lon": 0.0, "name": "ae6630f5f87192ead6ee00d6fa2bb165", "rental_uris": {"ios": "https://dc.lft.to/lastmile_qr_scan", "android": "https://dc.lft.to/lastmile_qr_scan"}, "is_disabled": 0, "is_reserved": 0}, {"bike_id": "065437ebe05af0c47fbcde454c0d18d6", "type": "electric_scooter", "fusion_lat": 0.0, "lat": 38.907356, "lon": -77.02805433333333, "fusion_lon": 0.0, "name": "065437ebe05af0c47fbcde454c0d18d6", "rental_uris": {"ios": "https://dc.lft.to/lastmile_qr_scan", "android": "https://dc.lft.to/lastmile_qr_scan"}, "is_disabled": 0, "is_reserved": 0}, {"bike_id": "ca8329bb5c8db342c248b1ef71188174", "type": "electric_scooter", "fusion_lat": 0.0, "lat": 38.955425, "lon": -77.02780283333334, "fusion_lon": 0.0, "name": "ca8329bb5c8db342c248b1ef71188174", "rental_uris": {"ios": "https://dc.lft.to/lastmile_qr_scan", "android": "https://dc.lft.to/lastmile_qr_scan"}, "is_disabled": 0, "is_reserved": 0}, {"bike_id": "1bc2f7a8c764033caa863149e6bd107b", "type": "electric_scooter", "fusion_lat": 0.0, "lat": 38.92383616666667, "lon": -77.02056833333333, "fusion_lon": 0.0, "name": "1bc2f7a8c764033caa863149e6bd107b", "rental_uris": {"ios": "https://dc.lft.to/lastmile_qr_scan", "android": "https://dc.lft.to/lastmile_qr_scan"}, "is_disabled": 0, "is_reserved": 0}, {"bike_id": "c22d3a32632163911198c7790bc6c6f0", "type": "electric_bike", "fusion_lat": 0.0, "lat": 38.8802775, "lon": -76.91717533333333, "fusion_lon": 0.0, "name": "c22d3a32632163911198c7790bc6c6f0", "rental_uris": {"ios": "https://dc.lft.to/lastmile_qr_scan", "android": "https://dc.lft.to/lastmile_qr_scan"}, "is_disabled": 0, "is_reserved": 0}, {"bike_id": "d0796b26172835266013672423507979", "type": "electric_scooter", "fusion_lat": 0.0, "lat": 38.905288166666665, "lon": -77.04751016666667, "fusion_lon": 0.0, "name": "d0796b26172835266013672423507979", "rental_uris": {"ios": "https://dc.lft.to/lastmile_qr_scan", "android": "https://dc.lft.to/lastmile_qr_scan"}, "is_disabled": 0, "is_reserved": 0}, {"bike_id": "1331c2885999d19ffcea88d2c8738203", "type": "electric_scooter", "fusion_lat": 0.0, "lat": 38.916669, "lon": -77.004423, "fusion_lon": 0.0, "name": "1331c2885999d19ffcea88d2c8738203", "rental_uris": {"ios": "https://dc.lft.to/lastmile_qr_scan", "android": "https://dc.lft.to/lastmile_qr_scan"}, "is_disabled": 0, "is_reserved": 0}, {"bike_id": "0d3c8e2c5a67624b4bd4936fcc5c6633", "type": "electric_scooter", "fusion_lat": 0.0, "lat": 38.89959016666667, "lon": -77.01405833333334, "fusion_lon": 0.0, "name": "0d3c8e2c5a67624b4bd4936fcc5c6633", "rental_uris": {"ios": "https://dc.lft.to/lastmile_qr_scan", "android": "https://dc.lft.to/lastmile_qr_scan"}, "is_disabled": 0, "is_reserved": 0}, {"bike_id": "f4db0312baadcce8db8c37cd1c2d2b8a", "type": "electric_scooter", "fusion_lat": 0.0, "lat": 38.9181485, "lon": -77.0364075, "fusion_lon": 0.0, "name": "f4db0312baadcce8db8c37cd1c2d2b8a", "rental_uris": {"ios": "https://dc.lft.to/lastmile_qr_scan", "android": "https://dc.lft.to/lastmile_qr_scan"}, "is_disabled": 0, "is_reserved": 0}, {"bike_id": "78fb368deab353acccdbd50f4d38d136", "type": "electric_scooter", "fusion_lat": 0.0, "lat": 38.91368216666667, "lon": -77.07221616666666, "fusion_lon": 0.0, "name": "78fb368deab353acccdbd50f4d38d136", "rental_uris": {"ios": "https://dc.lft.to/lastmile_qr_scan", "android": "https://dc.lft.to/lastmile_qr_scan"}, "is_disabled": 0, "is_reserved": 0}, {"bike_id": "ae7d5e7babb6d0f28686196861f8d20a", "type": "electric_scooter", "fusion_lat": 0.0, "lat": 38.88493283333333, "lon": -77.007118, "fusion_lon": 0.0, "name": "ae7d5e7babb6d0f28686196861f8d20a", "rental_uris": {"ios": "https://dc.lft.to/lastmile_qr_scan", "android": "https://dc.lft.to/lastmile_qr_scan"}, "is_disabled": 0, "is_reserved": 0}, {"bike_id": "cbfd262ebe6ebf8c0cfa14d47f0e9387", "type": "electric_scooter", "fusion_lat": 0.0, "lat": 38.89715416666667, "lon": -77.00800116666667, "fusion_lon": 0.0, "name": "cbfd262ebe6ebf8c0cfa14d47f0e9387", "rental_uris": {"ios": "https://dc.lft.to/lastmile_qr_scan", "android": "https://dc.lft.to/lastmile_qr_scan"}, "is_disabled": 0, "is_reserved": 0}, {"bike_id": "d6660b5e46058e663b08374615f76866", "type": "electric_scooter", "fusion_lat": 0.0, "lat": 38.918153333333336, "lon": -77.03632966666666, "fusion_lon": 0.0, "name": "d6660b5e46058e663b08374615f76866", "rental_uris": {"ios": "https://dc.lft.to/lastmile_qr_scan", "android": "https://dc.lft.to/lastmile_qr_scan"}, "is_disabled": 0, "is_reserved": 0}, {"bike_id": "56e1ec634f3967466a2ed00691339ca4", "type": "electric_scooter", "fusion_lat": 0.0, "lat": 38.93418116666667, "lon": -77.04159266666667, "fusion_lon": 0.0, "name": "56e1ec634f3967466a2ed00691339ca4", "rental_uris": {"ios": "https://dc.lft.to/lastmile_qr_scan", "android": "https://dc.lft.to/lastmile_qr_scan"}, "is_disabled": 0, "is_reserved": 0}, {"bike_id": "7727626c274bf32bb27a5d7ecc86f5ee", "type": "electric_scooter", "fusion_lat": 0.0, "lat": 38.902097166666664, "lon": -77.02149233333333, "fusion_lon": 0.0, "name": "7727626c274bf32bb27a5d7ecc86f5ee", "rental_uris": {"ios": "https://dc.lft.to/lastmile_qr_scan", "android": "https://dc.lft.to/lastmile_qr_scan"}, "is_disabled": 0, "is_reserved": 0}, {"bike_id": "6908b1ee7af8bcde4c64e711963810f4", "type": "electric_scooter", "fusion_lat": 0.0, "lat": 38.900324499999996, "lon": -77.0333905, "fusion_lon": 0.0, "name": "6908b1ee7af8bcde4c64e711963810f4", "rental_uris": {"ios": "https://dc.lft.to/lastmile_qr_scan", "android": "https://dc.lft.to/lastmile_qr_scan"}, "is_disabled": 0, "is_reserved": 0}, {"bike_id": "394cddfb3fe50cc0b1e053fa8a28ac95", "type": "electric_scooter", "fusion_lat": 0.0, "lat": 38.924676833333336, "lon": -77.05240016666667, "fusion_lon": 0.0, "name": "394cddfb3fe50cc0b1e053fa8a28ac95", "rental_uris": {"ios": "https://dc.lft.to/lastmile_qr_scan", "android": "https://dc.lft.to/lastmile_qr_scan"}, "is_disabled": 0, "is_reserved": 0}, {"bike_id": "8373f6fb80efd75525615335bbe4ed9e", "type": "electric_scooter", "fusion_lat": 0.0, "lat": 38.9127615, "lon": -76.98560933333333, "fusion_lon": 0.0, "name": "8373f6fb80efd75525615335bbe4ed9e", "rental_uris": {"ios": "https://dc.lft.to/lastmile_qr_scan", "android": "https://dc.lft.to/lastmile_qr_scan"}, "is_disabled": 0, "is_reserved": 0}, {"bike_id": "0e6f933b4e905511b2a792a4f932db86", "type": "electric_scooter", "fusion_lat": 0.0, "lat": 38.924787, "lon": -77.02199266666666, "fusion_lon": 0.0, "name": "0e6f933b4e905511b2a792a4f932db86", "rental_uris": {"ios": "https://dc.lft.to/lastmile_qr_scan", "android": "https://dc.lft.to/lastmile_qr_scan"}, "is_disabled": 0, "is_reserved": 0},