{"data": {"bikes": [{"lat": 38.92750066666667, "is_disabled": 0, "type": "electric_scooter", "lon": -76.99624783333333, "bike_id": "ade5f3e910afe8ba4a35a08a64dc64ef", "fusion_lat": 0.0, "name": "ade5f3e910afe8ba4a35a08a64dc64ef", "is_reserved": 0, "rental_uris": {"android": "https://dc.lft.to/lastmile_qr_scan", "ios": "https://dc.lft.to/lastmile_qr_scan"}, "fusion_lon": 0.0}, {"lat": 38.8740055, "is_disabled": 0, "type": "electric_scooter", "lon": -77.01452033333334, "bike_id": "dcff95fdff46c461a839c504a9a52977", "fusion_lat": 0.0, "name": "dcff95fdff46c461a839c504a9a52977", "is_reserved": 0, "rental_uris": {"android": "https://dc.lft.to/lastmile_qr_scan", "ios": "https://dc.lft.to/lastmile_qr_scan"}, "fusion_lon": 0.0}, {"lat": 38.901403, "is_disabled": 0, "type": "electric_scooter", "lon": -77.00344716666666, "bike_id": "b39f4759285129382dd3a299d65dd753", "fusion_lat": 0.0, "name": "b39f4759285129382dd3a299d65dd753", "is_reserved": 0, "rental_uris": {"android": "https://dc.lft.to/lastmile_qr_scan", "ios": "https://dc.lft.to/lastmile_qr_scan"}, "fusion_lon": 0.0}, {"lat": 38.907110333333335, "is_disabled": 0, "type": "electric_scooter", "lon": -77.02988416666666, "bike_id": "1f063f2248c2662411af04d965bb0737", "fusion_lat": 0.0, "name": "1f063f2248c2662411af04d965bb0737", "is_reserved": 0, "rental_uris": {"android": "https://dc.lft.to/lastmile_qr_scan", "ios": "https://dc.lft.to/lastmile_qr_scan"}, "fusion_lon": 0.0}, {"lat": 38.937424166666666, "is_disabled": 0, "type": "electric_scooter", "lon": -77.0349595, "bike_id": "0da3614d320803bd8e892bea3093fc74", "fusion_lat": 0.0, "name": "0da3614d320803bd8e892bea3093fc74", "is_reserved": 0, "rental_uris": {"android": "https://dc.lft.to/lastmile_qr_scan", "ios": "https://dc.lft.to/lastmile_qr_scan"}, "fusion_lon": 0.0}, {"lat": 38.87227733333334, "is_disabled": 0, "type": "electric_scooter", "lon": -77.01192833333333, "bike_id": "5d14c7cae3cb1211630b24be9f9db8e6", "fusion_lat": 0.0, "name": "5d14c7cae3cb1211630b24be9f9db8e6", "is_reserved": 0, "rental_uris": {"android": "https://dc.lft.to/lastmile_qr_scan", "ios": "https://dc.lft.to/lastmile_qr_scan"}, "fusion_lon": 0.0}, {"lat": 38.88120266666667, "is_disabled": 0, "type": "electric_scooter", "lon": -77.01981533333333, "bike_id": "30c53f28e966e6cf4c990622aec766c6", "fusion_lat": 0.0, "name": "30c53f28e966e6cf4c990622aec766c6", "is_reserved": 0, "rental_uris": {"android": "https://dc.lft.to/lastmile_qr_scan", "ios": "https://dc.lft.to/lastmile_qr_scan"}, "fusion_lon": 0.0}, {"lat": 38.896132, "is_disabled": 0, "type": "electric_scooter", "lon": -76.95662583333333, "bike_id": "a8d5d4a712bc14c667dc8c3ce89e7429", "fusion_lat": 0.0, "name": "a8d5d4a712bc14c667dc8c3ce89e7429", "is_reserved": 0, "rental_uris": {"android": "https://dc.lft.to/lastmile_qr_scan", "ios": "https://dc.lft.to/lastmile_qr_scan"}, "fusion_lon": 0.0}, {"lat": 38.926162, "is_disabled": 0, "type": "electric_scooter", "lon": -77.04409183333334, "bike_id": "ca509882dc9975a4ea45523c6983706c", "fusion_lat": 0.0, "name": "ca509882dc9975a4ea45523c6983706c", "is_reserved": 0, "rental_uris": {"android": "https://dc.lft.to/lastmile_qr_scan", "ios": "https://dc.lft.to/lastmile_qr_scan"}, "fusion_lon": 0.0}, {"lat": 38.909759, "is_disabled": 0, "type": "electric_scooter", "lon": -77.03213466666666, "bike_id": "ce86acda571490bd5c92b31a21bc0fc7", "fusion_lat": 0.0, "name": "ce86acda571490bd5c92b31a21bc0fc7", "is_reserved": 0, "rental_uris": {"android": "https://dc.lft.to/lastmile_qr_scan", "ios": "https://dc.lft.to/lastmile_qr_scan"}, "fusion_lon": 0.0}, {"lat": 38.92754433333333, "is_disabled": 0, "type": "electric_scooter", "lon": -77.032465, "bike_id": "6fc295b66c04fe8c220c8780812cd5c9", "fusion_lat": 0.0, "name": "6fc295b66c04fe8c220c8780812cd5c9", "is_reserved": 0, "rental_uris": {"android": "https://dc.lft.to/lastmile_qr_scan", "ios": "https://dc.lft.to/lastmile_qr_scan"}, "fusion_lon": 0.0}, {"lat": 38.909671333333335, "is_disabled": 0, "type": "electric_scooter", "lon": -77.03861516666667, "bike_id": "84abd6358a7f6692f4042ad7394fc828", "fusion_lat": 0.0, "name": "84abd6358a7f6692f4042ad7394fc828", "is_reserved": 0, "rental_uris": {"android": "https://dc.lft.to/lastmile_qr_scan", "ios": "https://dc.lft.to/lastmile_qr_scan"}, "fusion_lon": 0.0}, {"lat": 38.887367, "is_disabled": 0, "type": "electric_scooter", "lon": -77.0207395, "bike_id": "516ddcec1c9fc0050293b3ff316b1d21", "fusion_lat": 0.0, "name": "516ddcec1c9fc0050293b3ff316b1d21", "is_reserved": 0, "rental_uris": {"android": "https://dc.lft.to/lastmile_qr_scan", "ios": "https://dc.lft.to/lastmile_qr_scan"}, "fusion_lon": 0.0}, {"lat": 38.93478133333333, "is_disabled": 0, "type": "electric_scooter", "lon": -77.03398533333333, "bike_id": "c5562bf48e9f1af42fb0248581c32e6c", "fusion_lat": 0.0, "name": "c5562bf48e9f1af42fb0248581c32e6c", "is_reserved": 0, "rental_uris": {"android": "https://dc.lft.to/lastmile_qr_scan", "ios": "https://dc.lft.to/lastmile_qr_scan"}, "fusion_lon": 0.0}, {"lat": 38.85315416666667, "is_disabled": 0, "type": "electric_scooter", "lon": -76.98020316666667, "bike_id": "adb45cdf16620d16872a73f3bef732e8", "fusion_lat": 0.0, "name": "adb45cdf16620d16872a73f3bef732e8", "is_reserved": 0, "rental_uris": {"android": "https://dc.lft.to/lastmile_qr_scan", "ios": "https://dc.lft.to/lastmile_qr_scan"}, "fusion_lon": 0.0}, {"lat": 38.911164, "is_disabled": 0, "type": "electric_scooter", "lon": -77.002475, "bike_id": "b0a84c802bd99d92550efdcd0c615749", "fusion_lat": 0.0, "name": "b0a84c802bd99d92550efdcd0c615749", "is_reserved": 0, "rental_uris": {"android": "https://dc.lft.to/lastmile_qr_scan", "ios": "https://dc.lft.to/lastmile_qr_scan"}, "fusion_lon": 0.0}, {"lat": 38.910127, "is_disabled": 0, "type": "electric_scooter", "lon": -76.99388366666666, "bike_id": "755a3a5f2a20194e2dcfc919f343401d", "fusion_lat": 0.0, "name": "755a3a5f2a20194e2dcfc919f343401d", "is_reserved": 0, "rental_uris": {"android": "https://dc.lft.to/lastmile_qr_scan", "ios": "https://dc.lft.to/lastmile_qr_scan"}, "fusion_lon": 0.0}, {"lat": 38.86106633333333, "is_disabled": 0, "type": "electric_scooter", "lon": -76.98358316666666, "bike_id": "2f544a0b9efe251cebaa93160760b3d7", "fusion_lat": 0.0, "name": "2f544a0b9efe251cebaa93160760b3d7", "is_reserved": 0, "rental_uris": {"android": "https://dc.lft.to/lastmile_qr_scan", "ios": "https://dc.lft.to/lastmile_qr_scan"}, "fusion_lon": 0.0}, {"lat": 38.897455666666666, "is_disabled": 0, "type": "electric_scooter", "lon": -77.05522966666666, "bike_id": "8695d00254a54d079ebbf1af4fb9791a", "fusion_lat": 0.0, "name": "8695d00254a54d079ebbf1af4fb9791a", "is_reserved": 0, "rental_uris": {"android": "https://dc.lft.to/lastmile_qr_scan", "ios": "https://dc.lft.to/lastmile_qr_scan"}, "fusion_lon": 0.0}, {"lat": 38.897972833333334, "is_disabled": 0, "type": "electric_scooter", "lon": -77.03008666666666, "bike_id": "867ef52a18d06f9e643ca14c2e68bf66", "fusion_lat": 0.0, "name": "867ef52a18d06f9e643ca14c2e68bf66", "is_reserved": 0, "rental_uris": {"android": "https://dc.lft.to/lastmile_qr_scan", "ios": "https://dc.lft.to/lastmile_qr_scan"}, "fusion_lon": 0.0}, {"lat": 38.90078783333333, "is_disabled": 0, "type": "electric_scooter", "lon": -77.0499185, "bike_id": "b6a2ca417c0da13ddf243f384088d378", "fusion_lat": 0.0, "name": "b6a2ca417c0da13ddf243f384088d378", "is_reserved": 0, "rental_uris": {"android": "https://dc.lft.to/lastmile_qr_scan", "ios": "https://dc.lft.to/lastmile_qr_scan"}, "fusion_lon": 0.0}, {"lat": 38.913401, "is_disabled": 0, "type": "electric_scooter", "lon": -77.00225783333333, "bike_id": "f7698b3ab0d0e566fe8d2b1b8de97ebb", "fusion_lat": 0.0, "name": "f7698b3ab0d0e566fe8d2b1b8de97ebb", "is_reserved": 0, "rental_uris": {"android": "https://dc.lft.to/lastmile_qr_scan", "ios": "https://dc.lft.to/lastmile_qr_scan"}, "fusion_lon": 0.0}, {"lat": 38.9126555, "is_disabled": 0, "type": "electric_scooter", "lon": -77.00281383333333, "bike_id": "ed220c8a1534ffce97fbdb339d5d32ed", "fusion_lat": 0.0, "name": "ed220c8a1534ffce97fbdb339d5d32ed", "is_reserved": 0, "rental_uris": {"android": "https://dc.lft.to/lastmile_qr_scan", "ios": "https://dc.lft.to/lastmile_qr_scan"}, "fusion_lon": 0.0}, {"lat": 38.900275, "is_disabled": 0, "type": "electric_scooter", "lon": -76.98739133333333, "bike_id": "460725f615ba779625977c01f85c2d7f", "fusion_lat": 0.0, "name": "460725f615ba779625977c01f85c2d7f", "is_reserved": 0, "rental_uris": {"android": "https://dc.lft.to/lastmile_qr_scan", "ios": "https://dc.lft.to/lastmile_qr_scan"}, "fusion_lon": 0.0}, {"lat": 38.883334833333336, "is_disabled": 0, "type": "electric_scooter", "lon": -77.0314915, "bike_id": "5e5a9a55ecaad15195b48cdaec38ab68", "fusion_lat": 0.0, "name": "5e5a9a55ecaad15195b48cdaec38ab68", "is_reserved": 0, "rental_uris": {"android": "https://dc.lft.to/lastmile_qr_scan", "ios": "https://dc.lft.to/lastmile_qr_scan"}, "fusion_lon": 0.0}, {"lat": 38.923323, "is_disabled": 0, "type": "electric_scooter", "lon": -77.018967, "bike_id": "a5355993b0133095f71fd4872791bbd1", "fusion_lat": 0.0, "name": "a5355993b0133095f71fd4872791bbd1", "is_reserved": 0, "rental_uris": {"android": "https://dc.lft.to/lastmile_qr_scan", "ios": "https://dc.lft.to/lastmile_qr_scan"}, "fusion_lon": 0.0}, {"lat": 38.917029666666664, "is_disabled": 0, "type": "electric_scooter", "lon": -77.0350375, "bike_id": "5893ff645d114d2f9551c4d66effe859", "fusion_lat": 0.0, "name": "5893ff645d114d2f9551c4d66effe859", "is_reserved": 0, "rental_uris": {"android": "https://dc.lft.to/lastmile_qr_scan", "ios": "https://dc.lft.to/lastmile_qr_scan"}, "fusion_lon": 0.0}, {"lat": 38.91707783333333, "is_disabled": 0, "type": "electric_scooter", "lon": -77.030772, "bike_id": "bac2c2e86bd0079122a81320e791f0cf", "fusion_lat": 0.0, "name": "bac2c2e86bd0079122a81320e791f0cf", "is_reserved": 0, "rental_uris": {"android": "https://dc.lft.to/lastmile_qr_scan", "ios": "https://dc.lft.to/lastmile_qr_scan"}, "fusion_lon": 0.0}, {"lat": 38.9540255, "is_disabled": 0, "type": "electric_scooter", "lon": -77.0274915, "bike_id": "763466e3a54c095c009cb4e7dce90116", "fusion_lat": 0.0, "name": "763466e3a54c095c009cb4e7dce90116", "is_reserved": 0, "rental_uris": {"android": "https://dc.lft.to/lastmile_qr_scan", "ios": "https://dc.lft.to/lastmile_qr_scan"}, "fusion_lon": 0.0}, {"lat": 38.90550783333333, "is_disabled": 0, "type": "electric_scooter", "lon": -77.0569175, "bike_id": "7d6a47d265a779439ba5954c908d816b", "fusion_lat": 0.0, "name": "7d6a47d265a779439ba5954c908d816b", "is_reserved": 0, "rental_uris": {"android": "https://dc.lft.to/lastmile_qr_scan", "ios": "https://dc.lft.to/lastmile_qr_scan"}, "fusion_lon": 0.0}, {"lat": 38.90383766666667, "is_disabled": 0, "type": "electric_bike", "lon": -77.01623116666667, "bike_id": "a2a17925a3de3cde12f930fe3eb3edf8", "fusion_lat": 0.0, "name": "a2a17925a3de3cde12f930fe3eb3edf8", "is_reserved": 0, "rental_uris": {"android": "https://dc.lft.to/lastmile_qr_scan", "ios": "https://dc.lft.to/lastmile_qr_scan"}, "fusion_lon": 0.0}, {"lat": 38.8026505, "is_disabled": 0, "type": "electric_bike", "lon": -77.08113683333333, "bike_id": "3314728b2db560f05ff3315989888c7f", "fusion_lat": 0.0, "name": "3314728b2db560f05ff3315989888c7f", "is_reserved": 0, "rental_uris": {"android": "https://dc.lft.to/lastmile_qr_scan", "ios": "https://dc.lft.to/lastmile_qr_scan"}, "fusion_lon": 0.0}, {"lat": 38.9333835, "is_disabled": 0, "type": "electric_scooter", "lon": -77.02384816666667, "bike_id": "bd3d2b5cd815333f58990d83ea46c198", "fusion_lat": 0.0, "name": "bd3d2b5cd815333f58990d83ea46c198", "is_reserved": 0, "rental_uris": {"android": "https://dc.lft.to/lastmile_qr_scan", "ios": "https://dc.lft.to/lastmile_qr_scan"}, "fusion_lon": 0.0}, {"lat": 38.89710733333333, "is_disabled": 0, "type": "electric_scooter", "lon": -77.02568466666666, "bike_id": "475ce923a67405173fb7ef6797d09678", "fusion_lat": 0.0, "name": "475ce923a67405173fb7ef6797d09678", "is_reserved": 0, "rental_uris": {"android": "https://dc.lft.to/lastmile_qr_scan", "ios": "https://dc.lft.to/lastmile_qr_scan"}, "fusion_lon": 0.0}, {"lat": 38.91416433333333, "is_disabled": 0, "type": "electric_scooter", "lon": -77.02233233333334, "bike_id": "46383540c22c32e96abb3400bf4a39eb", "fusion_lat": 0.0, "name": "46383540c22c32e96abb3400bf4a39eb", "is_reserved": 0, "rental_uris": {"android": "https://dc.lft.to/lastmile_qr_scan", "ios": "https://dc.lft.to/lastmile_qr_scan"}, "fusion_lon": 0.0}, {"lat": 38.90956933333333, "is_disabled": 0, "type": "electric_scooter", "lon": -77.04052566666667, "bike_id": "b8010af9b6c7b2e8a8739a085d66fdfa", "fusion_lat": 0.0, "name": "b8010af9b6c7b2e8a8739a085d66fdfa", "is_reserved": 0, "rental_uris": {"android": "https://dc.lft.to/lastmile_qr_scan", "ios": "https://dc.lft.to/lastmile_qr_scan"}, "fusion_lon": 0.0}, {"lat": 38.918275, "is_disabled": 0, "type": "electric_scooter", "lon": -77.04533516666666, "bike_id": "be620949ede4156b8c9f5037e3618aa2", "fusion_lat": 0.0, "name": "be620949ede4156b8c9f5037e3618aa2", "is_reserved": 0, "rental_uris": {"android": "https://dc.lft.to/lastmile_qr_scan", "ios": "https://dc.lft.to/lastmile_qr_scan"}, "fusion_lon": 0.0}, {"lat": 38.94176783333333, "is_disabled": 0, "type": "electric_scooter", "lon": -77.03652733333334, "bike_id": "0d65fe0949c7c9ede44e922b41eecdf0", "fusion_lat": 0.0, "name": "0d65fe0949c7c9ede44e922b41eecdf0", "is_reserved": 0, "rental_uris": {"android": "https://dc.lft.to/lastmile_qr_scan", "ios": "https://dc.lft.to/lastmile_qr_scan"}, "fusion_lon": 0.0}, {"lat": 38.89246216666667, "is_disabled": 0, "type": "electric_scooter", "lon": -77.04896383333333, "bike_id": "fb8b2d5ea22154b849aac592b9fafee7", "fusion_lat": 0.0, "name": "fb8b2d5ea22154b849aac592b9fafee7", "is_reserved": 0, "rental_uris": {"android": "https://dc.lft.to/lastmile_qr_scan", "ios": "https://dc.lft.to/lastmile_qr_scan"}, "fusion_lon": 0.0}, {"lat": 38.892274666666665, "is_disabled": 0, "type": "electric_scooter", "lon": -77.0500175, "bike_id": "f6aff0e5a03d3ad361ba313155b5dc97", "fusion_lat": 0.0, "name": "f6aff0e5a03d3ad361ba313155b5dc97", "is_reserved": 0, "rental_uris": {"android": "https://dc.lft.to/lastmile_qr_scan", "ios": "https://dc.lft.to/lastmile_qr_scan"}, "fusion_lon": 0.0}, {"lat": 38.93110716666666, "is_disabled": 0, "type": "electric_scooter", "lon": -77.03809733333334, "bike_id": "ac2050b872247b3f8a065954084494d4", "fusion_lat": 0.0, "name": "ac2050b872247b3f8a065954084494d4", "is_reserved": 0, "rental_uris": {"android": "https://dc.lft.to/lastmile_qr_scan", "ios": "https://dc.lft.to/lastmile_qr_scan"}, "fusion_lon": 0.0}, {"lat": 38.870799166666664, "is_disabled": 0, "type": "electric_bike", "lon": -77.012088, "bike_id": "383ddf9937694f0e45e60ce7ac3f8718", "fusion_lat": 0.0, "name": "383ddf9937694f0e45e60ce7ac3f8718", "is_reserved": 0, "rental_uris": {"android": "https://dc.lft.to/lastmile_qr_scan", "ios": "https://dc.lft.to/lastmile_qr_scan"}, "fusion_lon": 0.0}, {"lat": 38.8620965, "is_disabled": 0, "type": "electric_bike", "lon": -76.9977855, "bike_id": "c26d1df793ab31df1877e52b04d3800b", "fusion_lat": 0.0, "name": "c26d1df793ab31df1877e52b04d3800b", "is_reserved": 0, "rental_uris": {"android": "https://dc.lft.to/lastmile_qr_scan", "ios": "https://dc.lft.to/lastmile_qr_scan"}, "fusion_lon": 0.0}, {"lat": 38.902038833333336, "is_disabled": 0, "type": "electric_scooter", "lon": -77.0484955, "bike_id": "08066ca9efbab11fe47405603c32dd0d", "fusion_lat": 0.0, "name": "08066ca9efbab11fe47405603c32dd0d", "is_reserved": 0, "rental_uris": {"android": "https://dc.lft.to/lastmile_qr_scan", "ios": "https://dc.lft.to/lastmile_qr_scan"}, "fusion_lon": 0.0}, {"lat": 38.87063666666667, "is_disabled": 0, "type": "electric_scooter", "lon": -77.0084045, "bike_id": "78c610a3adecf45c96aa526bcad93573", "fusion_lat": 0.0, "name": "78c610a3adecf45c96aa526bcad93573", "is_reserved": 0, "rental_uris": {"android": "https://dc.lft.to/lastmile_qr_scan", "ios": "https://dc.lft.to/lastmile_qr_scan"}, "fusion_lon": 0.0}, {"lat": 38.915418333333335, "is_disabled": 0, "type": "electric_scooter", "lon": -77.02202766666667, "bike_id": "23fc28de80f56744161f78eb29d6869d", "fusion_lat": 0.0, "name": "23fc28de80f56744161f78eb29d6869d", "is_reserved": 0, "rental_uris": {"android": "https://dc.lft.to/lastmile_qr_scan", "ios": "https://dc.lft.to/lastmile_qr_scan"}, "fusion_lon": 0.0}, {"lat": 38.902256, "is_disabled": 0, "type": "electric_scooter", "lon": -77.02141133333333, "bike_id": "56f711e105a6b4f35956833cc06f4c8a", "fusion_lat": 0.0, "name": "56f711e105a6b4f35956833cc06f4c8a", "is_reserved": 0, "rental_uris": {"android": "https://dc.lft.to/lastmile_qr_scan", "ios": "https://dc.lft.to/lastmile_qr_scan"}, "fusion_lon": 0.0}, {"lat": 38.86659233333334, "is_disabled": 0, "type": "electric_scooter", "lon": -76.988797, "bike_id": "41746cd9e2955866450e8df6ade3bc5d", "fusion_lat": 0.0, "name": "41746cd9e2955866450e8df6ade3bc5d", "is_reserved": 0, "rental_uris": {"android": "https://dc.lft.to/lastmile_qr_scan", "ios": "https://dc.lft.to/lastmile_qr_scan"}, "fusion_lon": 0.0}, {"lat": 38.9204325, "is_disabled": 0, "type": "electric_scooter", "lon": -77.03473583333333, "bike_id": "00bf909b84f6eb29b9981ef2f5baf15a", "fusion_lat": 0.0, "name": "00bf909b84f6eb29b9981ef2f5baf15a", "is_reserved": 0, "rental_uris": {"android": "https://dc.lft.to/lastmile_qr_scan", "ios": "https://dc.lft.to/lastmile_qr_scan"}, "fusion_lon": 0.0}, {"lat": 38.90022316666666, "is_disabled": 0, "type": "electric_scooter", "lon": -77.02892183333333, "bike_id": "e9ec603a00d1026ab9764e8a459b9294", "fusion_lat": 0.0, "name": "e9ec603a00d1026ab9764e8a459b9294", "is_reserved": 0, "rental_uris": {"android": "https://dc.lft.to/lastmile_qr_scan", "ios": "https://dc.lft.to/lastmile_qr_scan"}, "fusion_lon": 0.0}, {"lat": 38.895125666666665, "is_disabled": 0, "type": "electric_scooter", "lon": -76.97731933333333, "bike_id": "37a86a5d6cdcfc88c8477c312fc2d96e", "fusion_lat": 0.0, "name": "37a86a5d6cdcfc88c8477c312fc2d96e", "is_reserved": 0, "rental_uris": {"android": "https://dc.lft.to/lastmile_qr_scan", "ios": "https://dc.lft.to/lastmile_qr_scan"}, "fusion_lon": 0.0}, {"lat": 38.92199816666667, "is_disabled": 0, "type": "electric_scooter", "lon": -77.04123133333333, "bike_id": "2ead66fab281d07ca66b2ad2852fa554", "fusion_lat": 0.0, "name": "2ead66fab281d07ca66b2ad2852fa554", "is_reserved": 0, "rental_uris": {"android": "https://dc.lft.to/lastmile_qr_scan", "ios": "https://dc.lft.to/lastmile_qr_scan"}, "fusion_lon": 0.0}, {"lat": 38.95497316666667, "is_disabled": 0, "type": "electric_scooter", "lon": -77.06565416666666, "bike_id": "22ba60d4b91c121cc092053639250aeb", "fusion_lat": 0.0, "name": "22ba60d4b91c121cc092053639250aeb", "is_reserved": 0, "rental_uris": {"android": "https://dc.lft.to/lastmile_qr_scan", "ios": "https://dc.lft.to/lastmile_qr_scan"}, "fusion_lon": 0.0}, {"lat": 38.912910833333335, "is_disabled": 0, "type": "electric_scooter", "lon": -77.0451455, "bike_id": "ce1042f28232be50dcac2029f14ebb42", "fusion_lat": 0.0, "name": "ce1042f28232be50dcac2029f14ebb42", "is_reserved": 0, "rental_uris": {"android": "https://dc.lft.to/lastmile_qr_scan", "ios": "https://dc.lft.to/lastmile_qr_scan"}, "fusion_lon": 0.0}, {"lat": 38.90969066666667, "is_disabled": 0, "type": "electric_scooter", "lon": -77.03299366666667, "bike_id": "aba1c3665d1a80f67ba40ebcc0a242ea", "fusion_lat": 0.0, "name": "aba1c3665d1a80f67ba40ebcc0a242ea", "is_reserved": 0, "rental_uris": {"android": "https://dc.lft.to/lastmile_qr_scan", "ios": "https://dc.lft.to/lastmile_qr_scan"}, "fusion_lon": 0.0}, {"lat": 38.90960533333333, "is_disabled": 0, "type": "electric_scooter", "lon": -77.02278983333333, "bike_id": "f621dd75abe8af4b259368efbdd00f77", "fusion_lat": 0.0, "name": "f621dd75abe8af4b259368efbdd00f77", "is_reserved": 0, "rental_uris": {"android": "https://dc.lft.to/lastmile_qr_scan", "ios": "https://dc.lft.to/lastmile_qr_scan"}, "fusion_lon": 0.0}, {"lat": 38.902726333333334, "is_disabled": 0, "type": "electric_scooter", "lon": -76.97404916666666, "bike_id": "c1974edc7dc5fa94cec5eef3f2c4ceb7", "fusion_lat": 0.0, "name": "c1974edc7dc5fa94cec5eef3f2c4ceb7", "is_reserved": 0, "rental_uris": {"android": "https://dc.lft.to/lastmile_qr_scan", "ios": "https://dc.lft.to/lastmile_qr_scan"}, "fusion_lon": 0.0}, {"lat": 38.87465316666667, "is_disabled": 0, "type": "electric_scooter", "lon": -77.0093365, "bike_id": "0d9627595fd9976a4b578ef73685adb5", "fusion_lat": 0.0, "name": "0d9627595fd9976a4b578ef73685adb5", "is_reserved": 0, "rental_uris": {"android": "https://dc.lft.to/lastmile_qr_scan", "ios": "https://dc.lft.to/lastmile_qr_scan"}, "fusion_lon": 0.0}, {"lat": 38.91813616666666, "is_disabled": 0, "type": "electric_scooter", "lon": -77.01270533333333, "bike_id": "240d1e18c1016ecc446cd62aba4e38a2", "fusion_lat": 0.0, "name": "240d1e18c1016ecc446cd62aba4e38a2", "is_reserved": 0, "rental_uris": {"android": "https://dc.lft.to/lastmile_qr_scan", "ios": "https://dc.lft.to/lastmile_qr_scan"}, "fusion_lon": 0.0}, {"lat": 38.897037166666664, "is_disabled": 0, "type": "electric_scooter", "lon": -77.021284, "bike_id": "9e830c68861cd484946c303aa3a0ec45", "fusion_lat": 0.0, "name": "9e830c68861cd484946c303aa3a0ec45", "is_reserved": 0, "rental_uris": {"android": "https://dc.lft.to/lastmile_qr_scan", "ios": "https://dc.lft.to/lastmile_qr_scan"}, "fusion_lon": 0.0}, {"lat": 38.91780766666667, "is_disabled": 0, "type": "electric_scooter", "lon": -77.02262133333333, "bike_id": "03bdb9b5dde5bf147b2952bd4f671aeb", "fusion_lat": 0.0, "name": "03bdb9b5dde5bf147b2952bd4f671aeb", "is_reserved": 0, "rental_uris": {"android": "https://dc.lft.to/lastmile_qr_scan", "ios": "https://dc.lft.to/lastmile_qr_scan"}, "fusion_lon": 0.0}, {"lat": 38.91716733333333, "is_disabled": 0, "type": "electric_scooter", "lon": -77.03116583333333, "bike_id": "4aa355b400a45c312f96a0182bedddc9", "fusion_lat": 0.0, "name": "4aa355b400a45c312f96a0182bedddc9", "is_reserved": 0, "rental_uris": {"android": "https://dc.lft.to/lastmile_qr_scan", "ios": "https://dc.lft.to/lastmile_qr_scan"}, "fusion_lon": 0.0}, {"lat": 38.870672666666664, "is_disabled": 0, "type": "electric_scooter", "lon": -77.00841783333334, "bike_id": "ffb1a6a9b79e2ff3b8b41cb2052f0690", "fusion_lat": 0.0, "name": "ffb1a6a9b79e2ff3b8b41cb2052f0690", "is_reserved": 0, "rental_uris": {"android": "https://dc.lft.to/lastmile_qr_scan", "ios": "https://dc.lft.to/lastmile_qr_scan"}, "fusion_lon": 0.0}, {"lat": 38.948025, "is_disabled": 0, "type": "electric_scooter", "lon": -77.07907883333333, "bike_id": "c32b9d461c70f0ca6d6d04493fa068dd", "fusion_lat": 0.0, "name": "c32b9d461c70f0ca6d6d04493fa068dd", "is_reserved": 0, "rental_uris": {"android": "https://dc.lft.to/lastmile_qr_scan", "ios": "https://dc.lft.to/lastmile_qr_scan"}, "fusion_lon": 0.0}, {"lat": 38.9, "is_disabled": 0, "type": "electric_scooter", "lon": -76.998639, "bike_id": "d07f8ef45ba6b3c3bd7e92264875cc99", "fusion_lat": 0.0, "name": "d07f8ef45ba6b3c3bd7e92264875cc99", "is_reserved": 0, "rental_uris": {"android": "https://dc.lft.to/lastmile_qr_scan", "ios": "https://dc.lft.to/lastmile_qr_scan"}, "fusion_lon": 0.0}, {"lat": 38.89124866666667, "is_disabled": 0, "type": "electric_scooter", "lon": -76.94091283333333, "bike_id": "69a1fce1a2ee5287e186f85040e3bafc", "fusion_lat": 0.0, "name": "69a1fce1a2ee5287e186f85040e3bafc", "is_reserved": 0, "rental_uris": {"android": "https://dc.lft.to/lastmile_qr_scan", "ios": "https://dc.lft.to/lastmile_qr_scan"}, "fusion_lon": 0.0}, {"lat": 38.919655166666665, "is_disabled": 0, "type": "electric_scooter", "lon": -77.0431695, "bike_id": "710e68fe3d93b72cb7c8f78a93525cd3", "fusion_lat": 0.0, "name": "710e68fe3d93b72cb7c8f78a93525cd3", "is_reserved": 0, "rental_uris": {"android": "https://dc.lft.to/lastmile_qr_scan", "ios": "https://dc.lft.to/lastmile_qr_scan"}, "fusion_lon": 0.0}, {"lat": 38.90467966666667, "is_disabled": 0, "type": "electric_scooter", "lon": -77.03233083333333, "bike_id": "5f8762e765668d03161c260f8af89b4c", "fusion_lat": 0.0, "name": "5f8762e765668d03161c260f8af89b4c", "is_reserved": 0, "rental_uris": {"android": "https://dc.lft.to/lastmile_qr_scan", "ios": "https://dc.lft.to/lastmile_qr_scan"}, "fusion_lon": 0.0}, {"lat": 38.90517666666667, "is_disabled": 0, "type": "electric_scooter", "lon": -77.06880583333333, "bike_id": "8cf94b2efaab32e9d78530d1ca2862be", "fusion_lat": 0.0, "name": "8cf94b2efaab32e9d78530d1ca2862be", "is_reserved": 0, "rental_uris": {"android": "https://dc.lft.to/lastmile_qr_scan", "ios": "https://dc.lft.to/lastmile_qr_scan"}, "fusion_lon": 0.0}, {"lat": 38.9354255, "is_disabled": 0, "type": "electric_scooter", "lon": -77.03412133333333, "bike_id": "01d120e8b271747160dc74eab8ac5aaa", "fusion_lat": 0.0, "name": "01d120e8b271747160dc74eab8ac5aaa", "is_reserved": 0, "rental_uris": {"android": "https://dc.lft.to/lastmile_qr_scan", "ios": "https://dc.lft.to/lastmile_qr_scan"}, "fusion_lon": 0.0}, {"lat": 38.93336083333333, "is_disabled": 0, "type": "electric_scooter", "lon": -77.057045, "bike_id": "b1cb5791ce15b877eb778c4a829233d5", "fusion_lat": 0.0, "name": "b1cb5791ce15b877eb778c4a829233d5", "is_reserved": 0, "rental_uris": {"android": "https://dc.lft.to/lastmile_qr_scan", "ios": "https://dc.lft.to/lastmile_qr_scan"}, "fusion_lon": 0.0}, {"lat": 38.901349, "is_disabled": 0, "type": "electric_scooter", "lon": -77.01809233333333, "bike_id": "da48a8a2d07d6f91badddad1fed00714", "fusion_lat": 0.0, "name": "da48a8a2d07d6f91badddad1fed00714", "is_reserved": 0, "rental_uris": {"android": "https://dc.lft.to/lastmile_qr_scan", "ios": "https://dc.lft.to/lastmile_qr_scan"}, "fusion_lon": 0.0}, {"lat": 38.916738333333335, "is_disabled": 0, "type": "electric_scooter", "lon": -77.02287016666666, "bike_id": "b56a8ab38eb4fc244258a9e825d87482", "fusion_lat": 0.0, "name": "b56a8ab38eb4fc244258a9e825d87482", "is_reserved": 0, "rental_uris": {"android": "https://dc.lft.to/lastmile_qr_scan", "ios": "https://dc.lft.to/lastmile_qr_scan"}, "fusion_lon": 0.0}, {"lat": 38.88436466666667, "is_disabled": 0, "type": "electric_scooter", "lon": -77.03045883333333, "bike_id": "65b6ae8467dfa09bac242069085774a7", "fusion_lat": 0.0, "name": "65b6ae8467dfa09bac242069085774a7", "is_reserved": 0, "rental_uris": {"android": "https://dc.lft.to/lastmile_qr_scan", "ios": "https://dc.lft.to/lastmile_qr_scan"}, "fusion_lon": 0.0}, {"lat": 39.01589366666666, "is_disabled": 0, "type": "electric_bike", "lon": -77.04426466666666, "bike_id": "979ca8ec9edb841bfa49b4390503bf27", "fusion_lat": 0.0, "name": "979ca8ec9edb841bfa49b4390503bf27", "is_reserved": 0, "rental_uris": {"android": "https://dc.lft.to/lastmile_qr_scan", "ios": "https://dc.lft.to/lastmile_qr_scan"}, "fusion_lon": 0.0}, {"lat": 38.9108155, "is_disabled": 0, "type": "electric_scooter", "lon": -77.07643166666666, "bike_id": "f07794bd8875f0cc353427c272a304e5", "fusion_lat": 0.0, "name": "f07794bd8875f0cc353427c272a304e5", "is_reserved": 0, "rental_uris": {"android": "https://dc.lft.to/lastmile_qr_scan", "ios": "https://dc.lft.to/lastmile_qr_scan"}, "fusion_lon": 0.0}, {"lat": 38.896764166666664, "is_disabled": 0, "type": "electric_scooter", "lon": -77.02413383333334, "bike_id": "0aec748061f4572042913116587d0eaf", "fusion_lat": 0.0, "name": "0aec748061f4572042913116587d0eaf", "is_reserved": 0, "rental_uris": {"android": "https://dc.lft.to/lastmile_qr_scan", "ios": "https://dc.lft.to/lastmile_qr_scan"}, "fusion_lon": 0.0}, {"lat": 38.9053495, "is_disabled": 0, "type": "electric_scooter", "lon": -77.05933416666667, "bike_id": "275dc8559a4bfc55d70434674fd076ef", "fusion_lat": 0.0, "name": "275dc8559a4bfc55d70434674fd076ef", "is_reserved": 0, "rental_uris": {"android": "https://dc.lft.to/lastmile_qr_scan", "ios": "https://dc.lft.to/lastmile_qr_scan"}, "fusion_lon": 0.0}, {"lat": 38.905678, "is_disabled": 0, "type": "electric_scooter", "lon": -77.02097766666667, "bike_id": "5ae337faad753ab0df064c5bb00084ee", "fusion_lat": 0.0, "name": "5ae337faad753ab0df064c5bb00084ee", "is_reserved": 0, "rental_uris": {"android": "https://dc.lft.to/lastmile_qr_scan", "ios": "https://dc.lft.to/lastmile_qr_scan"}, "fusion_lon": 0.0}, {"lat": 38.905567166666664, "is_disabled": 0, "type": "electric_bike", "lon": -77.00389883333334, "bike_id": "68ea9fbb7c146a8d288b915b52ebfa16", "fusion_lat": 0.0, "name": "68ea9fbb7c146a8d288b915b52ebfa16", "is_reserved": 0, "rental_uris": {"android": "https://dc.lft.to/lastmile_qr_scan", "ios": "https://dc.lft.to/lastmile_qr_scan"}, "fusion_lon": 0.0}, {"lat": 38.904843, "is_disabled": 0, "type": "electric_scooter", "lon": -77.00129483333333, "bike_id": "95f32033174c7146923a3a5b13c0b5d1", "fusion_lat": 0.0, "name": "95f32033174c7146923a3a5b13c0b5d1", "is_reserved": 0, "rental_uris": {"android": "https://dc.lft.to/lastmile_qr_scan", "ios": "https://dc.lft.to/lastmile_qr_scan"}, "fusion_lon": 0.0}, {"lat": 38.8876345, "is_disabled": 0, "type": "electric_scooter", "lon": -76.955954, "bike_id": "f61123c7eccdeff50fe6a2d5112e47b1", "fusion_lat": 0.0, "name": "f61123c7eccdeff50fe6a2d5112e47b1", "is_reserved": 0, "rental_uris": {"android": "https://dc.lft.to/lastmile_qr_scan", "ios": "https://dc.lft.to/lastmile_qr_scan"}, "fusion_lon": 0.0}, {"lat": 38.91770966666667, "is_disabled": 0, "type": "electric_scooter", "lon": -77.01489966666666, "bike_id": "207f319e94763ad26d7ffb71817a8848", "fusion_lat": 0.0, "name": "207f319e94763ad26d7ffb71817a8848", "is_reserved": 0, "rental_uris": {"android": "https://dc.lft.to/lastmile_qr_scan", "ios": "https://dc.lft.to/lastmile_qr_scan"}, "fusion_lon": 0.0}, {"lat": 38.907301, "is_disabled": 0, "type": "electric_scooter", "lon": -77.02374366666666, "bike_id": "be8d18bcce4cd4df1feb612ec6cdf146", "fusion_lat": 0.0, "name": "be8d18bcce4cd4df1feb612ec6cdf146", "is_reserved": 0, "rental_uris": {"android": "https://dc.lft.to/lastmile_qr_scan", "ios": "https://dc.lft.to/lastmile_qr_scan"}, "fusion_lon": 0.0}, {"lat": 38.892245833333334, "is_disabled": 0, "type": "electric_scooter", "lon": -77.04867116666667, "bike_id": "38a8c5776a823a3585f7cd154ab46778", "fusion_lat": 0.0, "name": "38a8c5776a823a3585f7cd154ab46778", "is_reserved": 0, "rental_uris": {"android": "https://dc.lft.to/lastmile_qr_scan", "ios": "https://dc.lft.to/lastmile_qr_scan"}, "fusion_lon": 0.0}, {"lat": 38.912007333333335, "is_disabled": 0, "type": "electric_scooter", "lon": -77.0044265, "bike_id": "5fb5e1f22afe2ffd40c728ada164eb80", "fusion_lat": 0.0, "name": "5fb5e1f22afe2ffd40c728ada164eb80", "is_reserved": 0, "rental_uris": {"android": "https://dc.lft.to/lastmile_qr_scan", "ios": "https://dc.lft.to/lastmile_qr_scan"}, "fusion_lon": 0.0}, {"lat": 38.902612166666664, "is_disabled": 0, "type": "electric_scooter", "lon": -77.01733466666667, "bike_id": "f4ee6603b35e2a866e6a55287e83b445", "fusion_lat": 0.0, "name": "f4ee6603b35e2a866e6a55287e83b445", "is_reserved": 0, "rental_uris": {"android": "https://dc.lft.to/lastmile_qr_scan", "ios": "https://dc.lft.to/lastmile_qr_scan"}, "fusion_lon": 0.0}, {"lat": 38.9151, "is_disabled": 0, "type": "electric_scooter", "lon": -77.038378, "bike_id": "698dc7fb6c8f1565764ce88a12ac9574", "fusion_lat": 0.0, "name": "698dc7fb6c8f1565764ce88a12ac9574", "is_reserved": 0, "rental_uris": {"android": "https://dc.lft.to/lastmile_qr_scan", "ios": "https://dc.lft.to/lastmile_qr_scan"}, "fusion_lon": 0.0}, {"lat": 38.90867466666667, "is_disabled": 0, "type": "electric_scooter", "lon": -77.08592833333333, "bike_id": "2ceae621cb008ee0c607d2a860cdef1d", "fusion_lat": 0.0, "name": "2ceae621cb008ee0c607d2a860cdef1d", "is_reserved": 0, "rental_uris": {"android": "https://dc.lft.to/lastmile_qr_scan", "ios": "https://dc.lft.to/lastmile_qr_scan"}, "fusion_lon": 0.0}, {"lat": 38.9347465, "is_disabled": 0, "type": "electric_scooter", "lon": -77.07266966666667, "bike_id": "59ac13d3447870f14785c372adc3d526", "fusion_lat": 0.0, "name": "59ac13d3447870f14785c372adc3d526", "is_reserved": 0, "rental_uris": {"android": "https://dc.lft.to/lastmile_qr_scan", "ios": "https://dc.lft.to/lastmile_qr_scan"}, "fusion_lon": 0.0}, {"lat": 38.90767833333334, "is_disabled": 0, "type": "electric_scooter", "lon": -77.068103, "bike_id": "7b0f54947540f985006ceae90176b5df", "fusion_lat": 0.0, "name": "7b0f54947540f985006ceae90176b5df", "is_reserved": 0, "rental_uris": {"android": "https://dc.lft.to/lastmile_qr_scan", "ios": "https://dc.lft.to/lastmile_qr_scan"}, "fusion_lon": 0.0}, {"lat": 38.9363085, "is_disabled": 0, "type": "electric_scooter", "lon": -77.0587925, "bike_id": "5374e47dbcb2d27e214774dedc3cf422", "fusion_lat": 0.0, "name": "5374e47dbcb2d27e214774dedc3cf422", "is_reserved": 0, "rental_uris": {"android": "https://dc.lft.to/lastmile_qr_scan", "ios": "https://dc.lft.to/lastmile_qr_scan"}, "fusion_lon": 0.0}, {"lat": 38.90972133333333, "is_disabled": 0, "type": "electric_scooter", "lon": -77.032113, "bike_id": "2664cd9c12a6ec3f74395b2652d0c9b6", "fusion_lat": 0.0, "name": "2664cd9c12a6ec3f74395b2652d0c9b6", "is_reserved": 0, "rental_uris": {"android": "https://dc.lft.to/lastmile_qr_scan", "ios": "https://dc.lft.to/lastmile_qr_scan"}, "fusion_lon": 0.0}, {"lat": 38.91351816666667, "is_disabled": 0, "type": "electric_scooter", "lon": -77.031907, "bike_id": "9f559bbc3baf6e907335b34f57f02d23", "fusion_lat": 0.0, "name": "9f559bbc3baf6e907335b34f57f02d23", "is_reserved": 0, "rental_uris": {"android": "https://dc.lft.to/lastmile_qr_scan", "ios": "https://dc.lft.to/lastmile_qr_scan"}, "fusion_lon": 0.0}, {"lat": 38.90728133333333, "is_disabled": 0, "type": "electric_scooter", "lon": -77.0035, "bike_id": "f039e192eba54a65dff6fffb355bf30c", "fusion_lat": 0.0, "name": "f039e192eba54a65dff6fffb355bf30c", "is_reserved": 0, "rental_uris": {"android": "https://dc.lft.to/lastmile_qr_scan", "ios": "https://dc.lft.to/lastmile_qr_scan"}, "fusion_lon": 0.0}, {"lat": 38.932115833333334, "is_disabled": 0, "type": "electric_scooter", "lon": -77.03664333333333, "bike_id": "c7e47a6c3bf0fd7ebe98cf42e438890f", "fusion_lat": 0.0, "name": "c7e47a6c3bf0fd7ebe98cf42e438890f", "is_reserved": 0, "rental_uris": {"android": "https://dc.lft.to/lastmile_qr_scan", "ios": "https://dc.lft.to/lastmile_qr_scan"}, "fusion_lon": 0.0}, {"lat": 38.916922, "is_disabled": 0, "type": "electric_scooter", "lon": -77.008142, "bike_id": "d68e90e70247bde95607a14db6d32952", "fusion_lat": 0.0, "name": "d68e90e70247bde95607a14db6d32952", "is_reserved": 0, "rental_uris": {"android": "https://dc.lft.to/lastmile_qr_scan", "ios": "https://dc.lft.to/lastmile_qr_scan"}, "fusion_lon": 0.0}, {"lat": 38.930623833333335, "is_disabled": 0, "type": "electric_scooter", "lon": -77.03155766666667, "bike_id": "d4a14096c596bed4b025e9c1e806e4f7", "fusion_lat": 0.0, "name": "d4a14096c596bed4b025e9c1e806e4f7", "is_reserved": 0, "rental_uris": {"android": "https://dc.lft.to/lastmile_qr_scan", "ios": "https://dc.lft.to/lastmile_qr_scan"}, "fusion_lon": 0.0}, {"lat": 38.859105166666666, "is_disabled": 0, "type": "electric_scooter", "lon": -76.99138583333334, "bike_id": "cd33dba020d94c7645f1ce8d0ee141bc", "fusion_lat": 0.0, "name": "cd33dba020d94c7645f1ce8d0ee141bc", "is_reserved": 0, "rental_uris": {"android": "https://dc.lft.to/lastmile_qr_scan", "ios": "https://dc.lft.to/lastmile_qr_scan"}, "fusion_lon": 0.0}, {"lat": 38.90624733333333, "is_disabled": 0, "type": "electric_scooter", "lon": -76.98985466666667, "bike_id": "d07c50ed56358daf5c683e11d82decc8", "fusion_lat": 0.0, "name": "d07c50ed56358daf5c683e11d82decc8", "is_reserved": 0, "rental_uris": {"android": "https://dc.lft.to/lastmile_qr_scan", "ios": "https://dc.lft.to/lastmile_qr_scan"}, "fusion_lon": 0.0}, {"lat": 38.89609, "is_disabled": 0, "type": "electric_bike", "lon": -77.02215516666666, "bike_id": "84c28b0c67d66dfc765cd71e37e5c470", "fusion_lat": 0.0, "name": "84c28b0c67d66dfc765cd71e37e5c470", "is_reserved": 0, "rental_uris": {"android": "https://dc.lft.to/lastmile_qr_scan", "ios": "https://dc.lft.to/lastmile_qr_scan"}, "fusion_lon": 0.0}, {"lat": 38.89911083333333, "is_disabled": 0, "type": "electric_scooter", "lon": -76.93349666666667, "bike_id": "41dc1fc400d12e40f70686b801a2a2a0", "fusion_lat": 0.0, "name": "41dc1fc400d12e40f70686b801a2a2a0", "is_reserved": 0, "rental_uris": {"android": "https://dc.lft.to/lastmile_qr_scan", "ios": "https://dc.lft.to/lastmile_qr_scan"}, "fusion_lon": 0.0}, {"lat": 38.89115483333333, "is_disabled": 0, "type": "electric_scooter", "lon": -76.94389666666666, "bike_id": "1a7fcd2531b0302e83142f2bb72f7260", "fusion_lat": 0.0, "name": "1a7fcd2531b0302e83142f2bb72f7260", "is_reserved": 0, "rental_uris": {"android": "https://dc.lft.to/lastmile_qr_scan", "ios": "https://dc.lft.to/lastmile_qr_scan"}, "fusion_lon": 0.0}, {"lat": 38.930585, "is_disabled": 0, "type": "electric_scooter", "lon": -77.041782, "bike_id": "e654fc3ac90bb540cc52a79b016a3c39", "fusion_lat": 0.0, "name": "e654fc3ac90bb540cc52a79b016a3c39", "is_reserved": 0, "rental_uris": {"android": "https://dc.lft.to/lastmile_qr_scan", "ios": "https://dc.lft.to/lastmile_qr_scan"}, "fusion_lon": 0.0}, {"lat": 38.88750566666667, "is_disabled": 0, "type": "electric_scooter", "lon": -77.03149933333333, "bike_id": "14ee9f288a5f2700574720ca85e74f86", "fusion_lat": 0.0, "name": "14ee9f288a5f2700574720ca85e74f86", "is_reserved": 0, "rental_uris": {"android": "https://dc.lft.to/lastmile_qr_scan", "ios": "https://dc.lft.to/lastmile_qr_scan"}, "fusion_lon": 0.0}, {"lat": 38.900343166666666, "is_disabled": 0, "type": "electric_scooter", "lon": -77.00206266666666, "bike_id": "8f551cc14e545fb7a8010861933b8742", "fusion_lat": 0.0, "name": "8f551cc14e545fb7a8010861933b8742", "is_reserved": 0, "rental_uris": {"android": "https://dc.lft.to/lastmile_qr_scan", "ios": "https://dc.lft.to/lastmile_qr_scan"}, "fusion_lon": 0.0}, {"lat": 38.9347995, "is_disabled": 0, "type": "electric_scooter", "lon": -77.05790633333334, "bike_id": "152e5ad97ff2373ca035c1e5b13108ce", "fusion_lat": 0.0, "name": "152e5ad97ff2373ca035c1e5b13108ce", "is_reserved": 0, "rental_uris": {"android": "https://dc.lft.to/lastmile_qr_scan", "ios": "https://dc.lft.to/lastmile_qr_scan"}, "fusion_lon": 0.0}, {"lat": 38.925472166666665, "is_disabled": 0, "type": "electric_scooter", "lon": -77.03448783333333, "bike_id": "011c968841c3c0e7ea8eef004fce48f6", "fusion_lat": 0.0, "name": "011c968841c3c0e7ea8eef004fce48f6", "is_reserved": 0, "rental_uris": {"android": "https://dc.lft.to/lastmile_qr_scan", "ios": "https://dc.lft.to/lastmile_qr_scan"}, "fusion_lon": 0.0}, {"lat": 38.96610233333333, "is_disabled": 0, "type": "electric_scooter", "lon": -77.02058516666666, "bike_id": "5100911d1d4e0ee625efb24773bd7fbb", "fusion_lat": 0.0, "name": "5100911d1d4e0ee625efb24773bd7fbb", "is_reserved": 0, "rental_uris": {"android": "https://dc.lft.to/lastmile_qr_scan", "ios": "https://dc.lft.to/lastmile_qr_scan"}, "fusion_lon": 0.0}, {"lat": 38.858127833333334, "is_disabled": 0, "type": "electric_scooter", "lon": -76.986511, "bike_id": "7c2e1f8238579e57bc222cf3bffab305", "fusion_lat": 0.0, "name": "7c2e1f8238579e57bc222cf3bffab305", "is_reserved": 0, "rental_uris": {"android": "https://dc.lft.to/lastmile_qr_scan", "ios": "https://dc.lft.to/lastmile_qr_scan"}, "fusion_lon": 0.0}, {"lat": 38.90260283333333, "is_disabled": 0, "type": "electric_scooter", "lon": -77.0176045, "bike_id": "ad6e04aacf04551f3a12cc62576dea8c", "fusion_lat": 0.0, "name": "ad6e04aacf04551f3a12cc62576dea8c", "is_reserved": 0, "rental_uris": {"android": "https://dc.lft.to/lastmile_qr_scan", "ios": "https://dc.lft.to/lastmile_qr_scan"}, "fusion_lon": 0.0}, {"lat": 38.924808, "is_disabled": 0, "type": "electric_scooter", "lon": -77.03185166666667, "bike_id": "af2ab678e56fb3ce46f07f4f55cc1786", "fusion_lat": 0.0, "name": "af2ab678e56fb3ce46f07f4f55cc1786", "is_reserved": 0, "rental_uris": {"android": "https://dc.lft.to/lastmile_qr_scan", "ios": "https://dc.lft.to/lastmile_qr_scan"}, "fusion_lon": 0.0}, {"lat": 38.9154665, "is_disabled": 0, "type": "electric_scooter", "lon": -77.02201616666666, "bike_id": "b32234105c53a643117e4ec6ea07877b", "fusion_lat": 0.0, "name": "b32234105c53a643117e4ec6ea07877b", "is_reserved": 0, "rental_uris": {"android": "https://dc.lft.to/lastmile_qr_scan", "ios": "https://dc.lft.to/lastmile_qr_scan"}, "fusion_lon": 0.0}, {"lat": 38.900218333333335, "is_disabled": 0, "type": "electric_scooter", "lon": -76.99867516666667, "bike_id": "b973673ff14566fdf7f4a05b7734e308", "fusion_lat": 0.0, "name": "b973673ff14566fdf7f4a05b7734e308", "is_reserved": 0, "rental_uris": {"android": "https://dc.lft.to/lastmile_qr_scan", "ios": "https://dc.lft.to/lastmile_qr_scan"}, "fusion_lon": 0.0}, {"lat": 38.915497, "is_disabled": 0, "type": "electric_scooter", "lon": -77.03239516666666, "bike_id": "89546b85c12bf26a69db2ed750cd39ee", "fusion_lat": 0.0, "name": "89546b85c12bf26a69db2ed750cd39ee", "is_reserved": 0, "rental_uris": {"android": "https://dc.lft.to/lastmile_qr_scan", "ios": "https://dc.lft.to/lastmile_qr_scan"}, "fusion_lon": 0.0}, {"lat": 39.051945833333335, "is_disabled": 0, "type": "electric_bike", "lon": -77.10915383333334, "bike_id": "f23f08d206b224ad7ac6dc00ab4aaaa4", "fusion_lat": 0.0, "name": "f23f08d206b224ad7ac6dc00ab4aaaa4", "is_reserved": 0, "rental_uris": {"android": "https://dc.lft.to/lastmile_qr_scan", "ios": "https://dc.lft.to/lastmile_qr_scan"}, "fusion_lon": 0.0}, {"lat": 38.91775066666667, "is_disabled": 0, "type": "electric_scooter", "lon": -77.02309166666667, "bike_id": "6ad102f6db6f62a69a26288e5698876b", "fusion_lat": 0.0, "name": "6ad102f6db6f62a69a26288e5698876b", "is_reserved": 0, "rental_uris": {"android": "https://dc.lft.to/lastmile_qr_scan", "ios": "https://dc.lft.to/lastmile_qr_scan"}, "fusion_lon": 0.0}, {"lat": 38.90062233333333, "is_disabled": 0, "type": "electric_scooter", "lon": -77.02604833333334, "bike_id": "a4a5e04fe7e2db4166f7ffb60349196d", "fusion_lat": 0.0, "name": "a4a5e04fe7e2db4166f7ffb60349196d", "is_reserved": 0, "rental_uris": {"android": "https://dc.lft.to/lastmile_qr_scan", "ios": "https://dc.lft.to/lastmile_qr_scan"}, "fusion_lon": 0.0}, {"lat": 38.91971933333333, "is_disabled": 0, "type": "electric_scooter", "lon": -77.01360983333333, "bike_id": "5b9a330dafb46c6251180413d265091a", "fusion_lat": 0.0, "name": "5b9a330dafb46c6251180413d265091a", "is_reserved": 0, "rental_uris": {"android": "https://dc.lft.to/lastmile_qr_scan", "ios": "https://dc.lft.to/lastmile_qr_scan"}, "fusion_lon": 0.0}, {"lat": 38.91747616666667, "is_disabled": 0, "type": "electric_scooter", "lon": -77.03662, "bike_id": "9cb2dc20cdae970f56129ceae9aacaa2", "fusion_lat": 0.0, "name": "9cb2dc20cdae970f56129ceae9aacaa2", "is_reserved": 0, "rental_uris": {"android": "https://dc.lft.to/lastmile_qr_scan", "ios": "https://dc.lft.to/lastmile_qr_scan"}, "fusion_lon": 0.0}, {"lat": 38.892211333333336, "is_disabled": 0, "type": "electric_scooter", "lon": -77.043659, "bike_id": "d384678f8e0bab9f5bdfa4247004e0b6", "fusion_lat": 0.0, "name": "d384678f8e0bab9f5bdfa4247004e0b6", "is_reserved": 0, "rental_uris": {"android": "https://dc.lft.to/lastmile_qr_scan", "ios": "https://dc.lft.to/lastmile_qr_scan"}, "fusion_lon": 0.0}, {"lat": 38.89009733333333, "is_disabled": 0, "type": "electric_scooter", "lon": -76.93752566666667, "bike_id": "6e235f721a53044d2ac907ad929ded46", "fusion_lat": 0.0, "name": "6e235f721a53044d2ac907ad929ded46", "is_reserved": 0, "rental_uris": {"android": "https://dc.lft.to/lastmile_qr_scan", "ios": "https://dc.lft.to/lastmile_qr_scan"}, "fusion_lon": 0.0}, {"lat": 38.9096245, "is_disabled": 0, "type": "electric_scooter", "lon": -77.047894, "bike_id": "2f231e37b06d7950f6e99566df092cbe", "fusion_lat": 0.0, "name": "2f231e37b06d7950f6e99566df092cbe", "is_reserved": 0, "rental_uris": {"android": "https://dc.lft.to/lastmile_qr_scan", "ios": "https://dc.lft.to/lastmile_qr_scan"}, "fusion_lon": 0.0}, {"lat": 38.929488666666664, "is_disabled": 0, "type": "electric_scooter", "lon": -77.01890283333333, "bike_id": "13ee61a551f4c58dffa991c361d33e31", "fusion_lat": 0.0, "name": "13ee61a551f4c58dffa991c361d33e31", "is_reserved": 0, "rental_uris": {"android": "https://dc.lft.to/lastmile_qr_scan", "ios": "https://dc.lft.to/lastmile_qr_scan"}, "fusion_lon": 0.0}, {"lat": 38.90391666666667, "is_disabled": 0, "type": "electric_scooter", "lon": -77.05380766666667, "bike_id": "f26c112f3c6ed8777a67dcc15fb7fa25", "fusion_lat": 0.0, "name": "f26c112f3c6ed8777a67dcc15fb7fa25", "is_reserved": 0, "rental_uris": {"android": "https://dc.lft.to/lastmile_qr_scan", "ios": "https://dc.lft.to/lastmile_qr_scan"}, "fusion_lon": 0.0}, {"lat": 38.90005816666667, "is_disabled": 0, "type": "electric_scooter", "lon": -77.04485716666667, "bike_id": "482d4d997aa8606e02c733e6bad30f7b", "fusion_lat": 0.0, "name": "482d4d997aa8606e02c733e6bad30f7b", "is_reserved": 0, "rental_uris": {"android": "https://dc.lft.to/lastmile_qr_scan", "ios": "https://dc.lft.to/lastmile_qr_scan"}, "fusion_lon": 0.0}, {"lat": 38.90911116666667, "is_disabled": 0, "type": "electric_scooter", "lon": -77.03647483333333, "bike_id": "14f8e7c11869f9728c30d074f1973cc7", "fusion_lat": 0.0, "name": "14f8e7c11869f9728c30d074f1973cc7", "is_reserved": 0, "rental_uris": {"android": "https://dc.lft.to/lastmile_qr_scan", "ios": "https://dc.lft.to/lastmile_qr_scan"}, "fusion_lon": 0.0}, {"lat": 38.9111875, "is_disabled": 0, "type": "electric_scooter", "lon": -77.038329, "bike_id": "76dfef003eec2bdf8ef7f9b497b4658d", "fusion_lat": 0.0, "name": "76dfef003eec2bdf8ef7f9b497b4658d", "is_reserved": 0, "rental_uris": {"android": "https://dc.lft.to/lastmile_qr_scan", "ios": "https://dc.lft.to/lastmile_qr_scan"}, "fusion_lon": 0.0}, {"lat": 38.910454666666666, "is_disabled": 0, "type": "electric_scooter", "lon": -77.04092716666666, "bike_id": "4462e8b45851f10202af18fee2ac9d44", "fusion_lat": 0.0, "name": "4462e8b45851f10202af18fee2ac9d44", "is_reserved": 0, "rental_uris": {"android": "https://dc.lft.to/lastmile_qr_scan", "ios": "https://dc.lft.to/lastmile_qr_scan"}, "fusion_lon": 0.0}, {"lat": 38.8858205, "is_disabled": 0, "type": "electric_scooter", "lon": -77.01225266666667, "bike_id": "5f354976896ee118b3ee9d801217fd86", "fusion_lat": 0.0, "name": "5f354976896ee118b3ee9d801217fd86", "is_reserved": 0, "rental_uris": {"android": "https://dc.lft.to/lastmile_qr_scan", "ios": "https://dc.lft.to/lastmile_qr_scan"}, "fusion_lon": 0.0}, {"lat": 38.93616, "is_disabled": 0, "type": "electric_scooter", "lon": -77.03213, "bike_id": "d32e59ac514378c64391ecc143baea14", "fusion_lat": 0.0, "name": "d32e59ac514378c64391ecc143baea14", "is_reserved": 0, "rental_uris": {"android": "https://dc.lft.to/lastmile_qr_scan", "ios": "https://dc.lft.to/lastmile_qr_scan"}, "fusion_lon": 0.0}, {"lat": 38.86232916666667, "is_disabled": 0, "type": "electric_scooter", "lon": -76.99552166666666, "bike_id": "ed891c9f9b49f289707b3529717fa295", "fusion_lat": 0.0, "name": "ed891c9f9b49f289707b3529717fa295", "is_reserved": 0, "rental_uris": {"android": "https://dc.lft.to/lastmile_qr_scan", "ios": "https://dc.lft.to/lastmile_qr_scan"}, "fusion_lon": 0.0}, {"lat": 38.92056516666667, "is_disabled": 0, "type": "electric_scooter", "lon": -77.02374833333333, "bike_id": "65f0b6f421da06a2492cd1e19c42a977", "fusion_lat": 0.0, "name": "65f0b6f421da06a2492cd1e19c42a977", "is_reserved": 0, "rental_uris": {"android": "https://dc.lft.to/lastmile_qr_scan", "ios": "https://dc.lft.to/lastmile_qr_scan"}, "fusion_lon": 0.0}, {"lat": 38.9077875, "is_disabled": 0, "type": "electric_scooter", "lon": -77.03856716666667, "bike_id": "d11a87950e0d490863ac85a4703dc48a", "fusion_lat": 0.0, "name": "d11a87950e0d490863ac85a4703dc48a", "is_reserved": 0, "rental_uris": {"android": "https://dc.lft.to/lastmile_qr_scan", "ios": "https://dc.lft.to/lastmile_qr_scan"}, "fusion_lon": 0.0}, {"lat": 39.03039283333333, "is_disabled": 0, "type": "electric_bike", "lon": -77.09479466666667, "bike_id": "960dbc81f11efed4ea4447214beed448", "fusion_lat": 0.0, "name": "960dbc81f11efed4ea4447214beed448", "is_reserved": 0, "rental_uris": {"android": "https://dc.lft.to/lastmile_qr_scan", "ios": "https://dc.lft.to/lastmile_qr_scan"}, "fusion_lon": 0.0}, {"lat": 38.92834366666666, "is_disabled": 0, "type": "electric_scooter", "lon": -77.05420933333333, "bike_id": "aa72fb3f1d479980212fc7c7f0fd3a3d", "fusion_lat": 0.0, "name": "aa72fb3f1d479980212fc7c7f0fd3a3d", "is_reserved": 0, "rental_uris": {"android": "https://dc.lft.to/lastmile_qr_scan", "ios": "https://dc.lft.to/lastmile_qr_scan"}, "fusion_lon": 0.0}, {"lat": 38.872105166666664, "is_disabled": 0, "type": "electric_scooter", "lon": -77.0176445, "bike_id": "ffe30143d987969dc442eda9b01d06aa", "fusion_lat": 0.0, "name": "ffe30143d987969dc442eda9b01d06aa", "is_reserved": 0, "rental_uris": {"android": "https://dc.lft.to/lastmile_qr_scan", "ios": "https://dc.lft.to/lastmile_qr_scan"}, "fusion_lon": 0.0}, {"lat": 38.916876, "is_disabled": 0, "type": "electric_scooter", "lon": -77.0295935, "bike_id": "5ded68c53ab782acd11412b7d1d87568", "fusion_lat": 0.0, "name": "5ded68c53ab782acd11412b7d1d87568", "is_reserved": 0, "rental_uris": {"android": "https://dc.lft.to/lastmile_qr_scan", "ios": "https://dc.lft.to/lastmile_qr_scan"}, "fusion_lon": 0.0}, {"lat": 39.02423616666667, "is_disabled": 0, "type": "electric_bike", "lon": -77.131026, "bike_id": "fa1d059f90384af6a41aff47fefee1b6", "fusion_lat": 0.0, "name": "fa1d059f90384af6a41aff47fefee1b6", "is_reserved": 0, "rental_uris": {"android": "https://dc.lft.to/lastmile_qr_scan", "ios": "https://dc.lft.to/lastmile_qr_scan"}, "fusion_lon": 0.0}, {"lat": 38.9649395, "is_disabled": 0, "type": "electric_bike", "lon": -76.93843183333334, "bike_id": "c8ea4438c100c859e6253eb694f90c1c", "fusion_lat": 0.0, "name": "c8ea4438c100c859e6253eb694f90c1c", "is_reserved": 0, "rental_uris": {"android": "https://dc.lft.to/lastmile_qr_scan", "ios": "https://dc.lft.to/lastmile_qr_scan"}, "fusion_lon": 0.0}, {"lat": 38.89994633333333, "is_disabled": 0, "type": "electric_scooter", "lon": -77.03354916666666, "bike_id": "69f41d27322165b63f2143b53a503598", "fusion_lat": 0.0, "name": "69f41d27322165b63f2143b53a503598", "is_reserved": 0, "rental_uris": {"android": "https://dc.lft.to/lastmile_qr_scan", "ios": "https://dc.lft.to/lastmile_qr_scan"}, "fusion_lon": 0.0}, {"lat": 38.9022205, "is_disabled": 0, "type": "electric_scooter", "lon": -77.0163915, "bike_id": "edd4b2bd60881f57a28dc3c90e6f819b", "fusion_lat": 0.0, "name": "edd4b2bd60881f57a28dc3c90e6f819b", "is_reserved": 0, "rental_uris": {"android": "https://dc.lft.to/lastmile_qr_scan", "ios": "https://dc.lft.to/lastmile_qr_scan"}, "fusion_lon": 0.0}, {"lat": 38.955423, "is_disabled": 0, "type": "electric_bike", "lon": -76.93534616666666, "bike_id": "793f68aed2b50f99dd0a4c7995ab3bd8", "fusion_lat": 0.0, "name": "793f68aed2b50f99dd0a4c7995ab3bd8", "is_reserved": 0, "rental_uris": {"android": "https://dc.lft.to/lastmile_qr_scan", "ios": "https://dc.lft.to/lastmile_qr_scan"}, "fusion_lon": 0.0}, {"lat": 38.93704733333333, "is_disabled": 0, "type": "electric_bike", "lon": -77.025331, "bike_id": "136242de422f6f763c0976e6219e4bd0", "fusion_lat": 0.0, "name": "136242de422f6f763c0976e6219e4bd0", "is_reserved": 0, "rental_uris": {"android": "https://dc.lft.to/lastmile_qr_scan", "ios": "https://dc.lft.to/lastmile_qr_scan"}, "fusion_lon": 0.0}, {"lat": 38.84290716666667, "is_disabled": 0, "type": "electric_scooter", "lon": -76.99949316666667, "bike_id": "53f2ddeb5d6d3dfe08f844cf0587fa63", "fusion_lat": 0.0, "name": "53f2ddeb5d6d3dfe08f844cf0587fa63", "is_reserved": 0, "rental_uris": {"android": "https://dc.lft.to/lastmile_qr_scan", "ios": "https://dc.lft.to/lastmile_qr_scan"}, "fusion_lon": 0.0}, {"lat": 38.881273166666666, "is_disabled": 0, "type": "electric_bike", "lon": -77.02709633333333, "bike_id": "acfe7f17165f2a832d45b6faa042f15c", "fusion_lat": 0.0, "name": "acfe7f17165f2a832d45b6faa042f15c", "is_reserved": 0, "rental_uris": {"android": "https://dc.lft.to/lastmile_qr_scan", "ios": "https://dc.lft.to/lastmile_qr_scan"}, "fusion_lon": 0.0}, {"lat": 38.863456, "is_disabled": 0, "type": "electric_scooter", "lon": -76.99004216666667, "bike_id": "e8c47969238dc937d6271ea1574d6d75", "fusion_lat": 0.0, "name": "e8c47969238dc937d6271ea1574d6d75", "is_reserved": 0, "rental_uris": {"android": "https://dc.lft.to/lastmile_qr_scan", "ios": "https://dc.lft.to/lastmile_qr_scan"}, "fusion_lon": 0.0}, {"lat": 38.9126485, "is_disabled": 0, "type": "electric_scooter", "lon": -77.013076, "bike_id": "bf443135bdc8aed200e81ed5e65cf6dd", "fusion_lat": 0.0, "name": "bf443135bdc8aed200e81ed5e65cf6dd", "is_reserved": 0, "rental_uris": {"android": "https://dc.lft.to/lastmile_qr_scan", "ios": "https://dc.lft.to/lastmile_qr_scan"}, "fusion_lon": 0.0}, {"lat": 38.911227333333336, "is_disabled": 0, "type": "electric_scooter", "lon": -77.0382625, "bike_id": "111280d595463f8c0b82e4f63af177b3", "fusion_lat": 0.0, "name": "111280d595463f8c0b82e4f63af177b3", "is_reserved": 0, "rental_uris": {"android": "https://dc.lft.to/lastmile_qr_scan", "ios": "https://dc.lft.to/lastmile_qr_scan"}, "fusion_lon": 0.0}, {"lat": 38.8967915, "is_disabled": 0, "type": "electric_scooter", "lon": -77.01976416666666, "bike_id": "6b0822a16b52667707a348bb27cbc830", "fusion_lat": 0.0, "name": "6b0822a16b52667707a348bb27cbc830", "is_reserved": 0, "rental_uris": {"android": "https://dc.lft.to/lastmile_qr_scan", "ios": "https://dc.lft.to/lastmile_qr_scan"}, "fusion_lon": 0.0}, {"lat": 38.9577645, "is_disabled": 0, "type": "electric_scooter", "lon": -77.024671, "bike_id": "a7968110f5b2e132e8bdc96cf98e62e6", "fusion_lat": 0.0, "name": "a7968110f5b2e132e8bdc96cf98e62e6", "is_reserved": 0, "rental_uris": {"android": "https://dc.lft.to/lastmile_qr_scan", "ios": "https://dc.lft.to/lastmile_qr_scan"}, "fusion_lon": 0.0}, {"lat": 38.92676216666667, "is_disabled": 0, "type": "electric_scooter", "lon": -77.0510185, "bike_id": "8bf464a21d27de094557c0b567795db1", "fusion_lat": 0.0, "name": "8bf464a21d27de094557c0b567795db1", "is_reserved": 0, "rental_uris": {"android": "https://dc.lft.to/lastmile_qr_scan", "ios": "https://dc.lft.to/lastmile_qr_scan"}, "fusion_lon": 0.0}, {"lat": 38.899117333333336, "is_disabled": 0, "type": "electric_scooter", "lon": -76.93380116666667, "bike_id": "1dff01f486bd3ae328af1c24f8fe3e43", "fusion_lat": 0.0, "name": "1dff01f486bd3ae328af1c24f8fe3e43", "is_reserved": 0, "rental_uris": {"android": "https://dc.lft.to/lastmile_qr_scan", "ios": "https://dc.lft.to/lastmile_qr_scan"}, "fusion_lon": 0.0}, {"lat": 38.906431, "is_disabled": 0, "type": "electric_scooter", "lon": -77.038547, "bike_id": "4d50dd4f129005a6543bf468ad591dfe", "fusion_lat": 0.0, "name": "4d50dd4f129005a6543bf468ad591dfe", "is_reserved": 0, "rental_uris": {"android": "https://dc.lft.to/lastmile_qr_scan", "ios": "https://dc.lft.to/lastmile_qr_scan"}, "fusion_lon": 0.0}, {"lat": 38.9001215, "is_disabled": 0, "type": "electric_scooter", "lon": -76.98791916666667, "bike_id": "69fdf14029bb9360622a4823d095da7c", "fusion_lat": 0.0, "name": "69fdf14029bb9360622a4823d095da7c", "is_reserved": 0, "rental_uris": {"android": "https://dc.lft.to/lastmile_qr_scan", "ios": "https://dc.lft.to/lastmile_qr_scan"}, "fusion_lon": 0.0}, {"lat": 38.8990405, "is_disabled": 0, "type": "electric_scooter", "lon": -76.93352466666667, "bike_id": "0d2c42c5be2e453a4b3f085a6b07a9c8", "fusion_lat": 0.0, "name": "0d2c42c5be2e453a4b3f085a6b07a9c8", "is_reserved": 0, "rental_uris": {"android": "https://dc.lft.to/lastmile_qr_scan", "ios": "https://dc.lft.to/lastmile_qr_scan"}, "fusion_lon": 0.0}, {"lat": 38.892602, "is_disabled": 0, "type": "electric_scooter", "lon": -76.94159733333333, "bike_id": "d934d166f8a4276a53da1ddd74446e11", "fusion_lat": 0.0, "name": "d934d166f8a4276a53da1ddd74446e11", "is_reserved": 0, "rental_uris": {"android": "https://dc.lft.to/lastmile_qr_scan", "ios": "https://dc.lft.to/lastmile_qr_scan"}, "fusion_lon": 0.0}, {"lat": 38.90422433333333, "is_disabled": 0, "type": "electric_scooter", "lon": -77.0207955, "bike_id": "7c0909d8299f31cea2e337e07716dfc8", "fusion_lat": 0.0, "name": "7c0909d8299f31cea2e337e07716dfc8", "is_reserved": 0, "rental_uris": {"android": "https://dc.lft.to/lastmile_qr_scan", "ios": "https://dc.lft.to/lastmile_qr_scan"}, "fusion_lon": 0.0}, {"lat": 38.8974915, "is_disabled": 0, "type": "electric_scooter", "lon": -77.03212733333334, "bike_id": "9355f3f204ce6ccefd21830d03a1ac96", "fusion_lat": 0.0, "name": "9355f3f204ce6ccefd21830d03a1ac96", "is_reserved": 0, "rental_uris": {"android": "https://dc.lft.to/lastmile_qr_scan", "ios": "https://dc.lft.to/lastmile_qr_scan"}, "fusion_lon": 0.0}, {"lat": 38.885136333333335, "is_disabled": 0, "type": "electric_scooter", "lon": -77.03349666666666, "bike_id": "8e3c69f60a542a8a71df3a6dfbec0d8b", "fusion_lat": 0.0, "name": "8e3c69f60a542a8a71df3a6dfbec0d8b", "is_reserved": 0, "rental_uris": {"android": "https://dc.lft.to/lastmile_qr_scan", "ios": "https://dc.lft.to/lastmile_qr_scan"}, "fusion_lon": 0.0}, {"lat": 38.858065333333336, "is_disabled": 0, "type": "electric_scooter", "lon": -76.98991316666667, "bike_id": "f4129e8b7a2f6585ccb9eb2f5feedf25", "fusion_lat": 0.0, "name": "f4129e8b7a2f6585ccb9eb2f5feedf25", "is_reserved": 0, "rental_uris": {"android": "https://dc.lft.to/lastmile_qr_scan", "ios": "https://dc.lft.to/lastmile_qr_scan"}, "fusion_lon": 0.0}, {"lat": 38.89736766666667, "is_disabled": 0, "type": "electric_scooter", "lon": -77.03257666666667, "bike_id": "5234fa9cdbd3d75b93d8258e9c96c01f", "fusion_lat": 0.0, "name": "5234fa9cdbd3d75b93d8258e9c96c01f", "is_reserved": 0, "rental_uris": {"android": "https://dc.lft.to/lastmile_qr_scan", "ios": "https://dc.lft.to/lastmile_qr_scan"}, "fusion_lon": 0.0}, {"lat": 38.939870666666664, "is_disabled": 0, "type": "electric_scooter", "lon": -77.07177366666667, "bike_id": "460d5f5ec229ed6ecb5c26e114ac2cbc", "fusion_lat": 0.0, "name": "460d5f5ec229ed6ecb5c26e114ac2cbc", "is_reserved": 0, "rental_uris": {"android": "https://dc.lft.to/lastmile_qr_scan", "ios": "https://dc.lft.to/lastmile_qr_scan"}, "fusion_lon": 0.0}, {"lat": 38.80558666666667, "is_disabled": 0, "type": "electric_bike", "lon": -77.13244166666667, "bike_id": "7ab53d8bcbe0da77520792af9e0ffb79", "fusion_lat": 0.0, "name": "7ab53d8bcbe0da77520792af9e0ffb79", "is_reserved": 0, "rental_uris": {"android": "https://dc.lft.to/lastmile_qr_scan", "ios": "https://dc.lft.to/lastmile_qr_scan"}, "fusion_lon": 0.0}, {"lat": 38.90667033333333, "is_disabled": 0, "type": "electric_scooter", "lon": -77.02705483333334, "bike_id": "3af9d2791e8b6a0795cd7edf28664953", "fusion_lat": 0.0, "name": "3af9d2791e8b6a0795cd7edf28664953", "is_reserved": 0, "rental_uris": {"android": "https://dc.lft.to/lastmile_qr_scan", "ios": "https://dc.lft.to/lastmile_qr_scan"}, "fusion_lon": 0.0}, {"lat": 38.912248, "is_disabled": 0, "type": "electric_scooter", "lon": -77.02184016666666, "bike_id": "faa7c7a140fa5d201ac3c48d3e7b57c5", "fusion_lat": 0.0, "name": "faa7c7a140fa5d201ac3c48d3e7b57c5", "is_reserved": 0, "rental_uris": {"android": "https://dc.lft.to/lastmile_qr_scan", "ios": "https://dc.lft.to/lastmile_qr_scan"}, "fusion_lon": 0.0}, {"lat": 38.897301166666665, "is_disabled": 0, "type": "electric_scooter", "lon": -77.045365, "bike_id": "d464c9d052bd281afb2220179ac9839a", "fusion_lat": 0.0, "name": "d464c9d052bd281afb2220179ac9839a", "is_reserved": 0, "rental_uris": {"android": "https://dc.lft.to/lastmile_qr_scan", "ios": "https://dc.lft.to/lastmile_qr_scan"}, "fusion_lon": 0.0}, {"lat": 38.905387833333336, "is_disabled": 0, "type": "electric_scooter", "lon": -76.986493, "bike_id": "b3bfc05db354583f1e877520f65c3ea9", "fusion_lat": 0.0, "name": "b3bfc05db354583f1e877520f65c3ea9", "is_reserved": 0, "rental_uris": {"android": "https://dc.lft.to/lastmile_qr_scan", "ios": "https://dc.lft.to/lastmile_qr_scan"}, "fusion_lon": 0.0}, {"lat": 38.87343216666667, "is_disabled": 0, "type": "electric_scooter", "lon": -76.99164466666667, "bike_id": "4a5c9b7fe012598b87ccdee34e228df3", "fusion_lat": 0.0, "name": "4a5c9b7fe012598b87ccdee34e228df3", "is_reserved": 0, "rental_uris": {"android": "https://dc.lft.to/lastmile_qr_scan", "ios": "https://dc.lft.to/lastmile_qr_scan"}, "fusion_lon": 0.0}, {"lat": 38.89739983333333, "is_disabled": 0, "type": "electric_scooter", "lon": -77.00855333333334, "bike_id": "86484754a1dc1973655f1ac2da5ff564", "fusion_lat": 0.0, "name": "86484754a1dc1973655f1ac2da5ff564", "is_reserved": 0, "rental_uris": {"android": "https://dc.lft.to/lastmile_qr_scan", "ios": "https://dc.lft.to/lastmile_qr_scan"}, "fusion_lon": 0.0}, {"lat": 38.92800016666666, "is_disabled": 0, "type": "electric_scooter", "lon": -77.04315066666666, "bike_id": "e8443dc9fd0cf46005672898f12e5f44", "fusion_lat": 0.0, "name": "e8443dc9fd0cf46005672898f12e5f44", "is_reserved": 0, "rental_uris": {"android": "https://dc.lft.to/lastmile_qr_scan", "ios": "https://dc.lft.to/lastmile_qr_scan"}, "fusion_lon": 0.0}, {"lat": 38.918624666666666, "is_disabled": 0, "type": "electric_scooter", "lon": -77.074243, "bike_id": "61fddf328bfd57c39e7ac64a43647432", "fusion_lat": 0.0, "name": "61fddf328bfd57c39e7ac64a43647432", "is_reserved": 0, "rental_uris": {"android": "https://dc.lft.to/lastmile_qr_scan", "ios": "https://dc.lft.to/lastmile_qr_scan"}, "fusion_lon": 0.0}, {"lat": 38.898967999999996, "is_disabled": 0, "type": "electric_bike", "lon": -77.02175433333333, "bike_id": "969e8324e642e00fe07ee1efb5d4183c", "fusion_lat": 0.0, "name": "969e8324e642e00fe07ee1efb5d4183c", "is_reserved": 0, "rental_uris": {"android": "https://dc.lft.to/lastmile_qr_scan", "ios": "https://dc.lft.to/lastmile_qr_scan"}, "fusion_lon": 0.0}, {"lat": 38.904494666666665, "is_disabled": 0, "type": "electric_scooter", "lon": -77.02882283333334, "bike_id": "9c6e23e150c0739f1d3c95af340c7fee", "fusion_lat": 0.0, "name": "9c6e23e150c0739f1d3c95af340c7fee", "is_reserved": 0, "rental_uris": {"android": "https://dc.lft.to/lastmile_qr_scan", "ios": "https://dc.lft.to/lastmile_qr_scan"}, "fusion_lon": 0.0}, {"lat": 38.89199, "is_disabled": 0, "type": "electric_bike", "lon": -76.970485, "bike_id": "a0a06ac30e476a6871853ca74996455a", "fusion_lat": 0.0, "name": "a0a06ac30e476a6871853ca74996455a", "is_reserved": 0, "rental_uris": {"android": "https://dc.lft.to/lastmile_qr_scan", "ios": "https://dc.lft.to/lastmile_qr_scan"}, "fusion_lon": 0.0}, {"lat": 38.8929285, "is_disabled": 0, "type": "electric_bike", "lon": -77.00143683333333, "bike_id": "3386e48790441105daf9f83b8b39c325", "fusion_lat": 0.0, "name": "3386e48790441105daf9f83b8b39c325", "is_reserved": 0, "rental_uris": {"android": "https://dc.lft.to/lastmile_qr_scan", "ios": "https://dc.lft.to/lastmile_qr_scan"}, "fusion_lon": 0.0}, {"lat": 38.91467433333333, "is_disabled": 0, "type": "electric_scooter", "lon": -77.0189535, "bike_id": "28835306572f82411aba2905869ceed4", "fusion_lat": 0.0, "name": "28835306572f82411aba2905869ceed4", "is_reserved": 0, "rental_uris": {"android": "https://dc.lft.to/lastmile_qr_scan", "ios": "https://dc.lft.to/lastmile_qr_scan"}, "fusion_lon": 0.0}, {"lat": 38.930437, "is_disabled": 0, "type": "electric_scooter", "lon": -77.03244366666667, "bike_id": "e8870215455456be6c8f191a8c67d564", "fusion_lat": 0.0, "name": "e8870215455456be6c8f191a8c67d564", "is_reserved": 0, "rental_uris": {"android": "https://dc.lft.to/lastmile_qr_scan", "ios": "https://dc.lft.to/lastmile_qr_scan"}, "fusion_lon": 0.0}, {"lat": 38.90610316666667, "is_disabled": 0, "type": "electric_scooter", "lon": -77.05858316666666, "bike_id": "36d0352ce8e7a930540e37b9e705029d", "fusion_lat": 0.0, "name": "36d0352ce8e7a930540e37b9e705029d", "is_reserved": 0, "rental_uris": {"android": "https://dc.lft.to/lastmile_qr_scan", "ios": "https://dc.lft.to/lastmile_qr_scan"}, "fusion_lon": 0.0}, {"lat": 38.87931733333333, "is_disabled": 0, "type": "electric_scooter", "lon": -77.00719016666666, "bike_id": "be88b512d2a7d252a4e40d6f0c19a2ce", "fusion_lat": 0.0, "name": "be88b512d2a7d252a4e40d6f0c19a2ce", "is_reserved": 0, "rental_uris": {"android": "https://dc.lft.to/lastmile_qr_scan", "ios": "https://dc.lft.to/lastmile_qr_scan"}, "fusion_lon": 0.0}, {"lat": 38.8842365, "is_disabled": 0, "type": "electric_bike", "lon": -76.9808575, "bike_id": "b6c58aa4e5e7d6516773ba5c09717066", "fusion_lat": 0.0, "name": "b6c58aa4e5e7d6516773ba5c09717066", "is_reserved": 0, "rental_uris": {"android": "https://dc.lft.to/lastmile_qr_scan", "ios": "https://dc.lft.to/lastmile_qr_scan"}, "fusion_lon": 0.0}, {"lat": 38.895223333333334, "is_disabled": 0, "type": "electric_scooter", "lon": -77.0110425, "bike_id": "79456e50a6de567c590c58501cc01fdc", "fusion_lat": 0.0, "name": "79456e50a6de567c590c58501cc01fdc", "is_reserved": 0, "rental_uris": {"android": "https://dc.lft.to/lastmile_qr_scan", "ios": "https://dc.lft.to/lastmile_qr_scan"}, "fusion_lon": 0.0}, {"lat": 38.92366283333333, "is_disabled": 0, "type": "electric_scooter", "lon": -77.076797, "bike_id": "2bbafe6c9da0463a3059b4b2cab47adf", "fusion_lat": 0.0, "name": "2bbafe6c9da0463a3059b4b2cab47adf", "is_reserved": 0, "rental_uris": {"android": "https://dc.lft.to/lastmile_qr_scan", "ios": "https://dc.lft.to/lastmile_qr_scan"}, "fusion_lon": 0.0}, {"lat": 38.8714855, "is_disabled": 0, "type": "electric_bike", "lon": -76.93668333333333, "bike_id": "de9a6e0a0fcf3d5dfb63e71f8e22c2d9", "fusion_lat": 0.0, "name": "de9a6e0a0fcf3d5dfb63e71f8e22c2d9", "is_reserved": 0, "rental_uris": {"android": "https://dc.lft.to/lastmile_qr_scan", "ios": "https://dc.lft.to/lastmile_qr_scan"}, "fusion_lon": 0.0}, {"lat": 38.9117035, "is_disabled": 0, "type": "electric_scooter", "lon": -77.04148083333334, "bike_id": "ffc968984f0af97eb9fe6cb425f3fcab", "fusion_lat": 0.0, "name": "ffc968984f0af97eb9fe6cb425f3fcab", "is_reserved": 0, "rental_uris": {"android": "https://dc.lft.to/lastmile_qr_scan", "ios": "https://dc.lft.to/lastmile_qr_scan"}, "fusion_lon": 0.0}, {"lat": 38.966212666666664, "is_disabled": 0, "type": "electric_bike", "lon": -76.976703, "bike_id": "21d2afef957e707f3813fff0deca7216", "fusion_lat": 0.0, "name": "21d2afef957e707f3813fff0deca7216", "is_reserved": 0, "rental_uris": {"android": "https://dc.lft.to/lastmile_qr_scan", "ios": "https://dc.lft.to/lastmile_qr_scan"}, "fusion_lon": 0.0}, {"lat": 38.92362816666667, "is_disabled": 0, "type": "electric_scooter", "lon": -77.0509625, "bike_id": "2d1af4822d9dc79da6c25bc4f7c1f821", "fusion_lat": 0.0, "name": "2d1af4822d9dc79da6c25bc4f7c1f821", "is_reserved": 0, "rental_uris": {"android": "https://dc.lft.to/lastmile_qr_scan", "ios": "https://dc.lft.to/lastmile_qr_scan"}, "fusion_lon": 0.0}, {"lat": 38.90523533333333, "is_disabled": 0, "type": "electric_scooter", "lon": -77.06448116666667, "bike_id": "f47ec96c2899b43e2b00b4d46e92bdab", "fusion_lat": 0.0, "name": "f47ec96c2899b43e2b00b4d46e92bdab", "is_reserved": 0, "rental_uris": {"android": "https://dc.lft.to/lastmile_qr_scan", "ios": "https://dc.lft.to/lastmile_qr_scan"}, "fusion_lon": 0.0}, {"lat": 38.941315833333334, "is_disabled": 0, "type": "electric_scooter", "lon": -77.076159, "bike_id": "72d70db2495a7e15d73c36b2a2a5149e", "fusion_lat": 0.0, "name": "72d70db2495a7e15d73c36b2a2a5149e", "is_reserved": 0, "rental_uris": {"android": "https://dc.lft.to/lastmile_qr_scan", "ios": "https://dc.lft.to/lastmile_qr_scan"}, "fusion_lon": 0.0}, {"lat": 38.93172583333333, "is_disabled": 0, "type": "electric_scooter", "lon": -77.02817716666667, "bike_id": "aa4876b23132d749989aeb0d61cac4ce", "fusion_lat": 0.0, "name": "aa4876b23132d749989aeb0d61cac4ce", "is_reserved": 0, "rental_uris": {"android": "https://dc.lft.to/lastmile_qr_scan", "ios": "https://dc.lft.to/lastmile_qr_scan"}, "fusion_lon": 0.0}, {"lat": 38.908147666666665, "is_disabled": 0, "type": "electric_scooter", "lon": -76.99711883333333, "bike_id": "17d96cfbbb1579f89048186b2a2150cc", "fusion_lat": 0.0, "name": "17d96cfbbb1579f89048186b2a2150cc", "is_reserved": 0, "rental_uris": {"android": "https://dc.lft.to/lastmile_qr_scan", "ios": "https://dc.lft.to/lastmile_qr_scan"}, "fusion_lon": 0.0}, {"lat": 38.9341355, "is_disabled": 0, "type": "electric_scooter", "lon": -77.0204015, "bike_id": "5586192107dd00c3e3c51f4c68700f65", "fusion_lat": 0.0, "name": "5586192107dd00c3e3c51f4c68700f65", "is_reserved": 0, "rental_uris": {"android": "https://dc.lft.to/lastmile_qr_scan", "ios": "https://dc.lft.to/lastmile_qr_scan"}, "fusion_lon": 0.0}, {"lat": 38.919865, "is_disabled": 0, "type": "electric_scooter", "lon": -77.01207833333333, "bike_id": "429fe9b8fdc90dbd4595564e53e7301f", "fusion_lat": 0.0, "name": "429fe9b8fdc90dbd4595564e53e7301f", "is_reserved": 0, "rental_uris": {"android": "https://dc.lft.to/lastmile_qr_scan", "ios": "https://dc.lft.to/lastmile_qr_scan"}, "fusion_lon": 0.0}, {"lat": 38.92254483333333, "is_disabled": 0, "type": "electric_scooter", "lon": -77.0197275, "bike_id": "18835b351307207c482be2a90231b611", "fusion_lat": 0.0, "name": "18835b351307207c482be2a90231b611", "is_reserved": 0, "rental_uris": {"android": "https://dc.lft.to/lastmile_qr_scan", "ios": "https://dc.lft.to/lastmile_qr_scan"}, "fusion_lon": 0.0}, {"lat": 38.9055715, "is_disabled": 0, "type": "electric_scooter", "lon": -76.98380133333333, "bike_id": "39e8067aa6e3caeb16620915db09e107", "fusion_lat": 0.0, "name": "39e8067aa6e3caeb16620915db09e107", "is_reserved": 0, "rental_uris": {"android": "https://dc.lft.to/lastmile_qr_scan", "ios": "https://dc.lft.to/lastmile_qr_scan"}, "fusion_lon": 0.0}, {"lat": 38.888855166666666, "is_disabled": 0, "type": "electric_scooter", "lon": -76.931511, "bike_id": "c120caf813edd26078818b28e1d00938", "fusion_lat": 0.0, "name": "c120caf813edd26078818b28e1d00938", "is_reserved": 0, "rental_uris": {"android": "https://dc.lft.to/lastmile_qr_scan", "ios": "https://dc.lft.to/lastmile_qr_scan"}, "fusion_lon": 0.0}, {"lat": 38.92346783333333, "is_disabled": 0, "type": "electric_scooter", "lon": -77.04137616666667, "bike_id": "8db680aafa54802ed76577ed8a4c0a96", "fusion_lat": 0.0, "name": "8db680aafa54802ed76577ed8a4c0a96", "is_reserved": 0, "rental_uris": {"android": "https://dc.lft.to/lastmile_qr_scan", "ios": "https://dc.lft.to/lastmile_qr_scan"}, "fusion_lon": 0.0}, {"lat": 38.94431616666667, "is_disabled": 0, "type": "electric_scooter", "lon": -77.06304333333334, "bike_id": "258e1bbe7ace228348fdbc43f7e1c8fb", "fusion_lat": 0.0, "name": "258e1bbe7ace228348fdbc43f7e1c8fb", "is_reserved": 0, "rental_uris": {"android": "https://dc.lft.to/lastmile_qr_scan", "ios": "https://dc.lft.to/lastmile_qr_scan"}, "fusion_lon": 0.0}, {"lat": 38.952152, "is_disabled": 0, "type": "electric_bike", "lon": -77.00242333333334, "bike_id": "172fcc4a29bb3357a8c6cf0914f113c5", "fusion_lat": 0.0, "name": "172fcc4a29bb3357a8c6cf0914f113c5", "is_reserved": 0, "rental_uris": {"android": "https://dc.lft.to/lastmile_qr_scan", "ios": "https://dc.lft.to/lastmile_qr_scan"}, "fusion_lon": 0.0}, {"lat": 38.91404033333333, "is_disabled": 0, "type": "electric_scooter", "lon": -77.03224333333333, "bike_id": "a6524fd52d3b203fc726a9085a349595", "fusion_lat": 0.0, "name": "a6524fd52d3b203fc726a9085a349595", "is_reserved": 0, "rental_uris": {"android": "https://dc.lft.to/lastmile_qr_scan", "ios": "https://dc.lft.to/lastmile_qr_scan"}, "fusion_lon": 0.0}, {"lat": 38.915867166666665, "is_disabled": 0, "type": "electric_scooter", "lon": -77.046642, "bike_id": "70a79c9cb4b991c5316c67c5e85afbd9", "fusion_lat": 0.0, "name": "70a79c9cb4b991c5316c67c5e85afbd9", "is_reserved": 0, "rental_uris": {"android": "https://dc.lft.to/lastmile_qr_scan", "ios": "https://dc.lft.to/lastmile_qr_scan"}, "fusion_lon": 0.0}, {"lat": 38.9357975, "is_disabled": 0, "type": "electric_bike", "lon": -77.10683716666666, "bike_id": "65c2b3ec753969743ce0ba763cb69a6a", "fusion_lat": 0.0, "name": "65c2b3ec753969743ce0ba763cb69a6a", "is_reserved": 0, "rental_uris": {"android": "https://dc.lft.to/lastmile_qr_scan", "ios": "https://dc.lft.to/lastmile_qr_scan"}, "fusion_lon": 0.0}, {"lat": 38.906990666666665, "is_disabled": 0, "type": "electric_scooter", "lon": -77.043507, "bike_id": "4c27a87c91a5e4a9feb314898e59458d", "fusion_lat": 0.0, "name": "4c27a87c91a5e4a9feb314898e59458d", "is_reserved": 0, "rental_uris": {"android": "https://dc.lft.to/lastmile_qr_scan", "ios": "https://dc.lft.to/lastmile_qr_scan"}, "fusion_lon": 0.0}, {"lat": 38.902111833333336, "is_disabled": 0, "type": "electric_scooter", "lon": -77.0206125, "bike_id": "0674d689e34e4be2c58094f25945c548", "fusion_lat": 0.0, "name": "0674d689e34e4be2c58094f25945c548", "is_reserved": 0, "rental_uris": {"android": "https://dc.lft.to/lastmile_qr_scan", "ios": "https://dc.lft.to/lastmile_qr_scan"}, "fusion_lon": 0.0}, {"lat": 38.87007233333333, "is_disabled": 0, "type": "electric_bike", "lon": -76.960233, "bike_id": "106de13f801c6127a36a85244a6ca131", "fusion_lat": 0.0, "name": "106de13f801c6127a36a85244a6ca131", "is_reserved": 0, "rental_uris": {"android": "https://dc.lft.to/lastmile_qr_scan", "ios": "https://dc.lft.to/lastmile_qr_scan"}, "fusion_lon": 0.0}, {"lat": 38.904488666666666, "is_disabled": 0, "type": "electric_scooter", "lon": -77.0319485, "bike_id": "ce9d94d20425588b4196de634dd0f495", "fusion_lat": 0.0, "name": "ce9d94d20425588b4196de634dd0f495", "is_reserved": 0, "rental_uris": {"android": "https://dc.lft.to/lastmile_qr_scan", "ios": "https://dc.lft.to/lastmile_qr_scan"}, "fusion_lon": 0.0}, {"lat": 38.836756333333334, "is_disabled": 0, "type": "electric_scooter", "lon": -77.00576766666667, "bike_id": "f463afda0cc690d7ad10e02cfd5e6e64", "fusion_lat": 0.0, "name": "f463afda0cc690d7ad10e02cfd5e6e64", "is_reserved": 0, "rental_uris": {"android": "https://dc.lft.to/lastmile_qr_scan", "ios": "https://dc.lft.to/lastmile_qr_scan"}, "fusion_lon": 0.0}, {"lat": 38.908614, "is_disabled": 0, "type": "electric_scooter", "lon": -77.045877, "bike_id": "41aaf59bd9f1f5d56f2c4335eb937a5a", "fusion_lat": 0.0, "name": "41aaf59bd9f1f5d56f2c4335eb937a5a", "is_reserved": 0, "rental_uris": {"android": "https://dc.lft.to/lastmile_qr_scan", "ios": "https://dc.lft.to/lastmile_qr_scan"}, "fusion_lon": 0.0}, {"lat": 38.90595316666667, "is_disabled": 0, "type": "electric_scooter", "lon": -77.062987, "bike_id": "1d156dbf6e74f7b0d0f67fd129c334b1", "fusion_lat": 0.0, "name": "1d156dbf6e74f7b0d0f67fd129c334b1", "is_reserved": 0, "rental_uris": {"android": "https://dc.lft.to/lastmile_qr_scan", "ios": "https://dc.lft.to/lastmile_qr_scan"}, "fusion_lon": 0.0}, {"lat": 38.91918316666667, "is_disabled": 0, "type": "electric_scooter", "lon": -77.0134385, "bike_id": "361e1cf6d923b7fd34543715e5ea0167", "fusion_lat": 0.0, "name": "361e1cf6d923b7fd34543715e5ea0167", "is_reserved": 0, "rental_uris": {"android": "https://dc.lft.to/lastmile_qr_scan", "ios": "https://dc.lft.to/lastmile_qr_scan"}, "fusion_lon": 0.0}, {"lat": 38.9349785, "is_disabled": 0, "type": "electric_scooter", "lon": -77.058042, "bike_id": "4cb8e41d975a96413cf6e23b584ff094", "fusion_lat": 0.0, "name": "4cb8e41d975a96413cf6e23b584ff094", "is_reserved": 0, "rental_uris": {"android": "https://dc.lft.to/lastmile_qr_scan", "ios": "https://dc.lft.to/lastmile_qr_scan"}, "fusion_lon": 0.0}, {"lat": 38.9003935, "is_disabled": 0, "type": "electric_scooter", "lon": -76.99014783333334, "bike_id": "96719bf7921c73be14268979e27fdbd9", "fusion_lat": 0.0, "name": "96719bf7921c73be14268979e27fdbd9", "is_reserved": 0, "rental_uris": {"android": "https://dc.lft.to/lastmile_qr_scan", "ios": "https://dc.lft.to/lastmile_qr_scan"}, "fusion_lon": 0.0}, {"lat": 38.88561983333334, "is_disabled": 0, "type": "electric_scooter", "lon": -77.02004466666666, "bike_id": "8bed6830c8699b81908b29234d10eff7", "fusion_lat": 0.0, "name": "8bed6830c8699b81908b29234d10eff7", "is_reserved": 0, "rental_uris": {"android": "https://dc.lft.to/lastmile_qr_scan", "ios": "https://dc.lft.to/lastmile_qr_scan"}, "fusion_lon": 0.0}, {"lat": 38.92171483333333, "is_disabled": 0, "type": "electric_scooter", "lon": -77.04007116666666, "bike_id": "e2bff0f02cda68e7766edfe8d210cb5d", "fusion_lat": 0.0, "name": "e2bff0f02cda68e7766edfe8d210cb5d", "is_reserved": 0, "rental_uris": {"android": "https://dc.lft.to/lastmile_qr_scan", "ios": "https://dc.lft.to/lastmile_qr_scan"}, "fusion_lon": 0.0}, {"lat": 38.93352566666667, "is_disabled": 0, "type": "electric_scooter", "lon": -77.05701416666666, "bike_id": "c6f2ec853fb9f0e3b6301f25bcde0a4b", "fusion_lat": 0.0, "name": "c6f2ec853fb9f0e3b6301f25bcde0a4b", "is_reserved": 0, "rental_uris": {"android": "https://dc.lft.to/lastmile_qr_scan", "ios": "https://dc.lft.to/lastmile_qr_scan"}, "fusion_lon": 0.0}, {"lat": 38.92381833333334, "is_disabled": 0, "type": "electric_scooter", "lon": -77.03671166666666, "bike_id": "cc9354fa5c0024ccfa47e843ac31166d", "fusion_lat": 0.0, "name": "cc9354fa5c0024ccfa47e843ac31166d", "is_reserved": 0, "rental_uris": {"android": "https://dc.lft.to/lastmile_qr_scan", "ios": "https://dc.lft.to/lastmile_qr_scan"}, "fusion_lon": 0.0}, {"lat": 38.9011605, "is_disabled": 0, "type": "electric_scooter", "lon": -77.03980983333334, "bike_id": "1a45fb9c470ca97369eb4e4483e8ce20", "fusion_lat": 0.0, "name": "1a45fb9c470ca97369eb4e4483e8ce20", "is_reserved": 0, "rental_uris": {"android": "https://dc.lft.to/lastmile_qr_scan", "ios": "https://dc.lft.to/lastmile_qr_scan"}, "fusion_lon": 0.0}, {"lat": 38.902134833333335, "is_disabled": 0, "type": "electric_scooter", "lon": -76.98843483333333, "bike_id": "ef4650d7f978ca4d59ccace0ca97c14d", "fusion_lat": 0.0, "name": "ef4650d7f978ca4d59ccace0ca97c14d", "is_reserved": 0, "rental_uris": {"android": "https://dc.lft.to/lastmile_qr_scan", "ios": "https://dc.lft.to/lastmile_qr_scan"}, "fusion_lon": 0.0}, {"lat": 38.90461833333333, "is_disabled": 0, "type": "electric_scooter", "lon": -77.01780683333334, "bike_id": "03dc988c34f15404927f5e432065512e", "fusion_lat": 0.0, "name": "03dc988c34f15404927f5e432065512e", "is_reserved": 0, "rental_uris": {"android": "https://dc.lft.to/lastmile_qr_scan", "ios": "https://dc.lft.to/lastmile_qr_scan"}, "fusion_lon": 0.0}, {"lat": 38.90440066666667, "is_disabled": 0, "type": "electric_scooter", "lon": -77.04363483333333, "bike_id": "a59289b7306b582c2d4cd8c2a731b7a0", "fusion_lat": 0.0, "name": "a59289b7306b582c2d4cd8c2a731b7a0", "is_reserved": 0, "rental_uris": {"android": "https://dc.lft.to/lastmile_qr_scan", "ios": "https://dc.lft.to/lastmile_qr_scan"}, "fusion_lon": 0.0}, {"lat": 38.903622, "is_disabled": 0, "type": "electric_scooter", "lon": -76.97652466666666, "bike_id": "63f51832069242342f9a51b7bf8a9c40", "fusion_lat": 0.0, "name": "63f51832069242342f9a51b7bf8a9c40", "is_reserved": 0, "rental_uris": {"android": "https://dc.lft.to/lastmile_qr_scan", "ios": "https://dc.lft.to/lastmile_qr_scan"}, "fusion_lon": 0.0}, {"lat": 38.880156, "is_disabled": 0, "type": "electric_scooter", "lon": -76.931324, "bike_id": "fbaba504c854d9a4ca87292ed0c05331", "fusion_lat": 0.0, "name": "fbaba504c854d9a4ca87292ed0c05331", "is_reserved": 0, "rental_uris": {"android": "https://dc.lft.to/lastmile_qr_scan", "ios": "https://dc.lft.to/lastmile_qr_scan"}, "fusion_lon": 0.0}, {"lat": 38.94651183333333, "is_disabled": 0, "type": "electric_scooter", "lon": -77.064777, "bike_id": "4eee699980ff71fb2d0272392f401938", "fusion_lat": 0.0, "name": "4eee699980ff71fb2d0272392f401938", "is_reserved": 0, "rental_uris": {"android": "https://dc.lft.to/lastmile_qr_scan", "ios": "https://dc.lft.to/lastmile_qr_scan"}, "fusion_lon": 0.0}, {"lat": 38.926572, "is_disabled": 0, "type": "electric_scooter", "lon": -77.055968, "bike_id": "54b5e2028b05aa2135acf4446ea839ee", "fusion_lat": 0.0, "name": "54b5e2028b05aa2135acf4446ea839ee", "is_reserved": 0, "rental_uris": {"android": "https://dc.lft.to/lastmile_qr_scan", "ios": "https://dc.lft.to/lastmile_qr_scan"}, "fusion_lon": 0.0}, {"lat": 38.92038216666667, "is_disabled": 0, "type": "electric_scooter", "lon": -77.03342633333334, "bike_id": "417198263a0e7d1f9839e63faab97ed1", "fusion_lat": 0.0, "name": "417198263a0e7d1f9839e63faab97ed1", "is_reserved": 0, "rental_uris": {"android": "https://dc.lft.to/lastmile_qr_scan", "ios": "https://dc.lft.to/lastmile_qr_scan"}, "fusion_lon": 0.0}, {"lat": 38.89554433333333, "is_disabled": 0, "type": "electric_scooter", "lon": -76.93377133333334, "bike_id": "b21ce9216e603ccbdec654c07532ded2", "fusion_lat": 0.0, "name": "b21ce9216e603ccbdec654c07532ded2", "is_reserved": 0, "rental_uris": {"android": "https://dc.lft.to/lastmile_qr_scan", "ios": "https://dc.lft.to/lastmile_qr_scan"}, "fusion_lon": 0.0}, {"lat": 38.904621166666665, "is_disabled": 0, "type": "electric_scooter", "lon": -77.00774966666667, "bike_id": "0fc38ecf8acfc25754e3c23857a380cc", "fusion_lat": 0.0, "name": "0fc38ecf8acfc25754e3c23857a380cc", "is_reserved": 0, "rental_uris": {"android": "https://dc.lft.to/lastmile_qr_scan", "ios": "https://dc.lft.to/lastmile_qr_scan"}, "fusion_lon": 0.0}, {"lat": 38.91961216666667, "is_disabled": 0, "type": "electric_scooter", "lon": -77.03957633333333, "bike_id": "39807761a37506b013cc8aef5cc8dda9", "fusion_lat": 0.0, "name": "39807761a37506b013cc8aef5cc8dda9", "is_reserved": 0, "rental_uris": {"android": "https://dc.lft.to/lastmile_qr_scan", "ios": "https://dc.lft.to/lastmile_qr_scan"}, "fusion_lon": 0.0}, {"lat": 38.79305133333333, "is_disabled": 0, "type": "electric_bike", "lon": -77.04923616666666, "bike_id": "7aa1a436abde9731a8391b78b3d468b0", "fusion_lat": 0.0, "name": "7aa1a436abde9731a8391b78b3d468b0", "is_reserved": 0, "rental_uris": {"android": "https://dc.lft.to/lastmile_qr_scan", "ios": "https://dc.lft.to/lastmile_qr_scan"}, "fusion_lon": 0.0}, {"lat": 38.898684, "is_disabled": 0, "type": "electric_scooter", "lon": -77.02399483333333, "bike_id": "fe8610c60a8f3b3cd8c34694f436d7e3", "fusion_lat": 0.0, "name": "fe8610c60a8f3b3cd8c34694f436d7e3", "is_reserved": 0, "rental_uris": {"android": "https://dc.lft.to/lastmile_qr_scan", "ios": "https://dc.lft.to/lastmile_qr_scan"}, "fusion_lon": 0.0}, {"lat": 38.952865833333334, "is_disabled": 0, "type": "electric_bike", "lon": -76.94597983333334, "bike_id": "392e38f7b3421037c84db36fe300825c", "fusion_lat": 0.0, "name": "392e38f7b3421037c84db36fe300825c", "is_reserved": 0, "rental_uris": {"android": "https://dc.lft.to/lastmile_qr_scan", "ios": "https://dc.lft.to/lastmile_qr_scan"}, "fusion_lon": 0.0}, {"lat": 38.920054666666665, "is_disabled": 0, "type": "electric_scooter", "lon": -77.0388815, "bike_id": "467bc3f980d2d8f58640b48b084b7e64", "fusion_lat": 0.0, "name": "467bc3f980d2d8f58640b48b084b7e64", "is_reserved": 0, "rental_uris": {"android": "https://dc.lft.to/lastmile_qr_scan", "ios": "https://dc.lft.to/lastmile_qr_scan"}, "fusion_lon": 0.0}, {"lat": 38.939358, "is_disabled": 0, "type": "electric_scooter", "lon": -77.03675316666667, "bike_id": "ba5a52105dcbe3202968316df141c0bb", "fusion_lat": 0.0, "name": "ba5a52105dcbe3202968316df141c0bb", "is_reserved": 0, "rental_uris": {"android": "https://dc.lft.to/lastmile_qr_scan", "ios": "https://dc.lft.to/lastmile_qr_scan"}, "fusion_lon": 0.0}, {"lat": 38.917287333333334, "is_disabled": 0, "type": "electric_scooter", "lon": -77.02390533333333, "bike_id": "063edc348fa83b780199cd59761236ba", "fusion_lat": 0.0, "name": "063edc348fa83b780199cd59761236ba", "is_reserved": 0, "rental_uris": {"android": "https://dc.lft.to/lastmile_qr_scan", "ios": "https://dc.lft.to/lastmile_qr_scan"}, "fusion_lon": 0.0}, {"lat": 38.917071666666665, "is_disabled": 0, "type": "electric_scooter", "lon": -77.00116783333333, "bike_id": "c063c532b7e258a2f5837937e6c91374", "fusion_lat": 0.0, "name": "c063c532b7e258a2f5837937e6c91374", "is_reserved": 0, "rental_uris": {"android": "https://dc.lft.to/lastmile_qr_scan", "ios": "https://dc.lft.to/lastmile_qr_scan"}, "fusion_lon": 0.0}, {"lat": 38.93959516666666, "is_disabled": 0, "type": "electric_bike", "lon": -77.36094766666666, "bike_id": "685a31f9ff3a15147238d5c7c3e0e598", "fusion_lat": 0.0, "name": "685a31f9ff3a15147238d5c7c3e0e598", "is_reserved": 0, "rental_uris": {"android": "https://dc.lft.to/lastmile_qr_scan", "ios": "https://dc.lft.to/lastmile_qr_scan"}, "fusion_lon": 0.0}, {"lat": 38.89973166666667, "is_disabled": 0, "type": "electric_scooter", "lon": -77.05701566666667, "bike_id": "8694c4569e3945f4a4815904ab964de5", "fusion_lat": 0.0, "name": "8694c4569e3945f4a4815904ab964de5", "is_reserved": 0, "rental_uris": {"android": "https://dc.lft.to/lastmile_qr_scan", "ios": "https://dc.lft.to/lastmile_qr_scan"}, "fusion_lon": 0.0}, {"lat": 38.927538, "is_disabled": 0, "type": "electric_scooter", "lon": -77.032151, "bike_id": "219981717c6a57b40bb52fc241db1fb3", "fusion_lat": 0.0, "name": "219981717c6a57b40bb52fc241db1fb3", "is_reserved": 0, "rental_uris": {"android": "https://dc.lft.to/lastmile_qr_scan", "ios": "https://dc.lft.to/lastmile_qr_scan"}, "fusion_lon": 0.0}, {"lat": 38.909195833333335, "is_disabled": 0, "type": "electric_scooter", "lon": -77.03182466666667, "bike_id": "7327c1f0e7cd9c71398438b386507e72", "fusion_lat": 0.0, "name": "7327c1f0e7cd9c71398438b386507e72", "is_reserved": 0, "rental_uris": {"android": "https://dc.lft.to/lastmile_qr_scan", "ios": "https://dc.lft.to/lastmile_qr_scan"}, "fusion_lon": 0.0}, {"lat": 38.8955955, "is_disabled": 0, "type": "electric_scooter", "lon": -76.93079833333333, "bike_id": "5bcc5005f4cfc7e39a9cc7641ecb06c1", "fusion_lat": 0.0, "name": "5bcc5005f4cfc7e39a9cc7641ecb06c1", "is_reserved": 0, "rental_uris": {"android": "https://dc.lft.to/lastmile_qr_scan", "ios": "https://dc.lft.to/lastmile_qr_scan"}, "fusion_lon": 0.0}, {"lat": 38.860559333333335, "is_disabled": 0, "type": "electric_scooter", "lon": -77.0574815, "bike_id": "446bad9a4c16f245ae9649022ae5c81f", "fusion_lat": 0.0, "name": "446bad9a4c16f245ae9649022ae5c81f", "is_reserved": 0, "rental_uris": {"android": "https://dc.lft.to/lastmile_qr_scan", "ios": "https://dc.lft.to/lastmile_qr_scan"}, "fusion_lon": 0.0}, {"lat": 38.9160715, "is_disabled": 0, "type": "electric_scooter", "lon": -77.04863066666667, "bike_id": "172df415fb0a058172372341b476dbbc", "fusion_lat": 0.0, "name": "172df415fb0a058172372341b476dbbc", "is_reserved": 0, "rental_uris": {"android": "https://dc.lft.to/lastmile_qr_scan", "ios": "https://dc.lft.to/lastmile_qr_scan"}, "fusion_lon": 0.0}, {"lat": 38.9002185, "is_disabled": 0, "type": "electric_scooter", "lon": -77.03373766666667, "bike_id": "d27b421ac18b0f17fca197d7681df987", "fusion_lat": 0.0, "name": "d27b421ac18b0f17fca197d7681df987", "is_reserved": 0, "rental_uris": {"android": "https://dc.lft.to/lastmile_qr_scan", "ios": "https://dc.lft.to/lastmile_qr_scan"}, "fusion_lon": 0.0}, {"lat": 38.9223845, "is_disabled": 0, "type": "electric_scooter", "lon": -77.045759, "bike_id": "51134f2b4055a44c877b64226a1e4282", "fusion_lat": 0.0, "name": "51134f2b4055a44c877b64226a1e4282", "is_reserved": 0, "rental_uris": {"android": "https://dc.lft.to/lastmile_qr_scan", "ios": "https://dc.lft.to/lastmile_qr_scan"}, "fusion_lon": 0.0}, {"lat": 38.92163866666667, "is_disabled": 0, "type": "electric_scooter", "lon": -77.0365395, "bike_id": "d0a693fcda94609b863ba89ea14f64cd", "fusion_lat": 0.0, "name": "d0a693fcda94609b863ba89ea14f64cd", "is_reserved": 0, "rental_uris": {"android": "https://dc.lft.to/lastmile_qr_scan", "ios": "https://dc.lft.to/lastmile_qr_scan"}, "fusion_lon": 0.0}, {"lat": 38.902922333333336, "is_disabled": 0, "type": "electric_scooter", "lon": -77.03782266666667, "bike_id": "6513263855a5cdab72dc8df8ada9c210", "fusion_lat": 0.0, "name": "6513263855a5cdab72dc8df8ada9c210", "is_reserved": 0, "rental_uris": {"android": "https://dc.lft.to/lastmile_qr_scan", "ios": "https://dc.lft.to/lastmile_qr_scan"}, "fusion_lon": 0.0}, {"lat": 38.938570666666664, "is_disabled": 0, "type": "electric_scooter", "lon": -77.02564533333333, "bike_id": "f926e4c3ccc36e4bf14a465f6fd5cb31", "fusion_lat": 0.0, "name": "f926e4c3ccc36e4bf14a465f6fd5cb31", "is_reserved": 0, "rental_uris": {"android": "https://dc.lft.to/lastmile_qr_scan", "ios": "https://dc.lft.to/lastmile_qr_scan"}, "fusion_lon": 0.0}, {"lat": 38.90521483333333, "is_disabled": 0, "type": "electric_scooter", "lon": -77.06059016666667, "bike_id": "3251c34ca5f2d302474b6003f70bb634", "fusion_lat": 0.0, "name": "3251c34ca5f2d302474b6003f70bb634", "is_reserved": 0, "rental_uris": {"android": "https://dc.lft.to/lastmile_qr_scan", "ios": "https://dc.lft.to/lastmile_qr_scan"}, "fusion_lon": 0.0}, {"lat": 38.91594416666667, "is_disabled": 0, "type": "electric_scooter", "lon": -77.0384475, "bike_id": "d174fe5d5bb1f04eed4763e3de17efd1", "fusion_lat": 0.0, "name": "d174fe5d5bb1f04eed4763e3de17efd1", "is_reserved": 0, "rental_uris": {"android": "https://dc.lft.to/lastmile_qr_scan", "ios": "https://dc.lft.to/lastmile_qr_scan"}, "fusion_lon": 0.0}, {"lat": 38.918538166666664, "is_disabled": 0, "type": "electric_scooter", "lon": -77.045869, "bike_id": "4fa7a5b0f1a7e0e386945f062cff0304", "fusion_lat": 0.0, "name": "4fa7a5b0f1a7e0e386945f062cff0304", "is_reserved": 0, "rental_uris": {"android": "https://dc.lft.to/lastmile_qr_scan", "ios": "https://dc.lft.to/lastmile_qr_scan"}, "fusion_lon": 0.0}, {"lat": 38.97229733333333, "is_disabled": 0, "type": "electric_bike", "lon": -76.99342616666667, "bike_id": "22d70fd7e8483bf833764439e1637777", "fusion_lat": 0.0, "name": "22d70fd7e8483bf833764439e1637777", "is_reserved": 0, "rental_uris": {"android": "https://dc.lft.to/lastmile_qr_scan", "ios": "https://dc.lft.to/lastmile_qr_scan"}, "fusion_lon": 0.0}, {"lat": 38.89550533333333, "is_disabled": 0, "type": "electric_scooter", "lon": -77.01093183333333, "bike_id": "06af6e500dae443a5cf7400a02a42f0f", "fusion_lat": 0.0, "name": "06af6e500dae443a5cf7400a02a42f0f", "is_reserved": 0, "rental_uris": {"android": "https://dc.lft.to/lastmile_qr_scan", "ios": "https://dc.lft.to/lastmile_qr_scan"}, "fusion_lon": 0.0}, {"lat": 38.919159, "is_disabled": 0, "type": "electric_scooter", "lon": -77.03176883333333, "bike_id": "7db2bd34d3c7a9f34f024fdeb21a666f", "fusion_lat": 0.0, "name": "7db2bd34d3c7a9f34f024fdeb21a666f", "is_reserved": 0, "rental_uris": {"android": "https://dc.lft.to/lastmile_qr_scan", "ios": "https://dc.lft.to/lastmile_qr_scan"}, "fusion_lon": 0.0}, {"lat": 38.90137166666667, "is_disabled": 0, "type": "electric_scooter", "lon": -77.0226545, "bike_id": "5a2cfda6234c625de982f3041a62b095", "fusion_lat": 0.0, "name": "5a2cfda6234c625de982f3041a62b095", "is_reserved": 0, "rental_uris": {"android": "https://dc.lft.to/lastmile_qr_scan", "ios": "https://dc.lft.to/lastmile_qr_scan"}, "fusion_lon": 0.0}, {"lat": 38.905280166666664, "is_disabled": 0, "type": "electric_scooter", "lon": -77.04745666666666, "bike_id": "23b80312d981ec029b8c5aae46768211", "fusion_lat": 0.0, "name": "23b80312d981ec029b8c5aae46768211", "is_reserved": 0, "rental_uris": {"android": "https://dc.lft.to/lastmile_qr_scan", "ios": "https://dc.lft.to/lastmile_qr_scan"}, "fusion_lon": 0.0}, {"lat": 38.91946166666666, "is_disabled": 0, "type": "electric_scooter", "lon": -76.98080133333333, "bike_id": "807483fb79d6bfee441ef9e9c50536dd", "fusion_lat": 0.0, "name": "807483fb79d6bfee441ef9e9c50536dd", "is_reserved": 0, "rental_uris": {"android": "https://dc.lft.to/lastmile_qr_scan", "ios": "https://dc.lft.to/lastmile_qr_scan"}, "fusion_lon": 0.0}, {"lat": 38.9004915, "is_disabled": 0, "type": "electric_scooter", "lon": -76.99676116666667, "bike_id": "1f5a3d2ae7c8fd2c386f6f56bb5c4ec8", "fusion_lat": 0.0, "name": "1f5a3d2ae7c8fd2c386f6f56bb5c4ec8", "is_reserved": 0, "rental_uris": {"android": "https://dc.lft.to/lastmile_qr_scan", "ios": "https://dc.lft.to/lastmile_qr_scan"}, "fusion_lon": 0.0}, {"lat": 38.9240365, "is_disabled": 0, "type": "electric_scooter", "lon": -77.02544516666667, "bike_id": "6cbcc3b5d5afe9079d92ae16a695b8b8", "fusion_lat": 0.0, "name": "6cbcc3b5d5afe9079d92ae16a695b8b8", "is_reserved": 0, "rental_uris": {"android": "https://dc.lft.to/lastmile_qr_scan", "ios": "https://dc.lft.to/lastmile_qr_scan"}, "fusion_lon": 0.0}, {"lat": 38.92122633333334, "is_disabled": 0, "type": "electric_scooter", "lon": -77.0457385, "bike_id": "c2499a457e7db3f0582c49ecdaa8bf06", "fusion_lat": 0.0, "name": "c2499a457e7db3f0582c49ecdaa8bf06", "is_reserved": 0, "rental_uris": {"android": "https://dc.lft.to/lastmile_qr_scan", "ios": "https://dc.lft.to/lastmile_qr_scan"}, "fusion_lon": 0.0}, {"lat": 38.93551633333333, "is_disabled": 0, "type": "electric_scooter", "lon": -77.058784, "bike_id": "4c6eaaa48662ba36f7cf993902c01aa9", "fusion_lat": 0.0, "name": "4c6eaaa48662ba36f7cf993902c01aa9", "is_reserved": 0, "rental_uris": {"android": "https://dc.lft.to/lastmile_qr_scan", "ios": "https://dc.lft.to/lastmile_qr_scan"}, "fusion_lon": 0.0}, {"lat": 38.92149233333333, "is_disabled": 0, "type": "electric_scooter", "lon": -77.033585, "bike_id": "29e4ac773d65fd8d20e4c8b3621b2923", "fusion_lat": 0.0, "name": "29e4ac773d65fd8d20e4c8b3621b2923", "is_reserved": 0, "rental_uris": {"android": "https://dc.lft.to/lastmile_qr_scan", "ios": "https://dc.lft.to/lastmile_qr_scan"}, "fusion_lon": 0.0}, {"lat": 38.90861616666667, "is_disabled": 0, "type": "electric_bike", "lon": -76.94010766666666, "bike_id": "3c531d8f7e20de6b86384b8d2adc0bc8", "fusion_lat": 0.0, "name": "3c531d8f7e20de6b86384b8d2adc0bc8", "is_reserved": 0, "rental_uris": {"android": "https://dc.lft.to/lastmile_qr_scan", "ios": "https://dc.lft.to/lastmile_qr_scan"}, "fusion_lon": 0.0}, {"lat": 38.895978, "is_disabled": 0, "type": "electric_scooter", "lon": -77.01229033333334, "bike_id": "93919fc2d96e2383bd0d3a13af774f78", "fusion_lat": 0.0, "name": "93919fc2d96e2383bd0d3a13af774f78", "is_reserved": 0, "rental_uris": {"android": "https://dc.lft.to/lastmile_qr_scan", "ios": "https://dc.lft.to/lastmile_qr_scan"}, "fusion_lon": 0.0}, {"lat": 38.867123166666666, "is_disabled": 0, "type": "electric_scooter", "lon": -76.98725383333333, "bike_id": "b1d805ba09a6472b6d744eb4c1cec77e", "fusion_lat": 0.0, "name": "b1d805ba09a6472b6d744eb4c1cec77e", "is_reserved": 0, "rental_uris": {"android": "https://dc.lft.to/lastmile_qr_scan", "ios": "https://dc.lft.to/lastmile_qr_scan"}, "fusion_lon": 0.0}, {"lat": 38.92203766666667, "is_disabled": 0, "type": "electric_scooter", "lon": -77.040252, "bike_id": "7e7b1228d46bbff050069812fe57968e", "fusion_lat": 0.0, "name": "7e7b1228d46bbff050069812fe57968e", "is_reserved": 0, "rental_uris": {"android": "https://dc.lft.to/lastmile_qr_scan", "ios": "https://dc.lft.to/lastmile_qr_scan"}, "fusion_lon": 0.0}, {"lat": 38.91511916666666, "is_disabled": 0, "type": "electric_scooter", "lon": -77.038438, "bike_id": "6f6f4c30d84191e1b2e6b331ce69c4c6", "fusion_lat": 0.0, "name": "6f6f4c30d84191e1b2e6b331ce69c4c6", "is_reserved": 0, "rental_uris": {"android": "https://dc.lft.to/lastmile_qr_scan", "ios": "https://dc.lft.to/lastmile_qr_scan"}, "fusion_lon": 0.0}, {"lat": 38.91633933333333, "is_disabled": 0, "type": "electric_scooter", "lon": -77.03138033333333, "bike_id": "69640209820b6438f88e40efee794e85", "fusion_lat": 0.0, "name": "69640209820b6438f88e40efee794e85", "is_reserved": 0, "rental_uris": {"android": "https://dc.lft.to/lastmile_qr_scan", "ios": "https://dc.lft.to/lastmile_qr_scan"}, "fusion_lon": 0.0}, {"lat": 38.93976, "is_disabled": 0, "type": "electric_scooter", "lon": -77.02887866666667, "bike_id": "4d0bd23c599a5e0123b18a5d6e4525b5", "fusion_lat": 0.0, "name": "4d0bd23c599a5e0123b18a5d6e4525b5", "is_reserved": 0, "rental_uris": {"android": "https://dc.lft.to/lastmile_qr_scan", "ios": "https://dc.lft.to/lastmile_qr_scan"}, "fusion_lon": 0.0}, {"lat": 38.898210666666664, "is_disabled": 0, "type": "electric_scooter", "lon": -77.0239305, "bike_id": "3be82e56f63200487261aad1ee1298db", "fusion_lat": 0.0, "name": "3be82e56f63200487261aad1ee1298db", "is_reserved": 0, "rental_uris": {"android": "https://dc.lft.to/lastmile_qr_scan", "ios": "https://dc.lft.to/lastmile_qr_scan"}, "fusion_lon": 0.0}, {"lat": 38.92397, "is_disabled": 0, "type": "electric_scooter", "lon": -77.02704266666667, "bike_id": "172be94489ade98bd87e3a02935a0e37", "fusion_lat": 0.0, "name": "172be94489ade98bd87e3a02935a0e37", "is_reserved": 0, "rental_uris": {"android": "https://dc.lft.to/lastmile_qr_scan", "ios": "https://dc.lft.to/lastmile_qr_scan"}, "fusion_lon": 0.0}, {"lat": 38.9053045, "is_disabled": 0, "type": "electric_bike", "lon": -77.05932916666667, "bike_id": "43ac0c3b4e494a42ebb6b0c82bc47d4b", "fusion_lat": 0.0, "name": "43ac0c3b4e494a42ebb6b0c82bc47d4b", "is_reserved": 0, "rental_uris": {"android": "https://dc.lft.to/lastmile_qr_scan", "ios": "https://dc.lft.to/lastmile_qr_scan"}, "fusion_lon": 0.0}, {"lat": 38.949020166666664, "is_disabled": 0, "type": "electric_bike", "lon": -76.97237166666666, "bike_id": "54407f51ed74654ddedbc17ed75f8fbd", "fusion_lat": 0.0, "name": "54407f51ed74654ddedbc17ed75f8fbd", "is_reserved": 0, "rental_uris": {"android": "https://dc.lft.to/lastmile_qr_scan", "ios": "https://dc.lft.to/lastmile_qr_scan"}, "fusion_lon": 0.0}, {"lat": 38.93071833333333, "is_disabled": 0, "type": "electric_scooter", "lon": -77.03127, "bike_id": "acf1834fc46c18e46ac69455401d30ff", "fusion_lat": 0.0, "name": "acf1834fc46c18e46ac69455401d30ff", "is_reserved": 0, "rental_uris": {"android": "https://dc.lft.to/lastmile_qr_scan", "ios": "https://dc.lft.to/lastmile_qr_scan"}, "fusion_lon": 0.0}, {"lat": 38.89844016666667, "is_disabled": 0, "type": "electric_scooter", "lon": -77.03018716666666, "bike_id": "1209f054522344183d62d9a20a5d00b1", "fusion_lat": 0.0, "name": "1209f054522344183d62d9a20a5d00b1", "is_reserved": 0, "rental_uris": {"android": "https://dc.lft.to/lastmile_qr_scan", "ios": "https://dc.lft.to/lastmile_qr_scan"}, "fusion_lon": 0.0}, {"lat": 38.940842, "is_disabled": 0, "type": "electric_scooter", "lon": -77.06135183333333, "bike_id": "ee9c6c8e975d55e7381a083ea7b8fe86", "fusion_lat": 0.0, "name": "ee9c6c8e975d55e7381a083ea7b8fe86", "is_reserved": 0, "rental_uris": {"android": "https://dc.lft.to/lastmile_qr_scan", "ios": "https://dc.lft.to/lastmile_qr_scan"}, "fusion_lon": 0.0}, {"lat": 38.932542833333336, "is_disabled": 0, "type": "electric_scooter", "lon": -77.04014916666667, "bike_id": "51d664d389f58f197834262c0ea7182f", "fusion_lat": 0.0, "name": "51d664d389f58f197834262c0ea7182f", "is_reserved": 0, "rental_uris": {"android": "https://dc.lft.to/lastmile_qr_scan", "ios": "https://dc.lft.to/lastmile_qr_scan"}, "fusion_lon": 0.0}, {"lat": 38.90976583333333, "is_disabled": 0, "type": "electric_scooter", "lon": -77.05260916666667, "bike_id": "631a3a07e5d013dc1b0d48670680bd96", "fusion_lat": 0.0, "name": "631a3a07e5d013dc1b0d48670680bd96", "is_reserved": 0, "rental_uris": {"android": "https://dc.lft.to/lastmile_qr_scan", "ios": "https://dc.lft.to/lastmile_qr_scan"}, "fusion_lon": 0.0}, {"lat": 38.90680033333334, "is_disabled": 0, "type": "electric_scooter", "lon": -77.00809733333334, "bike_id": "b21b32138b6b3713b2b69aaa90df6874", "fusion_lat": 0.0, "name": "b21b32138b6b3713b2b69aaa90df6874", "is_reserved": 0, "rental_uris": {"android": "https://dc.lft.to/lastmile_qr_scan", "ios": "https://dc.lft.to/lastmile_qr_scan"}, "fusion_lon": 0.0}, {"lat": 38.92949266666667, "is_disabled": 0, "type": "electric_scooter", "lon": -77.03184966666667, "bike_id": "b7f985b2949d02d90309fdfece079641", "fusion_lat": 0.0, "name": "b7f985b2949d02d90309fdfece079641", "is_reserved": 0, "rental_uris": {"android": "https://dc.lft.to/lastmile_qr_scan", "ios": "https://dc.lft.to/lastmile_qr_scan"}, "fusion_lon": 0.0}, {"lat": 38.896465, "is_disabled": 0, "type": "electric_scooter", "lon": -77.04672616666667, "bike_id": "91423ea1d0978554416784a8f81e94fb", "fusion_lat": 0.0, "name": "91423ea1d0978554416784a8f81e94fb", "is_reserved": 0, "rental_uris": {"android": "https://dc.lft.to/lastmile_qr_scan", "ios": "https://dc.lft.to/lastmile_qr_scan"}, "fusion_lon": 0.0}, {"lat": 38.866567333333336, "is_disabled": 0, "type": "electric_scooter", "lon": -76.98908633333333, "bike_id": "0bae3b402b0cbe6901ca74c765b420d6", "fusion_lat": 0.0, "name": "0bae3b402b0cbe6901ca74c765b420d6", "is_reserved": 0, "rental_uris": {"android": "https://dc.lft.to/lastmile_qr_scan", "ios": "https://dc.lft.to/lastmile_qr_scan"}, "fusion_lon": 0.0}, {"lat": 38.92842066666667, "is_disabled": 0, "type": "electric_scooter", "lon": -77.05420183333334, "bike_id": "f5d48bb4698fca5adccf53c7822159a2", "fusion_lat": 0.0, "name": "f5d48bb4698fca5adccf53c7822159a2", "is_reserved": 0, "rental_uris": {"android": "https://dc.lft.to/lastmile_qr_scan", "ios": "https://dc.lft.to/lastmile_qr_scan"}, "fusion_lon": 0.0},