{"data": {"bikes": [{"lat": 38.90490116666667, "fusion_lat": 0.0, "type": "electric_scooter", "bike_id": "651c14335b621285b9ba758f796bd75b", "is_reserved": 0, "rental_uris": {"ios": "https://dc.lft.to/lastmile_qr_scan", "android": "https://dc.lft.to/lastmile_qr_scan"}, "is_disabled": 0, "lon": -77.04636166666667, "name": "651c14335b621285b9ba758f796bd75b", "fusion_lon": 0.0}, {"lat": 38.879399166666666, "fusion_lat": 0.0, "type": "electric_scooter", "bike_id": "43d14e1af796e811c5b1082e69286851", "is_reserved": 0, "rental_uris": {"ios": "https://dc.lft.to/lastmile_qr_scan", "android": "https://dc.lft.to/lastmile_qr_scan"}, "is_disabled": 0, "lon": -77.01466866666667, "name": "43d14e1af796e811c5b1082e69286851", "fusion_lon": 0.0}, {"lat": 38.905666333333336, "fusion_lat": 0.0, "type": "electric_scooter", "bike_id": "f86796fa3db3f784005fe29b76ddfbf3", "is_reserved": 0, "rental_uris": {"ios": "https://dc.lft.to/lastmile_qr_scan", "android": "https://dc.lft.to/lastmile_qr_scan"}, "is_disabled": 0, "lon": -77.035293, "name": "f86796fa3db3f784005fe29b76ddfbf3", "fusion_lon": 0.0}, {"lat": 38.933373333333336, "fusion_lat": 0.0, "type": "electric_scooter", "bike_id": "f7a6564c351923008b62ac49131711e1", "is_reserved": 0, "rental_uris": {"ios": "https://dc.lft.to/lastmile_qr_scan", "android": "https://dc.lft.to/lastmile_qr_scan"}, "is_disabled": 0, "lon": -77.0387845, "name": "f7a6564c351923008b62ac49131711e1", "fusion_lon": 0.0}, {"lat": 38.90005166666667, "fusion_lat": 0.0, "type": "electric_scooter", "bike_id": "8dffe10754486f5e5e1e9f35c9dfc2e7", "is_reserved": 0, "rental_uris": {"ios": "https://dc.lft.to/lastmile_qr_scan", "android": "https://dc.lft.to/lastmile_qr_scan"}, "is_disabled": 0, "lon": -77.03196, "name": "8dffe10754486f5e5e1e9f35c9dfc2e7", "fusion_lon": 0.0}, {"lat": 38.904225333333336, "fusion_lat": 0.0, "type": "electric_scooter", "bike_id": "c5b4cceb07af70055e813df4ca56b5b5", "is_reserved": 0, "rental_uris": {"ios": "https://dc.lft.to/lastmile_qr_scan", "android": "https://dc.lft.to/lastmile_qr_scan"}, "is_disabled": 0, "lon": -77.04369583333333, "name": "c5b4cceb07af70055e813df4ca56b5b5", "fusion_lon": 0.0}, {"lat": 38.90156783333333, "fusion_lat": 0.0, "type": "electric_scooter", "bike_id": "c099b77a413e4e3da45177a855e5fb68", "is_reserved": 0, "rental_uris": {"ios": "https://dc.lft.to/lastmile_qr_scan", "android": "https://dc.lft.to/lastmile_qr_scan"}, "is_disabled": 0, "lon": -77.02695866666667, "name": "c099b77a413e4e3da45177a855e5fb68", "fusion_lon": 0.0}, {"lat": 38.921597166666665, "fusion_lat": 0.0, "type": "electric_scooter", "bike_id": "e793ea0616a80fba868a7504079151fa", "is_reserved": 0, "rental_uris": {"ios": "https://dc.lft.to/lastmile_qr_scan", "android": "https://dc.lft.to/lastmile_qr_scan"}, "is_disabled": 0, "lon": -77.03471066666667, "name": "e793ea0616a80fba868a7504079151fa", "fusion_lon": 0.0}, {"lat": 38.92237133333333, "fusion_lat": 0.0, "type": "electric_scooter", "bike_id": "6dd7c2f8924acf47a0600514fefe91d0", "is_reserved": 0, "rental_uris": {"ios": "https://dc.lft.to/lastmile_qr_scan", "android": "https://dc.lft.to/lastmile_qr_scan"}, "is_disabled": 0, "lon": -77.0351725, "name": "6dd7c2f8924acf47a0600514fefe91d0", "fusion_lon": 0.0}, {"lat": 38.93229083333333, "fusion_lat": 0.0, "type": "electric_scooter", "bike_id": "1942c504666dfc667b86837e019a7ed0", "is_reserved": 0, "rental_uris": {"ios": "https://dc.lft.to/lastmile_qr_scan", "android": "https://dc.lft.to/lastmile_qr_scan"}, "is_disabled": 0, "lon": -76.99608933333333, "name": "1942c504666dfc667b86837e019a7ed0", "fusion_lon": 0.0}, {"lat": 38.90598933333333, "fusion_lat": 0.0, "type": "electric_scooter", "bike_id": "d2ae08fba2a73c2d7f411378fc42acc7", "is_reserved": 0, "rental_uris": {"ios": "https://dc.lft.to/lastmile_qr_scan", "android": "https://dc.lft.to/lastmile_qr_scan"}, "is_disabled": 0, "lon": -77.06805666666666, "name": "d2ae08fba2a73c2d7f411378fc42acc7", "fusion_lon": 0.0}, {"lat": 38.956862666666666, "fusion_lat": 0.0, "type": "electric_bike", "bike_id": "9bec67c52529b42d6bdfbb091fb91fbd", "is_reserved": 0, "rental_uris": {"ios": "https://dc.lft.to/lastmile_qr_scan", "android": "https://dc.lft.to/lastmile_qr_scan"}, "is_disabled": 0, "lon": -77.02232116666667, "name": "9bec67c52529b42d6bdfbb091fb91fbd", "fusion_lon": 0.0}, {"lat": 38.95848016666667, "fusion_lat": 0.0, "type": "electric_scooter", "bike_id": "9559527712fc02283b285dc58e93015f", "is_reserved": 0, "rental_uris": {"ios": "https://dc.lft.to/lastmile_qr_scan", "android": "https://dc.lft.to/lastmile_qr_scan"}, "is_disabled": 0, "lon": -77.0274295, "name": "9559527712fc02283b285dc58e93015f", "fusion_lon": 0.0}, {"lat": 38.9498825, "fusion_lat": 0.0, "type": "electric_scooter", "bike_id": "42239953341c94c62487109500296831", "is_reserved": 0, "rental_uris": {"ios": "https://dc.lft.to/lastmile_qr_scan", "android": "https://dc.lft.to/lastmile_qr_scan"}, "is_disabled": 0, "lon": -77.02655083333333, "name": "42239953341c94c62487109500296831", "fusion_lon": 0.0}, {"lat": 38.892377, "fusion_lat": 0.0, "type": "electric_scooter", "bike_id": "983dcb25ac9b02a84be93f782e82dcb8", "is_reserved": 0, "rental_uris": {"ios": "https://dc.lft.to/lastmile_qr_scan", "android": "https://dc.lft.to/lastmile_qr_scan"}, "is_disabled": 0, "lon": -77.02384766666667, "name": "983dcb25ac9b02a84be93f782e82dcb8", "fusion_lon": 0.0}, {"lat": 38.92172083333333, "fusion_lat": 0.0, "type": "electric_scooter", "bike_id": "73d10be71e29673bd8ea1cddee6f236c", "is_reserved": 0, "rental_uris": {"ios": "https://dc.lft.to/lastmile_qr_scan", "android": "https://dc.lft.to/lastmile_qr_scan"}, "is_disabled": 0, "lon": -77.04699116666667, "name": "73d10be71e29673bd8ea1cddee6f236c", "fusion_lon": 0.0}, {"lat": 38.8861645, "fusion_lat": 0.0, "type": "electric_scooter", "bike_id": "5fd92c4e952d7d489f4e0b4ab69d7161", "is_reserved": 0, "rental_uris": {"ios": "https://dc.lft.to/lastmile_qr_scan", "android": "https://dc.lft.to/lastmile_qr_scan"}, "is_disabled": 0, "lon": -77.00142183333334, "name": "5fd92c4e952d7d489f4e0b4ab69d7161", "fusion_lon": 0.0}, {"lat": 38.922346833333336, "fusion_lat": 0.0, "type": "electric_scooter", "bike_id": "7964c02cda3b1da3211901b8cd4e5554", "is_reserved": 0, "rental_uris": {"ios": "https://dc.lft.to/lastmile_qr_scan", "android": "https://dc.lft.to/lastmile_qr_scan"}, "is_disabled": 0, "lon": -77.04706183333333, "name": "7964c02cda3b1da3211901b8cd4e5554", "fusion_lon": 0.0}, {"lat": 38.859385833333334, "fusion_lat": 0.0, "type": "electric_bike", "bike_id": "c8eb75c0feb4f962fa5aed3f791c481b", "is_reserved": 0, "rental_uris": {"ios": "https://dc.lft.to/lastmile_qr_scan", "android": "https://dc.lft.to/lastmile_qr_scan"}, "is_disabled": 0, "lon": -77.11829416666667, "name": "c8eb75c0feb4f962fa5aed3f791c481b", "fusion_lon": 0.0}, {"lat": 38.92760233333333, "fusion_lat": 0.0, "type": "electric_scooter", "bike_id": "cff57fea4611bbb97a1d6ad63b0ca874", "is_reserved": 0, "rental_uris": {"ios": "https://dc.lft.to/lastmile_qr_scan", "android": "https://dc.lft.to/lastmile_qr_scan"}, "is_disabled": 0, "lon": -77.03279233333333, "name": "cff57fea4611bbb97a1d6ad63b0ca874", "fusion_lon": 0.0}, {"lat": 38.906075, "fusion_lat": 0.0, "type": "electric_scooter", "bike_id": "952d19738d5e0a80d1bd8a084cf79638", "is_reserved": 0, "rental_uris": {"ios": "https://dc.lft.to/lastmile_qr_scan", "android": "https://dc.lft.to/lastmile_qr_scan"}, "is_disabled": 0, "lon": -77.05686933333334, "name": "952d19738d5e0a80d1bd8a084cf79638", "fusion_lon": 0.0}, {"lat": 38.92398383333333, "fusion_lat": 0.0, "type": "electric_scooter", "bike_id": "71c231e8295b84f9b2f4d2d232d1f0cc", "is_reserved": 0, "rental_uris": {"ios": "https://dc.lft.to/lastmile_qr_scan", "android": "https://dc.lft.to/lastmile_qr_scan"}, "is_disabled": 0, "lon": -77.02139933333333, "name": "71c231e8295b84f9b2f4d2d232d1f0cc", "fusion_lon": 0.0}, {"lat": 38.87305883333333, "fusion_lat": 0.0, "type": "electric_scooter", "bike_id": "a6e486df3bc52bcdeb5ea1700f23c645", "is_reserved": 0, "rental_uris": {"ios": "https://dc.lft.to/lastmile_qr_scan", "android": "https://dc.lft.to/lastmile_qr_scan"}, "is_disabled": 0, "lon": -77.00984483333333, "name": "a6e486df3bc52bcdeb5ea1700f23c645", "fusion_lon": 0.0}, {"lat": 38.89832366666667, "fusion_lat": 0.0, "type": "electric_scooter", "bike_id": "e2b217acf4aba5c9381475dc1ab035b7", "is_reserved": 0, "rental_uris": {"ios": "https://dc.lft.to/lastmile_qr_scan", "android": "https://dc.lft.to/lastmile_qr_scan"}, "is_disabled": 0, "lon": -77.03332433333334, "name": "e2b217acf4aba5c9381475dc1ab035b7", "fusion_lon": 0.0}, {"lat": 38.90462516666667, "fusion_lat": 0.0, "type": "electric_scooter", "bike_id": "11c70590de95349ad584a98969bf12e6", "is_reserved": 0, "rental_uris": {"ios": "https://dc.lft.to/lastmile_qr_scan", "android": "https://dc.lft.to/lastmile_qr_scan"}, "is_disabled": 0, "lon": -77.03826966666666, "name": "11c70590de95349ad584a98969bf12e6", "fusion_lon": 0.0}, {"lat": 38.93437266666667, "fusion_lat": 0.0, "type": "electric_scooter", "bike_id": "d7a70603d63f197eaa640837869d7d96", "is_reserved": 0, "rental_uris": {"ios": "https://dc.lft.to/lastmile_qr_scan", "android": "https://dc.lft.to/lastmile_qr_scan"}, "is_disabled": 0, "lon": -77.0271875, "name": "d7a70603d63f197eaa640837869d7d96", "fusion_lon": 0.0}, {"lat": 38.900985, "fusion_lat": 0.0, "type": "electric_scooter", "bike_id": "5956ac2635426ea72a439b9c3721bd7d", "is_reserved": 0, "rental_uris": {"ios": "https://dc.lft.to/lastmile_qr_scan", "android": "https://dc.lft.to/lastmile_qr_scan"}, "is_disabled": 0, "lon": -77.05782033333334, "name": "5956ac2635426ea72a439b9c3721bd7d", "fusion_lon": 0.0}, {"lat": 38.923149, "fusion_lat": 0.0, "type": "electric_scooter", "bike_id": "c50300f20614a99776e481cb5a115986", "is_reserved": 0, "rental_uris": {"ios": "https://dc.lft.to/lastmile_qr_scan", "android": "https://dc.lft.to/lastmile_qr_scan"}, "is_disabled": 0, "lon": -77.02761216666667, "name": "c50300f20614a99776e481cb5a115986", "fusion_lon": 0.0}, {"lat": 38.910145666666665, "fusion_lat": 0.0, "type": "electric_bike", "bike_id": "32494e8a65752b70a012e91534625ffa", "is_reserved": 0, "rental_uris": {"ios": "https://dc.lft.to/lastmile_qr_scan", "android": "https://dc.lft.to/lastmile_qr_scan"}, "is_disabled": 0, "lon": -77.22798266666666, "name": "32494e8a65752b70a012e91534625ffa", "fusion_lon": 0.0}, {"lat": 38.914085666666665, "fusion_lat": 0.0, "type": "electric_scooter", "bike_id": "5291f0152aab1ff98531fd84123239d5", "is_reserved": 0, "rental_uris": {"ios": "https://dc.lft.to/lastmile_qr_scan", "android": "https://dc.lft.to/lastmile_qr_scan"}, "is_disabled": 0, "lon": -77.02107216666667, "name": "5291f0152aab1ff98531fd84123239d5", "fusion_lon": 0.0}, {"lat": 38.87283266666667, "fusion_lat": 0.0, "type": "electric_bike", "bike_id": "927eba1985ee3694281e800e2781c799", "is_reserved": 0, "rental_uris": {"ios": "https://dc.lft.to/lastmile_qr_scan", "android": "https://dc.lft.to/lastmile_qr_scan"}, "is_disabled": 0, "lon": -77.23318833333333, "name": "927eba1985ee3694281e800e2781c799", "fusion_lon": 0.0}, {"lat": 38.863518166666665, "fusion_lat": 0.0, "type": "electric_scooter", "bike_id": "243447eaa0c72110fda7447e6b8b7ae3", "is_reserved": 0, "rental_uris": {"ios": "https://dc.lft.to/lastmile_qr_scan", "android": "https://dc.lft.to/lastmile_qr_scan"}, "is_disabled": 0, "lon": -76.98704083333334, "name": "243447eaa0c72110fda7447e6b8b7ae3", "fusion_lon": 0.0}, {"lat": 38.9156615, "fusion_lat": 0.0, "type": "electric_scooter", "bike_id": "241aa5c9c8f0cf3cdb84092e7ebf16b4", "is_reserved": 0, "rental_uris": {"ios": "https://dc.lft.to/lastmile_qr_scan", "android": "https://dc.lft.to/lastmile_qr_scan"}, "is_disabled": 0, "lon": -77.0395555, "name": "241aa5c9c8f0cf3cdb84092e7ebf16b4", "fusion_lon": 0.0}, {"lat": 38.91525333333333, "fusion_lat": 0.0, "type": "electric_scooter", "bike_id": "d4f23f399a4f2f6d982bd0b1a9d33212", "is_reserved": 0, "rental_uris": {"ios": "https://dc.lft.to/lastmile_qr_scan", "android": "https://dc.lft.to/lastmile_qr_scan"}, "is_disabled": 0, "lon": -77.03195483333333, "name": "d4f23f399a4f2f6d982bd0b1a9d33212", "fusion_lon": 0.0}, {"lat": 38.86952216666667, "fusion_lat": 0.0, "type": "electric_scooter", "bike_id": "55aece62e402ad1461b1e8ad4749ffc5", "is_reserved": 0, "rental_uris": {"ios": "https://dc.lft.to/lastmile_qr_scan", "android": "https://dc.lft.to/lastmile_qr_scan"}, "is_disabled": 0, "lon": -76.98176733333334, "name": "55aece62e402ad1461b1e8ad4749ffc5", "fusion_lon": 0.0}, {"lat": 38.88062566666667, "fusion_lat": 0.0, "type": "electric_bike", "bike_id": "7fc33942c099dcce2b04ccde9a63f9b8", "is_reserved": 0, "rental_uris": {"ios": "https://dc.lft.to/lastmile_qr_scan", "android": "https://dc.lft.to/lastmile_qr_scan"}, "is_disabled": 0, "lon": -76.9623975, "name": "7fc33942c099dcce2b04ccde9a63f9b8", "fusion_lon": 0.0}, {"lat": 38.910279333333335, "fusion_lat": 0.0, "type": "electric_scooter", "bike_id": "03db32c9a939c716bae1082fcfdac15f", "is_reserved": 0, "rental_uris": {"ios": "https://dc.lft.to/lastmile_qr_scan", "android": "https://dc.lft.to/lastmile_qr_scan"}, "is_disabled": 0, "lon": -76.986177, "name": "03db32c9a939c716bae1082fcfdac15f", "fusion_lon": 0.0}, {"lat": 38.939779333333334, "fusion_lat": 0.0, "type": "electric_bike", "bike_id": "297d09cdcb919254a9a08f50b799a4a1", "is_reserved": 0, "rental_uris": {"ios": "https://dc.lft.to/lastmile_qr_scan", "android": "https://dc.lft.to/lastmile_qr_scan"}, "is_disabled": 0, "lon": -77.03766366666666, "name": "297d09cdcb919254a9a08f50b799a4a1", "fusion_lon": 0.0}, {"lat": 38.91621933333333, "fusion_lat": 0.0, "type": "electric_scooter", "bike_id": "53fc695f7202af7bc25be22acab5ec6e", "is_reserved": 0, "rental_uris": {"ios": "https://dc.lft.to/lastmile_qr_scan", "android": "https://dc.lft.to/lastmile_qr_scan"}, "is_disabled": 0, "lon": -77.04853266666667, "name": "53fc695f7202af7bc25be22acab5ec6e", "fusion_lon": 0.0}, {"lat": 38.903955833333335, "fusion_lat": 0.0, "type": "electric_scooter", "bike_id": "2514607079cf7930c2717b76c3205f27", "is_reserved": 0, "rental_uris": {"ios": "https://dc.lft.to/lastmile_qr_scan", "android": "https://dc.lft.to/lastmile_qr_scan"}, "is_disabled": 0, "lon": -77.0433405, "name": "2514607079cf7930c2717b76c3205f27", "fusion_lon": 0.0}, {"lat": 39.05498266666667, "fusion_lat": 0.0, "type": "electric_bike", "bike_id": "46cc7a05d3203a4940a170604c2139f7", "is_reserved": 0, "rental_uris": {"ios": "https://dc.lft.to/lastmile_qr_scan", "android": "https://dc.lft.to/lastmile_qr_scan"}, "is_disabled": 0, "lon": -77.0464975, "name": "46cc7a05d3203a4940a170604c2139f7", "fusion_lon": 0.0}, {"lat": 38.90281, "fusion_lat": 0.0, "type": "electric_scooter", "bike_id": "a19f2d54fb09ca52b5e546182e591a87", "is_reserved": 0, "rental_uris": {"ios": "https://dc.lft.to/lastmile_qr_scan", "android": "https://dc.lft.to/lastmile_qr_scan"}, "is_disabled": 0, "lon": -77.058152, "name": "a19f2d54fb09ca52b5e546182e591a87", "fusion_lon": 0.0}, {"lat": 38.906193, "fusion_lat": 0.0, "type": "electric_scooter", "bike_id": "789250b6668718f70c4f57d0dedb9fe7", "is_reserved": 0, "rental_uris": {"ios": "https://dc.lft.to/lastmile_qr_scan", "android": "https://dc.lft.to/lastmile_qr_scan"}, "is_disabled": 0, "lon": -77.05136483333334, "name": "789250b6668718f70c4f57d0dedb9fe7", "fusion_lon": 0.0}, {"lat": 38.88610666666667, "fusion_lat": 0.0, "type": "electric_scooter", "bike_id": "9a356b096444f18cc7f75fdf0728da9a", "is_reserved": 0, "rental_uris": {"ios": "https://dc.lft.to/lastmile_qr_scan", "android": "https://dc.lft.to/lastmile_qr_scan"}, "is_disabled": 0, "lon": -76.99512766666666, "name": "9a356b096444f18cc7f75fdf0728da9a", "fusion_lon": 0.0}, {"lat": 38.93318, "fusion_lat": 0.0, "type": "electric_scooter", "bike_id": "211cf9c414139ca0ca372f56724c2055", "is_reserved": 0, "rental_uris": {"ios": "https://dc.lft.to/lastmile_qr_scan", "android": "https://dc.lft.to/lastmile_qr_scan"}, "is_disabled": 0, "lon": -77.034397, "name": "211cf9c414139ca0ca372f56724c2055", "fusion_lon": 0.0}, {"lat": 38.92857383333333, "fusion_lat": 0.0, "type": "electric_scooter", "bike_id": "d64a224cc6fcac952492c292e13d745c", "is_reserved": 0, "rental_uris": {"ios": "https://dc.lft.to/lastmile_qr_scan", "android": "https://dc.lft.to/lastmile_qr_scan"}, "is_disabled": 0, "lon": -77.036637, "name": "d64a224cc6fcac952492c292e13d745c", "fusion_lon": 0.0}, {"lat": 38.89847666666667, "fusion_lat": 0.0, "type": "electric_scooter", "bike_id": "60667c55413da90d24179c7457bc1f82", "is_reserved": 0, "rental_uris": {"ios": "https://dc.lft.to/lastmile_qr_scan", "android": "https://dc.lft.to/lastmile_qr_scan"}, "is_disabled": 0, "lon": -77.02595783333334, "name": "60667c55413da90d24179c7457bc1f82", "fusion_lon": 0.0}, {"lat": 38.956546333333335, "fusion_lat": 0.0, "type": "electric_scooter", "bike_id": "ad4deef0103afdee1dfe28be1222fbf6", "is_reserved": 0, "rental_uris": {"ios": "https://dc.lft.to/lastmile_qr_scan", "android": "https://dc.lft.to/lastmile_qr_scan"}, "is_disabled": 0, "lon": -77.0127315, "name": "ad4deef0103afdee1dfe28be1222fbf6", "fusion_lon": 0.0}, {"lat": 38.93407066666666, "fusion_lat": 0.0, "type": "electric_scooter", "bike_id": "7a2fa80a8befc5af83f164541ec0ae1e", "is_reserved": 0, "rental_uris": {"ios": "https://dc.lft.to/lastmile_qr_scan", "android": "https://dc.lft.to/lastmile_qr_scan"}, "is_disabled": 0, "lon": -77.0398695, "name": "7a2fa80a8befc5af83f164541ec0ae1e", "fusion_lon": 0.0}, {"lat": 38.92458083333333, "fusion_lat": 0.0, "type": "electric_scooter", "bike_id": "e3a0eb8c753629f47eee3c26236537b2", "is_reserved": 0, "rental_uris": {"ios": "https://dc.lft.to/lastmile_qr_scan", "android": "https://dc.lft.to/lastmile_qr_scan"}, "is_disabled": 0, "lon": -77.07823933333333, "name": "e3a0eb8c753629f47eee3c26236537b2", "fusion_lon": 0.0}, {"lat": 38.929681333333335, "fusion_lat": 0.0, "type": "electric_bike", "bike_id": "9403550270c5e93d9b7935675f824879", "is_reserved": 0, "rental_uris": {"ios": "https://dc.lft.to/lastmile_qr_scan", "android": "https://dc.lft.to/lastmile_qr_scan"}, "is_disabled": 0, "lon": -77.18564283333333, "name": "9403550270c5e93d9b7935675f824879", "fusion_lon": 0.0}, {"lat": 38.907085333333335, "fusion_lat": 0.0, "type": "electric_scooter", "bike_id": "cfe01153cf20ad4f1f722cf2d68c86db", "is_reserved": 0, "rental_uris": {"ios": "https://dc.lft.to/lastmile_qr_scan", "android": "https://dc.lft.to/lastmile_qr_scan"}, "is_disabled": 0, "lon": -77.02969966666667, "name": "cfe01153cf20ad4f1f722cf2d68c86db", "fusion_lon": 0.0}, {"lat": 38.8974715, "fusion_lat": 0.0, "type": "electric_scooter", "bike_id": "ff940d3e470797824f0ffd3273b3bb55", "is_reserved": 0, "rental_uris": {"ios": "https://dc.lft.to/lastmile_qr_scan", "android": "https://dc.lft.to/lastmile_qr_scan"}, "is_disabled": 0, "lon": -77.00765883333334, "name": "ff940d3e470797824f0ffd3273b3bb55", "fusion_lon": 0.0}, {"lat": 38.904243, "fusion_lat": 0.0, "type": "electric_scooter", "bike_id": "b627792e7e4054ae9be2723f17e3f6d2", "is_reserved": 0, "rental_uris": {"ios": "https://dc.lft.to/lastmile_qr_scan", "android": "https://dc.lft.to/lastmile_qr_scan"}, "is_disabled": 0, "lon": -77.01742066666667, "name": "b627792e7e4054ae9be2723f17e3f6d2", "fusion_lon": 0.0}, {"lat": 39.05280783333333, "fusion_lat": 0.0, "type": "electric_bike", "bike_id": "0dd741aab753baf756a6cf37b359039a", "is_reserved": 0, "rental_uris": {"ios": "https://dc.lft.to/lastmile_qr_scan", "android": "https://dc.lft.to/lastmile_qr_scan"}, "is_disabled": 0, "lon": -77.08070733333334, "name": "0dd741aab753baf756a6cf37b359039a", "fusion_lon": 0.0}, {"lat": 38.87512133333333, "fusion_lat": 0.0, "type": "electric_scooter", "bike_id": "5765b5c9fc6841c096d24c2fc6af148b", "is_reserved": 0, "rental_uris": {"ios": "https://dc.lft.to/lastmile_qr_scan", "android": "https://dc.lft.to/lastmile_qr_scan"}, "is_disabled": 0, "lon": -76.99975116666667, "name": "5765b5c9fc6841c096d24c2fc6af148b", "fusion_lon": 0.0}, {"lat": 38.90128333333333, "fusion_lat": 0.0, "type": "electric_scooter", "bike_id": "b64c401f37bdbc4716c6779533feb777", "is_reserved": 0, "rental_uris": {"ios": "https://dc.lft.to/lastmile_qr_scan", "android": "https://dc.lft.to/lastmile_qr_scan"}, "is_disabled": 0, "lon": -77.041611, "name": "b64c401f37bdbc4716c6779533feb777", "fusion_lon": 0.0}, {"lat": 38.9147525, "fusion_lat": 0.0, "type": "electric_scooter", "bike_id": "ab224bc2da8af41314e991cb323777cb", "is_reserved": 0, "rental_uris": {"ios": "https://dc.lft.to/lastmile_qr_scan", "android": "https://dc.lft.to/lastmile_qr_scan"}, "is_disabled": 0, "lon": -76.98418966666667, "name": "ab224bc2da8af41314e991cb323777cb", "fusion_lon": 0.0}, {"lat": 38.919345166666666, "fusion_lat": 0.0, "type": "electric_scooter", "bike_id": "2e900ff0105479195a2af0ac3d1cdf1c", "is_reserved": 0, "rental_uris": {"ios": "https://dc.lft.to/lastmile_qr_scan", "android": "https://dc.lft.to/lastmile_qr_scan"}, "is_disabled": 0, "lon": -77.00220266666666, "name": "2e900ff0105479195a2af0ac3d1cdf1c", "fusion_lon": 0.0}, {"lat": 38.87109, "fusion_lat": 0.0, "type": "electric_scooter", "bike_id": "2e01d3037186fa275712e1be9d222209", "is_reserved": 0, "rental_uris": {"ios": "https://dc.lft.to/lastmile_qr_scan", "android": "https://dc.lft.to/lastmile_qr_scan"}, "is_disabled": 0, "lon": -76.96572683333333, "name": "2e01d3037186fa275712e1be9d222209", "fusion_lon": 0.0}, {"lat": 38.8621625, "fusion_lat": 0.0, "type": "electric_scooter", "bike_id": "bffe864dd2a54453bb14937288270746", "is_reserved": 0, "rental_uris": {"ios": "https://dc.lft.to/lastmile_qr_scan", "android": "https://dc.lft.to/lastmile_qr_scan"}, "is_disabled": 0, "lon": -76.99481466666667, "name": "bffe864dd2a54453bb14937288270746", "fusion_lon": 0.0}, {"lat": 38.921569, "fusion_lat": 0.0, "type": "electric_scooter", "bike_id": "4bec465fe39003a6d687bae8cc023677", "is_reserved": 0, "rental_uris": {"ios": "https://dc.lft.to/lastmile_qr_scan", "android": "https://dc.lft.to/lastmile_qr_scan"}, "is_disabled": 0, "lon": -77.03381033333334, "name": "4bec465fe39003a6d687bae8cc023677", "fusion_lon": 0.0}, {"lat": 38.94091183333333, "fusion_lat": 0.0, "type": "electric_scooter", "bike_id": "098373427e9aebb7c75d6c0e666fb216", "is_reserved": 0, "rental_uris": {"ios": "https://dc.lft.to/lastmile_qr_scan", "android": "https://dc.lft.to/lastmile_qr_scan"}, "is_disabled": 0, "lon": -77.02725433333333, "name": "098373427e9aebb7c75d6c0e666fb216", "fusion_lon": 0.0}, {"lat": 38.91527883333333, "fusion_lat": 0.0, "type": "electric_scooter", "bike_id": "13e37ec78265fa18dd12dad1ed6e41d2", "is_reserved": 0, "rental_uris": {"ios": "https://dc.lft.to/lastmile_qr_scan", "android": "https://dc.lft.to/lastmile_qr_scan"}, "is_disabled": 0, "lon": -76.98365633333333, "name": "13e37ec78265fa18dd12dad1ed6e41d2", "fusion_lon": 0.0}, {"lat": 38.8670385, "fusion_lat": 0.0, "type": "electric_scooter", "bike_id": "59044639eba414d079f3eee88e207bd4", "is_reserved": 0, "rental_uris": {"ios": "https://dc.lft.to/lastmile_qr_scan", "android": "https://dc.lft.to/lastmile_qr_scan"}, "is_disabled": 0, "lon": -76.98718583333333, "name": "59044639eba414d079f3eee88e207bd4", "fusion_lon": 0.0}, {"lat": 38.94792666666667, "fusion_lat": 0.0, "type": "electric_scooter", "bike_id": "aadce4f929533778176f9dc9c831d9cd", "is_reserved": 0, "rental_uris": {"ios": "https://dc.lft.to/lastmile_qr_scan", "android": "https://dc.lft.to/lastmile_qr_scan"}, "is_disabled": 0, "lon": -77.08023466666667, "name": "aadce4f929533778176f9dc9c831d9cd", "fusion_lon": 0.0}, {"lat": 38.9350545, "fusion_lat": 0.0, "type": "electric_scooter", "bike_id": "cb1f1b52540653e45bb20cf5e7bb1fcf", "is_reserved": 0, "rental_uris": {"ios": "https://dc.lft.to/lastmile_qr_scan", "android": "https://dc.lft.to/lastmile_qr_scan"}, "is_disabled": 0, "lon": -77.02843983333334, "name": "cb1f1b52540653e45bb20cf5e7bb1fcf", "fusion_lon": 0.0}, {"lat": 38.90026233333333, "fusion_lat": 0.0, "type": "electric_scooter", "bike_id": "e776574a920fe393e5f2c736baf819e6", "is_reserved": 0, "rental_uris": {"ios": "https://dc.lft.to/lastmile_qr_scan", "android": "https://dc.lft.to/lastmile_qr_scan"}, "is_disabled": 0, "lon": -76.99930966666666, "name": "e776574a920fe393e5f2c736baf819e6", "fusion_lon": 0.0}, {"lat": 38.9056485, "fusion_lat": 0.0, "type": "electric_bike", "bike_id": "cc595edeb9dd3b55052c1ea317dc9673", "is_reserved": 0, "rental_uris": {"ios": "https://dc.lft.to/lastmile_qr_scan", "android": "https://dc.lft.to/lastmile_qr_scan"}, "is_disabled": 0, "lon": -77.00891216666666, "name": "cc595edeb9dd3b55052c1ea317dc9673", "fusion_lon": 0.0}, {"lat": 38.90272683333333, "fusion_lat": 0.0, "type": "electric_scooter", "bike_id": "185f80c0d8ac7ba1cf2a561352c0970e", "is_reserved": 0, "rental_uris": {"ios": "https://dc.lft.to/lastmile_qr_scan", "android": "https://dc.lft.to/lastmile_qr_scan"}, "is_disabled": 0, "lon": -77.038551, "name": "185f80c0d8ac7ba1cf2a561352c0970e", "fusion_lon": 0.0}, {"lat": 38.926536, "fusion_lat": 0.0, "type": "electric_scooter", "bike_id": "60ec9d72492d45793a2fe4b33cabb807", "is_reserved": 0, "rental_uris": {"ios": "https://dc.lft.to/lastmile_qr_scan", "android": "https://dc.lft.to/lastmile_qr_scan"}, "is_disabled": 0, "lon": -76.99563233333333, "name": "60ec9d72492d45793a2fe4b33cabb807", "fusion_lon": 0.0}, {"lat": 38.898698, "fusion_lat": 0.0, "type": "electric_scooter", "bike_id": "b8e1d4f9c801098a4ea4ab4eba689f22", "is_reserved": 0, "rental_uris": {"ios": "https://dc.lft.to/lastmile_qr_scan", "android": "https://dc.lft.to/lastmile_qr_scan"}, "is_disabled": 0, "lon": -76.92759633333333, "name": "b8e1d4f9c801098a4ea4ab4eba689f22", "fusion_lon": 0.0}, {"lat": 38.95940133333333, "fusion_lat": 0.0, "type": "electric_scooter", "bike_id": "545cee7d90f6c3c3b707b3046861fc04", "is_reserved": 0, "rental_uris": {"ios": "https://dc.lft.to/lastmile_qr_scan", "android": "https://dc.lft.to/lastmile_qr_scan"}, "is_disabled": 0, "lon": -77.03054533333334, "name": "545cee7d90f6c3c3b707b3046861fc04", "fusion_lon": 0.0}, {"lat": 38.929732, "fusion_lat": 0.0, "type": "electric_scooter", "bike_id": "9c5795f1d3c1aabb993492ea9352d9e3", "is_reserved": 0, "rental_uris": {"ios": "https://dc.lft.to/lastmile_qr_scan", "android": "https://dc.lft.to/lastmile_qr_scan"}, "is_disabled": 0, "lon": -77.0168955, "name": "9c5795f1d3c1aabb993492ea9352d9e3", "fusion_lon": 0.0}, {"lat": 38.9053775, "fusion_lat": 0.0, "type": "electric_scooter", "bike_id": "fae747ed63d5cbd27f65bf8afd949bfc", "is_reserved": 0, "rental_uris": {"ios": "https://dc.lft.to/lastmile_qr_scan", "android": "https://dc.lft.to/lastmile_qr_scan"}, "is_disabled": 0, "lon": -77.03085083333333, "name": "fae747ed63d5cbd27f65bf8afd949bfc", "fusion_lon": 0.0}, {"lat": 38.90870816666666, "fusion_lat": 0.0, "type": "electric_scooter", "bike_id": "a52344aaec216cd18640d0398366ede3", "is_reserved": 0, "rental_uris": {"ios": "https://dc.lft.to/lastmile_qr_scan", "android": "https://dc.lft.to/lastmile_qr_scan"}, "is_disabled": 0, "lon": -77.03225033333334, "name": "a52344aaec216cd18640d0398366ede3", "fusion_lon": 0.0}, {"lat": 38.986988333333336, "fusion_lat": 0.0, "type": "electric_scooter", "bike_id": "fc6133a220e64f940e6bf9b7e7c3b6ce", "is_reserved": 0, "rental_uris": {"ios": "https://dc.lft.to/lastmile_qr_scan", "android": "https://dc.lft.to/lastmile_qr_scan"}, "is_disabled": 0, "lon": -77.02978216666666, "name": "fc6133a220e64f940e6bf9b7e7c3b6ce", "fusion_lon": 0.0}, {"lat": 38.90900233333333, "fusion_lat": 0.0, "type": "electric_scooter", "bike_id": "6ecea5d673cd6446639cd8a2278869d2", "is_reserved": 0, "rental_uris": {"ios": "https://dc.lft.to/lastmile_qr_scan", "android": "https://dc.lft.to/lastmile_qr_scan"}, "is_disabled": 0, "lon": -77.044709, "name": "6ecea5d673cd6446639cd8a2278869d2", "fusion_lon": 0.0}, {"lat": 38.9049475, "fusion_lat": 0.0, "type": "electric_scooter", "bike_id": "ea4a464de72297b087e3c6e4ff0c1e96", "is_reserved": 0, "rental_uris": {"ios": "https://dc.lft.to/lastmile_qr_scan", "android": "https://dc.lft.to/lastmile_qr_scan"}, "is_disabled": 0, "lon": -77.03587316666666, "name": "ea4a464de72297b087e3c6e4ff0c1e96", "fusion_lon": 0.0}, {"lat": 38.7998535, "fusion_lat": 0.0, "type": "electric_bike", "bike_id": "8d6179f64f753cfc6fee91add98b4927", "is_reserved": 0, "rental_uris": {"ios": "https://dc.lft.to/lastmile_qr_scan", "android": "https://dc.lft.to/lastmile_qr_scan"}, "is_disabled": 0, "lon": -77.12978933333333, "name": "8d6179f64f753cfc6fee91add98b4927", "fusion_lon": 0.0}, {"lat": 38.9168105, "fusion_lat": 0.0, "type": "electric_scooter", "bike_id": "6b5bb244939795ff1812f6bcf97b9d82", "is_reserved": 0, "rental_uris": {"ios": "https://dc.lft.to/lastmile_qr_scan", "android": "https://dc.lft.to/lastmile_qr_scan"}, "is_disabled": 0, "lon": -77.03692, "name": "6b5bb244939795ff1812f6bcf97b9d82", "fusion_lon": 0.0}, {"lat": 38.910308, "fusion_lat": 0.0, "type": "electric_scooter", "bike_id": "60919bb8ea3465c740cf0d0983219d7a", "is_reserved": 0, "rental_uris": {"ios": "https://dc.lft.to/lastmile_qr_scan", "android": "https://dc.lft.to/lastmile_qr_scan"}, "is_disabled": 0, "lon": -77.04871466666667, "name": "60919bb8ea3465c740cf0d0983219d7a", "fusion_lon": 0.0}, {"lat": 38.9202355, "fusion_lat": 0.0, "type": "electric_scooter", "bike_id": "7a57dc6c7730cc1e13356a498e137c35", "is_reserved": 0, "rental_uris": {"ios": "https://dc.lft.to/lastmile_qr_scan", "android": "https://dc.lft.to/lastmile_qr_scan"}, "is_disabled": 0, "lon": -77.02071583333333, "name": "7a57dc6c7730cc1e13356a498e137c35", "fusion_lon": 0.0}, {"lat": 38.90024966666667, "fusion_lat": 0.0, "type": "electric_scooter", "bike_id": "282c09f54f99c724cb87634e46202611", "is_reserved": 0, "rental_uris": {"ios": "https://dc.lft.to/lastmile_qr_scan", "android": "https://dc.lft.to/lastmile_qr_scan"}, "is_disabled": 0, "lon": -76.998587, "name": "282c09f54f99c724cb87634e46202611", "fusion_lon": 0.0}, {"lat": 38.934799, "fusion_lat": 0.0, "type": "electric_scooter", "bike_id": "9b038c97d3259dcadb619e7db676ca5e", "is_reserved": 0, "rental_uris": {"ios": "https://dc.lft.to/lastmile_qr_scan", "android": "https://dc.lft.to/lastmile_qr_scan"}, "is_disabled": 0, "lon": -77.03583483333334, "name": "9b038c97d3259dcadb619e7db676ca5e", "fusion_lon": 0.0}, {"lat": 38.86237216666667, "fusion_lat": 0.0, "type": "electric_scooter", "bike_id": "dc6f4e38c26daeec4284bb2d65f65c84", "is_reserved": 0, "rental_uris": {"ios": "https://dc.lft.to/lastmile_qr_scan", "android": "https://dc.lft.to/lastmile_qr_scan"}, "is_disabled": 0, "lon": -76.9951735, "name": "dc6f4e38c26daeec4284bb2d65f65c84", "fusion_lon": 0.0}, {"lat": 38.910433, "fusion_lat": 0.0, "type": "electric_scooter", "bike_id": "ab6244a59f0b40ebd412a1d1877cb768", "is_reserved": 0, "rental_uris": {"ios": "https://dc.lft.to/lastmile_qr_scan", "android": "https://dc.lft.to/lastmile_qr_scan"}, "is_disabled": 0, "lon": -77.0162415, "name": "ab6244a59f0b40ebd412a1d1877cb768", "fusion_lon": 0.0}, {"lat": 38.90869083333333, "fusion_lat": 0.0, "type": "electric_scooter", "bike_id": "8db1ae2972a2b233782a3d9ee5a82d4c", "is_reserved": 0, "rental_uris": {"ios": "https://dc.lft.to/lastmile_qr_scan", "android": "https://dc.lft.to/lastmile_qr_scan"}, "is_disabled": 0, "lon": -77.04010366666667, "name": "8db1ae2972a2b233782a3d9ee5a82d4c", "fusion_lon": 0.0}, {"lat": 38.85354016666667, "fusion_lat": 0.0, "type": "electric_bike", "bike_id": "698a73fc2f33ed49e2d45353b1404fb1", "is_reserved": 0, "rental_uris": {"ios": "https://dc.lft.to/lastmile_qr_scan", "android": "https://dc.lft.to/lastmile_qr_scan"}, "is_disabled": 0, "lon": -77.134684, "name": "698a73fc2f33ed49e2d45353b1404fb1", "fusion_lon": 0.0}, {"lat": 38.87843083333333, "fusion_lat": 0.0, "type": "electric_scooter", "bike_id": "d3bb721ab35c65a75d996da57e4876ae", "is_reserved": 0, "rental_uris": {"ios": "https://dc.lft.to/lastmile_qr_scan", "android": "https://dc.lft.to/lastmile_qr_scan"}, "is_disabled": 0, "lon": -77.0196715, "name": "d3bb721ab35c65a75d996da57e4876ae", "fusion_lon": 0.0}, {"lat": 38.927307166666665, "fusion_lat": 0.0, "type": "electric_scooter", "bike_id": "9e7e26f95d43f7920bd5d6ce0e62bab9", "is_reserved": 0, "rental_uris": {"ios": "https://dc.lft.to/lastmile_qr_scan", "android": "https://dc.lft.to/lastmile_qr_scan"}, "is_disabled": 0, "lon": -77.02276616666667, "name": "9e7e26f95d43f7920bd5d6ce0e62bab9", "fusion_lon": 0.0}, {"lat": 38.9171985, "fusion_lat": 0.0, "type": "electric_scooter", "bike_id": "8fc90b58ed70c35b3f22be015c57846a", "is_reserved": 0, "rental_uris": {"ios": "https://dc.lft.to/lastmile_qr_scan", "android": "https://dc.lft.to/lastmile_qr_scan"}, "is_disabled": 0, "lon": -77.02966016666667, "name": "8fc90b58ed70c35b3f22be015c57846a", "fusion_lon": 0.0}, {"lat": 38.901124333333335, "fusion_lat": 0.0, "type": "electric_scooter", "bike_id": "b3468a8174b3c2b2ee4efa91c05ad430", "is_reserved": 0, "rental_uris": {"ios": "https://dc.lft.to/lastmile_qr_scan", "android": "https://dc.lft.to/lastmile_qr_scan"}, "is_disabled": 0, "lon": -77.01745483333333, "name": "b3468a8174b3c2b2ee4efa91c05ad430", "fusion_lon": 0.0}, {"lat": 38.9221255, "fusion_lat": 0.0, "type": "electric_bike", "bike_id": "e53bf3c621ce0e956f5345dd112d8990", "is_reserved": 0, "rental_uris": {"ios": "https://dc.lft.to/lastmile_qr_scan", "android": "https://dc.lft.to/lastmile_qr_scan"}, "is_disabled": 0, "lon": -76.988001, "name": "e53bf3c621ce0e956f5345dd112d8990", "fusion_lon": 0.0}, {"lat": 38.920333666666664, "fusion_lat": 0.0, "type": "electric_scooter", "bike_id": "06651be07dcf8d6ced68f9d52cedc45f", "is_reserved": 0, "rental_uris": {"ios": "https://dc.lft.to/lastmile_qr_scan", "android": "https://dc.lft.to/lastmile_qr_scan"}, "is_disabled": 0, "lon": -77.01226133333333, "name": "06651be07dcf8d6ced68f9d52cedc45f", "fusion_lon": 0.0}, {"lat": 38.8963695, "fusion_lat": 0.0, "type": "electric_scooter", "bike_id": "85fff0e53e0d66b464badfcdb14179f3", "is_reserved": 0, "rental_uris": {"ios": "https://dc.lft.to/lastmile_qr_scan", "android": "https://dc.lft.to/lastmile_qr_scan"}, "is_disabled": 0, "lon": -77.02853433333334, "name": "85fff0e53e0d66b464badfcdb14179f3", "fusion_lon": 0.0}, {"lat": 38.907627833333336, "fusion_lat": 0.0, "type": "electric_scooter", "bike_id": "65a46e1e81ac9fee2d90e1469f38fb3b", "is_reserved": 0, "rental_uris": {"ios": "https://dc.lft.to/lastmile_qr_scan", "android": "https://dc.lft.to/lastmile_qr_scan"}, "is_disabled": 0, "lon": -77.03171816666666, "name": "65a46e1e81ac9fee2d90e1469f38fb3b", "fusion_lon": 0.0}, {"lat": 38.90277433333333, "fusion_lat": 0.0, "type": "electric_scooter", "bike_id": "5a213596aed6068b66e54d65a0be5bdb", "is_reserved": 0, "rental_uris": {"ios": "https://dc.lft.to/lastmile_qr_scan", "android": "https://dc.lft.to/lastmile_qr_scan"}, "is_disabled": 0, "lon": -77.017843, "name": "5a213596aed6068b66e54d65a0be5bdb", "fusion_lon": 0.0}, {"lat": 38.84459283333333, "fusion_lat": 0.0, "type": "electric_bike", "bike_id": "ffdbfb3fd6144c8f69e875195f49cfae", "is_reserved": 0, "rental_uris": {"ios": "https://dc.lft.to/lastmile_qr_scan", "android": "https://dc.lft.to/lastmile_qr_scan"}, "is_disabled": 0, "lon": -76.98749983333333, "name": "ffdbfb3fd6144c8f69e875195f49cfae", "fusion_lon": 0.0}, {"lat": 38.88564866666667, "fusion_lat": 0.0, "type": "electric_scooter", "bike_id": "50a7b8724a30ac1a2ffaa71ff2645c81", "is_reserved": 0, "rental_uris": {"ios": "https://dc.lft.to/lastmile_qr_scan", "android": "https://dc.lft.to/lastmile_qr_scan"}, "is_disabled": 0, "lon": -77.01992216666666, "name": "50a7b8724a30ac1a2ffaa71ff2645c81", "fusion_lon": 0.0}, {"lat": 38.91697166666667, "fusion_lat": 0.0, "type": "electric_scooter", "bike_id": "c74897f0938e62163f9ed45d891b1519", "is_reserved": 0, "rental_uris": {"ios": "https://dc.lft.to/lastmile_qr_scan", "android": "https://dc.lft.to/lastmile_qr_scan"}, "is_disabled": 0, "lon": -77.03771633333334, "name": "c74897f0938e62163f9ed45d891b1519", "fusion_lon": 0.0}, {"lat": 38.89753816666666, "fusion_lat": 0.0, "type": "electric_scooter", "bike_id": "f5eae6ca99eb1c898bd04f8e68fd5a82", "is_reserved": 0, "rental_uris": {"ios": "https://dc.lft.to/lastmile_qr_scan", "android": "https://dc.lft.to/lastmile_qr_scan"}, "is_disabled": 0, "lon": -77.04300283333333, "name": "f5eae6ca99eb1c898bd04f8e68fd5a82", "fusion_lon": 0.0}, {"lat": 38.88815783333333, "fusion_lat": 0.0, "type": "electric_scooter", "bike_id": "7a731fa69781f86bdd4be9f62f05a563", "is_reserved": 0, "rental_uris": {"ios": "https://dc.lft.to/lastmile_qr_scan", "android": "https://dc.lft.to/lastmile_qr_scan"}, "is_disabled": 0, "lon": -76.93345433333333, "name": "7a731fa69781f86bdd4be9f62f05a563", "fusion_lon": 0.0}, {"lat": 38.912594, "fusion_lat": 0.0, "type": "electric_scooter", "bike_id": "38928f7e37c22c847c08c7ff26490fd5", "is_reserved": 0, "rental_uris": {"ios": "https://dc.lft.to/lastmile_qr_scan", "android": "https://dc.lft.to/lastmile_qr_scan"}, "is_disabled": 0, "lon": -77.00802433333334, "name": "38928f7e37c22c847c08c7ff26490fd5", "fusion_lon": 0.0}, {"lat": 38.928633833333336, "fusion_lat": 0.0, "type": "electric_scooter", "bike_id": "c158d409d091513d45421d0153fb06f7", "is_reserved": 0, "rental_uris": {"ios": "https://dc.lft.to/lastmile_qr_scan", "android": "https://dc.lft.to/lastmile_qr_scan"}, "is_disabled": 0, "lon": -77.02174216666667, "name": "c158d409d091513d45421d0153fb06f7", "fusion_lon": 0.0}, {"lat": 38.91698316666667, "fusion_lat": 0.0, "type": "electric_scooter", "bike_id": "0c9ed107383a8079344bde606ebaf3d3", "is_reserved": 0, "rental_uris": {"ios": "https://dc.lft.to/lastmile_qr_scan", "android": "https://dc.lft.to/lastmile_qr_scan"}, "is_disabled": 0, "lon": -77.01174133333333, "name": "0c9ed107383a8079344bde606ebaf3d3", "fusion_lon": 0.0}, {"lat": 38.8543935, "fusion_lat": 0.0, "type": "electric_bike", "bike_id": "8a6fa9d978214a28813d43e64a50e557", "is_reserved": 0, "rental_uris": {"ios": "https://dc.lft.to/lastmile_qr_scan", "android": "https://dc.lft.to/lastmile_qr_scan"}, "is_disabled": 0, "lon": -77.0830985, "name": "8a6fa9d978214a28813d43e64a50e557", "fusion_lon": 0.0}, {"lat": 38.90012183333333, "fusion_lat": 0.0, "type": "electric_scooter", "bike_id": "78973219b90958a5748031ff6a815d99", "is_reserved": 0, "rental_uris": {"ios": "https://dc.lft.to/lastmile_qr_scan", "android": "https://dc.lft.to/lastmile_qr_scan"}, "is_disabled": 0, "lon": -77.00679983333333, "name": "78973219b90958a5748031ff6a815d99", "fusion_lon": 0.0}, {"lat": 38.91863016666667, "fusion_lat": 0.0, "type": "electric_scooter", "bike_id": "939da93fb42699b488cc35d09163ffde", "is_reserved": 0, "rental_uris": {"ios": "https://dc.lft.to/lastmile_qr_scan", "android": "https://dc.lft.to/lastmile_qr_scan"}, "is_disabled": 0, "lon": -77.040426, "name": "939da93fb42699b488cc35d09163ffde", "fusion_lon": 0.0}, {"lat": 38.874739, "fusion_lat": 0.0, "type": "electric_scooter", "bike_id": "df9e3350ddc8e105f7e0d62108dbc482", "is_reserved": 0, "rental_uris": {"ios": "https://dc.lft.to/lastmile_qr_scan", "android": "https://dc.lft.to/lastmile_qr_scan"}, "is_disabled": 0, "lon": -77.00517133333334, "name": "df9e3350ddc8e105f7e0d62108dbc482", "fusion_lon": 0.0}, {"lat": 38.91953816666667, "fusion_lat": 0.0, "type": "electric_scooter", "bike_id": "b0cf61339ee315f83b84c04d07db7b50", "is_reserved": 0, "rental_uris": {"ios": "https://dc.lft.to/lastmile_qr_scan", "android": "https://dc.lft.to/lastmile_qr_scan"}, "is_disabled": 0, "lon": -77.0415555, "name": "b0cf61339ee315f83b84c04d07db7b50", "fusion_lon": 0.0}, {"lat": 38.9049205, "fusion_lat": 0.0, "type": "electric_scooter", "bike_id": "7a8433fd2f6772c44106b54c438d1969", "is_reserved": 0, "rental_uris": {"ios": "https://dc.lft.to/lastmile_qr_scan", "android": "https://dc.lft.to/lastmile_qr_scan"}, "is_disabled": 0, "lon": -77.06010116666667, "name": "7a8433fd2f6772c44106b54c438d1969", "fusion_lon": 0.0}, {"lat": 38.9180925, "fusion_lat": 0.0, "type": "electric_scooter", "bike_id": "ba020beda370f853136618b4473b576a", "is_reserved": 0, "rental_uris": {"ios": "https://dc.lft.to/lastmile_qr_scan", "android": "https://dc.lft.to/lastmile_qr_scan"}, "is_disabled": 0, "lon": -77.03163433333333, "name": "ba020beda370f853136618b4473b576a", "fusion_lon": 0.0}, {"lat": 38.919677166666666, "fusion_lat": 0.0, "type": "electric_bike", "bike_id": "08475edd2071818408cae555586a9c86", "is_reserved": 0, "rental_uris": {"ios": "https://dc.lft.to/lastmile_qr_scan", "android": "https://dc.lft.to/lastmile_qr_scan"}, "is_disabled": 0, "lon": -77.07113466666667, "name": "08475edd2071818408cae555586a9c86", "fusion_lon": 0.0}, {"lat": 38.935457, "fusion_lat": 0.0, "type": "electric_scooter", "bike_id": "3c216aea0c612a2cf026378649c27657", "is_reserved": 0, "rental_uris": {"ios": "https://dc.lft.to/lastmile_qr_scan", "android": "https://dc.lft.to/lastmile_qr_scan"}, "is_disabled": 0, "lon": -77.0582985, "name": "3c216aea0c612a2cf026378649c27657", "fusion_lon": 0.0}, {"lat": 38.905276666666666, "fusion_lat": 0.0, "type": "electric_scooter", "bike_id": "b1678d0ed15f0db5c28a72213ec3c576", "is_reserved": 0, "rental_uris": {"ios": "https://dc.lft.to/lastmile_qr_scan", "android": "https://dc.lft.to/lastmile_qr_scan"}, "is_disabled": 0, "lon": -77.002044, "name": "b1678d0ed15f0db5c28a72213ec3c576", "fusion_lon": 0.0}, {"lat": 38.952514, "fusion_lat": 0.0, "type": "electric_bike", "bike_id": "3a2ab9005cb6aa5e48f9275a1bd29745", "is_reserved": 0, "rental_uris": {"ios": "https://dc.lft.to/lastmile_qr_scan", "android": "https://dc.lft.to/lastmile_qr_scan"}, "is_disabled": 0, "lon": -76.97676816666667, "name": "3a2ab9005cb6aa5e48f9275a1bd29745", "fusion_lon": 0.0}, {"lat": 38.89221466666667, "fusion_lat": 0.0, "type": "electric_scooter", "bike_id": "52ec435edff203bf3525875b1e576333", "is_reserved": 0, "rental_uris": {"ios": "https://dc.lft.to/lastmile_qr_scan", "android": "https://dc.lft.to/lastmile_qr_scan"}, "is_disabled": 0, "lon": -77.02418066666667, "name": "52ec435edff203bf3525875b1e576333", "fusion_lon": 0.0}, {"lat": 38.92288716666667, "fusion_lat": 0.0, "type": "electric_bike", "bike_id": "f640a96c82e8d52aff66a21e2f3ea9de", "is_reserved": 0, "rental_uris": {"ios": "https://dc.lft.to/lastmile_qr_scan", "android": "https://dc.lft.to/lastmile_qr_scan"}, "is_disabled": 0, "lon": -77.0224445, "name": "f640a96c82e8d52aff66a21e2f3ea9de", "fusion_lon": 0.0}, {"lat": 38.938813333333336, "fusion_lat": 0.0, "type": "electric_scooter", "bike_id": "e78238217ac1305f287512bf32efb83e", "is_reserved": 0, "rental_uris": {"ios": "https://dc.lft.to/lastmile_qr_scan", "android": "https://dc.lft.to/lastmile_qr_scan"}, "is_disabled": 0, "lon": -77.0247095, "name": "e78238217ac1305f287512bf32efb83e", "fusion_lon": 0.0}, {"lat": 38.932648, "fusion_lat": 0.0, "type": "electric_scooter", "bike_id": "bcfb97a0ea423a8949326955258f6415", "is_reserved": 0, "rental_uris": {"ios": "https://dc.lft.to/lastmile_qr_scan", "android": "https://dc.lft.to/lastmile_qr_scan"}, "is_disabled": 0, "lon": -77.01930383333334, "name": "bcfb97a0ea423a8949326955258f6415", "fusion_lon": 0.0}, {"lat": 38.9020345, "fusion_lat": 0.0, "type": "electric_scooter", "bike_id": "d0c81ec48e9f6e62056758ab7b3a87fd", "is_reserved": 0, "rental_uris": {"ios": "https://dc.lft.to/lastmile_qr_scan", "android": "https://dc.lft.to/lastmile_qr_scan"}, "is_disabled": 0, "lon": -77.02372433333333, "name": "d0c81ec48e9f6e62056758ab7b3a87fd", "fusion_lon": 0.0}, {"lat": 38.906494, "fusion_lat": 0.0, "type": "electric_scooter", "bike_id": "f07988066c95c820c3f780928f42ef32", "is_reserved": 0, "rental_uris": {"ios": "https://dc.lft.to/lastmile_qr_scan", "android": "https://dc.lft.to/lastmile_qr_scan"}, "is_disabled": 0, "lon": -77.01018133333334, "name": "f07988066c95c820c3f780928f42ef32", "fusion_lon": 0.0}, {"lat": 38.92059116666667, "fusion_lat": 0.0, "type": "electric_scooter", "bike_id": "bc4e2c6f199dc4802248e71323254ad5", "is_reserved": 0, "rental_uris": {"ios": "https://dc.lft.to/lastmile_qr_scan", "android": "https://dc.lft.to/lastmile_qr_scan"}, "is_disabled": 0, "lon": -77.02192716666667, "name": "bc4e2c6f199dc4802248e71323254ad5", "fusion_lon": 0.0}, {"lat": 38.935476333333334, "fusion_lat": 0.0, "type": "electric_scooter", "bike_id": "a8e83868412244870049e8ffb201e18d", "is_reserved": 0, "rental_uris": {"ios": "https://dc.lft.to/lastmile_qr_scan", "android": "https://dc.lft.to/lastmile_qr_scan"}, "is_disabled": 0, "lon": -77.05859483333333, "name": "a8e83868412244870049e8ffb201e18d", "fusion_lon": 0.0}, {"lat": 38.9170225, "fusion_lat": 0.0, "type": "electric_scooter", "bike_id": "c8f1f98cf8e2bbb8ff71faa982cf3fd1", "is_reserved": 0, "rental_uris": {"ios": "https://dc.lft.to/lastmile_qr_scan", "android": "https://dc.lft.to/lastmile_qr_scan"}, "is_disabled": 0, "lon": -77.03157316666666, "name": "c8f1f98cf8e2bbb8ff71faa982cf3fd1", "fusion_lon": 0.0}, {"lat": 38.8978495, "fusion_lat": 0.0, "type": "electric_scooter", "bike_id": "d703c8f48295b6dfd8e4be93e91b1ad9", "is_reserved": 0, "rental_uris": {"ios": "https://dc.lft.to/lastmile_qr_scan", "android": "https://dc.lft.to/lastmile_qr_scan"}, "is_disabled": 0, "lon": -77.04491616666667, "name": "d703c8f48295b6dfd8e4be93e91b1ad9", "fusion_lon": 0.0}, {"lat": 38.9323935, "fusion_lat": 0.0, "type": "electric_scooter", "bike_id": "0b35fe0ca091e123d1249516cf0ff108", "is_reserved": 0, "rental_uris": {"ios": "https://dc.lft.to/lastmile_qr_scan", "android": "https://dc.lft.to/lastmile_qr_scan"}, "is_disabled": 0, "lon": -76.99537916666667, "name": "0b35fe0ca091e123d1249516cf0ff108", "fusion_lon": 0.0}, {"lat": 38.88300666666667, "fusion_lat": 0.0, "type": "electric_scooter", "bike_id": "b09e011b2172f925c8061dede02f7d36", "is_reserved": 0, "rental_uris": {"ios": "https://dc.lft.to/lastmile_qr_scan", "android": "https://dc.lft.to/lastmile_qr_scan"}, "is_disabled": 0, "lon": -76.948529, "name": "b09e011b2172f925c8061dede02f7d36", "fusion_lon": 0.0}, {"lat": 38.9232975, "fusion_lat": 0.0, "type": "electric_scooter", "bike_id": "de291d4896b49b36e7450124b064ab10", "is_reserved": 0, "rental_uris": {"ios": "https://dc.lft.to/lastmile_qr_scan", "android": "https://dc.lft.to/lastmile_qr_scan"}, "is_disabled": 0, "lon": -77.0296315, "name": "de291d4896b49b36e7450124b064ab10", "fusion_lon": 0.0}, {"lat": 38.924147833333336, "fusion_lat": 0.0, "type": "electric_scooter", "bike_id": "a9656f1e05cd721ffd506364f18ce471", "is_reserved": 0, "rental_uris": {"ios": "https://dc.lft.to/lastmile_qr_scan", "android": "https://dc.lft.to/lastmile_qr_scan"}, "is_disabled": 0, "lon": -77.0201525, "name": "a9656f1e05cd721ffd506364f18ce471", "fusion_lon": 0.0}, {"lat": 38.96963733333333, "fusion_lat": 0.0, "type": "electric_bike", "bike_id": "bf261cc29d9d3c494c2bb3ba412d4adf", "is_reserved": 0, "rental_uris": {"ios": "https://dc.lft.to/lastmile_qr_scan", "android": "https://dc.lft.to/lastmile_qr_scan"}, "is_disabled": 0, "lon": -76.9575155, "name": "bf261cc29d9d3c494c2bb3ba412d4adf", "fusion_lon": 0.0}, {"lat": 38.9061715, "fusion_lat": 0.0, "type": "electric_scooter", "bike_id": "ecac76912ce28f00f2ae31650b2f7d5f", "is_reserved": 0, "rental_uris": {"ios": "https://dc.lft.to/lastmile_qr_scan", "android": "https://dc.lft.to/lastmile_qr_scan"}, "is_disabled": 0, "lon": -77.02827283333333, "name": "ecac76912ce28f00f2ae31650b2f7d5f", "fusion_lon": 0.0}, {"lat": 38.86479383333333, "fusion_lat": 0.0, "type": "electric_scooter", "bike_id": "394128ef3d1850bd38ef471b7535d953", "is_reserved": 0, "rental_uris": {"ios": "https://dc.lft.to/lastmile_qr_scan", "android": "https://dc.lft.to/lastmile_qr_scan"}, "is_disabled": 0, "lon": -76.977413, "name": "394128ef3d1850bd38ef471b7535d953", "fusion_lon": 0.0}, {"lat": 38.916869, "fusion_lat": 0.0, "type": "electric_scooter", "bike_id": "3d9495fb9fd4121a268cb502a07fc98c", "is_reserved": 0, "rental_uris": {"ios": "https://dc.lft.to/lastmile_qr_scan", "android": "https://dc.lft.to/lastmile_qr_scan"}, "is_disabled": 0, "lon": -77.02700566666667, "name": "3d9495fb9fd4121a268cb502a07fc98c", "fusion_lon": 0.0}, {"lat": 38.91587116666667, "fusion_lat": 0.0, "type": "electric_scooter", "bike_id": "2b83b15c31edc4662f9731a7e2d78689", "is_reserved": 0, "rental_uris": {"ios": "https://dc.lft.to/lastmile_qr_scan", "android": "https://dc.lft.to/lastmile_qr_scan"}, "is_disabled": 0, "lon": -77.044822, "name": "2b83b15c31edc4662f9731a7e2d78689", "fusion_lon": 0.0}, {"lat": 38.888884833333336, "fusion_lat": 0.0, "type": "electric_scooter", "bike_id": "5eb095433e10a105086d0981b2391943", "is_reserved": 0, "rental_uris": {"ios": "https://dc.lft.to/lastmile_qr_scan", "android": "https://dc.lft.to/lastmile_qr_scan"}, "is_disabled": 0, "lon": -76.94780566666667, "name": "5eb095433e10a105086d0981b2391943", "fusion_lon": 0.0}, {"lat": 38.8874875, "fusion_lat": 0.0, "type": "electric_scooter", "bike_id": "44acc5bf3673232db7fd15d2302d52e5", "is_reserved": 0, "rental_uris": {"ios": "https://dc.lft.to/lastmile_qr_scan", "android": "https://dc.lft.to/lastmile_qr_scan"}, "is_disabled": 0, "lon": -77.025577, "name": "44acc5bf3673232db7fd15d2302d52e5", "fusion_lon": 0.0}, {"lat": 38.90624533333333, "fusion_lat": 0.0, "type": "electric_scooter", "bike_id": "b63f8b85b995a480618674cf8fa4a3db", "is_reserved": 0, "rental_uris": {"ios": "https://dc.lft.to/lastmile_qr_scan", "android": "https://dc.lft.to/lastmile_qr_scan"}, "is_disabled": 0, "lon": -77.04652333333334, "name": "b63f8b85b995a480618674cf8fa4a3db", "fusion_lon": 0.0}, {"lat": 38.90019983333333, "fusion_lat": 0.0, "type": "electric_scooter", "bike_id": "8435043945fc51ab4aeddcc2cd669f78", "is_reserved": 0, "rental_uris": {"ios": "https://dc.lft.to/lastmile_qr_scan", "android": "https://dc.lft.to/lastmile_qr_scan"}, "is_disabled": 0, "lon": -77.00208616666667, "name": "8435043945fc51ab4aeddcc2cd669f78", "fusion_lon": 0.0}, {"lat": 38.872086, "fusion_lat": 0.0, "type": "electric_scooter", "bike_id": "ca0c0fae1b77b1d7d6992bccfdb704ba", "is_reserved": 0, "rental_uris": {"ios": "https://dc.lft.to/lastmile_qr_scan", "android": "https://dc.lft.to/lastmile_qr_scan"}, "is_disabled": 0, "lon": -77.009698, "name": "ca0c0fae1b77b1d7d6992bccfdb704ba", "fusion_lon": 0.0}, {"lat": 38.7960945, "fusion_lat": 0.0, "type": "electric_bike", "bike_id": "05411b9d7d7bf81f40798a9541ced155", "is_reserved": 0, "rental_uris": {"ios": "https://dc.lft.to/lastmile_qr_scan", "android": "https://dc.lft.to/lastmile_qr_scan"}, "is_disabled": 0, "lon": -76.997426, "name": "05411b9d7d7bf81f40798a9541ced155", "fusion_lon": 0.0}, {"lat": 38.93101166666667, "fusion_lat": 0.0, "type": "electric_scooter", "bike_id": "d55825b4cc81aa328de9161267f6a110", "is_reserved": 0, "rental_uris": {"ios": "https://dc.lft.to/lastmile_qr_scan", "android": "https://dc.lft.to/lastmile_qr_scan"}, "is_disabled": 0, "lon": -77.0248115, "name": "d55825b4cc81aa328de9161267f6a110", "fusion_lon": 0.0}, {"lat": 38.942636, "fusion_lat": 0.0, "type": "electric_bike", "bike_id": "d8197f9294e3609ef5f755daafd8d731", "is_reserved": 0, "rental_uris": {"ios": "https://dc.lft.to/lastmile_qr_scan", "android": "https://dc.lft.to/lastmile_qr_scan"}, "is_disabled": 0, "lon": -77.02838616666666, "name": "d8197f9294e3609ef5f755daafd8d731", "fusion_lon": 0.0}, {"lat": 38.903533833333334, "fusion_lat": 0.0, "type": "electric_scooter", "bike_id": "34c7cbd46b2c3db98512c657ab39292f", "is_reserved": 0, "rental_uris": {"ios": "https://dc.lft.to/lastmile_qr_scan", "android": "https://dc.lft.to/lastmile_qr_scan"}, "is_disabled": 0, "lon": -77.02680316666667, "name": "34c7cbd46b2c3db98512c657ab39292f", "fusion_lon": 0.0}, {"lat": 38.9103135, "fusion_lat": 0.0, "type": "electric_scooter", "bike_id": "818e9cfaef0e3f5edcb0547603cdbc55", "is_reserved": 0, "rental_uris": {"ios": "https://dc.lft.to/lastmile_qr_scan", "android": "https://dc.lft.to/lastmile_qr_scan"}, "is_disabled": 0, "lon": -77.00757266666666, "name": "818e9cfaef0e3f5edcb0547603cdbc55", "fusion_lon": 0.0}, {"lat": 38.976770333333334, "fusion_lat": 0.0, "type": "electric_scooter", "bike_id": "6a4d5e3a1b8e2637ea06d63be452dc15", "is_reserved": 0, "rental_uris": {"ios": "https://dc.lft.to/lastmile_qr_scan", "android": "https://dc.lft.to/lastmile_qr_scan"}, "is_disabled": 0, "lon": -77.01662333333333, "name": "6a4d5e3a1b8e2637ea06d63be452dc15", "fusion_lon": 0.0}, {"lat": 38.877726333333335, "fusion_lat": 0.0, "type": "electric_scooter", "bike_id": "7ce0638cbbb40aa934bf545e0d1eeb31", "is_reserved": 0, "rental_uris": {"ios": "https://dc.lft.to/lastmile_qr_scan", "android": "https://dc.lft.to/lastmile_qr_scan"}, "is_disabled": 0, "lon": -77.00731583333334, "name": "7ce0638cbbb40aa934bf545e0d1eeb31", "fusion_lon": 0.0}, {"lat": 38.93223283333333, "fusion_lat": 0.0, "type": "electric_scooter", "bike_id": "726bffa58b22b3220de9be5bcd31885c", "is_reserved": 0, "rental_uris": {"ios": "https://dc.lft.to/lastmile_qr_scan", "android": "https://dc.lft.to/lastmile_qr_scan"}, "is_disabled": 0, "lon": -77.03867066666666, "name": "726bffa58b22b3220de9be5bcd31885c", "fusion_lon": 0.0}, {"lat": 38.924151, "fusion_lat": 0.0, "type": "electric_scooter", "bike_id": "574c89bed720a545be0a89661d6966d6", "is_reserved": 0, "rental_uris": {"ios": "https://dc.lft.to/lastmile_qr_scan", "android": "https://dc.lft.to/lastmile_qr_scan"}, "is_disabled": 0, "lon": -77.05061883333333, "name": "574c89bed720a545be0a89661d6966d6", "fusion_lon": 0.0}, {"lat": 38.900549, "fusion_lat": 0.0, "type": "electric_scooter", "bike_id": "c9cf26e6413f6d34d803c66a03ad9f1c", "is_reserved": 0, "rental_uris": {"ios": "https://dc.lft.to/lastmile_qr_scan", "android": "https://dc.lft.to/lastmile_qr_scan"}, "is_disabled": 0, "lon": -76.91937766666666, "name": "c9cf26e6413f6d34d803c66a03ad9f1c", "fusion_lon": 0.0}, {"lat": 38.87940966666667, "fusion_lat": 0.0, "type": "electric_scooter", "bike_id": "219d53d2a298f56e19a6aa526ead6085", "is_reserved": 0, "rental_uris": {"ios": "https://dc.lft.to/lastmile_qr_scan", "android": "https://dc.lft.to/lastmile_qr_scan"}, "is_disabled": 0, "lon": -77.00065533333333, "name": "219d53d2a298f56e19a6aa526ead6085", "fusion_lon": 0.0}, {"lat": 38.8993995, "fusion_lat": 0.0, "type": "electric_scooter", "bike_id": "89498c6917300ca20bfda7a9e3428812", "is_reserved": 0, "rental_uris": {"ios": "https://dc.lft.to/lastmile_qr_scan", "android": "https://dc.lft.to/lastmile_qr_scan"}, "is_disabled": 0, "lon": -77.03989816666666, "name": "89498c6917300ca20bfda7a9e3428812", "fusion_lon": 0.0}, {"lat": 38.93623216666667, "fusion_lat": 0.0, "type": "electric_bike", "bike_id": "098611ef536e0018caab47d4b0570af5", "is_reserved": 0, "rental_uris": {"ios": "https://dc.lft.to/lastmile_qr_scan", "android": "https://dc.lft.to/lastmile_qr_scan"}, "is_disabled": 0, "lon": -77.0901655, "name": "098611ef536e0018caab47d4b0570af5", "fusion_lon": 0.0}, {"lat": 38.8015335, "fusion_lat": 0.0, "type": "electric_bike", "bike_id": "f5242194441d1e90acec9f42e3655a6e", "is_reserved": 0, "rental_uris": {"ios": "https://dc.lft.to/lastmile_qr_scan", "android": "https://dc.lft.to/lastmile_qr_scan"}, "is_disabled": 0, "lon": -77.070498, "name": "f5242194441d1e90acec9f42e3655a6e", "fusion_lon": 0.0}, {"lat": 38.90735083333333, "fusion_lat": 0.0, "type": "electric_scooter", "bike_id": "236ad77b3c445ec664ac66d64fe2b77e", "is_reserved": 0, "rental_uris": {"ios": "https://dc.lft.to/lastmile_qr_scan", "android": "https://dc.lft.to/lastmile_qr_scan"}, "is_disabled": 0, "lon": -76.9797135, "name": "236ad77b3c445ec664ac66d64fe2b77e", "fusion_lon": 0.0}, {"lat": 38.863881166666665, "fusion_lat": 0.0, "type": "electric_scooter", "bike_id": "4db47d927805aac7541352bb7219b4f0", "is_reserved": 0, "rental_uris": {"ios": "https://dc.lft.to/lastmile_qr_scan", "android": "https://dc.lft.to/lastmile_qr_scan"}, "is_disabled": 0, "lon": -76.99045816666667, "name": "4db47d927805aac7541352bb7219b4f0", "fusion_lon": 0.0}, {"lat": 38.89962, "fusion_lat": 0.0, "type": "electric_bike", "bike_id": "7c31506010c2044deaaa351cfeeb0b64", "is_reserved": 0, "rental_uris": {"ios": "https://dc.lft.to/lastmile_qr_scan", "android": "https://dc.lft.to/lastmile_qr_scan"}, "is_disabled": 0, "lon": -76.98680183333333, "name": "7c31506010c2044deaaa351cfeeb0b64", "fusion_lon": 0.0}, {"lat": 38.9185395, "fusion_lat": 0.0, "type": "electric_scooter", "bike_id": "42943008d62b746d164d066296631015", "is_reserved": 0, "rental_uris": {"ios": "https://dc.lft.to/lastmile_qr_scan", "android": "https://dc.lft.to/lastmile_qr_scan"}, "is_disabled": 0, "lon": -77.04153116666667, "name": "42943008d62b746d164d066296631015", "fusion_lon": 0.0}, {"lat": 38.92768233333334, "fusion_lat": 0.0, "type": "electric_bike", "bike_id": "8a7c1b27ec6f8d681985f2cb3ef1046d", "is_reserved": 0, "rental_uris": {"ios": "https://dc.lft.to/lastmile_qr_scan", "android": "https://dc.lft.to/lastmile_qr_scan"}, "is_disabled": 0, "lon": -77.0700945, "name": "8a7c1b27ec6f8d681985f2cb3ef1046d", "fusion_lon": 0.0}, {"lat": 38.831522666666665, "fusion_lat": 0.0, "type": "electric_scooter", "bike_id": "0b9a87fa36d5f949b233ba0be89309f0", "is_reserved": 0, "rental_uris": {"ios": "https://dc.lft.to/lastmile_qr_scan", "android": "https://dc.lft.to/lastmile_qr_scan"}, "is_disabled": 0, "lon": -77.05114383333333, "name": "0b9a87fa36d5f949b233ba0be89309f0", "fusion_lon": 0.0}, {"lat": 38.909593666666666, "fusion_lat": 0.0, "type": "electric_scooter", "bike_id": "9fa55bd5db63d29666f723ea709c847c", "is_reserved": 0, "rental_uris": {"ios": "https://dc.lft.to/lastmile_qr_scan", "android": "https://dc.lft.to/lastmile_qr_scan"}, "is_disabled": 0, "lon": -77.02688383333333, "name": "9fa55bd5db63d29666f723ea709c847c", "fusion_lon": 0.0}, {"lat": 38.92047916666667, "fusion_lat": 0.0, "type": "electric_scooter", "bike_id": "4943d0b28ae0fd92ac765500cd1d78fd", "is_reserved": 0, "rental_uris": {"ios": "https://dc.lft.to/lastmile_qr_scan", "android": "https://dc.lft.to/lastmile_qr_scan"}, "is_disabled": 0, "lon": -77.02982866666666, "name": "4943d0b28ae0fd92ac765500cd1d78fd", "fusion_lon": 0.0}, {"lat": 38.885938, "fusion_lat": 0.0, "type": "electric_scooter", "bike_id": "1ee3775ecd0c99dd3a0d7639f37d24fa", "is_reserved": 0, "rental_uris": {"ios": "https://dc.lft.to/lastmile_qr_scan", "android": "https://dc.lft.to/lastmile_qr_scan"}, "is_disabled": 0, "lon": -77.0195995, "name": "1ee3775ecd0c99dd3a0d7639f37d24fa", "fusion_lon": 0.0}, {"lat": 38.873485, "fusion_lat": 0.0, "type": "electric_scooter", "bike_id": "ea11918a8d3bc74cbff4c0224dd825da", "is_reserved": 0, "rental_uris": {"ios": "https://dc.lft.to/lastmile_qr_scan", "android": "https://dc.lft.to/lastmile_qr_scan"}, "is_disabled": 0, "lon": -77.00261216666667, "name": "ea11918a8d3bc74cbff4c0224dd825da", "fusion_lon": 0.0}, {"lat": 38.906785666666664, "fusion_lat": 0.0, "type": "electric_scooter", "bike_id": "d35cd2ff382b289660ffcc185162a33d", "is_reserved": 0, "rental_uris": {"ios": "https://dc.lft.to/lastmile_qr_scan", "android": "https://dc.lft.to/lastmile_qr_scan"}, "is_disabled": 0, "lon": -77.07161633333334, "name": "d35cd2ff382b289660ffcc185162a33d", "fusion_lon": 0.0}, {"lat": 38.91764966666667, "fusion_lat": 0.0, "type": "electric_scooter", "bike_id": "ca1cf56f13f5a86fe8754ac20748a0de", "is_reserved": 0, "rental_uris": {"ios": "https://dc.lft.to/lastmile_qr_scan", "android": "https://dc.lft.to/lastmile_qr_scan"}, "is_disabled": 0, "lon": -77.022004, "name": "ca1cf56f13f5a86fe8754ac20748a0de", "fusion_lon": 0.0}, {"lat": 38.96228816666667, "fusion_lat": 0.0, "type": "electric_bike", "bike_id": "1ddaf1446c572c95a4ad390a8417fb16", "is_reserved": 0, "rental_uris": {"ios": "https://dc.lft.to/lastmile_qr_scan", "android": "https://dc.lft.to/lastmile_qr_scan"}, "is_disabled": 0, "lon": -77.02627116666666, "name": "1ddaf1446c572c95a4ad390a8417fb16", "fusion_lon": 0.0}, {"lat": 38.86243616666667, "fusion_lat": 0.0, "type": "electric_scooter", "bike_id": "45b0beff83dab64c677c74c65911b92d", "is_reserved": 0, "rental_uris": {"ios": "https://dc.lft.to/lastmile_qr_scan", "android": "https://dc.lft.to/lastmile_qr_scan"}, "is_disabled": 0, "lon": -76.99517216666666, "name": "45b0beff83dab64c677c74c65911b92d", "fusion_lon": 0.0}, {"lat": 38.91197566666666, "fusion_lat": 0.0, "type": "electric_scooter", "bike_id": "1f38e20b8b0738226d67d3ba937e269c", "is_reserved": 0, "rental_uris": {"ios": "https://dc.lft.to/lastmile_qr_scan", "android": "https://dc.lft.to/lastmile_qr_scan"}, "is_disabled": 0, "lon": -77.03853583333333, "name": "1f38e20b8b0738226d67d3ba937e269c", "fusion_lon": 0.0}, {"lat": 38.913, "fusion_lat": 0.0, "type": "electric_scooter", "bike_id": "256f5d95537f1830fec5e1eda5efb6b0", "is_reserved": 0, "rental_uris": {"ios": "https://dc.lft.to/lastmile_qr_scan", "android": "https://dc.lft.to/lastmile_qr_scan"}, "is_disabled": 0, "lon": -77.06671733333333, "name": "256f5d95537f1830fec5e1eda5efb6b0", "fusion_lon": 0.0}, {"lat": 38.951521, "fusion_lat": 0.0, "type": "electric_scooter", "bike_id": "e9445bf28f9cca7d13a3ffad15d64e67", "is_reserved": 0, "rental_uris": {"ios": "https://dc.lft.to/lastmile_qr_scan", "android": "https://dc.lft.to/lastmile_qr_scan"}, "is_disabled": 0, "lon": -77.01873283333333, "name": "e9445bf28f9cca7d13a3ffad15d64e67", "fusion_lon": 0.0}, {"lat": 38.904116, "fusion_lat": 0.0, "type": "electric_scooter", "bike_id": "1daf119fc81b823ab005096821fc8621", "is_reserved": 0, "rental_uris": {"ios": "https://dc.lft.to/lastmile_qr_scan", "android": "https://dc.lft.to/lastmile_qr_scan"}, "is_disabled": 0, "lon": -76.97332916666667, "name": "1daf119fc81b823ab005096821fc8621", "fusion_lon": 0.0}, {"lat": 38.91217366666667, "fusion_lat": 0.0, "type": "electric_scooter", "bike_id": "63ad55ddc96b86462c196f59290d3028", "is_reserved": 0, "rental_uris": {"ios": "https://dc.lft.to/lastmile_qr_scan", "android": "https://dc.lft.to/lastmile_qr_scan"}, "is_disabled": 0, "lon": -77.0318775, "name": "63ad55ddc96b86462c196f59290d3028", "fusion_lon": 0.0}, {"lat": 38.91787216666667, "fusion_lat": 0.0, "type": "electric_scooter", "bike_id": "47745f3bf1619deb7acffd8a0b88a9e9", "is_reserved": 0, "rental_uris": {"ios": "https://dc.lft.to/lastmile_qr_scan", "android": "https://dc.lft.to/lastmile_qr_scan"}, "is_disabled": 0, "lon": -77.04212766666667, "name": "47745f3bf1619deb7acffd8a0b88a9e9", "fusion_lon": 0.0}, {"lat": 38.9573235, "fusion_lat": 0.0, "type": "electric_scooter", "bike_id": "1d6afc1e86475724697c37ff0508b915", "is_reserved": 0, "rental_uris": {"ios": "https://dc.lft.to/lastmile_qr_scan", "android": "https://dc.lft.to/lastmile_qr_scan"}, "is_disabled": 0, "lon": -77.02403183333334, "name": "1d6afc1e86475724697c37ff0508b915", "fusion_lon": 0.0}, {"lat": 38.90024583333334, "fusion_lat": 0.0, "type": "electric_scooter", "bike_id": "9132bbebf03d4ad93b8d8e8f628ca510", "is_reserved": 0, "rental_uris": {"ios": "https://dc.lft.to/lastmile_qr_scan", "android": "https://dc.lft.to/lastmile_qr_scan"}, "is_disabled": 0, "lon": -76.99562066666667, "name": "9132bbebf03d4ad93b8d8e8f628ca510", "fusion_lon": 0.0}, {"lat": 38.91710466666667, "fusion_lat": 0.0, "type": "electric_scooter", "bike_id": "e598191ad9191a79a57d8615aefc36c5", "is_reserved": 0, "rental_uris": {"ios": "https://dc.lft.to/lastmile_qr_scan", "android": "https://dc.lft.to/lastmile_qr_scan"}, "is_disabled": 0, "lon": -77.09579583333333, "name": "e598191ad9191a79a57d8615aefc36c5", "fusion_lon": 0.0}, {"lat": 38.89360166666667, "fusion_lat": 0.0, "type": "electric_scooter", "bike_id": "1efc7c1d8df077e1b9007f28602a6318", "is_reserved": 0, "rental_uris": {"ios": "https://dc.lft.to/lastmile_qr_scan", "android": "https://dc.lft.to/lastmile_qr_scan"}, "is_disabled": 0, "lon": -77.02004466666666, "name": "1efc7c1d8df077e1b9007f28602a6318", "fusion_lon": 0.0}, {"lat": 38.8985345, "fusion_lat": 0.0, "type": "electric_scooter", "bike_id": "1db2ba7a7f0361c9b75e83e45dc421dc", "is_reserved": 0, "rental_uris": {"ios": "https://dc.lft.to/lastmile_qr_scan", "android": "https://dc.lft.to/lastmile_qr_scan"}, "is_disabled": 0, "lon": -77.0259105, "name": "1db2ba7a7f0361c9b75e83e45dc421dc", "fusion_lon": 0.0}, {"lat": 38.9217905, "fusion_lat": 0.0, "type": "electric_scooter", "bike_id": "9d0fa6ec3010aab18e0485f59856b2b5", "is_reserved": 0, "rental_uris": {"ios": "https://dc.lft.to/lastmile_qr_scan", "android": "https://dc.lft.to/lastmile_qr_scan"}, "is_disabled": 0, "lon": -77.01915233333334, "name": "9d0fa6ec3010aab18e0485f59856b2b5", "fusion_lon": 0.0}, {"lat": 38.904055666666665, "fusion_lat": 0.0, "type": "electric_scooter", "bike_id": "1f6ce4a5fc09177f45cd7f204e6a53f9", "is_reserved": 0, "rental_uris": {"ios": "https://dc.lft.to/lastmile_qr_scan", "android": "https://dc.lft.to/lastmile_qr_scan"}, "is_disabled": 0, "lon": -77.04998316666666, "name": "1f6ce4a5fc09177f45cd7f204e6a53f9", "fusion_lon": 0.0}, {"lat": 38.900847166666665, "fusion_lat": 0.0, "type": "electric_scooter", "bike_id": "fb7b9368f065787bb1e15c1f2b587ae0", "is_reserved": 0, "rental_uris": {"ios": "https://dc.lft.to/lastmile_qr_scan", "android": "https://dc.lft.to/lastmile_qr_scan"}, "is_disabled": 0, "lon": -77.04992416666667, "name": "fb7b9368f065787bb1e15c1f2b587ae0", "fusion_lon": 0.0}, {"lat": 38.923201166666665, "fusion_lat": 0.0, "type": "electric_scooter", "bike_id": "28feee0baa0f433cc93c4cf8d4587459", "is_reserved": 0, "rental_uris": {"ios": "https://dc.lft.to/lastmile_qr_scan", "android": "https://dc.lft.to/lastmile_qr_scan"}, "is_disabled": 0, "lon": -77.02135916666667, "name": "28feee0baa0f433cc93c4cf8d4587459", "fusion_lon": 0.0}, {"lat": 38.906644, "fusion_lat": 0.0, "type": "electric_scooter", "bike_id": "e410a23ebbe4f7333a993c514027c718", "is_reserved": 0, "rental_uris": {"ios": "https://dc.lft.to/lastmile_qr_scan", "android": "https://dc.lft.to/lastmile_qr_scan"}, "is_disabled": 0, "lon": -77.0386275, "name": "e410a23ebbe4f7333a993c514027c718", "fusion_lon": 0.0}, {"lat": 38.934208166666664, "fusion_lat": 0.0, "type": "electric_scooter", "bike_id": "5fb2cc31b9a097fb584d7fdc457e2796", "is_reserved": 0, "rental_uris": {"ios": "https://dc.lft.to/lastmile_qr_scan", "android": "https://dc.lft.to/lastmile_qr_scan"}, "is_disabled": 0, "lon": -77.04150616666666, "name": "5fb2cc31b9a097fb584d7fdc457e2796", "fusion_lon": 0.0}, {"lat": 38.919221, "fusion_lat": 0.0, "type": "electric_scooter", "bike_id": "99743dac67144e0056bbfabe69022c33", "is_reserved": 0, "rental_uris": {"ios": "https://dc.lft.to/lastmile_qr_scan", "android": "https://dc.lft.to/lastmile_qr_scan"}, "is_disabled": 0, "lon": -77.0317225, "name": "99743dac67144e0056bbfabe69022c33", "fusion_lon": 0.0}, {"lat": 38.91366, "fusion_lat": 0.0, "type": "electric_scooter", "bike_id": "c469f69baf597ac62695d943f30f8f6e", "is_reserved": 0, "rental_uris": {"ios": "https://dc.lft.to/lastmile_qr_scan", "android": "https://dc.lft.to/lastmile_qr_scan"}, "is_disabled": 0, "lon": -77.0662065, "name": "c469f69baf597ac62695d943f30f8f6e", "fusion_lon": 0.0}, {"lat": 38.907773666666664, "fusion_lat": 0.0, "type": "electric_scooter", "bike_id": "fff323032602bc6ca3496af926a474d6", "is_reserved": 0, "rental_uris": {"ios": "https://dc.lft.to/lastmile_qr_scan", "android": "https://dc.lft.to/lastmile_qr_scan"}, "is_disabled": 0, "lon": -77.0383465, "name": "fff323032602bc6ca3496af926a474d6", "fusion_lon": 0.0}, {"lat": 38.917693166666666, "fusion_lat": 0.0, "type": "electric_scooter", "bike_id": "8474438a8a1098b534c4fec67ba22036", "is_reserved": 0, "rental_uris": {"ios": "https://dc.lft.to/lastmile_qr_scan", "android": "https://dc.lft.to/lastmile_qr_scan"}, "is_disabled": 0, "lon": -77.04062216666667, "name": "8474438a8a1098b534c4fec67ba22036", "fusion_lon": 0.0}, {"lat": 38.91320483333333, "fusion_lat": 0.0, "type": "electric_scooter", "bike_id": "6165333bb00c16c488bd6a1f878d26d2", "is_reserved": 0, "rental_uris": {"ios": "https://dc.lft.to/lastmile_qr_scan", "android": "https://dc.lft.to/lastmile_qr_scan"}, "is_disabled": 0, "lon": -77.062491, "name": "6165333bb00c16c488bd6a1f878d26d2", "fusion_lon": 0.0}, {"lat": 38.866222, "fusion_lat": 0.0, "type": "electric_scooter", "bike_id": "c295a789707bf0b62f983c3235a3da2e", "is_reserved": 0, "rental_uris": {"ios": "https://dc.lft.to/lastmile_qr_scan", "android": "https://dc.lft.to/lastmile_qr_scan"}, "is_disabled": 0, "lon": -77.08787933333333, "name": "c295a789707bf0b62f983c3235a3da2e", "fusion_lon": 0.0}, {"lat": 38.87639033333333, "fusion_lat": 0.0, "type": "electric_scooter", "bike_id": "3baebe2c2c31878843b8a8c7f5f51871", "is_reserved": 0, "rental_uris": {"ios": "https://dc.lft.to/lastmile_qr_scan", "android": "https://dc.lft.to/lastmile_qr_scan"}, "is_disabled": 0, "lon": -77.00454733333333, "name": "3baebe2c2c31878843b8a8c7f5f51871", "fusion_lon": 0.0}, {"lat": 38.9322805, "fusion_lat": 0.0, "type": "electric_bike", "bike_id": "9947a70018bd3068c0f023227d241fdb", "is_reserved": 0, "rental_uris": {"ios": "https://dc.lft.to/lastmile_qr_scan", "android": "https://dc.lft.to/lastmile_qr_scan"}, "is_disabled": 0, "lon": -77.18122933333333, "name": "9947a70018bd3068c0f023227d241fdb", "fusion_lon": 0.0}, {"lat": 38.92254833333333, "fusion_lat": 0.0, "type": "electric_scooter", "bike_id": "dd9fc3b16182f7d300ab489173b82281", "is_reserved": 0, "rental_uris": {"ios": "https://dc.lft.to/lastmile_qr_scan", "android": "https://dc.lft.to/lastmile_qr_scan"}, "is_disabled": 0, "lon": -77.04214366666666, "name": "dd9fc3b16182f7d300ab489173b82281", "fusion_lon": 0.0}, {"lat": 38.913248, "fusion_lat": 0.0, "type": "electric_scooter", "bike_id": "1e403a3f6cb61c7b413948bae93bf6c0", "is_reserved": 0, "rental_uris": {"ios": "https://dc.lft.to/lastmile_qr_scan", "android": "https://dc.lft.to/lastmile_qr_scan"}, "is_disabled": 0, "lon": -77.03238833333333, "name": "1e403a3f6cb61c7b413948bae93bf6c0", "fusion_lon": 0.0}, {"lat": 38.89609683333333, "fusion_lat": 0.0, "type": "electric_scooter", "bike_id": "7e95048ac34e531219abdc5a37f7d33b", "is_reserved": 0, "rental_uris": {"ios": "https://dc.lft.to/lastmile_qr_scan", "android": "https://dc.lft.to/lastmile_qr_scan"}, "is_disabled": 0, "lon": -77.05440583333333, "name": "7e95048ac34e531219abdc5a37f7d33b", "fusion_lon": 0.0}, {"lat": 38.92871866666667, "fusion_lat": 0.0, "type": "electric_scooter", "bike_id": "ba44b08956772f00127432b11aa953de", "is_reserved": 0, "rental_uris": {"ios": "https://dc.lft.to/lastmile_qr_scan", "android": "https://dc.lft.to/lastmile_qr_scan"}, "is_disabled": 0, "lon": -77.02821516666667, "name": "ba44b08956772f00127432b11aa953de", "fusion_lon": 0.0}, {"lat": 38.90600516666667, "fusion_lat": 0.0, "type": "electric_scooter", "bike_id": "16f71e5d99d01bb896704926eefb2dfe", "is_reserved": 0, "rental_uris": {"ios": "https://dc.lft.to/lastmile_qr_scan", "android": "https://dc.lft.to/lastmile_qr_scan"}, "is_disabled": 0, "lon": -77.04132616666666, "name": "16f71e5d99d01bb896704926eefb2dfe", "fusion_lon": 0.0}, {"lat": 38.91074783333333, "fusion_lat": 0.0, "type": "electric_scooter", "bike_id": "dbf3ddd1b865e41304a9d5e944fa4ee4", "is_reserved": 0, "rental_uris": {"ios": "https://dc.lft.to/lastmile_qr_scan", "android": "https://dc.lft.to/lastmile_qr_scan"}, "is_disabled": 0, "lon": -77.03690366666666, "name": "dbf3ddd1b865e41304a9d5e944fa4ee4", "fusion_lon": 0.0}, {"lat": 38.87480516666667, "fusion_lat": 0.0, "type": "electric_scooter", "bike_id": "ba76e3fdee9c6b0f2981a36152fc83b3", "is_reserved": 0, "rental_uris": {"ios": "https://dc.lft.to/lastmile_qr_scan", "android": "https://dc.lft.to/lastmile_qr_scan"}, "is_disabled": 0, "lon": -77.01903183333333, "name": "ba76e3fdee9c6b0f2981a36152fc83b3", "fusion_lon": 0.0}, {"lat": 38.898461166666664, "fusion_lat": 0.0, "type": "electric_scooter", "bike_id": "8f13bb243f1c83a86583f8a284e5224d", "is_reserved": 0, "rental_uris": {"ios": "https://dc.lft.to/lastmile_qr_scan", "android": "https://dc.lft.to/lastmile_qr_scan"}, "is_disabled": 0, "lon": -77.0334595, "name": "8f13bb243f1c83a86583f8a284e5224d", "fusion_lon": 0.0}, {"lat": 38.92073216666667, "fusion_lat": 0.0, "type": "electric_scooter", "bike_id": "8737348a8d1f272bcdb3aa9419f387e0", "is_reserved": 0, "rental_uris": {"ios": "https://dc.lft.to/lastmile_qr_scan", "android": "https://dc.lft.to/lastmile_qr_scan"}, "is_disabled": 0, "lon": -77.02215666666666, "name": "8737348a8d1f272bcdb3aa9419f387e0", "fusion_lon": 0.0}, {"lat": 38.90836683333333, "fusion_lat": 0.0, "type": "electric_scooter", "bike_id": "0da00ad292542e009b99f5c04cc4c42c", "is_reserved": 0, "rental_uris": {"ios": "https://dc.lft.to/lastmile_qr_scan", "android": "https://dc.lft.to/lastmile_qr_scan"}, "is_disabled": 0, "lon": -77.00928233333333, "name": "0da00ad292542e009b99f5c04cc4c42c", "fusion_lon": 0.0}, {"lat": 38.86715233333334, "fusion_lat": 0.0, "type": "electric_scooter", "bike_id": "655eeec02d876c2e9ddf4e0e70bec68b", "is_reserved": 0, "rental_uris": {"ios": "https://dc.lft.to/lastmile_qr_scan", "android": "https://dc.lft.to/lastmile_qr_scan"}, "is_disabled": 0, "lon": -76.9872815, "name": "655eeec02d876c2e9ddf4e0e70bec68b", "fusion_lon": 0.0}, {"lat": 38.9152, "fusion_lat": 0.0, "type": "electric_scooter", "bike_id": "c76bc8b4fc1603e558b6e9a4a9c86170", "is_reserved": 0, "rental_uris": {"ios": "https://dc.lft.to/lastmile_qr_scan", "android": "https://dc.lft.to/lastmile_qr_scan"}, "is_disabled": 0, "lon": -77.02179383333333, "name": "c76bc8b4fc1603e558b6e9a4a9c86170", "fusion_lon": 0.0}, {"lat": 38.92011983333333, "fusion_lat": 0.0, "type": "electric_scooter", "bike_id": "5ea8665eccf346d77516d32a2b3e30bf", "is_reserved": 0, "rental_uris": {"ios": "https://dc.lft.to/lastmile_qr_scan", "android": "https://dc.lft.to/lastmile_qr_scan"}, "is_disabled": 0, "lon": -77.02047616666667, "name": "5ea8665eccf346d77516d32a2b3e30bf", "fusion_lon": 0.0}, {"lat": 38.956905166666665, "fusion_lat": 0.0, "type": "electric_scooter", "bike_id": "24f835cdbce5a4be755c2fea78767171", "is_reserved": 0, "rental_uris": {"ios": "https://dc.lft.to/lastmile_qr_scan", "android": "https://dc.lft.to/lastmile_qr_scan"}, "is_disabled": 0, "lon": -77.02403033333333, "name": "24f835cdbce5a4be755c2fea78767171", "fusion_lon": 0.0}, {"lat": 38.90210183333333, "fusion_lat": 0.0, "type": "electric_scooter", "bike_id": "81b4e264eebeec3d2df30beef5f882bd", "is_reserved": 0, "rental_uris": {"ios": "https://dc.lft.to/lastmile_qr_scan", "android": "https://dc.lft.to/lastmile_qr_scan"}, "is_disabled": 0, "lon": -77.02435983333334, "name": "81b4e264eebeec3d2df30beef5f882bd", "fusion_lon": 0.0}, {"lat": 38.884815833333334, "fusion_lat": 0.0, "type": "electric_scooter", "bike_id": "6b7192b05866a292b3636006d3f586d5", "is_reserved": 0, "rental_uris": {"ios": "https://dc.lft.to/lastmile_qr_scan", "android": "https://dc.lft.to/lastmile_qr_scan"}, "is_disabled": 0, "lon": -77.01518716666666, "name": "6b7192b05866a292b3636006d3f586d5", "fusion_lon": 0.0}, {"lat": 38.930740666666665, "fusion_lat": 0.0, "type": "electric_scooter", "bike_id": "46de209e945667a07cf65bf943e60a14", "is_reserved": 0, "rental_uris": {"ios": "https://dc.lft.to/lastmile_qr_scan", "android": "https://dc.lft.to/lastmile_qr_scan"}, "is_disabled": 0, "lon": -77.02167983333334, "name": "46de209e945667a07cf65bf943e60a14", "fusion_lon": 0.0}, {"lat": 38.90638716666667, "fusion_lat": 0.0, "type": "electric_scooter", "bike_id": "00f76ba90f5e4557719b47bbccca54b4", "is_reserved": 0, "rental_uris": {"ios": "https://dc.lft.to/lastmile_qr_scan", "android": "https://dc.lft.to/lastmile_qr_scan"}, "is_disabled": 0, "lon": -77.05114583333334, "name": "00f76ba90f5e4557719b47bbccca54b4", "fusion_lon": 0.0}, {"lat": 38.91562166666667, "fusion_lat": 0.0, "type": "electric_scooter", "bike_id": "3360c049923df76636fdecb6c9fd5757", "is_reserved": 0, "rental_uris": {"ios": "https://dc.lft.to/lastmile_qr_scan", "android": "https://dc.lft.to/lastmile_qr_scan"}, "is_disabled": 0, "lon": -77.03949816666666, "name": "3360c049923df76636fdecb6c9fd5757", "fusion_lon": 0.0}, {"lat": 38.88766616666667, "fusion_lat": 0.0, "type": "electric_scooter", "bike_id": "e1db20e45eb743e975cef5dd5b5b018f", "is_reserved": 0, "rental_uris": {"ios": "https://dc.lft.to/lastmile_qr_scan", "android": "https://dc.lft.to/lastmile_qr_scan"}, "is_disabled": 0, "lon": -76.95596916666666, "name": "e1db20e45eb743e975cef5dd5b5b018f", "fusion_lon": 0.0}, {"lat": 39.0243775, "fusion_lat": 0.0, "type": "electric_bike", "bike_id": "ab50e41f4bb5bc7b7b8f74fefee320dc", "is_reserved": 0, "rental_uris": {"ios": "https://dc.lft.to/lastmile_qr_scan", "android": "https://dc.lft.to/lastmile_qr_scan"}, "is_disabled": 0, "lon": -77.13102116666667, "name": "ab50e41f4bb5bc7b7b8f74fefee320dc", "fusion_lon": 0.0}, {"lat": 38.929076333333335, "fusion_lat": 0.0, "type": "electric_scooter", "bike_id": "64cd0e9a5dbf0251e76329b87875738e", "is_reserved": 0, "rental_uris": {"ios": "https://dc.lft.to/lastmile_qr_scan", "android": "https://dc.lft.to/lastmile_qr_scan"}, "is_disabled": 0, "lon": -77.03633066666667, "name": "64cd0e9a5dbf0251e76329b87875738e", "fusion_lon": 0.0}, {"lat": 38.905569666666665, "fusion_lat": 0.0, "type": "electric_scooter", "bike_id": "15dc8ec41c9156cdf958fa0e60bdea21", "is_reserved": 0, "rental_uris": {"ios": "https://dc.lft.to/lastmile_qr_scan", "android": "https://dc.lft.to/lastmile_qr_scan"}, "is_disabled": 0, "lon": -77.046419, "name": "15dc8ec41c9156cdf958fa0e60bdea21", "fusion_lon": 0.0}, {"lat": 38.947839, "fusion_lat": 0.0, "type": "electric_bike", "bike_id": "e846365c0636d59b5d309510984dc106", "is_reserved": 0, "rental_uris": {"ios": "https://dc.lft.to/lastmile_qr_scan", "android": "https://dc.lft.to/lastmile_qr_scan"}, "is_disabled": 0, "lon": -76.97211683333333, "name": "e846365c0636d59b5d309510984dc106", "fusion_lon": 0.0}, {"lat": 38.9048525, "fusion_lat": 0.0, "type": "electric_scooter", "bike_id": "7ad6d9ff57ad7d79179dcfb24ad786e3", "is_reserved": 0, "rental_uris": {"ios": "https://dc.lft.to/lastmile_qr_scan", "android": "https://dc.lft.to/lastmile_qr_scan"}, "is_disabled": 0, "lon": -77.05348883333333, "name": "7ad6d9ff57ad7d79179dcfb24ad786e3", "fusion_lon": 0.0}, {"lat": 38.90573716666667, "fusion_lat": 0.0, "type": "electric_scooter", "bike_id": "44ca11cbb5c2620759ccf7bafbd371dd", "is_reserved": 0, "rental_uris": {"ios": "https://dc.lft.to/lastmile_qr_scan", "android": "https://dc.lft.to/lastmile_qr_scan"}, "is_disabled": 0, "lon": -77.044856, "name": "44ca11cbb5c2620759ccf7bafbd371dd", "fusion_lon": 0.0}, {"lat": 38.910126, "fusion_lat": 0.0, "type": "electric_scooter", "bike_id": "261dec0fb2eb9ab3bb3ad43ed9b3d7c5", "is_reserved": 0, "rental_uris": {"ios": "https://dc.lft.to/lastmile_qr_scan", "android": "https://dc.lft.to/lastmile_qr_scan"}, "is_disabled": 0, "lon": -77.04009116666667, "name": "261dec0fb2eb9ab3bb3ad43ed9b3d7c5", "fusion_lon": 0.0}, {"lat": 38.91420433333333, "fusion_lat": 0.0, "type": "electric_scooter", "bike_id": "1845ed1198007ba185db3ad9f9276c1d", "is_reserved": 0, "rental_uris": {"ios": "https://dc.lft.to/lastmile_qr_scan", "android": "https://dc.lft.to/lastmile_qr_scan"}, "is_disabled": 0, "lon": -77.04487733333333, "name": "1845ed1198007ba185db3ad9f9276c1d", "fusion_lon": 0.0}, {"lat": 38.91930766666667, "fusion_lat": 0.0, "type": "electric_scooter", "bike_id": "c2b6ff60068dd6068470f07460f2ec37", "is_reserved": 0, "rental_uris": {"ios": "https://dc.lft.to/lastmile_qr_scan", "android": "https://dc.lft.to/lastmile_qr_scan"}, "is_disabled": 0, "lon": -77.04558283333333, "name": "c2b6ff60068dd6068470f07460f2ec37", "fusion_lon": 0.0}, {"lat": 38.916621, "fusion_lat": 0.0, "type": "electric_scooter", "bike_id": "15a040d006725c90e5b263bffdbf227a", "is_reserved": 0, "rental_uris": {"ios": "https://dc.lft.to/lastmile_qr_scan", "android": "https://dc.lft.to/lastmile_qr_scan"}, "is_disabled": 0, "lon": -77.04370566666667, "name": "15a040d006725c90e5b263bffdbf227a", "fusion_lon": 0.0}, {"lat": 38.9033105, "fusion_lat": 0.0, "type": "electric_scooter", "bike_id": "1b0d649343c12359df0e37b8be57cf5d", "is_reserved": 0, "rental_uris": {"ios": "https://dc.lft.to/lastmile_qr_scan", "android": "https://dc.lft.to/lastmile_qr_scan"}, "is_disabled": 0, "lon": -77.0213925, "name": "1b0d649343c12359df0e37b8be57cf5d", "fusion_lon": 0.0}, {"lat": 38.903766, "fusion_lat": 0.0, "type": "electric_scooter", "bike_id": "6f05bbaeff6db21b5c62413e8c1713e0", "is_reserved": 0, "rental_uris": {"ios": "https://dc.lft.to/lastmile_qr_scan", "android": "https://dc.lft.to/lastmile_qr_scan"}, "is_disabled": 0, "lon": -77.029163, "name": "6f05bbaeff6db21b5c62413e8c1713e0", "fusion_lon": 0.0}, {"lat": 38.92504733333333, "fusion_lat": 0.0, "type": "electric_scooter", "bike_id": "6a28d93484162139dcef2a01f420d019", "is_reserved": 0, "rental_uris": {"ios": "https://dc.lft.to/lastmile_qr_scan", "android": "https://dc.lft.to/lastmile_qr_scan"}, "is_disabled": 0, "lon": -77.02272883333333, "name": "6a28d93484162139dcef2a01f420d019", "fusion_lon": 0.0}, {"lat": 38.8922305, "fusion_lat": 0.0, "type": "electric_scooter", "bike_id": "ac619c3b8d27c301767b22c024fbcfce", "is_reserved": 0, "rental_uris": {"ios": "https://dc.lft.to/lastmile_qr_scan", "android": "https://dc.lft.to/lastmile_qr_scan"}, "is_disabled": 0, "lon": -77.042643, "name": "ac619c3b8d27c301767b22c024fbcfce", "fusion_lon": 0.0}, {"lat": 38.925902, "fusion_lat": 0.0, "type": "electric_scooter", "bike_id": "d3d03939796b0432455dcdf4b5d147e2", "is_reserved": 0, "rental_uris": {"ios": "https://dc.lft.to/lastmile_qr_scan", "android": "https://dc.lft.to/lastmile_qr_scan"}, "is_disabled": 0, "lon": -77.04411066666667, "name": "d3d03939796b0432455dcdf4b5d147e2", "fusion_lon": 0.0}, {"lat": 38.921296166666664, "fusion_lat": 0.0, "type": "electric_scooter", "bike_id": "58640ab1c2fc74ddc0252bcbdbfb5a68", "is_reserved": 0, "rental_uris": {"ios": "https://dc.lft.to/lastmile_qr_scan", "android": "https://dc.lft.to/lastmile_qr_scan"}, "is_disabled": 0, "lon": -76.99247366666667, "name": "58640ab1c2fc74ddc0252bcbdbfb5a68", "fusion_lon": 0.0}, {"lat": 38.944356, "fusion_lat": 0.0, "type": "electric_scooter", "bike_id": "4639d37c90310b2e3805eb476961d033", "is_reserved": 0, "rental_uris": {"ios": "https://dc.lft.to/lastmile_qr_scan", "android": "https://dc.lft.to/lastmile_qr_scan"}, "is_disabled": 0, "lon": -77.063574, "name": "4639d37c90310b2e3805eb476961d033", "fusion_lon": 0.0}, {"lat": 38.9119745, "fusion_lat": 0.0, "type": "electric_scooter", "bike_id": "e7563868ae0852e1156530a681223a3b", "is_reserved": 0, "rental_uris": {"ios": "https://dc.lft.to/lastmile_qr_scan", "android": "https://dc.lft.to/lastmile_qr_scan"}, "is_disabled": 0, "lon": -77.04526, "name": "e7563868ae0852e1156530a681223a3b", "fusion_lon": 0.0}, {"lat": 38.9178855, "fusion_lat": 0.0, "type": "electric_scooter", "bike_id": "7cfa00bdd6e666d2e2229183141b4258", "is_reserved": 0, "rental_uris": {"ios": "https://dc.lft.to/lastmile_qr_scan", "android": "https://dc.lft.to/lastmile_qr_scan"}, "is_disabled": 0, "lon": -77.04221333333334, "name": "7cfa00bdd6e666d2e2229183141b4258", "fusion_lon": 0.0}, {"lat": 38.918063, "fusion_lat": 0.0, "type": "electric_scooter", "bike_id": "71382b5b67861b9f99a41e369987dcad", "is_reserved": 0, "rental_uris": {"ios": "https://dc.lft.to/lastmile_qr_scan", "android": "https://dc.lft.to/lastmile_qr_scan"}, "is_disabled": 0, "lon": -77.02817783333333, "name": "71382b5b67861b9f99a41e369987dcad", "fusion_lon": 0.0}, {"lat": 38.92490333333333, "fusion_lat": 0.0, "type": "electric_scooter", "bike_id": "7c39af213805fdc2cc63cd50bed91b81", "is_reserved": 0, "rental_uris": {"ios": "https://dc.lft.to/lastmile_qr_scan", "android": "https://dc.lft.to/lastmile_qr_scan"}, "is_disabled": 0, "lon": -77.0225085, "name": "7c39af213805fdc2cc63cd50bed91b81", "fusion_lon": 0.0}, {"lat": 38.91791633333333, "fusion_lat": 0.0, "type": "electric_scooter", "bike_id": "0079ac5152a85cdea8cb6a4a0fff4625", "is_reserved": 0, "rental_uris": {"ios": "https://dc.lft.to/lastmile_qr_scan", "android": "https://dc.lft.to/lastmile_qr_scan"}, "is_disabled": 0, "lon": -77.0418735, "name": "0079ac5152a85cdea8cb6a4a0fff4625", "fusion_lon": 0.0}, {"lat": 38.909712, "fusion_lat": 0.0, "type": "electric_scooter", "bike_id": "0fc9a2d46053e8c3807a0b663675e6e2", "is_reserved": 0, "rental_uris": {"ios": "https://dc.lft.to/lastmile_qr_scan", "android": "https://dc.lft.to/lastmile_qr_scan"}, "is_disabled": 0, "lon": -77.03388116666666, "name": "0fc9a2d46053e8c3807a0b663675e6e2", "fusion_lon": 0.0}, {"lat": 38.93483666666667, "fusion_lat": 0.0, "type": "electric_scooter", "bike_id": "187b7c279872c817bfb3aea1b1ab41b2", "is_reserved": 0, "rental_uris": {"ios": "https://dc.lft.to/lastmile_qr_scan", "android": "https://dc.lft.to/lastmile_qr_scan"}, "is_disabled": 0, "lon": -77.07278883333333, "name": "187b7c279872c817bfb3aea1b1ab41b2", "fusion_lon": 0.0}, {"lat": 38.9004425, "fusion_lat": 0.0, "type": "electric_scooter", "bike_id": "9ace862a95594d648c03690c14a611a3", "is_reserved": 0, "rental_uris": {"ios": "https://dc.lft.to/lastmile_qr_scan", "android": "https://dc.lft.to/lastmile_qr_scan"}, "is_disabled": 0, "lon": -76.91919183333333, "name": "9ace862a95594d648c03690c14a611a3", "fusion_lon": 0.0}, {"lat": 38.90032516666667, "fusion_lat": 0.0, "type": "electric_scooter", "bike_id": "f41e73b531c86935da0bdd1aaddbd4e3", "is_reserved": 0, "rental_uris": {"ios": "https://dc.lft.to/lastmile_qr_scan", "android": "https://dc.lft.to/lastmile_qr_scan"}, "is_disabled": 0, "lon": -77.042846, "name": "f41e73b531c86935da0bdd1aaddbd4e3", "fusion_lon": 0.0}, {"lat": 38.874782833333335, "fusion_lat": 0.0, "type": "electric_scooter", "bike_id": "bb11cf9669d4e64ffde3afd97ef9ecec", "is_reserved": 0, "rental_uris": {"ios": "https://dc.lft.to/lastmile_qr_scan", "android": "https://dc.lft.to/lastmile_qr_scan"}, "is_disabled": 0, "lon": -77.00943916666667, "name": "bb11cf9669d4e64ffde3afd97ef9ecec", "fusion_lon": 0.0}, {"lat": 38.855118833333336, "fusion_lat": 0.0, "type": "electric_bike", "bike_id": "adcd2df12338b8347cca5c613cbb0e60", "is_reserved": 0, "rental_uris": {"ios": "https://dc.lft.to/lastmile_qr_scan", "android": "https://dc.lft.to/lastmile_qr_scan"}, "is_disabled": 0, "lon": -76.98420433333334, "name": "adcd2df12338b8347cca5c613cbb0e60", "fusion_lon": 0.0}, {"lat": 38.90003316666667, "fusion_lat": 0.0, "type": "electric_scooter", "bike_id": "51337ff178966af1ec961de1887ef67a", "is_reserved": 0, "rental_uris": {"ios": "https://dc.lft.to/lastmile_qr_scan", "android": "https://dc.lft.to/lastmile_qr_scan"}, "is_disabled": 0, "lon": -77.01024483333333, "name": "51337ff178966af1ec961de1887ef67a", "fusion_lon": 0.0}, {"lat": 38.88313566666667, "fusion_lat": 0.0, "type": "electric_scooter", "bike_id": "5abb0b1fadfaa5476be98c31d927503c", "is_reserved": 0, "rental_uris": {"ios": "https://dc.lft.to/lastmile_qr_scan", "android": "https://dc.lft.to/lastmile_qr_scan"}, "is_disabled": 0, "lon": -77.00050183333333, "name": "5abb0b1fadfaa5476be98c31d927503c", "fusion_lon": 0.0}, {"lat": 38.90505816666666, "fusion_lat": 0.0, "type": "electric_scooter", "bike_id": "9c9b863806272d9fbc4b0b524940e7d5", "is_reserved": 0, "rental_uris": {"ios": "https://dc.lft.to/lastmile_qr_scan", "android": "https://dc.lft.to/lastmile_qr_scan"}, "is_disabled": 0, "lon": -77.06021716666666, "name": "9c9b863806272d9fbc4b0b524940e7d5", "fusion_lon": 0.0}, {"lat": 38.893114833333335, "fusion_lat": 0.0, "type": "electric_scooter", "bike_id": "8953deafa84b03def1091373e09601e0", "is_reserved": 0, "rental_uris": {"ios": "https://dc.lft.to/lastmile_qr_scan", "android": "https://dc.lft.to/lastmile_qr_scan"}, "is_disabled": 0, "lon": -77.012192, "name": "8953deafa84b03def1091373e09601e0", "fusion_lon": 0.0}, {"lat": 38.9193035, "fusion_lat": 0.0, "type": "electric_scooter", "bike_id": "22e6760a2f37e6e225a9172c106d450a", "is_reserved": 0, "rental_uris": {"ios": "https://dc.lft.to/lastmile_qr_scan", "android": "https://dc.lft.to/lastmile_qr_scan"}, "is_disabled": 0, "lon": -77.03205716666666, "name": "22e6760a2f37e6e225a9172c106d450a", "fusion_lon": 0.0}, {"lat": 38.92038466666666, "fusion_lat": 0.0, "type": "electric_scooter", "bike_id": "752ed24a35f69b48ff08529c029247d2", "is_reserved": 0, "rental_uris": {"ios": "https://dc.lft.to/lastmile_qr_scan", "android": "https://dc.lft.to/lastmile_qr_scan"}, "is_disabled": 0, "lon": -77.025942, "name": "752ed24a35f69b48ff08529c029247d2", "fusion_lon": 0.0}, {"lat": 38.898497666666664, "fusion_lat": 0.0, "type": "electric_scooter", "bike_id": "f79a0327e1eb1ce350d02d386c38602a", "is_reserved": 0, "rental_uris": {"ios": "https://dc.lft.to/lastmile_qr_scan", "android": "https://dc.lft.to/lastmile_qr_scan"}, "is_disabled": 0, "lon": -77.02176666666666, "name": "f79a0327e1eb1ce350d02d386c38602a", "fusion_lon": 0.0}, {"lat": 38.86513733333334, "fusion_lat": 0.0, "type": "electric_scooter", "bike_id": "fd58e92bbcdf81755cc0d8116394ab24", "is_reserved": 0, "rental_uris": {"ios": "https://dc.lft.to/lastmile_qr_scan", "android": "https://dc.lft.to/lastmile_qr_scan"}, "is_disabled": 0, "lon": -76.97344116666666, "name": "fd58e92bbcdf81755cc0d8116394ab24", "fusion_lon": 0.0}, {"lat": 38.9051445, "fusion_lat": 0.0, "type": "electric_scooter", "bike_id": "63ae66d8f7445bf1070d2d33c7be9520", "is_reserved": 0, "rental_uris": {"ios": "https://dc.lft.to/lastmile_qr_scan", "android": "https://dc.lft.to/lastmile_qr_scan"}, "is_disabled": 0, "lon": -77.00135383333334, "name": "63ae66d8f7445bf1070d2d33c7be9520", "fusion_lon": 0.0}, {"lat": 38.92543583333333, "fusion_lat": 0.0, "type": "electric_scooter", "bike_id": "da1932a9f54c62c1db935b49ff8f4aeb", "is_reserved": 0, "rental_uris": {"ios": "https://dc.lft.to/lastmile_qr_scan", "android": "https://dc.lft.to/lastmile_qr_scan"}, "is_disabled": 0, "lon": -77.03298266666667, "name": "da1932a9f54c62c1db935b49ff8f4aeb", "fusion_lon": 0.0}, {"lat": 38.9002575, "fusion_lat": 0.0, "type": "electric_scooter", "bike_id": "e035d7c9cb01e6c40b079083aba06b58", "is_reserved": 0, "rental_uris": {"ios": "https://dc.lft.to/lastmile_qr_scan", "android": "https://dc.lft.to/lastmile_qr_scan"}, "is_disabled": 0, "lon": -77.01213733333333, "name": "e035d7c9cb01e6c40b079083aba06b58", "fusion_lon": 0.0}, {"lat": 38.86244583333333, "fusion_lat": 0.0, "type": "electric_scooter", "bike_id": "6a910e300406b1585cf2802b06b4bb12", "is_reserved": 0, "rental_uris": {"ios": "https://dc.lft.to/lastmile_qr_scan", "android": "https://dc.lft.to/lastmile_qr_scan"}, "is_disabled": 0, "lon": -76.99496066666667, "name": "6a910e300406b1585cf2802b06b4bb12", "fusion_lon": 0.0}, {"lat": 38.86660333333333, "fusion_lat": 0.0, "type": "electric_scooter", "bike_id": "e90dbbc9eac9056678867414b964db0d", "is_reserved": 0, "rental_uris": {"ios": "https://dc.lft.to/lastmile_qr_scan", "android": "https://dc.lft.to/lastmile_qr_scan"}, "is_disabled": 0, "lon": -76.9888645, "name": "e90dbbc9eac9056678867414b964db0d", "fusion_lon": 0.0}, {"lat": 38.904098166666664, "fusion_lat": 0.0, "type": "electric_scooter", "bike_id": "d4f68fcf0afd250934e60a9d173a97f0", "is_reserved": 0, "rental_uris": {"ios": "https://dc.lft.to/lastmile_qr_scan", "android": "https://dc.lft.to/lastmile_qr_scan"}, "is_disabled": 0, "lon": -77.06765433333334, "name": "d4f68fcf0afd250934e60a9d173a97f0", "fusion_lon": 0.0}, {"lat": 38.84936866666666, "fusion_lat": 0.0, "type": "electric_bike", "bike_id": "857963f45470f11d9f9a3f1fd86622c5", "is_reserved": 0, "rental_uris": {"ios": "https://dc.lft.to/lastmile_qr_scan", "android": "https://dc.lft.to/lastmile_qr_scan"}, "is_disabled": 0, "lon": -77.07802366666667, "name": "857963f45470f11d9f9a3f1fd86622c5", "fusion_lon": 0.0}, {"lat": 38.9157875, "fusion_lat": 0.0, "type": "electric_scooter", "bike_id": "b81c95665b12d5eec5bc08a09edf23e6", "is_reserved": 0, "rental_uris": {"ios": "https://dc.lft.to/lastmile_qr_scan", "android": "https://dc.lft.to/lastmile_qr_scan"}, "is_disabled": 0, "lon": -77.03180516666667, "name": "b81c95665b12d5eec5bc08a09edf23e6", "fusion_lon": 0.0}, {"lat": 38.90968316666667, "fusion_lat": 0.0, "type": "electric_scooter", "bike_id": "1c5a310f0cf4a370dfbc9b65ee667f7f", "is_reserved": 0, "rental_uris": {"ios": "https://dc.lft.to/lastmile_qr_scan", "android": "https://dc.lft.to/lastmile_qr_scan"}, "is_disabled": 0, "lon": -77.03991566666667, "name": "1c5a310f0cf4a370dfbc9b65ee667f7f", "fusion_lon": 0.0}, {"lat": 38.92088866666667, "fusion_lat": 0.0, "type": "electric_scooter", "bike_id": "aa06cf8690da94630c5dcadf193e65cb", "is_reserved": 0, "rental_uris": {"ios": "https://dc.lft.to/lastmile_qr_scan", "android": "https://dc.lft.to/lastmile_qr_scan"}, "is_disabled": 0, "lon": -77.01671183333333, "name": "aa06cf8690da94630c5dcadf193e65cb", "fusion_lon": 0.0}, {"lat": 38.91699783333333, "fusion_lat": 0.0, "type": "electric_scooter", "bike_id": "345e87d386a30c9c53266d552b7264cc", "is_reserved": 0, "rental_uris": {"ios": "https://dc.lft.to/lastmile_qr_scan", "android": "https://dc.lft.to/lastmile_qr_scan"}, "is_disabled": 0, "lon": -77.02454083333333, "name": "345e87d386a30c9c53266d552b7264cc", "fusion_lon": 0.0}, {"lat": 38.905411, "fusion_lat": 0.0, "type": "electric_scooter", "bike_id": "e5600a7cfa245358afc4e777c2b97d60", "is_reserved": 0, "rental_uris": {"ios": "https://dc.lft.to/lastmile_qr_scan", "android": "https://dc.lft.to/lastmile_qr_scan"}, "is_disabled": 0, "lon": -76.98470833333333, "name": "e5600a7cfa245358afc4e777c2b97d60", "fusion_lon": 0.0}, {"lat": 38.902912666666666, "fusion_lat": 0.0, "type": "electric_scooter", "bike_id": "5c584a4aca109bc02c7f318c74512bce", "is_reserved": 0, "rental_uris": {"ios": "https://dc.lft.to/lastmile_qr_scan", "android": "https://dc.lft.to/lastmile_qr_scan"}, "is_disabled": 0, "lon": -77.01611266666667, "name": "5c584a4aca109bc02c7f318c74512bce", "fusion_lon": 0.0}, {"lat": 38.8764245, "fusion_lat": 0.0, "type": "electric_scooter", "bike_id": "9ec5f6c42097f2270c4da5fdec16dd4d", "is_reserved": 0, "rental_uris": {"ios": "https://dc.lft.to/lastmile_qr_scan", "android": "https://dc.lft.to/lastmile_qr_scan"}, "is_disabled": 0, "lon": -77.0045655, "name": "9ec5f6c42097f2270c4da5fdec16dd4d", "fusion_lon": 0.0}, {"lat": 38.91998566666667, "fusion_lat": 0.0, "type": "electric_scooter", "bike_id": "c68279c8ae28690a56addbbc7aa8edd4", "is_reserved": 0, "rental_uris": {"ios": "https://dc.lft.to/lastmile_qr_scan", "android": "https://dc.lft.to/lastmile_qr_scan"}, "is_disabled": 0, "lon": -77.0329985, "name": "c68279c8ae28690a56addbbc7aa8edd4", "fusion_lon": 0.0}, {"lat": 38.93267083333333, "fusion_lat": 0.0, "type": "electric_scooter", "bike_id": "9a8b6f9459b2f922f84779db04ea0790", "is_reserved": 0, "rental_uris": {"ios": "https://dc.lft.to/lastmile_qr_scan", "android": "https://dc.lft.to/lastmile_qr_scan"}, "is_disabled": 0, "lon": -77.0389655, "name": "9a8b6f9459b2f922f84779db04ea0790", "fusion_lon": 0.0}, {"lat": 38.9027305, "fusion_lat": 0.0, "type": "electric_scooter", "bike_id": "0c77048823c94d019d30cd08541a1b06", "is_reserved": 0, "rental_uris": {"ios": "https://dc.lft.to/lastmile_qr_scan", "android": "https://dc.lft.to/lastmile_qr_scan"}, "is_disabled": 0, "lon": -77.01709533333333, "name": "0c77048823c94d019d30cd08541a1b06", "fusion_lon": 0.0}, {"lat": 38.92510933333333, "fusion_lat": 0.0, "type": "electric_scooter", "bike_id": "acf4b418c0084f8dadb893c200a5fae4", "is_reserved": 0, "rental_uris": {"ios": "https://dc.lft.to/lastmile_qr_scan", "android": "https://dc.lft.to/lastmile_qr_scan"}, "is_disabled": 0, "lon": -77.00225783333333, "name": "acf4b418c0084f8dadb893c200a5fae4", "fusion_lon": 0.0}, {"lat": 38.91351783333333, "fusion_lat": 0.0, "type": "electric_scooter", "bike_id": "591714c09be5f3ac7b8139b24be8dc1a", "is_reserved": 0, "rental_uris": {"ios": "https://dc.lft.to/lastmile_qr_scan", "android": "https://dc.lft.to/lastmile_qr_scan"}, "is_disabled": 0, "lon": -77.0257115, "name": "591714c09be5f3ac7b8139b24be8dc1a", "fusion_lon": 0.0}, {"lat": 38.884773833333334, "fusion_lat": 0.0, "type": "electric_scooter", "bike_id": "f9cfcce656cb9f205901fa221c1c3b82", "is_reserved": 0, "rental_uris": {"ios": "https://dc.lft.to/lastmile_qr_scan", "android": "https://dc.lft.to/lastmile_qr_scan"}, "is_disabled": 0, "lon": -77.02658566666666, "name": "f9cfcce656cb9f205901fa221c1c3b82", "fusion_lon": 0.0}, {"lat": 38.9199155, "fusion_lat": 0.0, "type": "electric_scooter", "bike_id": "6020f0aece76aeac373902edf1fbc4ad", "is_reserved": 0, "rental_uris": {"ios": "https://dc.lft.to/lastmile_qr_scan", "android": "https://dc.lft.to/lastmile_qr_scan"}, "is_disabled": 0, "lon": -77.03244733333334, "name": "6020f0aece76aeac373902edf1fbc4ad", "fusion_lon": 0.0}, {"lat": 38.89617833333333, "fusion_lat": 0.0, "type": "electric_scooter", "bike_id": "8a44cc08f99ba908daf7ce5e780f36b6", "is_reserved": 0, "rental_uris": {"ios": "https://dc.lft.to/lastmile_qr_scan", "android": "https://dc.lft.to/lastmile_qr_scan"}, "is_disabled": 0, "lon": -76.98168566666666, "name": "8a44cc08f99ba908daf7ce5e780f36b6", "fusion_lon": 0.0}, {"lat": 38.900795333333335, "fusion_lat": 0.0, "type": "electric_scooter", "bike_id": "1b72bf816e2603a182ddad1e3cefa2be", "is_reserved": 0, "rental_uris": {"ios": "https://dc.lft.to/lastmile_qr_scan", "android": "https://dc.lft.to/lastmile_qr_scan"}, "is_disabled": 0, "lon": -77.05063833333334, "name": "1b72bf816e2603a182ddad1e3cefa2be", "fusion_lon": 0.0}, {"lat": 38.917661333333335, "fusion_lat": 0.0, "type": "electric_scooter", "bike_id": "d47823188ae560427367b70a0a65f737", "is_reserved": 0, "rental_uris": {"ios": "https://dc.lft.to/lastmile_qr_scan", "android": "https://dc.lft.to/lastmile_qr_scan"}, "is_disabled": 0, "lon": -77.04769616666667, "name": "d47823188ae560427367b70a0a65f737", "fusion_lon": 0.0}, {"lat": 38.90776, "fusion_lat": 0.0, "type": "electric_scooter", "bike_id": "1fe50a6ea871b1281404e043e9334601", "is_reserved": 0, "rental_uris": {"ios": "https://dc.lft.to/lastmile_qr_scan", "android": "https://dc.lft.to/lastmile_qr_scan"}, "is_disabled": 0, "lon": -77.03832366666667, "name": "1fe50a6ea871b1281404e043e9334601", "fusion_lon": 0.0}, {"lat": 38.91568433333333, "fusion_lat": 0.0, "type": "electric_scooter", "bike_id": "d3387d8c8ee61a57da1df70bdb533aaa", "is_reserved": 0, "rental_uris": {"ios": "https://dc.lft.to/lastmile_qr_scan", "android": "https://dc.lft.to/lastmile_qr_scan"}, "is_disabled": 0, "lon": -77.03454683333334, "name": "d3387d8c8ee61a57da1df70bdb533aaa", "fusion_lon": 0.0}, {"lat": 38.9052805, "fusion_lat": 0.0, "type": "electric_scooter", "bike_id": "e7936b9ac3fc2fea256db673f5c73369", "is_reserved": 0, "rental_uris": {"ios": "https://dc.lft.to/lastmile_qr_scan", "android": "https://dc.lft.to/lastmile_qr_scan"}, "is_disabled": 0, "lon": -77.06520633333334, "name": "e7936b9ac3fc2fea256db673f5c73369", "fusion_lon": 0.0}, {"lat": 38.988634, "fusion_lat": 0.0, "type": "electric_bike", "bike_id": "0339dce098114f67329c66edd1c4f85a", "is_reserved": 0, "rental_uris": {"ios": "https://dc.lft.to/lastmile_qr_scan", "android": "https://dc.lft.to/lastmile_qr_scan"}, "is_disabled": 0, "lon": -77.09566183333334, "name": "0339dce098114f67329c66edd1c4f85a", "fusion_lon": 0.0}, {"lat": 38.895033, "fusion_lat": 0.0, "type": "electric_scooter", "bike_id": "20d5b733d67ef7a1e85a5e586a183931", "is_reserved": 0, "rental_uris": {"ios": "https://dc.lft.to/lastmile_qr_scan", "android": "https://dc.lft.to/lastmile_qr_scan"}, "is_disabled": 0, "lon": -76.93480333333333, "name": "20d5b733d67ef7a1e85a5e586a183931", "fusion_lon": 0.0}, {"lat": 38.92622566666667, "fusion_lat": 0.0, "type": "electric_scooter", "bike_id": "7515fbe399d5c84487cab26db724b346", "is_reserved": 0, "rental_uris": {"ios": "https://dc.lft.to/lastmile_qr_scan", "android": "https://dc.lft.to/lastmile_qr_scan"}, "is_disabled": 0, "lon": -77.04329233333333, "name": "7515fbe399d5c84487cab26db724b346", "fusion_lon": 0.0}, {"lat": 38.90567516666667, "fusion_lat": 0.0, "type": "electric_scooter", "bike_id": "0cbdae6597cedff3f80a7f0dae20f06a", "is_reserved": 0, "rental_uris": {"ios": "https://dc.lft.to/lastmile_qr_scan", "android": "https://dc.lft.to/lastmile_qr_scan"}, "is_disabled": 0, "lon": -77.03430666666667, "name": "0cbdae6597cedff3f80a7f0dae20f06a", "fusion_lon": 0.0}, {"lat": 38.902308, "fusion_lat": 0.0, "type": "electric_scooter", "bike_id": "c0da32922873e67189c71f87a181d706", "is_reserved": 0, "rental_uris": {"ios": "https://dc.lft.to/lastmile_qr_scan", "android": "https://dc.lft.to/lastmile_qr_scan"}, "is_disabled": 0, "lon": -77.04347866666667, "name": "c0da32922873e67189c71f87a181d706", "fusion_lon": 0.0},