{"data": {"bikes": [{"fusion_lat": 0.0, "bike_id": "acbd63d9f6d3e1e62069d4d702db5773", "fusion_lon": 0.0, "lon": -76.99877333333333, "lat": 38.952597833333336, "is_reserved": 0, "is_disabled": 0, "rental_uris": {"android": "https://dc.lft.to/lastmile_qr_scan", "ios": "https://dc.lft.to/lastmile_qr_scan"}, "name": "acbd63d9f6d3e1e62069d4d702db5773", "type": "electric_scooter"}, {"fusion_lat": 0.0, "bike_id": "9255866a042d89f04e9a2eabc5e302f3", "fusion_lon": 0.0, "lon": -77.03235683333334, "lat": 38.92886283333333, "is_reserved": 0, "is_disabled": 0, "rental_uris": {"android": "https://dc.lft.to/lastmile_qr_scan", "ios": "https://dc.lft.to/lastmile_qr_scan"}, "name": "9255866a042d89f04e9a2eabc5e302f3", "type": "electric_scooter"}, {"fusion_lat": 0.0, "bike_id": "c7d6329219f15108ac38a1fd3a73398d", "fusion_lon": 0.0, "lon": -77.0261605, "lat": 38.919093, "is_reserved": 0, "is_disabled": 0, "rental_uris": {"android": "https://dc.lft.to/lastmile_qr_scan", "ios": "https://dc.lft.to/lastmile_qr_scan"}, "name": "c7d6329219f15108ac38a1fd3a73398d", "type": "electric_scooter"}, {"fusion_lat": 0.0, "bike_id": "691e71f4f128255ebac66dc852d657cf", "fusion_lon": 0.0, "lon": -76.99034683333333, "lat": 38.897979, "is_reserved": 0, "is_disabled": 0, "rental_uris": {"android": "https://dc.lft.to/lastmile_qr_scan", "ios": "https://dc.lft.to/lastmile_qr_scan"}, "name": "691e71f4f128255ebac66dc852d657cf", "type": "electric_scooter"}, {"fusion_lat": 0.0, "bike_id": "394f5e1bd83b8bf41a6ea9185f1d9e7a", "fusion_lon": 0.0, "lon": -77.02796966666666, "lat": 38.94287516666667, "is_reserved": 0, "is_disabled": 0, "rental_uris": {"android": "https://dc.lft.to/lastmile_qr_scan", "ios": "https://dc.lft.to/lastmile_qr_scan"}, "name": "394f5e1bd83b8bf41a6ea9185f1d9e7a", "type": "electric_scooter"}, {"fusion_lat": 0.0, "bike_id": "74b1bb40d712457f50544d9ae7000fdc", "fusion_lon": 0.0, "lon": -77.042563, "lat": 38.92197383333333, "is_reserved": 0, "is_disabled": 0, "rental_uris": {"android": "https://dc.lft.to/lastmile_qr_scan", "ios": "https://dc.lft.to/lastmile_qr_scan"}, "name": "74b1bb40d712457f50544d9ae7000fdc", "type": "electric_scooter"}, {"fusion_lat": 0.0, "bike_id": "227892bf557b0aa8dabbde4c31323466", "fusion_lon": 0.0, "lon": -77.016315, "lat": 38.90675433333333, "is_reserved": 0, "is_disabled": 0, "rental_uris": {"android": "https://dc.lft.to/lastmile_qr_scan", "ios": "https://dc.lft.to/lastmile_qr_scan"}, "name": "227892bf557b0aa8dabbde4c31323466", "type": "electric_scooter"}, {"fusion_lat": 0.0, "bike_id": "c1ced1cbb3b6c9e1ed757e7d03a93bcd", "fusion_lon": 0.0, "lon": -77.05047483333334, "lat": 38.925152833333335, "is_reserved": 0, "is_disabled": 0, "rental_uris": {"android": "https://dc.lft.to/lastmile_qr_scan", "ios": "https://dc.lft.to/lastmile_qr_scan"}, "name": "c1ced1cbb3b6c9e1ed757e7d03a93bcd", "type": "electric_scooter"}, {"fusion_lat": 0.0, "bike_id": "79797b8fc9060182fdb2877ff7e94797", "fusion_lon": 0.0, "lon": -77.03962733333333, "lat": 38.91621416666667, "is_reserved": 0, "is_disabled": 0, "rental_uris": {"android": "https://dc.lft.to/lastmile_qr_scan", "ios": "https://dc.lft.to/lastmile_qr_scan"}, "name": "79797b8fc9060182fdb2877ff7e94797", "type": "electric_scooter"}, {"fusion_lat": 0.0, "bike_id": "c8278bb91d8977e13e2fb9cff900aa69", "fusion_lon": 0.0, "lon": -77.02753333333334, "lat": 38.941774, "is_reserved": 0, "is_disabled": 0, "rental_uris": {"android": "https://dc.lft.to/lastmile_qr_scan", "ios": "https://dc.lft.to/lastmile_qr_scan"}, "name": "c8278bb91d8977e13e2fb9cff900aa69", "type": "electric_scooter"}, {"fusion_lat": 0.0, "bike_id": "9ff480501b41e5cff1b5b6cdd1727b43", "fusion_lon": 0.0, "lon": -77.03473316666667, "lat": 38.935319, "is_reserved": 0, "is_disabled": 0, "rental_uris": {"android": "https://dc.lft.to/lastmile_qr_scan", "ios": "https://dc.lft.to/lastmile_qr_scan"}, "name": "9ff480501b41e5cff1b5b6cdd1727b43", "type": "electric_scooter"}, {"fusion_lat": 0.0, "bike_id": "759a3d639f0b25ef38266684977bb0d9", "fusion_lon": 0.0, "lon": -77.02790266666666, "lat": 38.96130183333333, "is_reserved": 0, "is_disabled": 0, "rental_uris": {"android": "https://dc.lft.to/lastmile_qr_scan", "ios": "https://dc.lft.to/lastmile_qr_scan"}, "name": "759a3d639f0b25ef38266684977bb0d9", "type": "electric_scooter"}, {"fusion_lat": 0.0, "bike_id": "5a92d7b0c322e37ff223a4fcd361e328", "fusion_lon": 0.0, "lon": -77.018598, "lat": 38.91496983333333, "is_reserved": 0, "is_disabled": 0, "rental_uris": {"android": "https://dc.lft.to/lastmile_qr_scan", "ios": "https://dc.lft.to/lastmile_qr_scan"}, "name": "5a92d7b0c322e37ff223a4fcd361e328", "type": "electric_scooter"}, {"fusion_lat": 0.0, "bike_id": "ded55799e4614c7ec00236e78df678f1", "fusion_lon": 0.0, "lon": -77.04155766666666, "lat": 38.918124166666665, "is_reserved": 0, "is_disabled": 0, "rental_uris": {"android": "https://dc.lft.to/lastmile_qr_scan", "ios": "https://dc.lft.to/lastmile_qr_scan"}, "name": "ded55799e4614c7ec00236e78df678f1", "type": "electric_scooter"}, {"fusion_lat": 0.0, "bike_id": "d2c848debbbe93c90fa6f4977a7e12d5", "fusion_lon": 0.0, "lon": -77.04857233333334, "lat": 38.905166666666666, "is_reserved": 0, "is_disabled": 0, "rental_uris": {"android": "https://dc.lft.to/lastmile_qr_scan", "ios": "https://dc.lft.to/lastmile_qr_scan"}, "name": "d2c848debbbe93c90fa6f4977a7e12d5", "type": "electric_scooter"}, {"fusion_lat": 0.0, "bike_id": "5f027c4a42794819fbbf3c8c73d40814", "fusion_lon": 0.0, "lon": -77.04875016666666, "lat": 38.8928685, "is_reserved": 0, "is_disabled": 0, "rental_uris": {"android": "https://dc.lft.to/lastmile_qr_scan", "ios": "https://dc.lft.to/lastmile_qr_scan"}, "name": "5f027c4a42794819fbbf3c8c73d40814", "type": "electric_scooter"}, {"fusion_lat": 0.0, "bike_id": "2879d304fc01eccfdd8764abf4ca4eb0", "fusion_lon": 0.0, "lon": -77.02905383333334, "lat": 38.9403715, "is_reserved": 0, "is_disabled": 0, "rental_uris": {"android": "https://dc.lft.to/lastmile_qr_scan", "ios": "https://dc.lft.to/lastmile_qr_scan"}, "name": "2879d304fc01eccfdd8764abf4ca4eb0", "type": "electric_scooter"}, {"fusion_lat": 0.0, "bike_id": "20ca0a051e7fdde668e099ff68b8f5c7", "fusion_lon": 0.0, "lon": -76.99489433333333, "lat": 38.8973595, "is_reserved": 0, "is_disabled": 0, "rental_uris": {"android": "https://dc.lft.to/lastmile_qr_scan", "ios": "https://dc.lft.to/lastmile_qr_scan"}, "name": "20ca0a051e7fdde668e099ff68b8f5c7", "type": "electric_scooter"}, {"fusion_lat": 0.0, "bike_id": "e7df3bf4bac5539763653e9af5fc2c23", "fusion_lon": 0.0, "lon": -76.99544533333334, "lat": 38.883730666666665, "is_reserved": 0, "is_disabled": 0, "rental_uris": {"android": "https://dc.lft.to/lastmile_qr_scan", "ios": "https://dc.lft.to/lastmile_qr_scan"}, "name": "e7df3bf4bac5539763653e9af5fc2c23", "type": "electric_scooter"}, {"fusion_lat": 0.0, "bike_id": "7f17dcf2591657a828bb5c75f52c5b04", "fusion_lon": 0.0, "lon": -77.02720683333334, "lat": 38.91072283333333, "is_reserved": 0, "is_disabled": 0, "rental_uris": {"android": "https://dc.lft.to/lastmile_qr_scan", "ios": "https://dc.lft.to/lastmile_qr_scan"}, "name": "7f17dcf2591657a828bb5c75f52c5b04", "type": "electric_scooter"}, {"fusion_lat": 0.0, "bike_id": "20a5a33a1bc4c4e1fd2016412fe8d827", "fusion_lon": 0.0, "lon": -77.05683816666667, "lat": 38.864893, "is_reserved": 0, "is_disabled": 0, "rental_uris": {"android": "https://dc.lft.to/lastmile_qr_scan", "ios": "https://dc.lft.to/lastmile_qr_scan"}, "name": "20a5a33a1bc4c4e1fd2016412fe8d827", "type": "electric_bike"}, {"fusion_lat": 0.0, "bike_id": "1978aaee8c04ab0faf838dd7f1faed6a", "fusion_lon": 0.0, "lon": -77.0388375, "lat": 38.92964116666667, "is_reserved": 0, "is_disabled": 0, "rental_uris": {"android": "https://dc.lft.to/lastmile_qr_scan", "ios": "https://dc.lft.to/lastmile_qr_scan"}, "name": "1978aaee8c04ab0faf838dd7f1faed6a", "type": "electric_scooter"}, {"fusion_lat": 0.0, "bike_id": "726153b3d68fe187a3c58da3d4317950", "fusion_lon": 0.0, "lon": -77.00041733333333, "lat": 38.967702833333334, "is_reserved": 0, "is_disabled": 0, "rental_uris": {"android": "https://dc.lft.to/lastmile_qr_scan", "ios": "https://dc.lft.to/lastmile_qr_scan"}, "name": "726153b3d68fe187a3c58da3d4317950", "type": "electric_bike"}, {"fusion_lat": 0.0, "bike_id": "e0f7885248be681dd7b304e00604587a", "fusion_lon": 0.0, "lon": -77.02818916666666, "lat": 38.911275833333335, "is_reserved": 0, "is_disabled": 0, "rental_uris": {"android": "https://dc.lft.to/lastmile_qr_scan", "ios": "https://dc.lft.to/lastmile_qr_scan"}, "name": "e0f7885248be681dd7b304e00604587a", "type": "electric_scooter"}, {"fusion_lat": 0.0, "bike_id": "c6156ef99bddf055682a39aa44c2638a", "fusion_lon": 0.0, "lon": -77.037249, "lat": 38.91108966666667, "is_reserved": 0, "is_disabled": 0, "rental_uris": {"android": "https://dc.lft.to/lastmile_qr_scan", "ios": "https://dc.lft.to/lastmile_qr_scan"}, "name": "c6156ef99bddf055682a39aa44c2638a", "type": "electric_scooter"}, {"fusion_lat": 0.0, "bike_id": "af83665c2aaf86aaca1cba45a88ec849", "fusion_lon": 0.0, "lon": -77.03661166666667, "lat": 38.92283416666667, "is_reserved": 0, "is_disabled": 0, "rental_uris": {"android": "https://dc.lft.to/lastmile_qr_scan", "ios": "https://dc.lft.to/lastmile_qr_scan"}, "name": "af83665c2aaf86aaca1cba45a88ec849", "type": "electric_scooter"}, {"fusion_lat": 0.0, "bike_id": "bac3eff016d83b359571abd8dc18199a", "fusion_lon": 0.0, "lon": -77.009616, "lat": 38.907825, "is_reserved": 0, "is_disabled": 0, "rental_uris": {"android": "https://dc.lft.to/lastmile_qr_scan", "ios": "https://dc.lft.to/lastmile_qr_scan"}, "name": "bac3eff016d83b359571abd8dc18199a", "type": "electric_scooter"}, {"fusion_lat": 0.0, "bike_id": "8017dd9cf9ddc27b58c0d16c8b9ad2ea", "fusion_lon": 0.0, "lon": -77.00200633333333, "lat": 38.902385333333335, "is_reserved": 0, "is_disabled": 0, "rental_uris": {"android": "https://dc.lft.to/lastmile_qr_scan", "ios": "https://dc.lft.to/lastmile_qr_scan"}, "name": "8017dd9cf9ddc27b58c0d16c8b9ad2ea", "type": "electric_scooter"}, {"fusion_lat": 0.0, "bike_id": "75ac0f0e9d3eb4318d5b0eed99381f97", "fusion_lon": 0.0, "lon": -77.0238405, "lat": 38.89231633333333, "is_reserved": 0, "is_disabled": 0, "rental_uris": {"android": "https://dc.lft.to/lastmile_qr_scan", "ios": "https://dc.lft.to/lastmile_qr_scan"}, "name": "75ac0f0e9d3eb4318d5b0eed99381f97", "type": "electric_scooter"}, {"fusion_lat": 0.0, "bike_id": "3af48d0622e3ad023bf0b8d3aee37ded", "fusion_lon": 0.0, "lon": -77.06754116666667, "lat": 38.90335866666667, "is_reserved": 0, "is_disabled": 0, "rental_uris": {"android": "https://dc.lft.to/lastmile_qr_scan", "ios": "https://dc.lft.to/lastmile_qr_scan"}, "name": "3af48d0622e3ad023bf0b8d3aee37ded", "type": "electric_scooter"}, {"fusion_lat": 0.0, "bike_id": "716d92949d5d45f441b9f172352f8b5f", "fusion_lon": 0.0, "lon": -77.02429783333334, "lat": 38.908459666666666, "is_reserved": 0, "is_disabled": 0, "rental_uris": {"android": "https://dc.lft.to/lastmile_qr_scan", "ios": "https://dc.lft.to/lastmile_qr_scan"}, "name": "716d92949d5d45f441b9f172352f8b5f", "type": "electric_scooter"}, {"fusion_lat": 0.0, "bike_id": "10bbd56b2e815ba5152cbb3fa5de086d", "fusion_lon": 0.0, "lon": -77.03025233333334, "lat": 38.91803, "is_reserved": 0, "is_disabled": 0, "rental_uris": {"android": "https://dc.lft.to/lastmile_qr_scan", "ios": "https://dc.lft.to/lastmile_qr_scan"}, "name": "10bbd56b2e815ba5152cbb3fa5de086d", "type": "electric_scooter"}, {"fusion_lat": 0.0, "bike_id": "f7e1ca00a4cc56e4b4629fd56f1f382b", "fusion_lon": 0.0, "lon": -77.03444266666666, "lat": 38.930897, "is_reserved": 0, "is_disabled": 0, "rental_uris": {"android": "https://dc.lft.to/lastmile_qr_scan", "ios": "https://dc.lft.to/lastmile_qr_scan"}, "name": "f7e1ca00a4cc56e4b4629fd56f1f382b", "type": "electric_scooter"}, {"fusion_lat": 0.0, "bike_id": "0d2c95d3f3d749150bbc31262c0d6f77", "fusion_lon": 0.0, "lon": -77.0008375, "lat": 38.9076245, "is_reserved": 0, "is_disabled": 0, "rental_uris": {"android": "https://dc.lft.to/lastmile_qr_scan", "ios": "https://dc.lft.to/lastmile_qr_scan"}, "name": "0d2c95d3f3d749150bbc31262c0d6f77", "type": "electric_scooter"}, {"fusion_lat": 0.0, "bike_id": "7f370980f3d65c85d969003d3c222c46", "fusion_lon": 0.0, "lon": -76.97594166666667, "lat": 38.903322, "is_reserved": 0, "is_disabled": 0, "rental_uris": {"android": "https://dc.lft.to/lastmile_qr_scan", "ios": "https://dc.lft.to/lastmile_qr_scan"}, "name": "7f370980f3d65c85d969003d3c222c46", "type": "electric_scooter"}, {"fusion_lat": 0.0, "bike_id": "a612c98d648b7c7e0360371b7387bde4", "fusion_lon": 0.0, "lon": -77.03868383333334, "lat": 38.90269716666667, "is_reserved": 0, "is_disabled": 0, "rental_uris": {"android": "https://dc.lft.to/lastmile_qr_scan", "ios": "https://dc.lft.to/lastmile_qr_scan"}, "name": "a612c98d648b7c7e0360371b7387bde4", "type": "electric_scooter"}, {"fusion_lat": 0.0, "bike_id": "fc530ad573ca5632f97cf09fe7d1a7ca", "fusion_lon": 0.0, "lon": -77.06282633333333, "lat": 38.90502566666667, "is_reserved": 0, "is_disabled": 0, "rental_uris": {"android": "https://dc.lft.to/lastmile_qr_scan", "ios": "https://dc.lft.to/lastmile_qr_scan"}, "name": "fc530ad573ca5632f97cf09fe7d1a7ca", "type": "electric_scooter"}, {"fusion_lat": 0.0, "bike_id": "097841944b45f7242806e6b7fe8d6c41", "fusion_lon": 0.0, "lon": -77.02958933333333, "lat": 38.930543666666665, "is_reserved": 0, "is_disabled": 0, "rental_uris": {"android": "https://dc.lft.to/lastmile_qr_scan", "ios": "https://dc.lft.to/lastmile_qr_scan"}, "name": "097841944b45f7242806e6b7fe8d6c41", "type": "electric_scooter"}, {"fusion_lat": 0.0, "bike_id": "7612ac3129ec91a7d12e49ec3c15d91b", "fusion_lon": 0.0, "lon": -77.03098333333334, "lat": 38.93101383333333, "is_reserved": 0, "is_disabled": 0, "rental_uris": {"android": "https://dc.lft.to/lastmile_qr_scan", "ios": "https://dc.lft.to/lastmile_qr_scan"}, "name": "7612ac3129ec91a7d12e49ec3c15d91b", "type": "electric_scooter"}, {"fusion_lat": 0.0, "bike_id": "8ebff9e4f413acee416f285df3c49c8c", "fusion_lon": 0.0, "lon": -76.99541533333333, "lat": 38.8837325, "is_reserved": 0, "is_disabled": 0, "rental_uris": {"android": "https://dc.lft.to/lastmile_qr_scan", "ios": "https://dc.lft.to/lastmile_qr_scan"}, "name": "8ebff9e4f413acee416f285df3c49c8c", "type": "electric_scooter"}, {"fusion_lat": 0.0, "bike_id": "4a01c9f9d17e7e4eb424c0871c680423", "fusion_lon": 0.0, "lon": -77.036401, "lat": 38.92302266666667, "is_reserved": 0, "is_disabled": 0, "rental_uris": {"android": "https://dc.lft.to/lastmile_qr_scan", "ios": "https://dc.lft.to/lastmile_qr_scan"}, "name": "4a01c9f9d17e7e4eb424c0871c680423", "type": "electric_scooter"}, {"fusion_lat": 0.0, "bike_id": "70d2433f29118d058b462753d5057bed", "fusion_lon": 0.0, "lon": -76.9977875, "lat": 38.844239, "is_reserved": 0, "is_disabled": 0, "rental_uris": {"android": "https://dc.lft.to/lastmile_qr_scan", "ios": "https://dc.lft.to/lastmile_qr_scan"}, "name": "70d2433f29118d058b462753d5057bed", "type": "electric_scooter"}, {"fusion_lat": 0.0, "bike_id": "3576d665be858c324170116d8dd353f3", "fusion_lon": 0.0, "lon": -77.0414815, "lat": 38.926415166666665, "is_reserved": 0, "is_disabled": 0, "rental_uris": {"android": "https://dc.lft.to/lastmile_qr_scan", "ios": "https://dc.lft.to/lastmile_qr_scan"}, "name": "3576d665be858c324170116d8dd353f3", "type": "electric_scooter"}, {"fusion_lat": 0.0, "bike_id": "b8ff361f2cb25aca6faaa57a513fb016", "fusion_lon": 0.0, "lon": -77.03797283333333, "lat": 38.930459166666665, "is_reserved": 0, "is_disabled": 0, "rental_uris": {"android": "https://dc.lft.to/lastmile_qr_scan", "ios": "https://dc.lft.to/lastmile_qr_scan"}, "name": "b8ff361f2cb25aca6faaa57a513fb016", "type": "electric_scooter"}, {"fusion_lat": 0.0, "bike_id": "06361121aa036ba170b6e205cb6fdbad", "fusion_lon": 0.0, "lon": -77.02992416666666, "lat": 38.90028516666667, "is_reserved": 0, "is_disabled": 0, "rental_uris": {"android": "https://dc.lft.to/lastmile_qr_scan", "ios": "https://dc.lft.to/lastmile_qr_scan"}, "name": "06361121aa036ba170b6e205cb6fdbad", "type": "electric_scooter"}, {"fusion_lat": 0.0, "bike_id": "08cfc1cc32c0cbf573cd92ce64ed4b66", "fusion_lon": 0.0, "lon": -77.04109933333334, "lat": 38.921815333333335, "is_reserved": 0, "is_disabled": 0, "rental_uris": {"android": "https://dc.lft.to/lastmile_qr_scan", "ios": "https://dc.lft.to/lastmile_qr_scan"}, "name": "08cfc1cc32c0cbf573cd92ce64ed4b66", "type": "electric_scooter"}, {"fusion_lat": 0.0, "bike_id": "cb9487eda6c0ed1f3d895e17d2650df5", "fusion_lon": 0.0, "lon": -77.03712916666667, "lat": 38.927918, "is_reserved": 0, "is_disabled": 0, "rental_uris": {"android": "https://dc.lft.to/lastmile_qr_scan", "ios": "https://dc.lft.to/lastmile_qr_scan"}, "name": "cb9487eda6c0ed1f3d895e17d2650df5", "type": "electric_scooter"}, {"fusion_lat": 0.0, "bike_id": "cc0bfbe04751bccc96d63f6db06adaf9", "fusion_lon": 0.0, "lon": -76.95892533333334, "lat": 38.89013416666667, "is_reserved": 0, "is_disabled": 0, "rental_uris": {"android": "https://dc.lft.to/lastmile_qr_scan", "ios": "https://dc.lft.to/lastmile_qr_scan"}, "name": "cc0bfbe04751bccc96d63f6db06adaf9", "type": "electric_scooter"}, {"fusion_lat": 0.0, "bike_id": "0d6e28b819f76ae2c30a3d099da3edd9", "fusion_lon": 0.0, "lon": -76.9636075, "lat": 38.934946833333335, "is_reserved": 0, "is_disabled": 0, "rental_uris": {"android": "https://dc.lft.to/lastmile_qr_scan", "ios": "https://dc.lft.to/lastmile_qr_scan"}, "name": "0d6e28b819f76ae2c30a3d099da3edd9", "type": "electric_scooter"}, {"fusion_lat": 0.0, "bike_id": "fe67721874e906efc8b2da0d787c9330", "fusion_lon": 0.0, "lon": -77.009204, "lat": 38.82783583333333, "is_reserved": 0, "is_disabled": 0, "rental_uris": {"android": "https://dc.lft.to/lastmile_qr_scan", "ios": "https://dc.lft.to/lastmile_qr_scan"}, "name": "fe67721874e906efc8b2da0d787c9330", "type": "electric_bike"}, {"fusion_lat": 0.0, "bike_id": "45b1ca0afe479bcbd0d939b541490d8c", "fusion_lon": 0.0, "lon": -77.033412, "lat": 38.928697666666665, "is_reserved": 0, "is_disabled": 0, "rental_uris": {"android": "https://dc.lft.to/lastmile_qr_scan", "ios": "https://dc.lft.to/lastmile_qr_scan"}, "name": "45b1ca0afe479bcbd0d939b541490d8c", "type": "electric_scooter"}, {"fusion_lat": 0.0, "bike_id": "9e263fa3ed81f58d74d5a3a61c1b5899", "fusion_lon": 0.0, "lon": -77.03321133333333, "lat": 38.90024533333333, "is_reserved": 0, "is_disabled": 0, "rental_uris": {"android": "https://dc.lft.to/lastmile_qr_scan", "ios": "https://dc.lft.to/lastmile_qr_scan"}, "name": "9e263fa3ed81f58d74d5a3a61c1b5899", "type": "electric_scooter"}, {"fusion_lat": 0.0, "bike_id": "8f4819acfda35a572693d5b04fb09349", "fusion_lon": 0.0, "lon": -77.0454855, "lat": 38.902379333333336, "is_reserved": 0, "is_disabled": 0, "rental_uris": {"android": "https://dc.lft.to/lastmile_qr_scan", "ios": "https://dc.lft.to/lastmile_qr_scan"}, "name": "8f4819acfda35a572693d5b04fb09349", "type": "electric_scooter"}, {"fusion_lat": 0.0, "bike_id": "5f548f17e0aa41c77b89a96e1d2d1ec0", "fusion_lon": 0.0, "lon": -77.02118683333333, "lat": 38.9369585, "is_reserved": 0, "is_disabled": 0, "rental_uris": {"android": "https://dc.lft.to/lastmile_qr_scan", "ios": "https://dc.lft.to/lastmile_qr_scan"}, "name": "5f548f17e0aa41c77b89a96e1d2d1ec0", "type": "electric_scooter"}, {"fusion_lat": 0.0, "bike_id": "b0204ca2733bfa56fb5e3c03e6d3fc38", "fusion_lon": 0.0, "lon": -77.04343316666667, "lat": 38.90817366666667, "is_reserved": 0, "is_disabled": 0, "rental_uris": {"android": "https://dc.lft.to/lastmile_qr_scan", "ios": "https://dc.lft.to/lastmile_qr_scan"}, "name": "b0204ca2733bfa56fb5e3c03e6d3fc38", "type": "electric_scooter"}, {"fusion_lat": 0.0, "bike_id": "7981c56ac97aa1696cc00fee36d4e1b5", "fusion_lon": 0.0, "lon": -77.00743016666667, "lat": 38.90353983333333, "is_reserved": 0, "is_disabled": 0, "rental_uris": {"android": "https://dc.lft.to/lastmile_qr_scan", "ios": "https://dc.lft.to/lastmile_qr_scan"}, "name": "7981c56ac97aa1696cc00fee36d4e1b5", "type": "electric_scooter"}, {"fusion_lat": 0.0, "bike_id": "62f926f7ae8dbce247a57584514cbb9f", "fusion_lon": 0.0, "lon": -77.043703, "lat": 38.892264, "is_reserved": 0, "is_disabled": 0, "rental_uris": {"android": "https://dc.lft.to/lastmile_qr_scan", "ios": "https://dc.lft.to/lastmile_qr_scan"}, "name": "62f926f7ae8dbce247a57584514cbb9f", "type": "electric_scooter"}, {"fusion_lat": 0.0, "bike_id": "a0d18c00c8d2c7b67366dcda80b736ab", "fusion_lon": 0.0, "lon": -77.02823966666666, "lat": 38.922529833333336, "is_reserved": 0, "is_disabled": 0, "rental_uris": {"android": "https://dc.lft.to/lastmile_qr_scan", "ios": "https://dc.lft.to/lastmile_qr_scan"}, "name": "a0d18c00c8d2c7b67366dcda80b736ab", "type": "electric_scooter"}, {"fusion_lat": 0.0, "bike_id": "3bade1070789a5c9e8c703be2cc91c8a", "fusion_lon": 0.0, "lon": -77.04361883333333, "lat": 38.900094, "is_reserved": 0, "is_disabled": 0, "rental_uris": {"android": "https://dc.lft.to/lastmile_qr_scan", "ios": "https://dc.lft.to/lastmile_qr_scan"}, "name": "3bade1070789a5c9e8c703be2cc91c8a", "type": "electric_scooter"}, {"fusion_lat": 0.0, "bike_id": "8d44bf66a5fc6d0cacdbb35d05344dc4", "fusion_lon": 0.0, "lon": -76.99794816666666, "lat": 38.8763445, "is_reserved": 0, "is_disabled": 0, "rental_uris": {"android": "https://dc.lft.to/lastmile_qr_scan", "ios": "https://dc.lft.to/lastmile_qr_scan"}, "name": "8d44bf66a5fc6d0cacdbb35d05344dc4", "type": "electric_scooter"}, {"fusion_lat": 0.0, "bike_id": "4aacd7e9fcbad844e56bc23f51bbfba9", "fusion_lon": 0.0, "lon": -77.06709316666667, "lat": 38.914390833333336, "is_reserved": 0, "is_disabled": 0, "rental_uris": {"android": "https://dc.lft.to/lastmile_qr_scan", "ios": "https://dc.lft.to/lastmile_qr_scan"}, "name": "4aacd7e9fcbad844e56bc23f51bbfba9", "type": "electric_scooter"}, {"fusion_lat": 0.0, "bike_id": "e42d22fb278759e932b253803aca76fe", "fusion_lon": 0.0, "lon": -77.03188733333333, "lat": 38.900769333333336, "is_reserved": 0, "is_disabled": 0, "rental_uris": {"android": "https://dc.lft.to/lastmile_qr_scan", "ios": "https://dc.lft.to/lastmile_qr_scan"}, "name": "e42d22fb278759e932b253803aca76fe", "type": "electric_scooter"}, {"fusion_lat": 0.0, "bike_id": "b661eeb2467354324f7476471c3f30bb", "fusion_lon": 0.0, "lon": -77.02846516666666, "lat": 38.9257525, "is_reserved": 0, "is_disabled": 0, "rental_uris": {"android": "https://dc.lft.to/lastmile_qr_scan", "ios": "https://dc.lft.to/lastmile_qr_scan"}, "name": "b661eeb2467354324f7476471c3f30bb", "type": "electric_scooter"}, {"fusion_lat": 0.0, "bike_id": "0e8fd6711621c119520dbe8d878a4857", "fusion_lon": 0.0, "lon": -77.0327955, "lat": 38.9198925, "is_reserved": 0, "is_disabled": 0, "rental_uris": {"android": "https://dc.lft.to/lastmile_qr_scan", "ios": "https://dc.lft.to/lastmile_qr_scan"}, "name": "0e8fd6711621c119520dbe8d878a4857", "type": "electric_scooter"}, {"fusion_lat": 0.0, "bike_id": "e1bb0bcd23eb129d6545a308b60ec45d", "fusion_lon": 0.0, "lon": -77.03214566666666, "lat": 38.8967315, "is_reserved": 0, "is_disabled": 0, "rental_uris": {"android": "https://dc.lft.to/lastmile_qr_scan", "ios": "https://dc.lft.to/lastmile_qr_scan"}, "name": "e1bb0bcd23eb129d6545a308b60ec45d", "type": "electric_scooter"}, {"fusion_lat": 0.0, "bike_id": "bfd98810f787e9bedc0b2dfd6f7919b4", "fusion_lon": 0.0, "lon": -77.0321765, "lat": 38.90453866666667, "is_reserved": 0, "is_disabled": 0, "rental_uris": {"android": "https://dc.lft.to/lastmile_qr_scan", "ios": "https://dc.lft.to/lastmile_qr_scan"}, "name": "bfd98810f787e9bedc0b2dfd6f7919b4", "type": "electric_scooter"}, {"fusion_lat": 0.0, "bike_id": "0f4e7efe6e19d4b5deede8232513daf9", "fusion_lon": 0.0, "lon": -77.02062116666667, "lat": 38.923644833333334, "is_reserved": 0, "is_disabled": 0, "rental_uris": {"android": "https://dc.lft.to/lastmile_qr_scan", "ios": "https://dc.lft.to/lastmile_qr_scan"}, "name": "0f4e7efe6e19d4b5deede8232513daf9", "type": "electric_scooter"}, {"fusion_lat": 0.0, "bike_id": "45297e251bd030d168e0dbba98cc6b9f", "fusion_lon": 0.0, "lon": -77.02493566666666, "lat": 38.916905666666665, "is_reserved": 0, "is_disabled": 0, "rental_uris": {"android": "https://dc.lft.to/lastmile_qr_scan", "ios": "https://dc.lft.to/lastmile_qr_scan"}, "name": "45297e251bd030d168e0dbba98cc6b9f", "type": "electric_scooter"}, {"fusion_lat": 0.0, "bike_id": "ca29952cba40ae1ebc787f254bf9e35f", "fusion_lon": 0.0, "lon": -77.01407716666667, "lat": 38.91473, "is_reserved": 0, "is_disabled": 0, "rental_uris": {"android": "https://dc.lft.to/lastmile_qr_scan", "ios": "https://dc.lft.to/lastmile_qr_scan"}, "name": "ca29952cba40ae1ebc787f254bf9e35f", "type": "electric_scooter"}, {"fusion_lat": 0.0, "bike_id": "74279c7db926ddb91fc685e4a711477a", "fusion_lon": 0.0, "lon": -77.04475216666667, "lat": 38.9126225, "is_reserved": 0, "is_disabled": 0, "rental_uris": {"android": "https://dc.lft.to/lastmile_qr_scan", "ios": "https://dc.lft.to/lastmile_qr_scan"}, "name": "74279c7db926ddb91fc685e4a711477a", "type": "electric_scooter"}, {"fusion_lat": 0.0, "bike_id": "7f64f52c0adb68130f27dd2ed17c4205", "fusion_lon": 0.0, "lon": -77.03037583333334, "lat": 38.917047833333335, "is_reserved": 0, "is_disabled": 0, "rental_uris": {"android": "https://dc.lft.to/lastmile_qr_scan", "ios": "https://dc.lft.to/lastmile_qr_scan"}, "name": "7f64f52c0adb68130f27dd2ed17c4205", "type": "electric_scooter"}, {"fusion_lat": 0.0, "bike_id": "4fa8aeb99fa813f1ec1fed6e5c9e48ea", "fusion_lon": 0.0, "lon": -77.0144815, "lat": 38.9298175, "is_reserved": 0, "is_disabled": 0, "rental_uris": {"android": "https://dc.lft.to/lastmile_qr_scan", "ios": "https://dc.lft.to/lastmile_qr_scan"}, "name": "4fa8aeb99fa813f1ec1fed6e5c9e48ea", "type": "electric_scooter"}, {"fusion_lat": 0.0, "bike_id": "0ae3d2772cca50a5077ec278bbc3c07a", "fusion_lon": 0.0, "lon": -77.03355116666667, "lat": 38.908266833333336, "is_reserved": 0, "is_disabled": 0, "rental_uris": {"android": "https://dc.lft.to/lastmile_qr_scan", "ios": "https://dc.lft.to/lastmile_qr_scan"}, "name": "0ae3d2772cca50a5077ec278bbc3c07a", "type": "electric_scooter"}, {"fusion_lat": 0.0, "bike_id": "f30b9db8be1cf3939f9423a35acdd72f", "fusion_lon": 0.0, "lon": -77.027376, "lat": 38.917072, "is_reserved": 0, "is_disabled": 0, "rental_uris": {"android": "https://dc.lft.to/lastmile_qr_scan", "ios": "https://dc.lft.to/lastmile_qr_scan"}, "name": "f30b9db8be1cf3939f9423a35acdd72f", "type": "electric_scooter"}, {"fusion_lat": 0.0, "bike_id": "3c2312b2043292450898ddb16805f1c9", "fusion_lon": 0.0, "lon": -76.93355533333333, "lat": 38.887915, "is_reserved": 0, "is_disabled": 0, "rental_uris": {"android": "https://dc.lft.to/lastmile_qr_scan", "ios": "https://dc.lft.to/lastmile_qr_scan"}, "name": "3c2312b2043292450898ddb16805f1c9", "type": "electric_scooter"}, {"fusion_lat": 0.0, "bike_id": "5199675f6ccc84827c667a14d68423ed", "fusion_lon": 0.0, "lon": -76.99502566666666, "lat": 38.835515, "is_reserved": 0, "is_disabled": 0, "rental_uris": {"android": "https://dc.lft.to/lastmile_qr_scan", "ios": "https://dc.lft.to/lastmile_qr_scan"}, "name": "5199675f6ccc84827c667a14d68423ed", "type": "electric_scooter"}, {"fusion_lat": 0.0, "bike_id": "d9831b633d3d85f42b7319f39fd83631", "fusion_lon": 0.0, "lon": -77.04140833333334, "lat": 38.916764, "is_reserved": 0, "is_disabled": 0, "rental_uris": {"android": "https://dc.lft.to/lastmile_qr_scan", "ios": "https://dc.lft.to/lastmile_qr_scan"}, "name": "d9831b633d3d85f42b7319f39fd83631", "type": "electric_scooter"}, {"fusion_lat": 0.0, "bike_id": "ed2f54e93f8e4015cde4ebb4829ab2ee", "fusion_lon": 0.0, "lon": -77.0334535, "lat": 38.9171205, "is_reserved": 0, "is_disabled": 0, "rental_uris": {"android": "https://dc.lft.to/lastmile_qr_scan", "ios": "https://dc.lft.to/lastmile_qr_scan"}, "name": "ed2f54e93f8e4015cde4ebb4829ab2ee", "type": "electric_scooter"}, {"fusion_lat": 0.0, "bike_id": "97b543654ffd94a6a9c28102708fbe16", "fusion_lon": 0.0, "lon": -77.02342183333333, "lat": 38.91763783333333, "is_reserved": 0, "is_disabled": 0, "rental_uris": {"android": "https://dc.lft.to/lastmile_qr_scan", "ios": "https://dc.lft.to/lastmile_qr_scan"}, "name": "97b543654ffd94a6a9c28102708fbe16", "type": "electric_scooter"}, {"fusion_lat": 0.0, "bike_id": "90d9a98f1b594fdf65c90391810b6459", "fusion_lon": 0.0, "lon": -77.02620466666667, "lat": 38.919081166666665, "is_reserved": 0, "is_disabled": 0, "rental_uris": {"android": "https://dc.lft.to/lastmile_qr_scan", "ios": "https://dc.lft.to/lastmile_qr_scan"}, "name": "90d9a98f1b594fdf65c90391810b6459", "type": "electric_scooter"}, {"fusion_lat": 0.0, "bike_id": "d5a4e9a04d76e5d0ac18258b8a97cd5f", "fusion_lon": 0.0, "lon": -77.0173535, "lat": 38.8874245, "is_reserved": 0, "is_disabled": 0, "rental_uris": {"android": "https://dc.lft.to/lastmile_qr_scan", "ios": "https://dc.lft.to/lastmile_qr_scan"}, "name": "d5a4e9a04d76e5d0ac18258b8a97cd5f", "type": "electric_scooter"}, {"fusion_lat": 0.0, "bike_id": "07b4c713e44f30214a9652ca8793c071", "fusion_lon": 0.0, "lon": -77.03189283333333, "lat": 38.917344166666666, "is_reserved": 0, "is_disabled": 0, "rental_uris": {"android": "https://dc.lft.to/lastmile_qr_scan", "ios": "https://dc.lft.to/lastmile_qr_scan"}, "name": "07b4c713e44f30214a9652ca8793c071", "type": "electric_scooter"}, {"fusion_lat": 0.0, "bike_id": "da579dbeff22ea118232f3b00a6131ad", "fusion_lon": 0.0, "lon": -77.03149816666667, "lat": 38.9155955, "is_reserved": 0, "is_disabled": 0, "rental_uris": {"android": "https://dc.lft.to/lastmile_qr_scan", "ios": "https://dc.lft.to/lastmile_qr_scan"}, "name": "da579dbeff22ea118232f3b00a6131ad", "type": "electric_scooter"}, {"fusion_lat": 0.0, "bike_id": "b08a5d5a9b0fb4032e28dd0c22b8da45", "fusion_lon": 0.0, "lon": -77.02202566666666, "lat": 38.87892183333334, "is_reserved": 0, "is_disabled": 0, "rental_uris": {"android": "https://dc.lft.to/lastmile_qr_scan", "ios": "https://dc.lft.to/lastmile_qr_scan"}, "name": "b08a5d5a9b0fb4032e28dd0c22b8da45", "type": "electric_scooter"}, {"fusion_lat": 0.0, "bike_id": "ee5842827158d0b2635032e7a5dd16d8", "fusion_lon": 0.0, "lon": -76.99372116666666, "lat": 38.879647, "is_reserved": 0, "is_disabled": 0, "rental_uris": {"android": "https://dc.lft.to/lastmile_qr_scan", "ios": "https://dc.lft.to/lastmile_qr_scan"}, "name": "ee5842827158d0b2635032e7a5dd16d8", "type": "electric_scooter"}, {"fusion_lat": 0.0, "bike_id": "4321359f6408fb4a19877464949cb99c", "fusion_lon": 0.0, "lon": -77.03741233333334, "lat": 38.9180215, "is_reserved": 0, "is_disabled": 0, "rental_uris": {"android": "https://dc.lft.to/lastmile_qr_scan", "ios": "https://dc.lft.to/lastmile_qr_scan"}, "name": "4321359f6408fb4a19877464949cb99c", "type": "electric_scooter"}, {"fusion_lat": 0.0, "bike_id": "d0b47ea65698471fd8389ef6ea105eb1", "fusion_lon": 0.0, "lon": -77.02720283333333, "lat": 38.89713033333334, "is_reserved": 0, "is_disabled": 0, "rental_uris": {"android": "https://dc.lft.to/lastmile_qr_scan", "ios": "https://dc.lft.to/lastmile_qr_scan"}, "name": "d0b47ea65698471fd8389ef6ea105eb1", "type": "electric_scooter"}, {"fusion_lat": 0.0, "bike_id": "dd973a9f8c50f9c3c17f8504d7f47b5d", "fusion_lon": 0.0, "lon": -76.9900705, "lat": 38.865073, "is_reserved": 0, "is_disabled": 0, "rental_uris": {"android": "https://dc.lft.to/lastmile_qr_scan", "ios": "https://dc.lft.to/lastmile_qr_scan"}, "name": "dd973a9f8c50f9c3c17f8504d7f47b5d", "type": "electric_scooter"}, {"fusion_lat": 0.0, "bike_id": "57a667843d0fc3b411c132e0a53e0d1e", "fusion_lon": 0.0, "lon": -77.0376245, "lat": 38.91874983333334, "is_reserved": 0, "is_disabled": 0, "rental_uris": {"android": "https://dc.lft.to/lastmile_qr_scan", "ios": "https://dc.lft.to/lastmile_qr_scan"}, "name": "57a667843d0fc3b411c132e0a53e0d1e", "type": "electric_scooter"}, {"fusion_lat": 0.0, "bike_id": "5d0dedb3c8766e76839d614acce02069", "fusion_lon": 0.0, "lon": -77.02836966666666, "lat": 38.924757166666666, "is_reserved": 0, "is_disabled": 0, "rental_uris": {"android": "https://dc.lft.to/lastmile_qr_scan", "ios": "https://dc.lft.to/lastmile_qr_scan"}, "name": "5d0dedb3c8766e76839d614acce02069", "type": "electric_scooter"}, {"fusion_lat": 0.0, "bike_id": "b6e76667cb1cf3b93fb065f96309ceb9", "fusion_lon": 0.0, "lon": -77.0256175, "lat": 38.903434, "is_reserved": 0, "is_disabled": 0, "rental_uris": {"android": "https://dc.lft.to/lastmile_qr_scan", "ios": "https://dc.lft.to/lastmile_qr_scan"}, "name": "b6e76667cb1cf3b93fb065f96309ceb9", "type": "electric_scooter"}, {"fusion_lat": 0.0, "bike_id": "736f6447009c0108ea24a587221e8807", "fusion_lon": 0.0, "lon": -77.03300366666667, "lat": 38.89816183333333, "is_reserved": 0, "is_disabled": 0, "rental_uris": {"android": "https://dc.lft.to/lastmile_qr_scan", "ios": "https://dc.lft.to/lastmile_qr_scan"}, "name": "736f6447009c0108ea24a587221e8807", "type": "electric_scooter"}, {"fusion_lat": 0.0, "bike_id": "68d635a86d3e0c86053890ca74fa7c67", "fusion_lon": 0.0, "lon": -77.047249, "lat": 38.89967883333333, "is_reserved": 0, "is_disabled": 0, "rental_uris": {"android": "https://dc.lft.to/lastmile_qr_scan", "ios": "https://dc.lft.to/lastmile_qr_scan"}, "name": "68d635a86d3e0c86053890ca74fa7c67", "type": "electric_scooter"}, {"fusion_lat": 0.0, "bike_id": "2f01c8a10db20ab9adb051b954689a93", "fusion_lon": 0.0, "lon": -77.038032, "lat": 38.906865, "is_reserved": 0, "is_disabled": 0, "rental_uris": {"android": "https://dc.lft.to/lastmile_qr_scan", "ios": "https://dc.lft.to/lastmile_qr_scan"}, "name": "2f01c8a10db20ab9adb051b954689a93", "type": "electric_scooter"}, {"fusion_lat": 0.0, "bike_id": "cfb78a34b01c8ba7b13ecf3357346092", "fusion_lon": 0.0, "lon": -76.98855233333333, "lat": 38.867328, "is_reserved": 0, "is_disabled": 0, "rental_uris": {"android": "https://dc.lft.to/lastmile_qr_scan", "ios": "https://dc.lft.to/lastmile_qr_scan"}, "name": "cfb78a34b01c8ba7b13ecf3357346092", "type": "electric_scooter"}, {"fusion_lat": 0.0, "bike_id": "75afc8f92baab784199ca30cc76aacfe", "fusion_lon": 0.0, "lon": -77.06449116666667, "lat": 38.90518333333333, "is_reserved": 0, "is_disabled": 0, "rental_uris": {"android": "https://dc.lft.to/lastmile_qr_scan", "ios": "https://dc.lft.to/lastmile_qr_scan"}, "name": "75afc8f92baab784199ca30cc76aacfe", "type": "electric_scooter"}, {"fusion_lat": 0.0, "bike_id": "071f0448471a2901c8b167c36fc04530", "fusion_lon": 0.0, "lon": -77.03155533333333, "lat": 38.91360266666667, "is_reserved": 0, "is_disabled": 0, "rental_uris": {"android": "https://dc.lft.to/lastmile_qr_scan", "ios": "https://dc.lft.to/lastmile_qr_scan"}, "name": "071f0448471a2901c8b167c36fc04530", "type": "electric_scooter"}, {"fusion_lat": 0.0, "bike_id": "5635521550bc8d42e0d7d359e0b4da64", "fusion_lon": 0.0, "lon": -77.04981316666667, "lat": 39.06295, "is_reserved": 0, "is_disabled": 0, "rental_uris": {"android": "https://dc.lft.to/lastmile_qr_scan", "ios": "https://dc.lft.to/lastmile_qr_scan"}, "name": "5635521550bc8d42e0d7d359e0b4da64", "type": "electric_bike"}, {"fusion_lat": 0.0, "bike_id": "d0160e119cac5903c648d98457b8b8a8", "fusion_lon": 0.0, "lon": -77.0386755, "lat": 38.92010783333333, "is_reserved": 0, "is_disabled": 0, "rental_uris": {"android": "https://dc.lft.to/lastmile_qr_scan", "ios": "https://dc.lft.to/lastmile_qr_scan"}, "name": "d0160e119cac5903c648d98457b8b8a8", "type": "electric_scooter"}, {"fusion_lat": 0.0, "bike_id": "b53416a597301d8af8998b3c3d6d9cc8", "fusion_lon": 0.0, "lon": -77.02538016666666, "lat": 38.94095933333333, "is_reserved": 0, "is_disabled": 0, "rental_uris": {"android": "https://dc.lft.to/lastmile_qr_scan", "ios": "https://dc.lft.to/lastmile_qr_scan"}, "name": "b53416a597301d8af8998b3c3d6d9cc8", "type": "electric_bike"}, {"fusion_lat": 0.0, "bike_id": "92831817b484fdb6f210163121806b50", "fusion_lon": 0.0, "lon": -77.01765033333334, "lat": 38.887268166666665, "is_reserved": 0, "is_disabled": 0, "rental_uris": {"android": "https://dc.lft.to/lastmile_qr_scan", "ios": "https://dc.lft.to/lastmile_qr_scan"}, "name": "92831817b484fdb6f210163121806b50", "type": "electric_scooter"}, {"fusion_lat": 0.0, "bike_id": "3378df54cb1399f5a56483a242bba76b", "fusion_lon": 0.0, "lon": -76.97869416666667, "lat": 38.882994, "is_reserved": 0, "is_disabled": 0, "rental_uris": {"android": "https://dc.lft.to/lastmile_qr_scan", "ios": "https://dc.lft.to/lastmile_qr_scan"}, "name": "3378df54cb1399f5a56483a242bba76b", "type": "electric_scooter"}, {"fusion_lat": 0.0, "bike_id": "9559f8e1ea6d7a51dd07d186942b94d1", "fusion_lon": 0.0, "lon": -77.04269366666666, "lat": 38.9229605, "is_reserved": 0, "is_disabled": 0, "rental_uris": {"android": "https://dc.lft.to/lastmile_qr_scan", "ios": "https://dc.lft.to/lastmile_qr_scan"}, "name": "9559f8e1ea6d7a51dd07d186942b94d1", "type": "electric_scooter"}, {"fusion_lat": 0.0, "bike_id": "192a25e592e52a2c1d31dd82f4e85683", "fusion_lon": 0.0, "lon": -77.01632633333334, "lat": 38.929423166666666, "is_reserved": 0, "is_disabled": 0, "rental_uris": {"android": "https://dc.lft.to/lastmile_qr_scan", "ios": "https://dc.lft.to/lastmile_qr_scan"}, "name": "192a25e592e52a2c1d31dd82f4e85683", "type": "electric_scooter"}, {"fusion_lat": 0.0, "bike_id": "1a5b70335b10b504cc30e6fe8c737abe", "fusion_lon": 0.0, "lon": -76.97830133333333, "lat": 38.8436795, "is_reserved": 0, "is_disabled": 0, "rental_uris": {"android": "https://dc.lft.to/lastmile_qr_scan", "ios": "https://dc.lft.to/lastmile_qr_scan"}, "name": "1a5b70335b10b504cc30e6fe8c737abe", "type": "electric_bike"}, {"fusion_lat": 0.0, "bike_id": "325d8ceaa6f7af77a5dfa91ab644abf4", "fusion_lon": 0.0, "lon": -77.0833555, "lat": 38.85439266666667, "is_reserved": 0, "is_disabled": 0, "rental_uris": {"android": "https://dc.lft.to/lastmile_qr_scan", "ios": "https://dc.lft.to/lastmile_qr_scan"}, "name": "325d8ceaa6f7af77a5dfa91ab644abf4", "type": "electric_bike"}, {"fusion_lat": 0.0, "bike_id": "4af24d5ed9a023727ea45f90c91be6a5", "fusion_lon": 0.0, "lon": -77.0384855, "lat": 38.90385633333333, "is_reserved": 0, "is_disabled": 0, "rental_uris": {"android": "https://dc.lft.to/lastmile_qr_scan", "ios": "https://dc.lft.to/lastmile_qr_scan"}, "name": "4af24d5ed9a023727ea45f90c91be6a5", "type": "electric_scooter"}, {"fusion_lat": 0.0, "bike_id": "aeb19ffce9a92a73476f8a15fb40d2fc", "fusion_lon": 0.0, "lon": -77.02021183333333, "lat": 38.9140275, "is_reserved": 0, "is_disabled": 0, "rental_uris": {"android": "https://dc.lft.to/lastmile_qr_scan", "ios": "https://dc.lft.to/lastmile_qr_scan"}, "name": "aeb19ffce9a92a73476f8a15fb40d2fc", "type": "electric_scooter"}, {"fusion_lat": 0.0, "bike_id": "86359fe51c163fa9d1f13307d5ba4392", "fusion_lon": 0.0, "lon": -77.032917, "lat": 38.90979983333333, "is_reserved": 0, "is_disabled": 0, "rental_uris": {"android": "https://dc.lft.to/lastmile_qr_scan", "ios": "https://dc.lft.to/lastmile_qr_scan"}, "name": "86359fe51c163fa9d1f13307d5ba4392", "type": "electric_scooter"}, {"fusion_lat": 0.0, "bike_id": "838d6d81d51f9a3f26eab8c460b365f3", "fusion_lon": 0.0, "lon": -77.0435585, "lat": 38.9014635, "is_reserved": 0, "is_disabled": 0, "rental_uris": {"android": "https://dc.lft.to/lastmile_qr_scan", "ios": "https://dc.lft.to/lastmile_qr_scan"}, "name": "838d6d81d51f9a3f26eab8c460b365f3", "type": "electric_scooter"}, {"fusion_lat": 0.0, "bike_id": "b40d38f37aad94e1f39522d4fe4b02ea", "fusion_lon": 0.0, "lon": -77.03474233333333, "lat": 38.9264325, "is_reserved": 0, "is_disabled": 0, "rental_uris": {"android": "https://dc.lft.to/lastmile_qr_scan", "ios": "https://dc.lft.to/lastmile_qr_scan"}, "name": "b40d38f37aad94e1f39522d4fe4b02ea", "type": "electric_scooter"}, {"fusion_lat": 0.0, "bike_id": "4bce09f97d352db6640c6662e14395f7", "fusion_lon": 0.0, "lon": -77.03185766666667, "lat": 38.90870016666667, "is_reserved": 0, "is_disabled": 0, "rental_uris": {"android": "https://dc.lft.to/lastmile_qr_scan", "ios": "https://dc.lft.to/lastmile_qr_scan"}, "name": "4bce09f97d352db6640c6662e14395f7", "type": "electric_scooter"}, {"fusion_lat": 0.0, "bike_id": "4e4dbbdf60e3e1312e79ed481d8ec2c9", "fusion_lon": 0.0, "lon": -76.98766616666667, "lat": 38.85765583333333, "is_reserved": 0, "is_disabled": 0, "rental_uris": {"android": "https://dc.lft.to/lastmile_qr_scan", "ios": "https://dc.lft.to/lastmile_qr_scan"}, "name": "4e4dbbdf60e3e1312e79ed481d8ec2c9", "type": "electric_bike"}, {"fusion_lat": 0.0, "bike_id": "17cb5e469ec8267500ede9ebe4322d6a", "fusion_lon": 0.0, "lon": -77.04704133333334, "lat": 38.9024335, "is_reserved": 0, "is_disabled": 0, "rental_uris": {"android": "https://dc.lft.to/lastmile_qr_scan", "ios": "https://dc.lft.to/lastmile_qr_scan"}, "name": "17cb5e469ec8267500ede9ebe4322d6a", "type": "electric_scooter"}, {"fusion_lat": 0.0, "bike_id": "c53f510dd5596b3e1bf03e135c91a061", "fusion_lon": 0.0, "lon": -77.0359025, "lat": 38.992211166666664, "is_reserved": 0, "is_disabled": 0, "rental_uris": {"android": "https://dc.lft.to/lastmile_qr_scan", "ios": "https://dc.lft.to/lastmile_qr_scan"}, "name": "c53f510dd5596b3e1bf03e135c91a061", "type": "electric_scooter"}, {"fusion_lat": 0.0, "bike_id": "7958a91cbef7ec028a722fd2e4aa0321", "fusion_lon": 0.0, "lon": -77.0205875, "lat": 38.92141866666667, "is_reserved": 0, "is_disabled": 0, "rental_uris": {"android": "https://dc.lft.to/lastmile_qr_scan", "ios": "https://dc.lft.to/lastmile_qr_scan"}, "name": "7958a91cbef7ec028a722fd2e4aa0321", "type": "electric_scooter"}, {"fusion_lat": 0.0, "bike_id": "46c15ee9f7b679d4f6e8d1a81cf8e1e9", "fusion_lon": 0.0, "lon": -77.02135466666667, "lat": 38.915493833333336, "is_reserved": 0, "is_disabled": 0, "rental_uris": {"android": "https://dc.lft.to/lastmile_qr_scan", "ios": "https://dc.lft.to/lastmile_qr_scan"}, "name": "46c15ee9f7b679d4f6e8d1a81cf8e1e9", "type": "electric_scooter"}, {"fusion_lat": 0.0, "bike_id": "79347bf050e2f221b427d955ae0c64ea", "fusion_lon": 0.0, "lon": -76.98784783333333, "lat": 38.86740433333333, "is_reserved": 0, "is_disabled": 0, "rental_uris": {"android": "https://dc.lft.to/lastmile_qr_scan", "ios": "https://dc.lft.to/lastmile_qr_scan"}, "name": "79347bf050e2f221b427d955ae0c64ea", "type": "electric_scooter"}, {"fusion_lat": 0.0, "bike_id": "9c1b18e4ce3720e39d7907a04d39dd8a", "fusion_lon": 0.0, "lon": -77.06618166666667, "lat": 38.91215033333334, "is_reserved": 0, "is_disabled": 0, "rental_uris": {"android": "https://dc.lft.to/lastmile_qr_scan", "ios": "https://dc.lft.to/lastmile_qr_scan"}, "name": "9c1b18e4ce3720e39d7907a04d39dd8a", "type": "electric_scooter"}, {"fusion_lat": 0.0, "bike_id": "137997b8937e42632bd02085a2c48963", "fusion_lon": 0.0, "lon": -76.95196166666666, "lat": 38.900060333333336, "is_reserved": 0, "is_disabled": 0, "rental_uris": {"android": "https://dc.lft.to/lastmile_qr_scan", "ios": "https://dc.lft.to/lastmile_qr_scan"}, "name": "137997b8937e42632bd02085a2c48963", "type": "electric_scooter"}, {"fusion_lat": 0.0, "bike_id": "56313630bf4c71b633973c93669b81e1", "fusion_lon": 0.0, "lon": -77.028987, "lat": 38.916783333333335, "is_reserved": 0, "is_disabled": 0, "rental_uris": {"android": "https://dc.lft.to/lastmile_qr_scan", "ios": "https://dc.lft.to/lastmile_qr_scan"}, "name": "56313630bf4c71b633973c93669b81e1", "type": "electric_scooter"}, {"fusion_lat": 0.0, "bike_id": "995a8a56a8e9764a52c0e53a9b089464", "fusion_lon": 0.0, "lon": -77.03399216666666, "lat": 38.93071666666667, "is_reserved": 0, "is_disabled": 0, "rental_uris": {"android": "https://dc.lft.to/lastmile_qr_scan", "ios": "https://dc.lft.to/lastmile_qr_scan"}, "name": "995a8a56a8e9764a52c0e53a9b089464", "type": "electric_scooter"}, {"fusion_lat": 0.0, "bike_id": "bfdec6285b1564b197731fbc446a03c4", "fusion_lon": 0.0, "lon": -77.0523625, "lat": 38.92542433333333, "is_reserved": 0, "is_disabled": 0, "rental_uris": {"android": "https://dc.lft.to/lastmile_qr_scan", "ios": "https://dc.lft.to/lastmile_qr_scan"}, "name": "bfdec6285b1564b197731fbc446a03c4", "type": "electric_scooter"}, {"fusion_lat": 0.0, "bike_id": "598761d618100e596474df1adad53b46", "fusion_lon": 0.0, "lon": -77.04183733333333, "lat": 38.892517833333336, "is_reserved": 0, "is_disabled": 0, "rental_uris": {"android": "https://dc.lft.to/lastmile_qr_scan", "ios": "https://dc.lft.to/lastmile_qr_scan"}, "name": "598761d618100e596474df1adad53b46", "type": "electric_scooter"}, {"fusion_lat": 0.0, "bike_id": "dbf535e62f01fa13c6017493c204ec2e", "fusion_lon": 0.0, "lon": -77.04676283333333, "lat": 38.9007715, "is_reserved": 0, "is_disabled": 0, "rental_uris": {"android": "https://dc.lft.to/lastmile_qr_scan", "ios": "https://dc.lft.to/lastmile_qr_scan"}, "name": "dbf535e62f01fa13c6017493c204ec2e", "type": "electric_scooter"}, {"fusion_lat": 0.0, "bike_id": "3f424cb2cfb14adba0454d3ca5b517fe", "fusion_lon": 0.0, "lon": -77.03103566666667, "lat": 38.915622666666664, "is_reserved": 0, "is_disabled": 0, "rental_uris": {"android": "https://dc.lft.to/lastmile_qr_scan", "ios": "https://dc.lft.to/lastmile_qr_scan"}, "name": "3f424cb2cfb14adba0454d3ca5b517fe", "type": "electric_scooter"}, {"fusion_lat": 0.0, "bike_id": "0b92ccf4c534f688c00a7b6eaa844c31", "fusion_lon": 0.0, "lon": -77.02275966666667, "lat": 38.9247425, "is_reserved": 0, "is_disabled": 0, "rental_uris": {"android": "https://dc.lft.to/lastmile_qr_scan", "ios": "https://dc.lft.to/lastmile_qr_scan"}, "name": "0b92ccf4c534f688c00a7b6eaa844c31", "type": "electric_scooter"}, {"fusion_lat": 0.0, "bike_id": "160b147b0f5073da1569c73c29c6f8df", "fusion_lon": 0.0, "lon": -77.03938833333333, "lat": 38.898945, "is_reserved": 0, "is_disabled": 0, "rental_uris": {"android": "https://dc.lft.to/lastmile_qr_scan", "ios": "https://dc.lft.to/lastmile_qr_scan"}, "name": "160b147b0f5073da1569c73c29c6f8df", "type": "electric_scooter"}, {"fusion_lat": 0.0, "bike_id": "a6a3df971ec3c74b72b71110ecc0fb30", "fusion_lon": 0.0, "lon": -77.00981866666666, "lat": 38.8729075, "is_reserved": 0, "is_disabled": 0, "rental_uris": {"android": "https://dc.lft.to/lastmile_qr_scan", "ios": "https://dc.lft.to/lastmile_qr_scan"}, "name": "a6a3df971ec3c74b72b71110ecc0fb30", "type": "electric_scooter"}, {"fusion_lat": 0.0, "bike_id": "8a0a306a3d3c18e04289aab8f0a896cf", "fusion_lon": 0.0, "lon": -77.02447333333333, "lat": 38.937229333333335, "is_reserved": 0, "is_disabled": 0, "rental_uris": {"android": "https://dc.lft.to/lastmile_qr_scan", "ios": "https://dc.lft.to/lastmile_qr_scan"}, "name": "8a0a306a3d3c18e04289aab8f0a896cf", "type": "electric_scooter"}, {"fusion_lat": 0.0, "bike_id": "4e7faf0416ec8ba15d0d19dcabea3632", "fusion_lon": 0.0, "lon": -77.0053835, "lat": 38.88054733333333, "is_reserved": 0, "is_disabled": 0, "rental_uris": {"android": "https://dc.lft.to/lastmile_qr_scan", "ios": "https://dc.lft.to/lastmile_qr_scan"}, "name": "4e7faf0416ec8ba15d0d19dcabea3632", "type": "electric_scooter"}, {"fusion_lat": 0.0, "bike_id": "ac67efcc67690441d1dc8caa41dfec22", "fusion_lon": 0.0, "lon": -77.029276, "lat": 38.93458416666667, "is_reserved": 0, "is_disabled": 0, "rental_uris": {"android": "https://dc.lft.to/lastmile_qr_scan", "ios": "https://dc.lft.to/lastmile_qr_scan"}, "name": "ac67efcc67690441d1dc8caa41dfec22", "type": "electric_scooter"}, {"fusion_lat": 0.0, "bike_id": "6917ed49651c1c8f5cd9ef2284a41bd8", "fusion_lon": 0.0, "lon": -77.03210466666667, "lat": 38.9189075, "is_reserved": 0, "is_disabled": 0, "rental_uris": {"android": "https://dc.lft.to/lastmile_qr_scan", "ios": "https://dc.lft.to/lastmile_qr_scan"}, "name": "6917ed49651c1c8f5cd9ef2284a41bd8", "type": "electric_scooter"}, {"fusion_lat": 0.0, "bike_id": "2d40d1326f35f3f362da38d67810cdad", "fusion_lon": 0.0, "lon": -77.0283345, "lat": 38.9326965, "is_reserved": 0, "is_disabled": 0, "rental_uris": {"android": "https://dc.lft.to/lastmile_qr_scan", "ios": "https://dc.lft.to/lastmile_qr_scan"}, "name": "2d40d1326f35f3f362da38d67810cdad", "type": "electric_scooter"}, {"fusion_lat": 0.0, "bike_id": "14e100c1ae555d174c7ed61637126b62", "fusion_lon": 0.0, "lon": -77.0052765, "lat": 38.90979033333333, "is_reserved": 0, "is_disabled": 0, "rental_uris": {"android": "https://dc.lft.to/lastmile_qr_scan", "ios": "https://dc.lft.to/lastmile_qr_scan"}, "name": "14e100c1ae555d174c7ed61637126b62", "type": "electric_scooter"}, {"fusion_lat": 0.0, "bike_id": "45726bcf66a9f58ff2842a2db1e15db1", "fusion_lon": 0.0, "lon": -77.02625716666667, "lat": 38.933337333333334, "is_reserved": 0, "is_disabled": 0, "rental_uris": {"android": "https://dc.lft.to/lastmile_qr_scan", "ios": "https://dc.lft.to/lastmile_qr_scan"}, "name": "45726bcf66a9f58ff2842a2db1e15db1", "type": "electric_scooter"}, {"fusion_lat": 0.0, "bike_id": "2bb3f2e03724a389be2b719b108c96ee", "fusion_lon": 0.0, "lon": -77.03656583333333, "lat": 38.93134233333333, "is_reserved": 0, "is_disabled": 0, "rental_uris": {"android": "https://dc.lft.to/lastmile_qr_scan", "ios": "https://dc.lft.to/lastmile_qr_scan"}, "name": "2bb3f2e03724a389be2b719b108c96ee", "type": "electric_scooter"}, {"fusion_lat": 0.0, "bike_id": "ff92b23fb79823bcc366e572c203b3fb", "fusion_lon": 0.0, "lon": -77.00975316666667, "lat": 38.916982, "is_reserved": 0, "is_disabled": 0, "rental_uris": {"android": "https://dc.lft.to/lastmile_qr_scan", "ios": "https://dc.lft.to/lastmile_qr_scan"}, "name": "ff92b23fb79823bcc366e572c203b3fb", "type": "electric_scooter"}, {"fusion_lat": 0.0, "bike_id": "8f07169474c298bc81919b8774c5441c", "fusion_lon": 0.0, "lon": -76.99272933333333, "lat": 38.896044833333335, "is_reserved": 0, "is_disabled": 0, "rental_uris": {"android": "https://dc.lft.to/lastmile_qr_scan", "ios": "https://dc.lft.to/lastmile_qr_scan"}, "name": "8f07169474c298bc81919b8774c5441c", "type": "electric_scooter"}, {"fusion_lat": 0.0, "bike_id": "ee2fb63f56059a88f789ec6b268abc4a", "fusion_lon": 0.0, "lon": -76.9852885, "lat": 38.86677983333333, "is_reserved": 0, "is_disabled": 0, "rental_uris": {"android": "https://dc.lft.to/lastmile_qr_scan", "ios": "https://dc.lft.to/lastmile_qr_scan"}, "name": "ee2fb63f56059a88f789ec6b268abc4a", "type": "electric_scooter"}, {"fusion_lat": 0.0, "bike_id": "8b429e0b9d6b050f20ccf3be71a6565e", "fusion_lon": 0.0, "lon": -76.90743983333333, "lat": 38.896133, "is_reserved": 0, "is_disabled": 0, "rental_uris": {"android": "https://dc.lft.to/lastmile_qr_scan", "ios": "https://dc.lft.to/lastmile_qr_scan"}, "name": "8b429e0b9d6b050f20ccf3be71a6565e", "type": "electric_bike"}, {"fusion_lat": 0.0, "bike_id": "873189428dd472b037dd6e0c58e904d8", "fusion_lon": 0.0, "lon": -77.02205516666666, "lat": 38.92471533333333, "is_reserved": 0, "is_disabled": 0, "rental_uris": {"android": "https://dc.lft.to/lastmile_qr_scan", "ios": "https://dc.lft.to/lastmile_qr_scan"}, "name": "873189428dd472b037dd6e0c58e904d8", "type": "electric_scooter"}, {"fusion_lat": 0.0, "bike_id": "71c7b6fffceba244da7afe1e69c99651", "fusion_lon": 0.0, "lon": -77.04681133333334, "lat": 38.895568, "is_reserved": 0, "is_disabled": 0, "rental_uris": {"android": "https://dc.lft.to/lastmile_qr_scan", "ios": "https://dc.lft.to/lastmile_qr_scan"}, "name": "71c7b6fffceba244da7afe1e69c99651", "type": "electric_scooter"}, {"fusion_lat": 0.0, "bike_id": "36838b60f35e2d2d944318c7b58d3c40", "fusion_lon": 0.0, "lon": -77.01769666666667, "lat": 38.87478383333333, "is_reserved": 0, "is_disabled": 0, "rental_uris": {"android": "https://dc.lft.to/lastmile_qr_scan", "ios": "https://dc.lft.to/lastmile_qr_scan"}, "name": "36838b60f35e2d2d944318c7b58d3c40", "type": "electric_scooter"}, {"fusion_lat": 0.0, "bike_id": "9981201100a2ce8a015c0653fc4f4880", "fusion_lon": 0.0, "lon": -77.05472216666666, "lat": 38.89781583333333, "is_reserved": 0, "is_disabled": 0, "rental_uris": {"android": "https://dc.lft.to/lastmile_qr_scan", "ios": "https://dc.lft.to/lastmile_qr_scan"}, "name": "9981201100a2ce8a015c0653fc4f4880", "type": "electric_scooter"}, {"fusion_lat": 0.0, "bike_id": "65ab942187732f5e937981c2f3fb318d", "fusion_lon": 0.0, "lon": -77.03618233333333, "lat": 38.91723266666666, "is_reserved": 0, "is_disabled": 0, "rental_uris": {"android": "https://dc.lft.to/lastmile_qr_scan", "ios": "https://dc.lft.to/lastmile_qr_scan"}, "name": "65ab942187732f5e937981c2f3fb318d", "type": "electric_scooter"}, {"fusion_lat": 0.0, "bike_id": "77ca29964a38b2e9ebe00b71586c5ba9", "fusion_lon": 0.0, "lon": -77.0586335, "lat": 38.936013833333334, "is_reserved": 0, "is_disabled": 0, "rental_uris": {"android": "https://dc.lft.to/lastmile_qr_scan", "ios": "https://dc.lft.to/lastmile_qr_scan"}, "name": "77ca29964a38b2e9ebe00b71586c5ba9", "type": "electric_scooter"}, {"fusion_lat": 0.0, "bike_id": "eefcc118d4eb11e0cb655e73bc1c8bb7", "fusion_lon": 0.0, "lon": -76.98346133333334, "lat": 38.93495466666667, "is_reserved": 0, "is_disabled": 0, "rental_uris": {"android": "https://dc.lft.to/lastmile_qr_scan", "ios": "https://dc.lft.to/lastmile_qr_scan"}, "name": "eefcc118d4eb11e0cb655e73bc1c8bb7", "type": "electric_bike"}, {"fusion_lat": 0.0, "bike_id": "6e0ffd04b35b365df1edd34866049cc7", "fusion_lon": 0.0, "lon": -77.022028, "lat": 38.92020933333333, "is_reserved": 0, "is_disabled": 0, "rental_uris": {"android": "https://dc.lft.to/lastmile_qr_scan", "ios": "https://dc.lft.to/lastmile_qr_scan"}, "name": "6e0ffd04b35b365df1edd34866049cc7", "type": "electric_scooter"}, {"fusion_lat": 0.0, "bike_id": "f80379eec7d311a89ee3188f75e1a535", "fusion_lon": 0.0, "lon": -77.02375383333333, "lat": 38.91678066666667, "is_reserved": 0, "is_disabled": 0, "rental_uris": {"android": "https://dc.lft.to/lastmile_qr_scan", "ios": "https://dc.lft.to/lastmile_qr_scan"}, "name": "f80379eec7d311a89ee3188f75e1a535", "type": "electric_scooter"}, {"fusion_lat": 0.0, "bike_id": "53ba42180a425f33cb660dea78143b8a", "fusion_lon": 0.0, "lon": -77.0050925, "lat": 38.91262416666667, "is_reserved": 0, "is_disabled": 0, "rental_uris": {"android": "https://dc.lft.to/lastmile_qr_scan", "ios": "https://dc.lft.to/lastmile_qr_scan"}, "name": "53ba42180a425f33cb660dea78143b8a", "type": "electric_scooter"}, {"fusion_lat": 0.0, "bike_id": "97ded9d255300cd445e41ea6295f33f4", "fusion_lon": 0.0, "lon": -77.035118, "lat": 38.923364166666666, "is_reserved": 0, "is_disabled": 0, "rental_uris": {"android": "https://dc.lft.to/lastmile_qr_scan", "ios": "https://dc.lft.to/lastmile_qr_scan"}, "name": "97ded9d255300cd445e41ea6295f33f4", "type": "electric_scooter"}, {"fusion_lat": 0.0, "bike_id": "49f52b304fc2b826baa056d4bac6a048", "fusion_lon": 0.0, "lon": -77.02713216666666, "lat": 38.90074583333333, "is_reserved": 0, "is_disabled": 0, "rental_uris": {"android": "https://dc.lft.to/lastmile_qr_scan", "ios": "https://dc.lft.to/lastmile_qr_scan"}, "name": "49f52b304fc2b826baa056d4bac6a048", "type": "electric_scooter"}, {"fusion_lat": 0.0, "bike_id": "af71735120df4946d2c639f5aaca89c4", "fusion_lon": 0.0, "lon": -77.04245683333333, "lat": 38.912460333333335, "is_reserved": 0, "is_disabled": 0, "rental_uris": {"android": "https://dc.lft.to/lastmile_qr_scan", "ios": "https://dc.lft.to/lastmile_qr_scan"}, "name": "af71735120df4946d2c639f5aaca89c4", "type": "electric_scooter"}, {"fusion_lat": 0.0, "bike_id": "ce7e2d51bd5897be82ee69e4bfdbd171", "fusion_lon": 0.0, "lon": -77.034108, "lat": 38.923143, "is_reserved": 0, "is_disabled": 0, "rental_uris": {"android": "https://dc.lft.to/lastmile_qr_scan", "ios": "https://dc.lft.to/lastmile_qr_scan"}, "name": "ce7e2d51bd5897be82ee69e4bfdbd171", "type": "electric_scooter"}, {"fusion_lat": 0.0, "bike_id": "27282f4927fede3098d706c849459cd6", "fusion_lon": 0.0, "lon": -77.03793433333334, "lat": 38.930461666666666, "is_reserved": 0, "is_disabled": 0, "rental_uris": {"android": "https://dc.lft.to/lastmile_qr_scan", "ios": "https://dc.lft.to/lastmile_qr_scan"}, "name": "27282f4927fede3098d706c849459cd6", "type": "electric_scooter"}, {"fusion_lat": 0.0, "bike_id": "583f4b49c5e737fb0db55eabefe7075d", "fusion_lon": 0.0, "lon": -77.02280216666666, "lat": 38.925181, "is_reserved": 0, "is_disabled": 0, "rental_uris": {"android": "https://dc.lft.to/lastmile_qr_scan", "ios": "https://dc.lft.to/lastmile_qr_scan"}, "name": "583f4b49c5e737fb0db55eabefe7075d", "type": "electric_scooter"}, {"fusion_lat": 0.0, "bike_id": "3c6737a78fc0fe6f12f95ad922be04d5", "fusion_lon": 0.0, "lon": -77.02674633333334, "lat": 38.92476666666666, "is_reserved": 0, "is_disabled": 0, "rental_uris": {"android": "https://dc.lft.to/lastmile_qr_scan", "ios": "https://dc.lft.to/lastmile_qr_scan"}, "name": "3c6737a78fc0fe6f12f95ad922be04d5", "type": "electric_scooter"}, {"fusion_lat": 0.0, "bike_id": "33b2d005174f98e2a7a2b0523a2af23f", "fusion_lon": 0.0, "lon": -77.03061666666666, "lat": 38.88043966666667, "is_reserved": 0, "is_disabled": 0, "rental_uris": {"android": "https://dc.lft.to/lastmile_qr_scan", "ios": "https://dc.lft.to/lastmile_qr_scan"}, "name": "33b2d005174f98e2a7a2b0523a2af23f", "type": "electric_scooter"}, {"fusion_lat": 0.0, "bike_id": "f2541815452b433de80a9feac53dd795", "fusion_lon": 0.0, "lon": -77.03205716666666, "lat": 38.911229, "is_reserved": 0, "is_disabled": 0, "rental_uris": {"android": "https://dc.lft.to/lastmile_qr_scan", "ios": "https://dc.lft.to/lastmile_qr_scan"}, "name": "f2541815452b433de80a9feac53dd795", "type": "electric_scooter"}, {"fusion_lat": 0.0, "bike_id": "698961b19e0aa1506d31d394a9a50e19", "fusion_lon": 0.0, "lon": -77.03162583333334, "lat": 38.923728, "is_reserved": 0, "is_disabled": 0, "rental_uris": {"android": "https://dc.lft.to/lastmile_qr_scan", "ios": "https://dc.lft.to/lastmile_qr_scan"}, "name": "698961b19e0aa1506d31d394a9a50e19", "type": "electric_scooter"}, {"fusion_lat": 0.0, "bike_id": "3ef68eff8044103e451682bbd88d7a1c", "fusion_lon": 0.0, "lon": -77.0277085, "lat": 38.89216033333334, "is_reserved": 0, "is_disabled": 0, "rental_uris": {"android": "https://dc.lft.to/lastmile_qr_scan", "ios": "https://dc.lft.to/lastmile_qr_scan"}, "name": "3ef68eff8044103e451682bbd88d7a1c", "type": "electric_scooter"}, {"fusion_lat": 0.0, "bike_id": "0aa0b61bfbbf85630b9df614f66eeed2", "fusion_lon": 0.0, "lon": -77.04611216666666, "lat": 38.91565833333333, "is_reserved": 0, "is_disabled": 0, "rental_uris": {"android": "https://dc.lft.to/lastmile_qr_scan", "ios": "https://dc.lft.to/lastmile_qr_scan"}, "name": "0aa0b61bfbbf85630b9df614f66eeed2", "type": "electric_scooter"}, {"fusion_lat": 0.0, "bike_id": "7b546daef279c7de76815a6d80cc3923", "fusion_lon": 0.0, "lon": -76.9905555, "lat": 38.863735, "is_reserved": 0, "is_disabled": 0, "rental_uris": {"android": "https://dc.lft.to/lastmile_qr_scan", "ios": "https://dc.lft.to/lastmile_qr_scan"}, "name": "7b546daef279c7de76815a6d80cc3923", "type": "electric_scooter"}, {"fusion_lat": 0.0, "bike_id": "3a8efc0f746fc5a448101d217b4c52e6", "fusion_lon": 0.0, "lon": -77.04562166666666, "lat": 38.91313533333334, "is_reserved": 0, "is_disabled": 0, "rental_uris": {"android": "https://dc.lft.to/lastmile_qr_scan", "ios": "https://dc.lft.to/lastmile_qr_scan"}, "name": "3a8efc0f746fc5a448101d217b4c52e6", "type": "electric_scooter"}, {"fusion_lat": 0.0, "bike_id": "fcdbd12d0d500fd5a1108c82dee2ad0a", "fusion_lon": 0.0, "lon": -77.02280216666666, "lat": 38.909059166666665, "is_reserved": 0, "is_disabled": 0, "rental_uris": {"android": "https://dc.lft.to/lastmile_qr_scan", "ios": "https://dc.lft.to/lastmile_qr_scan"}, "name": "fcdbd12d0d500fd5a1108c82dee2ad0a", "type": "electric_scooter"}, {"fusion_lat": 0.0, "bike_id": "8316d275d285b43691c2ceed7a49854f", "fusion_lon": 0.0, "lon": -77.03076566666667, "lat": 38.900803833333335, "is_reserved": 0, "is_disabled": 0, "rental_uris": {"android": "https://dc.lft.to/lastmile_qr_scan", "ios": "https://dc.lft.to/lastmile_qr_scan"}, "name": "8316d275d285b43691c2ceed7a49854f", "type": "electric_scooter"}, {"fusion_lat": 0.0, "bike_id": "a4105572417fc24fad2a747ef3d34ffe", "fusion_lon": 0.0, "lon": -77.032424, "lat": 38.92897583333333, "is_reserved": 0, "is_disabled": 0, "rental_uris": {"android": "https://dc.lft.to/lastmile_qr_scan", "ios": "https://dc.lft.to/lastmile_qr_scan"}, "name": "a4105572417fc24fad2a747ef3d34ffe", "type": "electric_scooter"}, {"fusion_lat": 0.0, "bike_id": "4b70e7958a4445c65520526f5983b850", "fusion_lon": 0.0, "lon": -77.03801633333333, "lat": 38.93018933333333, "is_reserved": 0, "is_disabled": 0, "rental_uris": {"android": "https://dc.lft.to/lastmile_qr_scan", "ios": "https://dc.lft.to/lastmile_qr_scan"}, "name": "4b70e7958a4445c65520526f5983b850", "type": "electric_scooter"}, {"fusion_lat": 0.0, "bike_id": "3512d0aab3ecd6e23b0bd41468ffa7f7", "fusion_lon": 0.0, "lon": -77.03261766666667, "lat": 38.92159266666667, "is_reserved": 0, "is_disabled": 0, "rental_uris": {"android": "https://dc.lft.to/lastmile_qr_scan", "ios": "https://dc.lft.to/lastmile_qr_scan"}, "name": "3512d0aab3ecd6e23b0bd41468ffa7f7", "type": "electric_scooter"}, {"fusion_lat": 0.0, "bike_id": "8a97c3f0198dcdd474230df5757e4d8d", "fusion_lon": 0.0, "lon": -76.94879283333333, "lat": 38.89427516666667, "is_reserved": 0, "is_disabled": 0, "rental_uris": {"android": "https://dc.lft.to/lastmile_qr_scan", "ios": "https://dc.lft.to/lastmile_qr_scan"}, "name": "8a97c3f0198dcdd474230df5757e4d8d", "type": "electric_scooter"}, {"fusion_lat": 0.0, "bike_id": "59c026c239c48fd660009d328a7db4d3", "fusion_lon": 0.0, "lon": -77.00064833333333, "lat": 38.9007875, "is_reserved": 0, "is_disabled": 0, "rental_uris": {"android": "https://dc.lft.to/lastmile_qr_scan", "ios": "https://dc.lft.to/lastmile_qr_scan"}, "name": "59c026c239c48fd660009d328a7db4d3", "type": "electric_scooter"}, {"fusion_lat": 0.0, "bike_id": "957234ea7411578dc2c7e0a6886c142e", "fusion_lon": 0.0, "lon": -77.022991, "lat": 38.9268135, "is_reserved": 0, "is_disabled": 0, "rental_uris": {"android": "https://dc.lft.to/lastmile_qr_scan", "ios": "https://dc.lft.to/lastmile_qr_scan"}, "name": "957234ea7411578dc2c7e0a6886c142e", "type": "electric_scooter"}, {"fusion_lat": 0.0, "bike_id": "4e3021b9e3508a0755ef395f3eb54c73", "fusion_lon": 0.0, "lon": -77.023004, "lat": 38.92686483333333, "is_reserved": 0, "is_disabled": 0, "rental_uris": {"android": "https://dc.lft.to/lastmile_qr_scan", "ios": "https://dc.lft.to/lastmile_qr_scan"}, "name": "4e3021b9e3508a0755ef395f3eb54c73", "type": "electric_scooter"}, {"fusion_lat": 0.0, "bike_id": "b748ceb7df28384c882779dd54909a69", "fusion_lon": 0.0, "lon": -77.00566333333333, "lat": 38.88314, "is_reserved": 0, "is_disabled": 0, "rental_uris": {"android": "https://dc.lft.to/lastmile_qr_scan", "ios": "https://dc.lft.to/lastmile_qr_scan"}, "name": "b748ceb7df28384c882779dd54909a69", "type": "electric_scooter"}, {"fusion_lat": 0.0, "bike_id": "8a43d73f8925edc5bad5fd4b0144f4b8", "fusion_lon": 0.0, "lon": -77.0379875, "lat": 38.91542583333333, "is_reserved": 0, "is_disabled": 0, "rental_uris": {"android": "https://dc.lft.to/lastmile_qr_scan", "ios": "https://dc.lft.to/lastmile_qr_scan"}, "name": "8a43d73f8925edc5bad5fd4b0144f4b8", "type": "electric_scooter"}, {"fusion_lat": 0.0, "bike_id": "ade0b8819335b2d8c33ea91248f52b55", "fusion_lon": 0.0, "lon": -77.04648766666666, "lat": 38.914193833333336, "is_reserved": 0, "is_disabled": 0, "rental_uris": {"android": "https://dc.lft.to/lastmile_qr_scan", "ios": "https://dc.lft.to/lastmile_qr_scan"}, "name": "ade0b8819335b2d8c33ea91248f52b55", "type": "electric_scooter"}, {"fusion_lat": 0.0, "bike_id": "516b528dbe2125f4fd87e11b85882845", "fusion_lon": 0.0, "lon": -77.01985516666667, "lat": 38.92542683333333, "is_reserved": 0, "is_disabled": 0, "rental_uris": {"android": "https://dc.lft.to/lastmile_qr_scan", "ios": "https://dc.lft.to/lastmile_qr_scan"}, "name": "516b528dbe2125f4fd87e11b85882845", "type": "electric_bike"}, {"fusion_lat": 0.0, "bike_id": "c40eb85c3df8ce9903ab8b2ebd3301de", "fusion_lon": 0.0, "lon": -76.96910716666666, "lat": 38.84607116666667, "is_reserved": 0, "is_disabled": 0, "rental_uris": {"android": "https://dc.lft.to/lastmile_qr_scan", "ios": "https://dc.lft.to/lastmile_qr_scan"}, "name": "c40eb85c3df8ce9903ab8b2ebd3301de", "type": "electric_bike"}, {"fusion_lat": 0.0, "bike_id": "661c9fe8bfc5cdd5c7028a5e5af4b369", "fusion_lon": 0.0, "lon": -77.03220516666667, "lat": 38.892239333333336, "is_reserved": 0, "is_disabled": 0, "rental_uris": {"android": "https://dc.lft.to/lastmile_qr_scan", "ios": "https://dc.lft.to/lastmile_qr_scan"}, "name": "661c9fe8bfc5cdd5c7028a5e5af4b369", "type": "electric_scooter"}, {"fusion_lat": 0.0, "bike_id": "5fa6fc68da2214938ec70c39f80ca713", "fusion_lon": 0.0, "lon": -77.01733783333333, "lat": 38.88741783333333, "is_reserved": 0, "is_disabled": 0, "rental_uris": {"android": "https://dc.lft.to/lastmile_qr_scan", "ios": "https://dc.lft.to/lastmile_qr_scan"}, "name": "5fa6fc68da2214938ec70c39f80ca713", "type": "electric_scooter"}, {"fusion_lat": 0.0, "bike_id": "d49b95cdbf171646e990d8d194984646", "fusion_lon": 0.0, "lon": -77.03958433333334, "lat": 38.90047633333333, "is_reserved": 0, "is_disabled": 0, "rental_uris": {"android": "https://dc.lft.to/lastmile_qr_scan", "ios": "https://dc.lft.to/lastmile_qr_scan"}, "name": "d49b95cdbf171646e990d8d194984646", "type": "electric_scooter"}, {"fusion_lat": 0.0, "bike_id": "2277b3c313ff01071da5406110ad5afe", "fusion_lon": 0.0, "lon": -77.0271675, "lat": 38.92027066666667, "is_reserved": 0, "is_disabled": 0, "rental_uris": {"android": "https://dc.lft.to/lastmile_qr_scan", "ios": "https://dc.lft.to/lastmile_qr_scan"}, "name": "2277b3c313ff01071da5406110ad5afe", "type": "electric_scooter"}, {"fusion_lat": 0.0, "bike_id": "07942ac02465dc5d528076751e071269", "fusion_lon": 0.0, "lon": -77.11592433333334, "lat": 39.0749345, "is_reserved": 0, "is_disabled": 0, "rental_uris": {"android": "https://dc.lft.to/lastmile_qr_scan", "ios": "https://dc.lft.to/lastmile_qr_scan"}, "name": "07942ac02465dc5d528076751e071269", "type": "electric_bike"}, {"fusion_lat": 0.0, "bike_id": "21c745f24cc655647252bac0aa950cdb", "fusion_lon": 0.0, "lon": -77.03115366666667, "lat": 38.91268633333333, "is_reserved": 0, "is_disabled": 0, "rental_uris": {"android": "https://dc.lft.to/lastmile_qr_scan", "ios": "https://dc.lft.to/lastmile_qr_scan"}, "name": "21c745f24cc655647252bac0aa950cdb", "type": "electric_scooter"}, {"fusion_lat": 0.0, "bike_id": "d65002f1e402dc375d1b0b9ee00e3bdd", "fusion_lon": 0.0, "lon": -76.99219316666667, "lat": 38.897376, "is_reserved": 0, "is_disabled": 0, "rental_uris": {"android": "https://dc.lft.to/lastmile_qr_scan", "ios": "https://dc.lft.to/lastmile_qr_scan"}, "name": "d65002f1e402dc375d1b0b9ee00e3bdd", "type": "electric_bike"}, {"fusion_lat": 0.0, "bike_id": "ba6a9cb23ca57f0123ddc064284ae18b", "fusion_lon": 0.0, "lon": -76.99136233333333, "lat": 38.86413366666667, "is_reserved": 0, "is_disabled": 0, "rental_uris": {"android": "https://dc.lft.to/lastmile_qr_scan", "ios": "https://dc.lft.to/lastmile_qr_scan"}, "name": "ba6a9cb23ca57f0123ddc064284ae18b", "type": "electric_scooter"}, {"fusion_lat": 0.0, "bike_id": "09e13180383b5d5f8f9cd77f8d4aa1b4", "fusion_lon": 0.0, "lon": -77.02711483333333, "lat": 38.91817783333333, "is_reserved": 0, "is_disabled": 0, "rental_uris": {"android": "https://dc.lft.to/lastmile_qr_scan", "ios": "https://dc.lft.to/lastmile_qr_scan"}, "name": "09e13180383b5d5f8f9cd77f8d4aa1b4", "type": "electric_scooter"}, {"fusion_lat": 0.0, "bike_id": "b849d8bf68d79204ecd36eb30d27a6ef", "fusion_lon": 0.0, "lon": -77.00945216666666, "lat": 38.89772716666667, "is_reserved": 0, "is_disabled": 0, "rental_uris": {"android": "https://dc.lft.to/lastmile_qr_scan", "ios": "https://dc.lft.to/lastmile_qr_scan"}, "name": "b849d8bf68d79204ecd36eb30d27a6ef", "type": "electric_scooter"}, {"fusion_lat": 0.0, "bike_id": "720a2e4608f884c2e9ccc8aef7cb94f0", "fusion_lon": 0.0, "lon": -77.07265916666667, "lat": 38.93469916666667, "is_reserved": 0, "is_disabled": 0, "rental_uris": {"android": "https://dc.lft.to/lastmile_qr_scan", "ios": "https://dc.lft.to/lastmile_qr_scan"}, "name": "720a2e4608f884c2e9ccc8aef7cb94f0", "type": "electric_scooter"}, {"fusion_lat": 0.0, "bike_id": "d5689e7b234515467bdb027ecfe31b0b", "fusion_lon": 0.0, "lon": -76.978682, "lat": 38.871877833333336, "is_reserved": 0, "is_disabled": 0, "rental_uris": {"android": "https://dc.lft.to/lastmile_qr_scan", "ios": "https://dc.lft.to/lastmile_qr_scan"}, "name": "d5689e7b234515467bdb027ecfe31b0b", "type": "electric_scooter"}, {"fusion_lat": 0.0, "bike_id": "6b6408f82d58cc30eed64a620d71c7b6", "fusion_lon": 0.0, "lon": -77.02933383333334, "lat": 38.8846455, "is_reserved": 0, "is_disabled": 0, "rental_uris": {"android": "https://dc.lft.to/lastmile_qr_scan", "ios": "https://dc.lft.to/lastmile_qr_scan"}, "name": "6b6408f82d58cc30eed64a620d71c7b6", "type": "electric_scooter"}, {"fusion_lat": 0.0, "bike_id": "097727600a3baf5d8c970ea405949084", "fusion_lon": 0.0, "lon": -77.02710833333333, "lat": 38.918158, "is_reserved": 0, "is_disabled": 0, "rental_uris": {"android": "https://dc.lft.to/lastmile_qr_scan", "ios": "https://dc.lft.to/lastmile_qr_scan"}, "name": "097727600a3baf5d8c970ea405949084", "type": "electric_scooter"}, {"fusion_lat": 0.0, "bike_id": "194b0a4b58b81966dd741cf3ded152ff", "fusion_lon": 0.0, "lon": -77.0444275, "lat": 38.92165966666666, "is_reserved": 0, "is_disabled": 0, "rental_uris": {"android": "https://dc.lft.to/lastmile_qr_scan", "ios": "https://dc.lft.to/lastmile_qr_scan"}, "name": "194b0a4b58b81966dd741cf3ded152ff", "type": "electric_scooter"}, {"fusion_lat": 0.0, "bike_id": "8a39bcd750718ad98ae086a3b0ed57e5", "fusion_lon": 0.0, "lon": -77.04582416666666, "lat": 38.92118216666667, "is_reserved": 0, "is_disabled": 0, "rental_uris": {"android": "https://dc.lft.to/lastmile_qr_scan", "ios": "https://dc.lft.to/lastmile_qr_scan"}, "name": "8a39bcd750718ad98ae086a3b0ed57e5", "type": "electric_scooter"}, {"fusion_lat": 0.0, "bike_id": "b6805deb07900ddd44e771d278d332ca", "fusion_lon": 0.0, "lon": -77.0371315, "lat": 38.9282925, "is_reserved": 0, "is_disabled": 0, "rental_uris": {"android": "https://dc.lft.to/lastmile_qr_scan", "ios": "https://dc.lft.to/lastmile_qr_scan"}, "name": "b6805deb07900ddd44e771d278d332ca", "type": "electric_scooter"}, {"fusion_lat": 0.0, "bike_id": "a6f44e34f3836c92516ad3e03b4b8a54", "fusion_lon": 0.0, "lon": -76.998528, "lat": 38.896246, "is_reserved": 0, "is_disabled": 0, "rental_uris": {"android": "https://dc.lft.to/lastmile_qr_scan", "ios": "https://dc.lft.to/lastmile_qr_scan"}, "name": "a6f44e34f3836c92516ad3e03b4b8a54", "type": "electric_scooter"}, {"fusion_lat": 0.0, "bike_id": "a75118d37d2ef83e23252ccc86406ad1", "fusion_lon": 0.0, "lon": -77.01548816666667, "lat": 38.891686, "is_reserved": 0, "is_disabled": 0, "rental_uris": {"android": "https://dc.lft.to/lastmile_qr_scan", "ios": "https://dc.lft.to/lastmile_qr_scan"}, "name": "a75118d37d2ef83e23252ccc86406ad1", "type": "electric_scooter"}, {"fusion_lat": 0.0, "bike_id": "d27c17fb1495cf99e5ea144b0b25d680", "fusion_lon": 0.0, "lon": -77.02509566666667, "lat": 38.8922875, "is_reserved": 0, "is_disabled": 0, "rental_uris": {"android": "https://dc.lft.to/lastmile_qr_scan", "ios": "https://dc.lft.to/lastmile_qr_scan"}, "name": "d27c17fb1495cf99e5ea144b0b25d680", "type": "electric_scooter"}, {"fusion_lat": 0.0, "bike_id": "be94c5ce2d8a9332c27a67dad8759818", "fusion_lon": 0.0, "lon": -77.01724966666667, "lat": 38.885886166666666, "is_reserved": 0, "is_disabled": 0, "rental_uris": {"android": "https://dc.lft.to/lastmile_qr_scan", "ios": "https://dc.lft.to/lastmile_qr_scan"}, "name": "be94c5ce2d8a9332c27a67dad8759818", "type": "electric_scooter"}, {"fusion_lat": 0.0, "bike_id": "abc709604e114351eb1a67c9b9d2f81a", "fusion_lon": 0.0, "lon": -76.94636116666666, "lat": 38.898325, "is_reserved": 0, "is_disabled": 0, "rental_uris": {"android": "https://dc.lft.to/lastmile_qr_scan", "ios": "https://dc.lft.to/lastmile_qr_scan"}, "name": "abc709604e114351eb1a67c9b9d2f81a", "type": "electric_scooter"}, {"fusion_lat": 0.0, "bike_id": "1189027332b3c8eaf91bf9305a9f6d68", "fusion_lon": 0.0, "lon": -77.0731095, "lat": 38.92238, "is_reserved": 0, "is_disabled": 0, "rental_uris": {"android": "https://dc.lft.to/lastmile_qr_scan", "ios": "https://dc.lft.to/lastmile_qr_scan"}, "name": "1189027332b3c8eaf91bf9305a9f6d68", "type": "electric_scooter"}, {"fusion_lat": 0.0, "bike_id": "000bb259a3879dd68b52b7dbe9007d6b", "fusion_lon": 0.0, "lon": -77.03292333333333, "lat": 38.916999, "is_reserved": 0, "is_disabled": 0, "rental_uris": {"android": "https://dc.lft.to/lastmile_qr_scan", "ios": "https://dc.lft.to/lastmile_qr_scan"}, "name": "000bb259a3879dd68b52b7dbe9007d6b", "type": "electric_scooter"}, {"fusion_lat": 0.0, "bike_id": "f44f7304a3f69e59d183ee6f3c8dd3c8", "fusion_lon": 0.0, "lon": -77.0375005, "lat": 38.912517333333334, "is_reserved": 0, "is_disabled": 0, "rental_uris": {"android": "https://dc.lft.to/lastmile_qr_scan", "ios": "https://dc.lft.to/lastmile_qr_scan"}, "name": "f44f7304a3f69e59d183ee6f3c8dd3c8", "type": "electric_scooter"}, {"fusion_lat": 0.0, "bike_id": "d36fd8faeeda14f665d6885dd23d2f0b", "fusion_lon": 0.0, "lon": -77.00462366666666, "lat": 38.920698, "is_reserved": 0, "is_disabled": 0, "rental_uris": {"android": "https://dc.lft.to/lastmile_qr_scan", "ios": "https://dc.lft.to/lastmile_qr_scan"}, "name": "d36fd8faeeda14f665d6885dd23d2f0b", "type": "electric_scooter"}, {"fusion_lat": 0.0, "bike_id": "3b89b093ffdaa6540cd0717ee5e1a390", "fusion_lon": 0.0, "lon": -77.0412615, "lat": 38.91699916666666, "is_reserved": 0, "is_disabled": 0, "rental_uris": {"android": "https://dc.lft.to/lastmile_qr_scan", "ios": "https://dc.lft.to/lastmile_qr_scan"}, "name": "3b89b093ffdaa6540cd0717ee5e1a390", "type": "electric_scooter"}, {"fusion_lat": 0.0, "bike_id": "bd6e02578524b170c601cc9e4e99c12d", "fusion_lon": 0.0, "lon": -77.051617, "lat": 39.042990833333334, "is_reserved": 0, "is_disabled": 0, "rental_uris": {"android": "https://dc.lft.to/lastmile_qr_scan", "ios": "https://dc.lft.to/lastmile_qr_scan"}, "name": "bd6e02578524b170c601cc9e4e99c12d", "type": "electric_bike"}, {"fusion_lat": 0.0, "bike_id": "0d655288ee54aad649a8c35442339d78", "fusion_lon": 0.0, "lon": -77.03204683333334, "lat": 38.91171283333333, "is_reserved": 0, "is_disabled": 0, "rental_uris": {"android": "https://dc.lft.to/lastmile_qr_scan", "ios": "https://dc.lft.to/lastmile_qr_scan"}, "name": "0d655288ee54aad649a8c35442339d78", "type": "electric_scooter"}, {"fusion_lat": 0.0, "bike_id": "2535a99a690b05589cf68d8eeb33bc85", "fusion_lon": 0.0, "lon": -77.02961066666667, "lat": 38.907765, "is_reserved": 0, "is_disabled": 0, "rental_uris": {"android": "https://dc.lft.to/lastmile_qr_scan", "ios": "https://dc.lft.to/lastmile_qr_scan"}, "name": "2535a99a690b05589cf68d8eeb33bc85", "type": "electric_scooter"}, {"fusion_lat": 0.0, "bike_id": "3386646ab31d195697dd5406136a800d", "fusion_lon": 0.0, "lon": -77.06169466666667, "lat": 38.905248666666665, "is_reserved": 0, "is_disabled": 0, "rental_uris": {"android": "https://dc.lft.to/lastmile_qr_scan", "ios": "https://dc.lft.to/lastmile_qr_scan"}, "name": "3386646ab31d195697dd5406136a800d", "type": "electric_scooter"}, {"fusion_lat": 0.0, "bike_id": "cc5c8b078e8005ab64ce3ffb3c8326d8", "fusion_lon": 0.0, "lon": -77.02184033333333, "lat": 38.909530833333335, "is_reserved": 0, "is_disabled": 0, "rental_uris": {"android": "https://dc.lft.to/lastmile_qr_scan", "ios": "https://dc.lft.to/lastmile_qr_scan"}, "name": "cc5c8b078e8005ab64ce3ffb3c8326d8", "type": "electric_scooter"}, {"fusion_lat": 0.0, "bike_id": "87f52ed4cc078379924841e670461870", "fusion_lon": 0.0, "lon": -77.04039566666667, "lat": 38.918555, "is_reserved": 0, "is_disabled": 0, "rental_uris": {"android": "https://dc.lft.to/lastmile_qr_scan", "ios": "https://dc.lft.to/lastmile_qr_scan"}, "name": "87f52ed4cc078379924841e670461870", "type": "electric_scooter"}, {"fusion_lat": 0.0, "bike_id": "a64d7013d9b922afe2d004f60a442969", "fusion_lon": 0.0, "lon": -76.99507033333333, "lat": 38.899148, "is_reserved": 0, "is_disabled": 0, "rental_uris": {"android": "https://dc.lft.to/lastmile_qr_scan", "ios": "https://dc.lft.to/lastmile_qr_scan"}, "name": "a64d7013d9b922afe2d004f60a442969", "type": "electric_scooter"}, {"fusion_lat": 0.0, "bike_id": "01ef32cd50c58123e894ec563c28e646", "fusion_lon": 0.0, "lon": -76.93306166666666, "lat": 38.89194366666667, "is_reserved": 0, "is_disabled": 0, "rental_uris": {"android": "https://dc.lft.to/lastmile_qr_scan", "ios": "https://dc.lft.to/lastmile_qr_scan"}, "name": "01ef32cd50c58123e894ec563c28e646", "type": "electric_scooter"}, {"fusion_lat": 0.0, "bike_id": "f2cee7927fa888fd95bd1b56043a305d", "fusion_lon": 0.0, "lon": -77.015433, "lat": 38.891703, "is_reserved": 0, "is_disabled": 0, "rental_uris": {"android": "https://dc.lft.to/lastmile_qr_scan", "ios": "https://dc.lft.to/lastmile_qr_scan"}, "name": "f2cee7927fa888fd95bd1b56043a305d", "type": "electric_scooter"}, {"fusion_lat": 0.0, "bike_id": "9f52dffb59d3794e55e20ac016883f4e", "fusion_lon": 0.0, "lon": -77.032192, "lat": 38.908666, "is_reserved": 0, "is_disabled": 0, "rental_uris": {"android": "https://dc.lft.to/lastmile_qr_scan", "ios": "https://dc.lft.to/lastmile_qr_scan"}, "name": "9f52dffb59d3794e55e20ac016883f4e", "type": "electric_scooter"}, {"fusion_lat": 0.0, "bike_id": "422bf80675924214c13b3b0e8ae942a8", "fusion_lon": 0.0, "lon": -77.01487466666667, "lat": 38.89218566666667, "is_reserved": 0, "is_disabled": 0, "rental_uris": {"android": "https://dc.lft.to/lastmile_qr_scan", "ios": "https://dc.lft.to/lastmile_qr_scan"}, "name": "422bf80675924214c13b3b0e8ae942a8", "type": "electric_scooter"}, {"fusion_lat": 0.0, "bike_id": "dc2ad96c0dced45982ae60419bf6f2c3", "fusion_lon": 0.0, "lon": -76.98118483333333, "lat": 38.86325466666667, "is_reserved": 0, "is_disabled": 0, "rental_uris": {"android": "https://dc.lft.to/lastmile_qr_scan", "ios": "https://dc.lft.to/lastmile_qr_scan"}, "name": "dc2ad96c0dced45982ae60419bf6f2c3", "type": "electric_scooter"}, {"fusion_lat": 0.0, "bike_id": "943583a73e5739d132fd5b5becc71154", "fusion_lon": 0.0, "lon": -77.0342105, "lat": 38.919163166666664, "is_reserved": 0, "is_disabled": 0, "rental_uris": {"android": "https://dc.lft.to/lastmile_qr_scan", "ios": "https://dc.lft.to/lastmile_qr_scan"}, "name": "943583a73e5739d132fd5b5becc71154", "type": "electric_scooter"}, {"fusion_lat": 0.0, "bike_id": "42191b5c4163c359da9ac25901d92c00", "fusion_lon": 0.0, "lon": -77.01912233333333, "lat": 38.92372433333333, "is_reserved": 0, "is_disabled": 0, "rental_uris": {"android": "https://dc.lft.to/lastmile_qr_scan", "ios": "https://dc.lft.to/lastmile_qr_scan"}, "name": "42191b5c4163c359da9ac25901d92c00", "type": "electric_scooter"}, {"fusion_lat": 0.0, "bike_id": "65ea83324c5eba17440fde83f422cab2", "fusion_lon": 0.0, "lon": -76.9375845, "lat": 38.89031416666667, "is_reserved": 0, "is_disabled": 0, "rental_uris": {"android": "https://dc.lft.to/lastmile_qr_scan", "ios": "https://dc.lft.to/lastmile_qr_scan"}, "name": "65ea83324c5eba17440fde83f422cab2", "type": "electric_scooter"}, {"fusion_lat": 0.0, "bike_id": "1281067041726fc6aebeb8b48cd9cbf9", "fusion_lon": 0.0, "lon": -77.0464495, "lat": 38.915723166666666, "is_reserved": 0, "is_disabled": 0, "rental_uris": {"android": "https://dc.lft.to/lastmile_qr_scan", "ios": "https://dc.lft.to/lastmile_qr_scan"}, "name": "1281067041726fc6aebeb8b48cd9cbf9", "type": "electric_scooter"}, {"fusion_lat": 0.0, "bike_id": "1f7ffd387715097a95a9d8dccbad5692", "fusion_lon": 0.0, "lon": -77.0638125, "lat": 38.90508783333333, "is_reserved": 0, "is_disabled": 0, "rental_uris": {"android": "https://dc.lft.to/lastmile_qr_scan", "ios": "https://dc.lft.to/lastmile_qr_scan"}, "name": "1f7ffd387715097a95a9d8dccbad5692", "type": "electric_scooter"}, {"fusion_lat": 0.0, "bike_id": "d8d67efe7c83afaa201c5d8515cd68a8", "fusion_lon": 0.0, "lon": -77.05694416666667, "lat": 38.93713116666667, "is_reserved": 0, "is_disabled": 0, "rental_uris": {"android": "https://dc.lft.to/lastmile_qr_scan", "ios": "https://dc.lft.to/lastmile_qr_scan"}, "name": "d8d67efe7c83afaa201c5d8515cd68a8", "type": "electric_scooter"}, {"fusion_lat": 0.0, "bike_id": "9bc378f60760d15326bc533d1003b455", "fusion_lon": 0.0, "lon": -77.03471416666666, "lat": 38.917113666666665, "is_reserved": 0, "is_disabled": 0, "rental_uris": {"android": "https://dc.lft.to/lastmile_qr_scan", "ios": "https://dc.lft.to/lastmile_qr_scan"}, "name": "9bc378f60760d15326bc533d1003b455", "type": "electric_scooter"}, {"fusion_lat": 0.0, "bike_id": "fac8940e4eb98f9ed94615ce785a7434", "fusion_lon": 0.0, "lon": -77.00115633333333, "lat": 38.9124555, "is_reserved": 0, "is_disabled": 0, "rental_uris": {"android": "https://dc.lft.to/lastmile_qr_scan", "ios": "https://dc.lft.to/lastmile_qr_scan"}, "name": "fac8940e4eb98f9ed94615ce785a7434", "type": "electric_scooter"}, {"fusion_lat": 0.0, "bike_id": "6168e946eb8be164e1002472542212a6", "fusion_lon": 0.0, "lon": -76.93195283333333, "lat": 38.89874616666667, "is_reserved": 0, "is_disabled": 0, "rental_uris": {"android": "https://dc.lft.to/lastmile_qr_scan", "ios": "https://dc.lft.to/lastmile_qr_scan"}, "name": "6168e946eb8be164e1002472542212a6", "type": "electric_scooter"}, {"fusion_lat": 0.0, "bike_id": "cc053beb98c5bbd8acf3f05d1f45b84a", "fusion_lon": 0.0, "lon": -77.04878266666667, "lat": 38.89229433333333, "is_reserved": 0, "is_disabled": 0, "rental_uris": {"android": "https://dc.lft.to/lastmile_qr_scan", "ios": "https://dc.lft.to/lastmile_qr_scan"}, "name": "cc053beb98c5bbd8acf3f05d1f45b84a", "type": "electric_scooter"}, {"fusion_lat": 0.0, "bike_id": "bd5f5cf55b2c8b544fc751579e8c2559", "fusion_lon": 0.0, "lon": -77.03661233333334, "lat": 38.922841166666664, "is_reserved": 0, "is_disabled": 0, "rental_uris": {"android": "https://dc.lft.to/lastmile_qr_scan", "ios": "https://dc.lft.to/lastmile_qr_scan"}, "name": "bd5f5cf55b2c8b544fc751579e8c2559", "type": "electric_scooter"}, {"fusion_lat": 0.0, "bike_id": "f7a857861d212a881a889e87adef463b", "fusion_lon": 0.0, "lon": -76.94891783333334, "lat": 38.89509016666667, "is_reserved": 0, "is_disabled": 0, "rental_uris": {"android": "https://dc.lft.to/lastmile_qr_scan", "ios": "https://dc.lft.to/lastmile_qr_scan"}, "name": "f7a857861d212a881a889e87adef463b", "type": "electric_scooter"}, {"fusion_lat": 0.0, "bike_id": "126522d9d650691012ac9297dff90c59", "fusion_lon": 0.0, "lon": -77.032157, "lat": 38.91197733333333, "is_reserved": 0, "is_disabled": 0, "rental_uris": {"android": "https://dc.lft.to/lastmile_qr_scan", "ios": "https://dc.lft.to/lastmile_qr_scan"}, "name": "126522d9d650691012ac9297dff90c59", "type": "electric_scooter"}, {"fusion_lat": 0.0, "bike_id": "656063926fa205482a0bbb26db1e4a3f", "fusion_lon": 0.0, "lon": -77.0190165, "lat": 38.902665166666665, "is_reserved": 0, "is_disabled": 0, "rental_uris": {"android": "https://dc.lft.to/lastmile_qr_scan", "ios": "https://dc.lft.to/lastmile_qr_scan"}, "name": "656063926fa205482a0bbb26db1e4a3f", "type": "electric_scooter"}, {"fusion_lat": 0.0, "bike_id": "3b2beb7b421ea20f22a355a37ef72af1", "fusion_lon": 0.0, "lon": -77.11160016666666, "lat": 38.855224166666666, "is_reserved": 0, "is_disabled": 0, "rental_uris": {"android": "https://dc.lft.to/lastmile_qr_scan", "ios": "https://dc.lft.to/lastmile_qr_scan"}, "name": "3b2beb7b421ea20f22a355a37ef72af1", "type": "electric_bike"}, {"fusion_lat": 0.0, "bike_id": "4f7f514dd92d96be5a0d7187ff6a9d9f", "fusion_lon": 0.0, "lon": -77.05894233333333, "lat": 38.9360785, "is_reserved": 0, "is_disabled": 0, "rental_uris": {"android": "https://dc.lft.to/lastmile_qr_scan", "ios": "https://dc.lft.to/lastmile_qr_scan"}, "name": "4f7f514dd92d96be5a0d7187ff6a9d9f", "type": "electric_scooter"}, {"fusion_lat": 0.0, "bike_id": "c3e8df318ff565f889288a58f5b504d5", "fusion_lon": 0.0, "lon": -77.02911033333334, "lat": 38.92240483333333, "is_reserved": 0, "is_disabled": 0, "rental_uris": {"android": "https://dc.lft.to/lastmile_qr_scan", "ios": "https://dc.lft.to/lastmile_qr_scan"}, "name": "c3e8df318ff565f889288a58f5b504d5", "type": "electric_scooter"}, {"fusion_lat": 0.0, "bike_id": "077198da9d8db14b76260c41ee0c39d6", "fusion_lon": 0.0, "lon": -77.05038716666667, "lat": 38.923720833333334, "is_reserved": 0, "is_disabled": 0, "rental_uris": {"android": "https://dc.lft.to/lastmile_qr_scan", "ios": "https://dc.lft.to/lastmile_qr_scan"}, "name": "077198da9d8db14b76260c41ee0c39d6", "type": "electric_scooter"}, {"fusion_lat": 0.0, "bike_id": "c995f5156e3af96c5a58f5f9d8205f55", "fusion_lon": 0.0, "lon": -77.055256, "lat": 38.92661666666667, "is_reserved": 0, "is_disabled": 0, "rental_uris": {"android": "https://dc.lft.to/lastmile_qr_scan", "ios": "https://dc.lft.to/lastmile_qr_scan"}, "name": "c995f5156e3af96c5a58f5f9d8205f55", "type": "electric_scooter"}, {"fusion_lat": 0.0, "bike_id": "2619480073ef724491dc80515686360c", "fusion_lon": 0.0, "lon": -77.04183183333333, "lat": 38.892239000000004, "is_reserved": 0, "is_disabled": 0, "rental_uris": {"android": "https://dc.lft.to/lastmile_qr_scan", "ios": "https://dc.lft.to/lastmile_qr_scan"}, "name": "2619480073ef724491dc80515686360c", "type": "electric_scooter"}, {"fusion_lat": 0.0, "bike_id": "0fb26779501c0ae3adb81009c6c20ef9", "fusion_lon": 0.0, "lon": -77.0177945, "lat": 38.88612966666667, "is_reserved": 0, "is_disabled": 0, "rental_uris": {"android": "https://dc.lft.to/lastmile_qr_scan", "ios": "https://dc.lft.to/lastmile_qr_scan"}, "name": "0fb26779501c0ae3adb81009c6c20ef9", "type": "electric_scooter"}, {"fusion_lat": 0.0, "bike_id": "62babb3cbf66ddece5e6eb2071a95cb3", "fusion_lon": 0.0, "lon": -77.04805783333333, "lat": 38.914039, "is_reserved": 0, "is_disabled": 0, "rental_uris": {"android": "https://dc.lft.to/lastmile_qr_scan", "ios": "https://dc.lft.to/lastmile_qr_scan"}, "name": "62babb3cbf66ddece5e6eb2071a95cb3", "type": "electric_scooter"}, {"fusion_lat": 0.0, "bike_id": "4b5ea66b494eb187efe6d96781df9768", "fusion_lon": 0.0, "lon": -77.04045083333334, "lat": 38.91567633333333, "is_reserved": 0, "is_disabled": 0, "rental_uris": {"android": "https://dc.lft.to/lastmile_qr_scan", "ios": "https://dc.lft.to/lastmile_qr_scan"}, "name": "4b5ea66b494eb187efe6d96781df9768", "type": "electric_scooter"}, {"fusion_lat": 0.0, "bike_id": "eb868fe959738db5ab4b07ad2f8a5b4a", "fusion_lon": 0.0, "lon": -76.98238566666667, "lat": 38.88859716666666, "is_reserved": 0, "is_disabled": 0, "rental_uris": {"android": "https://dc.lft.to/lastmile_qr_scan", "ios": "https://dc.lft.to/lastmile_qr_scan"}, "name": "eb868fe959738db5ab4b07ad2f8a5b4a", "type": "electric_scooter"}, {"fusion_lat": 0.0, "bike_id": "094364a2ac4e54cf9dd0347661198479", "fusion_lon": 0.0, "lon": -77.04164, "lat": 38.912486, "is_reserved": 0, "is_disabled": 0, "rental_uris": {"android": "https://dc.lft.to/lastmile_qr_scan", "ios": "https://dc.lft.to/lastmile_qr_scan"}, "name": "094364a2ac4e54cf9dd0347661198479", "type": "electric_scooter"}, {"fusion_lat": 0.0, "bike_id": "a004f0277014a78f541496096caf9956", "fusion_lon": 0.0, "lon": -77.02214883333333, "lat": 38.9246925, "is_reserved": 0, "is_disabled": 0, "rental_uris": {"android": "https://dc.lft.to/lastmile_qr_scan", "ios": "https://dc.lft.to/lastmile_qr_scan"}, "name": "a004f0277014a78f541496096caf9956", "type": "electric_scooter"}, {"fusion_lat": 0.0, "bike_id": "be1a01d9228716be2db0e4aae6d29d88", "fusion_lon": 0.0, "lon": -77.04182783333333, "lat": 38.8925275, "is_reserved": 0, "is_disabled": 0, "rental_uris": {"android": "https://dc.lft.to/lastmile_qr_scan", "ios": "https://dc.lft.to/lastmile_qr_scan"}, "name": "be1a01d9228716be2db0e4aae6d29d88", "type": "electric_scooter"}, {"fusion_lat": 0.0, "bike_id": "05715b15969fa7b98b795b8b967fc951", "fusion_lon": 0.0, "lon": -77.03552416666666, "lat": 38.92406233333333, "is_reserved": 0, "is_disabled": 0, "rental_uris": {"android": "https://dc.lft.to/lastmile_qr_scan", "ios": "https://dc.lft.to/lastmile_qr_scan"}, "name": "05715b15969fa7b98b795b8b967fc951", "type": "electric_scooter"}, {"fusion_lat": 0.0, "bike_id": "a9ab48f198bf257cfd0b6b2ccea80eaa", "fusion_lon": 0.0, "lon": -77.02529133333333, "lat": 38.918144833333336, "is_reserved": 0, "is_disabled": 0, "rental_uris": {"android": "https://dc.lft.to/lastmile_qr_scan", "ios": "https://dc.lft.to/lastmile_qr_scan"}, "name": "a9ab48f198bf257cfd0b6b2ccea80eaa", "type": "electric_scooter"}, {"fusion_lat": 0.0, "bike_id": "8e6d477667bf6f2af60441c0fcc58d53", "fusion_lon": 0.0, "lon": -77.04537833333333, "lat": 38.913265, "is_reserved": 0, "is_disabled": 0, "rental_uris": {"android": "https://dc.lft.to/lastmile_qr_scan", "ios": "https://dc.lft.to/lastmile_qr_scan"}, "name": "8e6d477667bf6f2af60441c0fcc58d53", "type": "electric_scooter"}, {"fusion_lat": 0.0, "bike_id": "ad2ac9423160efd6cecf24f4ed57c8cd", "fusion_lon": 0.0, "lon": -77.02840783333333, "lat": 38.887412833333336, "is_reserved": 0, "is_disabled": 0, "rental_uris": {"android": "https://dc.lft.to/lastmile_qr_scan", "ios": "https://dc.lft.to/lastmile_qr_scan"}, "name": "ad2ac9423160efd6cecf24f4ed57c8cd", "type": "electric_scooter"}, {"fusion_lat": 0.0, "bike_id": "63d5d982158140a9ebaf941de3d05686", "fusion_lon": 0.0, "lon": -77.038483, "lat": 38.92165033333333, "is_reserved": 0, "is_disabled": 0, "rental_uris": {"android": "https://dc.lft.to/lastmile_qr_scan", "ios": "https://dc.lft.to/lastmile_qr_scan"}, "name": "63d5d982158140a9ebaf941de3d05686", "type": "electric_scooter"}, {"fusion_lat": 0.0, "bike_id": "75b491172dada71efa1b40ed5b5cc043", "fusion_lon": 0.0, "lon": -77.07610183333334, "lat": 38.92057966666667, "is_reserved": 0, "is_disabled": 0, "rental_uris": {"android": "https://dc.lft.to/lastmile_qr_scan", "ios": "https://dc.lft.to/lastmile_qr_scan"}, "name": "75b491172dada71efa1b40ed5b5cc043", "type": "electric_scooter"}, {"fusion_lat": 0.0, "bike_id": "b035833a78ce33cc34fca2984b03fe30", "fusion_lon": 0.0, "lon": -77.02206566666666, "lat": 38.922372833333334, "is_reserved": 0, "is_disabled": 0, "rental_uris": {"android": "https://dc.lft.to/lastmile_qr_scan", "ios": "https://dc.lft.to/lastmile_qr_scan"}, "name": "b035833a78ce33cc34fca2984b03fe30", "type": "electric_scooter"}, {"fusion_lat": 0.0, "bike_id": "dfa8a621a38281b774459b0ed2c5fe37", "fusion_lon": 0.0, "lon": -77.13316066666667, "lat": 38.887185, "is_reserved": 0, "is_disabled": 0, "rental_uris": {"android": "https://dc.lft.to/lastmile_qr_scan", "ios": "https://dc.lft.to/lastmile_qr_scan"}, "name": "dfa8a621a38281b774459b0ed2c5fe37", "type": "electric_bike"}, {"fusion_lat": 0.0, "bike_id": "0882449843b2b9734a2258c1841c89c7", "fusion_lon": 0.0, "lon": -76.98087316666667, "lat": 38.90407733333333, "is_reserved": 0, "is_disabled": 0, "rental_uris": {"android": "https://dc.lft.to/lastmile_qr_scan", "ios": "https://dc.lft.to/lastmile_qr_scan"}, "name": "0882449843b2b9734a2258c1841c89c7", "type": "electric_scooter"}, {"fusion_lat": 0.0, "bike_id": "5be7bc60f637e812e3ea7bbb19deee59", "fusion_lon": 0.0, "lon": -76.9861555, "lat": 38.88298283333334, "is_reserved": 0, "is_disabled": 0, "rental_uris": {"android": "https://dc.lft.to/lastmile_qr_scan", "ios": "https://dc.lft.to/lastmile_qr_scan"}, "name": "5be7bc60f637e812e3ea7bbb19deee59", "type": "electric_scooter"}, {"fusion_lat": 0.0, "bike_id": "3dd5a93cdc1804b7c7a5458579023ccb", "fusion_lon": 0.0, "lon": -77.01780833333333, "lat": 38.88601233333333, "is_reserved": 0, "is_disabled": 0, "rental_uris": {"android": "https://dc.lft.to/lastmile_qr_scan", "ios": "https://dc.lft.to/lastmile_qr_scan"}, "name": "3dd5a93cdc1804b7c7a5458579023ccb", "type": "electric_scooter"}, {"fusion_lat": 0.0, "bike_id": "ce4ba6cf936e21247720591de93c04c5", "fusion_lon": 0.0, "lon": -76.93067383333333, "lat": 38.883814666666666, "is_reserved": 0, "is_disabled": 0, "rental_uris": {"android": "https://dc.lft.to/lastmile_qr_scan", "ios": "https://dc.lft.to/lastmile_qr_scan"}, "name": "ce4ba6cf936e21247720591de93c04c5", "type": "electric_scooter"}, {"fusion_lat": 0.0, "bike_id": "389d373f3e3ae9385f514ed14b3267d7", "fusion_lon": 0.0, "lon": -77.0460935, "lat": 38.9155515, "is_reserved": 0, "is_disabled": 0, "rental_uris": {"android": "https://dc.lft.to/lastmile_qr_scan", "ios": "https://dc.lft.to/lastmile_qr_scan"}, "name": "389d373f3e3ae9385f514ed14b3267d7", "type": "electric_scooter"}, {"fusion_lat": 0.0, "bike_id": "0caf0b66e743c41a322c45cf622e3b57", "fusion_lon": 0.0, "lon": -77.026598, "lat": 38.91700433333333, "is_reserved": 0, "is_disabled": 0, "rental_uris": {"android": "https://dc.lft.to/lastmile_qr_scan", "ios": "https://dc.lft.to/lastmile_qr_scan"}, "name": "0caf0b66e743c41a322c45cf622e3b57", "type": "electric_scooter"}, {"fusion_lat": 0.0, "bike_id": "da68df7d5d1315656ba652e87bf2cbe5", "fusion_lon": 0.0, "lon": -77.04511683333334, "lat": 38.89232066666667, "is_reserved": 0, "is_disabled": 0, "rental_uris": {"android": "https://dc.lft.to/lastmile_qr_scan", "ios": "https://dc.lft.to/lastmile_qr_scan"}, "name": "da68df7d5d1315656ba652e87bf2cbe5", "type": "electric_scooter"}, {"fusion_lat": 0.0, "bike_id": "e5130766bccb3995110fd15994b8523e", "fusion_lon": 0.0, "lon": -77.022657, "lat": 38.9375555, "is_reserved": 0, "is_disabled": 0, "rental_uris": {"android": "https://dc.lft.to/lastmile_qr_scan", "ios": "https://dc.lft.to/lastmile_qr_scan"}, "name": "e5130766bccb3995110fd15994b8523e", "type": "electric_scooter"}, {"fusion_lat": 0.0, "bike_id": "8127233f89df3002e5fc43eac1d7318a", "fusion_lon": 0.0, "lon": -77.02424333333333, "lat": 38.920682666666664, "is_reserved": 0, "is_disabled": 0, "rental_uris": {"android": "https://dc.lft.to/lastmile_qr_scan", "ios": "https://dc.lft.to/lastmile_qr_scan"}, "name": "8127233f89df3002e5fc43eac1d7318a", "type": "electric_scooter"}, {"fusion_lat": 0.0, "bike_id": "4fa4192247b2561e36370a5ca510e3c6", "fusion_lon": 0.0, "lon": -77.02269783333334, "lat": 38.898317666666664, "is_reserved": 0, "is_disabled": 0, "rental_uris": {"android": "https://dc.lft.to/lastmile_qr_scan", "ios": "https://dc.lft.to/lastmile_qr_scan"}, "name": "4fa4192247b2561e36370a5ca510e3c6", "type": "electric_scooter"}, {"fusion_lat": 0.0, "bike_id": "66dbd2157927ce6b10370fa0049f2a14", "fusion_lon": 0.0, "lon": -77.04310966666667, "lat": 38.9221635, "is_reserved": 0, "is_disabled": 0, "rental_uris": {"android": "https://dc.lft.to/lastmile_qr_scan", "ios": "https://dc.lft.to/lastmile_qr_scan"}, "name": "66dbd2157927ce6b10370fa0049f2a14", "type": "electric_scooter"}, {"fusion_lat": 0.0, "bike_id": "5730d90b1a552b86132ddf0956a85390", "fusion_lon": 0.0, "lon": -77.043445, "lat": 38.921681666666665, "is_reserved": 0, "is_disabled": 0, "rental_uris": {"android": "https://dc.lft.to/lastmile_qr_scan", "ios": "https://dc.lft.to/lastmile_qr_scan"}, "name": "5730d90b1a552b86132ddf0956a85390", "type": "electric_scooter"}, {"fusion_lat": 0.0, "bike_id": "1a7ee3b059c8581b992b7b32bdd38c57", "fusion_lon": 0.0, "lon": -77.00528316666667, "lat": 38.929776, "is_reserved": 0, "is_disabled": 0, "rental_uris": {"android": "https://dc.lft.to/lastmile_qr_scan", "ios": "https://dc.lft.to/lastmile_qr_scan"}, "name": "1a7ee3b059c8581b992b7b32bdd38c57", "type": "electric_scooter"}, {"fusion_lat": 0.0, "bike_id": "39eec82ef16daf643974c8dd192a812e", "fusion_lon": 0.0, "lon": -76.98528, "lat": 38.866849333333334, "is_reserved": 0, "is_disabled": 0, "rental_uris": {"android": "https://dc.lft.to/lastmile_qr_scan", "ios": "https://dc.lft.to/lastmile_qr_scan"}, "name": "39eec82ef16daf643974c8dd192a812e", "type": "electric_scooter"}, {"fusion_lat": 0.0, "bike_id": "d1b388d881e8a0d19692e97df34f1dcd", "fusion_lon": 0.0, "lon": -77.03261816666667, "lat": 38.92048666666667, "is_reserved": 0, "is_disabled": 0, "rental_uris": {"android": "https://dc.lft.to/lastmile_qr_scan", "ios": "https://dc.lft.to/lastmile_qr_scan"}, "name": "d1b388d881e8a0d19692e97df34f1dcd", "type": "electric_scooter"}, {"fusion_lat": 0.0, "bike_id": "eed00acc0e7190c8a04c29c7165d584f", "fusion_lon": 0.0, "lon": -77.0267585, "lat": 38.921812333333335, "is_reserved": 0, "is_disabled": 0, "rental_uris": {"android": "https://dc.lft.to/lastmile_qr_scan", "ios": "https://dc.lft.to/lastmile_qr_scan"}, "name": "eed00acc0e7190c8a04c29c7165d584f", "type": "electric_scooter"}, {"fusion_lat": 0.0, "bike_id": "85607e434545d47d91bc784dd71192a6", "fusion_lon": 0.0, "lon": -76.92616133333334, "lat": 38.884834166666664, "is_reserved": 0, "is_disabled": 0, "rental_uris": {"android": "https://dc.lft.to/lastmile_qr_scan", "ios": "https://dc.lft.to/lastmile_qr_scan"}, "name": "85607e434545d47d91bc784dd71192a6", "type": "electric_scooter"}, {"fusion_lat": 0.0, "bike_id": "ed368bdfa4c1caf21aed99ebf2f690c4", "fusion_lon": 0.0, "lon": -77.056436, "lat": 38.9263295, "is_reserved": 0, "is_disabled": 0, "rental_uris": {"android": "https://dc.lft.to/lastmile_qr_scan", "ios": "https://dc.lft.to/lastmile_qr_scan"}, "name": "ed368bdfa4c1caf21aed99ebf2f690c4", "type": "electric_scooter"}, {"fusion_lat": 0.0, "bike_id": "7aa2ba0611f8e84c1a97eaee127ccba8", "fusion_lon": 0.0, "lon": -76.96526, "lat": 38.876260333333335, "is_reserved": 0, "is_disabled": 0, "rental_uris": {"android": "https://dc.lft.to/lastmile_qr_scan", "ios": "https://dc.lft.to/lastmile_qr_scan"}, "name": "7aa2ba0611f8e84c1a97eaee127ccba8", "type": "electric_scooter"}, {"fusion_lat": 0.0, "bike_id": "d296a084f8693fdaf14bf0d8b2574d0c", "fusion_lon": 0.0, "lon": -77.0801335, "lat": 38.9506595, "is_reserved": 0, "is_disabled": 0, "rental_uris": {"android": "https://dc.lft.to/lastmile_qr_scan", "ios": "https://dc.lft.to/lastmile_qr_scan"}, "name": "d296a084f8693fdaf14bf0d8b2574d0c", "type": "electric_scooter"}, {"fusion_lat": 0.0, "bike_id": "f767814a1108482922aa10618139d1b4", "fusion_lon": 0.0, "lon": -76.9319635, "lat": 38.898763333333335, "is_reserved": 0, "is_disabled": 0, "rental_uris": {"android": "https://dc.lft.to/lastmile_qr_scan", "ios": "https://dc.lft.to/lastmile_qr_scan"}, "name": "f767814a1108482922aa10618139d1b4", "type": "electric_scooter"}, {"fusion_lat": 0.0, "bike_id": "f3e8ac985d9ffd340dd5f2d22ea2c85b", "fusion_lon": 0.0, "lon": -77.03633833333333, "lat": 38.94495666666667, "is_reserved": 0, "is_disabled": 0, "rental_uris": {"android": "https://dc.lft.to/lastmile_qr_scan", "ios": "https://dc.lft.to/lastmile_qr_scan"}, "name": "f3e8ac985d9ffd340dd5f2d22ea2c85b", "type": "electric_scooter"}, {"fusion_lat": 0.0, "bike_id": "1f56bf15072bce0ac2837dfad3f9aec0", "fusion_lon": 0.0, "lon": -77.02696083333333, "lat": 38.924041333333335, "is_reserved": 0, "is_disabled": 0, "rental_uris": {"android": "https://dc.lft.to/lastmile_qr_scan", "ios": "https://dc.lft.to/lastmile_qr_scan"}, "name": "1f56bf15072bce0ac2837dfad3f9aec0", "type": "electric_scooter"}, {"fusion_lat": 0.0, "bike_id": "990e95352029174bdf292ce1843af64b", "fusion_lon": 0.0, "lon": -77.0487405, "lat": 38.89268666666667, "is_reserved": 0, "is_disabled": 0, "rental_uris": {"android": "https://dc.lft.to/lastmile_qr_scan", "ios": "https://dc.lft.to/lastmile_qr_scan"}, "name": "990e95352029174bdf292ce1843af64b", "type": "electric_scooter"}, {"fusion_lat": 0.0, "bike_id": "c2fd1c38687414ec3d68a85686c7da7c", "fusion_lon": 0.0, "lon": -76.973031, "lat": 38.91642366666667, "is_reserved": 0, "is_disabled": 0, "rental_uris": {"android": "https://dc.lft.to/lastmile_qr_scan", "ios": "https://dc.lft.to/lastmile_qr_scan"}, "name": "c2fd1c38687414ec3d68a85686c7da7c", "type": "electric_bike"}, {"fusion_lat": 0.0, "bike_id": "677f1f2201597c5e96dc3b1b4ac7d3ea", "fusion_lon": 0.0, "lon": -77.0730045, "lat": 38.93537716666667, "is_reserved": 0, "is_disabled": 0, "rental_uris": {"android": "https://dc.lft.to/lastmile_qr_scan", "ios": "https://dc.lft.to/lastmile_qr_scan"}, "name": "677f1f2201597c5e96dc3b1b4ac7d3ea", "type": "electric_scooter"}, {"fusion_lat": 0.0, "bike_id": "6506d6d5570307589a793d62fed3d8bb", "fusion_lon": 0.0, "lon": -77.02576, "lat": 38.94402866666667, "is_reserved": 0, "is_disabled": 0, "rental_uris": {"android": "https://dc.lft.to/lastmile_qr_scan", "ios": "https://dc.lft.to/lastmile_qr_scan"}, "name": "6506d6d5570307589a793d62fed3d8bb", "type": "electric_scooter"}, {"fusion_lat": 0.0, "bike_id": "ef73c01fb086f00df51e8f0ff34e5aa9", "fusion_lon": 0.0, "lon": -77.03823916666667, "lat": 38.9155225, "is_reserved": 0, "is_disabled": 0, "rental_uris": {"android": "https://dc.lft.to/lastmile_qr_scan", "ios": "https://dc.lft.to/lastmile_qr_scan"}, "name": "ef73c01fb086f00df51e8f0ff34e5aa9", "type": "electric_scooter"}, {"fusion_lat": 0.0, "bike_id": "00120e337fb94bf5c519d37b84e05581", "fusion_lon": 0.0, "lon": -77.07235116666666, "lat": 38.96810833333333, "is_reserved": 0, "is_disabled": 0, "rental_uris": {"android": "https://dc.lft.to/lastmile_qr_scan", "ios": "https://dc.lft.to/lastmile_qr_scan"}, "name": "00120e337fb94bf5c519d37b84e05581", "type": "electric_bike"},