{"data": {"bikes": [{"lon": -77.041177, "bike_id": "4c8b7b57e92f05c5b1342dbea2de6de8", "lat": 38.934669166666666, "fusion_lon": 0.0, "fusion_lat": 0.0, "type": "electric_scooter", "name": "4c8b7b57e92f05c5b1342dbea2de6de8", "is_disabled": 0, "rental_uris": {"ios": "https://dc.lft.to/lastmile_qr_scan", "android": "https://dc.lft.to/lastmile_qr_scan"}, "is_reserved": 0}, {"lon": -77.01199316666667, "bike_id": "7f70bb4b576b56927c06914948985463", "lat": 38.87094883333333, "fusion_lon": 0.0, "fusion_lat": 0.0, "type": "electric_bike", "name": "7f70bb4b576b56927c06914948985463", "is_disabled": 0, "rental_uris": {"ios": "https://dc.lft.to/lastmile_qr_scan", "android": "https://dc.lft.to/lastmile_qr_scan"}, "is_reserved": 0}, {"lon": -77.03630783333334, "bike_id": "6d0fea6f33c5e79b526fd5ec2b795843", "lat": 38.9449305, "fusion_lon": 0.0, "fusion_lat": 0.0, "type": "electric_scooter", "name": "6d0fea6f33c5e79b526fd5ec2b795843", "is_disabled": 0, "rental_uris": {"ios": "https://dc.lft.to/lastmile_qr_scan", "android": "https://dc.lft.to/lastmile_qr_scan"}, "is_reserved": 0}, {"lon": -77.04879983333333, "bike_id": "833d4b083d9f82f627c1dd1e8d39fd73", "lat": 38.904785833333335, "fusion_lon": 0.0, "fusion_lat": 0.0, "type": "electric_scooter", "name": "833d4b083d9f82f627c1dd1e8d39fd73", "is_disabled": 0, "rental_uris": {"ios": "https://dc.lft.to/lastmile_qr_scan", "android": "https://dc.lft.to/lastmile_qr_scan"}, "is_reserved": 0}, {"lon": -76.98636533333334, "bike_id": "3b328e418ead82a49e4f4d1c2557b66d", "lat": 38.90156116666667, "fusion_lon": 0.0, "fusion_lat": 0.0, "type": "electric_scooter", "name": "3b328e418ead82a49e4f4d1c2557b66d", "is_disabled": 0, "rental_uris": {"ios": "https://dc.lft.to/lastmile_qr_scan", "android": "https://dc.lft.to/lastmile_qr_scan"}, "is_reserved": 0}, {"lon": -77.03363, "bike_id": "9162f99512558f1952bfb95276cc7847", "lat": 38.935725, "fusion_lon": 0.0, "fusion_lat": 0.0, "type": "electric_scooter", "name": "9162f99512558f1952bfb95276cc7847", "is_disabled": 0, "rental_uris": {"ios": "https://dc.lft.to/lastmile_qr_scan", "android": "https://dc.lft.to/lastmile_qr_scan"}, "is_reserved": 0}, {"lon": -76.98538516666666, "bike_id": "48b1d27dffe2b112c5422645a918f05a", "lat": 38.880791, "fusion_lon": 0.0, "fusion_lat": 0.0, "type": "electric_scooter", "name": "48b1d27dffe2b112c5422645a918f05a", "is_disabled": 0, "rental_uris": {"ios": "https://dc.lft.to/lastmile_qr_scan", "android": "https://dc.lft.to/lastmile_qr_scan"}, "is_reserved": 0}, {"lon": -77.009148, "bike_id": "6f79d2798cef5026313c888ad2088ab7", "lat": 38.897581, "fusion_lon": 0.0, "fusion_lat": 0.0, "type": "electric_scooter", "name": "6f79d2798cef5026313c888ad2088ab7", "is_disabled": 0, "rental_uris": {"ios": "https://dc.lft.to/lastmile_qr_scan", "android": "https://dc.lft.to/lastmile_qr_scan"}, "is_reserved": 0}, {"lon": -77.02656083333333, "bike_id": "73b1cc81621d0797747e9ca2e3269173", "lat": 38.9781325, "fusion_lon": 0.0, "fusion_lat": 0.0, "type": "electric_scooter", "name": "73b1cc81621d0797747e9ca2e3269173", "is_disabled": 0, "rental_uris": {"ios": "https://dc.lft.to/lastmile_qr_scan", "android": "https://dc.lft.to/lastmile_qr_scan"}, "is_reserved": 0}, {"lon": -77.04497416666666, "bike_id": "cba7748ee3a990531edac2a85fc06513", "lat": 38.90375233333334, "fusion_lon": 0.0, "fusion_lat": 0.0, "type": "electric_scooter", "name": "cba7748ee3a990531edac2a85fc06513", "is_disabled": 0, "rental_uris": {"ios": "https://dc.lft.to/lastmile_qr_scan", "android": "https://dc.lft.to/lastmile_qr_scan"}, "is_reserved": 0}, {"lon": -76.98104166666667, "bike_id": "5fedcd1e7df98768c9b4ca11b7a82411", "lat": 38.90411683333333, "fusion_lon": 0.0, "fusion_lat": 0.0, "type": "electric_scooter", "name": "5fedcd1e7df98768c9b4ca11b7a82411", "is_disabled": 0, "rental_uris": {"ios": "https://dc.lft.to/lastmile_qr_scan", "android": "https://dc.lft.to/lastmile_qr_scan"}, "is_reserved": 0}, {"lon": -77.02199766666666, "bike_id": "65896f88134ae5b59893f005f8d11798", "lat": 38.91131383333333, "fusion_lon": 0.0, "fusion_lat": 0.0, "type": "electric_scooter", "name": "65896f88134ae5b59893f005f8d11798", "is_disabled": 0, "rental_uris": {"ios": "https://dc.lft.to/lastmile_qr_scan", "android": "https://dc.lft.to/lastmile_qr_scan"}, "is_reserved": 0}, {"lon": -76.9787095, "bike_id": "bdebe6b752fc7e859e07383287e1b004", "lat": 38.883024166666665, "fusion_lon": 0.0, "fusion_lat": 0.0, "type": "electric_scooter", "name": "bdebe6b752fc7e859e07383287e1b004", "is_disabled": 0, "rental_uris": {"ios": "https://dc.lft.to/lastmile_qr_scan", "android": "https://dc.lft.to/lastmile_qr_scan"}, "is_reserved": 0}, {"lon": -77.02247583333333, "bike_id": "122fdc227c2c41c9de727ac9a8bac098", "lat": 38.922742166666666, "fusion_lon": 0.0, "fusion_lat": 0.0, "type": "electric_scooter", "name": "122fdc227c2c41c9de727ac9a8bac098", "is_disabled": 0, "rental_uris": {"ios": "https://dc.lft.to/lastmile_qr_scan", "android": "https://dc.lft.to/lastmile_qr_scan"}, "is_reserved": 0}, {"lon": -77.0806815, "bike_id": "d4dc7748727f94a848d2c71419e9d208", "lat": 38.963185833333334, "fusion_lon": 0.0, "fusion_lat": 0.0, "type": "electric_bike", "name": "d4dc7748727f94a848d2c71419e9d208", "is_disabled": 0, "rental_uris": {"ios": "https://dc.lft.to/lastmile_qr_scan", "android": "https://dc.lft.to/lastmile_qr_scan"}, "is_reserved": 0}, {"lon": -77.07004033333334, "bike_id": "518ae9a70569a1d4443a0aef6a0de693", "lat": 38.958482833333335, "fusion_lon": 0.0, "fusion_lat": 0.0, "type": "electric_scooter", "name": "518ae9a70569a1d4443a0aef6a0de693", "is_disabled": 0, "rental_uris": {"ios": "https://dc.lft.to/lastmile_qr_scan", "android": "https://dc.lft.to/lastmile_qr_scan"}, "is_reserved": 0}, {"lon": -77.02492183333334, "bike_id": "d50cef236cfb52bab0a9be024f0af334", "lat": 38.941807833333336, "fusion_lon": 0.0, "fusion_lat": 0.0, "type": "electric_scooter", "name": "d50cef236cfb52bab0a9be024f0af334", "is_disabled": 0, "rental_uris": {"ios": "https://dc.lft.to/lastmile_qr_scan", "android": "https://dc.lft.to/lastmile_qr_scan"}, "is_reserved": 0}, {"lon": -76.97858233333334, "bike_id": "6067d25d697c60dd6b4e53af8834ffff", "lat": 38.92556183333333, "fusion_lon": 0.0, "fusion_lat": 0.0, "type": "electric_bike", "name": "6067d25d697c60dd6b4e53af8834ffff", "is_disabled": 0, "rental_uris": {"ios": "https://dc.lft.to/lastmile_qr_scan", "android": "https://dc.lft.to/lastmile_qr_scan"}, "is_reserved": 0}, {"lon": -77.0057935, "bike_id": "954d82c7fbfc2996ef46c2ae7c66242a", "lat": 38.83589033333333, "fusion_lon": 0.0, "fusion_lat": 0.0, "type": "electric_scooter", "name": "954d82c7fbfc2996ef46c2ae7c66242a", "is_disabled": 0, "rental_uris": {"ios": "https://dc.lft.to/lastmile_qr_scan", "android": "https://dc.lft.to/lastmile_qr_scan"}, "is_reserved": 0}, {"lon": -76.94887983333334, "bike_id": "2ebdc2b5454092edaf846ca8b2757342", "lat": 38.89543, "fusion_lon": 0.0, "fusion_lat": 0.0, "type": "electric_scooter", "name": "2ebdc2b5454092edaf846ca8b2757342", "is_disabled": 0, "rental_uris": {"ios": "https://dc.lft.to/lastmile_qr_scan", "android": "https://dc.lft.to/lastmile_qr_scan"}, "is_reserved": 0}, {"lon": -77.0525125, "bike_id": "f9cc6614da021567a78b5cc68a84782f", "lat": 38.923767, "fusion_lon": 0.0, "fusion_lat": 0.0, "type": "electric_scooter", "name": "f9cc6614da021567a78b5cc68a84782f", "is_disabled": 0, "rental_uris": {"ios": "https://dc.lft.to/lastmile_qr_scan", "android": "https://dc.lft.to/lastmile_qr_scan"}, "is_reserved": 0}, {"lon": -77.0121695, "bike_id": "1110b9da1046534cbe2d4a1fa018399e", "lat": 38.87090233333333, "fusion_lon": 0.0, "fusion_lat": 0.0, "type": "electric_bike", "name": "1110b9da1046534cbe2d4a1fa018399e", "is_disabled": 0, "rental_uris": {"ios": "https://dc.lft.to/lastmile_qr_scan", "android": "https://dc.lft.to/lastmile_qr_scan"}, "is_reserved": 0}, {"lon": -77.03939966666667, "bike_id": "d20c50872ec622afb2d3a81f05bd0bf3", "lat": 38.900770333333334, "fusion_lon": 0.0, "fusion_lat": 0.0, "type": "electric_scooter", "name": "d20c50872ec622afb2d3a81f05bd0bf3", "is_disabled": 0, "rental_uris": {"ios": "https://dc.lft.to/lastmile_qr_scan", "android": "https://dc.lft.to/lastmile_qr_scan"}, "is_reserved": 0}, {"lon": -77.02439216666667, "bike_id": "327fff0b7356b534bbcb3069f38e2d3f", "lat": 38.91689483333333, "fusion_lon": 0.0, "fusion_lat": 0.0, "type": "electric_scooter", "name": "327fff0b7356b534bbcb3069f38e2d3f", "is_disabled": 0, "rental_uris": {"ios": "https://dc.lft.to/lastmile_qr_scan", "android": "https://dc.lft.to/lastmile_qr_scan"}, "is_reserved": 0}, {"lon": -76.9937895, "bike_id": "e3b9a1c794686b23fd85fe975b47a499", "lat": 38.971815, "fusion_lon": 0.0, "fusion_lat": 0.0, "type": "electric_bike", "name": "e3b9a1c794686b23fd85fe975b47a499", "is_disabled": 0, "rental_uris": {"ios": "https://dc.lft.to/lastmile_qr_scan", "android": "https://dc.lft.to/lastmile_qr_scan"}, "is_reserved": 0}, {"lon": -76.98942583333333, "bike_id": "9212ba5ce83a857a25473b996f08b17c", "lat": 38.864857666666666, "fusion_lon": 0.0, "fusion_lat": 0.0, "type": "electric_scooter", "name": "9212ba5ce83a857a25473b996f08b17c", "is_disabled": 0, "rental_uris": {"ios": "https://dc.lft.to/lastmile_qr_scan", "android": "https://dc.lft.to/lastmile_qr_scan"}, "is_reserved": 0}, {"lon": -77.084903, "bike_id": "cec5b9fdd7df88994abf46ed4dc413d9", "lat": 38.84846316666667, "fusion_lon": 0.0, "fusion_lat": 0.0, "type": "electric_bike", "name": "cec5b9fdd7df88994abf46ed4dc413d9", "is_disabled": 0, "rental_uris": {"ios": "https://dc.lft.to/lastmile_qr_scan", "android": "https://dc.lft.to/lastmile_qr_scan"}, "is_reserved": 0}, {"lon": -77.03995316666666, "bike_id": "90c3511d3c5575fb4167ed6003ee64dc", "lat": 38.93436333333333, "fusion_lon": 0.0, "fusion_lat": 0.0, "type": "electric_scooter", "name": "90c3511d3c5575fb4167ed6003ee64dc", "is_disabled": 0, "rental_uris": {"ios": "https://dc.lft.to/lastmile_qr_scan", "android": "https://dc.lft.to/lastmile_qr_scan"}, "is_reserved": 0}, {"lon": -76.97396666666667, "bike_id": "a68a84ce6623d0d1db2dba993b108056", "lat": 38.90299516666666, "fusion_lon": 0.0, "fusion_lat": 0.0, "type": "electric_scooter", "name": "a68a84ce6623d0d1db2dba993b108056", "is_disabled": 0, "rental_uris": {"ios": "https://dc.lft.to/lastmile_qr_scan", "android": "https://dc.lft.to/lastmile_qr_scan"}, "is_reserved": 0}, {"lon": -77.02387283333333, "bike_id": "6cbb9e930a92a1c35ce9dfd81ad8665d", "lat": 38.90950933333333, "fusion_lon": 0.0, "fusion_lat": 0.0, "type": "electric_scooter", "name": "6cbb9e930a92a1c35ce9dfd81ad8665d", "is_disabled": 0, "rental_uris": {"ios": "https://dc.lft.to/lastmile_qr_scan", "android": "https://dc.lft.to/lastmile_qr_scan"}, "is_reserved": 0}, {"lon": -77.03048, "bike_id": "865684e2454f0e909fbc7b612f292d1f", "lat": 38.884161166666665, "fusion_lon": 0.0, "fusion_lat": 0.0, "type": "electric_scooter", "name": "865684e2454f0e909fbc7b612f292d1f", "is_disabled": 0, "rental_uris": {"ios": "https://dc.lft.to/lastmile_qr_scan", "android": "https://dc.lft.to/lastmile_qr_scan"}, "is_reserved": 0}, {"lon": -77.03186516666666, "bike_id": "e9af85f7f79f830aba98ce0a7c29264f", "lat": 38.915812333333335, "fusion_lon": 0.0, "fusion_lat": 0.0, "type": "electric_scooter", "name": "e9af85f7f79f830aba98ce0a7c29264f", "is_disabled": 0, "rental_uris": {"ios": "https://dc.lft.to/lastmile_qr_scan", "android": "https://dc.lft.to/lastmile_qr_scan"}, "is_reserved": 0}, {"lon": -77.03936066666667, "bike_id": "4beddade81c984d24aaaa5d773e893fe", "lat": 38.91562716666667, "fusion_lon": 0.0, "fusion_lat": 0.0, "type": "electric_scooter", "name": "4beddade81c984d24aaaa5d773e893fe", "is_disabled": 0, "rental_uris": {"ios": "https://dc.lft.to/lastmile_qr_scan", "android": "https://dc.lft.to/lastmile_qr_scan"}, "is_reserved": 0}, {"lon": -77.0070905, "bike_id": "c1d544c6ef72739d9774fc34ed00ba1e", "lat": 38.90546366666667, "fusion_lon": 0.0, "fusion_lat": 0.0, "type": "electric_scooter", "name": "c1d544c6ef72739d9774fc34ed00ba1e", "is_disabled": 0, "rental_uris": {"ios": "https://dc.lft.to/lastmile_qr_scan", "android": "https://dc.lft.to/lastmile_qr_scan"}, "is_reserved": 0}, {"lon": -77.03036366666667, "bike_id": "2076d35cdfc6d6dd7395fc1e81138356", "lat": 38.937161333333336, "fusion_lon": 0.0, "fusion_lat": 0.0, "type": "electric_scooter", "name": "2076d35cdfc6d6dd7395fc1e81138356", "is_disabled": 0, "rental_uris": {"ios": "https://dc.lft.to/lastmile_qr_scan", "android": "https://dc.lft.to/lastmile_qr_scan"}, "is_reserved": 0}, {"lon": -77.07413333333334, "bike_id": "8da8611a5669f758b36142a6b7f616b4", "lat": 38.9288955, "fusion_lon": 0.0, "fusion_lat": 0.0, "type": "electric_scooter", "name": "8da8611a5669f758b36142a6b7f616b4", "is_disabled": 0, "rental_uris": {"ios": "https://dc.lft.to/lastmile_qr_scan", "android": "https://dc.lft.to/lastmile_qr_scan"}, "is_reserved": 0}, {"lon": -77.0410555, "bike_id": "52a826a9b09cd46b335836ec264466a8", "lat": 38.905201166666664, "fusion_lon": 0.0, "fusion_lat": 0.0, "type": "electric_scooter", "name": "52a826a9b09cd46b335836ec264466a8", "is_disabled": 0, "rental_uris": {"ios": "https://dc.lft.to/lastmile_qr_scan", "android": "https://dc.lft.to/lastmile_qr_scan"}, "is_reserved": 0}, {"lon": -76.98061666666666, "bike_id": "c4ed7043ec572ed02e9b66f3a82cd7b7", "lat": 38.884953333333335, "fusion_lon": 0.0, "fusion_lat": 0.0, "type": "electric_scooter", "name": "c4ed7043ec572ed02e9b66f3a82cd7b7", "is_disabled": 0, "rental_uris": {"ios": "https://dc.lft.to/lastmile_qr_scan", "android": "https://dc.lft.to/lastmile_qr_scan"}, "is_reserved": 0}, {"lon": -77.00325383333333, "bike_id": "b7763aba99eff4d96dbee207f7ef6ac2", "lat": 38.91886783333333, "fusion_lon": 0.0, "fusion_lat": 0.0, "type": "electric_scooter", "name": "b7763aba99eff4d96dbee207f7ef6ac2", "is_disabled": 0, "rental_uris": {"ios": "https://dc.lft.to/lastmile_qr_scan", "android": "https://dc.lft.to/lastmile_qr_scan"}, "is_reserved": 0}, {"lon": -76.94583933333334, "bike_id": "aa51a6334b0f98e8ce2b636197698a75", "lat": 38.901697, "fusion_lon": 0.0, "fusion_lat": 0.0, "type": "electric_scooter", "name": "aa51a6334b0f98e8ce2b636197698a75", "is_disabled": 0, "rental_uris": {"ios": "https://dc.lft.to/lastmile_qr_scan", "android": "https://dc.lft.to/lastmile_qr_scan"}, "is_reserved": 0}, {"lon": -77.08805816666667, "bike_id": "07bb7983092b7d39e92eba3506139623", "lat": 38.91171333333333, "fusion_lon": 0.0, "fusion_lat": 0.0, "type": "electric_scooter", "name": "07bb7983092b7d39e92eba3506139623", "is_disabled": 0, "rental_uris": {"ios": "https://dc.lft.to/lastmile_qr_scan", "android": "https://dc.lft.to/lastmile_qr_scan"}, "is_reserved": 0}, {"lon": -76.99711716666667, "bike_id": "1521f5c2acc6caf9724d73a8cb674783", "lat": 38.908204166666664, "fusion_lon": 0.0, "fusion_lat": 0.0, "type": "electric_scooter", "name": "1521f5c2acc6caf9724d73a8cb674783", "is_disabled": 0, "rental_uris": {"ios": "https://dc.lft.to/lastmile_qr_scan", "android": "https://dc.lft.to/lastmile_qr_scan"}, "is_reserved": 0}, {"lon": -77.01275616666666, "bike_id": "56acc930433d2cd7cff35912e4171a3b", "lat": 38.915653166666665, "fusion_lon": 0.0, "fusion_lat": 0.0, "type": "electric_scooter", "name": "56acc930433d2cd7cff35912e4171a3b", "is_disabled": 0, "rental_uris": {"ios": "https://dc.lft.to/lastmile_qr_scan", "android": "https://dc.lft.to/lastmile_qr_scan"}, "is_reserved": 0}, {"lon": -76.9977975, "bike_id": "2402398f3b84eb996a9ce753e5e29f45", "lat": 38.84430316666667, "fusion_lon": 0.0, "fusion_lat": 0.0, "type": "electric_scooter", "name": "2402398f3b84eb996a9ce753e5e29f45", "is_disabled": 0, "rental_uris": {"ios": "https://dc.lft.to/lastmile_qr_scan", "android": "https://dc.lft.to/lastmile_qr_scan"}, "is_reserved": 0}, {"lon": -76.9928555, "bike_id": "3b3adc5ce74734ec50938f4ef30107e9", "lat": 38.88482833333333, "fusion_lon": 0.0, "fusion_lat": 0.0, "type": "electric_scooter", "name": "3b3adc5ce74734ec50938f4ef30107e9", "is_disabled": 0, "rental_uris": {"ios": "https://dc.lft.to/lastmile_qr_scan", "android": "https://dc.lft.to/lastmile_qr_scan"}, "is_reserved": 0}, {"lon": -77.02713266666666, "bike_id": "3b1892b3a00b90752a3bb864cddc3d60", "lat": 38.90074466666667, "fusion_lon": 0.0, "fusion_lat": 0.0, "type": "electric_scooter", "name": "3b1892b3a00b90752a3bb864cddc3d60", "is_disabled": 0, "rental_uris": {"ios": "https://dc.lft.to/lastmile_qr_scan", "android": "https://dc.lft.to/lastmile_qr_scan"}, "is_reserved": 0}, {"lon": -76.99184066666666, "bike_id": "29c4aba94ee951fa51ff0919d882f553", "lat": 38.882741833333334, "fusion_lon": 0.0, "fusion_lat": 0.0, "type": "electric_scooter", "name": "29c4aba94ee951fa51ff0919d882f553", "is_disabled": 0, "rental_uris": {"ios": "https://dc.lft.to/lastmile_qr_scan", "android": "https://dc.lft.to/lastmile_qr_scan"}, "is_reserved": 0}, {"lon": -77.0218985, "bike_id": "37b6d07de36384572ef3f93de447a790", "lat": 38.9198795, "fusion_lon": 0.0, "fusion_lat": 0.0, "type": "electric_scooter", "name": "37b6d07de36384572ef3f93de447a790", "is_disabled": 0, "rental_uris": {"ios": "https://dc.lft.to/lastmile_qr_scan", "android": "https://dc.lft.to/lastmile_qr_scan"}, "is_reserved": 0}, {"lon": -77.03391233333333, "bike_id": "cc9a86a92ec513ec4699b0fcaceebb8d", "lat": 38.90982616666667, "fusion_lon": 0.0, "fusion_lat": 0.0, "type": "electric_scooter", "name": "cc9a86a92ec513ec4699b0fcaceebb8d", "is_disabled": 0, "rental_uris": {"ios": "https://dc.lft.to/lastmile_qr_scan", "android": "https://dc.lft.to/lastmile_qr_scan"}, "is_reserved": 0}, {"lon": -77.02287516666667, "bike_id": "e003ce0e7e7028cb6a00a441c505c08e", "lat": 38.909075333333334, "fusion_lon": 0.0, "fusion_lat": 0.0, "type": "electric_scooter", "name": "e003ce0e7e7028cb6a00a441c505c08e", "is_disabled": 0, "rental_uris": {"ios": "https://dc.lft.to/lastmile_qr_scan", "android": "https://dc.lft.to/lastmile_qr_scan"}, "is_reserved": 0}, {"lon": -77.04246916666666, "bike_id": "adc433bf4d53e7ed1217df57db96489e", "lat": 38.922182166666666, "fusion_lon": 0.0, "fusion_lat": 0.0, "type": "electric_scooter", "name": "adc433bf4d53e7ed1217df57db96489e", "is_disabled": 0, "rental_uris": {"ios": "https://dc.lft.to/lastmile_qr_scan", "android": "https://dc.lft.to/lastmile_qr_scan"}, "is_reserved": 0}, {"lon": -77.02212583333333, "bike_id": "d9d06cecbebeb8f8f400ab3303d3a696", "lat": 38.899645, "fusion_lon": 0.0, "fusion_lat": 0.0, "type": "electric_scooter", "name": "d9d06cecbebeb8f8f400ab3303d3a696", "is_disabled": 0, "rental_uris": {"ios": "https://dc.lft.to/lastmile_qr_scan", "android": "https://dc.lft.to/lastmile_qr_scan"}, "is_reserved": 0}, {"lon": -76.9917245, "bike_id": "b916177ea7701bb0451546ab968bdadb", "lat": 38.900127499999996, "fusion_lon": 0.0, "fusion_lat": 0.0, "type": "electric_scooter", "name": "b916177ea7701bb0451546ab968bdadb", "is_disabled": 0, "rental_uris": {"ios": "https://dc.lft.to/lastmile_qr_scan", "android": "https://dc.lft.to/lastmile_qr_scan"}, "is_reserved": 0}, {"lon": -77.0235435, "bike_id": "770940749732bdfea2b7b35655243db5", "lat": 38.895885166666666, "fusion_lon": 0.0, "fusion_lat": 0.0, "type": "electric_scooter", "name": "770940749732bdfea2b7b35655243db5", "is_disabled": 0, "rental_uris": {"ios": "https://dc.lft.to/lastmile_qr_scan", "android": "https://dc.lft.to/lastmile_qr_scan"}, "is_reserved": 0}, {"lon": -77.03274466666667, "bike_id": "d2e514e295a9ccf1d1f06ac84b4387cf", "lat": 38.915622666666664, "fusion_lon": 0.0, "fusion_lat": 0.0, "type": "electric_scooter", "name": "d2e514e295a9ccf1d1f06ac84b4387cf", "is_disabled": 0, "rental_uris": {"ios": "https://dc.lft.to/lastmile_qr_scan", "android": "https://dc.lft.to/lastmile_qr_scan"}, "is_reserved": 0}, {"lon": -77.02525816666666, "bike_id": "c883ac926f28f37bfde69f2d1b0ff545", "lat": 38.9328515, "fusion_lon": 0.0, "fusion_lat": 0.0, "type": "electric_scooter", "name": "c883ac926f28f37bfde69f2d1b0ff545", "is_disabled": 0, "rental_uris": {"ios": "https://dc.lft.to/lastmile_qr_scan", "android": "https://dc.lft.to/lastmile_qr_scan"}, "is_reserved": 0}, {"lon": -77.05828116666666, "bike_id": "16a9425a487edc42aa5381b0ccbc52cb", "lat": 38.935411333333334, "fusion_lon": 0.0, "fusion_lat": 0.0, "type": "electric_scooter", "name": "16a9425a487edc42aa5381b0ccbc52cb", "is_disabled": 0, "rental_uris": {"ios": "https://dc.lft.to/lastmile_qr_scan", "android": "https://dc.lft.to/lastmile_qr_scan"}, "is_reserved": 0}, {"lon": -77.006977, "bike_id": "404e6087d4bc27a4c9eb24ea452a2f47", "lat": 38.9054095, "fusion_lon": 0.0, "fusion_lat": 0.0, "type": "electric_scooter", "name": "404e6087d4bc27a4c9eb24ea452a2f47", "is_disabled": 0, "rental_uris": {"ios": "https://dc.lft.to/lastmile_qr_scan", "android": "https://dc.lft.to/lastmile_qr_scan"}, "is_reserved": 0}, {"lon": -76.9814255, "bike_id": "0b765fb9d7c307d92dd750e220223baf", "lat": 38.90565616666667, "fusion_lon": 0.0, "fusion_lat": 0.0, "type": "electric_scooter", "name": "0b765fb9d7c307d92dd750e220223baf", "is_disabled": 0, "rental_uris": {"ios": "https://dc.lft.to/lastmile_qr_scan", "android": "https://dc.lft.to/lastmile_qr_scan"}, "is_reserved": 0}, {"lon": -77.058437, "bike_id": "8b21f63d4c715d9f60930deb662964dd", "lat": 38.905528833333335, "fusion_lon": 0.0, "fusion_lat": 0.0, "type": "electric_scooter", "name": "8b21f63d4c715d9f60930deb662964dd", "is_disabled": 0, "rental_uris": {"ios": "https://dc.lft.to/lastmile_qr_scan", "android": "https://dc.lft.to/lastmile_qr_scan"}, "is_reserved": 0}, {"lon": -76.98335833333333, "bike_id": "96beff29ae18f0d260ea22d773e933bc", "lat": 38.90084683333333, "fusion_lon": 0.0, "fusion_lat": 0.0, "type": "electric_scooter", "name": "96beff29ae18f0d260ea22d773e933bc", "is_disabled": 0, "rental_uris": {"ios": "https://dc.lft.to/lastmile_qr_scan", "android": "https://dc.lft.to/lastmile_qr_scan"}, "is_reserved": 0}, {"lon": -77.088197, "bike_id": "740519a80fc7f1461f6f6028d2473202", "lat": 38.909750333333335, "fusion_lon": 0.0, "fusion_lat": 0.0, "type": "electric_scooter", "name": "740519a80fc7f1461f6f6028d2473202", "is_disabled": 0, "rental_uris": {"ios": "https://dc.lft.to/lastmile_qr_scan", "android": "https://dc.lft.to/lastmile_qr_scan"}, "is_reserved": 0}, {"lon": -76.99267766666667, "bike_id": "0aba991794d4f3c4218e6542773dd3dd", "lat": 38.897696, "fusion_lon": 0.0, "fusion_lat": 0.0, "type": "electric_scooter", "name": "0aba991794d4f3c4218e6542773dd3dd", "is_disabled": 0, "rental_uris": {"ios": "https://dc.lft.to/lastmile_qr_scan", "android": "https://dc.lft.to/lastmile_qr_scan"}, "is_reserved": 0}, {"lon": -77.02159433333334, "bike_id": "a474d7fdacd33cfc64ed1c7f87a0b505", "lat": 38.892166, "fusion_lon": 0.0, "fusion_lat": 0.0, "type": "electric_scooter", "name": "a474d7fdacd33cfc64ed1c7f87a0b505", "is_disabled": 0, "rental_uris": {"ios": "https://dc.lft.to/lastmile_qr_scan", "android": "https://dc.lft.to/lastmile_qr_scan"}, "is_reserved": 0}, {"lon": -77.02142033333334, "bike_id": "5800c12defcbe237d1fc0a3e1efd7e1b", "lat": 38.9245865, "fusion_lon": 0.0, "fusion_lat": 0.0, "type": "electric_scooter", "name": "5800c12defcbe237d1fc0a3e1efd7e1b", "is_disabled": 0, "rental_uris": {"ios": "https://dc.lft.to/lastmile_qr_scan", "android": "https://dc.lft.to/lastmile_qr_scan"}, "is_reserved": 0}, {"lon": -77.01456733333333, "bike_id": "93f953f80f4946913d3b73fcbc9f6eca", "lat": 38.89935933333334, "fusion_lon": 0.0, "fusion_lat": 0.0, "type": "electric_scooter", "name": "93f953f80f4946913d3b73fcbc9f6eca", "is_disabled": 0, "rental_uris": {"ios": "https://dc.lft.to/lastmile_qr_scan", "android": "https://dc.lft.to/lastmile_qr_scan"}, "is_reserved": 0}, {"lon": -77.0235265, "bike_id": "ed34b286edaad654653b2d1e3a1af6f7", "lat": 38.931962, "fusion_lon": 0.0, "fusion_lat": 0.0, "type": "electric_scooter", "name": "ed34b286edaad654653b2d1e3a1af6f7", "is_disabled": 0, "rental_uris": {"ios": "https://dc.lft.to/lastmile_qr_scan", "android": "https://dc.lft.to/lastmile_qr_scan"}, "is_reserved": 0}, {"lon": -77.02362633333334, "bike_id": "e19bcffce30c557e4a12249c7cfaac99", "lat": 38.91964016666667, "fusion_lon": 0.0, "fusion_lat": 0.0, "type": "electric_scooter", "name": "e19bcffce30c557e4a12249c7cfaac99", "is_disabled": 0, "rental_uris": {"ios": "https://dc.lft.to/lastmile_qr_scan", "android": "https://dc.lft.to/lastmile_qr_scan"}, "is_reserved": 0}, {"lon": -76.94153183333333, "bike_id": "bccfe32dfe2158677da7888ff6c472d6", "lat": 38.879045166666664, "fusion_lon": 0.0, "fusion_lat": 0.0, "type": "electric_scooter", "name": "bccfe32dfe2158677da7888ff6c472d6", "is_disabled": 0, "rental_uris": {"ios": "https://dc.lft.to/lastmile_qr_scan", "android": "https://dc.lft.to/lastmile_qr_scan"}, "is_reserved": 0}, {"lon": -77.05228633333333, "bike_id": "2c9fbcc6eea7795d2bc31c739fe1672d", "lat": 38.923591, "fusion_lon": 0.0, "fusion_lat": 0.0, "type": "electric_scooter", "name": "2c9fbcc6eea7795d2bc31c739fe1672d", "is_disabled": 0, "rental_uris": {"ios": "https://dc.lft.to/lastmile_qr_scan", "android": "https://dc.lft.to/lastmile_qr_scan"}, "is_reserved": 0}, {"lon": -77.00716183333333, "bike_id": "a694349e84f69b694af7bc98bc578b95", "lat": 38.88493233333333, "fusion_lon": 0.0, "fusion_lat": 0.0, "type": "electric_scooter", "name": "a694349e84f69b694af7bc98bc578b95", "is_disabled": 0, "rental_uris": {"ios": "https://dc.lft.to/lastmile_qr_scan", "android": "https://dc.lft.to/lastmile_qr_scan"}, "is_reserved": 0}, {"lon": -77.04606333333334, "bike_id": "f38e58663a4a674a370e22c0f78041ed", "lat": 38.92178716666667, "fusion_lon": 0.0, "fusion_lat": 0.0, "type": "electric_scooter", "name": "f38e58663a4a674a370e22c0f78041ed", "is_disabled": 0, "rental_uris": {"ios": "https://dc.lft.to/lastmile_qr_scan", "android": "https://dc.lft.to/lastmile_qr_scan"}, "is_reserved": 0}, {"lon": -77.03567, "bike_id": "fdba4259d6f9391d4dded0f247c0bf19", "lat": 38.90489016666667, "fusion_lon": 0.0, "fusion_lat": 0.0, "type": "electric_scooter", "name": "fdba4259d6f9391d4dded0f247c0bf19", "is_disabled": 0, "rental_uris": {"ios": "https://dc.lft.to/lastmile_qr_scan", "android": "https://dc.lft.to/lastmile_qr_scan"}, "is_reserved": 0}, {"lon": -76.99382383333334, "bike_id": "00edd83ff205c4ab850ef7bbc0ffac16", "lat": 38.92393666666667, "fusion_lon": 0.0, "fusion_lat": 0.0, "type": "electric_scooter", "name": "00edd83ff205c4ab850ef7bbc0ffac16", "is_disabled": 0, "rental_uris": {"ios": "https://dc.lft.to/lastmile_qr_scan", "android": "https://dc.lft.to/lastmile_qr_scan"}, "is_reserved": 0}, {"lon": -77.0422565, "bike_id": "3c2f41342fc6f37a38ed31f01761ec83", "lat": 38.9212495, "fusion_lon": 0.0, "fusion_lat": 0.0, "type": "electric_scooter", "name": "3c2f41342fc6f37a38ed31f01761ec83", "is_disabled": 0, "rental_uris": {"ios": "https://dc.lft.to/lastmile_qr_scan", "android": "https://dc.lft.to/lastmile_qr_scan"}, "is_reserved": 0}, {"lon": -77.00372466666667, "bike_id": "e9d67a2e34790b237451a422529165ed", "lat": 38.897278166666666, "fusion_lon": 0.0, "fusion_lat": 0.0, "type": "electric_scooter", "name": "e9d67a2e34790b237451a422529165ed", "is_disabled": 0, "rental_uris": {"ios": "https://dc.lft.to/lastmile_qr_scan", "android": "https://dc.lft.to/lastmile_qr_scan"}, "is_reserved": 0}, {"lon": -77.02469883333333, "bike_id": "b8735b359c7ab80710f0492cee9ee1eb", "lat": 38.90649766666667, "fusion_lon": 0.0, "fusion_lat": 0.0, "type": "electric_scooter", "name": "b8735b359c7ab80710f0492cee9ee1eb", "is_disabled": 0, "rental_uris": {"ios": "https://dc.lft.to/lastmile_qr_scan", "android": "https://dc.lft.to/lastmile_qr_scan"}, "is_reserved": 0}, {"lon": -76.98843283333333, "bike_id": "2d18f922d4ff41c5291e305a09408f5a", "lat": 38.90124433333333, "fusion_lon": 0.0, "fusion_lat": 0.0, "type": "electric_scooter", "name": "2d18f922d4ff41c5291e305a09408f5a", "is_disabled": 0, "rental_uris": {"ios": "https://dc.lft.to/lastmile_qr_scan", "android": "https://dc.lft.to/lastmile_qr_scan"}, "is_reserved": 0}, {"lon": -77.03183466666667, "bike_id": "ac550c2e93cf6c0448c39d42d89c1253", "lat": 38.91632633333333, "fusion_lon": 0.0, "fusion_lat": 0.0, "type": "electric_scooter", "name": "ac550c2e93cf6c0448c39d42d89c1253", "is_disabled": 0, "rental_uris": {"ios": "https://dc.lft.to/lastmile_qr_scan", "android": "https://dc.lft.to/lastmile_qr_scan"}, "is_reserved": 0}, {"lon": -77.008955, "bike_id": "b5746a3ccc4c38f8bb4c3100616564c6", "lat": 38.9248445, "fusion_lon": 0.0, "fusion_lat": 0.0, "type": "electric_scooter", "name": "b5746a3ccc4c38f8bb4c3100616564c6", "is_disabled": 0, "rental_uris": {"ios": "https://dc.lft.to/lastmile_qr_scan", "android": "https://dc.lft.to/lastmile_qr_scan"}, "is_reserved": 0}, {"lon": -77.04344716666667, "bike_id": "7412d31d90450c3c79e8bd364edf7bb4", "lat": 38.92963833333334, "fusion_lon": 0.0, "fusion_lat": 0.0, "type": "electric_scooter", "name": "7412d31d90450c3c79e8bd364edf7bb4", "is_disabled": 0, "rental_uris": {"ios": "https://dc.lft.to/lastmile_qr_scan", "android": "https://dc.lft.to/lastmile_qr_scan"}, "is_reserved": 0}, {"lon": -77.03190733333334, "bike_id": "9316a7a5ce8441330de366215a25a3ae", "lat": 38.91343216666667, "fusion_lon": 0.0, "fusion_lat": 0.0, "type": "electric_scooter", "name": "9316a7a5ce8441330de366215a25a3ae", "is_disabled": 0, "rental_uris": {"ios": "https://dc.lft.to/lastmile_qr_scan", "android": "https://dc.lft.to/lastmile_qr_scan"}, "is_reserved": 0}, {"lon": -77.023931, "bike_id": "ba47aa8c0c94ce05dee85896d3da55aa", "lat": 38.9190085, "fusion_lon": 0.0, "fusion_lat": 0.0, "type": "electric_scooter", "name": "ba47aa8c0c94ce05dee85896d3da55aa", "is_disabled": 0, "rental_uris": {"ios": "https://dc.lft.to/lastmile_qr_scan", "android": "https://dc.lft.to/lastmile_qr_scan"}, "is_reserved": 0}, {"lon": -77.04231316666667, "bike_id": "30e46299e95551393acafd0333f64f33", "lat": 38.921846333333335, "fusion_lon": 0.0, "fusion_lat": 0.0, "type": "electric_scooter", "name": "30e46299e95551393acafd0333f64f33", "is_disabled": 0, "rental_uris": {"ios": "https://dc.lft.to/lastmile_qr_scan", "android": "https://dc.lft.to/lastmile_qr_scan"}, "is_reserved": 0}, {"lon": -76.98181616666666, "bike_id": "73dbc302faa6910af2c7d47e44b4985c", "lat": 38.89577333333333, "fusion_lon": 0.0, "fusion_lat": 0.0, "type": "electric_scooter", "name": "73dbc302faa6910af2c7d47e44b4985c", "is_disabled": 0, "rental_uris": {"ios": "https://dc.lft.to/lastmile_qr_scan", "android": "https://dc.lft.to/lastmile_qr_scan"}, "is_reserved": 0}, {"lon": -77.0385335, "bike_id": "12c8c62d1c5aca382504f457c700950b", "lat": 38.915766, "fusion_lon": 0.0, "fusion_lat": 0.0, "type": "electric_scooter", "name": "12c8c62d1c5aca382504f457c700950b", "is_disabled": 0, "rental_uris": {"ios": "https://dc.lft.to/lastmile_qr_scan", "android": "https://dc.lft.to/lastmile_qr_scan"}, "is_reserved": 0}, {"lon": -77.03169983333333, "bike_id": "a56535374bf1877e77d5566092273815", "lat": 38.9164125, "fusion_lon": 0.0, "fusion_lat": 0.0, "type": "electric_scooter", "name": "a56535374bf1877e77d5566092273815", "is_disabled": 0, "rental_uris": {"ios": "https://dc.lft.to/lastmile_qr_scan", "android": "https://dc.lft.to/lastmile_qr_scan"}, "is_reserved": 0}, {"lon": -77.0229195, "bike_id": "3a550a3bb31a60d0dd614874b36d44ba", "lat": 38.90975266666667, "fusion_lon": 0.0, "fusion_lat": 0.0, "type": "electric_scooter", "name": "3a550a3bb31a60d0dd614874b36d44ba", "is_disabled": 0, "rental_uris": {"ios": "https://dc.lft.to/lastmile_qr_scan", "android": "https://dc.lft.to/lastmile_qr_scan"}, "is_reserved": 0}, {"lon": -76.93369116666666, "bike_id": "5fdd85b794a7ccd3cca44589fbb6443f", "lat": 38.899119, "fusion_lon": 0.0, "fusion_lat": 0.0, "type": "electric_scooter", "name": "5fdd85b794a7ccd3cca44589fbb6443f", "is_disabled": 0, "rental_uris": {"ios": "https://dc.lft.to/lastmile_qr_scan", "android": "https://dc.lft.to/lastmile_qr_scan"}, "is_reserved": 0}, {"lon": -77.0332715, "bike_id": "7000918af238bf55e0be845875768401", "lat": 38.89734633333333, "fusion_lon": 0.0, "fusion_lat": 0.0, "type": "electric_scooter", "name": "7000918af238bf55e0be845875768401", "is_disabled": 0, "rental_uris": {"ios": "https://dc.lft.to/lastmile_qr_scan", "android": "https://dc.lft.to/lastmile_qr_scan"}, "is_reserved": 0}, {"lon": -77.03351166666667, "bike_id": "a1c3f77de94f196f6fa2090260a7d16b", "lat": 38.89615766666667, "fusion_lon": 0.0, "fusion_lat": 0.0, "type": "electric_scooter", "name": "a1c3f77de94f196f6fa2090260a7d16b", "is_disabled": 0, "rental_uris": {"ios": "https://dc.lft.to/lastmile_qr_scan", "android": "https://dc.lft.to/lastmile_qr_scan"}, "is_reserved": 0}, {"lon": -77.02613933333333, "bike_id": "bff07301b53614d426955fb496ae2223", "lat": 38.929829833333336, "fusion_lon": 0.0, "fusion_lat": 0.0, "type": "electric_scooter", "name": "bff07301b53614d426955fb496ae2223", "is_disabled": 0, "rental_uris": {"ios": "https://dc.lft.to/lastmile_qr_scan", "android": "https://dc.lft.to/lastmile_qr_scan"}, "is_reserved": 0}, {"lon": -77.028165, "bike_id": "d7d904533bd336bf7bb578c179ffc9f8", "lat": 38.96140416666667, "fusion_lon": 0.0, "fusion_lat": 0.0, "type": "electric_scooter", "name": "d7d904533bd336bf7bb578c179ffc9f8", "is_disabled": 0, "rental_uris": {"ios": "https://dc.lft.to/lastmile_qr_scan", "android": "https://dc.lft.to/lastmile_qr_scan"}, "is_reserved": 0}, {"lon": -77.024761, "bike_id": "4f03558dc17dd0d083eaf57562eeb3f5", "lat": 38.919870833333334, "fusion_lon": 0.0, "fusion_lat": 0.0, "type": "electric_scooter", "name": "4f03558dc17dd0d083eaf57562eeb3f5", "is_disabled": 0, "rental_uris": {"ios": "https://dc.lft.to/lastmile_qr_scan", "android": "https://dc.lft.to/lastmile_qr_scan"}, "is_reserved": 0}, {"lon": -77.04599516666667, "bike_id": "2f20b0c43dc1069a7e221a5d9910e1fb", "lat": 38.92183416666666, "fusion_lon": 0.0, "fusion_lat": 0.0, "type": "electric_scooter", "name": "2f20b0c43dc1069a7e221a5d9910e1fb", "is_disabled": 0, "rental_uris": {"ios": "https://dc.lft.to/lastmile_qr_scan", "android": "https://dc.lft.to/lastmile_qr_scan"}, "is_reserved": 0}, {"lon": -77.0237175, "bike_id": "920d3a2891bf2870bb349febb7bc790a", "lat": 38.902989833333336, "fusion_lon": 0.0, "fusion_lat": 0.0, "type": "electric_scooter", "name": "920d3a2891bf2870bb349febb7bc790a", "is_disabled": 0, "rental_uris": {"ios": "https://dc.lft.to/lastmile_qr_scan", "android": "https://dc.lft.to/lastmile_qr_scan"}, "is_reserved": 0}, {"lon": -77.02855183333334, "bike_id": "48595ebe5d7e764655311b25d135f11c", "lat": 38.9170185, "fusion_lon": 0.0, "fusion_lat": 0.0, "type": "electric_scooter", "name": "48595ebe5d7e764655311b25d135f11c", "is_disabled": 0, "rental_uris": {"ios": "https://dc.lft.to/lastmile_qr_scan", "android": "https://dc.lft.to/lastmile_qr_scan"}, "is_reserved": 0}, {"lon": -77.05119583333334, "bike_id": "a01b976c44384294c5ce87d7a200667f", "lat": 38.9229935, "fusion_lon": 0.0, "fusion_lat": 0.0, "type": "electric_scooter", "name": "a01b976c44384294c5ce87d7a200667f", "is_disabled": 0, "rental_uris": {"ios": "https://dc.lft.to/lastmile_qr_scan", "android": "https://dc.lft.to/lastmile_qr_scan"}, "is_reserved": 0}, {"lon": -77.05228716666667, "bike_id": "315bca24500603da9ca3243dcb5f2ed4", "lat": 38.923601, "fusion_lon": 0.0, "fusion_lat": 0.0, "type": "electric_scooter", "name": "315bca24500603da9ca3243dcb5f2ed4", "is_disabled": 0, "rental_uris": {"ios": "https://dc.lft.to/lastmile_qr_scan", "android": "https://dc.lft.to/lastmile_qr_scan"}, "is_reserved": 0}, {"lon": -77.00645783333333, "bike_id": "d56577647f08fbb74cbfe5eddfa8c641", "lat": 38.880754, "fusion_lon": 0.0, "fusion_lat": 0.0, "type": "electric_scooter", "name": "d56577647f08fbb74cbfe5eddfa8c641", "is_disabled": 0, "rental_uris": {"ios": "https://dc.lft.to/lastmile_qr_scan", "android": "https://dc.lft.to/lastmile_qr_scan"}, "is_reserved": 0}, {"lon": -77.05432166666667, "bike_id": "036830d6733beba7f5eb59bc253923c0", "lat": 38.89792716666667, "fusion_lon": 0.0, "fusion_lat": 0.0, "type": "electric_scooter", "name": "036830d6733beba7f5eb59bc253923c0", "is_disabled": 0, "rental_uris": {"ios": "https://dc.lft.to/lastmile_qr_scan", "android": "https://dc.lft.to/lastmile_qr_scan"}, "is_reserved": 0}, {"lon": -77.03856483333334, "bike_id": "b891ac3b0d6770fc66e818810113ae18", "lat": 38.9157895, "fusion_lon": 0.0, "fusion_lat": 0.0, "type": "electric_scooter", "name": "b891ac3b0d6770fc66e818810113ae18", "is_disabled": 0, "rental_uris": {"ios": "https://dc.lft.to/lastmile_qr_scan", "android": "https://dc.lft.to/lastmile_qr_scan"}, "is_reserved": 0}, {"lon": -77.0540905, "bike_id": "4bd614e32c64c290ccf7f071947dcd5b", "lat": 38.90140566666667, "fusion_lon": 0.0, "fusion_lat": 0.0, "type": "electric_scooter", "name": "4bd614e32c64c290ccf7f071947dcd5b", "is_disabled": 0, "rental_uris": {"ios": "https://dc.lft.to/lastmile_qr_scan", "android": "https://dc.lft.to/lastmile_qr_scan"}, "is_reserved": 0}, {"lon": -77.03203383333333, "bike_id": "130bff67020e91a4ffc8fee8c636c3a1", "lat": 38.94410083333333, "fusion_lon": 0.0, "fusion_lat": 0.0, "type": "electric_scooter", "name": "130bff67020e91a4ffc8fee8c636c3a1", "is_disabled": 0, "rental_uris": {"ios": "https://dc.lft.to/lastmile_qr_scan", "android": "https://dc.lft.to/lastmile_qr_scan"}, "is_reserved": 0}, {"lon": -77.02037966666667, "bike_id": "c65a67ca1c7445e8e6b2fea1af7c5769", "lat": 38.901378666666666, "fusion_lon": 0.0, "fusion_lat": 0.0, "type": "electric_scooter", "name": "c65a67ca1c7445e8e6b2fea1af7c5769", "is_disabled": 0, "rental_uris": {"ios": "https://dc.lft.to/lastmile_qr_scan", "android": "https://dc.lft.to/lastmile_qr_scan"}, "is_reserved": 0}, {"lon": -77.03356016666666, "bike_id": "9d8992cac221ab08216e1a86642ba0d1", "lat": 38.90294216666667, "fusion_lon": 0.0, "fusion_lat": 0.0, "type": "electric_scooter", "name": "9d8992cac221ab08216e1a86642ba0d1", "is_disabled": 0, "rental_uris": {"ios": "https://dc.lft.to/lastmile_qr_scan", "android": "https://dc.lft.to/lastmile_qr_scan"}, "is_reserved": 0}, {"lon": -76.98888116666667, "bike_id": "7faf69302429c1278fc99194a8104232", "lat": 38.86657683333333, "fusion_lon": 0.0, "fusion_lat": 0.0, "type": "electric_scooter", "name": "7faf69302429c1278fc99194a8104232", "is_disabled": 0, "rental_uris": {"ios": "https://dc.lft.to/lastmile_qr_scan", "android": "https://dc.lft.to/lastmile_qr_scan"}, "is_reserved": 0}, {"lon": -77.03768333333333, "bike_id": "7d78e863afdb9a40ca782be6b534b76a", "lat": 38.929424166666664, "fusion_lon": 0.0, "fusion_lat": 0.0, "type": "electric_scooter", "name": "7d78e863afdb9a40ca782be6b534b76a", "is_disabled": 0, "rental_uris": {"ios": "https://dc.lft.to/lastmile_qr_scan", "android": "https://dc.lft.to/lastmile_qr_scan"}, "is_reserved": 0}, {"lon": -77.0004085, "bike_id": "ace70ed8573d27f4e01d6f43b8bcb7f3", "lat": 38.96828883333333, "fusion_lon": 0.0, "fusion_lat": 0.0, "type": "electric_bike", "name": "ace70ed8573d27f4e01d6f43b8bcb7f3", "is_disabled": 0, "rental_uris": {"ios": "https://dc.lft.to/lastmile_qr_scan", "android": "https://dc.lft.to/lastmile_qr_scan"}, "is_reserved": 0}, {"lon": -76.97689566666666, "bike_id": "5d47e939528ffd11d9f82dc85e0dee73", "lat": 38.89620383333333, "fusion_lon": 0.0, "fusion_lat": 0.0, "type": "electric_scooter", "name": "5d47e939528ffd11d9f82dc85e0dee73", "is_disabled": 0, "rental_uris": {"ios": "https://dc.lft.to/lastmile_qr_scan", "android": "https://dc.lft.to/lastmile_qr_scan"}, "is_reserved": 0}, {"lon": -77.04420483333334, "bike_id": "0776c51578dc95018b879ca22d9e3386", "lat": 38.909447166666666, "fusion_lon": 0.0, "fusion_lat": 0.0, "type": "electric_scooter", "name": "0776c51578dc95018b879ca22d9e3386", "is_disabled": 0, "rental_uris": {"ios": "https://dc.lft.to/lastmile_qr_scan", "android": "https://dc.lft.to/lastmile_qr_scan"}, "is_reserved": 0}, {"lon": -77.02158533333333, "bike_id": "fc3ad4f6b3aa35f8fd83f416311973e0", "lat": 38.89305516666667, "fusion_lon": 0.0, "fusion_lat": 0.0, "type": "electric_scooter", "name": "fc3ad4f6b3aa35f8fd83f416311973e0", "is_disabled": 0, "rental_uris": {"ios": "https://dc.lft.to/lastmile_qr_scan", "android": "https://dc.lft.to/lastmile_qr_scan"}, "is_reserved": 0}, {"lon": -76.98656016666666, "bike_id": "ec0537edd2958b5220435d56dd8868e1", "lat": 38.901432166666666, "fusion_lon": 0.0, "fusion_lat": 0.0, "type": "electric_scooter", "name": "ec0537edd2958b5220435d56dd8868e1", "is_disabled": 0, "rental_uris": {"ios": "https://dc.lft.to/lastmile_qr_scan", "android": "https://dc.lft.to/lastmile_qr_scan"}, "is_reserved": 0}, {"lon": -77.054278, "bike_id": "6e4143453771b533b2be57061b700dd1", "lat": 38.92833383333333, "fusion_lon": 0.0, "fusion_lat": 0.0, "type": "electric_scooter", "name": "6e4143453771b533b2be57061b700dd1", "is_disabled": 0, "rental_uris": {"ios": "https://dc.lft.to/lastmile_qr_scan", "android": "https://dc.lft.to/lastmile_qr_scan"}, "is_reserved": 0}, {"lon": -77.02195233333333, "bike_id": "ac94e58b7c8a13c2d3aaeb6f86fc0750", "lat": 38.914843166666664, "fusion_lon": 0.0, "fusion_lat": 0.0, "type": "electric_scooter", "name": "ac94e58b7c8a13c2d3aaeb6f86fc0750", "is_disabled": 0, "rental_uris": {"ios": "https://dc.lft.to/lastmile_qr_scan", "android": "https://dc.lft.to/lastmile_qr_scan"}, "is_reserved": 0}, {"lon": -77.02280833333333, "bike_id": "28c99b6f6370409f77859cc6c3d4984d", "lat": 38.87841, "fusion_lon": 0.0, "fusion_lat": 0.0, "type": "electric_scooter", "name": "28c99b6f6370409f77859cc6c3d4984d", "is_disabled": 0, "rental_uris": {"ios": "https://dc.lft.to/lastmile_qr_scan", "android": "https://dc.lft.to/lastmile_qr_scan"}, "is_reserved": 0}, {"lon": -76.960638, "bike_id": "246c9a30c2f954f2e7cfe7d80793ab6c", "lat": 38.8840575, "fusion_lon": 0.0, "fusion_lat": 0.0, "type": "electric_bike", "name": "246c9a30c2f954f2e7cfe7d80793ab6c", "is_disabled": 0, "rental_uris": {"ios": "https://dc.lft.to/lastmile_qr_scan", "android": "https://dc.lft.to/lastmile_qr_scan"}, "is_reserved": 0}, {"lon": -77.05498083333333, "bike_id": "1d0f60714e16994cd04102570e328c5e", "lat": 38.908415833333336, "fusion_lon": 0.0, "fusion_lat": 0.0, "type": "electric_scooter", "name": "1d0f60714e16994cd04102570e328c5e", "is_disabled": 0, "rental_uris": {"ios": "https://dc.lft.to/lastmile_qr_scan", "android": "https://dc.lft.to/lastmile_qr_scan"}, "is_reserved": 0}, {"lon": -77.00760366666667, "bike_id": "4f3c43c1534f0df91e7d47d3a951853e", "lat": 38.90711233333333, "fusion_lon": 0.0, "fusion_lat": 0.0, "type": "electric_scooter", "name": "4f3c43c1534f0df91e7d47d3a951853e", "is_disabled": 0, "rental_uris": {"ios": "https://dc.lft.to/lastmile_qr_scan", "android": "https://dc.lft.to/lastmile_qr_scan"}, "is_reserved": 0}, {"lon": -76.98711483333334, "bike_id": "60c87841dd36a1ca16667377fae37e33", "lat": 38.86626583333333, "fusion_lon": 0.0, "fusion_lat": 0.0, "type": "electric_scooter", "name": "60c87841dd36a1ca16667377fae37e33", "is_disabled": 0, "rental_uris": {"ios": "https://dc.lft.to/lastmile_qr_scan", "android": "https://dc.lft.to/lastmile_qr_scan"}, "is_reserved": 0}, {"lon": -77.04391133333333, "bike_id": "1cfaa95dba0c9409c14a48c53efd3d9c", "lat": 39.047164333333335, "fusion_lon": 0.0, "fusion_lat": 0.0, "type": "electric_bike", "name": "1cfaa95dba0c9409c14a48c53efd3d9c", "is_disabled": 0, "rental_uris": {"ios": "https://dc.lft.to/lastmile_qr_scan", "android": "https://dc.lft.to/lastmile_qr_scan"}, "is_reserved": 0}, {"lon": -77.03238883333333, "bike_id": "a8b83fc3123126b36da83e695255868b", "lat": 38.92988316666667, "fusion_lon": 0.0, "fusion_lat": 0.0, "type": "electric_scooter", "name": "a8b83fc3123126b36da83e695255868b", "is_disabled": 0, "rental_uris": {"ios": "https://dc.lft.to/lastmile_qr_scan", "android": "https://dc.lft.to/lastmile_qr_scan"}, "is_reserved": 0}, {"lon": -77.062708, "bike_id": "b00d5f852f928dd03e59fd13e68d067e", "lat": 38.90516083333333, "fusion_lon": 0.0, "fusion_lat": 0.0, "type": "electric_scooter", "name": "b00d5f852f928dd03e59fd13e68d067e", "is_disabled": 0, "rental_uris": {"ios": "https://dc.lft.to/lastmile_qr_scan", "android": "https://dc.lft.to/lastmile_qr_scan"}, "is_reserved": 0}, {"lon": -77.02236733333334, "bike_id": "2cab46cf191936ca6b949fb6ff83caf3", "lat": 38.926060666666665, "fusion_lon": 0.0, "fusion_lat": 0.0, "type": "electric_scooter", "name": "2cab46cf191936ca6b949fb6ff83caf3", "is_disabled": 0, "rental_uris": {"ios": "https://dc.lft.to/lastmile_qr_scan", "android": "https://dc.lft.to/lastmile_qr_scan"}, "is_reserved": 0}, {"lon": -77.04408233333334, "bike_id": "8efebf7debbb176fcda48bc7d0479728", "lat": 38.924552, "fusion_lon": 0.0, "fusion_lat": 0.0, "type": "electric_scooter", "name": "8efebf7debbb176fcda48bc7d0479728", "is_disabled": 0, "rental_uris": {"ios": "https://dc.lft.to/lastmile_qr_scan", "android": "https://dc.lft.to/lastmile_qr_scan"}, "is_reserved": 0}, {"lon": -77.04338533333333, "bike_id": "51486e26593f09342308d557fea1507d", "lat": 38.91510816666667, "fusion_lon": 0.0, "fusion_lat": 0.0, "type": "electric_scooter", "name": "51486e26593f09342308d557fea1507d", "is_disabled": 0, "rental_uris": {"ios": "https://dc.lft.to/lastmile_qr_scan", "android": "https://dc.lft.to/lastmile_qr_scan"}, "is_reserved": 0}, {"lon": -77.08205083333333, "bike_id": "f4f378bf87a82332f52998d1ff4e3a23", "lat": 38.93327416666666, "fusion_lon": 0.0, "fusion_lat": 0.0, "type": "electric_bike", "name": "f4f378bf87a82332f52998d1ff4e3a23", "is_disabled": 0, "rental_uris": {"ios": "https://dc.lft.to/lastmile_qr_scan", "android": "https://dc.lft.to/lastmile_qr_scan"}, "is_reserved": 0}, {"lon": -77.04212633333333, "bike_id": "a491f167acd1cc69cce8b2035f56ba52", "lat": 38.921269, "fusion_lon": 0.0, "fusion_lat": 0.0, "type": "electric_scooter", "name": "a491f167acd1cc69cce8b2035f56ba52", "is_disabled": 0, "rental_uris": {"ios": "https://dc.lft.to/lastmile_qr_scan", "android": "https://dc.lft.to/lastmile_qr_scan"}, "is_reserved": 0}, {"lon": -77.03583566666667, "bike_id": "73566c9265ae9cd58fc569b9154c2d8a", "lat": 38.907586333333334, "fusion_lon": 0.0, "fusion_lat": 0.0, "type": "electric_scooter", "name": "73566c9265ae9cd58fc569b9154c2d8a", "is_disabled": 0, "rental_uris": {"ios": "https://dc.lft.to/lastmile_qr_scan", "android": "https://dc.lft.to/lastmile_qr_scan"}, "is_reserved": 0}, {"lon": -76.98921883333334, "bike_id": "5fccc040aaf69e517463cec29e03c361", "lat": 38.85808166666666, "fusion_lon": 0.0, "fusion_lat": 0.0, "type": "electric_scooter", "name": "5fccc040aaf69e517463cec29e03c361", "is_disabled": 0, "rental_uris": {"ios": "https://dc.lft.to/lastmile_qr_scan", "android": "https://dc.lft.to/lastmile_qr_scan"}, "is_reserved": 0}, {"lon": -77.02110033333334, "bike_id": "d96f705ead2fef2dec6e94948f1d9c41", "lat": 38.90603083333333, "fusion_lon": 0.0, "fusion_lat": 0.0, "type": "electric_scooter", "name": "d96f705ead2fef2dec6e94948f1d9c41", "is_disabled": 0, "rental_uris": {"ios": "https://dc.lft.to/lastmile_qr_scan", "android": "https://dc.lft.to/lastmile_qr_scan"}, "is_reserved": 0}, {"lon": -76.99269433333333, "bike_id": "98d39efb25e1ce6611b5fd9776104480", "lat": 38.89952316666667, "fusion_lon": 0.0, "fusion_lat": 0.0, "type": "electric_scooter", "name": "98d39efb25e1ce6611b5fd9776104480", "is_disabled": 0, "rental_uris": {"ios": "https://dc.lft.to/lastmile_qr_scan", "android": "https://dc.lft.to/lastmile_qr_scan"}, "is_reserved": 0}, {"lon": -77.04999983333333, "bike_id": "a8ff489a6e22755740e09fa4462b6719", "lat": 38.89231433333333, "fusion_lon": 0.0, "fusion_lat": 0.0, "type": "electric_scooter", "name": "a8ff489a6e22755740e09fa4462b6719", "is_disabled": 0, "rental_uris": {"ios": "https://dc.lft.to/lastmile_qr_scan", "android": "https://dc.lft.to/lastmile_qr_scan"}, "is_reserved": 0}, {"lon": -77.002133, "bike_id": "e415609409e42108450e2cedb3d60199", "lat": 38.8812825, "fusion_lon": 0.0, "fusion_lat": 0.0, "type": "electric_scooter", "name": "e415609409e42108450e2cedb3d60199", "is_disabled": 0, "rental_uris": {"ios": "https://dc.lft.to/lastmile_qr_scan", "android": "https://dc.lft.to/lastmile_qr_scan"}, "is_reserved": 0}, {"lon": -77.04520866666667, "bike_id": "9c5957165e1bd51b501f965334e840ee", "lat": 38.9097275, "fusion_lon": 0.0, "fusion_lat": 0.0, "type": "electric_scooter", "name": "9c5957165e1bd51b501f965334e840ee", "is_disabled": 0, "rental_uris": {"ios": "https://dc.lft.to/lastmile_qr_scan", "android": "https://dc.lft.to/lastmile_qr_scan"}, "is_reserved": 0}, {"lon": -77.08340616666666, "bike_id": "63c7d4bdb93682f0f3d915c3ebab84e1", "lat": 38.92992566666667, "fusion_lon": 0.0, "fusion_lat": 0.0, "type": "electric_scooter", "name": "63c7d4bdb93682f0f3d915c3ebab84e1", "is_disabled": 0, "rental_uris": {"ios": "https://dc.lft.to/lastmile_qr_scan", "android": "https://dc.lft.to/lastmile_qr_scan"}, "is_reserved": 0}, {"lon": -77.04631783333333, "bike_id": "b2de4d74ccbeaacbc7678cada08b2ad2", "lat": 38.918962666666665, "fusion_lon": 0.0, "fusion_lat": 0.0, "type": "electric_scooter", "name": "b2de4d74ccbeaacbc7678cada08b2ad2", "is_disabled": 0, "rental_uris": {"ios": "https://dc.lft.to/lastmile_qr_scan", "android": "https://dc.lft.to/lastmile_qr_scan"}, "is_reserved": 0}, {"lon": -77.03177016666666, "bike_id": "b1400ee8c263bcca439dc62ea15fb576", "lat": 38.91555816666666, "fusion_lon": 0.0, "fusion_lat": 0.0, "type": "electric_scooter", "name": "b1400ee8c263bcca439dc62ea15fb576", "is_disabled": 0, "rental_uris": {"ios": "https://dc.lft.to/lastmile_qr_scan", "android": "https://dc.lft.to/lastmile_qr_scan"}, "is_reserved": 0}, {"lon": -77.02376433333333, "bike_id": "c3e6e7d946241458b7d13f9810184da8", "lat": 38.92010066666667, "fusion_lon": 0.0, "fusion_lat": 0.0, "type": "electric_scooter", "name": "c3e6e7d946241458b7d13f9810184da8", "is_disabled": 0, "rental_uris": {"ios": "https://dc.lft.to/lastmile_qr_scan", "android": "https://dc.lft.to/lastmile_qr_scan"}, "is_reserved": 0}, {"lon": -76.9829225, "bike_id": "140c121db9cce66fcfe28efd37f2ad23", "lat": 38.900454333333336, "fusion_lon": 0.0, "fusion_lat": 0.0, "type": "electric_scooter", "name": "140c121db9cce66fcfe28efd37f2ad23", "is_disabled": 0, "rental_uris": {"ios": "https://dc.lft.to/lastmile_qr_scan", "android": "https://dc.lft.to/lastmile_qr_scan"}, "is_reserved": 0}, {"lon": -77.04041083333334, "bike_id": "b62137e3279af14e8fabcbca75d25115", "lat": 38.918645833333336, "fusion_lon": 0.0, "fusion_lat": 0.0, "type": "electric_scooter", "name": "b62137e3279af14e8fabcbca75d25115", "is_disabled": 0, "rental_uris": {"ios": "https://dc.lft.to/lastmile_qr_scan", "android": "https://dc.lft.to/lastmile_qr_scan"}, "is_reserved": 0}, {"lon": -77.038603, "bike_id": "8cabe0a9b0ec50e58bea4e2db008a4d7", "lat": 38.91563333333333, "fusion_lon": 0.0, "fusion_lat": 0.0, "type": "electric_scooter", "name": "8cabe0a9b0ec50e58bea4e2db008a4d7", "is_disabled": 0, "rental_uris": {"ios": "https://dc.lft.to/lastmile_qr_scan", "android": "https://dc.lft.to/lastmile_qr_scan"}, "is_reserved": 0}, {"lon": -77.04513433333334, "bike_id": "2feda46f77782fb574a377a3ba94c525", "lat": 38.915917666666665, "fusion_lon": 0.0, "fusion_lat": 0.0, "type": "electric_scooter", "name": "2feda46f77782fb574a377a3ba94c525", "is_disabled": 0, "rental_uris": {"ios": "https://dc.lft.to/lastmile_qr_scan", "android": "https://dc.lft.to/lastmile_qr_scan"}, "is_reserved": 0}, {"lon": -77.030606, "bike_id": "eebb6b1bf013bfc78b9b03862dff584d", "lat": 38.9054575, "fusion_lon": 0.0, "fusion_lat": 0.0, "type": "electric_scooter", "name": "eebb6b1bf013bfc78b9b03862dff584d", "is_disabled": 0, "rental_uris": {"ios": "https://dc.lft.to/lastmile_qr_scan", "android": "https://dc.lft.to/lastmile_qr_scan"}, "is_reserved": 0}, {"lon": -77.12655433333333, "bike_id": "012c1b5c364abb311cd4a92f32db71f1", "lat": 38.81516383333334, "fusion_lon": 0.0, "fusion_lat": 0.0, "type": "electric_bike", "name": "012c1b5c364abb311cd4a92f32db71f1", "is_disabled": 0, "rental_uris": {"ios": "https://dc.lft.to/lastmile_qr_scan", "android": "https://dc.lft.to/lastmile_qr_scan"}, "is_reserved": 0}, {"lon": -76.985482, "bike_id": "9eb2ea424567170512897a67af0ef2fa", "lat": 38.920051, "fusion_lon": 0.0, "fusion_lat": 0.0, "type": "electric_scooter", "name": "9eb2ea424567170512897a67af0ef2fa", "is_disabled": 0, "rental_uris": {"ios": "https://dc.lft.to/lastmile_qr_scan", "android": "https://dc.lft.to/lastmile_qr_scan"}, "is_reserved": 0}, {"lon": -76.9273875, "bike_id": "f7bbeef2744b3c6ce62cc10e708b3c83", "lat": 38.889644833333335, "fusion_lon": 0.0, "fusion_lat": 0.0, "type": "electric_scooter", "name": "f7bbeef2744b3c6ce62cc10e708b3c83", "is_disabled": 0, "rental_uris": {"ios": "https://dc.lft.to/lastmile_qr_scan", "android": "https://dc.lft.to/lastmile_qr_scan"}, "is_reserved": 0}, {"lon": -77.0444655, "bike_id": "ad4f5c5328db0ad328c0bf17fc39234e", "lat": 38.918809, "fusion_lon": 0.0, "fusion_lat": 0.0, "type": "electric_scooter", "name": "ad4f5c5328db0ad328c0bf17fc39234e", "is_disabled": 0, "rental_uris": {"ios": "https://dc.lft.to/lastmile_qr_scan", "android": "https://dc.lft.to/lastmile_qr_scan"}, "is_reserved": 0}, {"lon": -76.93348183333333, "bike_id": "af32093c65b720449f8f53b189f5f0b7", "lat": 38.899246833333336, "fusion_lon": 0.0, "fusion_lat": 0.0, "type": "electric_scooter", "name": "af32093c65b720449f8f53b189f5f0b7", "is_disabled": 0, "rental_uris": {"ios": "https://dc.lft.to/lastmile_qr_scan", "android": "https://dc.lft.to/lastmile_qr_scan"}, "is_reserved": 0}, {"lon": -77.02585533333334, "bike_id": "13bfb98461540f0ba550fd5f114a5e82", "lat": 38.92033416666666, "fusion_lon": 0.0, "fusion_lat": 0.0, "type": "electric_scooter", "name": "13bfb98461540f0ba550fd5f114a5e82", "is_disabled": 0, "rental_uris": {"ios": "https://dc.lft.to/lastmile_qr_scan", "android": "https://dc.lft.to/lastmile_qr_scan"}, "is_reserved": 0}, {"lon": -77.03202266666666, "bike_id": "8dcd76ef8e9436376fa2174016b04345", "lat": 38.9161625, "fusion_lon": 0.0, "fusion_lat": 0.0, "type": "electric_scooter", "name": "8dcd76ef8e9436376fa2174016b04345", "is_disabled": 0, "rental_uris": {"ios": "https://dc.lft.to/lastmile_qr_scan", "android": "https://dc.lft.to/lastmile_qr_scan"}, "is_reserved": 0}, {"lon": -77.04451533333334, "bike_id": "87ca83dba1a21cba3a9e5ed0d1838cb2", "lat": 38.915323, "fusion_lon": 0.0, "fusion_lat": 0.0, "type": "electric_scooter", "name": "87ca83dba1a21cba3a9e5ed0d1838cb2", "is_disabled": 0, "rental_uris": {"ios": "https://dc.lft.to/lastmile_qr_scan", "android": "https://dc.lft.to/lastmile_qr_scan"}, "is_reserved": 0}, {"lon": -77.04663166666667, "bike_id": "f7075a091114da7c89947498a0275d1a", "lat": 38.9045065, "fusion_lon": 0.0, "fusion_lat": 0.0, "type": "electric_scooter", "name": "f7075a091114da7c89947498a0275d1a", "is_disabled": 0, "rental_uris": {"ios": "https://dc.lft.to/lastmile_qr_scan", "android": "https://dc.lft.to/lastmile_qr_scan"}, "is_reserved": 0}, {"lon": -77.027825, "bike_id": "c327378f64e198c651f659912a3723ca", "lat": 38.8922205, "fusion_lon": 0.0, "fusion_lat": 0.0, "type": "electric_scooter", "name": "c327378f64e198c651f659912a3723ca", "is_disabled": 0, "rental_uris": {"ios": "https://dc.lft.to/lastmile_qr_scan", "android": "https://dc.lft.to/lastmile_qr_scan"}, "is_reserved": 0}, {"lon": -77.009474, "bike_id": "95a6ca167ba90b1b8868f0143b455028", "lat": 38.921231166666665, "fusion_lon": 0.0, "fusion_lat": 0.0, "type": "electric_scooter", "name": "95a6ca167ba90b1b8868f0143b455028", "is_disabled": 0, "rental_uris": {"ios": "https://dc.lft.to/lastmile_qr_scan", "android": "https://dc.lft.to/lastmile_qr_scan"}, "is_reserved": 0}, {"lon": -77.04110616666667, "bike_id": "a1fcc72d0588a83d3dc18aa2d4a1e556", "lat": 38.928006833333335, "fusion_lon": 0.0, "fusion_lat": 0.0, "type": "electric_scooter", "name": "a1fcc72d0588a83d3dc18aa2d4a1e556", "is_disabled": 0, "rental_uris": {"ios": "https://dc.lft.to/lastmile_qr_scan", "android": "https://dc.lft.to/lastmile_qr_scan"}, "is_reserved": 0}, {"lon": -77.0353605, "bike_id": "5863776cb16204221249ea7cb925ee8d", "lat": 38.9257155, "fusion_lon": 0.0, "fusion_lat": 0.0, "type": "electric_scooter", "name": "5863776cb16204221249ea7cb925ee8d", "is_disabled": 0, "rental_uris": {"ios": "https://dc.lft.to/lastmile_qr_scan", "android": "https://dc.lft.to/lastmile_qr_scan"}, "is_reserved": 0}, {"lon": -77.00937016666667, "bike_id": "b0f58363efdf790aeff52284304a5f2e", "lat": 38.88313733333333, "fusion_lon": 0.0, "fusion_lat": 0.0, "type": "electric_scooter", "name": "b0f58363efdf790aeff52284304a5f2e", "is_disabled": 0, "rental_uris": {"ios": "https://dc.lft.to/lastmile_qr_scan", "android": "https://dc.lft.to/lastmile_qr_scan"}, "is_reserved": 0}, {"lon": -77.03763116666667, "bike_id": "7f6767a8ec8d8e30c90433877b4c6322", "lat": 38.92010783333333, "fusion_lon": 0.0, "fusion_lat": 0.0, "type": "electric_scooter", "name": "7f6767a8ec8d8e30c90433877b4c6322", "is_disabled": 0, "rental_uris": {"ios": "https://dc.lft.to/lastmile_qr_scan", "android": "https://dc.lft.to/lastmile_qr_scan"}, "is_reserved": 0}, {"lon": -77.00713033333334, "bike_id": "a40d7681d37e107e9b1b75d230dcbc47", "lat": 38.833435, "fusion_lon": 0.0, "fusion_lat": 0.0, "type": "electric_bike", "name": "a40d7681d37e107e9b1b75d230dcbc47", "is_disabled": 0, "rental_uris": {"ios": "https://dc.lft.to/lastmile_qr_scan", "android": "https://dc.lft.to/lastmile_qr_scan"}, "is_reserved": 0}, {"lon": -77.02696416666667, "bike_id": "3909ad54b1554115116b00683ff604d4", "lat": 38.924018, "fusion_lon": 0.0, "fusion_lat": 0.0, "type": "electric_scooter", "name": "3909ad54b1554115116b00683ff604d4", "is_disabled": 0, "rental_uris": {"ios": "https://dc.lft.to/lastmile_qr_scan", "android": "https://dc.lft.to/lastmile_qr_scan"}, "is_reserved": 0}, {"lon": -76.98986616666667, "bike_id": "90d746f9fb373bbc43781436da9e694c", "lat": 38.933622166666666, "fusion_lon": 0.0, "fusion_lat": 0.0, "type": "electric_scooter", "name": "90d746f9fb373bbc43781436da9e694c", "is_disabled": 0, "rental_uris": {"ios": "https://dc.lft.to/lastmile_qr_scan", "android": "https://dc.lft.to/lastmile_qr_scan"}, "is_reserved": 0}, {"lon": -77.02168416666666, "bike_id": "708b96e97719b15a07deae2d30bf85b2", "lat": 38.9507545, "fusion_lon": 0.0, "fusion_lat": 0.0, "type": "electric_scooter", "name": "708b96e97719b15a07deae2d30bf85b2", "is_disabled": 0, "rental_uris": {"ios": "https://dc.lft.to/lastmile_qr_scan", "android": "https://dc.lft.to/lastmile_qr_scan"}, "is_reserved": 0}, {"lon": -77.01926683333333, "bike_id": "c18f88a456eb4c3a7ea42223abe22651", "lat": 38.89242466666666, "fusion_lon": 0.0, "fusion_lat": 0.0, "type": "electric_scooter", "name": "c18f88a456eb4c3a7ea42223abe22651", "is_disabled": 0, "rental_uris": {"ios": "https://dc.lft.to/lastmile_qr_scan", "android": "https://dc.lft.to/lastmile_qr_scan"}, "is_reserved": 0}, {"lon": -76.980181, "bike_id": "c3961322ac8dd6390e1edc5dd74d2da9", "lat": 38.8531705, "fusion_lon": 0.0, "fusion_lat": 0.0, "type": "electric_bike", "name": "c3961322ac8dd6390e1edc5dd74d2da9", "is_disabled": 0, "rental_uris": {"ios": "https://dc.lft.to/lastmile_qr_scan", "android": "https://dc.lft.to/lastmile_qr_scan"}, "is_reserved": 0}, {"lon": -77.007234, "bike_id": "235e719f72dc8860ab22f9ff73d00bd2", "lat": 38.89903366666667, "fusion_lon": 0.0, "fusion_lat": 0.0, "type": "electric_scooter", "name": "235e719f72dc8860ab22f9ff73d00bd2", "is_disabled": 0, "rental_uris": {"ios": "https://dc.lft.to/lastmile_qr_scan", "android": "https://dc.lft.to/lastmile_qr_scan"}, "is_reserved": 0}, {"lon": -77.0200745, "bike_id": "b66132851533e8657850a4c1e8da1651", "lat": 38.924145, "fusion_lon": 0.0, "fusion_lat": 0.0, "type": "electric_scooter", "name": "b66132851533e8657850a4c1e8da1651", "is_disabled": 0, "rental_uris": {"ios": "https://dc.lft.to/lastmile_qr_scan", "android": "https://dc.lft.to/lastmile_qr_scan"}, "is_reserved": 0}, {"lon": -76.93461933333333, "bike_id": "dc1a4b6a339e66b1c11a5550184c9505", "lat": 38.96974483333334, "fusion_lon": 0.0, "fusion_lat": 0.0, "type": "electric_bike", "name": "dc1a4b6a339e66b1c11a5550184c9505", "is_disabled": 0, "rental_uris": {"ios": "https://dc.lft.to/lastmile_qr_scan", "android": "https://dc.lft.to/lastmile_qr_scan"}, "is_reserved": 0}, {"lon": -77.02353316666667, "bike_id": "1f2b422d5a8686324ee5c00e3379f36e", "lat": 38.896085666666664, "fusion_lon": 0.0, "fusion_lat": 0.0, "type": "electric_scooter", "name": "1f2b422d5a8686324ee5c00e3379f36e", "is_disabled": 0, "rental_uris": {"ios": "https://dc.lft.to/lastmile_qr_scan", "android": "https://dc.lft.to/lastmile_qr_scan"}, "is_reserved": 0}, {"lon": -77.02430266666667, "bike_id": "2a5588e000d8192707bffd6ce748ec2e", "lat": 38.920435166666664, "fusion_lon": 0.0, "fusion_lat": 0.0, "type": "electric_scooter", "name": "2a5588e000d8192707bffd6ce748ec2e", "is_disabled": 0, "rental_uris": {"ios": "https://dc.lft.to/lastmile_qr_scan", "android": "https://dc.lft.to/lastmile_qr_scan"}, "is_reserved": 0}, {"lon": -77.0588145, "bike_id": "45d8b843d5ae6c05bedefb96b8db093d", "lat": 38.8628345, "fusion_lon": 0.0, "fusion_lat": 0.0, "type": "electric_bike", "name": "45d8b843d5ae6c05bedefb96b8db093d", "is_disabled": 0, "rental_uris": {"ios": "https://dc.lft.to/lastmile_qr_scan", "android": "https://dc.lft.to/lastmile_qr_scan"}, "is_reserved": 0}, {"lon": -77.017347, "bike_id": "00a545b70e592512ccf686a181162325", "lat": 38.916782833333336, "fusion_lon": 0.0, "fusion_lat": 0.0, "type": "electric_scooter", "name": "00a545b70e592512ccf686a181162325", "is_disabled": 0, "rental_uris": {"ios": "https://dc.lft.to/lastmile_qr_scan", "android": "https://dc.lft.to/lastmile_qr_scan"}, "is_reserved": 0}, {"lon": -77.02349816666667, "bike_id": "0d03e20f49248cc1cccfc54ff15fedf5", "lat": 38.91784033333333, "fusion_lon": 0.0, "fusion_lat": 0.0, "type": "electric_scooter", "name": "0d03e20f49248cc1cccfc54ff15fedf5", "is_disabled": 0, "rental_uris": {"ios": "https://dc.lft.to/lastmile_qr_scan", "android": "https://dc.lft.to/lastmile_qr_scan"}, "is_reserved": 0}, {"lon": -77.02961583333334, "bike_id": "c7491fc1292aa2ae1ad7f3f253f4ec15", "lat": 38.91686516666667, "fusion_lon": 0.0, "fusion_lat": 0.0, "type": "electric_scooter", "name": "c7491fc1292aa2ae1ad7f3f253f4ec15", "is_disabled": 0, "rental_uris": {"ios": "https://dc.lft.to/lastmile_qr_scan", "android": "https://dc.lft.to/lastmile_qr_scan"}, "is_reserved": 0}, {"lon": -76.98829283333333, "bike_id": "c22978c89e15b3253bd395a1e3f19fec", "lat": 38.900467166666665, "fusion_lon": 0.0, "fusion_lat": 0.0, "type": "electric_scooter", "name": "c22978c89e15b3253bd395a1e3f19fec", "is_disabled": 0, "rental_uris": {"ios": "https://dc.lft.to/lastmile_qr_scan", "android": "https://dc.lft.to/lastmile_qr_scan"}, "is_reserved": 0}, {"lon": -77.07699966666667, "bike_id": "44e047baf19ad0c1d5d5b27918041d12", "lat": 38.888579, "fusion_lon": 0.0, "fusion_lat": 0.0, "type": "electric_bike", "name": "44e047baf19ad0c1d5d5b27918041d12", "is_disabled": 0, "rental_uris": {"ios": "https://dc.lft.to/lastmile_qr_scan", "android": "https://dc.lft.to/lastmile_qr_scan"}, "is_reserved": 0}, {"lon": -77.00354633333333, "bike_id": "5afe65a52c2d321ec6ecf6f25aae6ce4", "lat": 38.887157, "fusion_lon": 0.0, "fusion_lat": 0.0, "type": "electric_scooter", "name": "5afe65a52c2d321ec6ecf6f25aae6ce4", "is_disabled": 0, "rental_uris": {"ios": "https://dc.lft.to/lastmile_qr_scan", "android": "https://dc.lft.to/lastmile_qr_scan"}, "is_reserved": 0}, {"lon": -77.03545333333334, "bike_id": "fcf069220d371c956a1d9f7b1d84f3bb", "lat": 38.924085, "fusion_lon": 0.0, "fusion_lat": 0.0, "type": "electric_scooter", "name": "fcf069220d371c956a1d9f7b1d84f3bb", "is_disabled": 0, "rental_uris": {"ios": "https://dc.lft.to/lastmile_qr_scan", "android": "https://dc.lft.to/lastmile_qr_scan"}, "is_reserved": 0}, {"lon": -77.131043, "bike_id": "0eb2d82542d7bf3832229ce3af4404b1", "lat": 39.024313166666666, "fusion_lon": 0.0, "fusion_lat": 0.0, "type": "electric_bike", "name": "0eb2d82542d7bf3832229ce3af4404b1", "is_disabled": 0, "rental_uris": {"ios": "https://dc.lft.to/lastmile_qr_scan", "android": "https://dc.lft.to/lastmile_qr_scan"}, "is_reserved": 0}, {"lon": -77.01118416666667, "bike_id": "eaaeff3c22ed988be4842d7e48cbf59c", "lat": 38.885480666666666, "fusion_lon": 0.0, "fusion_lat": 0.0, "type": "electric_scooter", "name": "eaaeff3c22ed988be4842d7e48cbf59c", "is_disabled": 0, "rental_uris": {"ios": "https://dc.lft.to/lastmile_qr_scan", "android": "https://dc.lft.to/lastmile_qr_scan"}, "is_reserved": 0}, {"lon": -77.05629033333334, "bike_id": "660f49ee6601ad3a6b665fee987e61a3", "lat": 38.96078383333333, "fusion_lon": 0.0, "fusion_lat": 0.0, "type": "electric_scooter", "name": "660f49ee6601ad3a6b665fee987e61a3", "is_disabled": 0, "rental_uris": {"ios": "https://dc.lft.to/lastmile_qr_scan", "android": "https://dc.lft.to/lastmile_qr_scan"}, "is_reserved": 0}, {"lon": -76.973319, "bike_id": "dbb7d608669300f4c3e81da0659306ba", "lat": 38.904117166666666, "fusion_lon": 0.0, "fusion_lat": 0.0, "type": "electric_scooter", "name": "dbb7d608669300f4c3e81da0659306ba", "is_disabled": 0, "rental_uris": {"ios": "https://dc.lft.to/lastmile_qr_scan", "android": "https://dc.lft.to/lastmile_qr_scan"}, "is_reserved": 0}, {"lon": -77.04130783333333, "bike_id": "c1786eff3c291620537b407fffb11f4b", "lat": 38.906227333333334, "fusion_lon": 0.0, "fusion_lat": 0.0, "type": "electric_scooter", "name": "c1786eff3c291620537b407fffb11f4b", "is_disabled": 0, "rental_uris": {"ios": "https://dc.lft.to/lastmile_qr_scan", "android": "https://dc.lft.to/lastmile_qr_scan"}, "is_reserved": 0}, {"lon": -77.03170816666666, "bike_id": "e0c2bca62a07638031ae0c116c9ebf4a", "lat": 38.914180333333334, "fusion_lon": 0.0, "fusion_lat": 0.0, "type": "electric_scooter", "name": "e0c2bca62a07638031ae0c116c9ebf4a", "is_disabled": 0, "rental_uris": {"ios": "https://dc.lft.to/lastmile_qr_scan", "android": "https://dc.lft.to/lastmile_qr_scan"}, "is_reserved": 0}, {"lon": -77.05861583333333, "bike_id": "6baa08b7f19d1b9776e1a347de8bbe9d", "lat": 38.93606066666667, "fusion_lon": 0.0, "fusion_lat": 0.0, "type": "electric_scooter", "name": "6baa08b7f19d1b9776e1a347de8bbe9d", "is_disabled": 0, "rental_uris": {"ios": "https://dc.lft.to/lastmile_qr_scan", "android": "https://dc.lft.to/lastmile_qr_scan"}, "is_reserved": 0}, {"lon": -77.0307355, "bike_id": "43c551d1203551edcf86737a9c0de2ff", "lat": 38.90274683333333, "fusion_lon": 0.0, "fusion_lat": 0.0, "type": "electric_scooter", "name": "43c551d1203551edcf86737a9c0de2ff", "is_disabled": 0, "rental_uris": {"ios": "https://dc.lft.to/lastmile_qr_scan", "android": "https://dc.lft.to/lastmile_qr_scan"}, "is_reserved": 0}, {"lon": -77.10596166666667, "bike_id": "a5b32e9a50a8ebe93fb1f3a82aceb0d5", "lat": 38.903851, "fusion_lon": 0.0, "fusion_lat": 0.0, "type": "electric_bike", "name": "a5b32e9a50a8ebe93fb1f3a82aceb0d5", "is_disabled": 0, "rental_uris": {"ios": "https://dc.lft.to/lastmile_qr_scan", "android": "https://dc.lft.to/lastmile_qr_scan"}, "is_reserved": 0}, {"lon": -77.0296625, "bike_id": "ac0fbdef9e0fe773ef94c57b3fa7cd51", "lat": 38.902233833333334, "fusion_lon": 0.0, "fusion_lat": 0.0, "type": "electric_scooter", "name": "ac0fbdef9e0fe773ef94c57b3fa7cd51", "is_disabled": 0, "rental_uris": {"ios": "https://dc.lft.to/lastmile_qr_scan", "android": "https://dc.lft.to/lastmile_qr_scan"}, "is_reserved": 0}, {"lon": -77.03236283333334, "bike_id": "19e3d3b5f036684fb8f3ff90dc3176f1", "lat": 38.91708166666667, "fusion_lon": 0.0, "fusion_lat": 0.0, "type": "electric_scooter", "name": "19e3d3b5f036684fb8f3ff90dc3176f1", "is_disabled": 0, "rental_uris": {"ios": "https://dc.lft.to/lastmile_qr_scan", "android": "https://dc.lft.to/lastmile_qr_scan"}, "is_reserved": 0}, {"lon": -77.04471133333334, "bike_id": "9ad07d42be2f050acc6486580037d9dd", "lat": 38.9055755, "fusion_lon": 0.0, "fusion_lat": 0.0, "type": "electric_scooter", "name": "9ad07d42be2f050acc6486580037d9dd", "is_disabled": 0, "rental_uris": {"ios": "https://dc.lft.to/lastmile_qr_scan", "android": "https://dc.lft.to/lastmile_qr_scan"}, "is_reserved": 0}, {"lon": -77.02760233333333, "bike_id": "6668dbb44ee5fccfce291edf11f453c8", "lat": 38.944033, "fusion_lon": 0.0, "fusion_lat": 0.0, "type": "electric_scooter", "name": "6668dbb44ee5fccfce291edf11f453c8", "is_disabled": 0, "rental_uris": {"ios": "https://dc.lft.to/lastmile_qr_scan", "android": "https://dc.lft.to/lastmile_qr_scan"}, "is_reserved": 0}, {"lon": -77.03325966666667, "bike_id": "4bf842547b3cdefe1280897404df9ac8", "lat": 38.9156445, "fusion_lon": 0.0, "fusion_lat": 0.0, "type": "electric_scooter", "name": "4bf842547b3cdefe1280897404df9ac8", "is_disabled": 0, "rental_uris": {"ios": "https://dc.lft.to/lastmile_qr_scan", "android": "https://dc.lft.to/lastmile_qr_scan"}, "is_reserved": 0}, {"lon": -77.03656, "bike_id": "f24fe60a20d87a40c60f78168fa43582", "lat": 38.91743116666667, "fusion_lon": 0.0, "fusion_lat": 0.0, "type": "electric_scooter", "name": "f24fe60a20d87a40c60f78168fa43582", "is_disabled": 0, "rental_uris": {"ios": "https://dc.lft.to/lastmile_qr_scan", "android": "https://dc.lft.to/lastmile_qr_scan"}, "is_reserved": 0}, {"lon": -77.03581766666667, "bike_id": "eb81c64fb8c400ed93e01c908b912e76", "lat": 38.90757933333333, "fusion_lon": 0.0, "fusion_lat": 0.0, "type": "electric_scooter", "name": "eb81c64fb8c400ed93e01c908b912e76", "is_disabled": 0, "rental_uris": {"ios": "https://dc.lft.to/lastmile_qr_scan", "android": "https://dc.lft.to/lastmile_qr_scan"}, "is_reserved": 0}, {"lon": -77.03730066666667, "bike_id": "d549d4ce061ddab72f3847a6fe68c5db", "lat": 38.920193, "fusion_lon": 0.0, "fusion_lat": 0.0, "type": "electric_scooter", "name": "d549d4ce061ddab72f3847a6fe68c5db", "is_disabled": 0, "rental_uris": {"ios": "https://dc.lft.to/lastmile_qr_scan", "android": "https://dc.lft.to/lastmile_qr_scan"}, "is_reserved": 0}, {"lon": -77.01158266666667, "bike_id": "4988d66420ed7841bbe5748545ecef81", "lat": 38.91404983333334, "fusion_lon": 0.0, "fusion_lat": 0.0, "type": "electric_scooter", "name": "4988d66420ed7841bbe5748545ecef81", "is_disabled": 0, "rental_uris": {"ios": "https://dc.lft.to/lastmile_qr_scan", "android": "https://dc.lft.to/lastmile_qr_scan"}, "is_reserved": 0}, {"lon": -77.03776433333333, "bike_id": "839c56d5067ac55a47df5f02ee0ce8c0", "lat": 38.929666, "fusion_lon": 0.0, "fusion_lat": 0.0, "type": "electric_scooter", "name": "839c56d5067ac55a47df5f02ee0ce8c0", "is_disabled": 0, "rental_uris": {"ios": "https://dc.lft.to/lastmile_qr_scan", "android": "https://dc.lft.to/lastmile_qr_scan"}, "is_reserved": 0}, {"lon": -77.049956, "bike_id": "dec583857baa6a4b13ede1713b36b1c3", "lat": 38.9005765, "fusion_lon": 0.0, "fusion_lat": 0.0, "type": "electric_scooter", "name": "dec583857baa6a4b13ede1713b36b1c3", "is_disabled": 0, "rental_uris": {"ios": "https://dc.lft.to/lastmile_qr_scan", "android": "https://dc.lft.to/lastmile_qr_scan"}, "is_reserved": 0}, {"lon": -77.03346916666666, "bike_id": "950ee3745664abccc4a977f31df98db3", "lat": 38.9168645, "fusion_lon": 0.0, "fusion_lat": 0.0, "type": "electric_scooter", "name": "950ee3745664abccc4a977f31df98db3", "is_disabled": 0, "rental_uris": {"ios": "https://dc.lft.to/lastmile_qr_scan", "android": "https://dc.lft.to/lastmile_qr_scan"}, "is_reserved": 0}, {"lon": -77.02437066666667, "bike_id": "502e57ca31028bb8bf77e6109c920fe2", "lat": 38.9204335, "fusion_lon": 0.0, "fusion_lat": 0.0, "type": "electric_scooter", "name": "502e57ca31028bb8bf77e6109c920fe2", "is_disabled": 0, "rental_uris": {"ios": "https://dc.lft.to/lastmile_qr_scan", "android": "https://dc.lft.to/lastmile_qr_scan"}, "is_reserved": 0}, {"lon": -76.98937783333334, "bike_id": "46816a1d4a409f0845c7c9303cd647b3", "lat": 38.91834383333333, "fusion_lon": 0.0, "fusion_lat": 0.0, "type": "electric_scooter", "name": "46816a1d4a409f0845c7c9303cd647b3", "is_disabled": 0, "rental_uris": {"ios": "https://dc.lft.to/lastmile_qr_scan", "android": "https://dc.lft.to/lastmile_qr_scan"}, "is_reserved": 0}, {"lon": -77.018946, "bike_id": "97c2aae7f325820b169bf49fe4cdd357", "lat": 38.902753, "fusion_lon": 0.0, "fusion_lat": 0.0, "type": "electric_scooter", "name": "97c2aae7f325820b169bf49fe4cdd357", "is_disabled": 0, "rental_uris": {"ios": "https://dc.lft.to/lastmile_qr_scan", "android": "https://dc.lft.to/lastmile_qr_scan"}, "is_reserved": 0}, {"lon": -77.0260835, "bike_id": "930456b1a590de521d758ac2cd598ce5", "lat": 38.900702833333334, "fusion_lon": 0.0, "fusion_lat": 0.0, "type": "electric_scooter", "name": "930456b1a590de521d758ac2cd598ce5", "is_disabled": 0, "rental_uris": {"ios": "https://dc.lft.to/lastmile_qr_scan", "android": "https://dc.lft.to/lastmile_qr_scan"}, "is_reserved": 0}, {"lon": -77.02384, "bike_id": "d0bb27cc6db509418fb6634891e0c050", "lat": 38.920856, "fusion_lon": 0.0, "fusion_lat": 0.0, "type": "electric_scooter", "name": "d0bb27cc6db509418fb6634891e0c050", "is_disabled": 0, "rental_uris": {"ios": "https://dc.lft.to/lastmile_qr_scan", "android": "https://dc.lft.to/lastmile_qr_scan"}, "is_reserved": 0}, {"lon": -77.04321666666667, "bike_id": "1e2c165a35de7339460db6c7528d160c", "lat": 38.908843166666664, "fusion_lon": 0.0, "fusion_lat": 0.0, "type": "electric_scooter", "name": "1e2c165a35de7339460db6c7528d160c", "is_disabled": 0, "rental_uris": {"ios": "https://dc.lft.to/lastmile_qr_scan", "android": "https://dc.lft.to/lastmile_qr_scan"}, "is_reserved": 0}, {"lon": -77.04351883333334, "bike_id": "115c281617235f2a80b81d2580da5168", "lat": 38.90790966666667, "fusion_lon": 0.0, "fusion_lat": 0.0, "type": "electric_scooter", "name": "115c281617235f2a80b81d2580da5168", "is_disabled": 0, "rental_uris": {"ios": "https://dc.lft.to/lastmile_qr_scan", "android": "https://dc.lft.to/lastmile_qr_scan"}, "is_reserved": 0}, {"lon": -77.05923633333333, "bike_id": "5be1e53e32e074fb69aef57a242c53e6", "lat": 38.86244083333333, "fusion_lon": 0.0, "fusion_lat": 0.0, "type": "electric_scooter", "name": "5be1e53e32e074fb69aef57a242c53e6", "is_disabled": 0, "rental_uris": {"ios": "https://dc.lft.to/lastmile_qr_scan", "android": "https://dc.lft.to/lastmile_qr_scan"}, "is_reserved": 0}, {"lon": -77.008394, "bike_id": "bb5704645701e370f50cf6e414c2ad45", "lat": 38.9162345, "fusion_lon": 0.0, "fusion_lat": 0.0, "type": "electric_scooter", "name": "bb5704645701e370f50cf6e414c2ad45", "is_disabled": 0, "rental_uris": {"ios": "https://dc.lft.to/lastmile_qr_scan", "android": "https://dc.lft.to/lastmile_qr_scan"}, "is_reserved": 0}, {"lon": -77.02048983333333, "bike_id": "3b66fefd147be68e015e99566e9086f8", "lat": 38.915533833333335, "fusion_lon": 0.0, "fusion_lat": 0.0, "type": "electric_scooter", "name": "3b66fefd147be68e015e99566e9086f8", "is_disabled": 0, "rental_uris": {"ios": "https://dc.lft.to/lastmile_qr_scan", "android": "https://dc.lft.to/lastmile_qr_scan"}, "is_reserved": 0}, {"lon": -77.04198416666667, "bike_id": "57d8db7902e23f5d32c1e1c81de2f53f", "lat": 38.92069933333333, "fusion_lon": 0.0, "fusion_lat": 0.0, "type": "electric_scooter", "name": "57d8db7902e23f5d32c1e1c81de2f53f", "is_disabled": 0, "rental_uris": {"ios": "https://dc.lft.to/lastmile_qr_scan", "android": "https://dc.lft.to/lastmile_qr_scan"}, "is_reserved": 0}, {"lon": -77.04160333333333, "bike_id": "03bba0753dd2ccdec77af71228db105b", "lat": 38.90369966666667, "fusion_lon": 0.0, "fusion_lat": 0.0, "type": "electric_scooter", "name": "03bba0753dd2ccdec77af71228db105b", "is_disabled": 0, "rental_uris": {"ios": "https://dc.lft.to/lastmile_qr_scan", "android": "https://dc.lft.to/lastmile_qr_scan"}, "is_reserved": 0}, {"lon": -76.988953, "bike_id": "27679f380219e836f7d63aedb270587e", "lat": 38.9134895, "fusion_lon": 0.0, "fusion_lat": 0.0, "type": "electric_scooter", "name": "27679f380219e836f7d63aedb270587e", "is_disabled": 0, "rental_uris": {"ios": "https://dc.lft.to/lastmile_qr_scan", "android": "https://dc.lft.to/lastmile_qr_scan"}, "is_reserved": 0}, {"lon": -77.03394533333334, "bike_id": "34e4157cb7cf20a866336cc4f60c7e19", "lat": 38.901536166666666, "fusion_lon": 0.0, "fusion_lat": 0.0, "type": "electric_scooter", "name": "34e4157cb7cf20a866336cc4f60c7e19", "is_disabled": 0, "rental_uris": {"ios": "https://dc.lft.to/lastmile_qr_scan", "android": "https://dc.lft.to/lastmile_qr_scan"}, "is_reserved": 0}, {"lon": -77.01973033333333, "bike_id": "b2477ae3ad9a3d7076d3ae3926069efd", "lat": 38.97749366666667, "fusion_lon": 0.0, "fusion_lat": 0.0, "type": "electric_scooter", "name": "b2477ae3ad9a3d7076d3ae3926069efd", "is_disabled": 0, "rental_uris": {"ios": "https://dc.lft.to/lastmile_qr_scan", "android": "https://dc.lft.to/lastmile_qr_scan"}, "is_reserved": 0}, {"lon": -77.00202, "bike_id": "cb07cc426bb54f452a0d0ee96f44d1ae", "lat": 38.902342833333336, "fusion_lon": 0.0, "fusion_lat": 0.0, "type": "electric_scooter", "name": "cb07cc426bb54f452a0d0ee96f44d1ae", "is_disabled": 0, "rental_uris": {"ios": "https://dc.lft.to/lastmile_qr_scan", "android": "https://dc.lft.to/lastmile_qr_scan"}, "is_reserved": 0}, {"lon": -77.02934783333333, "bike_id": "87cb3ae50245743978f1789a566799a5", "lat": 38.920817666666665, "fusion_lon": 0.0, "fusion_lat": 0.0, "type": "electric_scooter", "name": "87cb3ae50245743978f1789a566799a5", "is_disabled": 0, "rental_uris": {"ios": "https://dc.lft.to/lastmile_qr_scan", "android": "https://dc.lft.to/lastmile_qr_scan"}, "is_reserved": 0}, {"lon": -77.04256266666667, "bike_id": "8fb1ac4e6bb16d4e5749711087b0107d", "lat": 38.922497, "fusion_lon": 0.0, "fusion_lat": 0.0, "type": "electric_scooter", "name": "8fb1ac4e6bb16d4e5749711087b0107d", "is_disabled": 0, "rental_uris": {"ios": "https://dc.lft.to/lastmile_qr_scan", "android": "https://dc.lft.to/lastmile_qr_scan"}, "is_reserved": 0}, {"lon": -77.0298725, "bike_id": "1c53ed215c208ae566c60b0dcaf37fee", "lat": 38.902786, "fusion_lon": 0.0, "fusion_lat": 0.0, "type": "electric_scooter", "name": "1c53ed215c208ae566c60b0dcaf37fee", "is_disabled": 0, "rental_uris": {"ios": "https://dc.lft.to/lastmile_qr_scan", "android": "https://dc.lft.to/lastmile_qr_scan"}, "is_reserved": 0}, {"lon": -77.052336, "bike_id": "a0068d768bf57a6efaaefcdeb4d00c33", "lat": 38.924601, "fusion_lon": 0.0, "fusion_lat": 0.0, "type": "electric_scooter", "name": "a0068d768bf57a6efaaefcdeb4d00c33", "is_disabled": 0, "rental_uris": {"ios": "https://dc.lft.to/lastmile_qr_scan", "android": "https://dc.lft.to/lastmile_qr_scan"}, "is_reserved": 0}, {"lon": -77.02213383333333, "bike_id": "2352700847041cd89428f839fe4134b0", "lat": 38.887101666666666, "fusion_lon": 0.0, "fusion_lat": 0.0, "type": "electric_scooter", "name": "2352700847041cd89428f839fe4134b0", "is_disabled": 0, "rental_uris": {"ios": "https://dc.lft.to/lastmile_qr_scan", "android": "https://dc.lft.to/lastmile_qr_scan"}, "is_reserved": 0}, {"lon": -77.03057066666666, "bike_id": "768bac060c2559ac23d9034df507c8f2", "lat": 38.9309725, "fusion_lon": 0.0, "fusion_lat": 0.0, "type": "electric_scooter", "name": "768bac060c2559ac23d9034df507c8f2", "is_disabled": 0, "rental_uris": {"ios": "https://dc.lft.to/lastmile_qr_scan", "android": "https://dc.lft.to/lastmile_qr_scan"}, "is_reserved": 0}, {"lon": -77.01304083333333, "bike_id": "19251d81035240025f9a4de32d8d6d19", "lat": 38.911475, "fusion_lon": 0.0, "fusion_lat": 0.0, "type": "electric_scooter", "name": "19251d81035240025f9a4de32d8d6d19", "is_disabled": 0, "rental_uris": {"ios": "https://dc.lft.to/lastmile_qr_scan", "android": "https://dc.lft.to/lastmile_qr_scan"}, "is_reserved": 0}, {"lon": -77.0184875, "bike_id": "436bd33a79bd59a792e86cc51f308da7", "lat": 38.919768833333336, "fusion_lon": 0.0, "fusion_lat": 0.0, "type": "electric_scooter", "name": "436bd33a79bd59a792e86cc51f308da7", "is_disabled": 0, "rental_uris": {"ios": "https://dc.lft.to/lastmile_qr_scan", "android": "https://dc.lft.to/lastmile_qr_scan"}, "is_reserved": 0}, {"lon": -77.0312485, "bike_id": "dbac43d6a5ac67e0dfc71eb81c071de4", "lat": 38.9150175, "fusion_lon": 0.0, "fusion_lat": 0.0, "type": "electric_scooter", "name": "dbac43d6a5ac67e0dfc71eb81c071de4", "is_disabled": 0, "rental_uris": {"ios": "https://dc.lft.to/lastmile_qr_scan", "android": "https://dc.lft.to/lastmile_qr_scan"}, "is_reserved": 0}, {"lon": -76.9497055, "bike_id": "e1885412c2fb3e1bb51fc0f1902424e6", "lat": 38.904874, "fusion_lon": 0.0, "fusion_lat": 0.0, "type": "electric_scooter", "name": "e1885412c2fb3e1bb51fc0f1902424e6", "is_disabled": 0, "rental_uris": {"ios": "https://dc.lft.to/lastmile_qr_scan", "android": "https://dc.lft.to/lastmile_qr_scan"}, "is_reserved": 0}, {"lon": -77.00738966666667, "bike_id": "6370c9b74494e3f386bc7d8d25519ffc", "lat": 38.92538233333333, "fusion_lon": 0.0, "fusion_lat": 0.0, "type": "electric_scooter", "name": "6370c9b74494e3f386bc7d8d25519ffc", "is_disabled": 0, "rental_uris": {"ios": "https://dc.lft.to/lastmile_qr_scan", "android": "https://dc.lft.to/lastmile_qr_scan"}, "is_reserved": 0}, {"lon": -77.03303566666666, "bike_id": "a6c3e4c777e77fff5e5d520193930b5e", "lat": 38.909716833333334, "fusion_lon": 0.0, "fusion_lat": 0.0, "type": "electric_scooter", "name": "a6c3e4c777e77fff5e5d520193930b5e", "is_disabled": 0, "rental_uris": {"ios": "https://dc.lft.to/lastmile_qr_scan", "android": "https://dc.lft.to/lastmile_qr_scan"}, "is_reserved": 0}, {"lon": -77.04256533333333, "bike_id": "b7760019a94d90bfa2fb8ae561544ad1", "lat": 38.910347, "fusion_lon": 0.0, "fusion_lat": 0.0, "type": "electric_scooter", "name": "b7760019a94d90bfa2fb8ae561544ad1", "is_disabled": 0, "rental_uris": {"ios": "https://dc.lft.to/lastmile_qr_scan", "android": "https://dc.lft.to/lastmile_qr_scan"}, "is_reserved": 0}, {"lon": -77.01431483333333, "bike_id": "a2b185acd7d5a131330740ecec30bd7b", "lat": 38.997915166666665, "fusion_lon": 0.0, "fusion_lat": 0.0, "type": "electric_bike", "name": "a2b185acd7d5a131330740ecec30bd7b", "is_disabled": 0, "rental_uris": {"ios": "https://dc.lft.to/lastmile_qr_scan", "android": "https://dc.lft.to/lastmile_qr_scan"}, "is_reserved": 0}, {"lon": -76.95758383333333, "bike_id": "b56dfdc9953216ef9b4d5f3c2c325074", "lat": 38.884331, "fusion_lon": 0.0, "fusion_lat": 0.0, "type": "electric_scooter", "name": "b56dfdc9953216ef9b4d5f3c2c325074", "is_disabled": 0, "rental_uris": {"ios": "https://dc.lft.to/lastmile_qr_scan", "android": "https://dc.lft.to/lastmile_qr_scan"}, "is_reserved": 0}, {"lon": -77.02213816666666, "bike_id": "f8943f4b60c55dd3c72665484ab228dc", "lat": 38.91071633333333, "fusion_lon": 0.0, "fusion_lat": 0.0, "type": "electric_scooter", "name": "f8943f4b60c55dd3c72665484ab228dc", "is_disabled": 0, "rental_uris": {"ios": "https://dc.lft.to/lastmile_qr_scan", "android": "https://dc.lft.to/lastmile_qr_scan"}, "is_reserved": 0}, {"lon": -77.03164666666666, "bike_id": "7851670f2d95f887458a42a7435ca76a", "lat": 38.91554416666666, "fusion_lon": 0.0, "fusion_lat": 0.0, "type": "electric_scooter", "name": "7851670f2d95f887458a42a7435ca76a", "is_disabled": 0, "rental_uris": {"ios": "https://dc.lft.to/lastmile_qr_scan", "android": "https://dc.lft.to/lastmile_qr_scan"}, "is_reserved": 0}, {"lon": -77.029682, "bike_id": "b2c632803fcbbd400722361bceb7b9c6", "lat": 38.917264333333335, "fusion_lon": 0.0, "fusion_lat": 0.0, "type": "electric_scooter", "name": "b2c632803fcbbd400722361bceb7b9c6", "is_disabled": 0, "rental_uris": {"ios": "https://dc.lft.to/lastmile_qr_scan", "android": "https://dc.lft.to/lastmile_qr_scan"}, "is_reserved": 0}, {"lon": -77.02101116666667, "bike_id": "0446ce7f3097a417e59c758cf8afa166", "lat": 38.90974, "fusion_lon": 0.0, "fusion_lat": 0.0, "type": "electric_scooter", "name": "0446ce7f3097a417e59c758cf8afa166", "is_disabled": 0, "rental_uris": {"ios": "https://dc.lft.to/lastmile_qr_scan", "android": "https://dc.lft.to/lastmile_qr_scan"}, "is_reserved": 0}, {"lon": -77.04607716666666, "bike_id": "e78b51f3ebe724ee698a9ab6f2c2ca16", "lat": 38.88381283333333, "fusion_lon": 0.0, "fusion_lat": 0.0, "type": "electric_scooter", "name": "e78b51f3ebe724ee698a9ab6f2c2ca16", "is_disabled": 0, "rental_uris": {"ios": "https://dc.lft.to/lastmile_qr_scan", "android": "https://dc.lft.to/lastmile_qr_scan"}, "is_reserved": 0}, {"lon": -76.99552583333333, "bike_id": "77b7997a2a105503b13ae24bfee716db", "lat": 38.862546, "fusion_lon": 0.0, "fusion_lat": 0.0, "type": "electric_scooter", "name": "77b7997a2a105503b13ae24bfee716db", "is_disabled": 0, "rental_uris": {"ios": "https://dc.lft.to/lastmile_qr_scan", "android": "https://dc.lft.to/lastmile_qr_scan"}, "is_reserved": 0}, {"lon": -77.02313916666667, "bike_id": "fb8f7d3b038aa518cc80454744c86adb", "lat": 38.9095405, "fusion_lon": 0.0, "fusion_lat": 0.0, "type": "electric_scooter", "name": "fb8f7d3b038aa518cc80454744c86adb", "is_disabled": 0, "rental_uris": {"ios": "https://dc.lft.to/lastmile_qr_scan", "android": "https://dc.lft.to/lastmile_qr_scan"}, "is_reserved": 0}, {"lon": -77.03451533333333, "bike_id": "ff3efb67ab15c89f10ae6a5aa4debc90", "lat": 38.903100333333335, "fusion_lon": 0.0, "fusion_lat": 0.0, "type": "electric_scooter", "name": "ff3efb67ab15c89f10ae6a5aa4debc90", "is_disabled": 0, "rental_uris": {"ios": "https://dc.lft.to/lastmile_qr_scan", "android": "https://dc.lft.to/lastmile_qr_scan"}, "is_reserved": 0}, {"lon": -77.02213716666667, "bike_id": "71f13ebfbf77188792f170e97ecfce65", "lat": 38.9042995, "fusion_lon": 0.0, "fusion_lat": 0.0, "type": "electric_scooter", "name": "71f13ebfbf77188792f170e97ecfce65", "is_disabled": 0, "rental_uris": {"ios": "https://dc.lft.to/lastmile_qr_scan", "android": "https://dc.lft.to/lastmile_qr_scan"}, "is_reserved": 0}, {"lon": -77.03333066666667, "bike_id": "acab38857fbb2afbcdbb8be1893e79f8", "lat": 38.960448666666665, "fusion_lon": 0.0, "fusion_lat": 0.0, "type": "electric_scooter", "name": "acab38857fbb2afbcdbb8be1893e79f8", "is_disabled": 0, "rental_uris": {"ios": "https://dc.lft.to/lastmile_qr_scan", "android": "https://dc.lft.to/lastmile_qr_scan"}, "is_reserved": 0}, {"lon": -76.9638325, "bike_id": "de8ef34386d1f08decabd918e512cdb7", "lat": 38.95179066666667, "fusion_lon": 0.0, "fusion_lat": 0.0, "type": "electric_bike", "name": "de8ef34386d1f08decabd918e512cdb7", "is_disabled": 0, "rental_uris": {"ios": "https://dc.lft.to/lastmile_qr_scan", "android": "https://dc.lft.to/lastmile_qr_scan"}, "is_reserved": 0}, {"lon": -77.0279675, "bike_id": "b84d86e6846fd8d321bbb955c6dca0f8", "lat": 38.95396683333333, "fusion_lon": 0.0, "fusion_lat": 0.0, "type": "electric_scooter", "name": "b84d86e6846fd8d321bbb955c6dca0f8", "is_disabled": 0, "rental_uris": {"ios": "https://dc.lft.to/lastmile_qr_scan", "android": "https://dc.lft.to/lastmile_qr_scan"}, "is_reserved": 0}, {"lon": -77.02004966666667, "bike_id": "3fe81017387b01dafec2ce72329ad9c9", "lat": 38.90448883333333, "fusion_lon": 0.0, "fusion_lat": 0.0, "type": "electric_scooter", "name": "3fe81017387b01dafec2ce72329ad9c9", "is_disabled": 0, "rental_uris": {"ios": "https://dc.lft.to/lastmile_qr_scan", "android": "https://dc.lft.to/lastmile_qr_scan"}, "is_reserved": 0}, {"lon": -77.03870383333333, "bike_id": "c04e5479aa14a7e1f771d74b8bc44341", "lat": 38.91409516666667, "fusion_lon": 0.0, "fusion_lat": 0.0, "type": "electric_scooter", "name": "c04e5479aa14a7e1f771d74b8bc44341", "is_disabled": 0, "rental_uris": {"ios": "https://dc.lft.to/lastmile_qr_scan", "android": "https://dc.lft.to/lastmile_qr_scan"}, "is_reserved": 0}, {"lon": -77.02676933333333, "bike_id": "42041f8c368d864a2916dc5d97853b8f", "lat": 38.98457066666667, "fusion_lon": 0.0, "fusion_lat": 0.0, "type": "electric_scooter", "name": "42041f8c368d864a2916dc5d97853b8f", "is_disabled": 0, "rental_uris": {"ios": "https://dc.lft.to/lastmile_qr_scan", "android": "https://dc.lft.to/lastmile_qr_scan"}, "is_reserved": 0}, {"lon": -76.991253, "bike_id": "b647c5658e6264817bbb855bc1faa002", "lat": 38.922684, "fusion_lon": 0.0, "fusion_lat": 0.0, "type": "electric_scooter", "name": "b647c5658e6264817bbb855bc1faa002", "is_disabled": 0, "rental_uris": {"ios": "https://dc.lft.to/lastmile_qr_scan", "android": "https://dc.lft.to/lastmile_qr_scan"}, "is_reserved": 0}, {"lon": -77.02392166666667, "bike_id": "34295d23794feab922da04c538ce9b15", "lat": 38.926960333333334, "fusion_lon": 0.0, "fusion_lat": 0.0, "type": "electric_scooter", "name": "34295d23794feab922da04c538ce9b15", "is_disabled": 0, "rental_uris": {"ios": "https://dc.lft.to/lastmile_qr_scan", "android": "https://dc.lft.to/lastmile_qr_scan"}, "is_reserved": 0}, {"lon": -77.0037325, "bike_id": "c4af93f8cc032aa64dfdf6cd2e23f1ff", "lat": 38.907314166666666, "fusion_lon": 0.0, "fusion_lat": 0.0, "type": "electric_scooter", "name": "c4af93f8cc032aa64dfdf6cd2e23f1ff", "is_disabled": 0, "rental_uris": {"ios": "https://dc.lft.to/lastmile_qr_scan", "android": "https://dc.lft.to/lastmile_qr_scan"}, "is_reserved": 0}, {"lon": -76.986683, "bike_id": "e6d617d47c823259dcfa9df3266cf4d5", "lat": 38.90248883333334, "fusion_lon": 0.0, "fusion_lat": 0.0, "type": "electric_scooter", "name": "e6d617d47c823259dcfa9df3266cf4d5", "is_disabled": 0, "rental_uris": {"ios": "https://dc.lft.to/lastmile_qr_scan", "android": "https://dc.lft.to/lastmile_qr_scan"}, "is_reserved": 0}, {"lon": -77.0471855, "bike_id": "87e444bc119c877e36fe59255cc7ed8a", "lat": 38.92232, "fusion_lon": 0.0, "fusion_lat": 0.0, "type": "electric_scooter", "name": "87e444bc119c877e36fe59255cc7ed8a", "is_disabled": 0, "rental_uris": {"ios": "https://dc.lft.to/lastmile_qr_scan", "android": "https://dc.lft.to/lastmile_qr_scan"}, "is_reserved": 0}, {"lon": -77.00916033333333, "bike_id": "f14b3462f5b463283fae9e6b180b59c8", "lat": 38.82782666666667, "fusion_lon": 0.0, "fusion_lat": 0.0, "type": "electric_bike", "name": "f14b3462f5b463283fae9e6b180b59c8", "is_disabled": 0, "rental_uris": {"ios": "https://dc.lft.to/lastmile_qr_scan", "android": "https://dc.lft.to/lastmile_qr_scan"}, "is_reserved": 0}, {"lon": -77.03852166666667, "bike_id": "7e2652a4d4c82060e2889bc6e6068a6d", "lat": 38.9068505, "fusion_lon": 0.0, "fusion_lat": 0.0, "type": "electric_scooter", "name": "7e2652a4d4c82060e2889bc6e6068a6d", "is_disabled": 0, "rental_uris": {"ios": "https://dc.lft.to/lastmile_qr_scan", "android": "https://dc.lft.to/lastmile_qr_scan"}, "is_reserved": 0}, {"lon": -76.93609983333333, "bike_id": "3b0067b587c176a6b26e6dbd9459ca68", "lat": 38.89681233333334, "fusion_lon": 0.0, "fusion_lat": 0.0, "type": "electric_scooter", "name": "3b0067b587c176a6b26e6dbd9459ca68", "is_disabled": 0, "rental_uris": {"ios": "https://dc.lft.to/lastmile_qr_scan", "android": "https://dc.lft.to/lastmile_qr_scan"}, "is_reserved": 0}, {"lon": -77.0006285, "bike_id": "df0e766daaf4598597aa4de36e951bff", "lat": 38.924401, "fusion_lon": 0.0, "fusion_lat": 0.0, "type": "electric_scooter", "name": "df0e766daaf4598597aa4de36e951bff", "is_disabled": 0, "rental_uris": {"ios": "https://dc.lft.to/lastmile_qr_scan", "android": "https://dc.lft.to/lastmile_qr_scan"}, "is_reserved": 0}, {"lon": -77.03236783333334, "bike_id": "c1759caebd42cf81a64f064276502953", "lat": 38.914024166666664, "fusion_lon": 0.0, "fusion_lat": 0.0, "type": "electric_scooter", "name": "c1759caebd42cf81a64f064276502953", "is_disabled": 0, "rental_uris": {"ios": "https://dc.lft.to/lastmile_qr_scan", "android": "https://dc.lft.to/lastmile_qr_scan"}, "is_reserved": 0}, {"lon": -77.04273566666667, "bike_id": "e9e947209e22a1a9cfb4e9b1b46679aa", "lat": 38.9177795, "fusion_lon": 0.0, "fusion_lat": 0.0, "type": "electric_scooter", "name": "e9e947209e22a1a9cfb4e9b1b46679aa", "is_disabled": 0, "rental_uris": {"ios": "https://dc.lft.to/lastmile_qr_scan", "android": "https://dc.lft.to/lastmile_qr_scan"}, "is_reserved": 0}, {"lon": -77.02905233333334, "bike_id": "496da1a85a186e9d86c6a0039f1b0042", "lat": 38.90368466666666, "fusion_lon": 0.0, "fusion_lat": 0.0, "type": "electric_scooter", "name": "496da1a85a186e9d86c6a0039f1b0042", "is_disabled": 0, "rental_uris": {"ios": "https://dc.lft.to/lastmile_qr_scan", "android": "https://dc.lft.to/lastmile_qr_scan"}, "is_reserved": 0}, {"lon": -76.97625333333333, "bike_id": "96b485e94606754a55ec5c997d23eeb2", "lat": 38.90382366666667, "fusion_lon": 0.0, "fusion_lat": 0.0, "type": "electric_scooter", "name": "96b485e94606754a55ec5c997d23eeb2", "is_disabled": 0, "rental_uris": {"ios": "https://dc.lft.to/lastmile_qr_scan", "android": "https://dc.lft.to/lastmile_qr_scan"}, "is_reserved": 0}, {"lon": -77.00758683333333, "bike_id": "e5303c3d0f20103c114542b572d94896", "lat": 38.90739466666667, "fusion_lon": 0.0, "fusion_lat": 0.0, "type": "electric_scooter", "name": "e5303c3d0f20103c114542b572d94896", "is_disabled": 0, "rental_uris": {"ios": "https://dc.lft.to/lastmile_qr_scan", "android": "https://dc.lft.to/lastmile_qr_scan"}, "is_reserved": 0}, {"lon": -77.02390566666666, "bike_id": "0f814d1166028cbe3a4791e24c3ef0f8", "lat": 38.92063483333333, "fusion_lon": 0.0, "fusion_lat": 0.0, "type": "electric_scooter", "name": "0f814d1166028cbe3a4791e24c3ef0f8", "is_disabled": 0, "rental_uris": {"ios": "https://dc.lft.to/lastmile_qr_scan", "android": "https://dc.lft.to/lastmile_qr_scan"}, "is_reserved": 0}, {"lon": -76.990366, "bike_id": "d430b9fad42e08086c6dc8f6e9738854", "lat": 38.902879666666664, "fusion_lon": 0.0, "fusion_lat": 0.0, "type": "electric_scooter", "name": "d430b9fad42e08086c6dc8f6e9738854", "is_disabled": 0, "rental_uris": {"ios": "https://dc.lft.to/lastmile_qr_scan", "android": "https://dc.lft.to/lastmile_qr_scan"}, "is_reserved": 0}, {"lon": -77.02511083333333, "bike_id": "90af4ffc02ebae8d8c59f329bcfd4aeb", "lat": 38.93984666666667, "fusion_lon": 0.0, "fusion_lat": 0.0, "type": "electric_scooter", "name": "90af4ffc02ebae8d8c59f329bcfd4aeb", "is_disabled": 0, "rental_uris": {"ios": "https://dc.lft.to/lastmile_qr_scan", "android": "https://dc.lft.to/lastmile_qr_scan"}, "is_reserved": 0}, {"lon": -77.00083316666667, "bike_id": "4aa1b5eb9acd6f1465c8f0dbc8836356", "lat": 38.894691, "fusion_lon": 0.0, "fusion_lat": 0.0, "type": "electric_scooter", "name": "4aa1b5eb9acd6f1465c8f0dbc8836356", "is_disabled": 0, "rental_uris": {"ios": "https://dc.lft.to/lastmile_qr_scan", "android": "https://dc.lft.to/lastmile_qr_scan"}, "is_reserved": 0}, {"lon": -77.01622033333334, "bike_id": "3599f4fccca3fbcf295bf12feffacb5b", "lat": 38.90612566666667, "fusion_lon": 0.0, "fusion_lat": 0.0, "type": "electric_scooter", "name": "3599f4fccca3fbcf295bf12feffacb5b", "is_disabled": 0, "rental_uris": {"ios": "https://dc.lft.to/lastmile_qr_scan", "android": "https://dc.lft.to/lastmile_qr_scan"}, "is_reserved": 0}, {"lon": -76.98339416666667, "bike_id": "c96e498589e403f9340ed72452e1fd2e", "lat": 38.866387333333336, "fusion_lon": 0.0, "fusion_lat": 0.0, "type": "electric_scooter", "name": "c96e498589e403f9340ed72452e1fd2e", "is_disabled": 0, "rental_uris": {"ios": "https://dc.lft.to/lastmile_qr_scan", "android": "https://dc.lft.to/lastmile_qr_scan"}, "is_reserved": 0}, {"lon": -77.01632916666667, "bike_id": "c73ba9bc09716e0ac7f03b713821eb16", "lat": 38.903475, "fusion_lon": 0.0, "fusion_lat": 0.0, "type": "electric_scooter", "name": "c73ba9bc09716e0ac7f03b713821eb16", "is_disabled": 0, "rental_uris": {"ios": "https://dc.lft.to/lastmile_qr_scan", "android": "https://dc.lft.to/lastmile_qr_scan"}, "is_reserved": 0}, {"lon": -77.04195616666667, "bike_id": "d4f06e97b374b4061a0f6b1f5da809af", "lat": 38.907670333333336, "fusion_lon": 0.0, "fusion_lat": 0.0, "type": "electric_scooter", "name": "d4f06e97b374b4061a0f6b1f5da809af", "is_disabled": 0, "rental_uris": {"ios": "https://dc.lft.to/lastmile_qr_scan", "android": "https://dc.lft.to/lastmile_qr_scan"}, "is_reserved": 0}, {"lon": -77.052662, "bike_id": "25223fbd2c82a3f1f749148d603e6107", "lat": 38.927765666666666, "fusion_lon": 0.0, "fusion_lat": 0.0, "type": "electric_scooter", "name": "25223fbd2c82a3f1f749148d603e6107", "is_disabled": 0, "rental_uris": {"ios": "https://dc.lft.to/lastmile_qr_scan", "android": "https://dc.lft.to/lastmile_qr_scan"}, "is_reserved": 0}, {"lon": -77.063981, "bike_id": "6d74e3f645707f8fba1cbf153f00c4b6", "lat": 38.94324566666667, "fusion_lon": 0.0, "fusion_lat": 0.0, "type": "electric_scooter", "name": "6d74e3f645707f8fba1cbf153f00c4b6", "is_disabled": 0, "rental_uris": {"ios": "https://dc.lft.to/lastmile_qr_scan", "android": "https://dc.lft.to/lastmile_qr_scan"}, "is_reserved": 0}, {"lon": -77.01212933333333, "bike_id": "f0a09bafb9285d18e6b19ca28b86aa16", "lat": 38.885571, "fusion_lon": 0.0, "fusion_lat": 0.0, "type": "electric_scooter", "name": "f0a09bafb9285d18e6b19ca28b86aa16", "is_disabled": 0, "rental_uris": {"ios": "https://dc.lft.to/lastmile_qr_scan", "android": "https://dc.lft.to/lastmile_qr_scan"}, "is_reserved": 0}, {"lon": -76.97707766666667, "bike_id": "52a98192b923a468f4f282a60a3113de", "lat": 38.949186, "fusion_lon": 0.0, "fusion_lat": 0.0, "type": "electric_bike", "name": "52a98192b923a468f4f282a60a3113de", "is_disabled": 0, "rental_uris": {"ios": "https://dc.lft.to/lastmile_qr_scan", "android": "https://dc.lft.to/lastmile_qr_scan"}, "is_reserved": 0}, {"lon": -77.03206216666666, "bike_id": "e00fd22a894f91c58aaecd3f3392c56f", "lat": 38.916823, "fusion_lon": 0.0, "fusion_lat": 0.0, "type": "electric_scooter", "name": "e00fd22a894f91c58aaecd3f3392c56f", "is_disabled": 0, "rental_uris": {"ios": "https://dc.lft.to/lastmile_qr_scan", "android": "https://dc.lft.to/lastmile_qr_scan"}, "is_reserved": 0}, {"lon": -77.0385575, "bike_id": "7844b2b371b8e253e31a7e91f6ce3dd3", "lat": 38.91555066666667, "fusion_lon": 0.0, "fusion_lat": 0.0, "type": "electric_scooter", "name": "7844b2b371b8e253e31a7e91f6ce3dd3", "is_disabled": 0, "rental_uris": {"ios": "https://dc.lft.to/lastmile_qr_scan", "android": "https://dc.lft.to/lastmile_qr_scan"}, "is_reserved": 0}, {"lon": -77.03265833333333, "bike_id": "9b3850289fbd7368f4489a522ee49c25", "lat": 38.914078333333336, "fusion_lon": 0.0, "fusion_lat": 0.0, "type": "electric_scooter", "name": "9b3850289fbd7368f4489a522ee49c25", "is_disabled": 0, "rental_uris": {"ios": "https://dc.lft.to/lastmile_qr_scan", "android": "https://dc.lft.to/lastmile_qr_scan"}, "is_reserved": 0}, {"lon": -77.007625, "bike_id": "759ed3f74b9506bc2dcf51c357a3441d", "lat": 38.87106033333333, "fusion_lon": 0.0, "fusion_lat": 0.0, "type": "electric_scooter", "name": "759ed3f74b9506bc2dcf51c357a3441d", "is_disabled": 0, "rental_uris": {"ios": "https://dc.lft.to/lastmile_qr_scan", "android": "https://dc.lft.to/lastmile_qr_scan"}, "is_reserved": 0}, {"lon": -77.3609245, "bike_id": "041faa285d0f5d92702936bce3d9aa1e", "lat": 38.93956433333334, "fusion_lon": 0.0, "fusion_lat": 0.0, "type": "electric_bike", "name": "041faa285d0f5d92702936bce3d9aa1e", "is_disabled": 0, "rental_uris": {"ios": "https://dc.lft.to/lastmile_qr_scan", "android": "https://dc.lft.to/lastmile_qr_scan"}, "is_reserved": 0}, {"lon": -77.02435083333333, "bike_id": "9d1ae82da91ae5015d4d5e0affbbd89e", "lat": 38.92040383333333, "fusion_lon": 0.0, "fusion_lat": 0.0, "type": "electric_scooter", "name": "9d1ae82da91ae5015d4d5e0affbbd89e", "is_disabled": 0, "rental_uris": {"ios": "https://dc.lft.to/lastmile_qr_scan", "android": "https://dc.lft.to/lastmile_qr_scan"}, "is_reserved": 0}, {"lon": -77.02504166666667, "bike_id": "a166b57b8a48c6d19cbbb11daf223e85", "lat": 38.909526166666666, "fusion_lon": 0.0, "fusion_lat": 0.0, "type": "electric_scooter", "name": "a166b57b8a48c6d19cbbb11daf223e85", "is_disabled": 0, "rental_uris": {"ios": "https://dc.lft.to/lastmile_qr_scan", "android": "https://dc.lft.to/lastmile_qr_scan"}, "is_reserved": 0}, {"lon": -76.947265, "bike_id": "e1106c348496d019276d0e559e81ba2d", "lat": 38.897414, "fusion_lon": 0.0, "fusion_lat": 0.0, "type": "electric_scooter", "name": "e1106c348496d019276d0e559e81ba2d", "is_disabled": 0, "rental_uris": {"ios": "https://dc.lft.to/lastmile_qr_scan", "android": "https://dc.lft.to/lastmile_qr_scan"}, "is_reserved": 0}, {"lon": -77.0228645, "bike_id": "85b48287e18d2a90521e05abac59d347", "lat": 38.909573, "fusion_lon": 0.0, "fusion_lat": 0.0, "type": "electric_scooter", "name": "85b48287e18d2a90521e05abac59d347", "is_disabled": 0, "rental_uris": {"ios": "https://dc.lft.to/lastmile_qr_scan", "android": "https://dc.lft.to/lastmile_qr_scan"}, "is_reserved": 0}, {"lon": -77.016244, "bike_id": "336bcb24c28425a189786470fd070dd7", "lat": 38.965744, "fusion_lon": 0.0, "fusion_lat": 0.0, "type": "electric_scooter", "name": "336bcb24c28425a189786470fd070dd7", "is_disabled": 0, "rental_uris": {"ios": "https://dc.lft.to/lastmile_qr_scan", "android": "https://dc.lft.to/lastmile_qr_scan"}, "is_reserved": 0}, {"lon": -76.90597583333333, "bike_id": "43e8160cb809d768842b19bd68477c42", "lat": 39.00460233333333, "fusion_lon": 0.0, "fusion_lat": 0.0, "type": "electric_bike", "name": "43e8160cb809d768842b19bd68477c42", "is_disabled": 0, "rental_uris": {"ios": "https://dc.lft.to/lastmile_qr_scan", "android": "https://dc.lft.to/lastmile_qr_scan"}, "is_reserved": 0},