{"data": {"bikes": [{"rental_uris": {"ios": "https://dc.lft.to/lastmile_qr_scan", "android": "https://dc.lft.to/lastmile_qr_scan"}, "lon": -76.996946, "type": "electric_scooter", "fusion_lat": 0.0, "lat": 38.9008185, "name": "2be44e68d628ea31564f53963574ccdd", "fusion_lon": 0.0, "bike_id": "2be44e68d628ea31564f53963574ccdd", "is_disabled": 0, "is_reserved": 0}, {"rental_uris": {"ios": "https://dc.lft.to/lastmile_qr_scan", "android": "https://dc.lft.to/lastmile_qr_scan"}, "lon": -77.02965133333333, "type": "electric_scooter", "fusion_lat": 0.0, "lat": 38.922725666666665, "name": "94a67f828aac890be199c4625b04ead7", "fusion_lon": 0.0, "bike_id": "94a67f828aac890be199c4625b04ead7", "is_disabled": 0, "is_reserved": 0}, {"rental_uris": {"ios": "https://dc.lft.to/lastmile_qr_scan", "android": "https://dc.lft.to/lastmile_qr_scan"}, "lon": -77.02603083333334, "type": "electric_bike", "fusion_lat": 0.0, "lat": 38.962603, "name": "4f9bbdc872377fe9fe1169627fabbb1b", "fusion_lon": 0.0, "bike_id": "4f9bbdc872377fe9fe1169627fabbb1b", "is_disabled": 0, "is_reserved": 0}, {"rental_uris": {"ios": "https://dc.lft.to/lastmile_qr_scan", "android": "https://dc.lft.to/lastmile_qr_scan"}, "lon": -76.99550216666667, "type": "electric_scooter", "fusion_lat": 0.0, "lat": 38.90125583333333, "name": "041f13cb1988517ce34da2026aedea69", "fusion_lon": 0.0, "bike_id": "041f13cb1988517ce34da2026aedea69", "is_disabled": 0, "is_reserved": 0}, {"rental_uris": {"ios": "https://dc.lft.to/lastmile_qr_scan", "android": "https://dc.lft.to/lastmile_qr_scan"}, "lon": -77.0326725, "type": "electric_scooter", "fusion_lat": 0.0, "lat": 38.9288355, "name": "23207cd871d05e60ebdf998319de41c9", "fusion_lon": 0.0, "bike_id": "23207cd871d05e60ebdf998319de41c9", "is_disabled": 0, "is_reserved": 0}, {"rental_uris": {"ios": "https://dc.lft.to/lastmile_qr_scan", "android": "https://dc.lft.to/lastmile_qr_scan"}, "lon": -77.04633366666667, "type": "electric_scooter", "fusion_lat": 0.0, "lat": 38.901199, "name": "90496f9c514459814037308c095aa575", "fusion_lon": 0.0, "bike_id": "90496f9c514459814037308c095aa575", "is_disabled": 0, "is_reserved": 0}, {"rental_uris": {"ios": "https://dc.lft.to/lastmile_qr_scan", "android": "https://dc.lft.to/lastmile_qr_scan"}, "lon": -76.94213416666666, "type": "electric_scooter", "fusion_lat": 0.0, "lat": 38.896690666666665, "name": "efee613ae996061b02cd00502c589bd8", "fusion_lon": 0.0, "bike_id": "efee613ae996061b02cd00502c589bd8", "is_disabled": 0, "is_reserved": 0}, {"rental_uris": {"ios": "https://dc.lft.to/lastmile_qr_scan", "android": "https://dc.lft.to/lastmile_qr_scan"}, "lon": -76.94991216666666, "type": "electric_scooter", "fusion_lat": 0.0, "lat": 38.893709, "name": "c190d348f168fad08d1abfabf358a69e", "fusion_lon": 0.0, "bike_id": "c190d348f168fad08d1abfabf358a69e", "is_disabled": 0, "is_reserved": 0}, {"rental_uris": {"ios": "https://dc.lft.to/lastmile_qr_scan", "android": "https://dc.lft.to/lastmile_qr_scan"}, "lon": -76.93230166666666, "type": "electric_bike", "fusion_lat": 0.0, "lat": 38.8659675, "name": "ce7c0377d21774a0c1d4544bd4ddec35", "fusion_lon": 0.0, "bike_id": "ce7c0377d21774a0c1d4544bd4ddec35", "is_disabled": 0, "is_reserved": 0}, {"rental_uris": {"ios": "https://dc.lft.to/lastmile_qr_scan", "android": "https://dc.lft.to/lastmile_qr_scan"}, "lon": -76.9729395, "type": "electric_scooter", "fusion_lat": 0.0, "lat": 38.903342333333335, "name": "9773de94483c1b43685140ce2f532177", "fusion_lon": 0.0, "bike_id": "9773de94483c1b43685140ce2f532177", "is_disabled": 0, "is_reserved": 0}, {"rental_uris": {"ios": "https://dc.lft.to/lastmile_qr_scan", "android": "https://dc.lft.to/lastmile_qr_scan"}, "lon": -77.054735, "type": "electric_scooter", "fusion_lat": 0.0, "lat": 38.89389516666667, "name": "84735660c89982c4cdd8e18b16fac0a9", "fusion_lon": 0.0, "bike_id": "84735660c89982c4cdd8e18b16fac0a9", "is_disabled": 0, "is_reserved": 0}, {"rental_uris": {"ios": "https://dc.lft.to/lastmile_qr_scan", "android": "https://dc.lft.to/lastmile_qr_scan"}, "lon": -77.04998366666666, "type": "electric_scooter", "fusion_lat": 0.0, "lat": 38.8922765, "name": "053291d622e7f11f22f6a7ff5ef06d3e", "fusion_lon": 0.0, "bike_id": "053291d622e7f11f22f6a7ff5ef06d3e", "is_disabled": 0, "is_reserved": 0}, {"rental_uris": {"ios": "https://dc.lft.to/lastmile_qr_scan", "android": "https://dc.lft.to/lastmile_qr_scan"}, "lon": -77.12961566666667, "type": "electric_bike", "fusion_lat": 0.0, "lat": 38.85216616666666, "name": "cce4c4905142e4aca4dd8c0fad6918af", "fusion_lon": 0.0, "bike_id": "cce4c4905142e4aca4dd8c0fad6918af", "is_disabled": 0, "is_reserved": 0}, {"rental_uris": {"ios": "https://dc.lft.to/lastmile_qr_scan", "android": "https://dc.lft.to/lastmile_qr_scan"}, "lon": -77.092036, "type": "electric_scooter", "fusion_lat": 0.0, "lat": 38.941336166666666, "name": "5c7243bb89f0a3103d5c2bdcf225741f", "fusion_lon": 0.0, "bike_id": "5c7243bb89f0a3103d5c2bdcf225741f", "is_disabled": 0, "is_reserved": 0}, {"rental_uris": {"ios": "https://dc.lft.to/lastmile_qr_scan", "android": "https://dc.lft.to/lastmile_qr_scan"}, "lon": -76.99509533333334, "type": "electric_scooter", "fusion_lat": 0.0, "lat": 38.88599166666667, "name": "a6d86d732688e74fbb8f1b185cf0ed56", "fusion_lon": 0.0, "bike_id": "a6d86d732688e74fbb8f1b185cf0ed56", "is_disabled": 0, "is_reserved": 0}, {"rental_uris": {"ios": "https://dc.lft.to/lastmile_qr_scan", "android": "https://dc.lft.to/lastmile_qr_scan"}, "lon": -77.00732333333333, "type": "electric_scooter", "fusion_lat": 0.0, "lat": 38.87904533333333, "name": "47a44e00ea13574c85d7de8a876b8732", "fusion_lon": 0.0, "bike_id": "47a44e00ea13574c85d7de8a876b8732", "is_disabled": 0, "is_reserved": 0}, {"rental_uris": {"ios": "https://dc.lft.to/lastmile_qr_scan", "android": "https://dc.lft.to/lastmile_qr_scan"}, "lon": -76.96846933333333, "type": "electric_scooter", "fusion_lat": 0.0, "lat": 38.87467383333333, "name": "4029a18ba08275c288e92cbd7281aff4", "fusion_lon": 0.0, "bike_id": "4029a18ba08275c288e92cbd7281aff4", "is_disabled": 0, "is_reserved": 0}, {"rental_uris": {"ios": "https://dc.lft.to/lastmile_qr_scan", "android": "https://dc.lft.to/lastmile_qr_scan"}, "lon": -76.93370283333333, "type": "electric_scooter", "fusion_lat": 0.0, "lat": 38.899187833333336, "name": "4151702b770330a4f418910c4c8c60eb", "fusion_lon": 0.0, "bike_id": "4151702b770330a4f418910c4c8c60eb", "is_disabled": 0, "is_reserved": 0}, {"rental_uris": {"ios": "https://dc.lft.to/lastmile_qr_scan", "android": "https://dc.lft.to/lastmile_qr_scan"}, "lon": -77.0476085, "type": "electric_scooter", "fusion_lat": 0.0, "lat": 38.907200333333336, "name": "3277bd3c312a2f09d1906b37c5447af1", "fusion_lon": 0.0, "bike_id": "3277bd3c312a2f09d1906b37c5447af1", "is_disabled": 0, "is_reserved": 0}, {"rental_uris": {"ios": "https://dc.lft.to/lastmile_qr_scan", "android": "https://dc.lft.to/lastmile_qr_scan"}, "lon": -77.04669166666666, "type": "electric_scooter", "fusion_lat": 0.0, "lat": 38.90954683333333, "name": "ff3ab7b1fc7ee5956e32184f3ffeb827", "fusion_lon": 0.0, "bike_id": "ff3ab7b1fc7ee5956e32184f3ffeb827", "is_disabled": 0, "is_reserved": 0}, {"rental_uris": {"ios": "https://dc.lft.to/lastmile_qr_scan", "android": "https://dc.lft.to/lastmile_qr_scan"}, "lon": -77.00598833333333, "type": "electric_scooter", "fusion_lat": 0.0, "lat": 38.90646816666667, "name": "9b98d04d28da98e54381069e453e45ac", "fusion_lon": 0.0, "bike_id": "9b98d04d28da98e54381069e453e45ac", "is_disabled": 0, "is_reserved": 0}, {"rental_uris": {"ios": "https://dc.lft.to/lastmile_qr_scan", "android": "https://dc.lft.to/lastmile_qr_scan"}, "lon": -77.02469333333333, "type": "electric_scooter", "fusion_lat": 0.0, "lat": 38.917053, "name": "bce2c41e91003000c394316a4d500d3c", "fusion_lon": 0.0, "bike_id": "bce2c41e91003000c394316a4d500d3c", "is_disabled": 0, "is_reserved": 0}, {"rental_uris": {"ios": "https://dc.lft.to/lastmile_qr_scan", "android": "https://dc.lft.to/lastmile_qr_scan"}, "lon": -76.93193833333333, "type": "electric_scooter", "fusion_lat": 0.0, "lat": 38.8899245, "name": "f597c9ab195bbe2071234ee6e0c1e5d0", "fusion_lon": 0.0, "bike_id": "f597c9ab195bbe2071234ee6e0c1e5d0", "is_disabled": 0, "is_reserved": 0}, {"rental_uris": {"ios": "https://dc.lft.to/lastmile_qr_scan", "android": "https://dc.lft.to/lastmile_qr_scan"}, "lon": -76.99502983333333, "type": "electric_scooter", "fusion_lat": 0.0, "lat": 38.883063166666666, "name": "2d29d5a0bde8b48acdb3468c755f4b2a", "fusion_lon": 0.0, "bike_id": "2d29d5a0bde8b48acdb3468c755f4b2a", "is_disabled": 0, "is_reserved": 0}, {"rental_uris": {"ios": "https://dc.lft.to/lastmile_qr_scan", "android": "https://dc.lft.to/lastmile_qr_scan"}, "lon": -77.06363083333333, "type": "electric_scooter", "fusion_lat": 0.0, "lat": 38.909322, "name": "dd187242ea2a9dc1d0b757f38f00ed1d", "fusion_lon": 0.0, "bike_id": "dd187242ea2a9dc1d0b757f38f00ed1d", "is_disabled": 0, "is_reserved": 0}, {"rental_uris": {"ios": "https://dc.lft.to/lastmile_qr_scan", "android": "https://dc.lft.to/lastmile_qr_scan"}, "lon": -77.04502716666667, "type": "electric_scooter", "fusion_lat": 0.0, "lat": 38.900369166666664, "name": "74d60d1341064af48f5c0f5529d77ff8", "fusion_lon": 0.0, "bike_id": "74d60d1341064af48f5c0f5529d77ff8", "is_disabled": 0, "is_reserved": 0}, {"rental_uris": {"ios": "https://dc.lft.to/lastmile_qr_scan", "android": "https://dc.lft.to/lastmile_qr_scan"}, "lon": -76.99888983333334, "type": "electric_scooter", "fusion_lat": 0.0, "lat": 38.909497333333334, "name": "8916302c10e0762fe795dae2964452a0", "fusion_lon": 0.0, "bike_id": "8916302c10e0762fe795dae2964452a0", "is_disabled": 0, "is_reserved": 0}, {"rental_uris": {"ios": "https://dc.lft.to/lastmile_qr_scan", "android": "https://dc.lft.to/lastmile_qr_scan"}, "lon": -77.00584716666667, "type": "electric_scooter", "fusion_lat": 0.0, "lat": 38.90648733333333, "name": "dc4b806cc8c20e0dac302f4c7cc11138", "fusion_lon": 0.0, "bike_id": "dc4b806cc8c20e0dac302f4c7cc11138", "is_disabled": 0, "is_reserved": 0}, {"rental_uris": {"ios": "https://dc.lft.to/lastmile_qr_scan", "android": "https://dc.lft.to/lastmile_qr_scan"}, "lon": -76.97745033333334, "type": "electric_scooter", "fusion_lat": 0.0, "lat": 38.90010066666667, "name": "b783f91fcd67082fbe9d5d8f79ec6c73", "fusion_lon": 0.0, "bike_id": "b783f91fcd67082fbe9d5d8f79ec6c73", "is_disabled": 0, "is_reserved": 0}, {"rental_uris": {"ios": "https://dc.lft.to/lastmile_qr_scan", "android": "https://dc.lft.to/lastmile_qr_scan"}, "lon": -76.95762483333333, "type": "electric_bike", "fusion_lat": 0.0, "lat": 38.884149, "name": "36bcc1e332ae44f59111b821cf4a274e", "fusion_lon": 0.0, "bike_id": "36bcc1e332ae44f59111b821cf4a274e", "is_disabled": 0, "is_reserved": 0}, {"rental_uris": {"ios": "https://dc.lft.to/lastmile_qr_scan", "android": "https://dc.lft.to/lastmile_qr_scan"}, "lon": -77.10710033333334, "type": "electric_bike", "fusion_lat": 0.0, "lat": 38.855675166666664, "name": "3f780638b5ff921ac7793095739ffbe7", "fusion_lon": 0.0, "bike_id": "3f780638b5ff921ac7793095739ffbe7", "is_disabled": 0, "is_reserved": 0}, {"rental_uris": {"ios": "https://dc.lft.to/lastmile_qr_scan", "android": "https://dc.lft.to/lastmile_qr_scan"}, "lon": -77.0204975, "type": "electric_scooter", "fusion_lat": 0.0, "lat": 38.901806, "name": "742f946082b5933f734c5561f5189e9b", "fusion_lon": 0.0, "bike_id": "742f946082b5933f734c5561f5189e9b", "is_disabled": 0, "is_reserved": 0}, {"rental_uris": {"ios": "https://dc.lft.to/lastmile_qr_scan", "android": "https://dc.lft.to/lastmile_qr_scan"}, "lon": -77.03830666666667, "type": "electric_scooter", "fusion_lat": 0.0, "lat": 38.921742333333334, "name": "4dc0046671d4ce82008f89b6df7735a7", "fusion_lon": 0.0, "bike_id": "4dc0046671d4ce82008f89b6df7735a7", "is_disabled": 0, "is_reserved": 0}, {"rental_uris": {"ios": "https://dc.lft.to/lastmile_qr_scan", "android": "https://dc.lft.to/lastmile_qr_scan"}, "lon": -76.97616733333334, "type": "electric_scooter", "fusion_lat": 0.0, "lat": 38.90382433333333, "name": "8a05c29b022ce8adf4dd0fc8c2eb337f", "fusion_lon": 0.0, "bike_id": "8a05c29b022ce8adf4dd0fc8c2eb337f", "is_disabled": 0, "is_reserved": 0}, {"rental_uris": {"ios": "https://dc.lft.to/lastmile_qr_scan", "android": "https://dc.lft.to/lastmile_qr_scan"}, "lon": -76.94633033333334, "type": "electric_scooter", "fusion_lat": 0.0, "lat": 38.89831783333333, "name": "99bb364ac64ac701d06636ee7a5a721f", "fusion_lon": 0.0, "bike_id": "99bb364ac64ac701d06636ee7a5a721f", "is_disabled": 0, "is_reserved": 0}, {"rental_uris": {"ios": "https://dc.lft.to/lastmile_qr_scan", "android": "https://dc.lft.to/lastmile_qr_scan"}, "lon": -76.87822633333333, "type": "electric_bike", "fusion_lat": 0.0, "lat": 38.99232133333334, "name": "78778b2b66a503028d01dc0e97528360", "fusion_lon": 0.0, "bike_id": "78778b2b66a503028d01dc0e97528360", "is_disabled": 0, "is_reserved": 0}, {"rental_uris": {"ios": "https://dc.lft.to/lastmile_qr_scan", "android": "https://dc.lft.to/lastmile_qr_scan"}, "lon": -77.03787066666666, "type": "electric_scooter", "fusion_lat": 0.0, "lat": 38.926247833333335, "name": "8fa7eebb01ffed655208e5cf264f3a60", "fusion_lon": 0.0, "bike_id": "8fa7eebb01ffed655208e5cf264f3a60", "is_disabled": 0, "is_reserved": 0}, {"rental_uris": {"ios": "https://dc.lft.to/lastmile_qr_scan", "android": "https://dc.lft.to/lastmile_qr_scan"}, "lon": -76.98262116666666, "type": "electric_scooter", "fusion_lat": 0.0, "lat": 38.863495666666665, "name": "339f7cc6ddb8c15687841f393a723c92", "fusion_lon": 0.0, "bike_id": "339f7cc6ddb8c15687841f393a723c92", "is_disabled": 0, "is_reserved": 0}, {"rental_uris": {"ios": "https://dc.lft.to/lastmile_qr_scan", "android": "https://dc.lft.to/lastmile_qr_scan"}, "lon": -77.04792283333333, "type": "electric_scooter", "fusion_lat": 0.0, "lat": 38.893699, "name": "732e47236d7eddf3e2bdc7e98b481a4e", "fusion_lon": 0.0, "bike_id": "732e47236d7eddf3e2bdc7e98b481a4e", "is_disabled": 0, "is_reserved": 0}, {"rental_uris": {"ios": "https://dc.lft.to/lastmile_qr_scan", "android": "https://dc.lft.to/lastmile_qr_scan"}, "lon": -77.0165465, "type": "electric_scooter", "fusion_lat": 0.0, "lat": 38.9533475, "name": "6f17e8b260027199c9e4f758610dd892", "fusion_lon": 0.0, "bike_id": "6f17e8b260027199c9e4f758610dd892", "is_disabled": 0, "is_reserved": 0}, {"rental_uris": {"ios": "https://dc.lft.to/lastmile_qr_scan", "android": "https://dc.lft.to/lastmile_qr_scan"}, "lon": -77.02711566666666, "type": "electric_scooter", "fusion_lat": 0.0, "lat": 38.919657, "name": "4d6df98a3379012fb87feb47be3c1a8d", "fusion_lon": 0.0, "bike_id": "4d6df98a3379012fb87feb47be3c1a8d", "is_disabled": 0, "is_reserved": 0}, {"rental_uris": {"ios": "https://dc.lft.to/lastmile_qr_scan", "android": "https://dc.lft.to/lastmile_qr_scan"}, "lon": -77.01359666666667, "type": "electric_scooter", "fusion_lat": 0.0, "lat": 38.92734316666667, "name": "95e25d59886bf039502519863d86e6b1", "fusion_lon": 0.0, "bike_id": "95e25d59886bf039502519863d86e6b1", "is_disabled": 0, "is_reserved": 0}, {"rental_uris": {"ios": "https://dc.lft.to/lastmile_qr_scan", "android": "https://dc.lft.to/lastmile_qr_scan"}, "lon": -76.99377716666666, "type": "electric_scooter", "fusion_lat": 0.0, "lat": 38.897415333333335, "name": "35ca95e43709b714927e54880c2481fc", "fusion_lon": 0.0, "bike_id": "35ca95e43709b714927e54880c2481fc", "is_disabled": 0, "is_reserved": 0}, {"rental_uris": {"ios": "https://dc.lft.to/lastmile_qr_scan", "android": "https://dc.lft.to/lastmile_qr_scan"}, "lon": -77.03231716666667, "type": "electric_scooter", "fusion_lat": 0.0, "lat": 38.91406116666667, "name": "0ac6bcf54aa816fc13d7ce99f685f1af", "fusion_lon": 0.0, "bike_id": "0ac6bcf54aa816fc13d7ce99f685f1af", "is_disabled": 0, "is_reserved": 0}, {"rental_uris": {"ios": "https://dc.lft.to/lastmile_qr_scan", "android": "https://dc.lft.to/lastmile_qr_scan"}, "lon": -77.05435966666667, "type": "electric_scooter", "fusion_lat": 0.0, "lat": 38.896066166666664, "name": "bf16709d52f5175ceda877433bf658ce", "fusion_lon": 0.0, "bike_id": "bf16709d52f5175ceda877433bf658ce", "is_disabled": 0, "is_reserved": 0}, {"rental_uris": {"ios": "https://dc.lft.to/lastmile_qr_scan", "android": "https://dc.lft.to/lastmile_qr_scan"}, "lon": -77.04424583333333, "type": "electric_scooter", "fusion_lat": 0.0, "lat": 38.905742333333336, "name": "ad94b1479a771eb938b1dc6bade902cd", "fusion_lon": 0.0, "bike_id": "ad94b1479a771eb938b1dc6bade902cd", "is_disabled": 0, "is_reserved": 0}, {"rental_uris": {"ios": "https://dc.lft.to/lastmile_qr_scan", "android": "https://dc.lft.to/lastmile_qr_scan"}, "lon": -77.01120066666667, "type": "electric_scooter", "fusion_lat": 0.0, "lat": 38.900135, "name": "e4ddb8837459834825bacd524864c55a", "fusion_lon": 0.0, "bike_id": "e4ddb8837459834825bacd524864c55a", "is_disabled": 0, "is_reserved": 0}, {"rental_uris": {"ios": "https://dc.lft.to/lastmile_qr_scan", "android": "https://dc.lft.to/lastmile_qr_scan"}, "lon": -77.062658, "type": "electric_scooter", "fusion_lat": 0.0, "lat": 38.90358033333333, "name": "ab19a108e11574a85dd84703daaacf80", "fusion_lon": 0.0, "bike_id": "ab19a108e11574a85dd84703daaacf80", "is_disabled": 0, "is_reserved": 0}, {"rental_uris": {"ios": "https://dc.lft.to/lastmile_qr_scan", "android": "https://dc.lft.to/lastmile_qr_scan"}, "lon": -77.058637, "type": "electric_scooter", "fusion_lat": 0.0, "lat": 38.9360575, "name": "0acb0b766bb4cee5472d91e1a78cdab8", "fusion_lon": 0.0, "bike_id": "0acb0b766bb4cee5472d91e1a78cdab8", "is_disabled": 0, "is_reserved": 0}, {"rental_uris": {"ios": "https://dc.lft.to/lastmile_qr_scan", "android": "https://dc.lft.to/lastmile_qr_scan"}, "lon": -77.04673983333333, "type": "electric_scooter", "fusion_lat": 0.0, "lat": 38.905415833333336, "name": "6f79d3c88761b766295808887211a81c", "fusion_lon": 0.0, "bike_id": "6f79d3c88761b766295808887211a81c", "is_disabled": 0, "is_reserved": 0}, {"rental_uris": {"ios": "https://dc.lft.to/lastmile_qr_scan", "android": "https://dc.lft.to/lastmile_qr_scan"}, "lon": -76.990646, "type": "electric_scooter", "fusion_lat": 0.0, "lat": 38.863584833333334, "name": "85b61341730adc0940d4e90e4157751c", "fusion_lon": 0.0, "bike_id": "85b61341730adc0940d4e90e4157751c", "is_disabled": 0, "is_reserved": 0}, {"rental_uris": {"ios": "https://dc.lft.to/lastmile_qr_scan", "android": "https://dc.lft.to/lastmile_qr_scan"}, "lon": -76.99835033333333, "type": "electric_scooter", "fusion_lat": 0.0, "lat": 38.90003, "name": "275b404bf0956a6400ad248764d0d957", "fusion_lon": 0.0, "bike_id": "275b404bf0956a6400ad248764d0d957", "is_disabled": 0, "is_reserved": 0}, {"rental_uris": {"ios": "https://dc.lft.to/lastmile_qr_scan", "android": "https://dc.lft.to/lastmile_qr_scan"}, "lon": -77.05527016666667, "type": "electric_scooter", "fusion_lat": 0.0, "lat": 38.8973185, "name": "90fa48cb3d5e5da71c8b4e70e1c2900e", "fusion_lon": 0.0, "bike_id": "90fa48cb3d5e5da71c8b4e70e1c2900e", "is_disabled": 0, "is_reserved": 0}, {"rental_uris": {"ios": "https://dc.lft.to/lastmile_qr_scan", "android": "https://dc.lft.to/lastmile_qr_scan"}, "lon": -77.0332245, "type": "electric_scooter", "fusion_lat": 0.0, "lat": 38.89823483333333, "name": "3f1118d56b814d00767641d815ca4c26", "fusion_lon": 0.0, "bike_id": "3f1118d56b814d00767641d815ca4c26", "is_disabled": 0, "is_reserved": 0}, {"rental_uris": {"ios": "https://dc.lft.to/lastmile_qr_scan", "android": "https://dc.lft.to/lastmile_qr_scan"}, "lon": -77.04646333333334, "type": "electric_bike", "fusion_lat": 0.0, "lat": 38.85211616666667, "name": "6d5be8b015c5e4b2e2cbeaffbcd02b6e", "fusion_lon": 0.0, "bike_id": "6d5be8b015c5e4b2e2cbeaffbcd02b6e", "is_disabled": 0, "is_reserved": 0}, {"rental_uris": {"ios": "https://dc.lft.to/lastmile_qr_scan", "android": "https://dc.lft.to/lastmile_qr_scan"}, "lon": -76.947503, "type": "electric_scooter", "fusion_lat": 0.0, "lat": 38.896886333333335, "name": "31315d69388458e6842ab6e6ebbdd4ef", "fusion_lon": 0.0, "bike_id": "31315d69388458e6842ab6e6ebbdd4ef", "is_disabled": 0, "is_reserved": 0}, {"rental_uris": {"ios": "https://dc.lft.to/lastmile_qr_scan", "android": "https://dc.lft.to/lastmile_qr_scan"}, "lon": -77.05524783333334, "type": "electric_scooter", "fusion_lat": 0.0, "lat": 38.89730766666667, "name": "4c2226e1b3bf2523c693e1bdb7f303e5", "fusion_lon": 0.0, "bike_id": "4c2226e1b3bf2523c693e1bdb7f303e5", "is_disabled": 0, "is_reserved": 0}, {"rental_uris": {"ios": "https://dc.lft.to/lastmile_qr_scan", "android": "https://dc.lft.to/lastmile_qr_scan"}, "lon": -77.04826983333334, "type": "electric_scooter", "fusion_lat": 0.0, "lat": 38.907980333333334, "name": "1224e0df0b2eac6e80eac9bbabf7f47f", "fusion_lon": 0.0, "bike_id": "1224e0df0b2eac6e80eac9bbabf7f47f", "is_disabled": 0, "is_reserved": 0}, {"rental_uris": {"ios": "https://dc.lft.to/lastmile_qr_scan", "android": "https://dc.lft.to/lastmile_qr_scan"}, "lon": -77.04605966666666, "type": "electric_scooter", "fusion_lat": 0.0, "lat": 38.90653233333333, "name": "711afd9b16ba7d6ecc42ff00e800a5ee", "fusion_lon": 0.0, "bike_id": "711afd9b16ba7d6ecc42ff00e800a5ee", "is_disabled": 0, "is_reserved": 0}, {"rental_uris": {"ios": "https://dc.lft.to/lastmile_qr_scan", "android": "https://dc.lft.to/lastmile_qr_scan"}, "lon": -76.93367183333334, "type": "electric_scooter", "fusion_lat": 0.0, "lat": 38.899150166666665, "name": "1c3598eede148ce877b0eea4e7b88e05", "fusion_lon": 0.0, "bike_id": "1c3598eede148ce877b0eea4e7b88e05", "is_disabled": 0, "is_reserved": 0}, {"rental_uris": {"ios": "https://dc.lft.to/lastmile_qr_scan", "android": "https://dc.lft.to/lastmile_qr_scan"}, "lon": -77.051554, "type": "electric_scooter", "fusion_lat": 0.0, "lat": 38.89784366666667, "name": "5c69c2a20b4458b14e03f4c36886b32d", "fusion_lon": 0.0, "bike_id": "5c69c2a20b4458b14e03f4c36886b32d", "is_disabled": 0, "is_reserved": 0}, {"rental_uris": {"ios": "https://dc.lft.to/lastmile_qr_scan", "android": "https://dc.lft.to/lastmile_qr_scan"}, "lon": -77.03863066666666, "type": "electric_scooter", "fusion_lat": 0.0, "lat": 38.904197, "name": "c7c5ce5dbd6484a1ef89fc4d6059d860", "fusion_lon": 0.0, "bike_id": "c7c5ce5dbd6484a1ef89fc4d6059d860", "is_disabled": 0, "is_reserved": 0}, {"rental_uris": {"ios": "https://dc.lft.to/lastmile_qr_scan", "android": "https://dc.lft.to/lastmile_qr_scan"}, "lon": -77.014345, "type": "electric_scooter", "fusion_lat": 0.0, "lat": 38.929905833333336, "name": "4997c54c173938792d5f0a2fa9c59669", "fusion_lon": 0.0, "bike_id": "4997c54c173938792d5f0a2fa9c59669", "is_disabled": 0, "is_reserved": 0}, {"rental_uris": {"ios": "https://dc.lft.to/lastmile_qr_scan", "android": "https://dc.lft.to/lastmile_qr_scan"}, "lon": -77.01756333333333, "type": "electric_scooter", "fusion_lat": 0.0, "lat": 38.87712466666667, "name": "b5ce28bf552d2247a13e7ffaf6c5a571", "fusion_lon": 0.0, "bike_id": "b5ce28bf552d2247a13e7ffaf6c5a571", "is_disabled": 0, "is_reserved": 0}, {"rental_uris": {"ios": "https://dc.lft.to/lastmile_qr_scan", "android": "https://dc.lft.to/lastmile_qr_scan"}, "lon": -76.99542033333333, "type": "electric_scooter", "fusion_lat": 0.0, "lat": 38.8860035, "name": "14d714455b416ec988af7ae22495838d", "fusion_lon": 0.0, "bike_id": "14d714455b416ec988af7ae22495838d", "is_disabled": 0, "is_reserved": 0}, {"rental_uris": {"ios": "https://dc.lft.to/lastmile_qr_scan", "android": "https://dc.lft.to/lastmile_qr_scan"}, "lon": -77.06412666666667, "type": "electric_scooter", "fusion_lat": 0.0, "lat": 38.90909216666667, "name": "e0680a6cfa983b5e6feb432814d4408b", "fusion_lon": 0.0, "bike_id": "e0680a6cfa983b5e6feb432814d4408b", "is_disabled": 0, "is_reserved": 0}, {"rental_uris": {"ios": "https://dc.lft.to/lastmile_qr_scan", "android": "https://dc.lft.to/lastmile_qr_scan"}, "lon": -77.05633083333333, "type": "electric_scooter", "fusion_lat": 0.0, "lat": 38.92755066666667, "name": "7b4fb580af338c2292b824db4c183edc", "fusion_lon": 0.0, "bike_id": "7b4fb580af338c2292b824db4c183edc", "is_disabled": 0, "is_reserved": 0}, {"rental_uris": {"ios": "https://dc.lft.to/lastmile_qr_scan", "android": "https://dc.lft.to/lastmile_qr_scan"}, "lon": -77.01392066666666, "type": "electric_scooter", "fusion_lat": 0.0, "lat": 38.9194375, "name": "be8274f2340d175779a86b4aa61b99c7", "fusion_lon": 0.0, "bike_id": "be8274f2340d175779a86b4aa61b99c7", "is_disabled": 0, "is_reserved": 0}, {"rental_uris": {"ios": "https://dc.lft.to/lastmile_qr_scan", "android": "https://dc.lft.to/lastmile_qr_scan"}, "lon": -77.0403185, "type": "electric_scooter", "fusion_lat": 0.0, "lat": 38.924422666666665, "name": "ee9263202cf91f24050b0b36feacd906", "fusion_lon": 0.0, "bike_id": "ee9263202cf91f24050b0b36feacd906", "is_disabled": 0, "is_reserved": 0}, {"rental_uris": {"ios": "https://dc.lft.to/lastmile_qr_scan", "android": "https://dc.lft.to/lastmile_qr_scan"}, "lon": -77.04679066666667, "type": "electric_scooter", "fusion_lat": 0.0, "lat": 38.9054365, "name": "ea72ad0568aa30332a0c1ecb4c4e8df1", "fusion_lon": 0.0, "bike_id": "ea72ad0568aa30332a0c1ecb4c4e8df1", "is_disabled": 0, "is_reserved": 0}, {"rental_uris": {"ios": "https://dc.lft.to/lastmile_qr_scan", "android": "https://dc.lft.to/lastmile_qr_scan"}, "lon": -77.07232333333333, "type": "electric_scooter", "fusion_lat": 0.0, "lat": 38.93391, "name": "7c3c036c1757322b2f5f30f92daa9f93", "fusion_lon": 0.0, "bike_id": "7c3c036c1757322b2f5f30f92daa9f93", "is_disabled": 0, "is_reserved": 0}, {"rental_uris": {"ios": "https://dc.lft.to/lastmile_qr_scan", "android": "https://dc.lft.to/lastmile_qr_scan"}, "lon": -77.03184633333333, "type": "electric_scooter", "fusion_lat": 0.0, "lat": 38.917940333333334, "name": "c059a4489fc70f8e7fcb36a9035bbd3d", "fusion_lon": 0.0, "bike_id": "c059a4489fc70f8e7fcb36a9035bbd3d", "is_disabled": 0, "is_reserved": 0}, {"rental_uris": {"ios": "https://dc.lft.to/lastmile_qr_scan", "android": "https://dc.lft.to/lastmile_qr_scan"}, "lon": -77.07476683333333, "type": "electric_scooter", "fusion_lat": 0.0, "lat": 38.960373, "name": "1b6531bfb4499bfd5c495d3d01d4d03d", "fusion_lon": 0.0, "bike_id": "1b6531bfb4499bfd5c495d3d01d4d03d", "is_disabled": 0, "is_reserved": 0}, {"rental_uris": {"ios": "https://dc.lft.to/lastmile_qr_scan", "android": "https://dc.lft.to/lastmile_qr_scan"}, "lon": -77.0727005, "type": "electric_scooter", "fusion_lat": 0.0, "lat": 38.93480516666666, "name": "d7ef3c1e952753fcaedfab9e31f7187f", "fusion_lon": 0.0, "bike_id": "d7ef3c1e952753fcaedfab9e31f7187f", "is_disabled": 0, "is_reserved": 0}, {"rental_uris": {"ios": "https://dc.lft.to/lastmile_qr_scan", "android": "https://dc.lft.to/lastmile_qr_scan"}, "lon": -77.023418, "type": "electric_scooter", "fusion_lat": 0.0, "lat": 38.96205666666667, "name": "3f36fd5f21c7e5a08f76f1cb8a01966d", "fusion_lon": 0.0, "bike_id": "3f36fd5f21c7e5a08f76f1cb8a01966d", "is_disabled": 0, "is_reserved": 0}, {"rental_uris": {"ios": "https://dc.lft.to/lastmile_qr_scan", "android": "https://dc.lft.to/lastmile_qr_scan"}, "lon": -77.00505433333333, "type": "electric_scooter", "fusion_lat": 0.0, "lat": 38.89592, "name": "80d53f9c66bfa9f4be4bf374fc61c93a", "fusion_lon": 0.0, "bike_id": "80d53f9c66bfa9f4be4bf374fc61c93a", "is_disabled": 0, "is_reserved": 0}, {"rental_uris": {"ios": "https://dc.lft.to/lastmile_qr_scan", "android": "https://dc.lft.to/lastmile_qr_scan"}, "lon": -77.01203266666667, "type": "electric_scooter", "fusion_lat": 0.0, "lat": 38.900061666666666, "name": "644b873f4c88c70f120a6e1809bce83e", "fusion_lon": 0.0, "bike_id": "644b873f4c88c70f120a6e1809bce83e", "is_disabled": 0, "is_reserved": 0}, {"rental_uris": {"ios": "https://dc.lft.to/lastmile_qr_scan", "android": "https://dc.lft.to/lastmile_qr_scan"}, "lon": -77.04183166666667, "type": "electric_scooter", "fusion_lat": 0.0, "lat": 38.919840666666666, "name": "e78ce6401edcf9f5110d777fe04c1b60", "fusion_lon": 0.0, "bike_id": "e78ce6401edcf9f5110d777fe04c1b60", "is_disabled": 0, "is_reserved": 0}, {"rental_uris": {"ios": "https://dc.lft.to/lastmile_qr_scan", "android": "https://dc.lft.to/lastmile_qr_scan"}, "lon": -77.04655233333334, "type": "electric_scooter", "fusion_lat": 0.0, "lat": 38.91273016666667, "name": "c37544d26c0094904cdfc494ffc60f07", "fusion_lon": 0.0, "bike_id": "c37544d26c0094904cdfc494ffc60f07", "is_disabled": 0, "is_reserved": 0}, {"rental_uris": {"ios": "https://dc.lft.to/lastmile_qr_scan", "android": "https://dc.lft.to/lastmile_qr_scan"}, "lon": -77.0052055, "type": "electric_scooter", "fusion_lat": 0.0, "lat": 38.928992, "name": "aead75f6defc09d8810a7ceb5f4f3997", "fusion_lon": 0.0, "bike_id": "aead75f6defc09d8810a7ceb5f4f3997", "is_disabled": 0, "is_reserved": 0}, {"rental_uris": {"ios": "https://dc.lft.to/lastmile_qr_scan", "android": "https://dc.lft.to/lastmile_qr_scan"}, "lon": -77.05249083333334, "type": "electric_scooter", "fusion_lat": 0.0, "lat": 38.9237395, "name": "24ec3847847f960f2c03599b8c2e3e86", "fusion_lon": 0.0, "bike_id": "24ec3847847f960f2c03599b8c2e3e86", "is_disabled": 0, "is_reserved": 0}, {"rental_uris": {"ios": "https://dc.lft.to/lastmile_qr_scan", "android": "https://dc.lft.to/lastmile_qr_scan"}, "lon": -77.01259383333333, "type": "electric_scooter", "fusion_lat": 0.0, "lat": 38.89965483333334, "name": "4d48e8f8682673f3a48b7b6810e9c9e6", "fusion_lon": 0.0, "bike_id": "4d48e8f8682673f3a48b7b6810e9c9e6", "is_disabled": 0, "is_reserved": 0}, {"rental_uris": {"ios": "https://dc.lft.to/lastmile_qr_scan", "android": "https://dc.lft.to/lastmile_qr_scan"}, "lon": -76.99001683333333, "type": "electric_scooter", "fusion_lat": 0.0, "lat": 38.865041833333336, "name": "04836d247fdd98046a5f2b0e1319e636", "fusion_lon": 0.0, "bike_id": "04836d247fdd98046a5f2b0e1319e636", "is_disabled": 0, "is_reserved": 0}, {"rental_uris": {"ios": "https://dc.lft.to/lastmile_qr_scan", "android": "https://dc.lft.to/lastmile_qr_scan"}, "lon": -77.02678483333334, "type": "electric_scooter", "fusion_lat": 0.0, "lat": 38.91691133333333, "name": "b53cb9e6aeaa26154c7847a23bd81389", "fusion_lon": 0.0, "bike_id": "b53cb9e6aeaa26154c7847a23bd81389", "is_disabled": 0, "is_reserved": 0}, {"rental_uris": {"ios": "https://dc.lft.to/lastmile_qr_scan", "android": "https://dc.lft.to/lastmile_qr_scan"}, "lon": -77.035589, "type": "electric_scooter", "fusion_lat": 0.0, "lat": 38.92674216666666, "name": "eda2cd0d1a83fb9fd80559f286d139a5", "fusion_lon": 0.0, "bike_id": "eda2cd0d1a83fb9fd80559f286d139a5", "is_disabled": 0, "is_reserved": 0}, {"rental_uris": {"ios": "https://dc.lft.to/lastmile_qr_scan", "android": "https://dc.lft.to/lastmile_qr_scan"}, "lon": -77.13593516666667, "type": "electric_bike", "fusion_lat": 0.0, "lat": 39.053450166666664, "name": "bd24e025498efa4d3a2bbfcbb8f7f13e", "fusion_lon": 0.0, "bike_id": "bd24e025498efa4d3a2bbfcbb8f7f13e", "is_disabled": 0, "is_reserved": 0}, {"rental_uris": {"ios": "https://dc.lft.to/lastmile_qr_scan", "android": "https://dc.lft.to/lastmile_qr_scan"}, "lon": -76.986317, "type": "electric_scooter", "fusion_lat": 0.0, "lat": 38.86821366666667, "name": "7ee351604bc1203c0f91de5b77c901ae", "fusion_lon": 0.0, "bike_id": "7ee351604bc1203c0f91de5b77c901ae", "is_disabled": 0, "is_reserved": 0}, {"rental_uris": {"ios": "https://dc.lft.to/lastmile_qr_scan", "android": "https://dc.lft.to/lastmile_qr_scan"}, "lon": -77.03337383333333, "type": "electric_scooter", "fusion_lat": 0.0, "lat": 38.91912683333334, "name": "fd32d6f0243688f1719b4db9fbb398d9", "fusion_lon": 0.0, "bike_id": "fd32d6f0243688f1719b4db9fbb398d9", "is_disabled": 0, "is_reserved": 0}, {"rental_uris": {"ios": "https://dc.lft.to/lastmile_qr_scan", "android": "https://dc.lft.to/lastmile_qr_scan"}, "lon": -77.01094716666667, "type": "electric_scooter", "fusion_lat": 0.0, "lat": 38.895451333333334, "name": "d83ad4e3692508bf0ade67606b61eaff", "fusion_lon": 0.0, "bike_id": "d83ad4e3692508bf0ade67606b61eaff", "is_disabled": 0, "is_reserved": 0}, {"rental_uris": {"ios": "https://dc.lft.to/lastmile_qr_scan", "android": "https://dc.lft.to/lastmile_qr_scan"}, "lon": -77.07940216666667, "type": "electric_scooter", "fusion_lat": 0.0, "lat": 38.948697, "name": "7907eae08c4a640a414d00dc49e1393f", "fusion_lon": 0.0, "bike_id": "7907eae08c4a640a414d00dc49e1393f", "is_disabled": 0, "is_reserved": 0}, {"rental_uris": {"ios": "https://dc.lft.to/lastmile_qr_scan", "android": "https://dc.lft.to/lastmile_qr_scan"}, "lon": -77.02581866666667, "type": "electric_scooter", "fusion_lat": 0.0, "lat": 38.895849, "name": "02c2c9166550be5bedbcde371d65776e", "fusion_lon": 0.0, "bike_id": "02c2c9166550be5bedbcde371d65776e", "is_disabled": 0, "is_reserved": 0}, {"rental_uris": {"ios": "https://dc.lft.to/lastmile_qr_scan", "android": "https://dc.lft.to/lastmile_qr_scan"}, "lon": -77.02702333333333, "type": "electric_scooter", "fusion_lat": 0.0, "lat": 38.917959, "name": "c05dc0cdb3add5a9fe31f7aaed1633be", "fusion_lon": 0.0, "bike_id": "c05dc0cdb3add5a9fe31f7aaed1633be", "is_disabled": 0, "is_reserved": 0}, {"rental_uris": {"ios": "https://dc.lft.to/lastmile_qr_scan", "android": "https://dc.lft.to/lastmile_qr_scan"}, "lon": -77.00718366666666, "type": "electric_scooter", "fusion_lat": 0.0, "lat": 38.91343716666667, "name": "77110f72ef52e8b66cce11c3b084f1ca", "fusion_lon": 0.0, "bike_id": "77110f72ef52e8b66cce11c3b084f1ca", "is_disabled": 0, "is_reserved": 0}, {"rental_uris": {"ios": "https://dc.lft.to/lastmile_qr_scan", "android": "https://dc.lft.to/lastmile_qr_scan"}, "lon": -77.05268866666667, "type": "electric_scooter", "fusion_lat": 0.0, "lat": 38.910215, "name": "2d5df92b19bf38ceb943d0b49fc8edb7", "fusion_lon": 0.0, "bike_id": "2d5df92b19bf38ceb943d0b49fc8edb7", "is_disabled": 0, "is_reserved": 0}, {"rental_uris": {"ios": "https://dc.lft.to/lastmile_qr_scan", "android": "https://dc.lft.to/lastmile_qr_scan"}, "lon": -77.0159495, "type": "electric_scooter", "fusion_lat": 0.0, "lat": 38.89616933333333, "name": "63d1589b5ec509df954528b168d04465", "fusion_lon": 0.0, "bike_id": "63d1589b5ec509df954528b168d04465", "is_disabled": 0, "is_reserved": 0}, {"rental_uris": {"ios": "https://dc.lft.to/lastmile_qr_scan", "android": "https://dc.lft.to/lastmile_qr_scan"}, "lon": -76.92996383333333, "type": "electric_bike", "fusion_lat": 0.0, "lat": 38.887965666666666, "name": "55cb83c88dc74861cb66323b3b27f6b2", "fusion_lon": 0.0, "bike_id": "55cb83c88dc74861cb66323b3b27f6b2", "is_disabled": 0, "is_reserved": 0}, {"rental_uris": {"ios": "https://dc.lft.to/lastmile_qr_scan", "android": "https://dc.lft.to/lastmile_qr_scan"}, "lon": -76.939587, "type": "electric_scooter", "fusion_lat": 0.0, "lat": 38.89410983333333, "name": "da3b72230addce2cbc087b01ca70d639", "fusion_lon": 0.0, "bike_id": "da3b72230addce2cbc087b01ca70d639", "is_disabled": 0, "is_reserved": 0}, {"rental_uris": {"ios": "https://dc.lft.to/lastmile_qr_scan", "android": "https://dc.lft.to/lastmile_qr_scan"}, "lon": -77.04927483333333, "type": "electric_scooter", "fusion_lat": 0.0, "lat": 38.89605683333333, "name": "82b470e59fbf463da4f68e2ee8ec102a", "fusion_lon": 0.0, "bike_id": "82b470e59fbf463da4f68e2ee8ec102a", "is_disabled": 0, "is_reserved": 0}, {"rental_uris": {"ios": "https://dc.lft.to/lastmile_qr_scan", "android": "https://dc.lft.to/lastmile_qr_scan"}, "lon": -77.0249785, "type": "electric_scooter", "fusion_lat": 0.0, "lat": 38.88028216666667, "name": "8ca940ead2ab586c382f2b6e6d66f92f", "fusion_lon": 0.0, "bike_id": "8ca940ead2ab586c382f2b6e6d66f92f", "is_disabled": 0, "is_reserved": 0}, {"rental_uris": {"ios": "https://dc.lft.to/lastmile_qr_scan", "android": "https://dc.lft.to/lastmile_qr_scan"}, "lon": -77.04169783333333, "type": "electric_scooter", "fusion_lat": 0.0, "lat": 38.9176765, "name": "3f85b7d65f8d338056f20d8b72f3fb1d", "fusion_lon": 0.0, "bike_id": "3f85b7d65f8d338056f20d8b72f3fb1d", "is_disabled": 0, "is_reserved": 0}, {"rental_uris": {"ios": "https://dc.lft.to/lastmile_qr_scan", "android": "https://dc.lft.to/lastmile_qr_scan"}, "lon": -76.9955515, "type": "electric_scooter", "fusion_lat": 0.0, "lat": 38.92303866666666, "name": "96fde225d59d94c2d041b411e1bc5d24", "fusion_lon": 0.0, "bike_id": "96fde225d59d94c2d041b411e1bc5d24", "is_disabled": 0, "is_reserved": 0}, {"rental_uris": {"ios": "https://dc.lft.to/lastmile_qr_scan", "android": "https://dc.lft.to/lastmile_qr_scan"}, "lon": -77.036294, "type": "electric_scooter", "fusion_lat": 0.0, "lat": 38.9563975, "name": "f50588e6dc5b076e900bfa89516471cf", "fusion_lon": 0.0, "bike_id": "f50588e6dc5b076e900bfa89516471cf", "is_disabled": 0, "is_reserved": 0}, {"rental_uris": {"ios": "https://dc.lft.to/lastmile_qr_scan", "android": "https://dc.lft.to/lastmile_qr_scan"}, "lon": -77.02935433333333, "type": "electric_bike", "fusion_lat": 0.0, "lat": 38.89928066666667, "name": "0b0c5ad397ba60620a6f46b6654c25cf", "fusion_lon": 0.0, "bike_id": "0b0c5ad397ba60620a6f46b6654c25cf", "is_disabled": 0, "is_reserved": 0}, {"rental_uris": {"ios": "https://dc.lft.to/lastmile_qr_scan", "android": "https://dc.lft.to/lastmile_qr_scan"}, "lon": -77.020095, "type": "electric_scooter", "fusion_lat": 0.0, "lat": 38.90267983333333, "name": "4da26b8c05c45f5dea593904368cc472", "fusion_lon": 0.0, "bike_id": "4da26b8c05c45f5dea593904368cc472", "is_disabled": 0, "is_reserved": 0}, {"rental_uris": {"ios": "https://dc.lft.to/lastmile_qr_scan", "android": "https://dc.lft.to/lastmile_qr_scan"}, "lon": -77.043926, "type": "electric_bike", "fusion_lat": 0.0, "lat": 38.92948066666666, "name": "8c8979f8a2fc837f57e01e95a6b760ab", "fusion_lon": 0.0, "bike_id": "8c8979f8a2fc837f57e01e95a6b760ab", "is_disabled": 0, "is_reserved": 0}, {"rental_uris": {"ios": "https://dc.lft.to/lastmile_qr_scan", "android": "https://dc.lft.to/lastmile_qr_scan"}, "lon": -77.0173765, "type": "electric_scooter", "fusion_lat": 0.0, "lat": 38.974738333333335, "name": "363f03ef920bb55011d741c928d666ee", "fusion_lon": 0.0, "bike_id": "363f03ef920bb55011d741c928d666ee", "is_disabled": 0, "is_reserved": 0}, {"rental_uris": {"ios": "https://dc.lft.to/lastmile_qr_scan", "android": "https://dc.lft.to/lastmile_qr_scan"}, "lon": -77.04534316666667, "type": "electric_scooter", "fusion_lat": 0.0, "lat": 38.91936616666667, "name": "cbd5167444b01e362c9470a6016cff13", "fusion_lon": 0.0, "bike_id": "cbd5167444b01e362c9470a6016cff13", "is_disabled": 0, "is_reserved": 0}, {"rental_uris": {"ios": "https://dc.lft.to/lastmile_qr_scan", "android": "https://dc.lft.to/lastmile_qr_scan"}, "lon": -76.97328366666666, "type": "electric_bike", "fusion_lat": 0.0, "lat": 38.85061683333333, "name": "706e162eb8989d08d3a3337c020d2c50", "fusion_lon": 0.0, "bike_id": "706e162eb8989d08d3a3337c020d2c50", "is_disabled": 0, "is_reserved": 0}, {"rental_uris": {"ios": "https://dc.lft.to/lastmile_qr_scan", "android": "https://dc.lft.to/lastmile_qr_scan"}, "lon": -77.05235583333334, "type": "electric_scooter", "fusion_lat": 0.0, "lat": 38.9246625, "name": "d19640f2b0da7ef275350aadc6d1885a", "fusion_lon": 0.0, "bike_id": "d19640f2b0da7ef275350aadc6d1885a", "is_disabled": 0, "is_reserved": 0}, {"rental_uris": {"ios": "https://dc.lft.to/lastmile_qr_scan", "android": "https://dc.lft.to/lastmile_qr_scan"}, "lon": -77.03218916666667, "type": "electric_scooter", "fusion_lat": 0.0, "lat": 38.91816333333333, "name": "face27e4b2a9e67f7349c4f7b3f0a319", "fusion_lon": 0.0, "bike_id": "face27e4b2a9e67f7349c4f7b3f0a319", "is_disabled": 0, "is_reserved": 0}, {"rental_uris": {"ios": "https://dc.lft.to/lastmile_qr_scan", "android": "https://dc.lft.to/lastmile_qr_scan"}, "lon": -77.00891433333334, "type": "electric_scooter", "fusion_lat": 0.0, "lat": 38.92310333333333, "name": "2f9cb2dfec7d0a22795e4f2da281e2a9", "fusion_lon": 0.0, "bike_id": "2f9cb2dfec7d0a22795e4f2da281e2a9", "is_disabled": 0, "is_reserved": 0}, {"rental_uris": {"ios": "https://dc.lft.to/lastmile_qr_scan", "android": "https://dc.lft.to/lastmile_qr_scan"}, "lon": -77.03975483333333, "type": "electric_scooter", "fusion_lat": 0.0, "lat": 38.90283733333333, "name": "47aa1f752ea20593122743e899e01367", "fusion_lon": 0.0, "bike_id": "47aa1f752ea20593122743e899e01367", "is_disabled": 0, "is_reserved": 0}, {"rental_uris": {"ios": "https://dc.lft.to/lastmile_qr_scan", "android": "https://dc.lft.to/lastmile_qr_scan"}, "lon": -77.05264166666667, "type": "electric_scooter", "fusion_lat": 0.0, "lat": 38.91014666666667, "name": "0ada9688f5c7a39b2a679ccad6a4b651", "fusion_lon": 0.0, "bike_id": "0ada9688f5c7a39b2a679ccad6a4b651", "is_disabled": 0, "is_reserved": 0}, {"rental_uris": {"ios": "https://dc.lft.to/lastmile_qr_scan", "android": "https://dc.lft.to/lastmile_qr_scan"}, "lon": -77.04250166666667, "type": "electric_scooter", "fusion_lat": 0.0, "lat": 38.9080005, "name": "e575647460074f2b398795ca56799137", "fusion_lon": 0.0, "bike_id": "e575647460074f2b398795ca56799137", "is_disabled": 0, "is_reserved": 0}, {"rental_uris": {"ios": "https://dc.lft.to/lastmile_qr_scan", "android": "https://dc.lft.to/lastmile_qr_scan"}, "lon": -77.06326033333333, "type": "electric_scooter", "fusion_lat": 0.0, "lat": 38.905287333333334, "name": "bccf57739920153eb1f5a3e98938bd8b", "fusion_lon": 0.0, "bike_id": "bccf57739920153eb1f5a3e98938bd8b", "is_disabled": 0, "is_reserved": 0}, {"rental_uris": {"ios": "https://dc.lft.to/lastmile_qr_scan", "android": "https://dc.lft.to/lastmile_qr_scan"}, "lon": -77.00058633333333, "type": "electric_scooter", "fusion_lat": 0.0, "lat": 38.90871716666667, "name": "d5572c72b1f8d53f2767d668be050d18", "fusion_lon": 0.0, "bike_id": "d5572c72b1f8d53f2767d668be050d18", "is_disabled": 0, "is_reserved": 0}, {"rental_uris": {"ios": "https://dc.lft.to/lastmile_qr_scan", "android": "https://dc.lft.to/lastmile_qr_scan"}, "lon": -77.00862533333333, "type": "electric_scooter", "fusion_lat": 0.0, "lat": 38.90494733333333, "name": "00ae8382f2bbd781f87233bdb1f06f70", "fusion_lon": 0.0, "bike_id": "00ae8382f2bbd781f87233bdb1f06f70", "is_disabled": 0, "is_reserved": 0}, {"rental_uris": {"ios": "https://dc.lft.to/lastmile_qr_scan", "android": "https://dc.lft.to/lastmile_qr_scan"}, "lon": -76.95186333333334, "type": "electric_scooter", "fusion_lat": 0.0, "lat": 38.8913475, "name": "9d445f36da65ac562c074ce60a1c3400", "fusion_lon": 0.0, "bike_id": "9d445f36da65ac562c074ce60a1c3400", "is_disabled": 0, "is_reserved": 0}, {"rental_uris": {"ios": "https://dc.lft.to/lastmile_qr_scan", "android": "https://dc.lft.to/lastmile_qr_scan"}, "lon": -77.034374, "type": "electric_scooter", "fusion_lat": 0.0, "lat": 38.9181035, "name": "6813f08d1f5ffb152a864cc0d932357d", "fusion_lon": 0.0, "bike_id": "6813f08d1f5ffb152a864cc0d932357d", "is_disabled": 0, "is_reserved": 0}, {"rental_uris": {"ios": "https://dc.lft.to/lastmile_qr_scan", "android": "https://dc.lft.to/lastmile_qr_scan"}, "lon": -77.04310966666667, "type": "electric_scooter", "fusion_lat": 0.0, "lat": 38.9236975, "name": "df7e40ad4b8cfcbead4e54b3f051cf26", "fusion_lon": 0.0, "bike_id": "df7e40ad4b8cfcbead4e54b3f051cf26", "is_disabled": 0, "is_reserved": 0}, {"rental_uris": {"ios": "https://dc.lft.to/lastmile_qr_scan", "android": "https://dc.lft.to/lastmile_qr_scan"}, "lon": -77.02960983333334, "type": "electric_scooter", "fusion_lat": 0.0, "lat": 38.92425516666667, "name": "aa6b13dbe7842c8e15cbb304d61cc10a", "fusion_lon": 0.0, "bike_id": "aa6b13dbe7842c8e15cbb304d61cc10a", "is_disabled": 0, "is_reserved": 0}, {"rental_uris": {"ios": "https://dc.lft.to/lastmile_qr_scan", "android": "https://dc.lft.to/lastmile_qr_scan"}, "lon": -77.06034833333334, "type": "electric_scooter", "fusion_lat": 0.0, "lat": 38.905261333333335, "name": "6d0dac859354e71654ae653bd8feb062", "fusion_lon": 0.0, "bike_id": "6d0dac859354e71654ae653bd8feb062", "is_disabled": 0, "is_reserved": 0}, {"rental_uris": {"ios": "https://dc.lft.to/lastmile_qr_scan", "android": "https://dc.lft.to/lastmile_qr_scan"}, "lon": -77.02236816666667, "type": "electric_scooter", "fusion_lat": 0.0, "lat": 38.916476, "name": "3ac9a945de9842aa328bf15ce785a065", "fusion_lon": 0.0, "bike_id": "3ac9a945de9842aa328bf15ce785a065", "is_disabled": 0, "is_reserved": 0}, {"rental_uris": {"ios": "https://dc.lft.to/lastmile_qr_scan", "android": "https://dc.lft.to/lastmile_qr_scan"}, "lon": -77.035122, "type": "electric_scooter", "fusion_lat": 0.0, "lat": 38.90679733333333, "name": "5fb8f164f1b19163fabf995c7769980c", "fusion_lon": 0.0, "bike_id": "5fb8f164f1b19163fabf995c7769980c", "is_disabled": 0, "is_reserved": 0}, {"rental_uris": {"ios": "https://dc.lft.to/lastmile_qr_scan", "android": "https://dc.lft.to/lastmile_qr_scan"}, "lon": -77.01649416666666, "type": "electric_scooter", "fusion_lat": 0.0, "lat": 38.9293145, "name": "c162b065c4fa4760b83ec9e230cb50ac", "fusion_lon": 0.0, "bike_id": "c162b065c4fa4760b83ec9e230cb50ac", "is_disabled": 0, "is_reserved": 0}, {"rental_uris": {"ios": "https://dc.lft.to/lastmile_qr_scan", "android": "https://dc.lft.to/lastmile_qr_scan"}, "lon": -77.041664, "type": "electric_scooter", "fusion_lat": 0.0, "lat": 38.917677, "name": "3ebba81e1cd51897581579d31a6dd57d", "fusion_lon": 0.0, "bike_id": "3ebba81e1cd51897581579d31a6dd57d", "is_disabled": 0, "is_reserved": 0}, {"rental_uris": {"ios": "https://dc.lft.to/lastmile_qr_scan", "android": "https://dc.lft.to/lastmile_qr_scan"}, "lon": -77.04004566666667, "type": "electric_scooter", "fusion_lat": 0.0, "lat": 38.90032766666667, "name": "21ee2561c0ccdb60b2c8dfd9a28e7943", "fusion_lon": 0.0, "bike_id": "21ee2561c0ccdb60b2c8dfd9a28e7943", "is_disabled": 0, "is_reserved": 0}, {"rental_uris": {"ios": "https://dc.lft.to/lastmile_qr_scan", "android": "https://dc.lft.to/lastmile_qr_scan"}, "lon": -77.00740716666667, "type": "electric_scooter", "fusion_lat": 0.0, "lat": 38.95519766666666, "name": "6e532c65be6aaed2af8e265c7e94bcfc", "fusion_lon": 0.0, "bike_id": "6e532c65be6aaed2af8e265c7e94bcfc", "is_disabled": 0, "is_reserved": 0}, {"rental_uris": {"ios": "https://dc.lft.to/lastmile_qr_scan", "android": "https://dc.lft.to/lastmile_qr_scan"}, "lon": -76.99002433333334, "type": "electric_scooter", "fusion_lat": 0.0, "lat": 38.86503583333333, "name": "33ec773345105fb050022731bafeedfe", "fusion_lon": 0.0, "bike_id": "33ec773345105fb050022731bafeedfe", "is_disabled": 0, "is_reserved": 0}, {"rental_uris": {"ios": "https://dc.lft.to/lastmile_qr_scan", "android": "https://dc.lft.to/lastmile_qr_scan"}, "lon": -77.06114016666666, "type": "electric_scooter", "fusion_lat": 0.0, "lat": 38.912960166666664, "name": "5c043a6af74c20e2c01cb704775fcb59", "fusion_lon": 0.0, "bike_id": "5c043a6af74c20e2c01cb704775fcb59", "is_disabled": 0, "is_reserved": 0}, {"rental_uris": {"ios": "https://dc.lft.to/lastmile_qr_scan", "android": "https://dc.lft.to/lastmile_qr_scan"}, "lon": -77.03217766666667, "type": "electric_scooter", "fusion_lat": 0.0, "lat": 38.91270316666667, "name": "5706bda0fa27161fe133957d3978e987", "fusion_lon": 0.0, "bike_id": "5706bda0fa27161fe133957d3978e987", "is_disabled": 0, "is_reserved": 0}, {"rental_uris": {"ios": "https://dc.lft.to/lastmile_qr_scan", "android": "https://dc.lft.to/lastmile_qr_scan"}, "lon": -77.055954, "type": "electric_scooter", "fusion_lat": 0.0, "lat": 38.936959333333334, "name": "edbf7faa1d0a3eefa9e2b60f71297fb0", "fusion_lon": 0.0, "bike_id": "edbf7faa1d0a3eefa9e2b60f71297fb0", "is_disabled": 0, "is_reserved": 0}, {"rental_uris": {"ios": "https://dc.lft.to/lastmile_qr_scan", "android": "https://dc.lft.to/lastmile_qr_scan"}, "lon": -77.04703616666667, "type": "electric_scooter", "fusion_lat": 0.0, "lat": 38.921051, "name": "dd5de3875c5ded60e58b065b6db055ba", "fusion_lon": 0.0, "bike_id": "dd5de3875c5ded60e58b065b6db055ba", "is_disabled": 0, "is_reserved": 0}, {"rental_uris": {"ios": "https://dc.lft.to/lastmile_qr_scan", "android": "https://dc.lft.to/lastmile_qr_scan"}, "lon": -77.03992633333333, "type": "electric_scooter", "fusion_lat": 0.0, "lat": 38.892231, "name": "1376c12780204fbb270458ecfa52f756", "fusion_lon": 0.0, "bike_id": "1376c12780204fbb270458ecfa52f756", "is_disabled": 0, "is_reserved": 0}, {"rental_uris": {"ios": "https://dc.lft.to/lastmile_qr_scan", "android": "https://dc.lft.to/lastmile_qr_scan"}, "lon": -76.9680575, "type": "electric_bike", "fusion_lat": 0.0, "lat": 38.955292, "name": "1bb54e1c6a8c23e2cd283901a256f1e9", "fusion_lon": 0.0, "bike_id": "1bb54e1c6a8c23e2cd283901a256f1e9", "is_disabled": 0, "is_reserved": 0}, {"rental_uris": {"ios": "https://dc.lft.to/lastmile_qr_scan", "android": "https://dc.lft.to/lastmile_qr_scan"}, "lon": -77.021496, "type": "electric_scooter", "fusion_lat": 0.0, "lat": 38.909714, "name": "4c7749e82e0ef1a44a572c9c2b4a67fb", "fusion_lon": 0.0, "bike_id": "4c7749e82e0ef1a44a572c9c2b4a67fb", "is_disabled": 0, "is_reserved": 0}, {"rental_uris": {"ios": "https://dc.lft.to/lastmile_qr_scan", "android": "https://dc.lft.to/lastmile_qr_scan"}, "lon": -77.0417185, "type": "electric_scooter", "fusion_lat": 0.0, "lat": 38.91855, "name": "0ef39e47c74a8e6aeae0a9d8ef0193da", "fusion_lon": 0.0, "bike_id": "0ef39e47c74a8e6aeae0a9d8ef0193da", "is_disabled": 0, "is_reserved": 0}, {"rental_uris": {"ios": "https://dc.lft.to/lastmile_qr_scan", "android": "https://dc.lft.to/lastmile_qr_scan"}, "lon": -77.02399033333333, "type": "electric_bike", "fusion_lat": 0.0, "lat": 38.95643533333333, "name": "1ea66e9e2fa9357a871cafd870a2f351", "fusion_lon": 0.0, "bike_id": "1ea66e9e2fa9357a871cafd870a2f351", "is_disabled": 0, "is_reserved": 0}, {"rental_uris": {"ios": "https://dc.lft.to/lastmile_qr_scan", "android": "https://dc.lft.to/lastmile_qr_scan"}, "lon": -77.02947966666666, "type": "electric_scooter", "fusion_lat": 0.0, "lat": 38.903718833333336, "name": "60bd6b33f36b82429b933330f8e7e1b1", "fusion_lon": 0.0, "bike_id": "60bd6b33f36b82429b933330f8e7e1b1", "is_disabled": 0, "is_reserved": 0}, {"rental_uris": {"ios": "https://dc.lft.to/lastmile_qr_scan", "android": "https://dc.lft.to/lastmile_qr_scan"}, "lon": -77.04562933333334, "type": "electric_scooter", "fusion_lat": 0.0, "lat": 38.913086, "name": "10e86bead4033f6b54fc07ea90fd9f08", "fusion_lon": 0.0, "bike_id": "10e86bead4033f6b54fc07ea90fd9f08", "is_disabled": 0, "is_reserved": 0}, {"rental_uris": {"ios": "https://dc.lft.to/lastmile_qr_scan", "android": "https://dc.lft.to/lastmile_qr_scan"}, "lon": -77.1308955, "type": "electric_bike", "fusion_lat": 0.0, "lat": 38.8616245, "name": "0e8174bfdd649175be7107ebc3793fe8", "fusion_lon": 0.0, "bike_id": "0e8174bfdd649175be7107ebc3793fe8", "is_disabled": 0, "is_reserved": 0}, {"rental_uris": {"ios": "https://dc.lft.to/lastmile_qr_scan", "android": "https://dc.lft.to/lastmile_qr_scan"}, "lon": -77.03191416666667, "type": "electric_scooter", "fusion_lat": 0.0, "lat": 38.91961116666667, "name": "5e15cd6cfb3b9d76777997a4fb7f9c20", "fusion_lon": 0.0, "bike_id": "5e15cd6cfb3b9d76777997a4fb7f9c20", "is_disabled": 0, "is_reserved": 0}, {"rental_uris": {"ios": "https://dc.lft.to/lastmile_qr_scan", "android": "https://dc.lft.to/lastmile_qr_scan"}, "lon": -77.02316416666666, "type": "electric_scooter", "fusion_lat": 0.0, "lat": 38.88342433333333, "name": "d9e4cd6adcee47826ee5ef2df15c3806", "fusion_lon": 0.0, "bike_id": "d9e4cd6adcee47826ee5ef2df15c3806", "is_disabled": 0, "is_reserved": 0}, {"rental_uris": {"ios": "https://dc.lft.to/lastmile_qr_scan", "android": "https://dc.lft.to/lastmile_qr_scan"}, "lon": -77.02176966666667, "type": "electric_scooter", "fusion_lat": 0.0, "lat": 38.89900033333333, "name": "63db546eb1c55badf841e7c8a34cef80", "fusion_lon": 0.0, "bike_id": "63db546eb1c55badf841e7c8a34cef80", "is_disabled": 0, "is_reserved": 0}, {"rental_uris": {"ios": "https://dc.lft.to/lastmile_qr_scan", "android": "https://dc.lft.to/lastmile_qr_scan"}, "lon": -77.0916165, "type": "electric_bike", "fusion_lat": 0.0, "lat": 38.96757816666667, "name": "e2887a7e3f2cb9c1c7ce00bb07c67788", "fusion_lon": 0.0, "bike_id": "e2887a7e3f2cb9c1c7ce00bb07c67788", "is_disabled": 0, "is_reserved": 0}, {"rental_uris": {"ios": "https://dc.lft.to/lastmile_qr_scan", "android": "https://dc.lft.to/lastmile_qr_scan"}, "lon": -76.98361183333333, "type": "electric_scooter", "fusion_lat": 0.0, "lat": 38.915453, "name": "ad1a12cbab0afc5e2531c4a7cabe479b", "fusion_lon": 0.0, "bike_id": "ad1a12cbab0afc5e2531c4a7cabe479b", "is_disabled": 0, "is_reserved": 0}, {"rental_uris": {"ios": "https://dc.lft.to/lastmile_qr_scan", "android": "https://dc.lft.to/lastmile_qr_scan"}, "lon": -77.11426833333333, "type": "electric_bike", "fusion_lat": 0.0, "lat": 38.852445833333334, "name": "eabe59ee9a3bfc5423437c466d403a11", "fusion_lon": 0.0, "bike_id": "eabe59ee9a3bfc5423437c466d403a11", "is_disabled": 0, "is_reserved": 0}, {"rental_uris": {"ios": "https://dc.lft.to/lastmile_qr_scan", "android": "https://dc.lft.to/lastmile_qr_scan"}, "lon": -77.032806, "type": "electric_scooter", "fusion_lat": 0.0, "lat": 38.895655166666664, "name": "222a5c4ad135cc57d7f794e681bb9dde", "fusion_lon": 0.0, "bike_id": "222a5c4ad135cc57d7f794e681bb9dde", "is_disabled": 0, "is_reserved": 0}, {"rental_uris": {"ios": "https://dc.lft.to/lastmile_qr_scan", "android": "https://dc.lft.to/lastmile_qr_scan"}, "lon": -77.031644, "type": "electric_scooter", "fusion_lat": 0.0, "lat": 38.8994805, "name": "637d80bc083ac85867a1141ff8742760", "fusion_lon": 0.0, "bike_id": "637d80bc083ac85867a1141ff8742760", "is_disabled": 0, "is_reserved": 0}, {"rental_uris": {"ios": "https://dc.lft.to/lastmile_qr_scan", "android": "https://dc.lft.to/lastmile_qr_scan"}, "lon": -76.9678285, "type": "electric_scooter", "fusion_lat": 0.0, "lat": 38.86140783333333, "name": "df6c18804ef3cbd5c88da925e931f309", "fusion_lon": 0.0, "bike_id": "df6c18804ef3cbd5c88da925e931f309", "is_disabled": 0, "is_reserved": 0}, {"rental_uris": {"ios": "https://dc.lft.to/lastmile_qr_scan", "android": "https://dc.lft.to/lastmile_qr_scan"}, "lon": -77.02608816666667, "type": "electric_scooter", "fusion_lat": 0.0, "lat": 38.8835655, "name": "d6c5a58b12df0108532294760c4534bb", "fusion_lon": 0.0, "bike_id": "d6c5a58b12df0108532294760c4534bb", "is_disabled": 0, "is_reserved": 0}, {"rental_uris": {"ios": "https://dc.lft.to/lastmile_qr_scan", "android": "https://dc.lft.to/lastmile_qr_scan"}, "lon": -77.014141, "type": "electric_scooter", "fusion_lat": 0.0, "lat": 38.91563633333333, "name": "028afd906305b5bbe99daf0e825b3aa0", "fusion_lon": 0.0, "bike_id": "028afd906305b5bbe99daf0e825b3aa0", "is_disabled": 0, "is_reserved": 0}, {"rental_uris": {"ios": "https://dc.lft.to/lastmile_qr_scan", "android": "https://dc.lft.to/lastmile_qr_scan"}, "lon": -77.02242166666667, "type": "electric_scooter", "fusion_lat": 0.0, "lat": 38.9165575, "name": "8e2d082e5efcb4ad647b353ddf990eac", "fusion_lon": 0.0, "bike_id": "8e2d082e5efcb4ad647b353ddf990eac", "is_disabled": 0, "is_reserved": 0}, {"rental_uris": {"ios": "https://dc.lft.to/lastmile_qr_scan", "android": "https://dc.lft.to/lastmile_qr_scan"}, "lon": -77.03378333333333, "type": "electric_scooter", "fusion_lat": 0.0, "lat": 38.919714666666664, "name": "a11bbf08892455ad39203b063ecd5f46", "fusion_lon": 0.0, "bike_id": "a11bbf08892455ad39203b063ecd5f46", "is_disabled": 0, "is_reserved": 0}, {"rental_uris": {"ios": "https://dc.lft.to/lastmile_qr_scan", "android": "https://dc.lft.to/lastmile_qr_scan"}, "lon": -76.984079, "type": "electric_scooter", "fusion_lat": 0.0, "lat": 38.913846666666664, "name": "cdfeeebf67c0a28a487a1f9247744607", "fusion_lon": 0.0, "bike_id": "cdfeeebf67c0a28a487a1f9247744607", "is_disabled": 0, "is_reserved": 0}, {"rental_uris": {"ios": "https://dc.lft.to/lastmile_qr_scan", "android": "https://dc.lft.to/lastmile_qr_scan"}, "lon": -77.02005033333333, "type": "electric_scooter", "fusion_lat": 0.0, "lat": 38.883694, "name": "42b2391c7241ba26e07f011a7f4f9f28", "fusion_lon": 0.0, "bike_id": "42b2391c7241ba26e07f011a7f4f9f28", "is_disabled": 0, "is_reserved": 0}, {"rental_uris": {"ios": "https://dc.lft.to/lastmile_qr_scan", "android": "https://dc.lft.to/lastmile_qr_scan"}, "lon": -77.078132, "type": "electric_scooter", "fusion_lat": 0.0, "lat": 38.92630066666667, "name": "6f6a62215a46955bf75d36c93ca55c38", "fusion_lon": 0.0, "bike_id": "6f6a62215a46955bf75d36c93ca55c38", "is_disabled": 0, "is_reserved": 0}, {"rental_uris": {"ios": "https://dc.lft.to/lastmile_qr_scan", "android": "https://dc.lft.to/lastmile_qr_scan"}, "lon": -77.02201716666667, "type": "electric_scooter", "fusion_lat": 0.0, "lat": 38.908331, "name": "0adc636484a3139fc4000eb111242844", "fusion_lon": 0.0, "bike_id": "0adc636484a3139fc4000eb111242844", "is_disabled": 0, "is_reserved": 0}, {"rental_uris": {"ios": "https://dc.lft.to/lastmile_qr_scan", "android": "https://dc.lft.to/lastmile_qr_scan"}, "lon": -77.02207, "type": "electric_scooter", "fusion_lat": 0.0, "lat": 38.88732433333333, "name": "057e5bd5e9fdc9970f6d5cba1d049209", "fusion_lon": 0.0, "bike_id": "057e5bd5e9fdc9970f6d5cba1d049209", "is_disabled": 0, "is_reserved": 0}, {"rental_uris": {"ios": "https://dc.lft.to/lastmile_qr_scan", "android": "https://dc.lft.to/lastmile_qr_scan"}, "lon": -77.04717233333334, "type": "electric_scooter", "fusion_lat": 0.0, "lat": 38.908658833333334, "name": "0cd494c4a09b53d003da4641ef3e0afb", "fusion_lon": 0.0, "bike_id": "0cd494c4a09b53d003da4641ef3e0afb", "is_disabled": 0, "is_reserved": 0}, {"rental_uris": {"ios": "https://dc.lft.to/lastmile_qr_scan", "android": "https://dc.lft.to/lastmile_qr_scan"}, "lon": -77.02500333333333, "type": "electric_scooter", "fusion_lat": 0.0, "lat": 38.919742666666664, "name": "fe74a0695ad81ef702467f32100f036a", "fusion_lon": 0.0, "bike_id": "fe74a0695ad81ef702467f32100f036a", "is_disabled": 0, "is_reserved": 0}, {"rental_uris": {"ios": "https://dc.lft.to/lastmile_qr_scan", "android": "https://dc.lft.to/lastmile_qr_scan"}, "lon": -76.98176433333333, "type": "electric_scooter", "fusion_lat": 0.0, "lat": 38.876933666666666, "name": "d1e80c1184545ed9dbb49990c25cae70", "fusion_lon": 0.0, "bike_id": "d1e80c1184545ed9dbb49990c25cae70", "is_disabled": 0, "is_reserved": 0}, {"rental_uris": {"ios": "https://dc.lft.to/lastmile_qr_scan", "android": "https://dc.lft.to/lastmile_qr_scan"}, "lon": -77.016771, "type": "electric_bike", "fusion_lat": 0.0, "lat": 38.881275333333335, "name": "c27e8c8d59be19f114342de4f85f5cdb", "fusion_lon": 0.0, "bike_id": "c27e8c8d59be19f114342de4f85f5cdb", "is_disabled": 0, "is_reserved": 0}, {"rental_uris": {"ios": "https://dc.lft.to/lastmile_qr_scan", "android": "https://dc.lft.to/lastmile_qr_scan"}, "lon": -77.04022433333333, "type": "electric_scooter", "fusion_lat": 0.0, "lat": 38.91791583333333, "name": "fa9a6ad5254099ff0754fe5d84378ea3", "fusion_lon": 0.0, "bike_id": "fa9a6ad5254099ff0754fe5d84378ea3", "is_disabled": 0, "is_reserved": 0}, {"rental_uris": {"ios": "https://dc.lft.to/lastmile_qr_scan", "android": "https://dc.lft.to/lastmile_qr_scan"}, "lon": -76.9761095, "type": "electric_bike", "fusion_lat": 0.0, "lat": 38.9130755, "name": "45d11e5311ff38279199b27688700944", "fusion_lon": 0.0, "bike_id": "45d11e5311ff38279199b27688700944", "is_disabled": 0, "is_reserved": 0}, {"rental_uris": {"ios": "https://dc.lft.to/lastmile_qr_scan", "android": "https://dc.lft.to/lastmile_qr_scan"}, "lon": -76.99033616666667, "type": "electric_scooter", "fusion_lat": 0.0, "lat": 38.858707833333334, "name": "d503c04f6ecaf6370a7b2b8809cdecd0", "fusion_lon": 0.0, "bike_id": "d503c04f6ecaf6370a7b2b8809cdecd0", "is_disabled": 0, "is_reserved": 0}, {"rental_uris": {"ios": "https://dc.lft.to/lastmile_qr_scan", "android": "https://dc.lft.to/lastmile_qr_scan"}, "lon": -77.06250616666667, "type": "electric_scooter", "fusion_lat": 0.0, "lat": 38.906799666666664, "name": "feb0c11d5fa0675ee6faf308bdcb4bd8", "fusion_lon": 0.0, "bike_id": "feb0c11d5fa0675ee6faf308bdcb4bd8", "is_disabled": 0, "is_reserved": 0}, {"rental_uris": {"ios": "https://dc.lft.to/lastmile_qr_scan", "android": "https://dc.lft.to/lastmile_qr_scan"}, "lon": -77.04388733333333, "type": "electric_scooter", "fusion_lat": 0.0, "lat": 38.922778666666666, "name": "b7e5d24595da7c64eacd6124de31fc82", "fusion_lon": 0.0, "bike_id": "b7e5d24595da7c64eacd6124de31fc82", "is_disabled": 0, "is_reserved": 0}, {"rental_uris": {"ios": "https://dc.lft.to/lastmile_qr_scan", "android": "https://dc.lft.to/lastmile_qr_scan"}, "lon": -77.066896, "type": "electric_scooter", "fusion_lat": 0.0, "lat": 38.9097065, "name": "602f566c79152c3dd4d3f6d48d65e4cd", "fusion_lon": 0.0, "bike_id": "602f566c79152c3dd4d3f6d48d65e4cd", "is_disabled": 0, "is_reserved": 0}, {"rental_uris": {"ios": "https://dc.lft.to/lastmile_qr_scan", "android": "https://dc.lft.to/lastmile_qr_scan"}, "lon": -77.002812, "type": "electric_bike", "fusion_lat": 0.0, "lat": 38.911778166666664, "name": "d161b6a77f4f0281c58196b2979bd6d3", "fusion_lon": 0.0, "bike_id": "d161b6a77f4f0281c58196b2979bd6d3", "is_disabled": 0, "is_reserved": 0}, {"rental_uris": {"ios": "https://dc.lft.to/lastmile_qr_scan", "android": "https://dc.lft.to/lastmile_qr_scan"}, "lon": -77.081969, "type": "electric_bike", "fusion_lat": 0.0, "lat": 38.922036166666665, "name": "858cd66eb9c155fc4030128babb39cad", "fusion_lon": 0.0, "bike_id": "858cd66eb9c155fc4030128babb39cad", "is_disabled": 0, "is_reserved": 0}, {"rental_uris": {"ios": "https://dc.lft.to/lastmile_qr_scan", "android": "https://dc.lft.to/lastmile_qr_scan"}, "lon": -77.03363433333334, "type": "electric_scooter", "fusion_lat": 0.0, "lat": 38.9062575, "name": "c85d4e025a07b1415580912ecd547a82", "fusion_lon": 0.0, "bike_id": "c85d4e025a07b1415580912ecd547a82", "is_disabled": 0, "is_reserved": 0}, {"rental_uris": {"ios": "https://dc.lft.to/lastmile_qr_scan", "android": "https://dc.lft.to/lastmile_qr_scan"}, "lon": -77.031889, "type": "electric_scooter", "fusion_lat": 0.0, "lat": 38.91920283333333, "name": "f7455423883d37da96f137f47cff1e30", "fusion_lon": 0.0, "bike_id": "f7455423883d37da96f137f47cff1e30", "is_disabled": 0, "is_reserved": 0}, {"rental_uris": {"ios": "https://dc.lft.to/lastmile_qr_scan", "android": "https://dc.lft.to/lastmile_qr_scan"}, "lon": -76.972511, "type": "electric_bike", "fusion_lat": 0.0, "lat": 38.957407, "name": "42d88fff429037f67cff29bdfda13eb3", "fusion_lon": 0.0, "bike_id": "42d88fff429037f67cff29bdfda13eb3", "is_disabled": 0, "is_reserved": 0}, {"rental_uris": {"ios": "https://dc.lft.to/lastmile_qr_scan", "android": "https://dc.lft.to/lastmile_qr_scan"}, "lon": -77.04892366666667, "type": "electric_scooter", "fusion_lat": 0.0, "lat": 38.9065085, "name": "f4b745203dda5bc58b6084aeae80ce1f", "fusion_lon": 0.0, "bike_id": "f4b745203dda5bc58b6084aeae80ce1f", "is_disabled": 0, "is_reserved": 0}, {"rental_uris": {"ios": "https://dc.lft.to/lastmile_qr_scan", "android": "https://dc.lft.to/lastmile_qr_scan"}, "lon": -77.032117, "type": "electric_scooter", "fusion_lat": 0.0, "lat": 38.93759433333334, "name": "7e60e13e4bf1888dcf4e53ff0f1a822e", "fusion_lon": 0.0, "bike_id": "7e60e13e4bf1888dcf4e53ff0f1a822e", "is_disabled": 0, "is_reserved": 0}, {"rental_uris": {"ios": "https://dc.lft.to/lastmile_qr_scan", "android": "https://dc.lft.to/lastmile_qr_scan"}, "lon": -77.004919, "type": "electric_scooter", "fusion_lat": 0.0, "lat": 38.9125685, "name": "d1de972524ae98b956068c890efdbb88", "fusion_lon": 0.0, "bike_id": "d1de972524ae98b956068c890efdbb88", "is_disabled": 0, "is_reserved": 0}, {"rental_uris": {"ios": "https://dc.lft.to/lastmile_qr_scan", "android": "https://dc.lft.to/lastmile_qr_scan"}, "lon": -77.049961, "type": "electric_scooter", "fusion_lat": 0.0, "lat": 38.90417733333334, "name": "b9ec01f9b43e8c78e02dd8106265c6cb", "fusion_lon": 0.0, "bike_id": "b9ec01f9b43e8c78e02dd8106265c6cb", "is_disabled": 0, "is_reserved": 0}, {"rental_uris": {"ios": "https://dc.lft.to/lastmile_qr_scan", "android": "https://dc.lft.to/lastmile_qr_scan"}, "lon": -77.01548666666666, "type": "electric_scooter", "fusion_lat": 0.0, "lat": 38.902624, "name": "334816c49d2b643c59c6528b71e65570", "fusion_lon": 0.0, "bike_id": "334816c49d2b643c59c6528b71e65570", "is_disabled": 0, "is_reserved": 0}, {"rental_uris": {"ios": "https://dc.lft.to/lastmile_qr_scan", "android": "https://dc.lft.to/lastmile_qr_scan"}, "lon": -77.02159433333334, "type": "electric_scooter", "fusion_lat": 0.0, "lat": 38.9162515, "name": "e4a764290ebdfa93ebec7c34c1e91a09", "fusion_lon": 0.0, "bike_id": "e4a764290ebdfa93ebec7c34c1e91a09", "is_disabled": 0, "is_reserved": 0}, {"rental_uris": {"ios": "https://dc.lft.to/lastmile_qr_scan", "android": "https://dc.lft.to/lastmile_qr_scan"}, "lon": -77.05881633333334, "type": "electric_scooter", "fusion_lat": 0.0, "lat": 38.936330833333336, "name": "af7878b3accf3af04b95c998ecca9755", "fusion_lon": 0.0, "bike_id": "af7878b3accf3af04b95c998ecca9755", "is_disabled": 0, "is_reserved": 0}, {"rental_uris": {"ios": "https://dc.lft.to/lastmile_qr_scan", "android": "https://dc.lft.to/lastmile_qr_scan"}, "lon": -76.94651, "type": "electric_scooter", "fusion_lat": 0.0, "lat": 38.898253, "name": "10eddd1b7d1af36275d66819fdf354cc", "fusion_lon": 0.0, "bike_id": "10eddd1b7d1af36275d66819fdf354cc", "is_disabled": 0, "is_reserved": 0}, {"rental_uris": {"ios": "https://dc.lft.to/lastmile_qr_scan", "android": "https://dc.lft.to/lastmile_qr_scan"}, "lon": -77.01115733333333, "type": "electric_scooter", "fusion_lat": 0.0, "lat": 38.895335, "name": "354d63d74759c19977d7cf73030ea4bc", "fusion_lon": 0.0, "bike_id": "354d63d74759c19977d7cf73030ea4bc", "is_disabled": 0, "is_reserved": 0}, {"rental_uris": {"ios": "https://dc.lft.to/lastmile_qr_scan", "android": "https://dc.lft.to/lastmile_qr_scan"}, "lon": -77.02386416666667, "type": "electric_scooter", "fusion_lat": 0.0, "lat": 38.915953333333334, "name": "ce49f484f6a69f6d43a476dc1196c5fa", "fusion_lon": 0.0, "bike_id": "ce49f484f6a69f6d43a476dc1196c5fa", "is_disabled": 0, "is_reserved": 0}, {"rental_uris": {"ios": "https://dc.lft.to/lastmile_qr_scan", "android": "https://dc.lft.to/lastmile_qr_scan"}, "lon": -77.03219383333334, "type": "electric_scooter", "fusion_lat": 0.0, "lat": 38.917146333333335, "name": "98a26e1682a4939b3339a02ef7c46899", "fusion_lon": 0.0, "bike_id": "98a26e1682a4939b3339a02ef7c46899", "is_disabled": 0, "is_reserved": 0}, {"rental_uris": {"ios": "https://dc.lft.to/lastmile_qr_scan", "android": "https://dc.lft.to/lastmile_qr_scan"}, "lon": -77.06351883333333, "type": "electric_bike", "fusion_lat": 0.0, "lat": 38.90848066666667, "name": "059395ec57eb6d9446af259852b1c5f5", "fusion_lon": 0.0, "bike_id": "059395ec57eb6d9446af259852b1c5f5", "is_disabled": 0, "is_reserved": 0}, {"rental_uris": {"ios": "https://dc.lft.to/lastmile_qr_scan", "android": "https://dc.lft.to/lastmile_qr_scan"}, "lon": -77.06670783333334, "type": "electric_scooter", "fusion_lat": 0.0, "lat": 38.9140545, "name": "15e51c1c0e17fee9e67a0ae7770377b4", "fusion_lon": 0.0, "bike_id": "15e51c1c0e17fee9e67a0ae7770377b4", "is_disabled": 0, "is_reserved": 0}, {"rental_uris": {"ios": "https://dc.lft.to/lastmile_qr_scan", "android": "https://dc.lft.to/lastmile_qr_scan"}, "lon": -77.02377466666667, "type": "electric_scooter", "fusion_lat": 0.0, "lat": 38.90592516666667, "name": "b3bd4d9bf45654f252de008e7c1cb731", "fusion_lon": 0.0, "bike_id": "b3bd4d9bf45654f252de008e7c1cb731", "is_disabled": 0, "is_reserved": 0}, {"rental_uris": {"ios": "https://dc.lft.to/lastmile_qr_scan", "android": "https://dc.lft.to/lastmile_qr_scan"}, "lon": -77.02367316666667, "type": "electric_scooter", "fusion_lat": 0.0, "lat": 38.892224, "name": "74e325615f646ebe3dd5c1d1230c1750", "fusion_lon": 0.0, "bike_id": "74e325615f646ebe3dd5c1d1230c1750", "is_disabled": 0, "is_reserved": 0}, {"rental_uris": {"ios": "https://dc.lft.to/lastmile_qr_scan", "android": "https://dc.lft.to/lastmile_qr_scan"}, "lon": -77.06600133333333, "type": "electric_scooter", "fusion_lat": 0.0, "lat": 38.90529216666667, "name": "15b5ab8d8930137521734bdba2fecfa5", "fusion_lon": 0.0, "bike_id": "15b5ab8d8930137521734bdba2fecfa5", "is_disabled": 0, "is_reserved": 0}, {"rental_uris": {"ios": "https://dc.lft.to/lastmile_qr_scan", "android": "https://dc.lft.to/lastmile_qr_scan"}, "lon": -76.99774866666667, "type": "electric_scooter", "fusion_lat": 0.0, "lat": 38.844249, "name": "1e9a1587253315e985c24c2e72f4de1a", "fusion_lon": 0.0, "bike_id": "1e9a1587253315e985c24c2e72f4de1a", "is_disabled": 0, "is_reserved": 0}, {"rental_uris": {"ios": "https://dc.lft.to/lastmile_qr_scan", "android": "https://dc.lft.to/lastmile_qr_scan"}, "lon": -76.99949666666667, "type": "electric_bike", "fusion_lat": 0.0, "lat": 38.923396333333336, "name": "ed867ba48719e8be538833a47af28a6e", "fusion_lon": 0.0, "bike_id": "ed867ba48719e8be538833a47af28a6e", "is_disabled": 0, "is_reserved": 0}, {"rental_uris": {"ios": "https://dc.lft.to/lastmile_qr_scan", "android": "https://dc.lft.to/lastmile_qr_scan"}, "lon": -76.99751666666667, "type": "electric_scooter", "fusion_lat": 0.0, "lat": 38.92189033333333, "name": "eba79167a65545583968622dbe37e1dc", "fusion_lon": 0.0, "bike_id": "eba79167a65545583968622dbe37e1dc", "is_disabled": 0, "is_reserved": 0}, {"rental_uris": {"ios": "https://dc.lft.to/lastmile_qr_scan", "android": "https://dc.lft.to/lastmile_qr_scan"}, "lon": -77.0369095, "type": "electric_scooter", "fusion_lat": 0.0, "lat": 38.92757366666667, "name": "045686315b2e5bfad828480148b4d239", "fusion_lon": 0.0, "bike_id": "045686315b2e5bfad828480148b4d239", "is_disabled": 0, "is_reserved": 0}, {"rental_uris": {"ios": "https://dc.lft.to/lastmile_qr_scan", "android": "https://dc.lft.to/lastmile_qr_scan"}, "lon": -77.02837033333333, "type": "electric_scooter", "fusion_lat": 0.0, "lat": 38.8935715, "name": "0193dde03a1a74f0c49934c7ba9b3e2f", "fusion_lon": 0.0, "bike_id": "0193dde03a1a74f0c49934c7ba9b3e2f", "is_disabled": 0, "is_reserved": 0}, {"rental_uris": {"ios": "https://dc.lft.to/lastmile_qr_scan", "android": "https://dc.lft.to/lastmile_qr_scan"}, "lon": -77.03825316666666, "type": "electric_scooter", "fusion_lat": 0.0, "lat": 38.91254466666667, "name": "f4452416828fb13faa003fc48b690f8c", "fusion_lon": 0.0, "bike_id": "f4452416828fb13faa003fc48b690f8c", "is_disabled": 0, "is_reserved": 0}, {"rental_uris": {"ios": "https://dc.lft.to/lastmile_qr_scan", "android": "https://dc.lft.to/lastmile_qr_scan"}, "lon": -77.0368625, "type": "electric_scooter", "fusion_lat": 0.0, "lat": 38.93649033333333, "name": "776b9664f09642d52e3b928532e76052", "fusion_lon": 0.0, "bike_id": "776b9664f09642d52e3b928532e76052", "is_disabled": 0, "is_reserved": 0}, {"rental_uris": {"ios": "https://dc.lft.to/lastmile_qr_scan", "android": "https://dc.lft.to/lastmile_qr_scan"}, "lon": -77.02181816666666, "type": "electric_scooter", "fusion_lat": 0.0, "lat": 38.9165075, "name": "984ebb6c6b199ac7a051298549ad4f91", "fusion_lon": 0.0, "bike_id": "984ebb6c6b199ac7a051298549ad4f91", "is_disabled": 0, "is_reserved": 0}, {"rental_uris": {"ios": "https://dc.lft.to/lastmile_qr_scan", "android": "https://dc.lft.to/lastmile_qr_scan"}, "lon": -77.019318, "type": "electric_scooter", "fusion_lat": 0.0, "lat": 38.9492735, "name": "062b03765fbca3ee954f895d8886fa76", "fusion_lon": 0.0, "bike_id": "062b03765fbca3ee954f895d8886fa76", "is_disabled": 0, "is_reserved": 0}, {"rental_uris": {"ios": "https://dc.lft.to/lastmile_qr_scan", "android": "https://dc.lft.to/lastmile_qr_scan"}, "lon": -77.02797933333333, "type": "electric_scooter", "fusion_lat": 0.0, "lat": 38.89523333333333, "name": "006d376267e4eea906340d90b4ed9ef9", "fusion_lon": 0.0, "bike_id": "006d376267e4eea906340d90b4ed9ef9", "is_disabled": 0, "is_reserved": 0}, {"rental_uris": {"ios": "https://dc.lft.to/lastmile_qr_scan", "android": "https://dc.lft.to/lastmile_qr_scan"}, "lon": -77.05461866666667, "type": "electric_scooter", "fusion_lat": 0.0, "lat": 38.90502566666667, "name": "333738e0db14ab3cadd0d3fffe11aa23", "fusion_lon": 0.0, "bike_id": "333738e0db14ab3cadd0d3fffe11aa23", "is_disabled": 0, "is_reserved": 0}, {"rental_uris": {"ios": "https://dc.lft.to/lastmile_qr_scan", "android": "https://dc.lft.to/lastmile_qr_scan"}, "lon": -77.002939, "type": "electric_scooter", "fusion_lat": 0.0, "lat": 38.8949045, "name": "3fa019be08c68bdfbdb341334be8b277", "fusion_lon": 0.0, "bike_id": "3fa019be08c68bdfbdb341334be8b277", "is_disabled": 0, "is_reserved": 0}, {"rental_uris": {"ios": "https://dc.lft.to/lastmile_qr_scan", "android": "https://dc.lft.to/lastmile_qr_scan"}, "lon": -77.02966183333334, "type": "electric_scooter", "fusion_lat": 0.0, "lat": 38.915986, "name": "4fd7c715353471cfbc443163377d1e00", "fusion_lon": 0.0, "bike_id": "4fd7c715353471cfbc443163377d1e00", "is_disabled": 0, "is_reserved": 0}, {"rental_uris": {"ios": "https://dc.lft.to/lastmile_qr_scan", "android": "https://dc.lft.to/lastmile_qr_scan"}, "lon": -77.03120983333334, "type": "electric_scooter", "fusion_lat": 0.0, "lat": 38.9133045, "name": "1157941a00d4e5397bd85b4206ead700", "fusion_lon": 0.0, "bike_id": "1157941a00d4e5397bd85b4206ead700", "is_disabled": 0, "is_reserved": 0}, {"rental_uris": {"ios": "https://dc.lft.to/lastmile_qr_scan", "android": "https://dc.lft.to/lastmile_qr_scan"}, "lon": -77.03264716666666, "type": "electric_scooter", "fusion_lat": 0.0, "lat": 38.947864833333334, "name": "6dc8decf3a679fbc1b463265255552f6", "fusion_lon": 0.0, "bike_id": "6dc8decf3a679fbc1b463265255552f6", "is_disabled": 0, "is_reserved": 0}, {"rental_uris": {"ios": "https://dc.lft.to/lastmile_qr_scan", "android": "https://dc.lft.to/lastmile_qr_scan"}, "lon": -76.98686483333333, "type": "electric_scooter", "fusion_lat": 0.0, "lat": 38.882052, "name": "8c449d4e20e1a3507884ad82ccd6db44", "fusion_lon": 0.0, "bike_id": "8c449d4e20e1a3507884ad82ccd6db44", "is_disabled": 0, "is_reserved": 0}, {"rental_uris": {"ios": "https://dc.lft.to/lastmile_qr_scan", "android": "https://dc.lft.to/lastmile_qr_scan"}, "lon": -77.021369, "type": "electric_scooter", "fusion_lat": 0.0, "lat": 38.931069666666666, "name": "ce369ab971d424ff6295e676dbc9bbd4", "fusion_lon": 0.0, "bike_id": "ce369ab971d424ff6295e676dbc9bbd4", "is_disabled": 0, "is_reserved": 0}, {"rental_uris": {"ios": "https://dc.lft.to/lastmile_qr_scan", "android": "https://dc.lft.to/lastmile_qr_scan"}, "lon": -77.03336583333333, "type": "electric_scooter", "fusion_lat": 0.0, "lat": 38.91809283333333, "name": "a323bb80dc0e5e5e82e2dd457691ad80", "fusion_lon": 0.0, "bike_id": "a323bb80dc0e5e5e82e2dd457691ad80", "is_disabled": 0, "is_reserved": 0}, {"rental_uris": {"ios": "https://dc.lft.to/lastmile_qr_scan", "android": "https://dc.lft.to/lastmile_qr_scan"}, "lon": -77.05880916666666, "type": "electric_scooter", "fusion_lat": 0.0, "lat": 38.936350833333336, "name": "9233f197c0fd83373485da2f507d4607", "fusion_lon": 0.0, "bike_id": "9233f197c0fd83373485da2f507d4607", "is_disabled": 0, "is_reserved": 0}, {"rental_uris": {"ios": "https://dc.lft.to/lastmile_qr_scan", "android": "https://dc.lft.to/lastmile_qr_scan"}, "lon": -77.04731966666667, "type": "electric_scooter", "fusion_lat": 0.0, "lat": 38.91283083333333, "name": "a43871fe3b31fc6ac6e52ae5801d0e55", "fusion_lon": 0.0, "bike_id": "a43871fe3b31fc6ac6e52ae5801d0e55", "is_disabled": 0, "is_reserved": 0}, {"rental_uris": {"ios": "https://dc.lft.to/lastmile_qr_scan", "android": "https://dc.lft.to/lastmile_qr_scan"}, "lon": -76.97959, "type": "electric_scooter", "fusion_lat": 0.0, "lat": 38.90380966666667, "name": "ef70aa1c5f73a3bf83d4f689091f29a9", "fusion_lon": 0.0, "bike_id": "ef70aa1c5f73a3bf83d4f689091f29a9", "is_disabled": 0, "is_reserved": 0}, {"rental_uris": {"ios": "https://dc.lft.to/lastmile_qr_scan", "android": "https://dc.lft.to/lastmile_qr_scan"}, "lon": -77.02358683333334, "type": "electric_scooter", "fusion_lat": 0.0, "lat": 38.93166566666667, "name": "3660fd0dcf2ba8c8a880c9526acbbf77", "fusion_lon": 0.0, "bike_id": "3660fd0dcf2ba8c8a880c9526acbbf77", "is_disabled": 0, "is_reserved": 0}, {"rental_uris": {"ios": "https://dc.lft.to/lastmile_qr_scan", "android": "https://dc.lft.to/lastmile_qr_scan"}, "lon": -77.0237745, "type": "electric_scooter", "fusion_lat": 0.0, "lat": 38.905931333333335, "name": "7fa64cd28624f20a3d4630b1ce73b832", "fusion_lon": 0.0, "bike_id": "7fa64cd28624f20a3d4630b1ce73b832", "is_disabled": 0, "is_reserved": 0}, {"rental_uris": {"ios": "https://dc.lft.to/lastmile_qr_scan", "android": "https://dc.lft.to/lastmile_qr_scan"}, "lon": -77.06920316666667, "type": "electric_bike", "fusion_lat": 0.0, "lat": 38.909831, "name": "d4a5a015673cd04b10491afb66a9db3a", "fusion_lon": 0.0, "bike_id": "d4a5a015673cd04b10491afb66a9db3a", "is_disabled": 0, "is_reserved": 0}, {"rental_uris": {"ios": "https://dc.lft.to/lastmile_qr_scan", "android": "https://dc.lft.to/lastmile_qr_scan"}, "lon": -77.07553216666666, "type": "electric_bike", "fusion_lat": 0.0, "lat": 38.906836, "name": "c3290caa961199ef3bd9a2708a23ab01", "fusion_lon": 0.0, "bike_id": "c3290caa961199ef3bd9a2708a23ab01", "is_disabled": 0, "is_reserved": 0}, {"rental_uris": {"ios": "https://dc.lft.to/lastmile_qr_scan", "android": "https://dc.lft.to/lastmile_qr_scan"}, "lon": -77.03641066666667, "type": "electric_scooter", "fusion_lat": 0.0, "lat": 38.90789933333333, "name": "d4a7b6ddf6d5d72bdf913f0809d84f4b", "fusion_lon": 0.0, "bike_id": "d4a7b6ddf6d5d72bdf913f0809d84f4b", "is_disabled": 0, "is_reserved": 0}, {"rental_uris": {"ios": "https://dc.lft.to/lastmile_qr_scan", "android": "https://dc.lft.to/lastmile_qr_scan"}, "lon": -76.99761633333334, "type": "electric_scooter", "fusion_lat": 0.0, "lat": 38.900277, "name": "625443fc83dc2830d86879a10da89fa3", "fusion_lon": 0.0, "bike_id": "625443fc83dc2830d86879a10da89fa3", "is_disabled": 0, "is_reserved": 0}, {"rental_uris": {"ios": "https://dc.lft.to/lastmile_qr_scan", "android": "https://dc.lft.to/lastmile_qr_scan"}, "lon": -77.03201016666667, "type": "electric_scooter", "fusion_lat": 0.0, "lat": 38.9115405, "name": "2f442dab5c9f0d9bbc94822f67558fd4", "fusion_lon": 0.0, "bike_id": "2f442dab5c9f0d9bbc94822f67558fd4", "is_disabled": 0, "is_reserved": 0}, {"rental_uris": {"ios": "https://dc.lft.to/lastmile_qr_scan", "android": "https://dc.lft.to/lastmile_qr_scan"}, "lon": -77.1067805, "type": "electric_bike", "fusion_lat": 0.0, "lat": 38.8555255, "name": "125bcba243a407fc79e5b580f6137549", "fusion_lon": 0.0, "bike_id": "125bcba243a407fc79e5b580f6137549", "is_disabled": 0, "is_reserved": 0}, {"rental_uris": {"ios": "https://dc.lft.to/lastmile_qr_scan", "android": "https://dc.lft.to/lastmile_qr_scan"}, "lon": -76.98840866666667, "type": "electric_scooter", "fusion_lat": 0.0, "lat": 38.892912333333335, "name": "b169c3bcf6c66b564861c470d81a9c58", "fusion_lon": 0.0, "bike_id": "b169c3bcf6c66b564861c470d81a9c58", "is_disabled": 0, "is_reserved": 0}, {"rental_uris": {"ios": "https://dc.lft.to/lastmile_qr_scan", "android": "https://dc.lft.to/lastmile_qr_scan"}, "lon": -76.997416, "type": "electric_scooter", "fusion_lat": 0.0, "lat": 38.90040283333333, "name": "fdcbac8274833e8fa985b82e3e88c77f", "fusion_lon": 0.0, "bike_id": "fdcbac8274833e8fa985b82e3e88c77f", "is_disabled": 0, "is_reserved": 0}, {"rental_uris": {"ios": "https://dc.lft.to/lastmile_qr_scan", "android": "https://dc.lft.to/lastmile_qr_scan"}, "lon": -76.96853733333333, "type": "electric_scooter", "fusion_lat": 0.0, "lat": 38.87463833333333, "name": "73bea2e81b3c6f2ead72735589134f96", "fusion_lon": 0.0, "bike_id": "73bea2e81b3c6f2ead72735589134f96", "is_disabled": 0, "is_reserved": 0}, {"rental_uris": {"ios": "https://dc.lft.to/lastmile_qr_scan", "android": "https://dc.lft.to/lastmile_qr_scan"}, "lon": -77.063827, "type": "electric_scooter", "fusion_lat": 0.0, "lat": 38.905158166666666, "name": "20b8ed780dd8b604ae2ea9b5b2dbfde3", "fusion_lon": 0.0, "bike_id": "20b8ed780dd8b604ae2ea9b5b2dbfde3", "is_disabled": 0, "is_reserved": 0}, {"rental_uris": {"ios": "https://dc.lft.to/lastmile_qr_scan", "android": "https://dc.lft.to/lastmile_qr_scan"}, "lon": -77.04298683333333, "type": "electric_scooter", "fusion_lat": 0.0, "lat": 38.906535166666664, "name": "5687f83557d425a2289745feb86fdd02", "fusion_lon": 0.0, "bike_id": "5687f83557d425a2289745feb86fdd02", "is_disabled": 0, "is_reserved": 0}, {"rental_uris": {"ios": "https://dc.lft.to/lastmile_qr_scan", "android": "https://dc.lft.to/lastmile_qr_scan"}, "lon": -76.99552883333334, "type": "electric_scooter", "fusion_lat": 0.0, "lat": 38.86230966666667, "name": "dde19e885994227f6d416a3ab139883e", "fusion_lon": 0.0, "bike_id": "dde19e885994227f6d416a3ab139883e", "is_disabled": 0, "is_reserved": 0}, {"rental_uris": {"ios": "https://dc.lft.to/lastmile_qr_scan", "android": "https://dc.lft.to/lastmile_qr_scan"}, "lon": -76.983131, "type": "electric_scooter", "fusion_lat": 0.0, "lat": 38.89972183333333, "name": "6c3638cc7d47eb7360067dd08dbac9c6", "fusion_lon": 0.0, "bike_id": "6c3638cc7d47eb7360067dd08dbac9c6", "is_disabled": 0, "is_reserved": 0}, {"rental_uris": {"ios": "https://dc.lft.to/lastmile_qr_scan", "android": "https://dc.lft.to/lastmile_qr_scan"}, "lon": -77.0199225, "type": "electric_scooter", "fusion_lat": 0.0, "lat": 38.937822, "name": "ec51ffe5dc536b98e01dcdaff09e2b03", "fusion_lon": 0.0, "bike_id": "ec51ffe5dc536b98e01dcdaff09e2b03", "is_disabled": 0, "is_reserved": 0}, {"rental_uris": {"ios": "https://dc.lft.to/lastmile_qr_scan", "android": "https://dc.lft.to/lastmile_qr_scan"}, "lon": -77.01017716666667, "type": "electric_scooter", "fusion_lat": 0.0, "lat": 38.91809133333334, "name": "5f4b6358ccd09f7b105cdbeba3701dd2", "fusion_lon": 0.0, "bike_id": "5f4b6358ccd09f7b105cdbeba3701dd2", "is_disabled": 0, "is_reserved": 0}, {"rental_uris": {"ios": "https://dc.lft.to/lastmile_qr_scan", "android": "https://dc.lft.to/lastmile_qr_scan"}, "lon": -77.03468266666667, "type": "electric_scooter", "fusion_lat": 0.0, "lat": 38.934377833333336, "name": "095577c248f84b67421d928ab4b672e0", "fusion_lon": 0.0, "bike_id": "095577c248f84b67421d928ab4b672e0", "is_disabled": 0, "is_reserved": 0}, {"rental_uris": {"ios": "https://dc.lft.to/lastmile_qr_scan", "android": "https://dc.lft.to/lastmile_qr_scan"}, "lon": -77.0402975, "type": "electric_scooter", "fusion_lat": 0.0, "lat": 38.905926666666666, "name": "5b167b14adc6e37cc1e7ded99d74d32f", "fusion_lon": 0.0, "bike_id": "5b167b14adc6e37cc1e7ded99d74d32f", "is_disabled": 0, "is_reserved": 0}, {"rental_uris": {"ios": "https://dc.lft.to/lastmile_qr_scan", "android": "https://dc.lft.to/lastmile_qr_scan"}, "lon": -76.98995716666667, "type": "electric_scooter", "fusion_lat": 0.0, "lat": 38.903885833333334, "name": "247031a57ff0f3e28031f7f9d6a9d5cd", "fusion_lon": 0.0, "bike_id": "247031a57ff0f3e28031f7f9d6a9d5cd", "is_disabled": 0, "is_reserved": 0}, {"rental_uris": {"ios": "https://dc.lft.to/lastmile_qr_scan", "android": "https://dc.lft.to/lastmile_qr_scan"}, "lon": -76.998342, "type": "electric_scooter", "fusion_lat": 0.0, "lat": 38.9003935, "name": "0c2304554f7de4b7fc0d48879d816ca8", "fusion_lon": 0.0, "bike_id": "0c2304554f7de4b7fc0d48879d816ca8", "is_disabled": 0, "is_reserved": 0}, {"rental_uris": {"ios": "https://dc.lft.to/lastmile_qr_scan", "android": "https://dc.lft.to/lastmile_qr_scan"}, "lon": -77.0318075, "type": "electric_scooter", "fusion_lat": 0.0, "lat": 38.91461433333333, "name": "5b5ba4aca7ba6bf98de657fb4bd0f20d", "fusion_lon": 0.0, "bike_id": "5b5ba4aca7ba6bf98de657fb4bd0f20d", "is_disabled": 0, "is_reserved": 0}, {"rental_uris": {"ios": "https://dc.lft.to/lastmile_qr_scan", "android": "https://dc.lft.to/lastmile_qr_scan"}, "lon": -77.0415945, "type": "electric_scooter", "fusion_lat": 0.0, "lat": 38.9102365, "name": "33517b0504564ec4aa7c06e761531b3b", "fusion_lon": 0.0, "bike_id": "33517b0504564ec4aa7c06e761531b3b", "is_disabled": 0, "is_reserved": 0}, {"rental_uris": {"ios": "https://dc.lft.to/lastmile_qr_scan", "android": "https://dc.lft.to/lastmile_qr_scan"}, "lon": -77.03383566666666, "type": "electric_scooter", "fusion_lat": 0.0, "lat": 38.910435666666665, "name": "1426b4678c777df82bf350d3810f1477", "fusion_lon": 0.0, "bike_id": "1426b4678c777df82bf350d3810f1477", "is_disabled": 0, "is_reserved": 0}, {"rental_uris": {"ios": "https://dc.lft.to/lastmile_qr_scan", "android": "https://dc.lft.to/lastmile_qr_scan"}, "lon": -76.99169433333333, "type": "electric_scooter", "fusion_lat": 0.0, "lat": 38.87921816666667, "name": "c5a4de13f9b252ef8b794a8d2e5205bc", "fusion_lon": 0.0, "bike_id": "c5a4de13f9b252ef8b794a8d2e5205bc", "is_disabled": 0, "is_reserved": 0}, {"rental_uris": {"ios": "https://dc.lft.to/lastmile_qr_scan", "android": "https://dc.lft.to/lastmile_qr_scan"}, "lon": -77.06474083333333, "type": "electric_bike", "fusion_lat": 0.0, "lat": 38.9738335, "name": "fea2aba8caec2c90873a186ec54d2c1e", "fusion_lon": 0.0, "bike_id": "fea2aba8caec2c90873a186ec54d2c1e", "is_disabled": 0, "is_reserved": 0}, {"rental_uris": {"ios": "https://dc.lft.to/lastmile_qr_scan", "android": "https://dc.lft.to/lastmile_qr_scan"}, "lon": -77.024949, "type": "electric_scooter", "fusion_lat": 0.0, "lat": 38.94288366666667, "name": "faafa2bc7ae61fe495e654af31712bfd", "fusion_lon": 0.0, "bike_id": "faafa2bc7ae61fe495e654af31712bfd", "is_disabled": 0, "is_reserved": 0}, {"rental_uris": {"ios": "https://dc.lft.to/lastmile_qr_scan", "android": "https://dc.lft.to/lastmile_qr_scan"}, "lon": -77.00507833333333, "type": "electric_scooter", "fusion_lat": 0.0, "lat": 38.8753185, "name": "bc21b69b43d7e60418b418f83022c101", "fusion_lon": 0.0, "bike_id": "bc21b69b43d7e60418b418f83022c101", "is_disabled": 0, "is_reserved": 0}, {"rental_uris": {"ios": "https://dc.lft.to/lastmile_qr_scan", "android": "https://dc.lft.to/lastmile_qr_scan"}, "lon": -77.032515, "type": "electric_scooter", "fusion_lat": 0.0, "lat": 38.92843716666667, "name": "2793940423e144d45706d7c3fe86206c", "fusion_lon": 0.0, "bike_id": "2793940423e144d45706d7c3fe86206c", "is_disabled": 0, "is_reserved": 0}, {"rental_uris": {"ios": "https://dc.lft.to/lastmile_qr_scan", "android": "https://dc.lft.to/lastmile_qr_scan"}, "lon": -77.0006465, "type": "electric_scooter", "fusion_lat": 0.0, "lat": 38.92391633333333, "name": "31481d16c337571b7a4fcfd55c851a67", "fusion_lon": 0.0, "bike_id": "31481d16c337571b7a4fcfd55c851a67", "is_disabled": 0, "is_reserved": 0}, {"rental_uris": {"ios": "https://dc.lft.to/lastmile_qr_scan", "android": "https://dc.lft.to/lastmile_qr_scan"}, "lon": -77.002563, "type": "electric_scooter", "fusion_lat": 0.0, "lat": 38.9012485, "name": "9160f059304e74af93d990d38cc91d76", "fusion_lon": 0.0, "bike_id": "9160f059304e74af93d990d38cc91d76", "is_disabled": 0, "is_reserved": 0}, {"rental_uris": {"ios": "https://dc.lft.to/lastmile_qr_scan", "android": "https://dc.lft.to/lastmile_qr_scan"}, "lon": -77.0267995, "type": "electric_scooter", "fusion_lat": 0.0, "lat": 38.90002233333333, "name": "fe9a053bd83132686d38a0e821e373f5", "fusion_lon": 0.0, "bike_id": "fe9a053bd83132686d38a0e821e373f5", "is_disabled": 0, "is_reserved": 0}, {"rental_uris": {"ios": "https://dc.lft.to/lastmile_qr_scan", "android": "https://dc.lft.to/lastmile_qr_scan"}, "lon": -77.023898, "type": "electric_scooter", "fusion_lat": 0.0, "lat": 38.93374383333333, "name": "cd39c242c909f6f5cf746b2b4079e908", "fusion_lon": 0.0, "bike_id": "cd39c242c909f6f5cf746b2b4079e908", "is_disabled": 0, "is_reserved": 0}, {"rental_uris": {"ios": "https://dc.lft.to/lastmile_qr_scan", "android": "https://dc.lft.to/lastmile_qr_scan"}, "lon": -77.04619333333333, "type": "electric_bike", "fusion_lat": 0.0, "lat": 38.999139666666665, "name": "3ade745e37d715afc45036fa17b36f62", "fusion_lon": 0.0, "bike_id": "3ade745e37d715afc45036fa17b36f62", "is_disabled": 0, "is_reserved": 0}, {"rental_uris": {"ios": "https://dc.lft.to/lastmile_qr_scan", "android": "https://dc.lft.to/lastmile_qr_scan"}, "lon": -77.02391966666667, "type": "electric_scooter", "fusion_lat": 0.0, "lat": 38.907001666666666, "name": "ed65b89c5d8065d6b69ceae4abb63f6f", "fusion_lon": 0.0, "bike_id": "ed65b89c5d8065d6b69ceae4abb63f6f", "is_disabled": 0, "is_reserved": 0}, {"rental_uris": {"ios": "https://dc.lft.to/lastmile_qr_scan", "android": "https://dc.lft.to/lastmile_qr_scan"}, "lon": -77.03041033333334, "type": "electric_scooter", "fusion_lat": 0.0, "lat": 38.917002833333335, "name": "40a5effd2fae40742cbb7f897d6d8476", "fusion_lon": 0.0, "bike_id": "40a5effd2fae40742cbb7f897d6d8476", "is_disabled": 0, "is_reserved": 0}, {"rental_uris": {"ios": "https://dc.lft.to/lastmile_qr_scan", "android": "https://dc.lft.to/lastmile_qr_scan"}, "lon": -77.041741, "type": "electric_scooter", "fusion_lat": 0.0, "lat": 38.91340233333333, "name": "7f713f16ead82a3be53fbe42e5327ffd", "fusion_lon": 0.0, "bike_id": "7f713f16ead82a3be53fbe42e5327ffd", "is_disabled": 0, "is_reserved": 0}, {"rental_uris": {"ios": "https://dc.lft.to/lastmile_qr_scan", "android": "https://dc.lft.to/lastmile_qr_scan"}, "lon": -77.0251185, "type": "electric_scooter", "fusion_lat": 0.0, "lat": 38.902043, "name": "113c3565fd26d5e44d263c2d3e31300e", "fusion_lon": 0.0, "bike_id": "113c3565fd26d5e44d263c2d3e31300e", "is_disabled": 0, "is_reserved": 0}, {"rental_uris": {"ios": "https://dc.lft.to/lastmile_qr_scan", "android": "https://dc.lft.to/lastmile_qr_scan"}, "lon": -77.0449095, "type": "electric_scooter", "fusion_lat": 0.0, "lat": 38.91920183333333, "name": "ba10923a94c73d1bb94097eb7c587c98", "fusion_lon": 0.0, "bike_id": "ba10923a94c73d1bb94097eb7c587c98", "is_disabled": 0, "is_reserved": 0}, {"rental_uris": {"ios": "https://dc.lft.to/lastmile_qr_scan", "android": "https://dc.lft.to/lastmile_qr_scan"}, "lon": -77.012228, "type": "electric_scooter", "fusion_lat": 0.0, "lat": 38.91017433333333, "name": "8b8a57cc6a731b6eaabe82a03fae3380", "fusion_lon": 0.0, "bike_id": "8b8a57cc6a731b6eaabe82a03fae3380", "is_disabled": 0, "is_reserved": 0}, {"rental_uris": {"ios": "https://dc.lft.to/lastmile_qr_scan", "android": "https://dc.lft.to/lastmile_qr_scan"}, "lon": -77.07150416666667, "type": "electric_scooter", "fusion_lat": 0.0, "lat": 38.90772466666667, "name": "ea1bee0f0abebe9db275ecc18b9a1f38", "fusion_lon": 0.0, "bike_id": "ea1bee0f0abebe9db275ecc18b9a1f38", "is_disabled": 0, "is_reserved": 0}, {"rental_uris": {"ios": "https://dc.lft.to/lastmile_qr_scan", "android": "https://dc.lft.to/lastmile_qr_scan"}, "lon": -77.0020705, "type": "electric_scooter", "fusion_lat": 0.0, "lat": 38.902223666666664, "name": "44aa4c94e67fc1d8d68efa76eb8222b5", "fusion_lon": 0.0, "bike_id": "44aa4c94e67fc1d8d68efa76eb8222b5", "is_disabled": 0, "is_reserved": 0}, {"rental_uris": {"ios": "https://dc.lft.to/lastmile_qr_scan", "android": "https://dc.lft.to/lastmile_qr_scan"}, "lon": -77.03248916666666, "type": "electric_scooter", "fusion_lat": 0.0, "lat": 38.932409166666666, "name": "a22baab7fef1c78fd11ba60d383087ab", "fusion_lon": 0.0, "bike_id": "a22baab7fef1c78fd11ba60d383087ab", "is_disabled": 0, "is_reserved": 0}, {"rental_uris": {"ios": "https://dc.lft.to/lastmile_qr_scan", "android": "https://dc.lft.to/lastmile_qr_scan"}, "lon": -77.07029866666667, "type": "electric_bike", "fusion_lat": 0.0, "lat": 38.906282833333336, "name": "23165bf09555e918a0a962c9b931e4c7", "fusion_lon": 0.0, "bike_id": "23165bf09555e918a0a962c9b931e4c7", "is_disabled": 0, "is_reserved": 0}, {"rental_uris": {"ios": "https://dc.lft.to/lastmile_qr_scan", "android": "https://dc.lft.to/lastmile_qr_scan"}, "lon": -77.00711183333334, "type": "electric_scooter", "fusion_lat": 0.0, "lat": 38.87147366666667, "name": "e47c7550b5b9b610d92412fc86570d13", "fusion_lon": 0.0, "bike_id": "e47c7550b5b9b610d92412fc86570d13", "is_disabled": 0, "is_reserved": 0}, {"rental_uris": {"ios": "https://dc.lft.to/lastmile_qr_scan", "android": "https://dc.lft.to/lastmile_qr_scan"}, "lon": -76.916537, "type": "electric_bike", "fusion_lat": 0.0, "lat": 38.868598166666665, "name": "c5196d1afc99eb9561e9a2ae1665eda1", "fusion_lon": 0.0, "bike_id": "c5196d1afc99eb9561e9a2ae1665eda1", "is_disabled": 0, "is_reserved": 0}, {"rental_uris": {"ios": "https://dc.lft.to/lastmile_qr_scan", "android": "https://dc.lft.to/lastmile_qr_scan"}, "lon": -76.94849183333334, "type": "electric_scooter", "fusion_lat": 0.0, "lat": 38.895851, "name": "9ed4fc0ac3ca1ed4a5b6150b87c42cdc", "fusion_lon": 0.0, "bike_id": "9ed4fc0ac3ca1ed4a5b6150b87c42cdc", "is_disabled": 0, "is_reserved": 0}, {"rental_uris": {"ios": "https://dc.lft.to/lastmile_qr_scan", "android": "https://dc.lft.to/lastmile_qr_scan"}, "lon": -77.12727633333333, "type": "electric_bike", "fusion_lat": 0.0, "lat": 38.89561116666667, "name": "f8ae247b5e49539eb169f82c04e6e78c", "fusion_lon": 0.0, "bike_id": "f8ae247b5e49539eb169f82c04e6e78c", "is_disabled": 0, "is_reserved": 0}, {"rental_uris": {"ios": "https://dc.lft.to/lastmile_qr_scan", "android": "https://dc.lft.to/lastmile_qr_scan"}, "lon": -77.131819, "type": "electric_bike", "fusion_lat": 0.0, "lat": 38.86912266666667, "name": "a4f3f065af58b3c2daccd2fcc30df933", "fusion_lon": 0.0, "bike_id": "a4f3f065af58b3c2daccd2fcc30df933", "is_disabled": 0, "is_reserved": 0}, {"rental_uris": {"ios": "https://dc.lft.to/lastmile_qr_scan", "android": "https://dc.lft.to/lastmile_qr_scan"}, "lon": -76.97441983333333, "type": "electric_bike", "fusion_lat": 0.0, "lat": 38.86397633333333, "name": "b228bcd72a81f65f2a74b0212d4fa388", "fusion_lon": 0.0, "bike_id": "b228bcd72a81f65f2a74b0212d4fa388", "is_disabled": 0, "is_reserved": 0}, {"rental_uris": {"ios": "https://dc.lft.to/lastmile_qr_scan", "android": "https://dc.lft.to/lastmile_qr_scan"}, "lon": -77.0383325, "type": "electric_scooter", "fusion_lat": 0.0, "lat": 38.9217655, "name": "a06099bb6fd627f5c82fdc8e68277275", "fusion_lon": 0.0, "bike_id": "a06099bb6fd627f5c82fdc8e68277275", "is_disabled": 0, "is_reserved": 0}, {"rental_uris": {"ios": "https://dc.lft.to/lastmile_qr_scan", "android": "https://dc.lft.to/lastmile_qr_scan"}, "lon": -77.03148483333334, "type": "electric_scooter", "fusion_lat": 0.0, "lat": 38.91268433333333, "name": "6dc4e6ee71a3c13390c826eb3f8389a0", "fusion_lon": 0.0, "bike_id": "6dc4e6ee71a3c13390c826eb3f8389a0", "is_disabled": 0, "is_reserved": 0}, {"rental_uris": {"ios": "https://dc.lft.to/lastmile_qr_scan", "android": "https://dc.lft.to/lastmile_qr_scan"}, "lon": -77.036264, "type": "electric_scooter", "fusion_lat": 0.0, "lat": 38.937212, "name": "a8fc46b0e5cafcda7869ee1b7f05f80a", "fusion_lon": 0.0, "bike_id": "a8fc46b0e5cafcda7869ee1b7f05f80a", "is_disabled": 0, "is_reserved": 0}, {"rental_uris": {"ios": "https://dc.lft.to/lastmile_qr_scan", "android": "https://dc.lft.to/lastmile_qr_scan"}, "lon": -77.02717966666667, "type": "electric_scooter", "fusion_lat": 0.0, "lat": 38.9106915, "name": "700a1b6e540bdad455eec22a80f12846", "fusion_lon": 0.0, "bike_id": "700a1b6e540bdad455eec22a80f12846", "is_disabled": 0, "is_reserved": 0}, {"rental_uris": {"ios": "https://dc.lft.to/lastmile_qr_scan", "android": "https://dc.lft.to/lastmile_qr_scan"}, "lon": -76.94942166666667, "type": "electric_scooter", "fusion_lat": 0.0, "lat": 38.88377716666667, "name": "9137827a94ac2e4c27f90c26f5ad3a3a", "fusion_lon": 0.0, "bike_id": "9137827a94ac2e4c27f90c26f5ad3a3a", "is_disabled": 0, "is_reserved": 0}, {"rental_uris": {"ios": "https://dc.lft.to/lastmile_qr_scan", "android": "https://dc.lft.to/lastmile_qr_scan"}, "lon": -77.03927283333333, "type": "electric_scooter", "fusion_lat": 0.0, "lat": 38.921028166666666, "name": "79b01aef21f631f4140fcfd58f1de826", "fusion_lon": 0.0, "bike_id": "79b01aef21f631f4140fcfd58f1de826", "is_disabled": 0, "is_reserved": 0}, {"rental_uris": {"ios": "https://dc.lft.to/lastmile_qr_scan", "android": "https://dc.lft.to/lastmile_qr_scan"}, "lon": -76.95742466666667, "type": "electric_scooter", "fusion_lat": 0.0, "lat": 38.89216483333333, "name": "da70e36272ddfd7df055e33949422a81", "fusion_lon": 0.0, "bike_id": "da70e36272ddfd7df055e33949422a81", "is_disabled": 0, "is_reserved": 0}, {"rental_uris": {"ios": "https://dc.lft.to/lastmile_qr_scan", "android": "https://dc.lft.to/lastmile_qr_scan"}, "lon": -77.03310416666666, "type": "electric_scooter", "fusion_lat": 0.0, "lat": 38.901498333333336, "name": "733e08bb9d7c187767eb8fcd7e970b93", "fusion_lon": 0.0, "bike_id": "733e08bb9d7c187767eb8fcd7e970b93", "is_disabled": 0, "is_reserved": 0}, {"rental_uris": {"ios": "https://dc.lft.to/lastmile_qr_scan", "android": "https://dc.lft.to/lastmile_qr_scan"}, "lon": -77.0613315, "type": "electric_scooter", "fusion_lat": 0.0, "lat": 38.902288166666665, "name": "fd6708a6551bdb437509069211fceec9", "fusion_lon": 0.0, "bike_id": "fd6708a6551bdb437509069211fceec9", "is_disabled": 0, "is_reserved": 0}, {"rental_uris": {"ios": "https://dc.lft.to/lastmile_qr_scan", "android": "https://dc.lft.to/lastmile_qr_scan"}, "lon": -77.02258283333333, "type": "electric_scooter", "fusion_lat": 0.0, "lat": 38.91670633333333, "name": "674ee6a376c75c4e3adb314384bf4e4b", "fusion_lon": 0.0, "bike_id": "674ee6a376c75c4e3adb314384bf4e4b", "is_disabled": 0, "is_reserved": 0}, {"rental_uris": {"ios": "https://dc.lft.to/lastmile_qr_scan", "android": "https://dc.lft.to/lastmile_qr_scan"}, "lon": -76.97733166666667, "type": "electric_scooter", "fusion_lat": 0.0, "lat": 38.87289216666667, "name": "a8b9394bb0b8cc4009d0478d4ae71fb2", "fusion_lon": 0.0, "bike_id": "a8b9394bb0b8cc4009d0478d4ae71fb2", "is_disabled": 0, "is_reserved": 0}, {"rental_uris": {"ios": "https://dc.lft.to/lastmile_qr_scan", "android": "https://dc.lft.to/lastmile_qr_scan"}, "lon": -77.03936866666666, "type": "electric_scooter", "fusion_lat": 0.0, "lat": 38.93153266666667, "name": "539920e42b5906ebb8ea80ef282fcd4a", "fusion_lon": 0.0, "bike_id": "539920e42b5906ebb8ea80ef282fcd4a", "is_disabled": 0, "is_reserved": 0}, {"rental_uris": {"ios": "https://dc.lft.to/lastmile_qr_scan", "android": "https://dc.lft.to/lastmile_qr_scan"}, "lon": -77.01532216666666, "type": "electric_scooter", "fusion_lat": 0.0, "lat": 38.89822766666666, "name": "792232bb8232ae86ca57de975d926672", "fusion_lon": 0.0, "bike_id": "792232bb8232ae86ca57de975d926672", "is_disabled": 0, "is_reserved": 0}, {"rental_uris": {"ios": "https://dc.lft.to/lastmile_qr_scan", "android": "https://dc.lft.to/lastmile_qr_scan"}, "lon": -77.0546105, "type": "electric_scooter", "fusion_lat": 0.0, "lat": 38.90503133333333, "name": "117cda91a80f8715d2d14f45a8dc428d", "fusion_lon": 0.0, "bike_id": "117cda91a80f8715d2d14f45a8dc428d", "is_disabled": 0, "is_reserved": 0}, {"rental_uris": {"ios": "https://dc.lft.to/lastmile_qr_scan", "android": "https://dc.lft.to/lastmile_qr_scan"}, "lon": -76.99774883333333, "type": "electric_scooter", "fusion_lat": 0.0, "lat": 38.844233833333334, "name": "95c1f193c1247a7236334abc4b8d3663", "fusion_lon": 0.0, "bike_id": "95c1f193c1247a7236334abc4b8d3663", "is_disabled": 0, "is_reserved": 0}, {"rental_uris": {"ios": "https://dc.lft.to/lastmile_qr_scan", "android": "https://dc.lft.to/lastmile_qr_scan"}, "lon": -77.04290116666667, "type": "electric_scooter", "fusion_lat": 0.0, "lat": 38.90734366666667, "name": "ea526c16ceb398d5d0da8191dcbf80ae", "fusion_lon": 0.0, "bike_id": "ea526c16ceb398d5d0da8191dcbf80ae", "is_disabled": 0, "is_reserved": 0}, {"rental_uris": {"ios": "https://dc.lft.to/lastmile_qr_scan", "android": "https://dc.lft.to/lastmile_qr_scan"}, "lon": -77.02501816666667, "type": "electric_scooter", "fusion_lat": 0.0, "lat": 38.8803125, "name": "19a02e908785367de6713c3bf9f0ee0f", "fusion_lon": 0.0, "bike_id": "19a02e908785367de6713c3bf9f0ee0f", "is_disabled": 0, "is_reserved": 0}, {"rental_uris": {"ios": "https://dc.lft.to/lastmile_qr_scan", "android": "https://dc.lft.to/lastmile_qr_scan"}, "lon": -77.03782533333333, "type": "electric_bike", "fusion_lat": 0.0, "lat": 38.99667866666667, "name": "4331040ad0542048b361dc25c3b9b6af", "fusion_lon": 0.0, "bike_id": "4331040ad0542048b361dc25c3b9b6af", "is_disabled": 0, "is_reserved": 0}, {"rental_uris": {"ios": "https://dc.lft.to/lastmile_qr_scan", "android": "https://dc.lft.to/lastmile_qr_scan"}, "lon": -77.04479816666667, "type": "electric_scooter", "fusion_lat": 0.0, "lat": 38.91096833333334, "name": "2f83bdadaacdb6d766527261e4822ae2", "fusion_lon": 0.0, "bike_id": "2f83bdadaacdb6d766527261e4822ae2", "is_disabled": 0, "is_reserved": 0}, {"rental_uris": {"ios": "https://dc.lft.to/lastmile_qr_scan", "android": "https://dc.lft.to/lastmile_qr_scan"}, "lon": -77.02970566666667, "type": "electric_scooter", "fusion_lat": 0.0, "lat": 38.900555833333335, "name": "3a409c08c880a619367a6aa88964565c", "fusion_lon": 0.0, "bike_id": "3a409c08c880a619367a6aa88964565c", "is_disabled": 0, "is_reserved": 0}, {"rental_uris": {"ios": "https://dc.lft.to/lastmile_qr_scan", "android": "https://dc.lft.to/lastmile_qr_scan"}, "lon": -77.00564516666667, "type": "electric_scooter", "fusion_lat": 0.0, "lat": 38.87930133333333, "name": "2e0fddedccea31bbcbe7370620aa3802", "fusion_lon": 0.0, "bike_id": "2e0fddedccea31bbcbe7370620aa3802", "is_disabled": 0, "is_reserved": 0}, {"rental_uris": {"ios": "https://dc.lft.to/lastmile_qr_scan", "android": "https://dc.lft.to/lastmile_qr_scan"},