{"data": {"bikes": [{"bike_id": "482faf049765d0ad7ff66e8247ed7041", "type": "electric_scooter", "is_disabled": 0, "lat": 38.9248775, "rental_uris": {"ios": "https://dc.lft.to/lastmile_qr_scan", "android": "https://dc.lft.to/lastmile_qr_scan"}, "is_reserved": 0, "fusion_lon": 0.0, "fusion_lat": 0.0, "lon": -77.0575545, "name": "482faf049765d0ad7ff66e8247ed7041"}, {"bike_id": "3bba151a3895fc7d895e236b6abb23ca", "type": "electric_scooter", "is_disabled": 0, "lat": 38.915825166666664, "rental_uris": {"ios": "https://dc.lft.to/lastmile_qr_scan", "android": "https://dc.lft.to/lastmile_qr_scan"}, "is_reserved": 0, "fusion_lon": 0.0, "fusion_lat": 0.0, "lon": -77.0452775, "name": "3bba151a3895fc7d895e236b6abb23ca"}, {"bike_id": "d81399f14bbc4b63fc9d1c97a34ecf56", "type": "electric_scooter", "is_disabled": 0, "lat": 38.88831166666667, "rental_uris": {"ios": "https://dc.lft.to/lastmile_qr_scan", "android": "https://dc.lft.to/lastmile_qr_scan"}, "is_reserved": 0, "fusion_lon": 0.0, "fusion_lat": 0.0, "lon": -77.04844016666667, "name": "d81399f14bbc4b63fc9d1c97a34ecf56"}, {"bike_id": "b46a8c20f4dc5c0b1d108f02b9f9072d", "type": "electric_scooter", "is_disabled": 0, "lat": 38.90846833333333, "rental_uris": {"ios": "https://dc.lft.to/lastmile_qr_scan", "android": "https://dc.lft.to/lastmile_qr_scan"}, "is_reserved": 0, "fusion_lon": 0.0, "fusion_lat": 0.0, "lon": -77.02233266666667, "name": "b46a8c20f4dc5c0b1d108f02b9f9072d"}, {"bike_id": "4c8befdf68dbfe8d693f9bde9f784e73", "type": "electric_scooter", "is_disabled": 0, "lat": 38.928801166666666, "rental_uris": {"ios": "https://dc.lft.to/lastmile_qr_scan", "android": "https://dc.lft.to/lastmile_qr_scan"}, "is_reserved": 0, "fusion_lon": 0.0, "fusion_lat": 0.0, "lon": -77.03243883333333, "name": "4c8befdf68dbfe8d693f9bde9f784e73"}, {"bike_id": "d989ad48477506ab2ae72b1d52514ece", "type": "electric_bike", "is_disabled": 0, "lat": 38.930416666666666, "rental_uris": {"ios": "https://dc.lft.to/lastmile_qr_scan", "android": "https://dc.lft.to/lastmile_qr_scan"}, "is_reserved": 0, "fusion_lon": 0.0, "fusion_lat": 0.0, "lon": -77.07354, "name": "d989ad48477506ab2ae72b1d52514ece"}, {"bike_id": "b166e3313bc408beb8e9a747f3f05a11", "type": "electric_scooter", "is_disabled": 0, "lat": 38.86628283333334, "rental_uris": {"ios": "https://dc.lft.to/lastmile_qr_scan", "android": "https://dc.lft.to/lastmile_qr_scan"}, "is_reserved": 0, "fusion_lon": 0.0, "fusion_lat": 0.0, "lon": -76.9871675, "name": "b166e3313bc408beb8e9a747f3f05a11"}, {"bike_id": "5891b108e72103b2fef39bda92c6ce77", "type": "electric_scooter", "is_disabled": 0, "lat": 38.933099166666665, "rental_uris": {"ios": "https://dc.lft.to/lastmile_qr_scan", "android": "https://dc.lft.to/lastmile_qr_scan"}, "is_reserved": 0, "fusion_lon": 0.0, "fusion_lat": 0.0, "lon": -77.03265883333333, "name": "5891b108e72103b2fef39bda92c6ce77"}, {"bike_id": "9ae8e30703623f4affbcc2dd8a1eb0cb", "type": "electric_scooter", "is_disabled": 0, "lat": 38.899618, "rental_uris": {"ios": "https://dc.lft.to/lastmile_qr_scan", "android": "https://dc.lft.to/lastmile_qr_scan"}, "is_reserved": 0, "fusion_lon": 0.0, "fusion_lat": 0.0, "lon": -76.92623416666666, "name": "9ae8e30703623f4affbcc2dd8a1eb0cb"}, {"bike_id": "2c4f30e405be227c2340284f4841877f", "type": "electric_scooter", "is_disabled": 0, "lat": 38.904885666666665, "rental_uris": {"ios": "https://dc.lft.to/lastmile_qr_scan", "android": "https://dc.lft.to/lastmile_qr_scan"}, "is_reserved": 0, "fusion_lon": 0.0, "fusion_lat": 0.0, "lon": -77.06787116666666, "name": "2c4f30e405be227c2340284f4841877f"}, {"bike_id": "327ddb2ede2e27014b61fa45cba6f3df", "type": "electric_scooter", "is_disabled": 0, "lat": 38.89913266666667, "rental_uris": {"ios": "https://dc.lft.to/lastmile_qr_scan", "android": "https://dc.lft.to/lastmile_qr_scan"}, "is_reserved": 0, "fusion_lon": 0.0, "fusion_lat": 0.0, "lon": -76.93368716666667, "name": "327ddb2ede2e27014b61fa45cba6f3df"}, {"bike_id": "e95193011a9be850e3233fce41e852fb", "type": "electric_scooter", "is_disabled": 0, "lat": 38.920386666666666, "rental_uris": {"ios": "https://dc.lft.to/lastmile_qr_scan", "android": "https://dc.lft.to/lastmile_qr_scan"}, "is_reserved": 0, "fusion_lon": 0.0, "fusion_lat": 0.0, "lon": -77.02399583333333, "name": "e95193011a9be850e3233fce41e852fb"}, {"bike_id": "06b4343a0898c3d884c4bde3a83ae042", "type": "electric_scooter", "is_disabled": 0, "lat": 38.92023366666667, "rental_uris": {"ios": "https://dc.lft.to/lastmile_qr_scan", "android": "https://dc.lft.to/lastmile_qr_scan"}, "is_reserved": 0, "fusion_lon": 0.0, "fusion_lat": 0.0, "lon": -77.02797366666667, "name": "06b4343a0898c3d884c4bde3a83ae042"}, {"bike_id": "a278e91f7d7e056999b47dfd7f224df4", "type": "electric_scooter", "is_disabled": 0, "lat": 38.90628383333333, "rental_uris": {"ios": "https://dc.lft.to/lastmile_qr_scan", "android": "https://dc.lft.to/lastmile_qr_scan"}, "is_reserved": 0, "fusion_lon": 0.0, "fusion_lat": 0.0, "lon": -77.04865016666666, "name": "a278e91f7d7e056999b47dfd7f224df4"}, {"bike_id": "1f9f0757bdacc0c08cd3fee06b657300", "type": "electric_scooter", "is_disabled": 0, "lat": 38.93028483333333, "rental_uris": {"ios": "https://dc.lft.to/lastmile_qr_scan", "android": "https://dc.lft.to/lastmile_qr_scan"}, "is_reserved": 0, "fusion_lon": 0.0, "fusion_lat": 0.0, "lon": -77.0380575, "name": "1f9f0757bdacc0c08cd3fee06b657300"}, {"bike_id": "1d94aefa8860117918424451e8a6a958", "type": "electric_scooter", "is_disabled": 0, "lat": 38.896220666666665, "rental_uris": {"ios": "https://dc.lft.to/lastmile_qr_scan", "android": "https://dc.lft.to/lastmile_qr_scan"}, "is_reserved": 0, "fusion_lon": 0.0, "fusion_lat": 0.0, "lon": -77.000281, "name": "1d94aefa8860117918424451e8a6a958"}, {"bike_id": "eec4503676ffb4ac09b9958dcd5f8449", "type": "electric_bike", "is_disabled": 0, "lat": 38.83609583333333, "rental_uris": {"ios": "https://dc.lft.to/lastmile_qr_scan", "android": "https://dc.lft.to/lastmile_qr_scan"}, "is_reserved": 0, "fusion_lon": 0.0, "fusion_lat": 0.0, "lon": -77.00379833333334, "name": "eec4503676ffb4ac09b9958dcd5f8449"}, {"bike_id": "e19c4561a48cd9c60d20e2fe072686ba", "type": "electric_scooter", "is_disabled": 0, "lat": 38.907914833333336, "rental_uris": {"ios": "https://dc.lft.to/lastmile_qr_scan", "android": "https://dc.lft.to/lastmile_qr_scan"}, "is_reserved": 0, "fusion_lon": 0.0, "fusion_lat": 0.0, "lon": -77.0642955, "name": "e19c4561a48cd9c60d20e2fe072686ba"}, {"bike_id": "449ecec031324b5a748e7f669090286f", "type": "electric_scooter", "is_disabled": 0, "lat": 38.90751066666667, "rental_uris": {"ios": "https://dc.lft.to/lastmile_qr_scan", "android": "https://dc.lft.to/lastmile_qr_scan"}, "is_reserved": 0, "fusion_lon": 0.0, "fusion_lat": 0.0, "lon": -77.03604583333333, "name": "449ecec031324b5a748e7f669090286f"}, {"bike_id": "0b05eb0cf7915cbf38ae4b72bb606d83", "type": "electric_bike", "is_disabled": 0, "lat": 38.8713425, "rental_uris": {"ios": "https://dc.lft.to/lastmile_qr_scan", "android": "https://dc.lft.to/lastmile_qr_scan"}, "is_reserved": 0, "fusion_lon": 0.0, "fusion_lat": 0.0, "lon": -77.10025783333333, "name": "0b05eb0cf7915cbf38ae4b72bb606d83"}, {"bike_id": "b70cc1e2881b3bea87aa4027c97f3722", "type": "electric_scooter", "is_disabled": 0, "lat": 38.9210545, "rental_uris": {"ios": "https://dc.lft.to/lastmile_qr_scan", "android": "https://dc.lft.to/lastmile_qr_scan"}, "is_reserved": 0, "fusion_lon": 0.0, "fusion_lat": 0.0, "lon": -77.02213716666667, "name": "b70cc1e2881b3bea87aa4027c97f3722"}, {"bike_id": "a85886e8ed7d03ab7437237ad349a89c", "type": "electric_scooter", "is_disabled": 0, "lat": 38.904988333333336, "rental_uris": {"ios": "https://dc.lft.to/lastmile_qr_scan", "android": "https://dc.lft.to/lastmile_qr_scan"}, "is_reserved": 0, "fusion_lon": 0.0, "fusion_lat": 0.0, "lon": -77.0688445, "name": "a85886e8ed7d03ab7437237ad349a89c"}, {"bike_id": "60a914c65b25fcac623684bcdcdc3b94", "type": "electric_scooter", "is_disabled": 0, "lat": 38.90058916666667, "rental_uris": {"ios": "https://dc.lft.to/lastmile_qr_scan", "android": "https://dc.lft.to/lastmile_qr_scan"}, "is_reserved": 0, "fusion_lon": 0.0, "fusion_lat": 0.0, "lon": -76.92737083333333, "name": "60a914c65b25fcac623684bcdcdc3b94"}, {"bike_id": "0eead500fedec160922f0c84b9d827e1", "type": "electric_scooter", "is_disabled": 0, "lat": 38.91349533333333, "rental_uris": {"ios": "https://dc.lft.to/lastmile_qr_scan", "android": "https://dc.lft.to/lastmile_qr_scan"}, "is_reserved": 0, "fusion_lon": 0.0, "fusion_lat": 0.0, "lon": -77.031809, "name": "0eead500fedec160922f0c84b9d827e1"}, {"bike_id": "d5f82209cedd28c0462e619235a47bdf", "type": "electric_scooter", "is_disabled": 0, "lat": 38.920789666666664, "rental_uris": {"ios": "https://dc.lft.to/lastmile_qr_scan", "android": "https://dc.lft.to/lastmile_qr_scan"}, "is_reserved": 0, "fusion_lon": 0.0, "fusion_lat": 0.0, "lon": -77.02385833333334, "name": "d5f82209cedd28c0462e619235a47bdf"}, {"bike_id": "dd7cd6fb80058bfff08bc424a48a73ce", "type": "electric_scooter", "is_disabled": 0, "lat": 38.937415666666666, "rental_uris": {"ios": "https://dc.lft.to/lastmile_qr_scan", "android": "https://dc.lft.to/lastmile_qr_scan"}, "is_reserved": 0, "fusion_lon": 0.0, "fusion_lat": 0.0, "lon": -77.02443083333333, "name": "dd7cd6fb80058bfff08bc424a48a73ce"}, {"bike_id": "d7082e8b2909c1862fa619d09adfd846", "type": "electric_scooter", "is_disabled": 0, "lat": 38.902725333333336, "rental_uris": {"ios": "https://dc.lft.to/lastmile_qr_scan", "android": "https://dc.lft.to/lastmile_qr_scan"}, "is_reserved": 0, "fusion_lon": 0.0, "fusion_lat": 0.0, "lon": -77.0449065, "name": "d7082e8b2909c1862fa619d09adfd846"}, {"bike_id": "6d36fb2154000d70b6f766123795fa57", "type": "electric_scooter", "is_disabled": 0, "lat": 38.876266, "rental_uris": {"ios": "https://dc.lft.to/lastmile_qr_scan", "android": "https://dc.lft.to/lastmile_qr_scan"}, "is_reserved": 0, "fusion_lon": 0.0, "fusion_lat": 0.0, "lon": -76.96526666666666, "name": "6d36fb2154000d70b6f766123795fa57"}, {"bike_id": "7066ef70ce1046bdc4dc437f1a965946", "type": "electric_scooter", "is_disabled": 0, "lat": 38.92603033333333, "rental_uris": {"ios": "https://dc.lft.to/lastmile_qr_scan", "android": "https://dc.lft.to/lastmile_qr_scan"}, "is_reserved": 0, "fusion_lon": 0.0, "fusion_lat": 0.0, "lon": -77.037323, "name": "7066ef70ce1046bdc4dc437f1a965946"}, {"bike_id": "04ac2151535ad8d794c86f1eb536725d", "type": "electric_scooter", "is_disabled": 0, "lat": 38.928050666666664, "rental_uris": {"ios": "https://dc.lft.to/lastmile_qr_scan", "android": "https://dc.lft.to/lastmile_qr_scan"}, "is_reserved": 0, "fusion_lon": 0.0, "fusion_lat": 0.0, "lon": -77.02690766666667, "name": "04ac2151535ad8d794c86f1eb536725d"}, {"bike_id": "201aaafe5854e232406e048831b57cb6", "type": "electric_scooter", "is_disabled": 0, "lat": 38.914092333333336, "rental_uris": {"ios": "https://dc.lft.to/lastmile_qr_scan", "android": "https://dc.lft.to/lastmile_qr_scan"}, "is_reserved": 0, "fusion_lon": 0.0, "fusion_lat": 0.0, "lon": -77.022487, "name": "201aaafe5854e232406e048831b57cb6"}, {"bike_id": "57b031591d17c6b56fcfaef99607dfd6", "type": "electric_scooter", "is_disabled": 0, "lat": 38.91911233333333, "rental_uris": {"ios": "https://dc.lft.to/lastmile_qr_scan", "android": "https://dc.lft.to/lastmile_qr_scan"}, "is_reserved": 0, "fusion_lon": 0.0, "fusion_lat": 0.0, "lon": -77.03389883333334, "name": "57b031591d17c6b56fcfaef99607dfd6"}, {"bike_id": "d188c62b33d308fcfa4cd1ace4cceab8", "type": "electric_scooter", "is_disabled": 0, "lat": 38.917694, "rental_uris": {"ios": "https://dc.lft.to/lastmile_qr_scan", "android": "https://dc.lft.to/lastmile_qr_scan"}, "is_reserved": 0, "fusion_lon": 0.0, "fusion_lat": 0.0, "lon": -77.01459166666666, "name": "d188c62b33d308fcfa4cd1ace4cceab8"}, {"bike_id": "d0ae00dff8960fdb52ae1a4f15f6d415", "type": "electric_scooter", "is_disabled": 0, "lat": 38.927874333333335, "rental_uris": {"ios": "https://dc.lft.to/lastmile_qr_scan", "android": "https://dc.lft.to/lastmile_qr_scan"}, "is_reserved": 0, "fusion_lon": 0.0, "fusion_lat": 0.0, "lon": -77.0262525, "name": "d0ae00dff8960fdb52ae1a4f15f6d415"}, {"bike_id": "5c62530caeacefd7af79934d292b38c1", "type": "electric_scooter", "is_disabled": 0, "lat": 38.897454833333335, "rental_uris": {"ios": "https://dc.lft.to/lastmile_qr_scan", "android": "https://dc.lft.to/lastmile_qr_scan"}, "is_reserved": 0, "fusion_lon": 0.0, "fusion_lat": 0.0, "lon": -77.04878166666667, "name": "5c62530caeacefd7af79934d292b38c1"}, {"bike_id": "30bc944f2cb180e191770c411694d95b", "type": "electric_scooter", "is_disabled": 0, "lat": 38.9304485, "rental_uris": {"ios": "https://dc.lft.to/lastmile_qr_scan", "android": "https://dc.lft.to/lastmile_qr_scan"}, "is_reserved": 0, "fusion_lon": 0.0, "fusion_lat": 0.0, "lon": -77.02349216666667, "name": "30bc944f2cb180e191770c411694d95b"}, {"bike_id": "14354e5b3de50713f721743c9180e8e2", "type": "electric_scooter", "is_disabled": 0, "lat": 38.86502466666666, "rental_uris": {"ios": "https://dc.lft.to/lastmile_qr_scan", "android": "https://dc.lft.to/lastmile_qr_scan"}, "is_reserved": 0, "fusion_lon": 0.0, "fusion_lat": 0.0, "lon": -76.99001933333334, "name": "14354e5b3de50713f721743c9180e8e2"}, {"bike_id": "70b363f9473eafbc02263aed58d23243", "type": "electric_scooter", "is_disabled": 0, "lat": 38.880772, "rental_uris": {"ios": "https://dc.lft.to/lastmile_qr_scan", "android": "https://dc.lft.to/lastmile_qr_scan"}, "is_reserved": 0, "fusion_lon": 0.0, "fusion_lat": 0.0, "lon": -76.99502433333333, "name": "70b363f9473eafbc02263aed58d23243"}, {"bike_id": "d6c5c5442d03d122cd0781f9033472e9", "type": "electric_bike", "is_disabled": 0, "lat": 38.853562833333335, "rental_uris": {"ios": "https://dc.lft.to/lastmile_qr_scan", "android": "https://dc.lft.to/lastmile_qr_scan"}, "is_reserved": 0, "fusion_lon": 0.0, "fusion_lat": 0.0, "lon": -77.08689516666666, "name": "d6c5c5442d03d122cd0781f9033472e9"}, {"bike_id": "75f5255086d02ba16c536b0e88b7ef6f", "type": "electric_scooter", "is_disabled": 0, "lat": 38.91774783333334, "rental_uris": {"ios": "https://dc.lft.to/lastmile_qr_scan", "android": "https://dc.lft.to/lastmile_qr_scan"}, "is_reserved": 0, "fusion_lon": 0.0, "fusion_lat": 0.0, "lon": -77.03656216666667, "name": "75f5255086d02ba16c536b0e88b7ef6f"}, {"bike_id": "df6fe0c7f70dfcb02279a76c08a26b36", "type": "electric_scooter", "is_disabled": 0, "lat": 38.89868416666667, "rental_uris": {"ios": "https://dc.lft.to/lastmile_qr_scan", "android": "https://dc.lft.to/lastmile_qr_scan"}, "is_reserved": 0, "fusion_lon": 0.0, "fusion_lat": 0.0, "lon": -76.9466255, "name": "df6fe0c7f70dfcb02279a76c08a26b36"}, {"bike_id": "92bf5da1784930018b42b26c76d7760c", "type": "electric_scooter", "is_disabled": 0, "lat": 38.913993, "rental_uris": {"ios": "https://dc.lft.to/lastmile_qr_scan", "android": "https://dc.lft.to/lastmile_qr_scan"}, "is_reserved": 0, "fusion_lon": 0.0, "fusion_lat": 0.0, "lon": -77.045437, "name": "92bf5da1784930018b42b26c76d7760c"}, {"bike_id": "951e19f60505cef6575411c234b97393", "type": "electric_bike", "is_disabled": 0, "lat": 38.973905333333335, "rental_uris": {"ios": "https://dc.lft.to/lastmile_qr_scan", "android": "https://dc.lft.to/lastmile_qr_scan"}, "is_reserved": 0, "fusion_lon": 0.0, "fusion_lat": 0.0, "lon": -77.0645655, "name": "951e19f60505cef6575411c234b97393"}, {"bike_id": "a6dabcf7c86b83e6ab2a3fa796578a39", "type": "electric_scooter", "is_disabled": 0, "lat": 38.901128666666665, "rental_uris": {"ios": "https://dc.lft.to/lastmile_qr_scan", "android": "https://dc.lft.to/lastmile_qr_scan"}, "is_reserved": 0, "fusion_lon": 0.0, "fusion_lat": 0.0, "lon": -77.04984516666667, "name": "a6dabcf7c86b83e6ab2a3fa796578a39"}, {"bike_id": "d762d7f1fa96d326084b773ca04874ed", "type": "electric_scooter", "is_disabled": 0, "lat": 38.9011495, "rental_uris": {"ios": "https://dc.lft.to/lastmile_qr_scan", "android": "https://dc.lft.to/lastmile_qr_scan"}, "is_reserved": 0, "fusion_lon": 0.0, "fusion_lat": 0.0, "lon": -76.92952683333333, "name": "d762d7f1fa96d326084b773ca04874ed"}, {"bike_id": "682304848d0463f2778fb3c20486168f", "type": "electric_scooter", "is_disabled": 0, "lat": 38.90011333333333, "rental_uris": {"ios": "https://dc.lft.to/lastmile_qr_scan", "android": "https://dc.lft.to/lastmile_qr_scan"}, "is_reserved": 0, "fusion_lon": 0.0, "fusion_lat": 0.0, "lon": -76.99247933333334, "name": "682304848d0463f2778fb3c20486168f"}, {"bike_id": "dfdd1977dbbc7063a4c8e8c94b377633", "type": "electric_scooter", "is_disabled": 0, "lat": 38.902790333333336, "rental_uris": {"ios": "https://dc.lft.to/lastmile_qr_scan", "android": "https://dc.lft.to/lastmile_qr_scan"}, "is_reserved": 0, "fusion_lon": 0.0, "fusion_lat": 0.0, "lon": -77.00332183333333, "name": "dfdd1977dbbc7063a4c8e8c94b377633"}, {"bike_id": "0863bdf90719d846e8e644eb1ea7748a", "type": "electric_scooter", "is_disabled": 0, "lat": 38.873328, "rental_uris": {"ios": "https://dc.lft.to/lastmile_qr_scan", "android": "https://dc.lft.to/lastmile_qr_scan"}, "is_reserved": 0, "fusion_lon": 0.0, "fusion_lat": 0.0, "lon": -76.96786366666667, "name": "0863bdf90719d846e8e644eb1ea7748a"}, {"bike_id": "da47db291776cd13e77ca70e831fcc18", "type": "electric_scooter", "is_disabled": 0, "lat": 38.95623633333334, "rental_uris": {"ios": "https://dc.lft.to/lastmile_qr_scan", "android": "https://dc.lft.to/lastmile_qr_scan"}, "is_reserved": 0, "fusion_lon": 0.0, "fusion_lat": 0.0, "lon": -77.036227, "name": "da47db291776cd13e77ca70e831fcc18"}, {"bike_id": "c3294748e0f11d5deee3756219395726", "type": "electric_scooter", "is_disabled": 0, "lat": 38.923226666666665, "rental_uris": {"ios": "https://dc.lft.to/lastmile_qr_scan", "android": "https://dc.lft.to/lastmile_qr_scan"}, "is_reserved": 0, "fusion_lon": 0.0, "fusion_lat": 0.0, "lon": -77.03770783333333, "name": "c3294748e0f11d5deee3756219395726"}, {"bike_id": "0f8345cb473cbda7c10f289079523891", "type": "electric_scooter", "is_disabled": 0, "lat": 38.87361716666667, "rental_uris": {"ios": "https://dc.lft.to/lastmile_qr_scan", "android": "https://dc.lft.to/lastmile_qr_scan"}, "is_reserved": 0, "fusion_lon": 0.0, "fusion_lat": 0.0, "lon": -77.006161, "name": "0f8345cb473cbda7c10f289079523891"}, {"bike_id": "e1eb40fd664d89fde99f4401a33e3a80", "type": "electric_scooter", "is_disabled": 0, "lat": 38.8989605, "rental_uris": {"ios": "https://dc.lft.to/lastmile_qr_scan", "android": "https://dc.lft.to/lastmile_qr_scan"}, "is_reserved": 0, "fusion_lon": 0.0, "fusion_lat": 0.0, "lon": -77.03929866666667, "name": "e1eb40fd664d89fde99f4401a33e3a80"}, {"bike_id": "eccc2cb44d050cb3f5940db1d41ec6fd", "type": "electric_bike", "is_disabled": 0, "lat": 38.95711433333334, "rental_uris": {"ios": "https://dc.lft.to/lastmile_qr_scan", "android": "https://dc.lft.to/lastmile_qr_scan"}, "is_reserved": 0, "fusion_lon": 0.0, "fusion_lat": 0.0, "lon": -77.00279283333333, "name": "eccc2cb44d050cb3f5940db1d41ec6fd"}, {"bike_id": "9013dbe619fa9b9630e22921c247a42b", "type": "electric_scooter", "is_disabled": 0, "lat": 38.90356083333333, "rental_uris": {"ios": "https://dc.lft.to/lastmile_qr_scan", "android": "https://dc.lft.to/lastmile_qr_scan"}, "is_reserved": 0, "fusion_lon": 0.0, "fusion_lat": 0.0, "lon": -77.03851333333333, "name": "9013dbe619fa9b9630e22921c247a42b"}, {"bike_id": "4a63cfcf9ca62c874858c2f4f1be92d9", "type": "electric_scooter", "is_disabled": 0, "lat": 38.912418, "rental_uris": {"ios": "https://dc.lft.to/lastmile_qr_scan", "android": "https://dc.lft.to/lastmile_qr_scan"}, "is_reserved": 0, "fusion_lon": 0.0, "fusion_lat": 0.0, "lon": -77.03197683333333, "name": "4a63cfcf9ca62c874858c2f4f1be92d9"}, {"bike_id": "abbc1dbfccd66da68fd7dd35963aa914", "type": "electric_bike", "is_disabled": 0, "lat": 38.92446066666667, "rental_uris": {"ios": "https://dc.lft.to/lastmile_qr_scan", "android": "https://dc.lft.to/lastmile_qr_scan"}, "is_reserved": 0, "fusion_lon": 0.0, "fusion_lat": 0.0, "lon": -77.2256375, "name": "abbc1dbfccd66da68fd7dd35963aa914"}, {"bike_id": "62db97cadc761bf3e441f38b0829bd96", "type": "electric_scooter", "is_disabled": 0, "lat": 38.92580533333334, "rental_uris": {"ios": "https://dc.lft.to/lastmile_qr_scan", "android": "https://dc.lft.to/lastmile_qr_scan"}, "is_reserved": 0, "fusion_lon": 0.0, "fusion_lat": 0.0, "lon": -77.073098, "name": "62db97cadc761bf3e441f38b0829bd96"}, {"bike_id": "0c409f6ed4e803dbd4b442acd7bc0bdb", "type": "electric_scooter", "is_disabled": 0, "lat": 38.892763, "rental_uris": {"ios": "https://dc.lft.to/lastmile_qr_scan", "android": "https://dc.lft.to/lastmile_qr_scan"}, "is_reserved": 0, "fusion_lon": 0.0, "fusion_lat": 0.0, "lon": -77.02440616666667, "name": "0c409f6ed4e803dbd4b442acd7bc0bdb"}, {"bike_id": "202b0388c25debeb157c8adf37303431", "type": "electric_scooter", "is_disabled": 0, "lat": 38.90662016666667, "rental_uris": {"ios": "https://dc.lft.to/lastmile_qr_scan", "android": "https://dc.lft.to/lastmile_qr_scan"}, "is_reserved": 0, "fusion_lon": 0.0, "fusion_lat": 0.0, "lon": -77.01037916666667, "name": "202b0388c25debeb157c8adf37303431"}, {"bike_id": "35fd13b308a39aeeae275ff8e225419d", "type": "electric_scooter", "is_disabled": 0, "lat": 38.92312033333333, "rental_uris": {"ios": "https://dc.lft.to/lastmile_qr_scan", "android": "https://dc.lft.to/lastmile_qr_scan"}, "is_reserved": 0, "fusion_lon": 0.0, "fusion_lat": 0.0, "lon": -77.04205316666666, "name": "35fd13b308a39aeeae275ff8e225419d"}, {"bike_id": "b3334bdc0dde3b968956d2d365039b0e", "type": "electric_scooter", "is_disabled": 0, "lat": 38.91117283333333, "rental_uris": {"ios": "https://dc.lft.to/lastmile_qr_scan", "android": "https://dc.lft.to/lastmile_qr_scan"}, "is_reserved": 0, "fusion_lon": 0.0, "fusion_lat": 0.0, "lon": -77.039201, "name": "b3334bdc0dde3b968956d2d365039b0e"}, {"bike_id": "e46b220b753a6ac9d7ae010dfb1013dd", "type": "electric_scooter", "is_disabled": 0, "lat": 38.9352735, "rental_uris": {"ios": "https://dc.lft.to/lastmile_qr_scan", "android": "https://dc.lft.to/lastmile_qr_scan"}, "is_reserved": 0, "fusion_lon": 0.0, "fusion_lat": 0.0, "lon": -77.0296525, "name": "e46b220b753a6ac9d7ae010dfb1013dd"}, {"bike_id": "51c2c5ae32e3a0591da588384100f5ce", "type": "electric_bike", "is_disabled": 0, "lat": 38.94659816666667, "rental_uris": {"ios": "https://dc.lft.to/lastmile_qr_scan", "android": "https://dc.lft.to/lastmile_qr_scan"}, "is_reserved": 0, "fusion_lon": 0.0, "fusion_lat": 0.0, "lon": -76.95669016666666, "name": "51c2c5ae32e3a0591da588384100f5ce"}, {"bike_id": "d52b008f2cd137f9e367bd3fdae6b998", "type": "electric_scooter", "is_disabled": 0, "lat": 38.97220183333334, "rental_uris": {"ios": "https://dc.lft.to/lastmile_qr_scan", "android": "https://dc.lft.to/lastmile_qr_scan"}, "is_reserved": 0, "fusion_lon": 0.0, "fusion_lat": 0.0, "lon": -77.02690916666667, "name": "d52b008f2cd137f9e367bd3fdae6b998"}, {"bike_id": "6e886e2560eff80478b47fef0a76fe41", "type": "electric_scooter", "is_disabled": 0, "lat": 38.89355, "rental_uris": {"ios": "https://dc.lft.to/lastmile_qr_scan", "android": "https://dc.lft.to/lastmile_qr_scan"}, "is_reserved": 0, "fusion_lon": 0.0, "fusion_lat": 0.0, "lon": -76.99778533333334, "name": "6e886e2560eff80478b47fef0a76fe41"}, {"bike_id": "a38274e8f531cf7e6c7d0d05381f27b9", "type": "electric_scooter", "is_disabled": 0, "lat": 38.899010833333335, "rental_uris": {"ios": "https://dc.lft.to/lastmile_qr_scan", "android": "https://dc.lft.to/lastmile_qr_scan"}, "is_reserved": 0, "fusion_lon": 0.0, "fusion_lat": 0.0, "lon": -77.015166, "name": "a38274e8f531cf7e6c7d0d05381f27b9"}, {"bike_id": "8f5d5873865e7f85c872110127135920", "type": "electric_scooter", "is_disabled": 0, "lat": 38.890074, "rental_uris": {"ios": "https://dc.lft.to/lastmile_qr_scan", "android": "https://dc.lft.to/lastmile_qr_scan"}, "is_reserved": 0, "fusion_lon": 0.0, "fusion_lat": 0.0, "lon": -76.937489, "name": "8f5d5873865e7f85c872110127135920"}, {"bike_id": "823267b93472f43645652809df0d4177", "type": "electric_scooter", "is_disabled": 0, "lat": 38.90958283333333, "rental_uris": {"ios": "https://dc.lft.to/lastmile_qr_scan", "android": "https://dc.lft.to/lastmile_qr_scan"}, "is_reserved": 0, "fusion_lon": 0.0, "fusion_lat": 0.0, "lon": -77.02316483333334, "name": "823267b93472f43645652809df0d4177"}, {"bike_id": "ed82b7287c892252745e75189c0b6248", "type": "electric_scooter", "is_disabled": 0, "lat": 38.8931965, "rental_uris": {"ios": "https://dc.lft.to/lastmile_qr_scan", "android": "https://dc.lft.to/lastmile_qr_scan"}, "is_reserved": 0, "fusion_lon": 0.0, "fusion_lat": 0.0, "lon": -77.04878316666667, "name": "ed82b7287c892252745e75189c0b6248"}, {"bike_id": "d3739a13e1598b9e9c1743dee64bc3fa", "type": "electric_scooter", "is_disabled": 0, "lat": 38.95143566666667, "rental_uris": {"ios": "https://dc.lft.to/lastmile_qr_scan", "android": "https://dc.lft.to/lastmile_qr_scan"}, "is_reserved": 0, "fusion_lon": 0.0, "fusion_lat": 0.0, "lon": -77.01869766666667, "name": "d3739a13e1598b9e9c1743dee64bc3fa"}, {"bike_id": "d34f57d314165f22f2e95a9c16cef4d0", "type": "electric_scooter", "is_disabled": 0, "lat": 38.89532666666667, "rental_uris": {"ios": "https://dc.lft.to/lastmile_qr_scan", "android": "https://dc.lft.to/lastmile_qr_scan"}, "is_reserved": 0, "fusion_lon": 0.0, "fusion_lat": 0.0, "lon": -76.94893083333334, "name": "d34f57d314165f22f2e95a9c16cef4d0"}, {"bike_id": "13245672fb4f92ae35507e5b87b188b6", "type": "electric_scooter", "is_disabled": 0, "lat": 38.91695216666667, "rental_uris": {"ios": "https://dc.lft.to/lastmile_qr_scan", "android": "https://dc.lft.to/lastmile_qr_scan"}, "is_reserved": 0, "fusion_lon": 0.0, "fusion_lat": 0.0, "lon": -77.01053283333333, "name": "13245672fb4f92ae35507e5b87b188b6"}, {"bike_id": "f3cdc423457eccee9e02f1cf23a816f7", "type": "electric_scooter", "is_disabled": 0, "lat": 38.928520666666664, "rental_uris": {"ios": "https://dc.lft.to/lastmile_qr_scan", "android": "https://dc.lft.to/lastmile_qr_scan"}, "is_reserved": 0, "fusion_lon": 0.0, "fusion_lat": 0.0, "lon": -77.0328695, "name": "f3cdc423457eccee9e02f1cf23a816f7"}, {"bike_id": "781ca4da16fec34f6ee220557a5ed4b9", "type": "electric_scooter", "is_disabled": 0, "lat": 38.90174783333333, "rental_uris": {"ios": "https://dc.lft.to/lastmile_qr_scan", "android": "https://dc.lft.to/lastmile_qr_scan"}, "is_reserved": 0, "fusion_lon": 0.0, "fusion_lat": 0.0, "lon": -77.05055583333333, "name": "781ca4da16fec34f6ee220557a5ed4b9"}, {"bike_id": "33f21a6b3229918753f015f0c2aefd32", "type": "electric_scooter", "is_disabled": 0, "lat": 38.917917333333335, "rental_uris": {"ios": "https://dc.lft.to/lastmile_qr_scan", "android": "https://dc.lft.to/lastmile_qr_scan"}, "is_reserved": 0, "fusion_lon": 0.0, "fusion_lat": 0.0, "lon": -77.0422635, "name": "33f21a6b3229918753f015f0c2aefd32"}, {"bike_id": "72eb5745cf015284de83da54e240c3cc", "type": "electric_scooter", "is_disabled": 0, "lat": 38.90963966666666, "rental_uris": {"ios": "https://dc.lft.to/lastmile_qr_scan", "android": "https://dc.lft.to/lastmile_qr_scan"}, "is_reserved": 0, "fusion_lon": 0.0, "fusion_lat": 0.0, "lon": -77.04521166666666, "name": "72eb5745cf015284de83da54e240c3cc"}, {"bike_id": "50cb7dfae083d882c0cc13f3f643f558", "type": "electric_scooter", "is_disabled": 0, "lat": 38.921160666666665, "rental_uris": {"ios": "https://dc.lft.to/lastmile_qr_scan", "android": "https://dc.lft.to/lastmile_qr_scan"}, "is_reserved": 0, "fusion_lon": 0.0, "fusion_lat": 0.0, "lon": -77.04220366666667, "name": "50cb7dfae083d882c0cc13f3f643f558"}, {"bike_id": "7eba8696d34e4cdb145096287969d4cc", "type": "electric_scooter", "is_disabled": 0, "lat": 38.92218866666666, "rental_uris": {"ios": "https://dc.lft.to/lastmile_qr_scan", "android": "https://dc.lft.to/lastmile_qr_scan"}, "is_reserved": 0, "fusion_lon": 0.0, "fusion_lat": 0.0, "lon": -77.026723, "name": "7eba8696d34e4cdb145096287969d4cc"}, {"bike_id": "77c429dee6e9eac5c7259d16191cb81c", "type": "electric_scooter", "is_disabled": 0, "lat": 38.91422216666667, "rental_uris": {"ios": "https://dc.lft.to/lastmile_qr_scan", "android": "https://dc.lft.to/lastmile_qr_scan"}, "is_reserved": 0, "fusion_lon": 0.0, "fusion_lat": 0.0, "lon": -77.032749, "name": "77c429dee6e9eac5c7259d16191cb81c"}, {"bike_id": "b35adf2b1eeaba655004af071971e7b3", "type": "electric_scooter", "is_disabled": 0, "lat": 38.90821183333333, "rental_uris": {"ios": "https://dc.lft.to/lastmile_qr_scan", "android": "https://dc.lft.to/lastmile_qr_scan"}, "is_reserved": 0, "fusion_lon": 0.0, "fusion_lat": 0.0, "lon": -77.04355483333333, "name": "b35adf2b1eeaba655004af071971e7b3"}, {"bike_id": "76b7b463d5f131fa176ec773384848a7", "type": "electric_scooter", "is_disabled": 0, "lat": 38.92363666666667, "rental_uris": {"ios": "https://dc.lft.to/lastmile_qr_scan", "android": "https://dc.lft.to/lastmile_qr_scan"}, "is_reserved": 0, "fusion_lon": 0.0, "fusion_lat": 0.0, "lon": -77.05136716666667, "name": "76b7b463d5f131fa176ec773384848a7"}, {"bike_id": "b931b20815d9d459cca8c73f2ab192e7", "type": "electric_scooter", "is_disabled": 0, "lat": 38.9188055, "rental_uris": {"ios": "https://dc.lft.to/lastmile_qr_scan", "android": "https://dc.lft.to/lastmile_qr_scan"}, "is_reserved": 0, "fusion_lon": 0.0, "fusion_lat": 0.0, "lon": -77.03482383333333, "name": "b931b20815d9d459cca8c73f2ab192e7"}, {"bike_id": "5a00f08d3db02791097dc5768ff6a0e3", "type": "electric_scooter", "is_disabled": 0, "lat": 38.88431383333333, "rental_uris": {"ios": "https://dc.lft.to/lastmile_qr_scan", "android": "https://dc.lft.to/lastmile_qr_scan"}, "is_reserved": 0, "fusion_lon": 0.0, "fusion_lat": 0.0, "lon": -76.9575435, "name": "5a00f08d3db02791097dc5768ff6a0e3"}, {"bike_id": "67f4ac5469c1ac4ffec7a418243ebe48", "type": "electric_scooter", "is_disabled": 0, "lat": 38.9247925, "rental_uris": {"ios": "https://dc.lft.to/lastmile_qr_scan", "android": "https://dc.lft.to/lastmile_qr_scan"}, "is_reserved": 0, "fusion_lon": 0.0, "fusion_lat": 0.0, "lon": -77.05224066666666, "name": "67f4ac5469c1ac4ffec7a418243ebe48"}, {"bike_id": "1ede3087bb4efe5cb18cb6ec5521ecf4", "type": "electric_scooter", "is_disabled": 0, "lat": 38.935309, "rental_uris": {"ios": "https://dc.lft.to/lastmile_qr_scan", "android": "https://dc.lft.to/lastmile_qr_scan"}, "is_reserved": 0, "fusion_lon": 0.0, "fusion_lat": 0.0, "lon": -77.02346183333333, "name": "1ede3087bb4efe5cb18cb6ec5521ecf4"}, {"bike_id": "799f148cc25f76ad019b2bd73890f754", "type": "electric_scooter", "is_disabled": 0, "lat": 38.92855766666667, "rental_uris": {"ios": "https://dc.lft.to/lastmile_qr_scan", "android": "https://dc.lft.to/lastmile_qr_scan"}, "is_reserved": 0, "fusion_lon": 0.0, "fusion_lat": 0.0, "lon": -77.0544275, "name": "799f148cc25f76ad019b2bd73890f754"}, {"bike_id": "eff264140b80cd47ce9935d9dd441d4c", "type": "electric_scooter", "is_disabled": 0, "lat": 38.91658, "rental_uris": {"ios": "https://dc.lft.to/lastmile_qr_scan", "android": "https://dc.lft.to/lastmile_qr_scan"}, "is_reserved": 0, "fusion_lon": 0.0, "fusion_lat": 0.0, "lon": -77.02696916666666, "name": "eff264140b80cd47ce9935d9dd441d4c"}, {"bike_id": "2c1a832a59fb8d695811ddb31599b470", "type": "electric_scooter", "is_disabled": 0, "lat": 38.90714916666667, "rental_uris": {"ios": "https://dc.lft.to/lastmile_qr_scan", "android": "https://dc.lft.to/lastmile_qr_scan"}, "is_reserved": 0, "fusion_lon": 0.0, "fusion_lat": 0.0, "lon": -77.014691, "name": "2c1a832a59fb8d695811ddb31599b470"}, {"bike_id": "c369b4cd33095e6bfd28a5f1c7598b89", "type": "electric_scooter", "is_disabled": 0, "lat": 38.920763666666666, "rental_uris": {"ios": "https://dc.lft.to/lastmile_qr_scan", "android": "https://dc.lft.to/lastmile_qr_scan"}, "is_reserved": 0, "fusion_lon": 0.0, "fusion_lat": 0.0, "lon": -77.02309616666666, "name": "c369b4cd33095e6bfd28a5f1c7598b89"}, {"bike_id": "152e5c4802c2673512e0b6ec517d5348", "type": "electric_scooter", "is_disabled": 0, "lat": 38.92662766666667, "rental_uris": {"ios": "https://dc.lft.to/lastmile_qr_scan", "android": "https://dc.lft.to/lastmile_qr_scan"}, "is_reserved": 0, "fusion_lon": 0.0, "fusion_lat": 0.0, "lon": -77.014698, "name": "152e5c4802c2673512e0b6ec517d5348"}, {"bike_id": "771636058b7fbf55f8e72857a3175424", "type": "electric_scooter", "is_disabled": 0, "lat": 38.914706, "rental_uris": {"ios": "https://dc.lft.to/lastmile_qr_scan", "android": "https://dc.lft.to/lastmile_qr_scan"}, "is_reserved": 0, "fusion_lon": 0.0, "fusion_lat": 0.0, "lon": -77.0320415, "name": "771636058b7fbf55f8e72857a3175424"}, {"bike_id": "209e24c3681de68925476d79836baec7", "type": "electric_scooter", "is_disabled": 0, "lat": 38.9031585, "rental_uris": {"ios": "https://dc.lft.to/lastmile_qr_scan", "android": "https://dc.lft.to/lastmile_qr_scan"}, "is_reserved": 0, "fusion_lon": 0.0, "fusion_lat": 0.0, "lon": -77.02892533333333, "name": "209e24c3681de68925476d79836baec7"}, {"bike_id": "81e41d1c7d67903055aaf4284c115c6f", "type": "electric_scooter", "is_disabled": 0, "lat": 38.91872083333333, "rental_uris": {"ios": "https://dc.lft.to/lastmile_qr_scan", "android": "https://dc.lft.to/lastmile_qr_scan"}, "is_reserved": 0, "fusion_lon": 0.0, "fusion_lat": 0.0, "lon": -77.04196866666666, "name": "81e41d1c7d67903055aaf4284c115c6f"}, {"bike_id": "725c004252665db9d41d37b650417204", "type": "electric_scooter", "is_disabled": 0, "lat": 38.90528616666667, "rental_uris": {"ios": "https://dc.lft.to/lastmile_qr_scan", "android": "https://dc.lft.to/lastmile_qr_scan"}, "is_reserved": 0, "fusion_lon": 0.0, "fusion_lat": 0.0, "lon": -77.05680233333334, "name": "725c004252665db9d41d37b650417204"}, {"bike_id": "55a2b24fcc18f55423a997fece0b0b7b", "type": "electric_scooter", "is_disabled": 0, "lat": 38.929707, "rental_uris": {"ios": "https://dc.lft.to/lastmile_qr_scan", "android": "https://dc.lft.to/lastmile_qr_scan"}, "is_reserved": 0, "fusion_lon": 0.0, "fusion_lat": 0.0, "lon": -77.03255983333334, "name": "55a2b24fcc18f55423a997fece0b0b7b"}, {"bike_id": "00a804efba55aed5e2ad9b580bc4f385", "type": "electric_scooter", "is_disabled": 0, "lat": 38.942107, "rental_uris": {"ios": "https://dc.lft.to/lastmile_qr_scan", "android": "https://dc.lft.to/lastmile_qr_scan"}, "is_reserved": 0, "fusion_lon": 0.0, "fusion_lat": 0.0, "lon": -77.025848, "name": "00a804efba55aed5e2ad9b580bc4f385"}, {"bike_id": "8f0cfad9e98da628383393ca3df9b289", "type": "electric_scooter", "is_disabled": 0, "lat": 38.91166583333333, "rental_uris": {"ios": "https://dc.lft.to/lastmile_qr_scan", "android": "https://dc.lft.to/lastmile_qr_scan"}, "is_reserved": 0, "fusion_lon": 0.0, "fusion_lat": 0.0, "lon": -77.03182083333333, "name": "8f0cfad9e98da628383393ca3df9b289"}, {"bike_id": "a854cd7cebbcd930ff1c33bb9b149c25", "type": "electric_scooter", "is_disabled": 0, "lat": 38.92481633333333, "rental_uris": {"ios": "https://dc.lft.to/lastmile_qr_scan", "android": "https://dc.lft.to/lastmile_qr_scan"}, "is_reserved": 0, "fusion_lon": 0.0, "fusion_lat": 0.0, "lon": -77.02721666666666, "name": "a854cd7cebbcd930ff1c33bb9b149c25"}, {"bike_id": "c604bc63dbfe64e7a0ca945d6364b360", "type": "electric_scooter", "is_disabled": 0, "lat": 38.90710033333333, "rental_uris": {"ios": "https://dc.lft.to/lastmile_qr_scan", "android": "https://dc.lft.to/lastmile_qr_scan"}, "is_reserved": 0, "fusion_lon": 0.0, "fusion_lat": 0.0, "lon": -77.04515583333334, "name": "c604bc63dbfe64e7a0ca945d6364b360"}, {"bike_id": "a97658378d06e4a2d2745ad769ed5030", "type": "electric_scooter", "is_disabled": 0, "lat": 38.916989666666666, "rental_uris": {"ios": "https://dc.lft.to/lastmile_qr_scan", "android": "https://dc.lft.to/lastmile_qr_scan"}, "is_reserved": 0, "fusion_lon": 0.0, "fusion_lat": 0.0, "lon": -77.02386616666666, "name": "a97658378d06e4a2d2745ad769ed5030"}, {"bike_id": "c140cbcb2c7a714751cda702d49c9f1d", "type": "electric_scooter", "is_disabled": 0, "lat": 38.916285, "rental_uris": {"ios": "https://dc.lft.to/lastmile_qr_scan", "android": "https://dc.lft.to/lastmile_qr_scan"}, "is_reserved": 0, "fusion_lon": 0.0, "fusion_lat": 0.0, "lon": -77.02278716666666, "name": "c140cbcb2c7a714751cda702d49c9f1d"}, {"bike_id": "cee7abe7bd2edfaf09ef18e88582e038", "type": "electric_scooter", "is_disabled": 0, "lat": 38.924874, "rental_uris": {"ios": "https://dc.lft.to/lastmile_qr_scan", "android": "https://dc.lft.to/lastmile_qr_scan"}, "is_reserved": 0, "fusion_lon": 0.0, "fusion_lat": 0.0, "lon": -77.05746566666667, "name": "cee7abe7bd2edfaf09ef18e88582e038"}, {"bike_id": "193d7f5f743f08a33a6bed86036dc03c", "type": "electric_scooter", "is_disabled": 0, "lat": 38.912687166666664, "rental_uris": {"ios": "https://dc.lft.to/lastmile_qr_scan", "android": "https://dc.lft.to/lastmile_qr_scan"}, "is_reserved": 0, "fusion_lon": 0.0, "fusion_lat": 0.0, "lon": -77.01455216666666, "name": "193d7f5f743f08a33a6bed86036dc03c"}, {"bike_id": "25a27f788a95726304631618baf55ed8", "type": "electric_scooter", "is_disabled": 0, "lat": 38.936383666666664, "rental_uris": {"ios": "https://dc.lft.to/lastmile_qr_scan", "android": "https://dc.lft.to/lastmile_qr_scan"}, "is_reserved": 0, "fusion_lon": 0.0, "fusion_lat": 0.0, "lon": -77.058858, "name": "25a27f788a95726304631618baf55ed8"}, {"bike_id": "4635c91891a84e8cad799d8636a64f75", "type": "electric_scooter", "is_disabled": 0, "lat": 38.898388, "rental_uris": {"ios": "https://dc.lft.to/lastmile_qr_scan", "android": "https://dc.lft.to/lastmile_qr_scan"}, "is_reserved": 0, "fusion_lon": 0.0, "fusion_lat": 0.0, "lon": -76.94633816666666, "name": "4635c91891a84e8cad799d8636a64f75"}, {"bike_id": "71f554b5f21fe5e405c33d720effd87b", "type": "electric_scooter", "is_disabled": 0, "lat": 38.90155166666667, "rental_uris": {"ios": "https://dc.lft.to/lastmile_qr_scan", "android": "https://dc.lft.to/lastmile_qr_scan"}, "is_reserved": 0, "fusion_lon": 0.0, "fusion_lat": 0.0, "lon": -77.02501333333333, "name": "71f554b5f21fe5e405c33d720effd87b"}, {"bike_id": "200af3c620ce2b1d9a2ebe82834de310", "type": "electric_scooter", "is_disabled": 0, "lat": 38.924581833333335, "rental_uris": {"ios": "https://dc.lft.to/lastmile_qr_scan", "android": "https://dc.lft.to/lastmile_qr_scan"}, "is_reserved": 0, "fusion_lon": 0.0, "fusion_lat": 0.0, "lon": -77.03338216666667, "name": "200af3c620ce2b1d9a2ebe82834de310"}, {"bike_id": "e5371ef0e55a3a836cdf3205da825036", "type": "electric_scooter", "is_disabled": 0, "lat": 38.897220833333336, "rental_uris": {"ios": "https://dc.lft.to/lastmile_qr_scan", "android": "https://dc.lft.to/lastmile_qr_scan"}, "is_reserved": 0, "fusion_lon": 0.0, "fusion_lat": 0.0, "lon": -77.04588033333333, "name": "e5371ef0e55a3a836cdf3205da825036"}, {"bike_id": "363dd374dc4ed821169a2e704049d18d", "type": "electric_scooter", "is_disabled": 0, "lat": 38.88677783333333, "rental_uris": {"ios": "https://dc.lft.to/lastmile_qr_scan", "android": "https://dc.lft.to/lastmile_qr_scan"}, "is_reserved": 0, "fusion_lon": 0.0, "fusion_lat": 0.0, "lon": -76.99142166666667, "name": "363dd374dc4ed821169a2e704049d18d"}, {"bike_id": "98ebc8edffd4fd843828efee6d14a2f7", "type": "electric_bike", "is_disabled": 0, "lat": 38.79607, "rental_uris": {"ios": "https://dc.lft.to/lastmile_qr_scan", "android": "https://dc.lft.to/lastmile_qr_scan"}, "is_reserved": 0, "fusion_lon": 0.0, "fusion_lat": 0.0, "lon": -76.99744233333334, "name": "98ebc8edffd4fd843828efee6d14a2f7"}, {"bike_id": "c606e44a2ea03bc276a822ce2472eb86", "type": "electric_scooter", "is_disabled": 0, "lat": 38.865503833333335, "rental_uris": {"ios": "https://dc.lft.to/lastmile_qr_scan", "android": "https://dc.lft.to/lastmile_qr_scan"}, "is_reserved": 0, "fusion_lon": 0.0, "fusion_lat": 0.0, "lon": -76.9703435, "name": "c606e44a2ea03bc276a822ce2472eb86"}, {"bike_id": "7735310f257263cdd654910a13d56192", "type": "electric_scooter", "is_disabled": 0, "lat": 38.89236266666666, "rental_uris": {"ios": "https://dc.lft.to/lastmile_qr_scan", "android": "https://dc.lft.to/lastmile_qr_scan"}, "is_reserved": 0, "fusion_lon": 0.0, "fusion_lat": 0.0, "lon": -77.029237, "name": "7735310f257263cdd654910a13d56192"}, {"bike_id": "81ebbcc1cd2334a2ee8814a493b08562", "type": "electric_scooter", "is_disabled": 0, "lat": 38.908506333333335, "rental_uris": {"ios": "https://dc.lft.to/lastmile_qr_scan", "android": "https://dc.lft.to/lastmile_qr_scan"}, "is_reserved": 0, "fusion_lon": 0.0, "fusion_lat": 0.0, "lon": -77.00158733333333, "name": "81ebbcc1cd2334a2ee8814a493b08562"}, {"bike_id": "7618141a6fe56ebb65c95b8f4ecc8413", "type": "electric_scooter", "is_disabled": 0, "lat": 38.9053175, "rental_uris": {"ios": "https://dc.lft.to/lastmile_qr_scan", "android": "https://dc.lft.to/lastmile_qr_scan"}, "is_reserved": 0, "fusion_lon": 0.0, "fusion_lat": 0.0, "lon": -77.05676616666666, "name": "7618141a6fe56ebb65c95b8f4ecc8413"}, {"bike_id": "380799bdb66b20ab1fa696cde70cdf79", "type": "electric_scooter", "is_disabled": 0, "lat": 38.918621, "rental_uris": {"ios": "https://dc.lft.to/lastmile_qr_scan", "android": "https://dc.lft.to/lastmile_qr_scan"}, "is_reserved": 0, "fusion_lon": 0.0, "fusion_lat": 0.0, "lon": -77.04445383333334, "name": "380799bdb66b20ab1fa696cde70cdf79"}, {"bike_id": "600fb20a6646194b2eebef6c2b6ca352", "type": "electric_scooter", "is_disabled": 0, "lat": 38.928610666666664, "rental_uris": {"ios": "https://dc.lft.to/lastmile_qr_scan", "android": "https://dc.lft.to/lastmile_qr_scan"}, "is_reserved": 0, "fusion_lon": 0.0, "fusion_lat": 0.0, "lon": -77.03436516666666, "name": "600fb20a6646194b2eebef6c2b6ca352"}, {"bike_id": "c85c657a37c27d6c51dd8255fc6acb72", "type": "electric_scooter", "is_disabled": 0, "lat": 38.91404166666667, "rental_uris": {"ios": "https://dc.lft.to/lastmile_qr_scan", "android": "https://dc.lft.to/lastmile_qr_scan"}, "is_reserved": 0, "fusion_lon": 0.0, "fusion_lat": 0.0, "lon": -77.03596516666667, "name": "c85c657a37c27d6c51dd8255fc6acb72"}, {"bike_id": "d2e248ea3c51c368591560e4403355db", "type": "electric_scooter", "is_disabled": 0, "lat": 38.905097833333336, "rental_uris": {"ios": "https://dc.lft.to/lastmile_qr_scan", "android": "https://dc.lft.to/lastmile_qr_scan"}, "is_reserved": 0, "fusion_lon": 0.0, "fusion_lat": 0.0, "lon": -77.06230033333334, "name": "d2e248ea3c51c368591560e4403355db"}, {"bike_id": "7ca46a14905de323e4389e4fa4ec33d4", "type": "electric_scooter", "is_disabled": 0, "lat": 38.90071016666667, "rental_uris": {"ios": "https://dc.lft.to/lastmile_qr_scan", "android": "https://dc.lft.to/lastmile_qr_scan"}, "is_reserved": 0, "fusion_lon": 0.0, "fusion_lat": 0.0, "lon": -77.0502365, "name": "7ca46a14905de323e4389e4fa4ec33d4"}, {"bike_id": "23bc19f6d1a87e6962d3f4d963d63ca3", "type": "electric_scooter", "is_disabled": 0, "lat": 38.92964966666667, "rental_uris": {"ios": "https://dc.lft.to/lastmile_qr_scan", "android": "https://dc.lft.to/lastmile_qr_scan"}, "is_reserved": 0, "fusion_lon": 0.0, "fusion_lat": 0.0, "lon": -77.03251066666667, "name": "23bc19f6d1a87e6962d3f4d963d63ca3"}, {"bike_id": "19eb85ed440ba746bb15041156eb89de", "type": "electric_scooter", "is_disabled": 0, "lat": 38.926635833333336, "rental_uris": {"ios": "https://dc.lft.to/lastmile_qr_scan", "android": "https://dc.lft.to/lastmile_qr_scan"}, "is_reserved": 0, "fusion_lon": 0.0, "fusion_lat": 0.0, "lon": -77.014662, "name": "19eb85ed440ba746bb15041156eb89de"}, {"bike_id": "60a7127a86126a8c0e843a9e76d1727f", "type": "electric_bike", "is_disabled": 0, "lat": 38.857682, "rental_uris": {"ios": "https://dc.lft.to/lastmile_qr_scan", "android": "https://dc.lft.to/lastmile_qr_scan"}, "is_reserved": 0, "fusion_lon": 0.0, "fusion_lat": 0.0, "lon": -76.98743216666666, "name": "60a7127a86126a8c0e843a9e76d1727f"}, {"bike_id": "b60e73493350f988cc203097a7b3e7f6", "type": "electric_scooter", "is_disabled": 0, "lat": 38.9005345, "rental_uris": {"ios": "https://dc.lft.to/lastmile_qr_scan", "android": "https://dc.lft.to/lastmile_qr_scan"}, "is_reserved": 0, "fusion_lon": 0.0, "fusion_lat": 0.0, "lon": -77.03658033333333, "name": "b60e73493350f988cc203097a7b3e7f6"}, {"bike_id": "25d5d2f46d76e278937972b5c7c84462", "type": "electric_scooter", "is_disabled": 0, "lat": 38.93362366666667, "rental_uris": {"ios": "https://dc.lft.to/lastmile_qr_scan", "android": "https://dc.lft.to/lastmile_qr_scan"}, "is_reserved": 0, "fusion_lon": 0.0, "fusion_lat": 0.0, "lon": -77.073128, "name": "25d5d2f46d76e278937972b5c7c84462"}, {"bike_id": "a35a5ae9b65994e7b3adad0a8c81505a", "type": "electric_scooter", "is_disabled": 0, "lat": 38.84312383333334, "rental_uris": {"ios": "https://dc.lft.to/lastmile_qr_scan", "android": "https://dc.lft.to/lastmile_qr_scan"}, "is_reserved": 0, "fusion_lon": 0.0, "fusion_lat": 0.0, "lon": -76.9993185, "name": "a35a5ae9b65994e7b3adad0a8c81505a"}, {"bike_id": "251fc695ac92801fcc0c4c98a1d6a683", "type": "electric_scooter", "is_disabled": 0, "lat": 38.920213333333336, "rental_uris": {"ios": "https://dc.lft.to/lastmile_qr_scan", "android": "https://dc.lft.to/lastmile_qr_scan"}, "is_reserved": 0, "fusion_lon": 0.0, "fusion_lat": 0.0, "lon": -77.0314385, "name": "251fc695ac92801fcc0c4c98a1d6a683"}, {"bike_id": "7265e7fff1cf2a478cb64cfb1dd7210d", "type": "electric_scooter", "is_disabled": 0, "lat": 38.928267166666664, "rental_uris": {"ios": "https://dc.lft.to/lastmile_qr_scan", "android": "https://dc.lft.to/lastmile_qr_scan"}, "is_reserved": 0, "fusion_lon": 0.0, "fusion_lat": 0.0, "lon": -77.02250016666666, "name": "7265e7fff1cf2a478cb64cfb1dd7210d"}, {"bike_id": "fc7725c5d3725aa94d7b032709da988e", "type": "electric_scooter", "is_disabled": 0, "lat": 38.923421833333336, "rental_uris": {"ios": "https://dc.lft.to/lastmile_qr_scan", "android": "https://dc.lft.to/lastmile_qr_scan"}, "is_reserved": 0, "fusion_lon": 0.0, "fusion_lat": 0.0, "lon": -77.050974, "name": "fc7725c5d3725aa94d7b032709da988e"}, {"bike_id": "d05279a946f989e688d2fcd7320fa89f", "type": "electric_scooter", "is_disabled": 0, "lat": 38.90192066666667, "rental_uris": {"ios": "https://dc.lft.to/lastmile_qr_scan", "android": "https://dc.lft.to/lastmile_qr_scan"}, "is_reserved": 0, "fusion_lon": 0.0, "fusion_lat": 0.0, "lon": -77.03388266666667, "name": "d05279a946f989e688d2fcd7320fa89f"}, {"bike_id": "e8fc755402f9b84f0841978efa93c2e9", "type": "electric_scooter", "is_disabled": 0, "lat": 38.90056916666666, "rental_uris": {"ios": "https://dc.lft.to/lastmile_qr_scan", "android": "https://dc.lft.to/lastmile_qr_scan"}, "is_reserved": 0, "fusion_lon": 0.0, "fusion_lat": 0.0, "lon": -77.01376933333333, "name": "e8fc755402f9b84f0841978efa93c2e9"}, {"bike_id": "4c83779c4447ba32a9ed3254a20a6458", "type": "electric_scooter", "is_disabled": 0, "lat": 38.897354, "rental_uris": {"ios": "https://dc.lft.to/lastmile_qr_scan", "android": "https://dc.lft.to/lastmile_qr_scan"}, "is_reserved": 0, "fusion_lon": 0.0, "fusion_lat": 0.0, "lon": -76.94720516666666, "name": "4c83779c4447ba32a9ed3254a20a6458"}, {"bike_id": "45919e919857b5e46bf26b5bb559388f", "type": "electric_scooter", "is_disabled": 0, "lat": 38.91967833333333, "rental_uris": {"ios": "https://dc.lft.to/lastmile_qr_scan", "android": "https://dc.lft.to/lastmile_qr_scan"}, "is_reserved": 0, "fusion_lon": 0.0, "fusion_lat": 0.0, "lon": -77.0395105, "name": "45919e919857b5e46bf26b5bb559388f"}, {"bike_id": "0fd9c876a3dd71adf41df48b929aaa4b", "type": "electric_scooter", "is_disabled": 0, "lat": 38.916988, "rental_uris": {"ios": "https://dc.lft.to/lastmile_qr_scan", "android": "https://dc.lft.to/lastmile_qr_scan"}, "is_reserved": 0, "fusion_lon": 0.0, "fusion_lat": 0.0, "lon": -77.035365, "name": "0fd9c876a3dd71adf41df48b929aaa4b"}, {"bike_id": "e8b6cee49743e2568e59acecc6246321", "type": "electric_scooter", "is_disabled": 0, "lat": 38.90191166666666, "rental_uris": {"ios": "https://dc.lft.to/lastmile_qr_scan", "android": "https://dc.lft.to/lastmile_qr_scan"}, "is_reserved": 0, "fusion_lon": 0.0, "fusion_lat": 0.0, "lon": -76.98845616666667, "name": "e8b6cee49743e2568e59acecc6246321"}, {"bike_id": "b5cacc612e31c073fc42c7ec3b949b6e", "type": "electric_scooter", "is_disabled": 0, "lat": 38.89398283333333, "rental_uris": {"ios": "https://dc.lft.to/lastmile_qr_scan", "android": "https://dc.lft.to/lastmile_qr_scan"}, "is_reserved": 0, "fusion_lon": 0.0, "fusion_lat": 0.0, "lon": -77.03211283333333, "name": "b5cacc612e31c073fc42c7ec3b949b6e"}, {"bike_id": "06894e949b73983442d03bf2d1669f0e", "type": "electric_scooter", "is_disabled": 0, "lat": 38.8757795, "rental_uris": {"ios": "https://dc.lft.to/lastmile_qr_scan", "android": "https://dc.lft.to/lastmile_qr_scan"}, "is_reserved": 0, "fusion_lon": 0.0, "fusion_lat": 0.0, "lon": -77.01274516666666, "name": "06894e949b73983442d03bf2d1669f0e"}, {"bike_id": "98aa430bcf74e419f3a3a8d8f0945c3a", "type": "electric_bike", "is_disabled": 0, "lat": 38.8980825, "rental_uris": {"ios": "https://dc.lft.to/lastmile_qr_scan", "android": "https://dc.lft.to/lastmile_qr_scan"}, "is_reserved": 0, "fusion_lon": 0.0, "fusion_lat": 0.0, "lon": -76.990737, "name": "98aa430bcf74e419f3a3a8d8f0945c3a"}, {"bike_id": "e7357d777513df22e0e918f4bf1d5719", "type": "electric_scooter", "is_disabled": 0, "lat": 38.914939833333335, "rental_uris": {"ios": "https://dc.lft.to/lastmile_qr_scan", "android": "https://dc.lft.to/lastmile_qr_scan"}, "is_reserved": 0, "fusion_lon": 0.0, "fusion_lat": 0.0, "lon": -77.03209683333333, "name": "e7357d777513df22e0e918f4bf1d5719"}, {"bike_id": "bdaf3a4f909b300bff8d157e8a390ce3", "type": "electric_scooter", "is_disabled": 0, "lat": 38.9058475, "rental_uris": {"ios": "https://dc.lft.to/lastmile_qr_scan", "android": "https://dc.lft.to/lastmile_qr_scan"}, "is_reserved": 0, "fusion_lon": 0.0, "fusion_lat": 0.0, "lon": -77.06802166666667, "name": "bdaf3a4f909b300bff8d157e8a390ce3"}, {"bike_id": "a35d14bd372c4cefe62725ac6b4cc220", "type": "electric_scooter", "is_disabled": 0, "lat": 38.922742, "rental_uris": {"ios": "https://dc.lft.to/lastmile_qr_scan", "android": "https://dc.lft.to/lastmile_qr_scan"}, "is_reserved": 0, "fusion_lon": 0.0, "fusion_lat": 0.0, "lon": -77.04223383333333, "name": "a35d14bd372c4cefe62725ac6b4cc220"}, {"bike_id": "ee2aa4ca8d7661d6883fb409dea030bf", "type": "electric_bike", "is_disabled": 0, "lat": 38.8593505, "rental_uris": {"ios": "https://dc.lft.to/lastmile_qr_scan", "android": "https://dc.lft.to/lastmile_qr_scan"}, "is_reserved": 0, "fusion_lon": 0.0, "fusion_lat": 0.0, "lon": -77.11828966666667, "name": "ee2aa4ca8d7661d6883fb409dea030bf"}, {"bike_id": "65db8e052ef5c790bf5cb070e9587c41", "type": "electric_bike", "is_disabled": 0, "lat": 38.82366566666666, "rental_uris": {"ios": "https://dc.lft.to/lastmile_qr_scan", "android": "https://dc.lft.to/lastmile_qr_scan"}, "is_reserved": 0, "fusion_lon": 0.0, "fusion_lat": 0.0, "lon": -77.00217533333333, "name": "65db8e052ef5c790bf5cb070e9587c41"}, {"bike_id": "04bf04b832e20001b57c055b242fdb34", "type": "electric_scooter", "is_disabled": 0, "lat": 38.923444333333336, "rental_uris": {"ios": "https://dc.lft.to/lastmile_qr_scan", "android": "https://dc.lft.to/lastmile_qr_scan"}, "is_reserved": 0, "fusion_lon": 0.0, "fusion_lat": 0.0, "lon": -77.050948, "name": "04bf04b832e20001b57c055b242fdb34"}, {"bike_id": "daf1b83dba5eb004fedd09f8b575fe5f", "type": "electric_scooter", "is_disabled": 0, "lat": 38.913269166666666, "rental_uris": {"ios": "https://dc.lft.to/lastmile_qr_scan", "android": "https://dc.lft.to/lastmile_qr_scan"}, "is_reserved": 0, "fusion_lon": 0.0, "fusion_lat": 0.0, "lon": -77.01968566666666, "name": "daf1b83dba5eb004fedd09f8b575fe5f"}, {"bike_id": "0488504b10e76d5d46b4a73c40c5343e", "type": "electric_scooter", "is_disabled": 0, "lat": 38.87625533333333, "rental_uris": {"ios": "https://dc.lft.to/lastmile_qr_scan", "android": "https://dc.lft.to/lastmile_qr_scan"}, "is_reserved": 0, "fusion_lon": 0.0, "fusion_lat": 0.0, "lon": -76.965229, "name": "0488504b10e76d5d46b4a73c40c5343e"}, {"bike_id": "323197d85b323a5c750369448411efd2", "type": "electric_scooter", "is_disabled": 0, "lat": 38.89805116666667, "rental_uris": {"ios": "https://dc.lft.to/lastmile_qr_scan", "android": "https://dc.lft.to/lastmile_qr_scan"}, "is_reserved": 0, "fusion_lon": 0.0, "fusion_lat": 0.0, "lon": -77.0294185, "name": "323197d85b323a5c750369448411efd2"}, {"bike_id": "a7a830f243c58f7209de5f47934f4863", "type": "electric_scooter", "is_disabled": 0, "lat": 38.931908, "rental_uris": {"ios": "https://dc.lft.to/lastmile_qr_scan", "android": "https://dc.lft.to/lastmile_qr_scan"}, "is_reserved": 0, "fusion_lon": 0.0, "fusion_lat": 0.0, "lon": -77.019627, "name": "a7a830f243c58f7209de5f47934f4863"}, {"bike_id": "87b984f86c02aa92af0d5d93759c0754", "type": "electric_scooter", "is_disabled": 0, "lat": 38.922517, "rental_uris": {"ios": "https://dc.lft.to/lastmile_qr_scan", "android": "https://dc.lft.to/lastmile_qr_scan"}, "is_reserved": 0, "fusion_lon": 0.0, "fusion_lat": 0.0, "lon": -77.03404183333333, "name": "87b984f86c02aa92af0d5d93759c0754"}, {"bike_id": "5e440d53e1d25b8979a0bc6dd49e9826", "type": "electric_scooter", "is_disabled": 0, "lat": 38.941031833333334, "rental_uris": {"ios": "https://dc.lft.to/lastmile_qr_scan", "android": "https://dc.lft.to/lastmile_qr_scan"}, "is_reserved": 0, "fusion_lon": 0.0, "fusion_lat": 0.0, "lon": -77.025357, "name": "5e440d53e1d25b8979a0bc6dd49e9826"}, {"bike_id": "fba1a1a018d63b6ff4d5555ce3f05e43", "type": "electric_scooter", "is_disabled": 0, "lat": 38.91236516666667, "rental_uris": {"ios": "https://dc.lft.to/lastmile_qr_scan", "android": "https://dc.lft.to/lastmile_qr_scan"}, "is_reserved": 0, "fusion_lon": 0.0, "fusion_lat": 0.0, "lon": -77.00106533333333, "name": "fba1a1a018d63b6ff4d5555ce3f05e43"}, {"bike_id": "ebb15abbe7e6c7db0ce20b3025f0c4b7", "type": "electric_scooter", "is_disabled": 0, "lat": 38.91100616666667, "rental_uris": {"ios": "https://dc.lft.to/lastmile_qr_scan", "android": "https://dc.lft.to/lastmile_qr_scan"}, "is_reserved": 0, "fusion_lon": 0.0, "fusion_lat": 0.0, "lon": -77.04972933333333, "name": "ebb15abbe7e6c7db0ce20b3025f0c4b7"}, {"bike_id": "9a48470d14ea68aa82fab0d823d4ad38", "type": "electric_scooter", "is_disabled": 0, "lat": 38.920825, "rental_uris": {"ios": "https://dc.lft.to/lastmile_qr_scan", "android": "https://dc.lft.to/lastmile_qr_scan"}, "is_reserved": 0, "fusion_lon": 0.0, "fusion_lat": 0.0, "lon": -77.0250945, "name": "9a48470d14ea68aa82fab0d823d4ad38"}, {"bike_id": "7cc4d29e0ef731324fabdf9740f4a99b", "type": "electric_scooter", "is_disabled": 0, "lat": 38.870795, "rental_uris": {"ios": "https://dc.lft.to/lastmile_qr_scan", "android": "https://dc.lft.to/lastmile_qr_scan"}, "is_reserved": 0, "fusion_lon": 0.0, "fusion_lat": 0.0, "lon": -77.01205733333333, "name": "7cc4d29e0ef731324fabdf9740f4a99b"}, {"bike_id": "36741b7850ecc166e9be4f3c55a84bf1", "type": "electric_scooter", "is_disabled": 0, "lat": 38.90558166666667, "rental_uris": {"ios": "https://dc.lft.to/lastmile_qr_scan", "android": "https://dc.lft.to/lastmile_qr_scan"}, "is_reserved": 0, "fusion_lon": 0.0, "fusion_lat": 0.0, "lon": -77.04614216666667, "name": "36741b7850ecc166e9be4f3c55a84bf1"}, {"bike_id": "c2489d9d4b1dc9600b27612df6ac2865", "type": "electric_scooter", "is_disabled": 0, "lat": 38.92039066666667, "rental_uris": {"ios": "https://dc.lft.to/lastmile_qr_scan", "android": "https://dc.lft.to/lastmile_qr_scan"}, "is_reserved": 0, "fusion_lon": 0.0, "fusion_lat": 0.0, "lon": -77.03475183333333, "name": "c2489d9d4b1dc9600b27612df6ac2865"}, {"bike_id": "1a71519acb3efd12cfba148bd29cee4b", "type": "electric_scooter", "is_disabled": 0, "lat": 38.884838333333335, "rental_uris": {"ios": "https://dc.lft.to/lastmile_qr_scan", "android": "https://dc.lft.to/lastmile_qr_scan"}, "is_reserved": 0, "fusion_lon": 0.0, "fusion_lat": 0.0, "lon": -77.01506366666666, "name": "1a71519acb3efd12cfba148bd29cee4b"}, {"bike_id": "7abdfb25c0a688b5c0f76cda44eec358", "type": "electric_scooter", "is_disabled": 0, "lat": 38.919834, "rental_uris": {"ios": "https://dc.lft.to/lastmile_qr_scan", "android": "https://dc.lft.to/lastmile_qr_scan"}, "is_reserved": 0, "fusion_lon": 0.0, "fusion_lat": 0.0, "lon": -77.03325383333333, "name": "7abdfb25c0a688b5c0f76cda44eec358"}, {"bike_id": "86f73f57c884b288703a38912e6b3b17", "type": "electric_scooter", "is_disabled": 0, "lat": 38.9268665, "rental_uris": {"ios": "https://dc.lft.to/lastmile_qr_scan", "android": "https://dc.lft.to/lastmile_qr_scan"}, "is_reserved": 0, "fusion_lon": 0.0, "fusion_lat": 0.0, "lon": -77.02159716666667, "name": "86f73f57c884b288703a38912e6b3b17"}, {"bike_id": "409b2663e52338be4ac0ae0da6834c59", "type": "electric_scooter", "is_disabled": 0, "lat": 38.93346533333333, "rental_uris": {"ios": "https://dc.lft.to/lastmile_qr_scan", "android": "https://dc.lft.to/lastmile_qr_scan"}, "is_reserved": 0, "fusion_lon": 0.0, "fusion_lat": 0.0, "lon": -77.02390633333333, "name": "409b2663e52338be4ac0ae0da6834c59"}, {"bike_id": "92fcb14f48f7046b840335d7c23056f9", "type": "electric_scooter", "is_disabled": 0, "lat": 38.9213605, "rental_uris": {"ios": "https://dc.lft.to/lastmile_qr_scan", "android": "https://dc.lft.to/lastmile_qr_scan"}, "is_reserved": 0, "fusion_lon": 0.0, "fusion_lat": 0.0, "lon": -77.01804083333333, "name": "92fcb14f48f7046b840335d7c23056f9"}, {"bike_id": "270c6537696b08943020273a2ff76f58", "type": "electric_scooter", "is_disabled": 0, "lat": 38.956889833333335, "rental_uris": {"ios": "https://dc.lft.to/lastmile_qr_scan", "android": "https://dc.lft.to/lastmile_qr_scan"}, "is_reserved": 0, "fusion_lon": 0.0, "fusion_lat": 0.0, "lon": -77.02406266666667, "name": "270c6537696b08943020273a2ff76f58"}, {"bike_id": "afb3ade9f148f28dfca7297e4bd6375f", "type": "electric_scooter", "is_disabled": 0, "lat": 38.907258166666665, "rental_uris": {"ios": "https://dc.lft.to/lastmile_qr_scan", "android": "https://dc.lft.to/lastmile_qr_scan"}, "is_reserved": 0, "fusion_lon": 0.0, "fusion_lat": 0.0, "lon": -77.053207, "name": "afb3ade9f148f28dfca7297e4bd6375f"}, {"bike_id": "ba6fdb457c151051b614d60ec13be8bb", "type": "electric_scooter", "is_disabled": 0, "lat": 38.932327, "rental_uris": {"ios": "https://dc.lft.to/lastmile_qr_scan", "android": "https://dc.lft.to/lastmile_qr_scan"}, "is_reserved": 0, "fusion_lon": 0.0, "fusion_lat": 0.0, "lon": -77.0358835, "name": "ba6fdb457c151051b614d60ec13be8bb"}, {"bike_id": "c5913e530fa549438f3ba891dee5f22d", "type": "electric_scooter", "is_disabled": 0, "lat": 38.922356, "rental_uris": {"ios": "https://dc.lft.to/lastmile_qr_scan", "android": "https://dc.lft.to/lastmile_qr_scan"}, "is_reserved": 0, "fusion_lon": 0.0, "fusion_lat": 0.0, "lon": -77.03907233333334, "name": "c5913e530fa549438f3ba891dee5f22d"}, {"bike_id": "717b7dd6044ca706329e57f6c937ba77", "type": "electric_scooter", "is_disabled": 0, "lat": 38.941920333333336, "rental_uris": {"ios": "https://dc.lft.to/lastmile_qr_scan", "android": "https://dc.lft.to/lastmile_qr_scan"}, "is_reserved": 0, "fusion_lon": 0.0, "fusion_lat": 0.0, "lon": -77.01740466666666, "name": "717b7dd6044ca706329e57f6c937ba77"}, {"bike_id": "2ca59bbbca6dab27b01952c260ff1107", "type": "electric_scooter", "is_disabled": 0, "lat": 38.924063833333335, "rental_uris": {"ios": "https://dc.lft.to/lastmile_qr_scan", "android": "https://dc.lft.to/lastmile_qr_scan"}, "is_reserved": 0, "fusion_lon": 0.0, "fusion_lat": 0.0, "lon": -76.993953, "name": "2ca59bbbca6dab27b01952c260ff1107"}, {"bike_id": "850f6b82a68881a9336050853833f7fa", "type": "electric_scooter", "is_disabled": 0, "lat": 38.877966666666666, "rental_uris": {"ios": "https://dc.lft.to/lastmile_qr_scan", "android": "https://dc.lft.to/lastmile_qr_scan"}, "is_reserved": 0, "fusion_lon": 0.0, "fusion_lat": 0.0, "lon": -77.01750416666667, "name": "850f6b82a68881a9336050853833f7fa"}, {"bike_id": "f88cc5f88f324ab24846fc93d40c704a", "type": "electric_scooter", "is_disabled": 0, "lat": 38.9001015, "rental_uris": {"ios": "https://dc.lft.to/lastmile_qr_scan", "android": "https://dc.lft.to/lastmile_qr_scan"}, "is_reserved": 0, "fusion_lon": 0.0, "fusion_lat": 0.0, "lon": -77.00199166666667, "name": "f88cc5f88f324ab24846fc93d40c704a"}, {"bike_id": "692c7b77173af357be7e040a227fecc5", "type": "electric_scooter", "is_disabled": 0, "lat": 38.91738683333333, "rental_uris": {"ios": "https://dc.lft.to/lastmile_qr_scan", "android": "https://dc.lft.to/lastmile_qr_scan"}, "is_reserved": 0, "fusion_lon": 0.0, "fusion_lat": 0.0, "lon": -77.02391183333333, "name": "692c7b77173af357be7e040a227fecc5"}, {"bike_id": "e92186bf64f4d6848a946e9c3b76e167", "type": "electric_scooter", "is_disabled": 0, "lat": 38.923599333333335, "rental_uris": {"ios": "https://dc.lft.to/lastmile_qr_scan", "android": "https://dc.lft.to/lastmile_qr_scan"}, "is_reserved": 0, "fusion_lon": 0.0, "fusion_lat": 0.0, "lon": -77.05045383333334, "name": "e92186bf64f4d6848a946e9c3b76e167"}, {"bike_id": "141bcb8e8a3cb2107624bea10f3b7ccd", "type": "electric_bike", "is_disabled": 0, "lat": 38.8729165, "rental_uris": {"ios": "https://dc.lft.to/lastmile_qr_scan", "android": "https://dc.lft.to/lastmile_qr_scan"}, "is_reserved": 0, "fusion_lon": 0.0, "fusion_lat": 0.0, "lon": -77.13928266666667, "name": "141bcb8e8a3cb2107624bea10f3b7ccd"}, {"bike_id": "868af74ce85dfb304b613b47ac4c6ef9", "type": "electric_scooter", "is_disabled": 0, "lat": 38.932751333333336, "rental_uris": {"ios": "https://dc.lft.to/lastmile_qr_scan", "android": "https://dc.lft.to/lastmile_qr_scan"}, "is_reserved": 0, "fusion_lon": 0.0, "fusion_lat": 0.0, "lon": -77.0453865, "name": "868af74ce85dfb304b613b47ac4c6ef9"}, {"bike_id": "d7add610ce0a352a199774985757ee2a", "type": "electric_scooter", "is_disabled": 0, "lat": 38.902438, "rental_uris": {"ios": "https://dc.lft.to/lastmile_qr_scan", "android": "https://dc.lft.to/lastmile_qr_scan"}, "is_reserved": 0, "fusion_lon": 0.0, "fusion_lat": 0.0, "lon": -77.04388666666667, "name": "d7add610ce0a352a199774985757ee2a"}, {"bike_id": "e55721d901bdb50237959f033f6789b4", "type": "electric_scooter", "is_disabled": 0, "lat": 38.916382, "rental_uris": {"ios": "https://dc.lft.to/lastmile_qr_scan", "android": "https://dc.lft.to/lastmile_qr_scan"}, "is_reserved": 0, "fusion_lon": 0.0, "fusion_lat": 0.0, "lon": -77.0258795, "name": "e55721d901bdb50237959f033f6789b4"}, {"bike_id": "04be550f7cb83a0cb66efc00dfa3afe8", "type": "electric_scooter", "is_disabled": 0, "lat": 38.903885833333334, "rental_uris": {"ios": "https://dc.lft.to/lastmile_qr_scan", "android": "https://dc.lft.to/lastmile_qr_scan"}, "is_reserved": 0, "fusion_lon": 0.0, "fusion_lat": 0.0, "lon": -76.98200966666667, "name": "04be550f7cb83a0cb66efc00dfa3afe8"}, {"bike_id": "fe911444c598f8283c512ee59aa254da", "type": "electric_bike", "is_disabled": 0, "lat": 38.83780466666666, "rental_uris": {"ios": "https://dc.lft.to/lastmile_qr_scan", "android": "https://dc.lft.to/lastmile_qr_scan"}, "is_reserved": 0, "fusion_lon": 0.0, "fusion_lat": 0.0, "lon": -77.09348166666666, "name": "fe911444c598f8283c512ee59aa254da"}, {"bike_id": "229ef15036dd5b22167c47433653d342", "type": "electric_scooter", "is_disabled": 0, "lat": 38.900814833333335, "rental_uris": {"ios": "https://dc.lft.to/lastmile_qr_scan", "android": "https://dc.lft.to/lastmile_qr_scan"}, "is_reserved": 0, "fusion_lon": 0.0, "fusion_lat": 0.0, "lon": -77.00909633333333, "name": "229ef15036dd5b22167c47433653d342"}, {"bike_id": "598f0000af9154f764066988fa55289b", "type": "electric_scooter", "is_disabled": 0, "lat": 38.917045, "rental_uris": {"ios": "https://dc.lft.to/lastmile_qr_scan", "android": "https://dc.lft.to/lastmile_qr_scan"}, "is_reserved": 0, "fusion_lon": 0.0, "fusion_lat": 0.0, "lon": -77.02381266666667, "name": "598f0000af9154f764066988fa55289b"}, {"bike_id": "18751f230895823604b2592a2a2ad896", "type": "electric_scooter", "is_disabled": 0, "lat": 38.89228833333333, "rental_uris": {"ios": "https://dc.lft.to/lastmile_qr_scan", "android": "https://dc.lft.to/lastmile_qr_scan"}, "is_reserved": 0, "fusion_lon": 0.0, "fusion_lat": 0.0, "lon": -77.02821783333333, "name": "18751f230895823604b2592a2a2ad896"}, {"bike_id": "68d3feb7ea01e862c2e15727a438eef8", "type": "electric_scooter", "is_disabled": 0, "lat": 38.902930166666664, "rental_uris": {"ios": "https://dc.lft.to/lastmile_qr_scan", "android": "https://dc.lft.to/lastmile_qr_scan"}, "is_reserved": 0, "fusion_lon": 0.0, "fusion_lat": 0.0, "lon": -76.9903875, "name": "68d3feb7ea01e862c2e15727a438eef8"}, {"bike_id": "f1220e8268bac1cffae10841708d4877", "type": "electric_scooter", "is_disabled": 0, "lat": 38.92684083333333, "rental_uris": {"ios": "https://dc.lft.to/lastmile_qr_scan", "android": "https://dc.lft.to/lastmile_qr_scan"}, "is_reserved": 0, "fusion_lon": 0.0, "fusion_lat": 0.0, "lon": -77.0377905, "name": "f1220e8268bac1cffae10841708d4877"}, {"bike_id": "783560276c918230d084027b0574b43f", "type": "electric_scooter", "is_disabled": 0, "lat": 38.927487, "rental_uris": {"ios": "https://dc.lft.to/lastmile_qr_scan", "android": "https://dc.lft.to/lastmile_qr_scan"}, "is_reserved": 0, "fusion_lon": 0.0, "fusion_lat": 0.0, "lon": -77.02538166666666, "name": "783560276c918230d084027b0574b43f"}, {"bike_id": "8edae521025b006612cdd0877a6c1a02", "type": "electric_scooter", "is_disabled": 0, "lat": 38.917057, "rental_uris": {"ios": "https://dc.lft.to/lastmile_qr_scan", "android": "https://dc.lft.to/lastmile_qr_scan"}, "is_reserved": 0, "fusion_lon": 0.0, "fusion_lat": 0.0, "lon": -77.0247445, "name": "8edae521025b006612cdd0877a6c1a02"}, {"bike_id": "4fed3ac2f332dd3120b60330657118ad", "type": "electric_scooter", "is_disabled": 0, "lat": 38.94287966666667, "rental_uris": {"ios": "https://dc.lft.to/lastmile_qr_scan", "android": "https://dc.lft.to/lastmile_qr_scan"}, "is_reserved": 0, "fusion_lon": 0.0, "fusion_lat": 0.0, "lon": -77.0217575, "name": "4fed3ac2f332dd3120b60330657118ad"}, {"bike_id": "8806f222849847dc6338c1ae63f4eb41", "type": "electric_scooter", "is_disabled": 0, "lat": 38.936764833333335, "rental_uris": {"ios": "https://dc.lft.to/lastmile_qr_scan", "android": "https://dc.lft.to/lastmile_qr_scan"}, "is_reserved": 0, "fusion_lon": 0.0, "fusion_lat": 0.0, "lon": -77.0359435, "name": "8806f222849847dc6338c1ae63f4eb41"}, {"bike_id": "4bc1654b764766f43c85417f5b372df8", "type": "electric_bike", "is_disabled": 0, "lat": 38.853502666666664, "rental_uris": {"ios": "https://dc.lft.to/lastmile_qr_scan", "android": "https://dc.lft.to/lastmile_qr_scan"}, "is_reserved": 0, "fusion_lon": 0.0, "fusion_lat": 0.0, "lon": -77.13466783333334, "name": "4bc1654b764766f43c85417f5b372df8"}, {"bike_id": "d8b9fd7c926b02875aef00bafde46539", "type": "electric_scooter", "is_disabled": 0, "lat": 38.92874183333333, "rental_uris": {"ios": "https://dc.lft.to/lastmile_qr_scan", "android": "https://dc.lft.to/lastmile_qr_scan"}, "is_reserved": 0, "fusion_lon": 0.0, "fusion_lat": 0.0, "lon": -77.03281366666667, "name": "d8b9fd7c926b02875aef00bafde46539"}, {"bike_id": "cf54f1c9ab59b667313bc8ec694466d9", "type": "electric_scooter", "is_disabled": 0, "lat": 38.909571166666666, "rental_uris": {"ios": "https://dc.lft.to/lastmile_qr_scan", "android": "https://dc.lft.to/lastmile_qr_scan"}, "is_reserved": 0, "fusion_lon": 0.0, "fusion_lat": 0.0, "lon": -77.03050083333333, "name": "cf54f1c9ab59b667313bc8ec694466d9"}, {"bike_id": "f6ccf68875c3c354b4d9372ff6ff2c87", "type": "electric_scooter", "is_disabled": 0, "lat": 38.91408783333333, "rental_uris": {"ios": "https://dc.lft.to/lastmile_qr_scan", "android": "https://dc.lft.to/lastmile_qr_scan"}, "is_reserved": 0, "fusion_lon": 0.0, "fusion_lat": 0.0, "lon": -77.03030316666667, "name": "f6ccf68875c3c354b4d9372ff6ff2c87"}, {"bike_id": "2d08d85708deb0df81278de5f6100ca3", "type": "electric_scooter", "is_disabled": 0, "lat": 38.9287815, "rental_uris": {"ios": "https://dc.lft.to/lastmile_qr_scan", "android": "https://dc.lft.to/lastmile_qr_scan"}, "is_reserved": 0, "fusion_lon": 0.0, "fusion_lat": 0.0, "lon": -77.01843066666666, "name": "2d08d85708deb0df81278de5f6100ca3"}, {"bike_id": "4e4fae34a204ba3e65310c4e07023af2", "type": "electric_scooter", "is_disabled": 0, "lat": 38.907721333333335, "rental_uris": {"ios": "https://dc.lft.to/lastmile_qr_scan", "android": "https://dc.lft.to/lastmile_qr_scan"}, "is_reserved": 0, "fusion_lon": 0.0, "fusion_lat": 0.0, "lon": -77.06595516666667, "name": "4e4fae34a204ba3e65310c4e07023af2"}, {"bike_id": "ee8e942ee4c32e61976533eddfa580f8", "type": "electric_scooter", "is_disabled": 0, "lat": 38.911884, "rental_uris": {"ios": "https://dc.lft.to/lastmile_qr_scan", "android": "https://dc.lft.to/lastmile_qr_scan"}, "is_reserved": 0, "fusion_lon": 0.0, "fusion_lat": 0.0, "lon": -77.0347485, "name": "ee8e942ee4c32e61976533eddfa580f8"}, {"bike_id": "68ab46a1bea0df84b1b096ce74e7f105", "type": "electric_scooter", "is_disabled": 0, "lat": 38.89593566666667, "rental_uris": {"ios": "https://dc.lft.to/lastmile_qr_scan", "android": "https://dc.lft.to/lastmile_qr_scan"}, "is_reserved": 0, "fusion_lon": 0.0, "fusion_lat": 0.0, "lon": -77.00505566666666, "name": "68ab46a1bea0df84b1b096ce74e7f105"}, {"bike_id": "add2e0870f90ffa6e9e43b7745fe51d4", "type": "electric_scooter", "is_disabled": 0, "lat": 38.91192133333333, "rental_uris": {"ios": "https://dc.lft.to/lastmile_qr_scan", "android": "https://dc.lft.to/lastmile_qr_scan"}, "is_reserved": 0, "fusion_lon": 0.0, "fusion_lat": 0.0, "lon": -77.0022155, "name": "add2e0870f90ffa6e9e43b7745fe51d4"}, {"bike_id": "fffb4c07b9cfbd878ea017f343668828", "type": "electric_scooter", "is_disabled": 0, "lat": 38.91546016666667, "rental_uris": {"ios": "https://dc.lft.to/lastmile_qr_scan", "android": "https://dc.lft.to/lastmile_qr_scan"}, "is_reserved": 0, "fusion_lon": 0.0, "fusion_lat": 0.0, "lon": -77.03847433333334, "name": "fffb4c07b9cfbd878ea017f343668828"}, {"bike_id": "b713ea6121c1ac064d80f096e1e5dfbd", "type": "electric_scooter", "is_disabled": 0, "lat": 38.866281, "rental_uris": {"ios": "https://dc.lft.to/lastmile_qr_scan", "android": "https://dc.lft.to/lastmile_qr_scan"}, "is_reserved": 0, "fusion_lon": 0.0, "fusion_lat": 0.0, "lon": -76.98719083333333, "name": "b713ea6121c1ac064d80f096e1e5dfbd"}, {"bike_id": "4388caabc8a52855492009107448816d", "type": "electric_scooter", "is_disabled": 0, "lat": 38.933563166666666, "rental_uris": {"ios": "https://dc.lft.to/lastmile_qr_scan", "android": "https://dc.lft.to/lastmile_qr_scan"}, "is_reserved": 0, "fusion_lon": 0.0, "fusion_lat": 0.0, "lon": -77.08858966666666, "name": "4388caabc8a52855492009107448816d"}, {"bike_id": "eeb8b9227ba5c8256980240409164f32", "type": "electric_scooter", "is_disabled": 0, "lat": 38.90560083333333, "rental_uris": {"ios": "https://dc.lft.to/lastmile_qr_scan", "android": "https://dc.lft.to/lastmile_qr_scan"}, "is_reserved": 0, "fusion_lon": 0.0, "fusion_lat": 0.0, "lon": -77.01640166666667, "name": "eeb8b9227ba5c8256980240409164f32"}, {"bike_id": "208a8241346e992cfcbf942b1dc05bfa", "type": "electric_scooter", "is_disabled": 0, "lat": 38.93401816666667, "rental_uris": {"ios": "https://dc.lft.to/lastmile_qr_scan", "android": "https://dc.lft.to/lastmile_qr_scan"}, "is_reserved": 0, "fusion_lon": 0.0, "fusion_lat": 0.0, "lon": -77.03879733333333, "name": "208a8241346e992cfcbf942b1dc05bfa"}, {"bike_id": "e2dfec15442119e28dd3888efebbb6fe", "type": "electric_scooter", "is_disabled": 0, "lat": 38.92656083333333, "rental_uris": {"ios": "https://dc.lft.to/lastmile_qr_scan", "android": "https://dc.lft.to/lastmile_qr_scan"}, "is_reserved": 0, "fusion_lon": 0.0, "fusion_lat": 0.0, "lon": -77.03727816666667, "name": "e2dfec15442119e28dd3888efebbb6fe"}, {"bike_id": "07a08efbf43e8c5b4c9e510625e7a639", "type": "electric_scooter", "is_disabled": 0, "lat": 38.90493683333333, "rental_uris": {"ios": "https://dc.lft.to/lastmile_qr_scan", "android": "https://dc.lft.to/lastmile_qr_scan"}, "is_reserved": 0, "fusion_lon": 0.0, "fusion_lat": 0.0, "lon": -77.04151383333334, "name": "07a08efbf43e8c5b4c9e510625e7a639"}, {"bike_id": "ee50e167b1f888bdb528f0cf2da8c9aa", "type": "electric_scooter", "is_disabled": 0, "lat": 38.915608166666665, "rental_uris": {"ios": "https://dc.lft.to/lastmile_qr_scan", "android": "https://dc.lft.to/lastmile_qr_scan"}, "is_reserved": 0, "fusion_lon": 0.0, "fusion_lat": 0.0, "lon": -77.04507, "name": "ee50e167b1f888bdb528f0cf2da8c9aa"}, {"bike_id": "f8a23b1e0e0503fdc6414ec92d561885", "type": "electric_scooter", "is_disabled": 0, "lat": 38.89838616666667, "rental_uris": {"ios": "https://dc.lft.to/lastmile_qr_scan", "android": "https://dc.lft.to/lastmile_qr_scan"}, "is_reserved": 0, "fusion_lon": 0.0, "fusion_lat": 0.0, "lon": -77.02204583333334, "name": "f8a23b1e0e0503fdc6414ec92d561885"}, {"bike_id": "d9269f59ddcfa7aba00a46b5153f8562", "type": "electric_scooter", "is_disabled": 0, "lat": 38.884265166666665, "rental_uris": {"ios": "https://dc.lft.to/lastmile_qr_scan", "android": "https://dc.lft.to/lastmile_qr_scan"}, "is_reserved": 0, "fusion_lon": 0.0, "fusion_lat": 0.0, "lon": -76.95755933333334, "name": "d9269f59ddcfa7aba00a46b5153f8562"}, {"bike_id": "0bfee41d195d6a8c68bc6eb57e7ba266", "type": "electric_scooter", "is_disabled": 0, "lat": 38.91972583333333, "rental_uris": {"ios": "https://dc.lft.to/lastmile_qr_scan", "android": "https://dc.lft.to/lastmile_qr_scan"}, "is_reserved": 0, "fusion_lon": 0.0, "fusion_lat": 0.0, "lon": -77.042192, "name": "0bfee41d195d6a8c68bc6eb57e7ba266"}, {"bike_id": "8bd54b5ffa87e68ac28e0197bf4518eb", "type": "electric_bike", "is_disabled": 0, "lat": 38.8996835, "rental_uris": {"ios": "https://dc.lft.to/lastmile_qr_scan", "android": "https://dc.lft.to/lastmile_qr_scan"}, "is_reserved": 0, "fusion_lon": 0.0, "fusion_lat": 0.0, "lon": -76.986752, "name": "8bd54b5ffa87e68ac28e0197bf4518eb"}, {"bike_id": "6fe0f285b2cf69d6776f8cf218fbe084", "type": "electric_scooter", "is_disabled": 0, "lat": 38.90549683333333, "rental_uris": {"ios": "https://dc.lft.to/lastmile_qr_scan", "android": "https://dc.lft.to/lastmile_qr_scan"}, "is_reserved": 0, "fusion_lon": 0.0, "fusion_lat": 0.0, "lon": -76.996183, "name": "6fe0f285b2cf69d6776f8cf218fbe084"}, {"bike_id": "311775021a8b10cd5ea482d52186f429", "type": "electric_scooter", "is_disabled": 0, "lat": 38.91665966666667, "rental_uris": {"ios": "https://dc.lft.to/lastmile_qr_scan", "android": "https://dc.lft.to/lastmile_qr_scan"}, "is_reserved": 0, "fusion_lon": 0.0, "fusion_lat": 0.0, "lon": -77.02351616666667, "name": "311775021a8b10cd5ea482d52186f429"}, {"bike_id": "c31e26335ade5cc7918c2e74698b3fa7", "type": "electric_scooter", "is_disabled": 0, "lat": 38.904971333333336, "rental_uris": {"ios": "https://dc.lft.to/lastmile_qr_scan", "android": "https://dc.lft.to/lastmile_qr_scan"}, "is_reserved": 0, "fusion_lon": 0.0, "fusion_lat": 0.0, "lon": -77.01988066666667, "name": "c31e26335ade5cc7918c2e74698b3fa7"}, {"bike_id": "4ba73af4c9c9f2fcb3f882b01467fc04", "type": "electric_scooter", "is_disabled": 0, "lat": 38.924809333333336, "rental_uris": {"ios": "https://dc.lft.to/lastmile_qr_scan", "android": "https://dc.lft.to/lastmile_qr_scan"}, "is_reserved": 0, "fusion_lon": 0.0, "fusion_lat": 0.0, "lon": -77.052167, "name": "4ba73af4c9c9f2fcb3f882b01467fc04"}, {"bike_id": "e58b9267b9a7d7c673af2f7bdcfc2273", "type": "electric_scooter", "is_disabled": 0, "lat": 38.89543183333333, "rental_uris": {"ios": "https://dc.lft.to/lastmile_qr_scan", "android": "https://dc.lft.to/lastmile_qr_scan"}, "is_reserved": 0, "fusion_lon": 0.0, "fusion_lat": 0.0, "lon": -77.01092733333333, "name": "e58b9267b9a7d7c673af2f7bdcfc2273"}, {"bike_id": "92ba4fa68f7b668c1ee576772c4f28bc", "type": "electric_bike", "is_disabled": 0, "lat": 38.80409383333333, "rental_uris": {"ios": "https://dc.lft.to/lastmile_qr_scan", "android": "https://dc.lft.to/lastmile_qr_scan"}, "is_reserved": 0, "fusion_lon": 0.0, "fusion_lat": 0.0, "lon": -77.05554216666667, "name": "92ba4fa68f7b668c1ee576772c4f28bc"}, {"bike_id": "09b2e066c97684e3ffaf1bad677b7b2a", "type": "electric_bike", "is_disabled": 0, "lat": 38.80704333333333, "rental_uris": {"ios": "https://dc.lft.to/lastmile_qr_scan", "android": "https://dc.lft.to/lastmile_qr_scan"}, "is_reserved": 0, "fusion_lon": 0.0, "fusion_lat": 0.0, "lon": -77.061759, "name": "09b2e066c97684e3ffaf1bad677b7b2a"}, {"bike_id": "2b17ca1523a4b6e5259976740900879c", "type": "electric_scooter", "is_disabled": 0, "lat": 38.928324, "rental_uris": {"ios": "https://dc.lft.to/lastmile_qr_scan", "android": "https://dc.lft.to/lastmile_qr_scan"}, "is_reserved": 0, "fusion_lon": 0.0, "fusion_lat": 0.0, "lon": -77.02752816666667, "name": "2b17ca1523a4b6e5259976740900879c"}, {"bike_id": "5019e006c767ce4bed5ab5677d59f79f", "type": "electric_scooter", "is_disabled": 0, "lat": 38.92232933333333, "rental_uris": {"ios": "https://dc.lft.to/lastmile_qr_scan", "android": "https://dc.lft.to/lastmile_qr_scan"}, "is_reserved": 0, "fusion_lon": 0.0, "fusion_lat": 0.0, "lon": -77.0391055, "name": "5019e006c767ce4bed5ab5677d59f79f"}, {"bike_id": "40da70eb3ce892f3a47ed86a729ce265", "type": "electric_scooter", "is_disabled": 0, "lat": 38.92261533333333, "rental_uris": {"ios": "https://dc.lft.to/lastmile_qr_scan", "android": "https://dc.lft.to/lastmile_qr_scan"}, "is_reserved": 0, "fusion_lon": 0.0, "fusion_lat": 0.0, "lon": -76.9946525, "name": "40da70eb3ce892f3a47ed86a729ce265"}, {"bike_id": "e9f7976e5dd24093cfe52bcb99e1bd17", "type": "electric_scooter", "is_disabled": 0, "lat": 38.9086045, "rental_uris": {"ios": "https://dc.lft.to/lastmile_qr_scan", "android": "https://dc.lft.to/lastmile_qr_scan"}, "is_reserved": 0, "fusion_lon": 0.0, "fusion_lat": 0.0, "lon": -77.00157683333333, "name": "e9f7976e5dd24093cfe52bcb99e1bd17"}, {"bike_id": "448051df1f41c521c5c3633deca6f352", "type": "electric_scooter", "is_disabled": 0, "lat": 38.923893166666666, "rental_uris": {"ios": "https://dc.lft.to/lastmile_qr_scan", "android": "https://dc.lft.to/lastmile_qr_scan"}, "is_reserved": 0, "fusion_lon": 0.0, "fusion_lat": 0.0, "lon": -77.04070983333334, "name": "448051df1f41c521c5c3633deca6f352"}, {"bike_id": "5c64eb10f1ee6c349598e2d3aa986828", "type": "electric_scooter", "is_disabled": 0, "lat": 38.91392316666666, "rental_uris": {"ios": "https://dc.lft.to/lastmile_qr_scan", "android": "https://dc.lft.to/lastmile_qr_scan"}, "is_reserved": 0, "fusion_lon": 0.0, "fusion_lat": 0.0, "lon": -77.03210983333334, "name": "5c64eb10f1ee6c349598e2d3aa986828"}, {"bike_id": "1efa43ce9b8715498ffc19566b0c5903", "type": "electric_scooter", "is_disabled": 0, "lat": 38.910532833333335, "rental_uris": {"ios": "https://dc.lft.to/lastmile_qr_scan", "android": "https://dc.lft.to/lastmile_qr_scan"}, "is_reserved": 0, "fusion_lon": 0.0, "fusion_lat": 0.0, "lon": -77.0546275, "name": "1efa43ce9b8715498ffc19566b0c5903"}, {"bike_id": "a0c6f77a91e123d15089b4cab1f89fe9", "type": "electric_scooter", "is_disabled": 0, "lat": 38.92315033333333, "rental_uris": {"ios": "https://dc.lft.to/lastmile_qr_scan", "android": "https://dc.lft.to/lastmile_qr_scan"}, "is_reserved": 0, "fusion_lon": 0.0, "fusion_lat": 0.0, "lon": -77.02129066666667, "name": "a0c6f77a91e123d15089b4cab1f89fe9"}, {"bike_id": "142161e198088675e09e89a921da6e5c", "type": "electric_bike", "is_disabled": 0, "lat": 38.8452505, "rental_uris": {"ios": "https://dc.lft.to/lastmile_qr_scan", "android": "https://dc.lft.to/lastmile_qr_scan"}, "is_reserved": 0, "fusion_lon": 0.0, "fusion_lat": 0.0, "lon": -76.97398616666666, "name": "142161e198088675e09e89a921da6e5c"}, {"bike_id": "4bd254593730c24a34e121898a7075b7", "type": "electric_scooter", "is_disabled": 0, "lat": 38.92914716666667, "rental_uris": {"ios": "https://dc.lft.to/lastmile_qr_scan", "android": "https://dc.lft.to/lastmile_qr_scan"}, "is_reserved": 0, "fusion_lon": 0.0, "fusion_lat": 0.0, "lon": -77.03287983333334, "name": "4bd254593730c24a34e121898a7075b7"}, {"bike_id": "77b436ca12c4ae329127820d9b978adc", "type": "electric_scooter", "is_disabled": 0, "lat": 38.89836283333333, "rental_uris": {"ios": "https://dc.lft.to/lastmile_qr_scan", "android": "https://dc.lft.to/lastmile_qr_scan"}, "is_reserved": 0, "fusion_lon": 0.0, "fusion_lat": 0.0, "lon": -77.0408415, "name": "77b436ca12c4ae329127820d9b978adc"}, {"bike_id": "d1fa89b901443337c92d024c1fcdfc8b", "type": "electric_scooter", "is_disabled": 0, "lat": 38.9181295, "rental_uris": {"ios": "https://dc.lft.to/lastmile_qr_scan", "android": "https://dc.lft.to/lastmile_qr_scan"}, "is_reserved": 0, "fusion_lon": 0.0, "fusion_lat": 0.0, "lon": -77.024793, "name": "d1fa89b901443337c92d024c1fcdfc8b"}, {"bike_id": "1720ebe4b172bf86c32f0a5c4236bf4a", "type": "electric_scooter", "is_disabled": 0, "lat": 38.9320555, "rental_uris": {"ios": "https://dc.lft.to/lastmile_qr_scan", "android": "https://dc.lft.to/lastmile_qr_scan"}, "is_reserved": 0, "fusion_lon": 0.0, "fusion_lat": 0.0, "lon": -77.03518866666667, "name": "1720ebe4b172bf86c32f0a5c4236bf4a"}, {"bike_id": "c96f8c5d5a84e11c79b4737c0535c549", "type": "electric_scooter", "is_disabled": 0, "lat": 38.94113316666667, "rental_uris": {"ios": "https://dc.lft.to/lastmile_qr_scan", "android": "https://dc.lft.to/lastmile_qr_scan"}, "is_reserved": 0, "fusion_lon": 0.0, "fusion_lat": 0.0, "lon": -77.02539333333333, "name": "c96f8c5d5a84e11c79b4737c0535c549"}, {"bike_id": "e156ab31d3c68f4d233424ea016a040f", "type": "electric_scooter", "is_disabled": 0, "lat": 38.904853833333334, "rental_uris": {"ios": "https://dc.lft.to/lastmile_qr_scan", "android": "https://dc.lft.to/lastmile_qr_scan"}, "is_reserved": 0, "fusion_lon": 0.0, "fusion_lat": 0.0, "lon": -76.9496535, "name": "e156ab31d3c68f4d233424ea016a040f"}, {"bike_id": "4965156ffd1638d49fef53089c833624", "type": "electric_bike", "is_disabled": 0, "lat": 38.951707166666665, "rental_uris": {"ios": "https://dc.lft.to/lastmile_qr_scan", "android": "https://dc.lft.to/lastmile_qr_scan"}, "is_reserved": 0, "fusion_lon": 0.0, "fusion_lat": 0.0, "lon": -76.9772995, "name": "4965156ffd1638d49fef53089c833624"}, {"bike_id": "da0d013f6575bcdab3b5b61fe02e6467", "type": "electric_scooter", "is_disabled": 0, "lat": 38.92484016666667, "rental_uris": {"ios": "https://dc.lft.to/lastmile_qr_scan", "android": "https://dc.lft.to/lastmile_qr_scan"}, "is_reserved": 0, "fusion_lon": 0.0, "fusion_lat": 0.0, "lon": -77.031792, "name": "da0d013f6575bcdab3b5b61fe02e6467"}, {"bike_id": "8cbe6b8e5d186fb68bcc4deefe79a7df", "type": "electric_scooter", "is_disabled": 0, "lat": 38.914093666666666, "rental_uris": {"ios": "https://dc.lft.to/lastmile_qr_scan", "android": "https://dc.lft.to/lastmile_qr_scan"}, "is_reserved": 0, "fusion_lon": 0.0, "fusion_lat": 0.0, "lon": -77.01366966666667, "name": "8cbe6b8e5d186fb68bcc4deefe79a7df"}, {"bike_id": "a8d241ed8869a1e1f5f54aeec217db06", "type": "electric_scooter", "is_disabled": 0, "lat": 38.90054683333334, "rental_uris": {"ios": "https://dc.lft.to/lastmile_qr_scan", "android": "https://dc.lft.to/lastmile_qr_scan"}, "is_reserved": 0, "fusion_lon": 0.0, "fusion_lat": 0.0, "lon": -77.0171695, "name": "a8d241ed8869a1e1f5f54aeec217db06"}, {"bike_id": "00a62dbf86ee47e4c6a64bfe149e9d3e", "type": "electric_scooter", "is_disabled": 0, "lat": 38.92877033333333, "rental_uris": {"ios": "https://dc.lft.to/lastmile_qr_scan", "android": "https://dc.lft.to/lastmile_qr_scan"}, "is_reserved": 0, "fusion_lon": 0.0, "fusion_lat": 0.0, "lon": -77.013782, "name": "00a62dbf86ee47e4c6a64bfe149e9d3e"}, {"bike_id": "fdcd4f9a4118f077cb265cacb92e9d6f", "type": "electric_scooter", "is_disabled": 0, "lat": 38.92852966666667, "rental_uris": {"ios": "https://dc.lft.to/lastmile_qr_scan", "android": "https://dc.lft.to/lastmile_qr_scan"}, "is_reserved": 0, "fusion_lon": 0.0, "fusion_lat": 0.0, "lon": -77.0195095, "name": "fdcd4f9a4118f077cb265cacb92e9d6f"}, {"bike_id": "0b95f93fc47fe10c2df178538fcd880b", "type": "electric_scooter", "is_disabled": 0, "lat": 38.9359345, "rental_uris": {"ios": "https://dc.lft.to/lastmile_qr_scan", "android": "https://dc.lft.to/lastmile_qr_scan"}, "is_reserved": 0, "fusion_lon": 0.0, "fusion_lat": 0.0, "lon": -77.03808233333334, "name": "0b95f93fc47fe10c2df178538fcd880b"}, {"bike_id": "367e6e858b3fcdb975011d504cff9c5f", "type": "electric_scooter", "is_disabled": 0, "lat": 38.917809166666665, "rental_uris": {"ios": "https://dc.lft.to/lastmile_qr_scan", "android": "https://dc.lft.to/lastmile_qr_scan"}, "is_reserved": 0, "fusion_lon": 0.0, "fusion_lat": 0.0, "lon": -77.023127, "name": "367e6e858b3fcdb975011d504cff9c5f"}, {"bike_id": "fc0bff5da53c72b93eec0450ee63cef0", "type": "electric_scooter", "is_disabled": 0, "lat": 38.90716166666667, "rental_uris": {"ios": "https://dc.lft.to/lastmile_qr_scan", "android": "https://dc.lft.to/lastmile_qr_scan"}, "is_reserved": 0, "fusion_lon": 0.0, "fusion_lat": 0.0, "lon": -77.04505916666666, "name": "fc0bff5da53c72b93eec0450ee63cef0"}, {"bike_id": "89ee046444ebd43b0286e0d0b2351385", "type": "electric_scooter", "is_disabled": 0, "lat": 38.922627, "rental_uris": {"ios": "https://dc.lft.to/lastmile_qr_scan", "android": "https://dc.lft.to/lastmile_qr_scan"}, "is_reserved": 0, "fusion_lon": 0.0, "fusion_lat": 0.0, "lon": -77.02967733333334, "name": "89ee046444ebd43b0286e0d0b2351385"}, {"bike_id": "9f1a45f75826f2e9954c6d75496f169b", "type": "electric_scooter", "is_disabled": 0, "lat": 38.915641666666666, "rental_uris": {"ios": "https://dc.lft.to/lastmile_qr_scan", "android": "https://dc.lft.to/lastmile_qr_scan"}, "is_reserved": 0, "fusion_lon": 0.0, "fusion_lat": 0.0, "lon": -77.0206275, "name": "9f1a45f75826f2e9954c6d75496f169b"}, {"bike_id": "78de017f6eb3fdf20258301a6436df7a", "type": "electric_scooter", "is_disabled": 0, "lat": 38.87644733333333, "rental_uris": {"ios": "https://dc.lft.to/lastmile_qr_scan", "android": "https://dc.lft.to/lastmile_qr_scan"}, "is_reserved": 0, "fusion_lon": 0.0, "fusion_lat": 0.0, "lon": -77.00431466666667, "name": "78de017f6eb3fdf20258301a6436df7a"}, {"bike_id": "8b2378691a776165008cfc3967ed28e6", "type": "electric_scooter", "is_disabled": 0, "lat": 38.954758, "rental_uris": {"ios": "https://dc.lft.to/lastmile_qr_scan", "android": "https://dc.lft.to/lastmile_qr_scan"}, "is_reserved": 0, "fusion_lon": 0.0, "fusion_lat": 0.0, "lon": -77.08218333333333, "name": "8b2378691a776165008cfc3967ed28e6"}, {"bike_id": "0a6d4157840b881aeffd6f36ee2c092d", "type": "electric_scooter", "is_disabled": 0, "lat": 38.8668245, "rental_uris": {"ios": "https://dc.lft.to/lastmile_qr_scan", "android": "https://dc.lft.to/lastmile_qr_scan"}, "is_reserved": 0, "fusion_lon": 0.0, "fusion_lat": 0.0, "lon": -76.98584816666667, "name": "0a6d4157840b881aeffd6f36ee2c092d"}, {"bike_id": "3845d3d1ad3549e7d28eef1179cfbb3b", "type": "electric_scooter", "is_disabled": 0, "lat": 38.942682166666664, "rental_uris": {"ios": "https://dc.lft.to/lastmile_qr_scan", "android": "https://dc.lft.to/lastmile_qr_scan"}, "is_reserved": 0, "fusion_lon": 0.0, "fusion_lat": 0.0, "lon": -77.032609, "name": "3845d3d1ad3549e7d28eef1179cfbb3b"}, {"bike_id": "cda8e3ec4ce4f3d1a0967036c0f9c169", "type": "electric_scooter", "is_disabled": 0, "lat": 38.8900535, "rental_uris": {"ios": "https://dc.lft.to/lastmile_qr_scan", "android": "https://dc.lft.to/lastmile_qr_scan"}, "is_reserved": 0, "fusion_lon": 0.0, "fusion_lat": 0.0, "lon": -76.93744533333333, "name": "cda8e3ec4ce4f3d1a0967036c0f9c169"}, {"bike_id": "b71f54e3dff442b25218b18c92add5a0", "type": "electric_scooter", "is_disabled": 0, "lat": 38.87419833333333, "rental_uris": {"ios": "https://dc.lft.to/lastmile_qr_scan", "android": "https://dc.lft.to/lastmile_qr_scan"}, "is_reserved": 0, "fusion_lon": 0.0, "fusion_lat": 0.0, "lon": -76.96909166666667, "name": "b71f54e3dff442b25218b18c92add5a0"}, {"bike_id": "f1bede9f7259d47c869e31560109aeab", "type": "electric_scooter", "is_disabled": 0, "lat": 38.878615, "rental_uris": {"ios": "https://dc.lft.to/lastmile_qr_scan", "android": "https://dc.lft.to/lastmile_qr_scan"}, "is_reserved": 0, "fusion_lon": 0.0, "fusion_lat": 0.0, "lon": -76.96987233333333, "name": "f1bede9f7259d47c869e31560109aeab"}, {"bike_id": "329e7ac2b18c3544c0308addaa73725f", "type": "electric_scooter", "is_disabled": 0, "lat": 38.908633, "rental_uris": {"ios": "https://dc.lft.to/lastmile_qr_scan", "android": "https://dc.lft.to/lastmile_qr_scan"}, "is_reserved": 0, "fusion_lon": 0.0, "fusion_lat": 0.0, "lon": -76.99961966666666, "name": "329e7ac2b18c3544c0308addaa73725f"}, {"bike_id": "25095a9ed3464dcfa9fb9b78697d22e2", "type": "electric_scooter", "is_disabled": 0, "lat": 38.872845833333336, "rental_uris": {"ios": "https://dc.lft.to/lastmile_qr_scan", "android": "https://dc.lft.to/lastmile_qr_scan"}, "is_reserved": 0, "fusion_lon": 0.0, "fusion_lat": 0.0, "lon": -76.97730333333334, "name": "25095a9ed3464dcfa9fb9b78697d22e2"}, {"bike_id": "9a30831636551fdc5cda373e83c23287", "type": "electric_scooter", "is_disabled": 0, "lat": 38.89490266666667, "rental_uris": {"ios": "https://dc.lft.to/lastmile_qr_scan", "android": "https://dc.lft.to/lastmile_qr_scan"}, "is_reserved": 0, "fusion_lon": 0.0, "fusion_lat": 0.0, "lon": -77.00065033333334, "name": "9a30831636551fdc5cda373e83c23287"}, {"bike_id": "b5602f3ae6b634bb59a180f856415ef1", "type": "electric_bike", "is_disabled": 0, "lat": 38.8578685, "rental_uris": {"ios": "https://dc.lft.to/lastmile_qr_scan", "android": "https://dc.lft.to/lastmile_qr_scan"}, "is_reserved": 0, "fusion_lon": 0.0, "fusion_lat": 0.0, "lon": -77.12020816666667, "name": "b5602f3ae6b634bb59a180f856415ef1"}, {"bike_id": "b6901aced8db322a993cb1fa206923db", "type": "electric_scooter", "is_disabled": 0, "lat": 38.884144666666664, "rental_uris": {"ios": "https://dc.lft.to/lastmile_qr_scan", "android": "https://dc.lft.to/lastmile_qr_scan"}, "is_reserved": 0, "fusion_lon": 0.0, "fusion_lat": 0.0, "lon": -77.031725, "name": "b6901aced8db322a993cb1fa206923db"}, {"bike_id": "ee45b4a6e8f5e9777ac6e5de88ef7c96", "type": "electric_scooter", "is_disabled": 0, "lat": 38.932904, "rental_uris": {"ios": "https://dc.lft.to/lastmile_qr_scan", "android": "https://dc.lft.to/lastmile_qr_scan"}, "is_reserved": 0, "fusion_lon": 0.0, "fusion_lat": 0.0, "lon": -77.04116716666667, "name": "ee45b4a6e8f5e9777ac6e5de88ef7c96"}, {"bike_id": "a699624d5b20bb0b97a4a8744750e67b", "type": "electric_scooter", "is_disabled": 0, "lat": 38.8954785, "rental_uris": {"ios": "https://dc.lft.to/lastmile_qr_scan", "android": "https://dc.lft.to/lastmile_qr_scan"}, "is_reserved": 0, "fusion_lon": 0.0, "fusion_lat": 0.0, "lon": -76.92953333333334, "name": "a699624d5b20bb0b97a4a8744750e67b"}, {"bike_id": "50e1a80e22527a24ec10644a523c9554", "type": "electric_scooter", "is_disabled": 0, "lat": 38.920531833333335, "rental_uris": {"ios": "https://dc.lft.to/lastmile_qr_scan", "android": "https://dc.lft.to/lastmile_qr_scan"}, "is_reserved": 0, "fusion_lon": 0.0, "fusion_lat": 0.0, "lon": -77.0338995, "name": "50e1a80e22527a24ec10644a523c9554"}, {"bike_id": "912e55391f96ec05e1570fc83056a863", "type": "electric_scooter", "is_disabled": 0, "lat": 38.918971166666665, "rental_uris": {"ios": "https://dc.lft.to/lastmile_qr_scan", "android": "https://dc.lft.to/lastmile_qr_scan"}, "is_reserved": 0, "fusion_lon": 0.0, "fusion_lat": 0.0, "lon": -77.03181283333333, "name": "912e55391f96ec05e1570fc83056a863"}, {"bike_id": "c8dfc362bc386d835d0c644569481d14", "type": "electric_bike", "is_disabled": 0, "lat": 38.9465205, "rental_uris": {"ios": "https://dc.lft.to/lastmile_qr_scan", "android": "https://dc.lft.to/lastmile_qr_scan"}, "is_reserved": 0, "fusion_lon": 0.0, "fusion_lat": 0.0, "lon": -76.994868, "name": "c8dfc362bc386d835d0c644569481d14"}, {"bike_id": "58102db1661a6656cc9ca546a6bb4321", "type": "electric_scooter", "is_disabled": 0, "lat": 38.918673, "rental_uris": {"ios": "https://dc.lft.to/lastmile_qr_scan", "android": "https://dc.lft.to/lastmile_qr_scan"}, "is_reserved": 0, "fusion_lon": 0.0, "fusion_lat": 0.0, "lon": -77.0414735, "name": "58102db1661a6656cc9ca546a6bb4321"}, {"bike_id": "09a09e5015c19c886b1de207d9b2f94a", "type": "electric_scooter", "is_disabled": 0, "lat": 38.90651866666666, "rental_uris": {"ios": "https://dc.lft.to/lastmile_qr_scan", "android": "https://dc.lft.to/lastmile_qr_scan"}, "is_reserved": 0, "fusion_lon": 0.0, "fusion_lat": 0.0, "lon": -77.01414583333333, "name": "09a09e5015c19c886b1de207d9b2f94a"}, {"bike_id": "db9d1818bec0a5483e0951569302bd63", "type": "electric_scooter", "is_disabled": 0, "lat": 38.914191833333334, "rental_uris": {"ios": "https://dc.lft.to/lastmile_qr_scan", "android": "https://dc.lft.to/lastmile_qr_scan"}, "is_reserved": 0, "fusion_lon": 0.0, "fusion_lat": 0.0, "lon": -77.02287766666667, "name": "db9d1818bec0a5483e0951569302bd63"}, {"bike_id": "85ab4f5dee8272bf993382c95e350ddd", "type": "electric_scooter", "is_disabled": 0, "lat": 38.93538983333333, "rental_uris": {"ios": "https://dc.lft.to/lastmile_qr_scan", "android": "https://dc.lft.to/lastmile_qr_scan"}, "is_reserved": 0, "fusion_lon": 0.0, "fusion_lat": 0.0, "lon": -77.02247833333334, "name": "85ab4f5dee8272bf993382c95e350ddd"}, {"bike_id": "02cf70a8bcbadcfd4f6601769cc54719", "type": "electric_scooter", "is_disabled": 0, "lat": 38.91098233333334, "rental_uris": {"ios": "https://dc.lft.to/lastmile_qr_scan", "android": "https://dc.lft.to/lastmile_qr_scan"}, "is_reserved": 0, "fusion_lon": 0.0, "fusion_lat": 0.0, "lon": -77.02801516666666, "name": "02cf70a8bcbadcfd4f6601769cc54719"}, {"bike_id": "1f115d68b2e91396b8d8b45a5b8ffa5b", "type": "electric_scooter", "is_disabled": 0, "lat": 38.9038525, "rental_uris": {"ios": "https://dc.lft.to/lastmile_qr_scan", "android": "https://dc.lft.to/lastmile_qr_scan"}, "is_reserved": 0, "fusion_lon": 0.0, "fusion_lat": 0.0, "lon": -77.0678545, "name": "1f115d68b2e91396b8d8b45a5b8ffa5b"}, {"bike_id": "f65d1f8551b4107445e720463496015f", "type": "electric_scooter", "is_disabled": 0, "lat": 38.9007715, "rental_uris": {"ios": "https://dc.lft.to/lastmile_qr_scan", "android": "https://dc.lft.to/lastmile_qr_scan"}, "is_reserved": 0, "fusion_lon": 0.0, "fusion_lat": 0.0, "lon": -76.9273995, "name": "f65d1f8551b4107445e720463496015f"}, {"bike_id": "ee418385d64a8a98ac411a11043a5726", "type": "electric_scooter", "is_disabled": 0, "lat": 38.91602983333333, "rental_uris": {"ios": "https://dc.lft.to/lastmile_qr_scan", "android": "https://dc.lft.to/lastmile_qr_scan"}, "is_reserved": 0, "fusion_lon": 0.0, "fusion_lat": 0.0, "lon": -77.0112975, "name": "ee418385d64a8a98ac411a11043a5726"}, {"bike_id": "510a798e68d120bdeae07239cfed2c68", "type": "electric_scooter", "is_disabled": 0, "lat": 38.914316, "rental_uris": {"ios": "https://dc.lft.to/lastmile_qr_scan", "android": "https://dc.lft.to/lastmile_qr_scan"}, "is_reserved": 0, "fusion_lon": 0.0, "fusion_lat": 0.0, "lon": -77.02172966666667, "name": "510a798e68d120bdeae07239cfed2c68"}, {"bike_id": "2cfba6524df5eb31f342046b2c242419", "type": "electric_scooter", "is_disabled": 0, "lat": 38.904735, "rental_uris": {"ios": "https://dc.lft.to/lastmile_qr_scan", "android": "https://dc.lft.to/lastmile_qr_scan"}, "is_reserved": 0, "fusion_lon": 0.0, "fusion_lat": 0.0, "lon": -77.02975966666666, "name": "2cfba6524df5eb31f342046b2c242419"}, {"bike_id": "2d5af52b2718c6fbfd41da6aab2b5587", "type": "electric_scooter", "is_disabled": 0, "lat": 38.918575833333335, "rental_uris": {"ios": "https://dc.lft.to/lastmile_qr_scan", "android": "https://dc.lft.to/lastmile_qr_scan"}, "is_reserved": 0, "fusion_lon": 0.0, "fusion_lat": 0.0, "lon": -77.041581, "name": "2d5af52b2718c6fbfd41da6aab2b5587"}, {"bike_id": "cd8e0e4865435696bdae0cb30e205da0", "type": "electric_scooter", "is_disabled": 0, "lat": 38.92151766666667, "rental_uris": {"ios": "https://dc.lft.to/lastmile_qr_scan", "android": "https://dc.lft.to/lastmile_qr_scan"}, "is_reserved": 0, "fusion_lon": 0.0, "fusion_lat": 0.0, "lon": -77.03320783333334, "name": "cd8e0e4865435696bdae0cb30e205da0"}, {"bike_id": "f13a3159898d28194300a2c0e79426b8", "type": "electric_scooter", "is_disabled": 0, "lat": 38.899105166666665, "rental_uris": {"ios": "https://dc.lft.to/lastmile_qr_scan", "android": "https://dc.lft.to/lastmile_qr_scan"}, "is_reserved": 0, "fusion_lon": 0.0, "fusion_lat": 0.0, "lon": -76.93372883333333, "name": "f13a3159898d28194300a2c0e79426b8"}, {"bike_id": "3390d77cdace707c6014af8820b44b09", "type": "electric_scooter", "is_disabled": 0, "lat": 38.905271, "rental_uris": {"ios": "https://dc.lft.to/lastmile_qr_scan", "android": "https://dc.lft.to/lastmile_qr_scan"}, "is_reserved": 0, "fusion_lon": 0.0, "fusion_lat": 0.0, "lon": -77.006937, "name": "3390d77cdace707c6014af8820b44b09"}, {"bike_id": "27ba7dec198fecea88d2601acdaf9f40", "type": "electric_scooter", "is_disabled": 0, "lat": 38.87646616666667, "rental_uris": {"ios": "https://dc.lft.to/lastmile_qr_scan", "android": "https://dc.lft.to/lastmile_qr_scan"}, "is_reserved": 0, "fusion_lon": 0.0, "fusion_lat": 0.0, "lon": -77.00415783333334, "name": "27ba7dec198fecea88d2601acdaf9f40"}, {"bike_id": "2f178a4a0eae45257a4bfd01b632b32b", "type": "electric_scooter", "is_disabled": 0, "lat": 38.9342545, "rental_uris": {"ios": "https://dc.lft.to/lastmile_qr_scan", "android": "https://dc.lft.to/lastmile_qr_scan"}, "is_reserved": 0, "fusion_lon": 0.0, "fusion_lat": 0.0, "lon": -77.04536616666667, "name": "2f178a4a0eae45257a4bfd01b632b32b"}, {"bike_id": "b591f509e948cf08768ef16b8d05a17b", "type": "electric_scooter", "is_disabled": 0, "lat": 38.92021866666666, "rental_uris": {"ios": "https://dc.lft.to/lastmile_qr_scan", "android": "https://dc.lft.to/lastmile_qr_scan"}, "is_reserved": 0, "fusion_lon": 0.0, "fusion_lat": 0.0, "lon": -77.031343, "name": "b591f509e948cf08768ef16b8d05a17b"}, {"bike_id": "45ec71ae77a57ab4bbfa8c02b565979b", "type": "electric_scooter", "is_disabled": 0, "lat": 38.92833383333333, "rental_uris": {"ios": "https://dc.lft.to/lastmile_qr_scan", "android": "https://dc.lft.to/lastmile_qr_scan"}, "is_reserved": 0, "fusion_lon": 0.0, "fusion_lat": 0.0, "lon": -77.032945, "name": "45ec71ae77a57ab4bbfa8c02b565979b"}, {"bike_id": "264b46e2d90b6d1332478abd7e73d085", "type": "electric_scooter", "is_disabled": 0, "lat": 38.958537, "rental_uris": {"ios": "https://dc.lft.to/lastmile_qr_scan", "android": "https://dc.lft.to/lastmile_qr_scan"}, "is_reserved": 0, "fusion_lon": 0.0, "fusion_lat": 0.0, "lon": -77.028104, "name": "264b46e2d90b6d1332478abd7e73d085"}, {"bike_id": "8d2ab952a154cbdecb7c109add0275c5", "type": "electric_scooter", "is_disabled": 0, "lat": 38.9281135, "rental_uris": {"ios": "https://dc.lft.to/lastmile_qr_scan", "android": "https://dc.lft.to/lastmile_qr_scan"}, "is_reserved": 0, "fusion_lon": 0.0, "fusion_lat": 0.0, "lon": -77.0281385, "name": "8d2ab952a154cbdecb7c109add0275c5"}, {"bike_id": "442555dcad31772f92d0a830c8e70cef", "type": "electric_scooter", "is_disabled": 0, "lat": 38.874857, "rental_uris": {"ios": "https://dc.lft.to/lastmile_qr_scan", "android": "https://dc.lft.to/lastmile_qr_scan"}, "is_reserved": 0, "fusion_lon": 0.0, "fusion_lat": 0.0, "lon": -77.00115383333333, "name": "442555dcad31772f92d0a830c8e70cef"}, {"bike_id": "facf47a8aef9864dc48e083c8d555288", "type": "electric_scooter", "is_disabled": 0, "lat": 38.909879, "rental_uris": {"ios": "https://dc.lft.to/lastmile_qr_scan", "android": "https://dc.lft.to/lastmile_qr_scan"}, "is_reserved": 0, "fusion_lon": 0.0, "fusion_lat": 0.0, "lon": -77.04007483333334, "name": "facf47a8aef9864dc48e083c8d555288"}, {"bike_id": "41f4d066952c7238f968139cbf7a3dec", "type": "electric_scooter", "is_disabled": 0, "lat": 38.90530616666667, "rental_uris": {"ios": "https://dc.lft.to/lastmile_qr_scan", "android": "https://dc.lft.to/lastmile_qr_scan"}, "is_reserved": 0, "fusion_lon": 0.0, "fusion_lat": 0.0, "lon": -77.05678883333333, "name": "41f4d066952c7238f968139cbf7a3dec"}, {"bike_id": "ba4d1b3554e1cad624a0483ad647c860", "type": "electric_scooter", "is_disabled": 0, "lat": 38.915626833333334, "rental_uris": {"ios": "https://dc.lft.to/lastmile_qr_scan", "android": "https://dc.lft.to/lastmile_qr_scan"}, "is_reserved": 0, "fusion_lon": 0.0, "fusion_lat": 0.0, "lon": -77.03331666666666, "name": "ba4d1b3554e1cad624a0483ad647c860"}, {"bike_id": "8a1f47984f9d4d88cc641f7afd4708f3", "type": "electric_scooter", "is_disabled": 0, "lat": 38.928341, "rental_uris": {"ios": "https://dc.lft.to/lastmile_qr_scan", "android": "https://dc.lft.to/lastmile_qr_scan"}, "is_reserved": 0, "fusion_lon": 0.0, "fusion_lat": 0.0, "lon": -77.02324866666666, "name": "8a1f47984f9d4d88cc641f7afd4708f3"}, {"bike_id": "81f56d7f4a8636291eaab9440693b144", "type": "electric_scooter", "is_disabled": 0, "lat": 38.921325, "rental_uris": {"ios": "https://dc.lft.to/lastmile_qr_scan", "android": "https://dc.lft.to/lastmile_qr_scan"}, "is_reserved": 0, "fusion_lon": 0.0, "fusion_lat": 0.0, "lon": -77.01800866666666, "name": "81f56d7f4a8636291eaab9440693b144"},