{"data": {"bikes": [{"rental_uris": {"ios": "https://dc.lft.to/lastmile_qr_scan", "android": "https://dc.lft.to/lastmile_qr_scan"}, "type": "electric_scooter", "name": "46dead5a30dd5d8f80e3d089ef2e03f7", "is_reserved": 0, "lon": -77.02201033333333, "is_disabled": 0, "fusion_lat": 0.0, "lat": 38.88717783333333, "bike_id": "46dead5a30dd5d8f80e3d089ef2e03f7", "fusion_lon": 0.0}, {"rental_uris": {"ios": "https://dc.lft.to/lastmile_qr_scan", "android": "https://dc.lft.to/lastmile_qr_scan"}, "type": "electric_scooter", "name": "ced009588ebf36c84117e470805691ba", "is_reserved": 0, "lon": -77.03262683333334, "is_disabled": 0, "fusion_lat": 0.0, "lat": 38.90963416666666, "bike_id": "ced009588ebf36c84117e470805691ba", "fusion_lon": 0.0}, {"rental_uris": {"ios": "https://dc.lft.to/lastmile_qr_scan", "android": "https://dc.lft.to/lastmile_qr_scan"}, "type": "electric_scooter", "name": "c87f292ccb1d4a6e0aa61ccfcdc0223b", "is_reserved": 0, "lon": -77.03659133333333, "is_disabled": 0, "fusion_lat": 0.0, "lat": 38.9185465, "bike_id": "c87f292ccb1d4a6e0aa61ccfcdc0223b", "fusion_lon": 0.0}, {"rental_uris": {"ios": "https://dc.lft.to/lastmile_qr_scan", "android": "https://dc.lft.to/lastmile_qr_scan"}, "type": "electric_scooter", "name": "62dab3620ce1b4d5fe025a8878d8fa9b", "is_reserved": 0, "lon": -77.04541716666667, "is_disabled": 0, "fusion_lat": 0.0, "lat": 38.89723683333333, "bike_id": "62dab3620ce1b4d5fe025a8878d8fa9b", "fusion_lon": 0.0}, {"rental_uris": {"ios": "https://dc.lft.to/lastmile_qr_scan", "android": "https://dc.lft.to/lastmile_qr_scan"}, "type": "electric_scooter", "name": "be4a623a59f2a0eaecb9e9a9739feecb", "is_reserved": 0, "lon": -77.01962366666666, "is_disabled": 0, "fusion_lat": 0.0, "lat": 38.933854333333336, "bike_id": "be4a623a59f2a0eaecb9e9a9739feecb", "fusion_lon": 0.0}, {"rental_uris": {"ios": "https://dc.lft.to/lastmile_qr_scan", "android": "https://dc.lft.to/lastmile_qr_scan"}, "type": "electric_scooter", "name": "e1defa516ad11e2195a019cb79ebc72b", "is_reserved": 0, "lon": -77.02583116666666, "is_disabled": 0, "fusion_lat": 0.0, "lat": 38.920381, "bike_id": "e1defa516ad11e2195a019cb79ebc72b", "fusion_lon": 0.0}, {"rental_uris": {"ios": "https://dc.lft.to/lastmile_qr_scan", "android": "https://dc.lft.to/lastmile_qr_scan"}, "type": "electric_scooter", "name": "002cb1c5ecadb1b1fbc416ebf3310248", "is_reserved": 0, "lon": -77.06520833333333, "is_disabled": 0, "fusion_lat": 0.0, "lat": 38.94992766666667, "bike_id": "002cb1c5ecadb1b1fbc416ebf3310248", "fusion_lon": 0.0}, {"rental_uris": {"ios": "https://dc.lft.to/lastmile_qr_scan", "android": "https://dc.lft.to/lastmile_qr_scan"}, "type": "electric_scooter", "name": "234d84233ec8e20f2be9b4b7145981a5", "is_reserved": 0, "lon": -77.03290683333333, "is_disabled": 0, "fusion_lat": 0.0, "lat": 38.9274365, "bike_id": "234d84233ec8e20f2be9b4b7145981a5", "fusion_lon": 0.0}, {"rental_uris": {"ios": "https://dc.lft.to/lastmile_qr_scan", "android": "https://dc.lft.to/lastmile_qr_scan"}, "type": "electric_scooter", "name": "6a686f59adc1f5c8b391edbde01b12f9", "is_reserved": 0, "lon": -76.98988033333333, "is_disabled": 0, "fusion_lat": 0.0, "lat": 38.8650475, "bike_id": "6a686f59adc1f5c8b391edbde01b12f9", "fusion_lon": 0.0}, {"rental_uris": {"ios": "https://dc.lft.to/lastmile_qr_scan", "android": "https://dc.lft.to/lastmile_qr_scan"}, "type": "electric_scooter", "name": "7211d87dd18f4cc725aa9b5f4b89651b", "is_reserved": 0, "lon": -77.03714283333333, "is_disabled": 0, "fusion_lat": 0.0, "lat": 38.911841, "bike_id": "7211d87dd18f4cc725aa9b5f4b89651b", "fusion_lon": 0.0}, {"rental_uris": {"ios": "https://dc.lft.to/lastmile_qr_scan", "android": "https://dc.lft.to/lastmile_qr_scan"}, "type": "electric_scooter", "name": "ead411a9958918bdbc04c037540f11db", "is_reserved": 0, "lon": -77.041145, "is_disabled": 0, "fusion_lat": 0.0, "lat": 38.921125333333336, "bike_id": "ead411a9958918bdbc04c037540f11db", "fusion_lon": 0.0}, {"rental_uris": {"ios": "https://dc.lft.to/lastmile_qr_scan", "android": "https://dc.lft.to/lastmile_qr_scan"}, "type": "electric_scooter", "name": "3bfb9c805932a3f6a99291572c0b1094", "is_reserved": 0, "lon": -77.0403785, "is_disabled": 0, "fusion_lat": 0.0, "lat": 38.904821, "bike_id": "3bfb9c805932a3f6a99291572c0b1094", "fusion_lon": 0.0}, {"rental_uris": {"ios": "https://dc.lft.to/lastmile_qr_scan", "android": "https://dc.lft.to/lastmile_qr_scan"}, "type": "electric_scooter", "name": "db5f48fbf52d430e07269cdb4d4b0439", "is_reserved": 0, "lon": -77.0467495, "is_disabled": 0, "fusion_lat": 0.0, "lat": 38.918007333333335, "bike_id": "db5f48fbf52d430e07269cdb4d4b0439", "fusion_lon": 0.0}, {"rental_uris": {"ios": "https://dc.lft.to/lastmile_qr_scan", "android": "https://dc.lft.to/lastmile_qr_scan"}, "type": "electric_scooter", "name": "d9b82b6aee3e250b74a385f4c18381c6", "is_reserved": 0, "lon": -77.007907, "is_disabled": 0, "fusion_lat": 0.0, "lat": 38.91262716666667, "bike_id": "d9b82b6aee3e250b74a385f4c18381c6", "fusion_lon": 0.0}, {"rental_uris": {"ios": "https://dc.lft.to/lastmile_qr_scan", "android": "https://dc.lft.to/lastmile_qr_scan"}, "type": "electric_scooter", "name": "2355724c65bb6c6298c3704aa9026251", "is_reserved": 0, "lon": -77.0362205, "is_disabled": 0, "fusion_lat": 0.0, "lat": 38.92376683333333, "bike_id": "2355724c65bb6c6298c3704aa9026251", "fusion_lon": 0.0}, {"rental_uris": {"ios": "https://dc.lft.to/lastmile_qr_scan", "android": "https://dc.lft.to/lastmile_qr_scan"}, "type": "electric_scooter", "name": "700363d1ea5a88b35357556c5c703048", "is_reserved": 0, "lon": -77.03197883333333, "is_disabled": 0, "fusion_lat": 0.0, "lat": 38.8870675, "bike_id": "700363d1ea5a88b35357556c5c703048", "fusion_lon": 0.0}, {"rental_uris": {"ios": "https://dc.lft.to/lastmile_qr_scan", "android": "https://dc.lft.to/lastmile_qr_scan"}, "type": "electric_scooter", "name": "e826ba7453707295fb202fe9dfda055f", "is_reserved": 0, "lon": -76.98211066666667, "is_disabled": 0, "fusion_lat": 0.0, "lat": 38.88643783333333, "bike_id": "e826ba7453707295fb202fe9dfda055f", "fusion_lon": 0.0}, {"rental_uris": {"ios": "https://dc.lft.to/lastmile_qr_scan", "android": "https://dc.lft.to/lastmile_qr_scan"}, "type": "electric_scooter", "name": "36703575bd54bd6c02d63426178ac3d9", "is_reserved": 0, "lon": -77.01200016666667, "is_disabled": 0, "fusion_lat": 0.0, "lat": 38.91108083333334, "bike_id": "36703575bd54bd6c02d63426178ac3d9", "fusion_lon": 0.0}, {"rental_uris": {"ios": "https://dc.lft.to/lastmile_qr_scan", "android": "https://dc.lft.to/lastmile_qr_scan"}, "type": "electric_scooter", "name": "bf76a7749369ca1a50005457449ec6e4", "is_reserved": 0, "lon": -77.00723583333334, "is_disabled": 0, "fusion_lat": 0.0, "lat": 38.911103, "bike_id": "bf76a7749369ca1a50005457449ec6e4", "fusion_lon": 0.0}, {"rental_uris": {"ios": "https://dc.lft.to/lastmile_qr_scan", "android": "https://dc.lft.to/lastmile_qr_scan"}, "type": "electric_scooter", "name": "b7a2555b0f9eb722fea55e4a372357be", "is_reserved": 0, "lon": -77.03706366666667, "is_disabled": 0, "fusion_lat": 0.0, "lat": 38.927824666666666, "bike_id": "b7a2555b0f9eb722fea55e4a372357be", "fusion_lon": 0.0}, {"rental_uris": {"ios": "https://dc.lft.to/lastmile_qr_scan", "android": "https://dc.lft.to/lastmile_qr_scan"}, "type": "electric_scooter", "name": "5e8fb76f2a68775f91d43bf9b8faeb2e", "is_reserved": 0, "lon": -77.02583433333334, "is_disabled": 0, "fusion_lat": 0.0, "lat": 38.92527166666667, "bike_id": "5e8fb76f2a68775f91d43bf9b8faeb2e", "fusion_lon": 0.0}, {"rental_uris": {"ios": "https://dc.lft.to/lastmile_qr_scan", "android": "https://dc.lft.to/lastmile_qr_scan"}, "type": "electric_scooter", "name": "980d3923a9d933edc4663c4fc762dc42", "is_reserved": 0, "lon": -77.0382525, "is_disabled": 0, "fusion_lat": 0.0, "lat": 38.912620833333335, "bike_id": "980d3923a9d933edc4663c4fc762dc42", "fusion_lon": 0.0}, {"rental_uris": {"ios": "https://dc.lft.to/lastmile_qr_scan", "android": "https://dc.lft.to/lastmile_qr_scan"}, "type": "electric_scooter", "name": "694f6b179c061aefde7cfcd4f89b99a5", "is_reserved": 0, "lon": -77.03252416666666, "is_disabled": 0, "fusion_lat": 0.0, "lat": 38.93252916666667, "bike_id": "694f6b179c061aefde7cfcd4f89b99a5", "fusion_lon": 0.0}, {"rental_uris": {"ios": "https://dc.lft.to/lastmile_qr_scan", "android": "https://dc.lft.to/lastmile_qr_scan"}, "type": "electric_scooter", "name": "d9a7beb6dee53a7cfbc82d70fe6ea223", "is_reserved": 0, "lon": -77.043758, "is_disabled": 0, "fusion_lat": 0.0, "lat": 38.929626, "bike_id": "d9a7beb6dee53a7cfbc82d70fe6ea223", "fusion_lon": 0.0}, {"rental_uris": {"ios": "https://dc.lft.to/lastmile_qr_scan", "android": "https://dc.lft.to/lastmile_qr_scan"}, "type": "electric_scooter", "name": "f0e51b1519c213e686600a865c1410fa", "is_reserved": 0, "lon": -77.04370083333333, "is_disabled": 0, "fusion_lat": 0.0, "lat": 38.8922575, "bike_id": "f0e51b1519c213e686600a865c1410fa", "fusion_lon": 0.0}, {"rental_uris": {"ios": "https://dc.lft.to/lastmile_qr_scan", "android": "https://dc.lft.to/lastmile_qr_scan"}, "type": "electric_scooter", "name": "fc33d10e3ac99bfc017fd537300cb282", "is_reserved": 0, "lon": -77.04565516666666, "is_disabled": 0, "fusion_lat": 0.0, "lat": 38.913257333333334, "bike_id": "fc33d10e3ac99bfc017fd537300cb282", "fusion_lon": 0.0}, {"rental_uris": {"ios": "https://dc.lft.to/lastmile_qr_scan", "android": "https://dc.lft.to/lastmile_qr_scan"}, "type": "electric_bike", "name": "8f29590fc39dbc3f80988fb4aa93acc3", "is_reserved": 0, "lon": -76.99986533333333, "is_disabled": 0, "fusion_lat": 0.0, "lat": 38.964065833333336, "bike_id": "8f29590fc39dbc3f80988fb4aa93acc3", "fusion_lon": 0.0}, {"rental_uris": {"ios": "https://dc.lft.to/lastmile_qr_scan", "android": "https://dc.lft.to/lastmile_qr_scan"}, "type": "electric_bike", "name": "d6ca7e0c81201115aff3d0ecb4747122", "is_reserved": 0, "lon": -76.97774016666666, "is_disabled": 0, "fusion_lat": 0.0, "lat": 38.85723266666667, "bike_id": "d6ca7e0c81201115aff3d0ecb4747122", "fusion_lon": 0.0}, {"rental_uris": {"ios": "https://dc.lft.to/lastmile_qr_scan", "android": "https://dc.lft.to/lastmile_qr_scan"}, "type": "electric_scooter", "name": "2287f36f0098c59e1f4658eb3b0990cb", "is_reserved": 0, "lon": -77.02500083333334, "is_disabled": 0, "fusion_lat": 0.0, "lat": 38.9421305, "bike_id": "2287f36f0098c59e1f4658eb3b0990cb", "fusion_lon": 0.0}, {"rental_uris": {"ios": "https://dc.lft.to/lastmile_qr_scan", "android": "https://dc.lft.to/lastmile_qr_scan"}, "type": "electric_scooter", "name": "67dd1125190ad7033997f8b117f7f518", "is_reserved": 0, "lon": -76.92633466666666, "is_disabled": 0, "fusion_lat": 0.0, "lat": 38.90189733333333, "bike_id": "67dd1125190ad7033997f8b117f7f518", "fusion_lon": 0.0}, {"rental_uris": {"ios": "https://dc.lft.to/lastmile_qr_scan", "android": "https://dc.lft.to/lastmile_qr_scan"}, "type": "electric_scooter", "name": "602c4f566601baa25285b848aa99072a", "is_reserved": 0, "lon": -77.02173733333333, "is_disabled": 0, "fusion_lat": 0.0, "lat": 38.92999666666667, "bike_id": "602c4f566601baa25285b848aa99072a", "fusion_lon": 0.0}, {"rental_uris": {"ios": "https://dc.lft.to/lastmile_qr_scan", "android": "https://dc.lft.to/lastmile_qr_scan"}, "type": "electric_scooter", "name": "94e723c32574270fe3fd806519079855", "is_reserved": 0, "lon": -76.98335533333334, "is_disabled": 0, "fusion_lat": 0.0, "lat": 38.90090466666667, "bike_id": "94e723c32574270fe3fd806519079855", "fusion_lon": 0.0}, {"rental_uris": {"ios": "https://dc.lft.to/lastmile_qr_scan", "android": "https://dc.lft.to/lastmile_qr_scan"}, "type": "electric_bike", "name": "69249476a5f1e7a7af4b38328b763c30", "is_reserved": 0, "lon": -77.00193033333333, "is_disabled": 0, "fusion_lat": 0.0, "lat": 38.941500833333336, "bike_id": "69249476a5f1e7a7af4b38328b763c30", "fusion_lon": 0.0}, {"rental_uris": {"ios": "https://dc.lft.to/lastmile_qr_scan", "android": "https://dc.lft.to/lastmile_qr_scan"}, "type": "electric_scooter", "name": "045e8c7c55c8c507770dbb0d2390a699", "is_reserved": 0, "lon": -77.04382933333333, "is_disabled": 0, "fusion_lat": 0.0, "lat": 38.934213166666666, "bike_id": "045e8c7c55c8c507770dbb0d2390a699", "fusion_lon": 0.0}, {"rental_uris": {"ios": "https://dc.lft.to/lastmile_qr_scan", "android": "https://dc.lft.to/lastmile_qr_scan"}, "type": "electric_scooter", "name": "9bda703251c068d2f6477db51642c518", "is_reserved": 0, "lon": -77.03370933333333, "is_disabled": 0, "fusion_lat": 0.0, "lat": 38.899696166666665, "bike_id": "9bda703251c068d2f6477db51642c518", "fusion_lon": 0.0}, {"rental_uris": {"ios": "https://dc.lft.to/lastmile_qr_scan", "android": "https://dc.lft.to/lastmile_qr_scan"}, "type": "electric_scooter", "name": "d5f063455ca03658e0bd569e351857cc", "is_reserved": 0, "lon": -77.03482283333334, "is_disabled": 0, "fusion_lat": 0.0, "lat": 38.931089166666666, "bike_id": "d5f063455ca03658e0bd569e351857cc", "fusion_lon": 0.0}, {"rental_uris": {"ios": "https://dc.lft.to/lastmile_qr_scan", "android": "https://dc.lft.to/lastmile_qr_scan"}, "type": "electric_scooter", "name": "b0046b3752141a8618197da9f9ef4b50", "is_reserved": 0, "lon": -77.02045083333333, "is_disabled": 0, "fusion_lat": 0.0, "lat": 38.89304516666667, "bike_id": "b0046b3752141a8618197da9f9ef4b50", "fusion_lon": 0.0}, {"rental_uris": {"ios": "https://dc.lft.to/lastmile_qr_scan", "android": "https://dc.lft.to/lastmile_qr_scan"}, "type": "electric_scooter", "name": "6a8f8c7a434ba138c620c0e6a561f3ad", "is_reserved": 0, "lon": -77.03038366666667, "is_disabled": 0, "fusion_lat": 0.0, "lat": 38.9224175, "bike_id": "6a8f8c7a434ba138c620c0e6a561f3ad", "fusion_lon": 0.0}, {"rental_uris": {"ios": "https://dc.lft.to/lastmile_qr_scan", "android": "https://dc.lft.to/lastmile_qr_scan"}, "type": "electric_scooter", "name": "b5c1c0d28147ce4fd0a073ef22532f19", "is_reserved": 0, "lon": -77.02271216666666, "is_disabled": 0, "fusion_lat": 0.0, "lat": 38.916377833333335, "bike_id": "b5c1c0d28147ce4fd0a073ef22532f19", "fusion_lon": 0.0}, {"rental_uris": {"ios": "https://dc.lft.to/lastmile_qr_scan", "android": "https://dc.lft.to/lastmile_qr_scan"}, "type": "electric_scooter", "name": "9379570deede971143c951582ada3043", "is_reserved": 0, "lon": -77.03764933333333, "is_disabled": 0, "fusion_lat": 0.0, "lat": 38.90665216666667, "bike_id": "9379570deede971143c951582ada3043", "fusion_lon": 0.0}, {"rental_uris": {"ios": "https://dc.lft.to/lastmile_qr_scan", "android": "https://dc.lft.to/lastmile_qr_scan"}, "type": "electric_scooter", "name": "b9c253f5d964c22c9ae1829ff742b79f", "is_reserved": 0, "lon": -77.04123016666667, "is_disabled": 0, "fusion_lat": 0.0, "lat": 38.921729666666664, "bike_id": "b9c253f5d964c22c9ae1829ff742b79f", "fusion_lon": 0.0}, {"rental_uris": {"ios": "https://dc.lft.to/lastmile_qr_scan", "android": "https://dc.lft.to/lastmile_qr_scan"}, "type": "electric_scooter", "name": "455a28c1e32cadf8590fc01bb44d75e1", "is_reserved": 0, "lon": -76.95204466666667, "is_disabled": 0, "fusion_lat": 0.0, "lat": 38.905133666666664, "bike_id": "455a28c1e32cadf8590fc01bb44d75e1", "fusion_lon": 0.0}, {"rental_uris": {"ios": "https://dc.lft.to/lastmile_qr_scan", "android": "https://dc.lft.to/lastmile_qr_scan"}, "type": "electric_scooter", "name": "312e337700ef80ae94d9112b964dc047", "is_reserved": 0, "lon": -77.03258233333334, "is_disabled": 0, "fusion_lat": 0.0, "lat": 38.9397595, "bike_id": "312e337700ef80ae94d9112b964dc047", "fusion_lon": 0.0}, {"rental_uris": {"ios": "https://dc.lft.to/lastmile_qr_scan", "android": "https://dc.lft.to/lastmile_qr_scan"}, "type": "electric_scooter", "name": "c17ea4c7a4edc382f56caa4dc1e44dc6", "is_reserved": 0, "lon": -77.01765683333333, "is_disabled": 0, "fusion_lat": 0.0, "lat": 38.90505733333333, "bike_id": "c17ea4c7a4edc382f56caa4dc1e44dc6", "fusion_lon": 0.0}, {"rental_uris": {"ios": "https://dc.lft.to/lastmile_qr_scan", "android": "https://dc.lft.to/lastmile_qr_scan"}, "type": "electric_scooter", "name": "696cd81f19973344cc9f87aaafc7888e", "is_reserved": 0, "lon": -77.0199465, "is_disabled": 0, "fusion_lat": 0.0, "lat": 38.966287666666666, "bike_id": "696cd81f19973344cc9f87aaafc7888e", "fusion_lon": 0.0}, {"rental_uris": {"ios": "https://dc.lft.to/lastmile_qr_scan", "android": "https://dc.lft.to/lastmile_qr_scan"}, "type": "electric_scooter", "name": "5989fae7a4307f0a7adbab99cc807f38", "is_reserved": 0, "lon": -77.034445, "is_disabled": 0, "fusion_lat": 0.0, "lat": 38.9073785, "bike_id": "5989fae7a4307f0a7adbab99cc807f38", "fusion_lon": 0.0}, {"rental_uris": {"ios": "https://dc.lft.to/lastmile_qr_scan", "android": "https://dc.lft.to/lastmile_qr_scan"}, "type": "electric_scooter", "name": "c4ea167e1c47f0cf4149c5a10bbced72", "is_reserved": 0, "lon": -77.01756083333333, "is_disabled": 0, "fusion_lat": 0.0, "lat": 38.87681533333333, "bike_id": "c4ea167e1c47f0cf4149c5a10bbced72", "fusion_lon": 0.0}, {"rental_uris": {"ios": "https://dc.lft.to/lastmile_qr_scan", "android": "https://dc.lft.to/lastmile_qr_scan"}, "type": "electric_scooter", "name": "47c47b3f2348f8dacd2db0ae307ba97e", "is_reserved": 0, "lon": -77.005771, "is_disabled": 0, "fusion_lat": 0.0, "lat": 38.90569466666667, "bike_id": "47c47b3f2348f8dacd2db0ae307ba97e", "fusion_lon": 0.0}, {"rental_uris": {"ios": "https://dc.lft.to/lastmile_qr_scan", "android": "https://dc.lft.to/lastmile_qr_scan"}, "type": "electric_scooter", "name": "0ff28570a45861f9fefbc776d4e44a3f", "is_reserved": 0, "lon": -77.04153833333334, "is_disabled": 0, "fusion_lat": 0.0, "lat": 38.907222166666664, "bike_id": "0ff28570a45861f9fefbc776d4e44a3f", "fusion_lon": 0.0}, {"rental_uris": {"ios": "https://dc.lft.to/lastmile_qr_scan", "android": "https://dc.lft.to/lastmile_qr_scan"}, "type": "electric_scooter", "name": "3415cdb935203dfa8ebc0714e56f7543", "is_reserved": 0, "lon": -77.04627333333333, "is_disabled": 0, "fusion_lat": 0.0, "lat": 38.89736633333333, "bike_id": "3415cdb935203dfa8ebc0714e56f7543", "fusion_lon": 0.0}, {"rental_uris": {"ios": "https://dc.lft.to/lastmile_qr_scan", "android": "https://dc.lft.to/lastmile_qr_scan"}, "type": "electric_scooter", "name": "4b26df7788707ff9f0d66658574ed8fb", "is_reserved": 0, "lon": -76.928279, "is_disabled": 0, "fusion_lat": 0.0, "lat": 38.9017815, "bike_id": "4b26df7788707ff9f0d66658574ed8fb", "fusion_lon": 0.0}, {"rental_uris": {"ios": "https://dc.lft.to/lastmile_qr_scan", "android": "https://dc.lft.to/lastmile_qr_scan"}, "type": "electric_scooter", "name": "2574a960a9f22940b8a1142930f10409", "is_reserved": 0, "lon": -77.02474183333334, "is_disabled": 0, "fusion_lat": 0.0, "lat": 38.9181285, "bike_id": "2574a960a9f22940b8a1142930f10409", "fusion_lon": 0.0}, {"rental_uris": {"ios": "https://dc.lft.to/lastmile_qr_scan", "android": "https://dc.lft.to/lastmile_qr_scan"}, "type": "electric_bike", "name": "38e4a3b797d012f1924961bff1c3cb4d", "is_reserved": 0, "lon": -76.99584883333333, "is_disabled": 0, "fusion_lat": 0.0, "lat": 38.86218133333333, "bike_id": "38e4a3b797d012f1924961bff1c3cb4d", "fusion_lon": 0.0}, {"rental_uris": {"ios": "https://dc.lft.to/lastmile_qr_scan", "android": "https://dc.lft.to/lastmile_qr_scan"}, "type": "electric_scooter", "name": "99703fa70a61d993cbc8a74c9c849cb0", "is_reserved": 0, "lon": -77.06372616666667, "is_disabled": 0, "fusion_lat": 0.0, "lat": 38.93558916666667, "bike_id": "99703fa70a61d993cbc8a74c9c849cb0", "fusion_lon": 0.0}, {"rental_uris": {"ios": "https://dc.lft.to/lastmile_qr_scan", "android": "https://dc.lft.to/lastmile_qr_scan"}, "type": "electric_scooter", "name": "b0c5434a4e2a26be71d66bcfe767e37f", "is_reserved": 0, "lon": -77.03804, "is_disabled": 0, "fusion_lat": 0.0, "lat": 38.93219066666666, "bike_id": "b0c5434a4e2a26be71d66bcfe767e37f", "fusion_lon": 0.0}, {"rental_uris": {"ios": "https://dc.lft.to/lastmile_qr_scan", "android": "https://dc.lft.to/lastmile_qr_scan"}, "type": "electric_scooter", "name": "f949f115c6bf5573cb55f560b4d87874", "is_reserved": 0, "lon": -77.03354516666667, "is_disabled": 0, "fusion_lat": 0.0, "lat": 38.92147966666667, "bike_id": "f949f115c6bf5573cb55f560b4d87874", "fusion_lon": 0.0}, {"rental_uris": {"ios": "https://dc.lft.to/lastmile_qr_scan", "android": "https://dc.lft.to/lastmile_qr_scan"}, "type": "electric_scooter", "name": "e23d62815bd233eedd7a67de77b05b63", "is_reserved": 0, "lon": -77.0213135, "is_disabled": 0, "fusion_lat": 0.0, "lat": 38.932817, "bike_id": "e23d62815bd233eedd7a67de77b05b63", "fusion_lon": 0.0}, {"rental_uris": {"ios": "https://dc.lft.to/lastmile_qr_scan", "android": "https://dc.lft.to/lastmile_qr_scan"}, "type": "electric_scooter", "name": "a6af3b68cd9a3fac090015fdb1dc3ada", "is_reserved": 0, "lon": -77.01948333333333, "is_disabled": 0, "fusion_lat": 0.0, "lat": 38.900974, "bike_id": "a6af3b68cd9a3fac090015fdb1dc3ada", "fusion_lon": 0.0}, {"rental_uris": {"ios": "https://dc.lft.to/lastmile_qr_scan", "android": "https://dc.lft.to/lastmile_qr_scan"}, "type": "electric_scooter", "name": "1c485a5d9decfb601674c314929ba472", "is_reserved": 0, "lon": -77.012177, "is_disabled": 0, "fusion_lat": 0.0, "lat": 38.91496566666667, "bike_id": "1c485a5d9decfb601674c314929ba472", "fusion_lon": 0.0}, {"rental_uris": {"ios": "https://dc.lft.to/lastmile_qr_scan", "android": "https://dc.lft.to/lastmile_qr_scan"}, "type": "electric_scooter", "name": "524b545ca2c5a76e7218ce56c33e96c8", "is_reserved": 0, "lon": -77.04862016666667, "is_disabled": 0, "fusion_lat": 0.0, "lat": 38.9047445, "bike_id": "524b545ca2c5a76e7218ce56c33e96c8", "fusion_lon": 0.0}, {"rental_uris": {"ios": "https://dc.lft.to/lastmile_qr_scan", "android": "https://dc.lft.to/lastmile_qr_scan"}, "type": "electric_bike", "name": "88536d72e940f825a330f5818a5a691c", "is_reserved": 0, "lon": -77.12650233333333, "is_disabled": 0, "fusion_lat": 0.0, "lat": 38.819064166666664, "bike_id": "88536d72e940f825a330f5818a5a691c", "fusion_lon": 0.0}, {"rental_uris": {"ios": "https://dc.lft.to/lastmile_qr_scan", "android": "https://dc.lft.to/lastmile_qr_scan"}, "type": "electric_scooter", "name": "f0249b5b02980dd6ec3a1e08cb899a68", "is_reserved": 0, "lon": -77.038337, "is_disabled": 0, "fusion_lat": 0.0, "lat": 38.912789833333335, "bike_id": "f0249b5b02980dd6ec3a1e08cb899a68", "fusion_lon": 0.0}, {"rental_uris": {"ios": "https://dc.lft.to/lastmile_qr_scan", "android": "https://dc.lft.to/lastmile_qr_scan"}, "type": "electric_scooter", "name": "4d68a4a8c183543c380cddb7b03b81d7", "is_reserved": 0, "lon": -76.94705916666666, "is_disabled": 0, "fusion_lat": 0.0, "lat": 38.892995, "bike_id": "4d68a4a8c183543c380cddb7b03b81d7", "fusion_lon": 0.0}, {"rental_uris": {"ios": "https://dc.lft.to/lastmile_qr_scan", "android": "https://dc.lft.to/lastmile_qr_scan"}, "type": "electric_scooter", "name": "3c35ced1000c9e4b79c60fcd3afaf7ff", "is_reserved": 0, "lon": -77.00755066666666, "is_disabled": 0, "fusion_lat": 0.0, "lat": 38.925243, "bike_id": "3c35ced1000c9e4b79c60fcd3afaf7ff", "fusion_lon": 0.0}, {"rental_uris": {"ios": "https://dc.lft.to/lastmile_qr_scan", "android": "https://dc.lft.to/lastmile_qr_scan"}, "type": "electric_scooter", "name": "7c45823c982f8a4044d3cb395cf98389", "is_reserved": 0, "lon": -77.03917183333333, "is_disabled": 0, "fusion_lat": 0.0, "lat": 38.8985105, "bike_id": "7c45823c982f8a4044d3cb395cf98389", "fusion_lon": 0.0}, {"rental_uris": {"ios": "https://dc.lft.to/lastmile_qr_scan", "android": "https://dc.lft.to/lastmile_qr_scan"}, "type": "electric_scooter", "name": "2a3b491e21a85d1755f4505a62d89a64", "is_reserved": 0, "lon": -77.0230455, "is_disabled": 0, "fusion_lat": 0.0, "lat": 38.9135045, "bike_id": "2a3b491e21a85d1755f4505a62d89a64", "fusion_lon": 0.0}, {"rental_uris": {"ios": "https://dc.lft.to/lastmile_qr_scan", "android": "https://dc.lft.to/lastmile_qr_scan"}, "type": "electric_scooter", "name": "08010e5e14b5adad37801ff88028358e", "is_reserved": 0, "lon": -77.03905983333334, "is_disabled": 0, "fusion_lat": 0.0, "lat": 38.898458833333336, "bike_id": "08010e5e14b5adad37801ff88028358e", "fusion_lon": 0.0}, {"rental_uris": {"ios": "https://dc.lft.to/lastmile_qr_scan", "android": "https://dc.lft.to/lastmile_qr_scan"}, "type": "electric_scooter", "name": "f726c5d827e087b4b975c5e0b0d1b2bc", "is_reserved": 0, "lon": -77.00191083333333, "is_disabled": 0, "fusion_lat": 0.0, "lat": 38.903779166666666, "bike_id": "f726c5d827e087b4b975c5e0b0d1b2bc", "fusion_lon": 0.0}, {"rental_uris": {"ios": "https://dc.lft.to/lastmile_qr_scan", "android": "https://dc.lft.to/lastmile_qr_scan"}, "type": "electric_scooter", "name": "76d2dabbbce4590e1a63e8430dcbf96e", "is_reserved": 0, "lon": -77.02151366666666, "is_disabled": 0, "fusion_lat": 0.0, "lat": 38.926050833333335, "bike_id": "76d2dabbbce4590e1a63e8430dcbf96e", "fusion_lon": 0.0}, {"rental_uris": {"ios": "https://dc.lft.to/lastmile_qr_scan", "android": "https://dc.lft.to/lastmile_qr_scan"}, "type": "electric_bike", "name": "ba3a0fe2f43e3882755383344e7baf80", "is_reserved": 0, "lon": -77.09011783333334, "is_disabled": 0, "fusion_lat": 0.0, "lat": 38.926588833333334, "bike_id": "ba3a0fe2f43e3882755383344e7baf80", "fusion_lon": 0.0}, {"rental_uris": {"ios": "https://dc.lft.to/lastmile_qr_scan", "android": "https://dc.lft.to/lastmile_qr_scan"}, "type": "electric_scooter", "name": "f27ab6fba5cf3b9206064ac3eea2cbb1", "is_reserved": 0, "lon": -77.02015733333333, "is_disabled": 0, "fusion_lat": 0.0, "lat": 38.8997175, "bike_id": "f27ab6fba5cf3b9206064ac3eea2cbb1", "fusion_lon": 0.0}, {"rental_uris": {"ios": "https://dc.lft.to/lastmile_qr_scan", "android": "https://dc.lft.to/lastmile_qr_scan"}, "type": "electric_bike", "name": "878794d260cb5603d46fd0c19ee0bed0", "is_reserved": 0, "lon": -77.1268005, "is_disabled": 0, "fusion_lat": 0.0, "lat": 38.89575983333334, "bike_id": "878794d260cb5603d46fd0c19ee0bed0", "fusion_lon": 0.0}, {"rental_uris": {"ios": "https://dc.lft.to/lastmile_qr_scan", "android": "https://dc.lft.to/lastmile_qr_scan"}, "type": "electric_scooter", "name": "50ac320d7fb34bf95a58b5b6f8ddd9e2", "is_reserved": 0, "lon": -76.98587633333334, "is_disabled": 0, "fusion_lat": 0.0, "lat": 38.86187566666667, "bike_id": "50ac320d7fb34bf95a58b5b6f8ddd9e2", "fusion_lon": 0.0}, {"rental_uris": {"ios": "https://dc.lft.to/lastmile_qr_scan", "android": "https://dc.lft.to/lastmile_qr_scan"}, "type": "electric_bike", "name": "8870b20ad32c8066a2fba11875914683", "is_reserved": 0, "lon": -77.00753933333333, "is_disabled": 0, "fusion_lat": 0.0, "lat": 38.98102983333333, "bike_id": "8870b20ad32c8066a2fba11875914683", "fusion_lon": 0.0}, {"rental_uris": {"ios": "https://dc.lft.to/lastmile_qr_scan", "android": "https://dc.lft.to/lastmile_qr_scan"}, "type": "electric_scooter", "name": "8cbf15bd5dd17d83ec524df083100267", "is_reserved": 0, "lon": -77.02555, "is_disabled": 0, "fusion_lat": 0.0, "lat": 38.938587166666665, "bike_id": "8cbf15bd5dd17d83ec524df083100267", "fusion_lon": 0.0}, {"rental_uris": {"ios": "https://dc.lft.to/lastmile_qr_scan", "android": "https://dc.lft.to/lastmile_qr_scan"}, "type": "electric_scooter", "name": "7f091534e53bfad0074d7989192ad72e", "is_reserved": 0, "lon": -77.0210005, "is_disabled": 0, "fusion_lat": 0.0, "lat": 38.92148683333333, "bike_id": "7f091534e53bfad0074d7989192ad72e", "fusion_lon": 0.0}, {"rental_uris": {"ios": "https://dc.lft.to/lastmile_qr_scan", "android": "https://dc.lft.to/lastmile_qr_scan"}, "type": "electric_scooter", "name": "651cd5f0030e319084d564ba8fa32cde", "is_reserved": 0, "lon": -77.00699916666666, "is_disabled": 0, "fusion_lat": 0.0, "lat": 38.905783666666665, "bike_id": "651cd5f0030e319084d564ba8fa32cde", "fusion_lon": 0.0}, {"rental_uris": {"ios": "https://dc.lft.to/lastmile_qr_scan", "android": "https://dc.lft.to/lastmile_qr_scan"}, "type": "electric_scooter", "name": "e9708b4102b631ebb6c76257e9416b27", "is_reserved": 0, "lon": -76.958827, "is_disabled": 0, "fusion_lat": 0.0, "lat": 38.85838866666667, "bike_id": "e9708b4102b631ebb6c76257e9416b27", "fusion_lon": 0.0}, {"rental_uris": {"ios": "https://dc.lft.to/lastmile_qr_scan", "android": "https://dc.lft.to/lastmile_qr_scan"}, "type": "electric_bike", "name": "2de0110350c5ea88170df4bd3d83bcfe", "is_reserved": 0, "lon": -76.956947, "is_disabled": 0, "fusion_lat": 0.0, "lat": 38.8508855, "bike_id": "2de0110350c5ea88170df4bd3d83bcfe", "fusion_lon": 0.0}, {"rental_uris": {"ios": "https://dc.lft.to/lastmile_qr_scan", "android": "https://dc.lft.to/lastmile_qr_scan"}, "type": "electric_scooter", "name": "1768fd4bc0edbd26a63dfdbd08297339", "is_reserved": 0, "lon": -77.02526466666667, "is_disabled": 0, "fusion_lat": 0.0, "lat": 38.89836183333333, "bike_id": "1768fd4bc0edbd26a63dfdbd08297339", "fusion_lon": 0.0}, {"rental_uris": {"ios": "https://dc.lft.to/lastmile_qr_scan", "android": "https://dc.lft.to/lastmile_qr_scan"}, "type": "electric_scooter", "name": "bb4db2ed5c609f920b236db2d1c34dcb", "is_reserved": 0, "lon": -77.0241395, "is_disabled": 0, "fusion_lat": 0.0, "lat": 38.926572166666666, "bike_id": "bb4db2ed5c609f920b236db2d1c34dcb", "fusion_lon": 0.0}, {"rental_uris": {"ios": "https://dc.lft.to/lastmile_qr_scan", "android": "https://dc.lft.to/lastmile_qr_scan"}, "type": "electric_scooter", "name": "93e2f4d612855ae560412b4cb03552e4", "is_reserved": 0, "lon": -77.04187183333333, "is_disabled": 0, "fusion_lat": 0.0, "lat": 38.920507666666666, "bike_id": "93e2f4d612855ae560412b4cb03552e4", "fusion_lon": 0.0}, {"rental_uris": {"ios": "https://dc.lft.to/lastmile_qr_scan", "android": "https://dc.lft.to/lastmile_qr_scan"}, "type": "electric_bike", "name": "21d79c9cdc364cf1bff95042682bb88e", "is_reserved": 0, "lon": -77.00135516666667, "is_disabled": 0, "fusion_lat": 0.0, "lat": 38.9949955, "bike_id": "21d79c9cdc364cf1bff95042682bb88e", "fusion_lon": 0.0}, {"rental_uris": {"ios": "https://dc.lft.to/lastmile_qr_scan", "android": "https://dc.lft.to/lastmile_qr_scan"}, "type": "electric_scooter", "name": "ece55c1268a23843c9330025ce4953ca", "is_reserved": 0, "lon": -76.97569033333333, "is_disabled": 0, "fusion_lat": 0.0, "lat": 38.94422133333333, "bike_id": "ece55c1268a23843c9330025ce4953ca", "fusion_lon": 0.0}, {"rental_uris": {"ios": "https://dc.lft.to/lastmile_qr_scan", "android": "https://dc.lft.to/lastmile_qr_scan"}, "type": "electric_scooter", "name": "1cbdeb6dda9a5725802b32dbfba90871", "is_reserved": 0, "lon": -76.9979275, "is_disabled": 0, "fusion_lat": 0.0, "lat": 38.8763325, "bike_id": "1cbdeb6dda9a5725802b32dbfba90871", "fusion_lon": 0.0}, {"rental_uris": {"ios": "https://dc.lft.to/lastmile_qr_scan", "android": "https://dc.lft.to/lastmile_qr_scan"}, "type": "electric_scooter", "name": "6bc3101295510c7f00f1136a232652c0", "is_reserved": 0, "lon": -77.02504566666667, "is_disabled": 0, "fusion_lat": 0.0, "lat": 38.9206655, "bike_id": "6bc3101295510c7f00f1136a232652c0", "fusion_lon": 0.0}, {"rental_uris": {"ios": "https://dc.lft.to/lastmile_qr_scan", "android": "https://dc.lft.to/lastmile_qr_scan"}, "type": "electric_bike", "name": "bc2dd1bcdcff3fdfab573e42d5d9053b", "is_reserved": 0, "lon": -76.9579325, "is_disabled": 0, "fusion_lat": 0.0, "lat": 38.980456333333336, "bike_id": "bc2dd1bcdcff3fdfab573e42d5d9053b", "fusion_lon": 0.0}, {"rental_uris": {"ios": "https://dc.lft.to/lastmile_qr_scan", "android": "https://dc.lft.to/lastmile_qr_scan"}, "type": "electric_scooter", "name": "2f44f68e08e0d314951e316b156e7ded", "is_reserved": 0, "lon": -77.03215433333334, "is_disabled": 0, "fusion_lat": 0.0, "lat": 38.908668, "bike_id": "2f44f68e08e0d314951e316b156e7ded", "fusion_lon": 0.0}, {"rental_uris": {"ios": "https://dc.lft.to/lastmile_qr_scan", "android": "https://dc.lft.to/lastmile_qr_scan"}, "type": "electric_scooter", "name": "7a75d29303a17cf78e7ddf22b732f461", "is_reserved": 0, "lon": -77.07759516666667, "is_disabled": 0, "fusion_lat": 0.0, "lat": 38.92555, "bike_id": "7a75d29303a17cf78e7ddf22b732f461", "fusion_lon": 0.0}, {"rental_uris": {"ios": "https://dc.lft.to/lastmile_qr_scan", "android": "https://dc.lft.to/lastmile_qr_scan"}, "type": "electric_scooter", "name": "2d72b6feaa99a554cc557dc53841ec61", "is_reserved": 0, "lon": -77.02638316666666, "is_disabled": 0, "fusion_lat": 0.0, "lat": 38.903122833333335, "bike_id": "2d72b6feaa99a554cc557dc53841ec61", "fusion_lon": 0.0}, {"rental_uris": {"ios": "https://dc.lft.to/lastmile_qr_scan", "android": "https://dc.lft.to/lastmile_qr_scan"}, "type": "electric_scooter", "name": "01b0f8c5cfb5f9b62fccceb081b78eea", "is_reserved": 0, "lon": -76.9959665, "is_disabled": 0, "fusion_lat": 0.0, "lat": 38.900243833333334, "bike_id": "01b0f8c5cfb5f9b62fccceb081b78eea", "fusion_lon": 0.0}, {"rental_uris": {"ios": "https://dc.lft.to/lastmile_qr_scan", "android": "https://dc.lft.to/lastmile_qr_scan"}, "type": "electric_scooter", "name": "128e5675ab36fb28edbd06ea3ae8666e", "is_reserved": 0, "lon": -77.0272585, "is_disabled": 0, "fusion_lat": 0.0, "lat": 38.92484266666666, "bike_id": "128e5675ab36fb28edbd06ea3ae8666e", "fusion_lon": 0.0}, {"rental_uris": {"ios": "https://dc.lft.to/lastmile_qr_scan", "android": "https://dc.lft.to/lastmile_qr_scan"}, "type": "electric_scooter", "name": "f4ed8490d2da9a67d8cd9ccb95193339", "is_reserved": 0, "lon": -77.03436433333333, "is_disabled": 0, "fusion_lat": 0.0, "lat": 38.909697333333334, "bike_id": "f4ed8490d2da9a67d8cd9ccb95193339", "fusion_lon": 0.0}, {"rental_uris": {"ios": "https://dc.lft.to/lastmile_qr_scan", "android": "https://dc.lft.to/lastmile_qr_scan"}, "type": "electric_scooter", "name": "9852586b8692deff1ceb31d9331172a8", "is_reserved": 0, "lon": -77.03026216666666, "is_disabled": 0, "fusion_lat": 0.0, "lat": 38.92243033333333, "bike_id": "9852586b8692deff1ceb31d9331172a8", "fusion_lon": 0.0}, {"rental_uris": {"ios": "https://dc.lft.to/lastmile_qr_scan", "android": "https://dc.lft.to/lastmile_qr_scan"}, "type": "electric_scooter", "name": "e012c9c60c977779d60509ceae25e431", "is_reserved": 0, "lon": -77.03268966666667, "is_disabled": 0, "fusion_lat": 0.0, "lat": 38.932629166666665, "bike_id": "e012c9c60c977779d60509ceae25e431", "fusion_lon": 0.0}, {"rental_uris": {"ios": "https://dc.lft.to/lastmile_qr_scan", "android": "https://dc.lft.to/lastmile_qr_scan"}, "type": "electric_scooter", "name": "6027e540d5fa46e5a71e7fbd5778ccb9", "is_reserved": 0, "lon": -77.03712733333333, "is_disabled": 0, "fusion_lat": 0.0, "lat": 38.926524666666666, "bike_id": "6027e540d5fa46e5a71e7fbd5778ccb9", "fusion_lon": 0.0}, {"rental_uris": {"ios": "https://dc.lft.to/lastmile_qr_scan", "android": "https://dc.lft.to/lastmile_qr_scan"}, "type": "electric_scooter", "name": "ba1694946112fd01cd0244a7f6d4f680", "is_reserved": 0, "lon": -77.05316533333334, "is_disabled": 0, "fusion_lat": 0.0, "lat": 38.9026925, "bike_id": "ba1694946112fd01cd0244a7f6d4f680", "fusion_lon": 0.0}, {"rental_uris": {"ios": "https://dc.lft.to/lastmile_qr_scan", "android": "https://dc.lft.to/lastmile_qr_scan"}, "type": "electric_scooter", "name": "a5b9bc6a5d0d3c0fd704efdc5c79bf8a", "is_reserved": 0, "lon": -77.00046433333333, "is_disabled": 0, "fusion_lat": 0.0, "lat": 38.923278833333335, "bike_id": "a5b9bc6a5d0d3c0fd704efdc5c79bf8a", "fusion_lon": 0.0}, {"rental_uris": {"ios": "https://dc.lft.to/lastmile_qr_scan", "android": "https://dc.lft.to/lastmile_qr_scan"}, "type": "electric_scooter", "name": "3dd991869009b48daec77fa6d16a2617", "is_reserved": 0, "lon": -77.02693383333333, "is_disabled": 0, "fusion_lat": 0.0, "lat": 38.949783, "bike_id": "3dd991869009b48daec77fa6d16a2617", "fusion_lon": 0.0}, {"rental_uris": {"ios": "https://dc.lft.to/lastmile_qr_scan", "android": "https://dc.lft.to/lastmile_qr_scan"}, "type": "electric_scooter", "name": "ed05c39ad7d41c17328c26c45ca63b56", "is_reserved": 0, "lon": -77.03336933333334, "is_disabled": 0, "fusion_lat": 0.0, "lat": 38.892231, "bike_id": "ed05c39ad7d41c17328c26c45ca63b56", "fusion_lon": 0.0}, {"rental_uris": {"ios": "https://dc.lft.to/lastmile_qr_scan", "android": "https://dc.lft.to/lastmile_qr_scan"}, "type": "electric_bike", "name": "17bf078cc5b05478ac4cfdde212243ef", "is_reserved": 0, "lon": -77.04424066666667, "is_disabled": 0, "fusion_lat": 0.0, "lat": 39.015668, "bike_id": "17bf078cc5b05478ac4cfdde212243ef", "fusion_lon": 0.0}, {"rental_uris": {"ios": "https://dc.lft.to/lastmile_qr_scan", "android": "https://dc.lft.to/lastmile_qr_scan"}, "type": "electric_bike", "name": "6914a885954ecc55438f5b41a025e91a", "is_reserved": 0, "lon": -77.12741766666667, "is_disabled": 0, "fusion_lat": 0.0, "lat": 38.89567983333333, "bike_id": "6914a885954ecc55438f5b41a025e91a", "fusion_lon": 0.0}, {"rental_uris": {"ios": "https://dc.lft.to/lastmile_qr_scan", "android": "https://dc.lft.to/lastmile_qr_scan"}, "type": "electric_bike", "name": "e1a49c18e6ac8603cda4f9f09424e9b3", "is_reserved": 0, "lon": -77.03422166666667, "is_disabled": 0, "fusion_lat": 0.0, "lat": 38.965313333333334, "bike_id": "e1a49c18e6ac8603cda4f9f09424e9b3", "fusion_lon": 0.0}, {"rental_uris": {"ios": "https://dc.lft.to/lastmile_qr_scan", "android": "https://dc.lft.to/lastmile_qr_scan"}, "type": "electric_bike", "name": "f388d5d342c014389c34aa78bf99412e", "is_reserved": 0, "lon": -77.09621616666666, "is_disabled": 0, "fusion_lat": 0.0, "lat": 38.9524675, "bike_id": "f388d5d342c014389c34aa78bf99412e", "fusion_lon": 0.0}, {"rental_uris": {"ios": "https://dc.lft.to/lastmile_qr_scan", "android": "https://dc.lft.to/lastmile_qr_scan"}, "type": "electric_scooter", "name": "be8e7f7c5f18b096a6f0bbac81138105", "is_reserved": 0, "lon": -76.99627716666667, "is_disabled": 0, "fusion_lat": 0.0, "lat": 38.89181283333333, "bike_id": "be8e7f7c5f18b096a6f0bbac81138105", "fusion_lon": 0.0}, {"rental_uris": {"ios": "https://dc.lft.to/lastmile_qr_scan", "android": "https://dc.lft.to/lastmile_qr_scan"}, "type": "electric_scooter", "name": "7cc0ef434f7df90bc58c2bbb23c00ec0", "is_reserved": 0, "lon": -77.02291633333333, "is_disabled": 0, "fusion_lat": 0.0, "lat": 38.907432, "bike_id": "7cc0ef434f7df90bc58c2bbb23c00ec0", "fusion_lon": 0.0}, {"rental_uris": {"ios": "https://dc.lft.to/lastmile_qr_scan", "android": "https://dc.lft.to/lastmile_qr_scan"}, "type": "electric_scooter", "name": "1a31eff6f97ad00efa781daae5ecd616", "is_reserved": 0, "lon": -77.0098795, "is_disabled": 0, "fusion_lat": 0.0, "lat": 38.9112045, "bike_id": "1a31eff6f97ad00efa781daae5ecd616", "fusion_lon": 0.0}, {"rental_uris": {"ios": "https://dc.lft.to/lastmile_qr_scan", "android": "https://dc.lft.to/lastmile_qr_scan"}, "type": "electric_scooter", "name": "c2e028c676a787702c3f643d61e83e64", "is_reserved": 0, "lon": -77.036641, "is_disabled": 0, "fusion_lat": 0.0, "lat": 38.922882, "bike_id": "c2e028c676a787702c3f643d61e83e64", "fusion_lon": 0.0}, {"rental_uris": {"ios": "https://dc.lft.to/lastmile_qr_scan", "android": "https://dc.lft.to/lastmile_qr_scan"}, "type": "electric_scooter", "name": "cfc54e861d7357c0a08a383b1e4ab1fd", "is_reserved": 0, "lon": -77.02045766666667, "is_disabled": 0, "fusion_lat": 0.0, "lat": 38.9224985, "bike_id": "cfc54e861d7357c0a08a383b1e4ab1fd", "fusion_lon": 0.0}, {"rental_uris": {"ios": "https://dc.lft.to/lastmile_qr_scan", "android": "https://dc.lft.to/lastmile_qr_scan"}, "type": "electric_bike", "name": "6d6e67f0eebeb5da3cac5f3db31463a4", "is_reserved": 0, "lon": -77.020087, "is_disabled": 0, "fusion_lat": 0.0, "lat": 38.9643885, "bike_id": "6d6e67f0eebeb5da3cac5f3db31463a4", "fusion_lon": 0.0}, {"rental_uris": {"ios": "https://dc.lft.to/lastmile_qr_scan", "android": "https://dc.lft.to/lastmile_qr_scan"}, "type": "electric_scooter", "name": "66fb02b77867d7136862703c11ec6779", "is_reserved": 0, "lon": -77.03444316666666, "is_disabled": 0, "fusion_lat": 0.0, "lat": 38.90972266666667, "bike_id": "66fb02b77867d7136862703c11ec6779", "fusion_lon": 0.0}, {"rental_uris": {"ios": "https://dc.lft.to/lastmile_qr_scan", "android": "https://dc.lft.to/lastmile_qr_scan"}, "type": "electric_scooter", "name": "b0f7c7f708cfcf775cbc54b48d0233db", "is_reserved": 0, "lon": -77.019812, "is_disabled": 0, "fusion_lat": 0.0, "lat": 38.899328, "bike_id": "b0f7c7f708cfcf775cbc54b48d0233db", "fusion_lon": 0.0}, {"rental_uris": {"ios": "https://dc.lft.to/lastmile_qr_scan", "android": "https://dc.lft.to/lastmile_qr_scan"}, "type": "electric_scooter", "name": "8c7c5dd3f0ffe3692db38f22a84df40e", "is_reserved": 0, "lon": -77.000995, "is_disabled": 0, "fusion_lat": 0.0, "lat": 38.881256666666665, "bike_id": "8c7c5dd3f0ffe3692db38f22a84df40e", "fusion_lon": 0.0}, {"rental_uris": {"ios": "https://dc.lft.to/lastmile_qr_scan", "android": "https://dc.lft.to/lastmile_qr_scan"}, "type": "electric_scooter", "name": "8918f653cbe407b0d9d1be7d244e397f", "is_reserved": 0, "lon": -77.01860683333334, "is_disabled": 0, "fusion_lat": 0.0, "lat": 38.9489285, "bike_id": "8918f653cbe407b0d9d1be7d244e397f", "fusion_lon": 0.0}, {"rental_uris": {"ios": "https://dc.lft.to/lastmile_qr_scan", "android": "https://dc.lft.to/lastmile_qr_scan"}, "type": "electric_scooter", "name": "726245ef9e2e303997877f7cc2c7f67f", "is_reserved": 0, "lon": -77.02330166666667, "is_disabled": 0, "fusion_lat": 0.0, "lat": 38.92296733333333, "bike_id": "726245ef9e2e303997877f7cc2c7f67f", "fusion_lon": 0.0}, {"rental_uris": {"ios": "https://dc.lft.to/lastmile_qr_scan", "android": "https://dc.lft.to/lastmile_qr_scan"}, "type": "electric_scooter", "name": "cb8ffb406ae2b2262af106c9c0d68568", "is_reserved": 0, "lon": -77.03047166666667, "is_disabled": 0, "fusion_lat": 0.0, "lat": 38.884156833333336, "bike_id": "cb8ffb406ae2b2262af106c9c0d68568", "fusion_lon": 0.0}, {"rental_uris": {"ios": "https://dc.lft.to/lastmile_qr_scan", "android": "https://dc.lft.to/lastmile_qr_scan"}, "type": "electric_scooter", "name": "a0bd7772b5b4dc5fc7aeacb63fb84017", "is_reserved": 0, "lon": -76.98262466666667, "is_disabled": 0, "fusion_lat": 0.0, "lat": 38.86630983333333, "bike_id": "a0bd7772b5b4dc5fc7aeacb63fb84017", "fusion_lon": 0.0}, {"rental_uris": {"ios": "https://dc.lft.to/lastmile_qr_scan", "android": "https://dc.lft.to/lastmile_qr_scan"}, "type": "electric_scooter", "name": "66e1a452b0ede99987449dc9534fe6a6", "is_reserved": 0, "lon": -77.0421385, "is_disabled": 0, "fusion_lat": 0.0, "lat": 38.9213565, "bike_id": "66e1a452b0ede99987449dc9534fe6a6", "fusion_lon": 0.0}, {"rental_uris": {"ios": "https://dc.lft.to/lastmile_qr_scan", "android": "https://dc.lft.to/lastmile_qr_scan"}, "type": "electric_bike", "name": "98ae073e6a19bcb4a00d12b546688a83", "is_reserved": 0, "lon": -77.0795085, "is_disabled": 0, "fusion_lat": 0.0, "lat": 38.848965666666665, "bike_id": "98ae073e6a19bcb4a00d12b546688a83", "fusion_lon": 0.0}, {"rental_uris": {"ios": "https://dc.lft.to/lastmile_qr_scan", "android": "https://dc.lft.to/lastmile_qr_scan"}, "type": "electric_scooter", "name": "d56061cd1554decd6ff7587fab261ae1", "is_reserved": 0, "lon": -77.05326066666667, "is_disabled": 0, "fusion_lat": 0.0, "lat": 38.902716166666664, "bike_id": "d56061cd1554decd6ff7587fab261ae1", "fusion_lon": 0.0}, {"rental_uris": {"ios": "https://dc.lft.to/lastmile_qr_scan", "android": "https://dc.lft.to/lastmile_qr_scan"}, "type": "electric_scooter", "name": "c7a68f48a3a5cfaeb43df258d253625b", "is_reserved": 0, "lon": -77.06706033333333, "is_disabled": 0, "fusion_lat": 0.0, "lat": 38.94790283333333, "bike_id": "c7a68f48a3a5cfaeb43df258d253625b", "fusion_lon": 0.0}, {"rental_uris": {"ios": "https://dc.lft.to/lastmile_qr_scan", "android": "https://dc.lft.to/lastmile_qr_scan"}, "type": "electric_bike", "name": "7d58964a2d319de66fe850fd2ce418bb", "is_reserved": 0, "lon": -76.94548166666667, "is_disabled": 0, "fusion_lat": 0.0, "lat": 38.98282716666667, "bike_id": "7d58964a2d319de66fe850fd2ce418bb", "fusion_lon": 0.0}, {"rental_uris": {"ios": "https://dc.lft.to/lastmile_qr_scan", "android": "https://dc.lft.to/lastmile_qr_scan"}, "type": "electric_bike", "name": "66a2cd0fffb33dc9a1a66e47955d7af1", "is_reserved": 0, "lon": -76.95240116666666, "is_disabled": 0, "fusion_lat": 0.0, "lat": 38.88464716666667, "bike_id": "66a2cd0fffb33dc9a1a66e47955d7af1", "fusion_lon": 0.0}, {"rental_uris": {"ios": "https://dc.lft.to/lastmile_qr_scan", "android": "https://dc.lft.to/lastmile_qr_scan"}, "type": "electric_bike", "name": "b647785b1e002f82427c381009e106f7", "is_reserved": 0, "lon": -77.04069483333333, "is_disabled": 0, "fusion_lat": 0.0, "lat": 38.9937635, "bike_id": "b647785b1e002f82427c381009e106f7", "fusion_lon": 0.0}, {"rental_uris": {"ios": "https://dc.lft.to/lastmile_qr_scan", "android": "https://dc.lft.to/lastmile_qr_scan"}, "type": "electric_scooter", "name": "07db43e1eaabfb14982f48b9e0d53c8a", "is_reserved": 0, "lon": -77.01452016666667, "is_disabled": 0, "fusion_lat": 0.0, "lat": 38.91110483333333, "bike_id": "07db43e1eaabfb14982f48b9e0d53c8a", "fusion_lon": 0.0}, {"rental_uris": {"ios": "https://dc.lft.to/lastmile_qr_scan", "android": "https://dc.lft.to/lastmile_qr_scan"}, "type": "electric_scooter", "name": "0d7bf228a0fd86eaaf28e639ef960305", "is_reserved": 0, "lon": -76.997231, "is_disabled": 0, "fusion_lat": 0.0, "lat": 38.911046, "bike_id": "0d7bf228a0fd86eaaf28e639ef960305", "fusion_lon": 0.0}, {"rental_uris": {"ios": "https://dc.lft.to/lastmile_qr_scan", "android": "https://dc.lft.to/lastmile_qr_scan"}, "type": "electric_scooter", "name": "ec870401860a2140439ddea1350e1284", "is_reserved": 0, "lon": -77.084038, "is_disabled": 0, "fusion_lat": 0.0, "lat": 38.9080495, "bike_id": "ec870401860a2140439ddea1350e1284", "fusion_lon": 0.0}, {"rental_uris": {"ios": "https://dc.lft.to/lastmile_qr_scan", "android": "https://dc.lft.to/lastmile_qr_scan"}, "type": "electric_bike", "name": "869fdc32e90f63f698dc4be15fc56f79", "is_reserved": 0, "lon": -76.99669083333333, "is_disabled": 0, "fusion_lat": 0.0, "lat": 38.90124866666667, "bike_id": "869fdc32e90f63f698dc4be15fc56f79", "fusion_lon": 0.0}, {"rental_uris": {"ios": "https://dc.lft.to/lastmile_qr_scan", "android": "https://dc.lft.to/lastmile_qr_scan"}, "type": "electric_bike", "name": "b4433467c660a94951d0dc260e6392db", "is_reserved": 0, "lon": -77.07910533333333, "is_disabled": 0, "fusion_lat": 0.0, "lat": 38.838239, "bike_id": "b4433467c660a94951d0dc260e6392db", "fusion_lon": 0.0}, {"rental_uris": {"ios": "https://dc.lft.to/lastmile_qr_scan", "android": "https://dc.lft.to/lastmile_qr_scan"}, "type": "electric_scooter", "name": "3f9dfa818a29725e0a16d448e507d182", "is_reserved": 0, "lon": -77.03659883333333, "is_disabled": 0, "fusion_lat": 0.0, "lat": 38.932814666666665, "bike_id": "3f9dfa818a29725e0a16d448e507d182", "fusion_lon": 0.0}, {"rental_uris": {"ios": "https://dc.lft.to/lastmile_qr_scan", "android": "https://dc.lft.to/lastmile_qr_scan"}, "type": "electric_scooter", "name": "be5e86171935e13b7200d57f09c55ce1", "is_reserved": 0, "lon": -77.04372966666666, "is_disabled": 0, "fusion_lat": 0.0, "lat": 38.9349355, "bike_id": "be5e86171935e13b7200d57f09c55ce1", "fusion_lon": 0.0}, {"rental_uris": {"ios": "https://dc.lft.to/lastmile_qr_scan", "android": "https://dc.lft.to/lastmile_qr_scan"}, "type": "electric_scooter", "name": "733490723479881d4c79046ce474779c", "is_reserved": 0, "lon": -77.073616, "is_disabled": 0, "fusion_lat": 0.0, "lat": 38.937368666666664, "bike_id": "733490723479881d4c79046ce474779c", "fusion_lon": 0.0}, {"rental_uris": {"ios": "https://dc.lft.to/lastmile_qr_scan", "android": "https://dc.lft.to/lastmile_qr_scan"}, "type": "electric_scooter", "name": "6e8c2cddb0f866cb459e124e5707da3e", "is_reserved": 0, "lon": -77.0353735, "is_disabled": 0, "fusion_lat": 0.0, "lat": 38.923381, "bike_id": "6e8c2cddb0f866cb459e124e5707da3e", "fusion_lon": 0.0}, {"rental_uris": {"ios": "https://dc.lft.to/lastmile_qr_scan", "android": "https://dc.lft.to/lastmile_qr_scan"}, "type": "electric_scooter", "name": "9430f1230e41828828e07907d9cf2b11", "is_reserved": 0, "lon": -77.0385835, "is_disabled": 0, "fusion_lat": 0.0, "lat": 38.9128055, "bike_id": "9430f1230e41828828e07907d9cf2b11", "fusion_lon": 0.0}, {"rental_uris": {"ios": "https://dc.lft.to/lastmile_qr_scan", "android": "https://dc.lft.to/lastmile_qr_scan"}, "type": "electric_bike", "name": "32f851e9acee5fe53d875fd395dfd9ed", "is_reserved": 0, "lon": -76.97314816666666, "is_disabled": 0, "fusion_lat": 0.0, "lat": 38.86513933333333, "bike_id": "32f851e9acee5fe53d875fd395dfd9ed", "fusion_lon": 0.0}, {"rental_uris": {"ios": "https://dc.lft.to/lastmile_qr_scan", "android": "https://dc.lft.to/lastmile_qr_scan"}, "type": "electric_scooter", "name": "b75f23059c3452698c14b816707f0a0e", "is_reserved": 0, "lon": -77.02069266666666, "is_disabled": 0, "fusion_lat": 0.0, "lat": 38.9084975, "bike_id": "b75f23059c3452698c14b816707f0a0e", "fusion_lon": 0.0}, {"rental_uris": {"ios": "https://dc.lft.to/lastmile_qr_scan", "android": "https://dc.lft.to/lastmile_qr_scan"}, "type": "electric_scooter", "name": "9522c057670c6c825b3f4b0101df6adb", "is_reserved": 0, "lon": -77.02490133333333, "is_disabled": 0, "fusion_lat": 0.0, "lat": 38.92598066666667, "bike_id": "9522c057670c6c825b3f4b0101df6adb", "fusion_lon": 0.0}, {"rental_uris": {"ios": "https://dc.lft.to/lastmile_qr_scan", "android": "https://dc.lft.to/lastmile_qr_scan"}, "type": "electric_scooter", "name": "516e41c602c0a3e08657b4b531b59396", "is_reserved": 0, "lon": -77.07279633333333, "is_disabled": 0, "fusion_lat": 0.0, "lat": 38.935415166666665, "bike_id": "516e41c602c0a3e08657b4b531b59396", "fusion_lon": 0.0}, {"rental_uris": {"ios": "https://dc.lft.to/lastmile_qr_scan", "android": "https://dc.lft.to/lastmile_qr_scan"}, "type": "electric_scooter", "name": "2b87ee79ed7451e52d4903da98db28b4", "is_reserved": 0, "lon": -77.034417, "is_disabled": 0, "fusion_lat": 0.0, "lat": 38.9097385, "bike_id": "2b87ee79ed7451e52d4903da98db28b4", "fusion_lon": 0.0}, {"rental_uris": {"ios": "https://dc.lft.to/lastmile_qr_scan", "android": "https://dc.lft.to/lastmile_qr_scan"}, "type": "electric_scooter", "name": "5bae81f842d5503dffd1a2537e0de382", "is_reserved": 0, "lon": -77.015752, "is_disabled": 0, "fusion_lat": 0.0, "lat": 38.9167915, "bike_id": "5bae81f842d5503dffd1a2537e0de382", "fusion_lon": 0.0}, {"rental_uris": {"ios": "https://dc.lft.to/lastmile_qr_scan", "android": "https://dc.lft.to/lastmile_qr_scan"}, "type": "electric_scooter", "name": "194220f33530478a0d6fa6c129c46669", "is_reserved": 0, "lon": -77.04777433333334, "is_disabled": 0, "fusion_lat": 0.0, "lat": 38.9085765, "bike_id": "194220f33530478a0d6fa6c129c46669", "fusion_lon": 0.0}, {"rental_uris": {"ios": "https://dc.lft.to/lastmile_qr_scan", "android": "https://dc.lft.to/lastmile_qr_scan"}, "type": "electric_scooter", "name": "4e6cbd359cb25b2b33f4a1508f6fa5f9", "is_reserved": 0, "lon": -77.03180233333333, "is_disabled": 0, "fusion_lat": 0.0, "lat": 38.892181666666666, "bike_id": "4e6cbd359cb25b2b33f4a1508f6fa5f9", "fusion_lon": 0.0}, {"rental_uris": {"ios": "https://dc.lft.to/lastmile_qr_scan", "android": "https://dc.lft.to/lastmile_qr_scan"}, "type": "electric_scooter", "name": "07670d44cc521d6bf28d321dc02d9e59", "is_reserved": 0, "lon": -77.00988033333333, "is_disabled": 0, "fusion_lat": 0.0, "lat": 38.92031033333333, "bike_id": "07670d44cc521d6bf28d321dc02d9e59", "fusion_lon": 0.0}, {"rental_uris": {"ios": "https://dc.lft.to/lastmile_qr_scan", "android": "https://dc.lft.to/lastmile_qr_scan"}, "type": "electric_bike", "name": "4ec22f144efaf1bfd28fc9b019413471", "is_reserved": 0, "lon": -77.05087766666666, "is_disabled": 0, "fusion_lat": 0.0, "lat": 38.813343333333336, "bike_id": "4ec22f144efaf1bfd28fc9b019413471", "fusion_lon": 0.0}, {"rental_uris": {"ios": "https://dc.lft.to/lastmile_qr_scan", "android": "https://dc.lft.to/lastmile_qr_scan"}, "type": "electric_scooter", "name": "137861a4b1262ff8e6ea6c0f3a1c7be1", "is_reserved": 0, "lon": -77.00223283333334, "is_disabled": 0, "fusion_lat": 0.0, "lat": 38.894538833333336, "bike_id": "137861a4b1262ff8e6ea6c0f3a1c7be1", "fusion_lon": 0.0}, {"rental_uris": {"ios": "https://dc.lft.to/lastmile_qr_scan", "android": "https://dc.lft.to/lastmile_qr_scan"}, "type": "electric_scooter", "name": "c6a6a22be1189f900d5cc3353afbeccd", "is_reserved": 0, "lon": -77.009208, "is_disabled": 0, "fusion_lat": 0.0, "lat": 38.90765416666667, "bike_id": "c6a6a22be1189f900d5cc3353afbeccd", "fusion_lon": 0.0}, {"rental_uris": {"ios": "https://dc.lft.to/lastmile_qr_scan", "android": "https://dc.lft.to/lastmile_qr_scan"}, "type": "electric_scooter", "name": "e75c6f9d84997b8399183cbc84d3d632", "is_reserved": 0, "lon": -77.01481833333334, "is_disabled": 0, "fusion_lat": 0.0, "lat": 38.8874295, "bike_id": "e75c6f9d84997b8399183cbc84d3d632", "fusion_lon": 0.0}, {"rental_uris": {"ios": "https://dc.lft.to/lastmile_qr_scan", "android": "https://dc.lft.to/lastmile_qr_scan"}, "type": "electric_scooter", "name": "14cfef0b2f9e6f5206a89704845271f6", "is_reserved": 0, "lon": -77.00174716666666, "is_disabled": 0, "fusion_lat": 0.0, "lat": 38.9119595, "bike_id": "14cfef0b2f9e6f5206a89704845271f6", "fusion_lon": 0.0}, {"rental_uris": {"ios": "https://dc.lft.to/lastmile_qr_scan", "android": "https://dc.lft.to/lastmile_qr_scan"}, "type": "electric_scooter", "name": "ca701e92e1ce57a9956daf1871533885", "is_reserved": 0, "lon": -76.98209283333334, "is_disabled": 0, "fusion_lat": 0.0, "lat": 38.895456, "bike_id": "ca701e92e1ce57a9956daf1871533885", "fusion_lon": 0.0}, {"rental_uris": {"ios": "https://dc.lft.to/lastmile_qr_scan", "android": "https://dc.lft.to/lastmile_qr_scan"}, "type": "electric_scooter", "name": "126899c0a293b804b2401042e5c29aa0", "is_reserved": 0, "lon": -77.03341816666666, "is_disabled": 0, "fusion_lat": 0.0, "lat": 38.914141, "bike_id": "126899c0a293b804b2401042e5c29aa0", "fusion_lon": 0.0}, {"rental_uris": {"ios": "https://dc.lft.to/lastmile_qr_scan", "android": "https://dc.lft.to/lastmile_qr_scan"}, "type": "electric_scooter", "name": "d2156aa218dd6fa2a50bec05b403e745", "is_reserved": 0, "lon": -77.08164033333334, "is_disabled": 0, "fusion_lat": 0.0, "lat": 38.919527333333335, "bike_id": "d2156aa218dd6fa2a50bec05b403e745", "fusion_lon": 0.0}, {"rental_uris": {"ios": "https://dc.lft.to/lastmile_qr_scan", "android": "https://dc.lft.to/lastmile_qr_scan"}, "type": "electric_scooter", "name": "9e2d3fd05b268f6ac1b9a7fb47e2fdd2", "is_reserved": 0, "lon": -77.03351933333333, "is_disabled": 0, "fusion_lat": 0.0, "lat": 38.95474033333333, "bike_id": "9e2d3fd05b268f6ac1b9a7fb47e2fdd2", "fusion_lon": 0.0}, {"rental_uris": {"ios": "https://dc.lft.to/lastmile_qr_scan", "android": "https://dc.lft.to/lastmile_qr_scan"}, "type": "electric_scooter", "name": "b0d66cb8244b4467f899bf1eee7691af", "is_reserved": 0, "lon": -77.04611633333333, "is_disabled": 0, "fusion_lat": 0.0, "lat": 38.88379233333333, "bike_id": "b0d66cb8244b4467f899bf1eee7691af", "fusion_lon": 0.0}, {"rental_uris": {"ios": "https://dc.lft.to/lastmile_qr_scan", "android": "https://dc.lft.to/lastmile_qr_scan"}, "type": "electric_scooter", "name": "a930eabc9a00f4302a6a38f587a5b822", "is_reserved": 0, "lon": -77.03867533333333, "is_disabled": 0, "fusion_lat": 0.0, "lat": 38.9111745, "bike_id": "a930eabc9a00f4302a6a38f587a5b822", "fusion_lon": 0.0}, {"rental_uris": {"ios": "https://dc.lft.to/lastmile_qr_scan", "android": "https://dc.lft.to/lastmile_qr_scan"}, "type": "electric_scooter", "name": "f9deb7d2d65b9f6ee11ef40c6d7fe29f", "is_reserved": 0, "lon": -77.03854733333333, "is_disabled": 0, "fusion_lat": 0.0, "lat": 38.90774783333333, "bike_id": "f9deb7d2d65b9f6ee11ef40c6d7fe29f", "fusion_lon": 0.0}, {"rental_uris": {"ios": "https://dc.lft.to/lastmile_qr_scan", "android": "https://dc.lft.to/lastmile_qr_scan"}, "type": "electric_scooter", "name": "b95e780aea982bb891b2d873f14b80eb", "is_reserved": 0, "lon": -76.9491795, "is_disabled": 0, "fusion_lat": 0.0, "lat": 38.895384, "bike_id": "b95e780aea982bb891b2d873f14b80eb", "fusion_lon": 0.0}, {"rental_uris": {"ios": "https://dc.lft.to/lastmile_qr_scan", "android": "https://dc.lft.to/lastmile_qr_scan"}, "type": "electric_scooter", "name": "4ba07307aa5c42a661dbe82cd7f867af", "is_reserved": 0, "lon": -77.0121865, "is_disabled": 0, "fusion_lat": 0.0, "lat": 38.916846666666665, "bike_id": "4ba07307aa5c42a661dbe82cd7f867af", "fusion_lon": 0.0}, {"rental_uris": {"ios": "https://dc.lft.to/lastmile_qr_scan", "android": "https://dc.lft.to/lastmile_qr_scan"}, "type": "electric_scooter", "name": "18e9d453ed299368d31e95b807af2d7a", "is_reserved": 0, "lon": -77.04275783333334, "is_disabled": 0, "fusion_lat": 0.0, "lat": 38.91780833333333, "bike_id": "18e9d453ed299368d31e95b807af2d7a", "fusion_lon": 0.0}, {"rental_uris": {"ios": "https://dc.lft.to/lastmile_qr_scan", "android": "https://dc.lft.to/lastmile_qr_scan"}, "type": "electric_bike", "name": "3b20488c2af62ed88bd7e6ca4c74f568", "is_reserved": 0, "lon": -76.90736633333333, "is_disabled": 0, "fusion_lat": 0.0, "lat": 38.896157, "bike_id": "3b20488c2af62ed88bd7e6ca4c74f568", "fusion_lon": 0.0}, {"rental_uris": {"ios": "https://dc.lft.to/lastmile_qr_scan", "android": "https://dc.lft.to/lastmile_qr_scan"}, "type": "electric_scooter", "name": "2649d1da3eabaa3a281f46211faf366b", "is_reserved": 0, "lon": -77.0396905, "is_disabled": 0, "fusion_lat": 0.0, "lat": 38.90297783333333, "bike_id": "2649d1da3eabaa3a281f46211faf366b", "fusion_lon": 0.0}, {"rental_uris": {"ios": "https://dc.lft.to/lastmile_qr_scan", "android": "https://dc.lft.to/lastmile_qr_scan"}, "type": "electric_scooter", "name": "e5ceaeee781a1ddecf37e7247dffb862", "is_reserved": 0, "lon": -76.9923405, "is_disabled": 0, "fusion_lat": 0.0, "lat": 38.887525, "bike_id": "e5ceaeee781a1ddecf37e7247dffb862", "fusion_lon": 0.0}, {"rental_uris": {"ios": "https://dc.lft.to/lastmile_qr_scan", "android": "https://dc.lft.to/lastmile_qr_scan"}, "type": "electric_scooter", "name": "c11e9ddacd6446bebd25463bb09f54ee", "is_reserved": 0, "lon": -77.0219955, "is_disabled": 0, "fusion_lat": 0.0, "lat": 38.910083, "bike_id": "c11e9ddacd6446bebd25463bb09f54ee", "fusion_lon": 0.0}, {"rental_uris": {"ios": "https://dc.lft.to/lastmile_qr_scan", "android": "https://dc.lft.to/lastmile_qr_scan"}, "type": "electric_scooter", "name": "e508039c6ee72cca4cc2002935ed6342", "is_reserved": 0, "lon": -77.03353733333333, "is_disabled": 0, "fusion_lat": 0.0, "lat": 38.9288445, "bike_id": "e508039c6ee72cca4cc2002935ed6342", "fusion_lon": 0.0}, {"rental_uris": {"ios": "https://dc.lft.to/lastmile_qr_scan", "android": "https://dc.lft.to/lastmile_qr_scan"}, "type": "electric_scooter", "name": "11f41880885d7ce23549cc090e0f7074", "is_reserved": 0, "lon": -77.00827633333333, "is_disabled": 0, "fusion_lat": 0.0, "lat": 38.913656, "bike_id": "11f41880885d7ce23549cc090e0f7074", "fusion_lon": 0.0}, {"rental_uris": {"ios": "https://dc.lft.to/lastmile_qr_scan", "android": "https://dc.lft.to/lastmile_qr_scan"}, "type": "electric_scooter", "name": "39902e8e29cee5f2a2b1086759e66eff", "is_reserved": 0, "lon": -77.02231683333333, "is_disabled": 0, "fusion_lat": 0.0, "lat": 38.89222933333333, "bike_id": "39902e8e29cee5f2a2b1086759e66eff", "fusion_lon": 0.0}, {"rental_uris": {"ios": "https://dc.lft.to/lastmile_qr_scan", "android": "https://dc.lft.to/lastmile_qr_scan"}, "type": "electric_scooter", "name": "a304c7b2b804f6e68d341a57b5531cf5", "is_reserved": 0, "lon": -77.02483366666667, "is_disabled": 0, "fusion_lat": 0.0, "lat": 38.93956216666667, "bike_id": "a304c7b2b804f6e68d341a57b5531cf5", "fusion_lon": 0.0}, {"rental_uris": {"ios": "https://dc.lft.to/lastmile_qr_scan", "android": "https://dc.lft.to/lastmile_qr_scan"}, "type": "electric_scooter", "name": "39d1e9be034cd3888af165f043fbe037", "is_reserved": 0, "lon": -77.031771, "is_disabled": 0, "fusion_lat": 0.0, "lat": 38.8874375, "bike_id": "39d1e9be034cd3888af165f043fbe037", "fusion_lon": 0.0}, {"rental_uris": {"ios": "https://dc.lft.to/lastmile_qr_scan", "android": "https://dc.lft.to/lastmile_qr_scan"}, "type": "electric_scooter", "name": "a9d7578c907e7c3525df3999499c827c", "is_reserved": 0, "lon": -77.007664, "is_disabled": 0, "fusion_lat": 0.0, "lat": 38.907189833333334, "bike_id": "a9d7578c907e7c3525df3999499c827c", "fusion_lon": 0.0}, {"rental_uris": {"ios": "https://dc.lft.to/lastmile_qr_scan", "android": "https://dc.lft.to/lastmile_qr_scan"}, "type": "electric_scooter", "name": "9af4eede18aefd5162371d1210b15799", "is_reserved": 0, "lon": -76.9983555, "is_disabled": 0, "fusion_lat": 0.0, "lat": 38.891937, "bike_id": "9af4eede18aefd5162371d1210b15799", "fusion_lon": 0.0}, {"rental_uris": {"ios": "https://dc.lft.to/lastmile_qr_scan", "android": "https://dc.lft.to/lastmile_qr_scan"}, "type": "electric_scooter", "name": "2b817a6146a8ca80a1e383910836e07e", "is_reserved": 0, "lon": -77.05616566666667, "is_disabled": 0, "fusion_lat": 0.0, "lat": 38.906803833333335, "bike_id": "2b817a6146a8ca80a1e383910836e07e", "fusion_lon": 0.0}, {"rental_uris": {"ios": "https://dc.lft.to/lastmile_qr_scan", "android": "https://dc.lft.to/lastmile_qr_scan"}, "type": "electric_scooter", "name": "a5ebf48444953aab2eddb17650ad1aae", "is_reserved": 0, "lon": -77.03958683333333, "is_disabled": 0, "fusion_lat": 0.0, "lat": 38.89244083333333, "bike_id": "a5ebf48444953aab2eddb17650ad1aae", "fusion_lon": 0.0}, {"rental_uris": {"ios": "https://dc.lft.to/lastmile_qr_scan", "android": "https://dc.lft.to/lastmile_qr_scan"}, "type": "electric_scooter", "name": "a87af000723c9ed7efa1382068003646", "is_reserved": 0, "lon": -77.01757633333334, "is_disabled": 0, "fusion_lat": 0.0, "lat": 38.902569666666665, "bike_id": "a87af000723c9ed7efa1382068003646", "fusion_lon": 0.0}, {"rental_uris": {"ios": "https://dc.lft.to/lastmile_qr_scan", "android": "https://dc.lft.to/lastmile_qr_scan"}, "type": "electric_scooter", "name": "56a65949676c6a2f2997e9513071514e", "is_reserved": 0, "lon": -77.03808, "is_disabled": 0, "fusion_lat": 0.0, "lat": 38.911923333333334, "bike_id": "56a65949676c6a2f2997e9513071514e", "fusion_lon": 0.0}, {"rental_uris": {"ios": "https://dc.lft.to/lastmile_qr_scan", "android": "https://dc.lft.to/lastmile_qr_scan"}, "type": "electric_scooter", "name": "e6f180dfe8f4918e95d5410a99fa7bb2", "is_reserved": 0, "lon": -77.02090433333333, "is_disabled": 0, "fusion_lat": 0.0, "lat": 38.9300325, "bike_id": "e6f180dfe8f4918e95d5410a99fa7bb2", "fusion_lon": 0.0}, {"rental_uris": {"ios": "https://dc.lft.to/lastmile_qr_scan", "android": "https://dc.lft.to/lastmile_qr_scan"}, "type": "electric_scooter", "name": "6489f33b3d68cf395799e3b3d3cd8ff1", "is_reserved": 0, "lon": -77.02474533333333, "is_disabled": 0, "fusion_lat": 0.0, "lat": 38.91813666666667, "bike_id": "6489f33b3d68cf395799e3b3d3cd8ff1", "fusion_lon": 0.0}, {"rental_uris": {"ios": "https://dc.lft.to/lastmile_qr_scan", "android": "https://dc.lft.to/lastmile_qr_scan"}, "type": "electric_scooter", "name": "9592e490de1f6e985f1aac1ef8b62a14", "is_reserved": 0, "lon": -77.04185233333334, "is_disabled": 0, "fusion_lat": 0.0, "lat": 38.920563666666666, "bike_id": "9592e490de1f6e985f1aac1ef8b62a14", "fusion_lon": 0.0}, {"rental_uris": {"ios": "https://dc.lft.to/lastmile_qr_scan", "android": "https://dc.lft.to/lastmile_qr_scan"}, "type": "electric_scooter", "name": "2f8bd13bc1ce5b4002e158152c0706b2", "is_reserved": 0, "lon": -77.048013, "is_disabled": 0, "fusion_lat": 0.0, "lat": 38.911071666666665, "bike_id": "2f8bd13bc1ce5b4002e158152c0706b2", "fusion_lon": 0.0}, {"rental_uris": {"ios": "https://dc.lft.to/lastmile_qr_scan", "android": "https://dc.lft.to/lastmile_qr_scan"}, "type": "electric_scooter", "name": "50b1889389e9869585fe3a3446534be9", "is_reserved": 0, "lon": -77.02132083333333, "is_disabled": 0, "fusion_lat": 0.0, "lat": 38.905574333333334, "bike_id": "50b1889389e9869585fe3a3446534be9", "fusion_lon": 0.0}, {"rental_uris": {"ios": "https://dc.lft.to/lastmile_qr_scan", "android": "https://dc.lft.to/lastmile_qr_scan"}, "type": "electric_scooter", "name": "3c33e7f591dd3f9c6aa710f668ad8e05", "is_reserved": 0, "lon": -77.06128183333334, "is_disabled": 0, "fusion_lat": 0.0, "lat": 38.904970166666665, "bike_id": "3c33e7f591dd3f9c6aa710f668ad8e05", "fusion_lon": 0.0}, {"rental_uris": {"ios": "https://dc.lft.to/lastmile_qr_scan", "android": "https://dc.lft.to/lastmile_qr_scan"}, "type": "electric_scooter", "name": "55f79dcd8385b982b44758bb365e7e95", "is_reserved": 0, "lon": -77.02945833333334, "is_disabled": 0, "fusion_lat": 0.0, "lat": 38.905060666666664, "bike_id": "55f79dcd8385b982b44758bb365e7e95", "fusion_lon": 0.0}, {"rental_uris": {"ios": "https://dc.lft.to/lastmile_qr_scan", "android": "https://dc.lft.to/lastmile_qr_scan"}, "type": "electric_scooter", "name": "0d5b81b80d6b85298e0932c6ebb63f69", "is_reserved": 0, "lon": -76.98200283333334, "is_disabled": 0, "fusion_lat": 0.0, "lat": 38.90196516666666, "bike_id": "0d5b81b80d6b85298e0932c6ebb63f69", "fusion_lon": 0.0}, {"rental_uris": {"ios": "https://dc.lft.to/lastmile_qr_scan", "android": "https://dc.lft.to/lastmile_qr_scan"}, "type": "electric_scooter", "name": "de66b5d92163a1ea824d4a52bb3c7f1b", "is_reserved": 0, "lon": -77.03430916666667, "is_disabled": 0, "fusion_lat": 0.0, "lat": 38.92857566666667, "bike_id": "de66b5d92163a1ea824d4a52bb3c7f1b", "fusion_lon": 0.0}, {"rental_uris": {"ios": "https://dc.lft.to/lastmile_qr_scan", "android": "https://dc.lft.to/lastmile_qr_scan"}, "type": "electric_scooter", "name": "f3995ca7f75115c3571a4cad0913e1fe", "is_reserved": 0, "lon": -76.94852033333333, "is_disabled": 0, "fusion_lat": 0.0, "lat": 38.882999833333336, "bike_id": "f3995ca7f75115c3571a4cad0913e1fe", "fusion_lon": 0.0}, {"rental_uris": {"ios": "https://dc.lft.to/lastmile_qr_scan", "android": "https://dc.lft.to/lastmile_qr_scan"}, "type": "electric_scooter", "name": "0e4569fc39e009ac12f6c2ea3d269558", "is_reserved": 0, "lon": -77.00348733333334, "is_disabled": 0, "fusion_lat": 0.0, "lat": 38.892689833333336, "bike_id": "0e4569fc39e009ac12f6c2ea3d269558", "fusion_lon": 0.0}, {"rental_uris": {"ios": "https://dc.lft.to/lastmile_qr_scan", "android": "https://dc.lft.to/lastmile_qr_scan"}, "type": "electric_scooter", "name": "3140a3fed4f47696e037a34619951330", "is_reserved": 0, "lon": -77.03184483333334, "is_disabled": 0, "fusion_lat": 0.0, "lat": 38.913449166666666, "bike_id": "3140a3fed4f47696e037a34619951330", "fusion_lon": 0.0}, {"rental_uris": {"ios": "https://dc.lft.to/lastmile_qr_scan", "android": "https://dc.lft.to/lastmile_qr_scan"}, "type": "electric_scooter", "name": "2b0bf64f310fba314665ed4ac5a6d205", "is_reserved": 0, "lon": -77.0191365, "is_disabled": 0, "fusion_lat": 0.0, "lat": 38.8949105, "bike_id": "2b0bf64f310fba314665ed4ac5a6d205", "fusion_lon": 0.0}, {"rental_uris": {"ios": "https://dc.lft.to/lastmile_qr_scan", "android": "https://dc.lft.to/lastmile_qr_scan"}, "type": "electric_scooter", "name": "0407c6438b0ad389cf3059c8752f0377", "is_reserved": 0, "lon": -77.0468175, "is_disabled": 0, "fusion_lat": 0.0, "lat": 38.921066, "bike_id": "0407c6438b0ad389cf3059c8752f0377", "fusion_lon": 0.0}, {"rental_uris": {"ios": "https://dc.lft.to/lastmile_qr_scan", "android": "https://dc.lft.to/lastmile_qr_scan"}, "type": "electric_bike", "name": "8234e3f9551590dbce172095624cf553", "is_reserved": 0, "lon": -76.95826116666667, "is_disabled": 0, "fusion_lat": 0.0, "lat": 38.920019833333335, "bike_id": "8234e3f9551590dbce172095624cf553", "fusion_lon": 0.0}, {"rental_uris": {"ios": "https://dc.lft.to/lastmile_qr_scan", "android": "https://dc.lft.to/lastmile_qr_scan"}, "type": "electric_scooter", "name": "070c1218df6aaac74c8e07e34708fd69", "is_reserved": 0, "lon": -77.02131183333333, "is_disabled": 0, "fusion_lat": 0.0, "lat": 38.92411516666667, "bike_id": "070c1218df6aaac74c8e07e34708fd69", "fusion_lon": 0.0}, {"rental_uris": {"ios": "https://dc.lft.to/lastmile_qr_scan", "android": "https://dc.lft.to/lastmile_qr_scan"}, "type": "electric_scooter", "name": "b46a8c8fcc9cc07611a6d3ec71279bf7", "is_reserved": 0, "lon": -77.0211885, "is_disabled": 0, "fusion_lat": 0.0, "lat": 38.923515333333334, "bike_id": "b46a8c8fcc9cc07611a6d3ec71279bf7", "fusion_lon": 0.0}, {"rental_uris": {"ios": "https://dc.lft.to/lastmile_qr_scan", "android": "https://dc.lft.to/lastmile_qr_scan"}, "type": "electric_scooter", "name": "8bcae46cbfe5ac7033065fc9f07feb59", "is_reserved": 0, "lon": -77.02091683333333, "is_disabled": 0, "fusion_lat": 0.0, "lat": 38.92916366666667, "bike_id": "8bcae46cbfe5ac7033065fc9f07feb59", "fusion_lon": 0.0}, {"rental_uris": {"ios": "https://dc.lft.to/lastmile_qr_scan", "android": "https://dc.lft.to/lastmile_qr_scan"}, "type": "electric_scooter", "name": "1d5631460c6217b98e3fb66bbd951fd1", "is_reserved": 0, "lon": -77.03175066666667, "is_disabled": 0, "fusion_lat": 0.0, "lat": 38.920035666666664, "bike_id": "1d5631460c6217b98e3fb66bbd951fd1", "fusion_lon": 0.0}, {"rental_uris": {"ios": "https://dc.lft.to/lastmile_qr_scan", "android": "https://dc.lft.to/lastmile_qr_scan"}, "type": "electric_scooter", "name": "11cfd1056b0a6367e77c871a897e246d", "is_reserved": 0, "lon": -77.04525883333334, "is_disabled": 0, "fusion_lat": 0.0, "lat": 38.9182765, "bike_id": "11cfd1056b0a6367e77c871a897e246d", "fusion_lon": 0.0}, {"rental_uris": {"ios": "https://dc.lft.to/lastmile_qr_scan", "android": "https://dc.lft.to/lastmile_qr_scan"}, "type": "electric_scooter", "name": "0088cc15173880285ac149692240b96b", "is_reserved": 0, "lon": -77.01879733333334, "is_disabled": 0, "fusion_lat": 0.0, "lat": 38.90487783333333, "bike_id": "0088cc15173880285ac149692240b96b", "fusion_lon": 0.0}, {"rental_uris": {"ios": "https://dc.lft.to/lastmile_qr_scan", "android": "https://dc.lft.to/lastmile_qr_scan"}, "type": "electric_scooter", "name": "e104f7f937b71aea120c1752b0e12f2a", "is_reserved": 0, "lon": -77.04162666666667, "is_disabled": 0, "fusion_lat": 0.0, "lat": 38.9156775, "bike_id": "e104f7f937b71aea120c1752b0e12f2a", "fusion_lon": 0.0}, {"rental_uris": {"ios": "https://dc.lft.to/lastmile_qr_scan", "android": "https://dc.lft.to/lastmile_qr_scan"}, "type": "electric_scooter", "name": "373372654ffa45668da285186957aad3", "is_reserved": 0, "lon": -76.99419483333334, "is_disabled": 0, "fusion_lat": 0.0, "lat": 38.916897666666664, "bike_id": "373372654ffa45668da285186957aad3", "fusion_lon": 0.0}, {"rental_uris": {"ios": "https://dc.lft.to/lastmile_qr_scan", "android": "https://dc.lft.to/lastmile_qr_scan"}, "type": "electric_scooter", "name": "ca56693a242c34e2d161228f7849f267", "is_reserved": 0, "lon": -77.02598383333333, "is_disabled": 0, "fusion_lat": 0.0, "lat": 38.8930875, "bike_id": "ca56693a242c34e2d161228f7849f267", "fusion_lon": 0.0}, {"rental_uris": {"ios": "https://dc.lft.to/lastmile_qr_scan", "android": "https://dc.lft.to/lastmile_qr_scan"}, "type": "electric_scooter", "name": "62c684f3db20b5e448132ecc18e47bd7", "is_reserved": 0, "lon": -77.037982, "is_disabled": 0, "fusion_lat": 0.0, "lat": 38.9154015, "bike_id": "62c684f3db20b5e448132ecc18e47bd7", "fusion_lon": 0.0}, {"rental_uris": {"ios": "https://dc.lft.to/lastmile_qr_scan", "android": "https://dc.lft.to/lastmile_qr_scan"}, "type": "electric_scooter", "name": "a9bf990f1fd96bb2ce0a8cf61585ee2a", "is_reserved": 0, "lon": -77.0322405, "is_disabled": 0, "fusion_lat": 0.0, "lat": 38.90963766666667, "bike_id": "a9bf990f1fd96bb2ce0a8cf61585ee2a", "fusion_lon": 0.0}, {"rental_uris": {"ios": "https://dc.lft.to/lastmile_qr_scan", "android": "https://dc.lft.to/lastmile_qr_scan"}, "type": "electric_scooter", "name": "f28a297aa9d6b20fcdc0eb2bf0babbf1", "is_reserved": 0, "lon": -77.02435016666666, "is_disabled": 0, "fusion_lat": 0.0, "lat": 38.903076666666664, "bike_id": "f28a297aa9d6b20fcdc0eb2bf0babbf1", "fusion_lon": 0.0}, {"rental_uris": {"ios": "https://dc.lft.to/lastmile_qr_scan", "android": "https://dc.lft.to/lastmile_qr_scan"}, "type": "electric_scooter", "name": "d622024a5a43ed973a65dd86258ee7ab", "is_reserved": 0, "lon": -77.04732783333333, "is_disabled": 0, "fusion_lat": 0.0, "lat": 38.895496, "bike_id": "d622024a5a43ed973a65dd86258ee7ab", "fusion_lon": 0.0}, {"rental_uris": {"ios": "https://dc.lft.to/lastmile_qr_scan", "android": "https://dc.lft.to/lastmile_qr_scan"}, "type": "electric_scooter", "name": "06fa3472b1d31c67fca8ad5adc80d000", "is_reserved": 0, "lon": -77.03060516666666, "is_disabled": 0, "fusion_lat": 0.0, "lat": 38.90827183333333, "bike_id": "06fa3472b1d31c67fca8ad5adc80d000", "fusion_lon": 0.0}, {"rental_uris": {"ios": "https://dc.lft.to/lastmile_qr_scan", "android": "https://dc.lft.to/lastmile_qr_scan"}, "type": "electric_scooter", "name": "332f4352f5f293d74680b1f6141a4ee7", "is_reserved": 0, "lon": -77.0614975, "is_disabled": 0, "fusion_lat": 0.0, "lat": 38.9129945, "bike_id": "332f4352f5f293d74680b1f6141a4ee7", "fusion_lon": 0.0}, {"rental_uris": {"ios": "https://dc.lft.to/lastmile_qr_scan", "android": "https://dc.lft.to/lastmile_qr_scan"}, "type": "electric_scooter", "name": "504134e4481147be83b2d78b5a724e3c", "is_reserved": 0, "lon": -77.0176615, "is_disabled": 0, "fusion_lat": 0.0, "lat": 38.92091966666667, "bike_id": "504134e4481147be83b2d78b5a724e3c", "fusion_lon": 0.0}, {"rental_uris": {"ios": "https://dc.lft.to/lastmile_qr_scan", "android": "https://dc.lft.to/lastmile_qr_scan"}, "type": "electric_scooter", "name": "ee6134aaa8ae18f62523fbfaedf7a525", "is_reserved": 0, "lon": -77.0222125, "is_disabled": 0, "fusion_lat": 0.0, "lat": 38.91560716666667, "bike_id": "ee6134aaa8ae18f62523fbfaedf7a525", "fusion_lon": 0.0}, {"rental_uris": {"ios": "https://dc.lft.to/lastmile_qr_scan", "android": "https://dc.lft.to/lastmile_qr_scan"}, "type": "electric_scooter", "name": "62190f5d27c671bd84a5143205c98a36", "is_reserved": 0, "lon": -76.9898685, "is_disabled": 0, "fusion_lat": 0.0, "lat": 38.865009666666666, "bike_id": "62190f5d27c671bd84a5143205c98a36", "fusion_lon": 0.0}, {"rental_uris": {"ios": "https://dc.lft.to/lastmile_qr_scan", "android": "https://dc.lft.to/lastmile_qr_scan"}, "type": "electric_scooter", "name": "01c38d146685a7386322124fd9de1839", "is_reserved": 0, "lon": -76.9985665, "is_disabled": 0, "fusion_lat": 0.0, "lat": 38.90022866666666, "bike_id": "01c38d146685a7386322124fd9de1839", "fusion_lon": 0.0}, {"rental_uris": {"ios": "https://dc.lft.to/lastmile_qr_scan", "android": "https://dc.lft.to/lastmile_qr_scan"}, "type": "electric_bike", "name": "25fbaaa65f9d66139a0c0408205d6e4c", "is_reserved": 0, "lon": -77.00498233333333, "is_disabled": 0, "fusion_lat": 0.0, "lat": 38.916349833333335, "bike_id": "25fbaaa65f9d66139a0c0408205d6e4c", "fusion_lon": 0.0}, {"rental_uris": {"ios": "https://dc.lft.to/lastmile_qr_scan", "android": "https://dc.lft.to/lastmile_qr_scan"}, "type": "electric_bike", "name": "b4f29cb2480399aefbab82c46524b809", "is_reserved": 0, "lon": -76.9609975, "is_disabled": 0, "fusion_lat": 0.0, "lat": 38.94965166666667, "bike_id": "b4f29cb2480399aefbab82c46524b809", "fusion_lon": 0.0}, {"rental_uris": {"ios": "https://dc.lft.to/lastmile_qr_scan", "android": "https://dc.lft.to/lastmile_qr_scan"}, "type": "electric_scooter", "name": "8e05b22987f6757fcf4feaca4465a148", "is_reserved": 0, "lon": -77.01222766666666, "is_disabled": 0, "fusion_lat": 0.0, "lat": 38.920319666666664, "bike_id": "8e05b22987f6757fcf4feaca4465a148", "fusion_lon": 0.0}, {"rental_uris": {"ios": "https://dc.lft.to/lastmile_qr_scan", "android": "https://dc.lft.to/lastmile_qr_scan"}, "type": "electric_scooter", "name": "adbce49b01845c3ae307deb9c73fe35a", "is_reserved": 0, "lon": -77.01102316666666, "is_disabled": 0, "fusion_lat": 0.0, "lat": 38.88540016666666, "bike_id": "adbce49b01845c3ae307deb9c73fe35a", "fusion_lon": 0.0}, {"rental_uris": {"ios": "https://dc.lft.to/lastmile_qr_scan", "android": "https://dc.lft.to/lastmile_qr_scan"}, "type": "electric_scooter", "name": "39f3db9c86c176351bf7e46977178066", "is_reserved": 0, "lon": -77.02946333333334, "is_disabled": 0, "fusion_lat": 0.0, "lat": 38.883985833333334, "bike_id": "39f3db9c86c176351bf7e46977178066", "fusion_lon": 0.0}, {"rental_uris": {"ios": "https://dc.lft.to/lastmile_qr_scan", "android": "https://dc.lft.to/lastmile_qr_scan"}, "type": "electric_scooter", "name": "28a41b8ace0f09bebcf94fc8daef81c4", "is_reserved": 0, "lon": -77.038582, "is_disabled": 0, "fusion_lat": 0.0, "lat": 38.90768033333333, "bike_id": "28a41b8ace0f09bebcf94fc8daef81c4", "fusion_lon": 0.0}, {"rental_uris": {"ios": "https://dc.lft.to/lastmile_qr_scan", "android": "https://dc.lft.to/lastmile_qr_scan"}, "type": "electric_scooter", "name": "0e780806805ae9691b18cd132457c62c", "is_reserved": 0, "lon": -77.00212166666667, "is_disabled": 0, "fusion_lat": 0.0, "lat": 38.911035, "bike_id": "0e780806805ae9691b18cd132457c62c", "fusion_lon": 0.0}, {"rental_uris": {"ios": "https://dc.lft.to/lastmile_qr_scan", "android": "https://dc.lft.to/lastmile_qr_scan"}, "type": "electric_scooter", "name": "34e07ddf336e851007bf1f6fb76253bf", "is_reserved": 0, "lon": -77.04620983333334, "is_disabled": 0, "fusion_lat": 0.0, "lat": 38.91931366666667, "bike_id": "34e07ddf336e851007bf1f6fb76253bf", "fusion_lon": 0.0}, {"rental_uris": {"ios": "https://dc.lft.to/lastmile_qr_scan", "android": "https://dc.lft.to/lastmile_qr_scan"}, "type": "electric_scooter", "name": "c8e2b2e45543c8cc8e270c0f0f153d2b", "is_reserved": 0, "lon": -77.03558583333333, "is_disabled": 0, "fusion_lat": 0.0, "lat": 38.906204333333335, "bike_id": "c8e2b2e45543c8cc8e270c0f0f153d2b", "fusion_lon": 0.0}, {"rental_uris": {"ios": "https://dc.lft.to/lastmile_qr_scan", "android": "https://dc.lft.to/lastmile_qr_scan"}, "type": "electric_scooter", "name": "6ad921ffe41d454549642ab8822a7ee9", "is_reserved": 0, "lon": -77.00525083333333, "is_disabled": 0, "fusion_lat": 0.0, "lat": 38.88508366666667, "bike_id": "6ad921ffe41d454549642ab8822a7ee9", "fusion_lon": 0.0}, {"rental_uris": {"ios": "https://dc.lft.to/lastmile_qr_scan", "android": "https://dc.lft.to/lastmile_qr_scan"}, "type": "electric_scooter", "name": "4b008e149de938f970193eff4f10ecaf", "is_reserved": 0, "lon": -77.02177366666666, "is_disabled": 0, "fusion_lat": 0.0, "lat": 38.9023135, "bike_id": "4b008e149de938f970193eff4f10ecaf", "fusion_lon": 0.0}, {"rental_uris": {"ios": "https://dc.lft.to/lastmile_qr_scan", "android": "https://dc.lft.to/lastmile_qr_scan"}, "type": "electric_scooter", "name": "112d99395af960330369b2aad518d8a4", "is_reserved": 0, "lon": -77.03906683333334, "is_disabled": 0, "fusion_lat": 0.0, "lat": 38.908242666666666, "bike_id": "112d99395af960330369b2aad518d8a4", "fusion_lon": 0.0}, {"rental_uris": {"ios": "https://dc.lft.to/lastmile_qr_scan", "android": "https://dc.lft.to/lastmile_qr_scan"}, "type": "electric_scooter", "name": "835efbe264021513eb744e0515be4ceb", "is_reserved": 0, "lon": -77.03072066666667, "is_disabled": 0, "fusion_lat": 0.0, "lat": 38.93872666666667, "bike_id": "835efbe264021513eb744e0515be4ceb", "fusion_lon": 0.0}, {"rental_uris": {"ios": "https://dc.lft.to/lastmile_qr_scan", "android": "https://dc.lft.to/lastmile_qr_scan"}, "type": "electric_scooter", "name": "ca2276ac99e6a2f91556ba3db0a58d34", "is_reserved": 0, "lon": -77.0223815, "is_disabled": 0, "fusion_lat": 0.0, "lat": 38.9087285, "bike_id": "ca2276ac99e6a2f91556ba3db0a58d34", "fusion_lon": 0.0}, {"rental_uris": {"ios": "https://dc.lft.to/lastmile_qr_scan", "android": "https://dc.lft.to/lastmile_qr_scan"}, "type": "electric_scooter", "name": "14e2f60b01785635d59079beaa4c11f9", "is_reserved": 0, "lon": -77.0367715, "is_disabled": 0, "fusion_lat": 0.0, "lat": 38.93922633333333, "bike_id": "14e2f60b01785635d59079beaa4c11f9", "fusion_lon": 0.0}, {"rental_uris": {"ios": "https://dc.lft.to/lastmile_qr_scan", "android": "https://dc.lft.to/lastmile_qr_scan"}, "type": "electric_scooter", "name": "5002829b8017041aeece88e1df963fba", "is_reserved": 0, "lon": -77.02804833333333, "is_disabled": 0, "fusion_lat": 0.0, "lat": 38.9346, "bike_id": "5002829b8017041aeece88e1df963fba", "fusion_lon": 0.0}, {"rental_uris": {"ios": "https://dc.lft.to/lastmile_qr_scan", "android": "https://dc.lft.to/lastmile_qr_scan"}, "type": "electric_scooter", "name": "53f626f39629da6c993a17ff82052feb", "is_reserved": 0, "lon": -77.04315516666666, "is_disabled": 0, "fusion_lat": 0.0, "lat": 38.92210083333333, "bike_id": "53f626f39629da6c993a17ff82052feb", "fusion_lon": 0.0}, {"rental_uris": {"ios": "https://dc.lft.to/lastmile_qr_scan", "android": "https://dc.lft.to/lastmile_qr_scan"}, "type": "electric_scooter", "name": "66e6d3ddca090a808ca30df1b383df1d", "is_reserved": 0, "lon": -77.036363, "is_disabled": 0, "fusion_lat": 0.0, "lat": 38.928059166666664, "bike_id": "66e6d3ddca090a808ca30df1b383df1d", "fusion_lon": 0.0}, {"rental_uris": {"ios": "https://dc.lft.to/lastmile_qr_scan", "android": "https://dc.lft.to/lastmile_qr_scan"}, "type": "electric_scooter", "name": "3f8e8a6552f7742d24414b871448ad2f", "is_reserved": 0, "lon": -77.04129583333334, "is_disabled": 0, "fusion_lat": 0.0, "lat": 38.930976, "bike_id": "3f8e8a6552f7742d24414b871448ad2f", "fusion_lon": 0.0}, {"rental_uris": {"ios": "https://dc.lft.to/lastmile_qr_scan", "android": "https://dc.lft.to/lastmile_qr_scan"}, "type": "electric_scooter", "name": "ee8cacd77c19068f28ab695efe855348", "is_reserved": 0, "lon": -76.98082416666666, "is_disabled": 0, "fusion_lat": 0.0, "lat": 38.894388666666664, "bike_id": "ee8cacd77c19068f28ab695efe855348", "fusion_lon": 0.0}, {"rental_uris": {"ios": "https://dc.lft.to/lastmile_qr_scan", "android": "https://dc.lft.to/lastmile_qr_scan"}, "type": "electric_scooter", "name": "a807a5e41da9cca68cc1701a5062a32b", "is_reserved": 0, "lon": -77.02314283333334, "is_disabled": 0, "fusion_lat": 0.0, "lat": 38.9176715, "bike_id": "a807a5e41da9cca68cc1701a5062a32b", "fusion_lon": 0.0}, {"rental_uris": {"ios": "https://dc.lft.to/lastmile_qr_scan", "android": "https://dc.lft.to/lastmile_qr_scan"}, "type": "electric_scooter", "name": "360b84a733e57ca03edc45e4df85403a", "is_reserved": 0, "lon": -77.03350066666667, "is_disabled": 0, "fusion_lat": 0.0, "lat": 38.89962883333333, "bike_id": "360b84a733e57ca03edc45e4df85403a", "fusion_lon": 0.0}, {"rental_uris": {"ios": "https://dc.lft.to/lastmile_qr_scan", "android": "https://dc.lft.to/lastmile_qr_scan"}, "type": "electric_scooter", "name": "46eff4b03331ade2e19323f9437be24b", "is_reserved": 0, "lon": -77.0294455, "is_disabled": 0, "fusion_lat": 0.0, "lat": 38.90708016666667, "bike_id": "46eff4b03331ade2e19323f9437be24b", "fusion_lon": 0.0}, {"rental_uris": {"ios": "https://dc.lft.to/lastmile_qr_scan", "android": "https://dc.lft.to/lastmile_qr_scan"}, "type": "electric_scooter", "name": "5b304735b81a13171262332f4a9809c7", "is_reserved": 0, "lon": -77.0432605, "is_disabled": 0, "fusion_lat": 0.0, "lat": 38.89727583333333, "bike_id": "5b304735b81a13171262332f4a9809c7", "fusion_lon": 0.0}, {"rental_uris": {"ios": "https://dc.lft.to/lastmile_qr_scan", "android": "https://dc.lft.to/lastmile_qr_scan"}, "type": "electric_scooter", "name": "c066a602ee3a58a9c0d745d127888d6a", "is_reserved": 0, "lon": -77.02504666666667, "is_disabled": 0, "fusion_lat": 0.0, "lat": 38.904258, "bike_id": "c066a602ee3a58a9c0d745d127888d6a", "fusion_lon": 0.0}, {"rental_uris": {"ios": "https://dc.lft.to/lastmile_qr_scan", "android": "https://dc.lft.to/lastmile_qr_scan"}, "type": "electric_scooter", "name": "90eb828437b041a229e56cb3f7f0d72f", "is_reserved": 0, "lon": -77.03887733333333, "is_disabled": 0, "fusion_lat": 0.0, "lat": 38.9163085, "bike_id": "90eb828437b041a229e56cb3f7f0d72f", "fusion_lon": 0.0}, {"rental_uris": {"ios": "https://dc.lft.to/lastmile_qr_scan", "android": "https://dc.lft.to/lastmile_qr_scan"}, "type": "electric_scooter", "name": "fbb53d395b24419a702da75c88b38766", "is_reserved": 0, "lon": -76.98575766666667, "is_disabled": 0, "fusion_lat": 0.0, "lat": 38.85451233333333, "bike_id": "fbb53d395b24419a702da75c88b38766", "fusion_lon": 0.0}, {"rental_uris": {"ios": "https://dc.lft.to/lastmile_qr_scan", "android": "https://dc.lft.to/lastmile_qr_scan"}, "type": "electric_scooter", "name": "138679979a93c4f06ef0754c9c1c7f4e", "is_reserved": 0, "lon": -77.00045616666667, "is_disabled": 0, "fusion_lat": 0.0, "lat": 38.9190045, "bike_id": "138679979a93c4f06ef0754c9c1c7f4e", "fusion_lon": 0.0}, {"rental_uris": {"ios": "https://dc.lft.to/lastmile_qr_scan", "android": "https://dc.lft.to/lastmile_qr_scan"}, "type": "electric_scooter", "name": "bb584360da28a7776a4ec5a24202a810", "is_reserved": 0, "lon": -77.0382935, "is_disabled": 0, "fusion_lat": 0.0, "lat": 38.911111, "bike_id": "bb584360da28a7776a4ec5a24202a810", "fusion_lon": 0.0}, {"rental_uris": {"ios": "https://dc.lft.to/lastmile_qr_scan", "android": "https://dc.lft.to/lastmile_qr_scan"}, "type": "electric_scooter", "name": "7b7ca77c36575696b5974108fd90b7b4", "is_reserved": 0, "lon": -77.02386, "is_disabled": 0, "fusion_lat": 0.0, "lat": 38.91708333333333, "bike_id": "7b7ca77c36575696b5974108fd90b7b4", "fusion_lon": 0.0}, {"rental_uris": {"ios": "https://dc.lft.to/lastmile_qr_scan", "android": "https://dc.lft.to/lastmile_qr_scan"}, "type": "electric_scooter", "name": "d580a980784c2fff35a794482a3146f5", "is_reserved": 0, "lon": -77.02057166666667, "is_disabled": 0, "fusion_lat": 0.0, "lat": 38.9224715, "bike_id": "d580a980784c2fff35a794482a3146f5", "fusion_lon": 0.0}, {"rental_uris": {"ios": "https://dc.lft.to/lastmile_qr_scan", "android": "https://dc.lft.to/lastmile_qr_scan"}, "type": "electric_scooter", "name": "6073290e2b7e2c56f094922d3f5c3b82", "is_reserved": 0, "lon": -77.0395685, "is_disabled": 0, "fusion_lat": 0.0, "lat": 38.892461833333336, "bike_id": "6073290e2b7e2c56f094922d3f5c3b82", "fusion_lon": 0.0}, {"rental_uris": {"ios": "https://dc.lft.to/lastmile_qr_scan", "android": "https://dc.lft.to/lastmile_qr_scan"}, "type": "electric_scooter", "name": "bc5b89db0dc5701e4b32c0cc841a9354", "is_reserved": 0, "lon": -76.99412, "is_disabled": 0, "fusion_lat": 0.0, "lat": 38.877862666666665, "bike_id": "bc5b89db0dc5701e4b32c0cc841a9354", "fusion_lon": 0.0}, {"rental_uris": {"ios": "https://dc.lft.to/lastmile_qr_scan", "android": "https://dc.lft.to/lastmile_qr_scan"}, "type": "electric_scooter", "name": "2fcd3f313d2aac1ae0da10b6d6a8f9dd", "is_reserved": 0, "lon": -77.0093835, "is_disabled": 0, "fusion_lat": 0.0, "lat": 38.87671816666667, "bike_id": "2fcd3f313d2aac1ae0da10b6d6a8f9dd", "fusion_lon": 0.0}, {"rental_uris": {"ios": "https://dc.lft.to/lastmile_qr_scan", "android": "https://dc.lft.to/lastmile_qr_scan"}, "type": "electric_scooter", "name": "ef484a6720f4455b4d49571d1170924f", "is_reserved": 0, "lon": -77.03141366666667, "is_disabled": 0, "fusion_lat": 0.0, "lat": 38.91810566666667, "bike_id": "ef484a6720f4455b4d49571d1170924f", "fusion_lon": 0.0}, {"rental_uris": {"ios": "https://dc.lft.to/lastmile_qr_scan", "android": "https://dc.lft.to/lastmile_qr_scan"}, "type": "electric_scooter", "name": "accb3603abd9d512c40dacc7b9fe9fc3", "is_reserved": 0, "lon": -76.98404466666666, "is_disabled": 0, "fusion_lat": 0.0, "lat": 38.9252165, "bike_id": "accb3603abd9d512c40dacc7b9fe9fc3", "fusion_lon": 0.0}, {"rental_uris": {"ios": "https://dc.lft.to/lastmile_qr_scan", "android": "https://dc.lft.to/lastmile_qr_scan"}, "type": "electric_scooter", "name": "299575aa5a7fbb5b240088e8c6832c53", "is_reserved": 0, "lon": -77.04742133333333, "is_disabled": 0, "fusion_lat": 0.0, "lat": 38.912639666666664, "bike_id": "299575aa5a7fbb5b240088e8c6832c53", "fusion_lon": 0.0}, {"rental_uris": {"ios": "https://dc.lft.to/lastmile_qr_scan", "android": "https://dc.lft.to/lastmile_qr_scan"}, "type": "electric_scooter", "name": "88c880e1c52f5c19fcb43357bb666851", "is_reserved": 0, "lon": -77.034724, "is_disabled": 0, "fusion_lat": 0.0, "lat": 38.930214, "bike_id": "88c880e1c52f5c19fcb43357bb666851", "fusion_lon": 0.0}, {"rental_uris": {"ios": "https://dc.lft.to/lastmile_qr_scan", "android": "https://dc.lft.to/lastmile_qr_scan"}, "type": "electric_scooter", "name": "76d6523e9307af4d51d7cae0c2cdf15e", "is_reserved": 0, "lon": -77.01958533333334, "is_disabled": 0, "fusion_lat": 0.0, "lat": 38.87640283333333, "bike_id": "76d6523e9307af4d51d7cae0c2cdf15e", "fusion_lon": 0.0}, {"rental_uris": {"ios": "https://dc.lft.to/lastmile_qr_scan", "android": "https://dc.lft.to/lastmile_qr_scan"}, "type": "electric_bike", "name": "dff3c49aaa01a7c3ee9da5b451df650b", "is_reserved": 0, "lon": -76.889659, "is_disabled": 0, "fusion_lat": 0.0, "lat": 39.007749833333335, "bike_id": "dff3c49aaa01a7c3ee9da5b451df650b", "fusion_lon": 0.0}, {"rental_uris": {"ios": "https://dc.lft.to/lastmile_qr_scan", "android": "https://dc.lft.to/lastmile_qr_scan"}, "type": "electric_scooter", "name": "7cc95582aea414b827e5a38dabcf1bd3", "is_reserved": 0, "lon": -76.98606816666667, "is_disabled": 0, "fusion_lat": 0.0, "lat": 38.878354333333334, "bike_id": "7cc95582aea414b827e5a38dabcf1bd3", "fusion_lon": 0.0}, {"rental_uris": {"ios": "https://dc.lft.to/lastmile_qr_scan", "android": "https://dc.lft.to/lastmile_qr_scan"}, "type": "electric_scooter", "name": "9e59ed2305a88297041fa30e0294e0f4", "is_reserved": 0, "lon": -77.034641, "is_disabled": 0, "fusion_lat": 0.0, "lat": 38.90738116666667, "bike_id": "9e59ed2305a88297041fa30e0294e0f4", "fusion_lon": 0.0}, {"rental_uris": {"ios": "https://dc.lft.to/lastmile_qr_scan", "android": "https://dc.lft.to/lastmile_qr_scan"}, "type": "electric_scooter", "name": "751ae52e467d33e6f08a7a9b5a6f469e", "is_reserved": 0, "lon": -77.00874583333334, "is_disabled": 0, "fusion_lat": 0.0, "lat": 38.9125725, "bike_id": "751ae52e467d33e6f08a7a9b5a6f469e", "fusion_lon": 0.0}, {"rental_uris": {"ios": "https://dc.lft.to/lastmile_qr_scan", "android": "https://dc.lft.to/lastmile_qr_scan"}, "type": "electric_scooter", "name": "d179c300c3b22eac7a385cdee6d4b8b3", "is_reserved": 0, "lon": -77.02454, "is_disabled": 0, "fusion_lat": 0.0, "lat": 38.92505, "bike_id": "d179c300c3b22eac7a385cdee6d4b8b3", "fusion_lon": 0.0}, {"rental_uris": {"ios": "https://dc.lft.to/lastmile_qr_scan", "android": "https://dc.lft.to/lastmile_qr_scan"}, "type": "electric_scooter", "name": "0252519c3be0fb3620acbdbf5d5fdbfa", "is_reserved": 0, "lon": -77.041882, "is_disabled": 0, "fusion_lat": 0.0, "lat": 38.920538, "bike_id": "0252519c3be0fb3620acbdbf5d5fdbfa", "fusion_lon": 0.0}, {"rental_uris": {"ios": "https://dc.lft.to/lastmile_qr_scan", "android": "https://dc.lft.to/lastmile_qr_scan"}, "type": "electric_bike", "name": "9337bbee920a7314b6821ce8f6edafe4", "is_reserved": 0, "lon": -77.0122195, "is_disabled": 0, "fusion_lat": 0.0, "lat": 38.87198033333333, "bike_id": "9337bbee920a7314b6821ce8f6edafe4", "fusion_lon": 0.0}, {"rental_uris": {"ios": "https://dc.lft.to/lastmile_qr_scan", "android": "https://dc.lft.to/lastmile_qr_scan"}, "type": "electric_scooter", "name": "d8e3629bfce8f63e1d6bf645b6c2b522", "is_reserved": 0, "lon": -77.0220645, "is_disabled": 0, "fusion_lat": 0.0, "lat": 38.887130166666665, "bike_id": "d8e3629bfce8f63e1d6bf645b6c2b522", "fusion_lon": 0.0}, {"rental_uris": {"ios": "https://dc.lft.to/lastmile_qr_scan", "android": "https://dc.lft.to/lastmile_qr_scan"}, "type": "electric_scooter", "name": "b467ba4cd56cf8500ad9b19065523bd0", "is_reserved": 0, "lon": -77.0259725, "is_disabled": 0, "fusion_lat": 0.0, "lat": 38.916910333333334, "bike_id": "b467ba4cd56cf8500ad9b19065523bd0", "fusion_lon": 0.0}, {"rental_uris": {"ios": "https://dc.lft.to/lastmile_qr_scan", "android": "https://dc.lft.to/lastmile_qr_scan"}, "type": "electric_bike", "name": "95719c7b9b91ef22ebfb9e46e9a0a74e", "is_reserved": 0, "lon": -77.21663566666666, "is_disabled": 0, "fusion_lat": 0.0, "lat": 38.89505416666667, "bike_id": "95719c7b9b91ef22ebfb9e46e9a0a74e", "fusion_lon": 0.0}, {"rental_uris": {"ios": "https://dc.lft.to/lastmile_qr_scan", "android": "https://dc.lft.to/lastmile_qr_scan"}, "type": "electric_bike", "name": "2186e0b98bc78433e1a581284c6ddc2e", "is_reserved": 0, "lon": -77.09728183333333, "is_disabled": 0, "fusion_lat": 0.0, "lat": 38.80745783333333, "bike_id": "2186e0b98bc78433e1a581284c6ddc2e", "fusion_lon": 0.0}, {"rental_uris": {"ios": "https://dc.lft.to/lastmile_qr_scan", "android": "https://dc.lft.to/lastmile_qr_scan"}, "type": "electric_scooter", "name": "91bb0ad037fc4d928af4b30660e0f74b", "is_reserved": 0, "lon": -77.0316845, "is_disabled": 0, "fusion_lat": 0.0, "lat": 38.918102833333336, "bike_id": "91bb0ad037fc4d928af4b30660e0f74b", "fusion_lon": 0.0}, {"rental_uris": {"ios": "https://dc.lft.to/lastmile_qr_scan", "android": "https://dc.lft.to/lastmile_qr_scan"}, "type": "electric_scooter", "name": "98c2a4b3092418a1b37c1478ce4c265f", "is_reserved": 0, "lon": -77.038687, "is_disabled": 0, "fusion_lat": 0.0, "lat": 38.90767433333333, "bike_id": "98c2a4b3092418a1b37c1478ce4c265f", "fusion_lon": 0.0}, {"rental_uris": {"ios": "https://dc.lft.to/lastmile_qr_scan", "android": "https://dc.lft.to/lastmile_qr_scan"}, "type": "electric_scooter", "name": "40889cbfd74e2d30deed961a329494d3", "is_reserved": 0, "lon": -77.03783433333334, "is_disabled": 0, "fusion_lat": 0.0, "lat": 38.915774166666665, "bike_id": "40889cbfd74e2d30deed961a329494d3", "fusion_lon": 0.0}, {"rental_uris": {"ios": "https://dc.lft.to/lastmile_qr_scan", "android": "https://dc.lft.to/lastmile_qr_scan"}, "type": "electric_scooter", "name": "3c2b3637247eefe687ef005425a146e5", "is_reserved": 0, "lon": -77.0391265, "is_disabled": 0, "fusion_lat": 0.0, "lat": 38.908226, "bike_id": "3c2b3637247eefe687ef005425a146e5", "fusion_lon": 0.0}, {"rental_uris": {"ios": "https://dc.lft.to/lastmile_qr_scan", "android": "https://dc.lft.to/lastmile_qr_scan"}, "type": "electric_scooter", "name": "8a071a6ce1224879f72ee69e612b701d", "is_reserved": 0, "lon": -77.03192233333333, "is_disabled": 0, "fusion_lat": 0.0, "lat": 38.898974333333335, "bike_id": "8a071a6ce1224879f72ee69e612b701d", "fusion_lon": 0.0}, {"rental_uris": {"ios": "https://dc.lft.to/lastmile_qr_scan", "android": "https://dc.lft.to/lastmile_qr_scan"}, "type": "electric_scooter", "name": "76c7ffa37e1bef3477a4b8d31e99cc30", "is_reserved": 0, "lon": -77.03700933333333, "is_disabled": 0, "fusion_lat": 0.0, "lat": 38.93280583333333, "bike_id": "76c7ffa37e1bef3477a4b8d31e99cc30", "fusion_lon": 0.0}, {"rental_uris": {"ios": "https://dc.lft.to/lastmile_qr_scan", "android": "https://dc.lft.to/lastmile_qr_scan"}, "type": "electric_scooter", "name": "fb12f76b47e365f5cef896e5d9c20b3d", "is_reserved": 0, "lon": -77.024867, "is_disabled": 0, "fusion_lat": 0.0, "lat": 38.90171083333333, "bike_id": "fb12f76b47e365f5cef896e5d9c20b3d", "fusion_lon": 0.0}, {"rental_uris": {"ios": "https://dc.lft.to/lastmile_qr_scan", "android": "https://dc.lft.to/lastmile_qr_scan"}, "type": "electric_scooter", "name": "c365b02275524a70da8fdf6a96ce06f9", "is_reserved": 0, "lon": -77.02584666666667, "is_disabled": 0, "fusion_lat": 0.0, "lat": 38.920369666666666, "bike_id": "c365b02275524a70da8fdf6a96ce06f9", "fusion_lon": 0.0}, {"rental_uris": {"ios": "https://dc.lft.to/lastmile_qr_scan", "android": "https://dc.lft.to/lastmile_qr_scan"}, "type": "electric_scooter", "name": "a72f7d89900d4fe97d8d6cccf086c95d", "is_reserved": 0, "lon": -77.0522815, "is_disabled": 0, "fusion_lat": 0.0, "lat": 38.89842933333333, "bike_id": "a72f7d89900d4fe97d8d6cccf086c95d", "fusion_lon": 0.0}, {"rental_uris": {"ios": "https://dc.lft.to/lastmile_qr_scan", "android": "https://dc.lft.to/lastmile_qr_scan"}, "type": "electric_scooter", "name": "0e8ffcef3dd8d4f89ab05451ea91253d", "is_reserved": 0, "lon": -77.00121133333333, "is_disabled": 0, "fusion_lat": 0.0, "lat": 38.873641, "bike_id": "0e8ffcef3dd8d4f89ab05451ea91253d", "fusion_lon": 0.0}, {"rental_uris": {"ios": "https://dc.lft.to/lastmile_qr_scan", "android": "https://dc.lft.to/lastmile_qr_scan"}, "type": "electric_bike", "name": "29c2a8c33eb466d4a7f8fce1ba60de06", "is_reserved": 0, "lon": -77.075221, "is_disabled": 0, "fusion_lat": 0.0, "lat": 38.8428355, "bike_id": "29c2a8c33eb466d4a7f8fce1ba60de06", "fusion_lon": 0.0}, {"rental_uris": {"ios": "https://dc.lft.to/lastmile_qr_scan", "android": "https://dc.lft.to/lastmile_qr_scan"}, "type": "electric_scooter", "name": "55a5e8031fd9f1b028c0e812251cca1c", "is_reserved": 0, "lon": -77.04598, "is_disabled": 0, "fusion_lat": 0.0, "lat": 38.91859066666667, "bike_id": "55a5e8031fd9f1b028c0e812251cca1c", "fusion_lon": 0.0}, {"rental_uris": {"ios": "https://dc.lft.to/lastmile_qr_scan", "android": "https://dc.lft.to/lastmile_qr_scan"}, "type": "electric_scooter", "name": "6f36a08015bde2daa1a105982bf3c669", "is_reserved": 0, "lon": -77.053329, "is_disabled": 0, "fusion_lat": 0.0, "lat": 38.90468416666667, "bike_id": "6f36a08015bde2daa1a105982bf3c669", "fusion_lon": 0.0}, {"rental_uris": {"ios": "https://dc.lft.to/lastmile_qr_scan", "android": "https://dc.lft.to/lastmile_qr_scan"}, "type": "electric_bike", "name": "58ea9e1c28905cf7fc7adea06ad5b680", "is_reserved": 0, "lon": -77.0236425, "is_disabled": 0, "fusion_lat": 0.0, "lat": 38.93585083333333, "bike_id": "58ea9e1c28905cf7fc7adea06ad5b680", "fusion_lon": 0.0}, {"rental_uris": {"ios": "https://dc.lft.to/lastmile_qr_scan", "android": "https://dc.lft.to/lastmile_qr_scan"}, "type": "electric_scooter", "name": "bc76cd8e8287d8219bb3fbbf2a802305", "is_reserved": 0, "lon": -77.03658883333334, "is_disabled": 0, "fusion_lat": 0.0, "lat": 38.922858, "bike_id": "bc76cd8e8287d8219bb3fbbf2a802305", "fusion_lon": 0.0}, {"rental_uris": {"ios": "https://dc.lft.to/lastmile_qr_scan", "android": "https://dc.lft.to/lastmile_qr_scan"}, "type": "electric_scooter", "name": "4c94afacf78f3814af55d7a5c849f65e", "is_reserved": 0, "lon": -77.03698566666667, "is_disabled": 0, "fusion_lat": 0.0, "lat": 38.93284516666667, "bike_id": "4c94afacf78f3814af55d7a5c849f65e", "fusion_lon": 0.0}, {"rental_uris": {"ios": "https://dc.lft.to/lastmile_qr_scan", "android": "https://dc.lft.to/lastmile_qr_scan"}, "type": "electric_scooter", "name": "29776137c92548979faa553fe88a45d3", "is_reserved": 0, "lon": -77.022748, "is_disabled": 0, "fusion_lat": 0.0, "lat": 38.924099166666664, "bike_id": "29776137c92548979faa553fe88a45d3", "fusion_lon": 0.0}, {"rental_uris": {"ios": "https://dc.lft.to/lastmile_qr_scan", "android": "https://dc.lft.to/lastmile_qr_scan"}, "type": "electric_scooter", "name": "0065e72e05f69bbbe2e48bec6d517f44", "is_reserved": 0, "lon": -77.02352383333333, "is_disabled": 0, "fusion_lat": 0.0, "lat": 38.935347666666665, "bike_id": "0065e72e05f69bbbe2e48bec6d517f44", "fusion_lon": 0.0}, {"rental_uris": {"ios": "https://dc.lft.to/lastmile_qr_scan", "android": "https://dc.lft.to/lastmile_qr_scan"}, "type": "electric_scooter", "name": "0d0ded02261f9dba47cd95728060c489", "is_reserved": 0, "lon": -77.01356916666667, "is_disabled": 0, "fusion_lat": 0.0, "lat": 38.91939716666667, "bike_id": "0d0ded02261f9dba47cd95728060c489", "fusion_lon": 0.0}, {"rental_uris": {"ios": "https://dc.lft.to/lastmile_qr_scan", "android": "https://dc.lft.to/lastmile_qr_scan"}, "type": "electric_scooter", "name": "bf5a7017dba98cfd5a4a3eaf1e0b1955", "is_reserved": 0, "lon": -77.06520133333333, "is_disabled": 0, "fusion_lat": 0.0, "lat": 38.9059235, "bike_id": "bf5a7017dba98cfd5a4a3eaf1e0b1955", "fusion_lon": 0.0}, {"rental_uris": {"ios": "https://dc.lft.to/lastmile_qr_scan", "android": "https://dc.lft.to/lastmile_qr_scan"}, "type": "electric_scooter", "name": "171989afc82fb7acceeeae4f900867e9", "is_reserved": 0, "lon": -77.04240966666667, "is_disabled": 0, "fusion_lat": 0.0, "lat": 38.92210166666667, "bike_id": "171989afc82fb7acceeeae4f900867e9", "fusion_lon": 0.0}, {"rental_uris": {"ios": "https://dc.lft.to/lastmile_qr_scan", "android": "https://dc.lft.to/lastmile_qr_scan"}, "type": "electric_scooter", "name": "37f1e7a1b4ef461c4e42f98e203143c4", "is_reserved": 0, "lon": -77.0101955, "is_disabled": 0, "fusion_lat": 0.0, "lat": 38.914072166666664, "bike_id": "37f1e7a1b4ef461c4e42f98e203143c4", "fusion_lon": 0.0}, {"rental_uris": {"ios": "https://dc.lft.to/lastmile_qr_scan", "android": "https://dc.lft.to/lastmile_qr_scan"}, "type": "electric_scooter", "name": "1457df723f2c9247447a79cf8e7a7240", "is_reserved": 0, "lon": -77.0317995, "is_disabled": 0, "fusion_lat": 0.0, "lat": 38.908672, "bike_id": "1457df723f2c9247447a79cf8e7a7240", "fusion_lon": 0.0}, {"rental_uris": {"ios": "https://dc.lft.to/lastmile_qr_scan", "android": "https://dc.lft.to/lastmile_qr_scan"}, "type": "electric_scooter", "name": "c90fd9b57693b6174332f2dd19d36ac2", "is_reserved": 0, "lon": -77.02119033333334, "is_disabled": 0, "fusion_lat": 0.0, "lat": 38.913276, "bike_id": "c90fd9b57693b6174332f2dd19d36ac2", "fusion_lon": 0.0}, {"rental_uris": {"ios": "https://dc.lft.to/lastmile_qr_scan", "android": "https://dc.lft.to/lastmile_qr_scan"}, "type": "electric_scooter", "name": "fdffd4948273c89e08b2d682bf9ed473", "is_reserved": 0, "lon": -77.0313435, "is_disabled": 0, "fusion_lat": 0.0, "lat": 38.923836666666666, "bike_id": "fdffd4948273c89e08b2d682bf9ed473", "fusion_lon": 0.0}, {"rental_uris": {"ios": "https://dc.lft.to/lastmile_qr_scan", "android": "https://dc.lft.to/lastmile_qr_scan"},