{"data": {"bikes": [{"lat": 38.916767, "lon": -77.0289755, "is_disabled": 0, "fusion_lon": 0.0, "is_reserved": 0, "name": "1e7f3bf798138903f0e3e0610d228782", "type": "electric_scooter", "bike_id": "1e7f3bf798138903f0e3e0610d228782", "rental_uris": {"ios": "https://dc.lft.to/lastmile_qr_scan", "android": "https://dc.lft.to/lastmile_qr_scan"}, "fusion_lat": 0.0}, {"lat": 38.9559495, "lon": -77.03366716666666, "is_disabled": 0, "fusion_lon": 0.0, "is_reserved": 0, "name": "b5db199483e863a5905ff352a9d88bb0", "type": "electric_scooter", "bike_id": "b5db199483e863a5905ff352a9d88bb0", "rental_uris": {"ios": "https://dc.lft.to/lastmile_qr_scan", "android": "https://dc.lft.to/lastmile_qr_scan"}, "fusion_lat": 0.0}, {"lat": 38.9013195, "lon": -77.035097, "is_disabled": 0, "fusion_lon": 0.0, "is_reserved": 0, "name": "3a0df0860954d3e70c04b562529ada9f", "type": "electric_scooter", "bike_id": "3a0df0860954d3e70c04b562529ada9f", "rental_uris": {"ios": "https://dc.lft.to/lastmile_qr_scan", "android": "https://dc.lft.to/lastmile_qr_scan"}, "fusion_lat": 0.0}, {"lat": 38.915495, "lon": -77.04157733333334, "is_disabled": 0, "fusion_lon": 0.0, "is_reserved": 0, "name": "8ce59928d1f44655db4ff30d5c88e7e0", "type": "electric_scooter", "bike_id": "8ce59928d1f44655db4ff30d5c88e7e0", "rental_uris": {"ios": "https://dc.lft.to/lastmile_qr_scan", "android": "https://dc.lft.to/lastmile_qr_scan"}, "fusion_lat": 0.0}, {"lat": 38.9370125, "lon": -77.02399466666667, "is_disabled": 0, "fusion_lon": 0.0, "is_reserved": 0, "name": "01df0b2f2be14f603d79a99d2558877f", "type": "electric_scooter", "bike_id": "01df0b2f2be14f603d79a99d2558877f", "rental_uris": {"ios": "https://dc.lft.to/lastmile_qr_scan", "android": "https://dc.lft.to/lastmile_qr_scan"}, "fusion_lat": 0.0}, {"lat": 38.87796066666667, "lon": -77.00119483333333, "is_disabled": 0, "fusion_lon": 0.0, "is_reserved": 0, "name": "3ea90b99c2ba509b64f190edfbc5b0cf", "type": "electric_scooter", "bike_id": "3ea90b99c2ba509b64f190edfbc5b0cf", "rental_uris": {"ios": "https://dc.lft.to/lastmile_qr_scan", "android": "https://dc.lft.to/lastmile_qr_scan"}, "fusion_lat": 0.0}, {"lat": 38.911277166666665, "lon": -77.0418945, "is_disabled": 0, "fusion_lon": 0.0, "is_reserved": 0, "name": "dd6a72b659c879d66bcef7fa537fbe60", "type": "electric_scooter", "bike_id": "dd6a72b659c879d66bcef7fa537fbe60", "rental_uris": {"ios": "https://dc.lft.to/lastmile_qr_scan", "android": "https://dc.lft.to/lastmile_qr_scan"}, "fusion_lat": 0.0}, {"lat": 38.91423966666667, "lon": -77.01801216666667, "is_disabled": 0, "fusion_lon": 0.0, "is_reserved": 0, "name": "73aea010ff8bfb89676392830dc28a67", "type": "electric_scooter", "bike_id": "73aea010ff8bfb89676392830dc28a67", "rental_uris": {"ios": "https://dc.lft.to/lastmile_qr_scan", "android": "https://dc.lft.to/lastmile_qr_scan"}, "fusion_lat": 0.0}, {"lat": 38.896001166666665, "lon": -77.02349033333333, "is_disabled": 0, "fusion_lon": 0.0, "is_reserved": 0, "name": "ff915c6778d4fa7e9762202d29c84e5a", "type": "electric_scooter", "bike_id": "ff915c6778d4fa7e9762202d29c84e5a", "rental_uris": {"ios": "https://dc.lft.to/lastmile_qr_scan", "android": "https://dc.lft.to/lastmile_qr_scan"}, "fusion_lat": 0.0}, {"lat": 38.92901966666667, "lon": -77.02747216666667, "is_disabled": 0, "fusion_lon": 0.0, "is_reserved": 0, "name": "98eb1367f12c3ee56c8515f807a7f5d3", "type": "electric_scooter", "bike_id": "98eb1367f12c3ee56c8515f807a7f5d3", "rental_uris": {"ios": "https://dc.lft.to/lastmile_qr_scan", "android": "https://dc.lft.to/lastmile_qr_scan"}, "fusion_lat": 0.0}, {"lat": 38.9072595, "lon": -77.0318265, "is_disabled": 0, "fusion_lon": 0.0, "is_reserved": 0, "name": "2a482ce3904120577cf7fcebd15062ef", "type": "electric_scooter", "bike_id": "2a482ce3904120577cf7fcebd15062ef", "rental_uris": {"ios": "https://dc.lft.to/lastmile_qr_scan", "android": "https://dc.lft.to/lastmile_qr_scan"}, "fusion_lat": 0.0}, {"lat": 38.972557, "lon": -76.9927585, "is_disabled": 0, "fusion_lon": 0.0, "is_reserved": 0, "name": "4e37c02a846c96178bba2e10e14eb63c", "type": "electric_bike", "bike_id": "4e37c02a846c96178bba2e10e14eb63c", "rental_uris": {"ios": "https://dc.lft.to/lastmile_qr_scan", "android": "https://dc.lft.to/lastmile_qr_scan"}, "fusion_lat": 0.0}, {"lat": 38.900217833333336, "lon": -77.01190216666667, "is_disabled": 0, "fusion_lon": 0.0, "is_reserved": 0, "name": "6baf8df7412a57bb978c73e8457add39", "type": "electric_scooter", "bike_id": "6baf8df7412a57bb978c73e8457add39", "rental_uris": {"ios": "https://dc.lft.to/lastmile_qr_scan", "android": "https://dc.lft.to/lastmile_qr_scan"}, "fusion_lat": 0.0}, {"lat": 38.926291666666664, "lon": -77.037104, "is_disabled": 0, "fusion_lon": 0.0, "is_reserved": 0, "name": "cbad0631996bd955e55f960a7e4e0d48", "type": "electric_scooter", "bike_id": "cbad0631996bd955e55f960a7e4e0d48", "rental_uris": {"ios": "https://dc.lft.to/lastmile_qr_scan", "android": "https://dc.lft.to/lastmile_qr_scan"}, "fusion_lat": 0.0}, {"lat": 38.89806816666667, "lon": -77.03155, "is_disabled": 0, "fusion_lon": 0.0, "is_reserved": 0, "name": "fecf94112de399adfbc1cadc5d3906c1", "type": "electric_scooter", "bike_id": "fecf94112de399adfbc1cadc5d3906c1", "rental_uris": {"ios": "https://dc.lft.to/lastmile_qr_scan", "android": "https://dc.lft.to/lastmile_qr_scan"}, "fusion_lat": 0.0}, {"lat": 38.934552333333336, "lon": -77.07210183333333, "is_disabled": 0, "fusion_lon": 0.0, "is_reserved": 0, "name": "6b6015e5fd5c0f7b75059c7832142be1", "type": "electric_scooter", "bike_id": "6b6015e5fd5c0f7b75059c7832142be1", "rental_uris": {"ios": "https://dc.lft.to/lastmile_qr_scan", "android": "https://dc.lft.to/lastmile_qr_scan"}, "fusion_lat": 0.0}, {"lat": 38.92309066666667, "lon": -77.03051983333333, "is_disabled": 0, "fusion_lon": 0.0, "is_reserved": 0, "name": "5e2ed7ad58d0b2186c5f95c1ec493af5", "type": "electric_scooter", "bike_id": "5e2ed7ad58d0b2186c5f95c1ec493af5", "rental_uris": {"ios": "https://dc.lft.to/lastmile_qr_scan", "android": "https://dc.lft.to/lastmile_qr_scan"}, "fusion_lat": 0.0}, {"lat": 38.8882345, "lon": -76.97720333333334, "is_disabled": 0, "fusion_lon": 0.0, "is_reserved": 0, "name": "7216f6dba51c91b5ea0f898c6aa39e27", "type": "electric_scooter", "bike_id": "7216f6dba51c91b5ea0f898c6aa39e27", "rental_uris": {"ios": "https://dc.lft.to/lastmile_qr_scan", "android": "https://dc.lft.to/lastmile_qr_scan"}, "fusion_lat": 0.0}, {"lat": 38.915654, "lon": -77.02005816666667, "is_disabled": 0, "fusion_lon": 0.0, "is_reserved": 0, "name": "86b7ff5277ef1b0e55d52383c236a585", "type": "electric_scooter", "bike_id": "86b7ff5277ef1b0e55d52383c236a585", "rental_uris": {"ios": "https://dc.lft.to/lastmile_qr_scan", "android": "https://dc.lft.to/lastmile_qr_scan"}, "fusion_lat": 0.0}, {"lat": 38.961232833333334, "lon": -77.03273683333333, "is_disabled": 0, "fusion_lon": 0.0, "is_reserved": 0, "name": "2c42cb220d9143127807e94e47c5b92f", "type": "electric_bike", "bike_id": "2c42cb220d9143127807e94e47c5b92f", "rental_uris": {"ios": "https://dc.lft.to/lastmile_qr_scan", "android": "https://dc.lft.to/lastmile_qr_scan"}, "fusion_lat": 0.0}, {"lat": 38.92004083333333, "lon": -77.0236095, "is_disabled": 0, "fusion_lon": 0.0, "is_reserved": 0, "name": "932412059706bcf253892def2667d35e", "type": "electric_scooter", "bike_id": "932412059706bcf253892def2667d35e", "rental_uris": {"ios": "https://dc.lft.to/lastmile_qr_scan", "android": "https://dc.lft.to/lastmile_qr_scan"}, "fusion_lat": 0.0}, {"lat": 38.92532833333333, "lon": -77.07701883333333, "is_disabled": 0, "fusion_lon": 0.0, "is_reserved": 0, "name": "40298f465101da3553d03bfef10e6ef0", "type": "electric_scooter", "bike_id": "40298f465101da3553d03bfef10e6ef0", "rental_uris": {"ios": "https://dc.lft.to/lastmile_qr_scan", "android": "https://dc.lft.to/lastmile_qr_scan"}, "fusion_lat": 0.0}, {"lat": 38.92694083333333, "lon": -77.02077716666666, "is_disabled": 0, "fusion_lon": 0.0, "is_reserved": 0, "name": "708380e2c5843e9cae3c7b3423f452e4", "type": "electric_scooter", "bike_id": "708380e2c5843e9cae3c7b3423f452e4", "rental_uris": {"ios": "https://dc.lft.to/lastmile_qr_scan", "android": "https://dc.lft.to/lastmile_qr_scan"}, "fusion_lat": 0.0}, {"lat": 38.894382666666665, "lon": -76.97817316666666, "is_disabled": 0, "fusion_lon": 0.0, "is_reserved": 0, "name": "8fb45b3c7f68c37f4b19fca91c61b7ea", "type": "electric_scooter", "bike_id": "8fb45b3c7f68c37f4b19fca91c61b7ea", "rental_uris": {"ios": "https://dc.lft.to/lastmile_qr_scan", "android": "https://dc.lft.to/lastmile_qr_scan"}, "fusion_lat": 0.0}, {"lat": 38.878338, "lon": -77.02276933333333, "is_disabled": 0, "fusion_lon": 0.0, "is_reserved": 0, "name": "57d5fc3ab70bd52f8caa23be299c9231", "type": "electric_scooter", "bike_id": "57d5fc3ab70bd52f8caa23be299c9231", "rental_uris": {"ios": "https://dc.lft.to/lastmile_qr_scan", "android": "https://dc.lft.to/lastmile_qr_scan"}, "fusion_lat": 0.0}, {"lat": 38.91823516666667, "lon": -77.02422766666666, "is_disabled": 0, "fusion_lon": 0.0, "is_reserved": 0, "name": "9eb460f2c72f9c1adf666e7f19e3d63a", "type": "electric_scooter", "bike_id": "9eb460f2c72f9c1adf666e7f19e3d63a", "rental_uris": {"ios": "https://dc.lft.to/lastmile_qr_scan", "android": "https://dc.lft.to/lastmile_qr_scan"}, "fusion_lat": 0.0}, {"lat": 38.91673566666667, "lon": -77.02282066666666, "is_disabled": 0, "fusion_lon": 0.0, "is_reserved": 0, "name": "7f116ac4d398fedf77d7c31e9bda6562", "type": "electric_scooter", "bike_id": "7f116ac4d398fedf77d7c31e9bda6562", "rental_uris": {"ios": "https://dc.lft.to/lastmile_qr_scan", "android": "https://dc.lft.to/lastmile_qr_scan"}, "fusion_lat": 0.0}, {"lat": 38.909536833333334, "lon": -77.0447915, "is_disabled": 0, "fusion_lon": 0.0, "is_reserved": 0, "name": "9f175f18b4e43fb44ab9c0646fd2636b", "type": "electric_scooter", "bike_id": "9f175f18b4e43fb44ab9c0646fd2636b", "rental_uris": {"ios": "https://dc.lft.to/lastmile_qr_scan", "android": "https://dc.lft.to/lastmile_qr_scan"}, "fusion_lat": 0.0}, {"lat": 38.895461833333336, "lon": -76.98339683333333, "is_disabled": 0, "fusion_lon": 0.0, "is_reserved": 0, "name": "110ba3c7e689d41e9ee55031322cb17e", "type": "electric_scooter", "bike_id": "110ba3c7e689d41e9ee55031322cb17e", "rental_uris": {"ios": "https://dc.lft.to/lastmile_qr_scan", "android": "https://dc.lft.to/lastmile_qr_scan"}, "fusion_lat": 0.0}, {"lat": 38.9222965, "lon": -77.01818166666666, "is_disabled": 0, "fusion_lon": 0.0, "is_reserved": 0, "name": "4d479c246baadcaf049249b385f16a57", "type": "electric_scooter", "bike_id": "4d479c246baadcaf049249b385f16a57", "rental_uris": {"ios": "https://dc.lft.to/lastmile_qr_scan", "android": "https://dc.lft.to/lastmile_qr_scan"}, "fusion_lat": 0.0}, {"lat": 38.91103183333333, "lon": -77.00214833333334, "is_disabled": 0, "fusion_lon": 0.0, "is_reserved": 0, "name": "bdfe170349715616a66f379009190c8d", "type": "electric_scooter", "bike_id": "bdfe170349715616a66f379009190c8d", "rental_uris": {"ios": "https://dc.lft.to/lastmile_qr_scan", "android": "https://dc.lft.to/lastmile_qr_scan"}, "fusion_lat": 0.0}, {"lat": 38.90515333333333, "lon": -77.050464, "is_disabled": 0, "fusion_lon": 0.0, "is_reserved": 0, "name": "8ce3f1b1cdfab444c5444b2f63e54891", "type": "electric_scooter", "bike_id": "8ce3f1b1cdfab444c5444b2f63e54891", "rental_uris": {"ios": "https://dc.lft.to/lastmile_qr_scan", "android": "https://dc.lft.to/lastmile_qr_scan"}, "fusion_lat": 0.0}, {"lat": 38.9159405, "lon": -77.012115, "is_disabled": 0, "fusion_lon": 0.0, "is_reserved": 0, "name": "65d68744e3b28861cff7e043938831c3", "type": "electric_scooter", "bike_id": "65d68744e3b28861cff7e043938831c3", "rental_uris": {"ios": "https://dc.lft.to/lastmile_qr_scan", "android": "https://dc.lft.to/lastmile_qr_scan"}, "fusion_lat": 0.0}, {"lat": 38.955943500000004, "lon": -77.01016433333334, "is_disabled": 0, "fusion_lon": 0.0, "is_reserved": 0, "name": "aa67e870bbf57becdca82508a22ad257", "type": "electric_bike", "bike_id": "aa67e870bbf57becdca82508a22ad257", "rental_uris": {"ios": "https://dc.lft.to/lastmile_qr_scan", "android": "https://dc.lft.to/lastmile_qr_scan"}, "fusion_lat": 0.0}, {"lat": 38.966066833333336, "lon": -77.0274075, "is_disabled": 0, "fusion_lon": 0.0, "is_reserved": 0, "name": "2e5e8cce7d236b4b1ba0f338e6d9030e", "type": "electric_scooter", "bike_id": "2e5e8cce7d236b4b1ba0f338e6d9030e", "rental_uris": {"ios": "https://dc.lft.to/lastmile_qr_scan", "android": "https://dc.lft.to/lastmile_qr_scan"}, "fusion_lat": 0.0}, {"lat": 38.906729166666665, "lon": -76.9894465, "is_disabled": 0, "fusion_lon": 0.0, "is_reserved": 0, "name": "6da900846fc5f2282894367f9ff0cbbe", "type": "electric_scooter", "bike_id": "6da900846fc5f2282894367f9ff0cbbe", "rental_uris": {"ios": "https://dc.lft.to/lastmile_qr_scan", "android": "https://dc.lft.to/lastmile_qr_scan"}, "fusion_lat": 0.0}, {"lat": 38.932924666666665, "lon": -77.023178, "is_disabled": 0, "fusion_lon": 0.0, "is_reserved": 0, "name": "b534a52411239ea4278aedb6fa12b02d", "type": "electric_bike", "bike_id": "b534a52411239ea4278aedb6fa12b02d", "rental_uris": {"ios": "https://dc.lft.to/lastmile_qr_scan", "android": "https://dc.lft.to/lastmile_qr_scan"}, "fusion_lat": 0.0}, {"lat": 38.935412166666666, "lon": -77.05744833333334, "is_disabled": 0, "fusion_lon": 0.0, "is_reserved": 0, "name": "1334922c4f72927c46a379e830121b72", "type": "electric_scooter", "bike_id": "1334922c4f72927c46a379e830121b72", "rental_uris": {"ios": "https://dc.lft.to/lastmile_qr_scan", "android": "https://dc.lft.to/lastmile_qr_scan"}, "fusion_lat": 0.0}, {"lat": 38.97372766666667, "lon": -77.01271466666667, "is_disabled": 0, "fusion_lon": 0.0, "is_reserved": 0, "name": "79da4c0c4b9a70a062a3f752d831541c", "type": "electric_scooter", "bike_id": "79da4c0c4b9a70a062a3f752d831541c", "rental_uris": {"ios": "https://dc.lft.to/lastmile_qr_scan", "android": "https://dc.lft.to/lastmile_qr_scan"}, "fusion_lat": 0.0}, {"lat": 38.911283166666664, "lon": -77.041883, "is_disabled": 0, "fusion_lon": 0.0, "is_reserved": 0, "name": "8054f473b73b4d3a527cc00d1ea4942e", "type": "electric_scooter", "bike_id": "8054f473b73b4d3a527cc00d1ea4942e", "rental_uris": {"ios": "https://dc.lft.to/lastmile_qr_scan", "android": "https://dc.lft.to/lastmile_qr_scan"}, "fusion_lat": 0.0}, {"lat": 38.90199116666667, "lon": -77.02179066666666, "is_disabled": 0, "fusion_lon": 0.0, "is_reserved": 0, "name": "d5cafccf130b6932297c3daa531e832f", "type": "electric_scooter", "bike_id": "d5cafccf130b6932297c3daa531e832f", "rental_uris": {"ios": "https://dc.lft.to/lastmile_qr_scan", "android": "https://dc.lft.to/lastmile_qr_scan"}, "fusion_lat": 0.0}, {"lat": 38.9920595, "lon": -77.03223466666667, "is_disabled": 0, "fusion_lon": 0.0, "is_reserved": 0, "name": "584f66b882db50253cd180e54063eb25", "type": "electric_bike", "bike_id": "584f66b882db50253cd180e54063eb25", "rental_uris": {"ios": "https://dc.lft.to/lastmile_qr_scan", "android": "https://dc.lft.to/lastmile_qr_scan"}, "fusion_lat": 0.0}, {"lat": 38.93578216666667, "lon": -77.108655, "is_disabled": 0, "fusion_lon": 0.0, "is_reserved": 0, "name": "274db1369f16f3fbc07515a951936797", "type": "electric_bike", "bike_id": "274db1369f16f3fbc07515a951936797", "rental_uris": {"ios": "https://dc.lft.to/lastmile_qr_scan", "android": "https://dc.lft.to/lastmile_qr_scan"}, "fusion_lat": 0.0}, {"lat": 38.93842383333333, "lon": -77.07231766666666, "is_disabled": 0, "fusion_lon": 0.0, "is_reserved": 0, "name": "93c4dc0da7c9a352c59686e019422eeb", "type": "electric_scooter", "bike_id": "93c4dc0da7c9a352c59686e019422eeb", "rental_uris": {"ios": "https://dc.lft.to/lastmile_qr_scan", "android": "https://dc.lft.to/lastmile_qr_scan"}, "fusion_lat": 0.0}, {"lat": 38.892994, "lon": -77.01242016666667, "is_disabled": 0, "fusion_lon": 0.0, "is_reserved": 0, "name": "9ff21f5feef02dd48dd14cfff7a8ee22", "type": "electric_scooter", "bike_id": "9ff21f5feef02dd48dd14cfff7a8ee22", "rental_uris": {"ios": "https://dc.lft.to/lastmile_qr_scan", "android": "https://dc.lft.to/lastmile_qr_scan"}, "fusion_lat": 0.0}, {"lat": 38.90844966666667, "lon": -77.06341233333333, "is_disabled": 0, "fusion_lon": 0.0, "is_reserved": 0, "name": "7717f97b311fe8ec2a55bcf76b3f1617", "type": "electric_scooter", "bike_id": "7717f97b311fe8ec2a55bcf76b3f1617", "rental_uris": {"ios": "https://dc.lft.to/lastmile_qr_scan", "android": "https://dc.lft.to/lastmile_qr_scan"}, "fusion_lat": 0.0}, {"lat": 38.925120166666666, "lon": -77.044442, "is_disabled": 0, "fusion_lon": 0.0, "is_reserved": 0, "name": "08097c369b4b31dd2c616a3e67bb66ca", "type": "electric_scooter", "bike_id": "08097c369b4b31dd2c616a3e67bb66ca", "rental_uris": {"ios": "https://dc.lft.to/lastmile_qr_scan", "android": "https://dc.lft.to/lastmile_qr_scan"}, "fusion_lat": 0.0}, {"lat": 38.931756, "lon": -77.0366475, "is_disabled": 0, "fusion_lon": 0.0, "is_reserved": 0, "name": "ae0509fa48894a147e87990b073e1e1e", "type": "electric_scooter", "bike_id": "ae0509fa48894a147e87990b073e1e1e", "rental_uris": {"ios": "https://dc.lft.to/lastmile_qr_scan", "android": "https://dc.lft.to/lastmile_qr_scan"}, "fusion_lat": 0.0}, {"lat": 38.92137233333333, "lon": -77.03881066666666, "is_disabled": 0, "fusion_lon": 0.0, "is_reserved": 0, "name": "430111dd5ceaf154a244960e0971d81a", "type": "electric_bike", "bike_id": "430111dd5ceaf154a244960e0971d81a", "rental_uris": {"ios": "https://dc.lft.to/lastmile_qr_scan", "android": "https://dc.lft.to/lastmile_qr_scan"}, "fusion_lat": 0.0}, {"lat": 38.9173185, "lon": -77.04174516666667, "is_disabled": 0, "fusion_lon": 0.0, "is_reserved": 0, "name": "4bed4054c9a364f534d6c46d3617cd9d", "type": "electric_scooter", "bike_id": "4bed4054c9a364f534d6c46d3617cd9d", "rental_uris": {"ios": "https://dc.lft.to/lastmile_qr_scan", "android": "https://dc.lft.to/lastmile_qr_scan"}, "fusion_lat": 0.0}, {"lat": 38.799817166666664, "lon": -77.12980633333333, "is_disabled": 0, "fusion_lon": 0.0, "is_reserved": 0, "name": "a0e9c9568fb765e761364bf08e5a754a", "type": "electric_bike", "bike_id": "a0e9c9568fb765e761364bf08e5a754a", "rental_uris": {"ios": "https://dc.lft.to/lastmile_qr_scan", "android": "https://dc.lft.to/lastmile_qr_scan"}, "fusion_lat": 0.0}, {"lat": 38.921956333333334, "lon": -77.04184166666667, "is_disabled": 0, "fusion_lon": 0.0, "is_reserved": 0, "name": "68527467b2f469aa979a7f61c5428cc1", "type": "electric_scooter", "bike_id": "68527467b2f469aa979a7f61c5428cc1", "rental_uris": {"ios": "https://dc.lft.to/lastmile_qr_scan", "android": "https://dc.lft.to/lastmile_qr_scan"}, "fusion_lat": 0.0}, {"lat": 38.84863133333333, "lon": -77.0989955, "is_disabled": 0, "fusion_lon": 0.0, "is_reserved": 0, "name": "2afb62cfc7364854e78364aa62ad1570", "type": "electric_bike", "bike_id": "2afb62cfc7364854e78364aa62ad1570", "rental_uris": {"ios": "https://dc.lft.to/lastmile_qr_scan", "android": "https://dc.lft.to/lastmile_qr_scan"}, "fusion_lat": 0.0}, {"lat": 38.93203916666667, "lon": -77.03501033333333, "is_disabled": 0, "fusion_lon": 0.0, "is_reserved": 0, "name": "c6bc40262b47d744852cc351f067691c", "type": "electric_scooter", "bike_id": "c6bc40262b47d744852cc351f067691c", "rental_uris": {"ios": "https://dc.lft.to/lastmile_qr_scan", "android": "https://dc.lft.to/lastmile_qr_scan"}, "fusion_lat": 0.0}, {"lat": 38.921382333333334, "lon": -77.03508366666667, "is_disabled": 0, "fusion_lon": 0.0, "is_reserved": 0, "name": "cf5e55a5759cbf08d5b502eb36dc8b3f", "type": "electric_scooter", "bike_id": "cf5e55a5759cbf08d5b502eb36dc8b3f", "rental_uris": {"ios": "https://dc.lft.to/lastmile_qr_scan", "android": "https://dc.lft.to/lastmile_qr_scan"}, "fusion_lat": 0.0}, {"lat": 38.93092266666667, "lon": -77.03031483333334, "is_disabled": 0, "fusion_lon": 0.0, "is_reserved": 0, "name": "d497ca9cd35a1a38d79dd3501d0e10d3", "type": "electric_scooter", "bike_id": "d497ca9cd35a1a38d79dd3501d0e10d3", "rental_uris": {"ios": "https://dc.lft.to/lastmile_qr_scan", "android": "https://dc.lft.to/lastmile_qr_scan"}, "fusion_lat": 0.0}, {"lat": 38.917829166666664, "lon": -77.022958, "is_disabled": 0, "fusion_lon": 0.0, "is_reserved": 0, "name": "52c283e77a2cbc18308162097f60cc60", "type": "electric_scooter", "bike_id": "52c283e77a2cbc18308162097f60cc60", "rental_uris": {"ios": "https://dc.lft.to/lastmile_qr_scan", "android": "https://dc.lft.to/lastmile_qr_scan"}, "fusion_lat": 0.0}, {"lat": 38.912616666666665, "lon": -77.0353605, "is_disabled": 0, "fusion_lon": 0.0, "is_reserved": 0, "name": "5f0df9a1d582aede93a6f652c1e73b16", "type": "electric_scooter", "bike_id": "5f0df9a1d582aede93a6f652c1e73b16", "rental_uris": {"ios": "https://dc.lft.to/lastmile_qr_scan", "android": "https://dc.lft.to/lastmile_qr_scan"}, "fusion_lat": 0.0}, {"lat": 38.863337333333334, "lon": -76.98723416666667, "is_disabled": 0, "fusion_lon": 0.0, "is_reserved": 0, "name": "ac9c3b62332c7b96509dc346900c30a2", "type": "electric_bike", "bike_id": "ac9c3b62332c7b96509dc346900c30a2", "rental_uris": {"ios": "https://dc.lft.to/lastmile_qr_scan", "android": "https://dc.lft.to/lastmile_qr_scan"}, "fusion_lat": 0.0}, {"lat": 38.886699166666666, "lon": -77.0199465, "is_disabled": 0, "fusion_lon": 0.0, "is_reserved": 0, "name": "2ca0e4f71c3583cfb687584d0ecbb407", "type": "electric_scooter", "bike_id": "2ca0e4f71c3583cfb687584d0ecbb407", "rental_uris": {"ios": "https://dc.lft.to/lastmile_qr_scan", "android": "https://dc.lft.to/lastmile_qr_scan"}, "fusion_lat": 0.0}, {"lat": 38.916795, "lon": -76.98025966666667, "is_disabled": 0, "fusion_lon": 0.0, "is_reserved": 0, "name": "3005c43a4d7757b5a3813fc32efe5f86", "type": "electric_scooter", "bike_id": "3005c43a4d7757b5a3813fc32efe5f86", "rental_uris": {"ios": "https://dc.lft.to/lastmile_qr_scan", "android": "https://dc.lft.to/lastmile_qr_scan"}, "fusion_lat": 0.0}, {"lat": 38.91402316666667, "lon": -77.02943516666667, "is_disabled": 0, "fusion_lon": 0.0, "is_reserved": 0, "name": "0bae65a1377501e038ba1a39f9de3188", "type": "electric_scooter", "bike_id": "0bae65a1377501e038ba1a39f9de3188", "rental_uris": {"ios": "https://dc.lft.to/lastmile_qr_scan", "android": "https://dc.lft.to/lastmile_qr_scan"}, "fusion_lat": 0.0}, {"lat": 38.93263183333333, "lon": -76.98898933333334, "is_disabled": 0, "fusion_lon": 0.0, "is_reserved": 0, "name": "50bc539d6e849cd913be1e838522b0b1", "type": "electric_scooter", "bike_id": "50bc539d6e849cd913be1e838522b0b1", "rental_uris": {"ios": "https://dc.lft.to/lastmile_qr_scan", "android": "https://dc.lft.to/lastmile_qr_scan"}, "fusion_lat": 0.0}, {"lat": 38.9306105, "lon": -76.97329183333333, "is_disabled": 0, "fusion_lon": 0.0, "is_reserved": 0, "name": "548bac06b3bc7bb837a6fa807143ecb7", "type": "electric_bike", "bike_id": "548bac06b3bc7bb837a6fa807143ecb7", "rental_uris": {"ios": "https://dc.lft.to/lastmile_qr_scan", "android": "https://dc.lft.to/lastmile_qr_scan"}, "fusion_lat": 0.0}, {"lat": 38.91487216666667, "lon": -77.04155033333333, "is_disabled": 0, "fusion_lon": 0.0, "is_reserved": 0, "name": "50630777cfa381b25aa3e82892442e99", "type": "electric_scooter", "bike_id": "50630777cfa381b25aa3e82892442e99", "rental_uris": {"ios": "https://dc.lft.to/lastmile_qr_scan", "android": "https://dc.lft.to/lastmile_qr_scan"}, "fusion_lat": 0.0}, {"lat": 38.90728333333333, "lon": -77.03180283333333, "is_disabled": 0, "fusion_lon": 0.0, "is_reserved": 0, "name": "54464c79a2b32f9adaa419c6fee6d0b7", "type": "electric_scooter", "bike_id": "54464c79a2b32f9adaa419c6fee6d0b7", "rental_uris": {"ios": "https://dc.lft.to/lastmile_qr_scan", "android": "https://dc.lft.to/lastmile_qr_scan"}, "fusion_lat": 0.0}, {"lat": 38.91114533333333, "lon": -77.04481033333333, "is_disabled": 0, "fusion_lon": 0.0, "is_reserved": 0, "name": "6332e348505e8b90b73eba38045e703f", "type": "electric_scooter", "bike_id": "6332e348505e8b90b73eba38045e703f", "rental_uris": {"ios": "https://dc.lft.to/lastmile_qr_scan", "android": "https://dc.lft.to/lastmile_qr_scan"}, "fusion_lat": 0.0}, {"lat": 38.909568666666665, "lon": -77.03422316666666, "is_disabled": 0, "fusion_lon": 0.0, "is_reserved": 0, "name": "f46cd66884c254bd44f91c0a36417419", "type": "electric_scooter", "bike_id": "f46cd66884c254bd44f91c0a36417419", "rental_uris": {"ios": "https://dc.lft.to/lastmile_qr_scan", "android": "https://dc.lft.to/lastmile_qr_scan"}, "fusion_lat": 0.0}, {"lat": 38.905496, "lon": -77.04686683333334, "is_disabled": 0, "fusion_lon": 0.0, "is_reserved": 0, "name": "5266898b1f158c7c66b0f80943990438", "type": "electric_scooter", "bike_id": "5266898b1f158c7c66b0f80943990438", "rental_uris": {"ios": "https://dc.lft.to/lastmile_qr_scan", "android": "https://dc.lft.to/lastmile_qr_scan"}, "fusion_lat": 0.0}, {"lat": 38.8632255, "lon": -76.989332, "is_disabled": 0, "fusion_lon": 0.0, "is_reserved": 0, "name": "ee18273af95dc2cae1ca32a5ccbfa46f", "type": "electric_scooter", "bike_id": "ee18273af95dc2cae1ca32a5ccbfa46f", "rental_uris": {"ios": "https://dc.lft.to/lastmile_qr_scan", "android": "https://dc.lft.to/lastmile_qr_scan"}, "fusion_lat": 0.0}, {"lat": 38.909720166666666, "lon": -77.03854816666667, "is_disabled": 0, "fusion_lon": 0.0, "is_reserved": 0, "name": "2c0b5c55d65b73237a47c637115530c3", "type": "electric_scooter", "bike_id": "2c0b5c55d65b73237a47c637115530c3", "rental_uris": {"ios": "https://dc.lft.to/lastmile_qr_scan", "android": "https://dc.lft.to/lastmile_qr_scan"}, "fusion_lat": 0.0}, {"lat": 38.91703533333333, "lon": -77.02428766666667, "is_disabled": 0, "fusion_lon": 0.0, "is_reserved": 0, "name": "0cbb32e5271621054b5f60e8728d5b25", "type": "electric_scooter", "bike_id": "0cbb32e5271621054b5f60e8728d5b25", "rental_uris": {"ios": "https://dc.lft.to/lastmile_qr_scan", "android": "https://dc.lft.to/lastmile_qr_scan"}, "fusion_lat": 0.0}, {"lat": 38.84824183333333, "lon": -77.07899633333334, "is_disabled": 0, "fusion_lon": 0.0, "is_reserved": 0, "name": "aedc38adb02a92702b765e69ac375dfe", "type": "electric_bike", "bike_id": "aedc38adb02a92702b765e69ac375dfe", "rental_uris": {"ios": "https://dc.lft.to/lastmile_qr_scan", "android": "https://dc.lft.to/lastmile_qr_scan"}, "fusion_lat": 0.0}, {"lat": 38.94181716666667, "lon": -77.02532266666667, "is_disabled": 0, "fusion_lon": 0.0, "is_reserved": 0, "name": "842f6df12dcaee8ed1f041b45696c5e2", "type": "electric_scooter", "bike_id": "842f6df12dcaee8ed1f041b45696c5e2", "rental_uris": {"ios": "https://dc.lft.to/lastmile_qr_scan", "android": "https://dc.lft.to/lastmile_qr_scan"}, "fusion_lat": 0.0}, {"lat": 38.9175785, "lon": -77.03201166666666, "is_disabled": 0, "fusion_lon": 0.0, "is_reserved": 0, "name": "969e28df60516810287e2b8a9308c415", "type": "electric_scooter", "bike_id": "969e28df60516810287e2b8a9308c415", "rental_uris": {"ios": "https://dc.lft.to/lastmile_qr_scan", "android": "https://dc.lft.to/lastmile_qr_scan"}, "fusion_lat": 0.0}, {"lat": 38.9001005, "lon": -76.98909366666666, "is_disabled": 0, "fusion_lon": 0.0, "is_reserved": 0, "name": "5d42b238ce5fdba96aad090396c13a3f", "type": "electric_scooter", "bike_id": "5d42b238ce5fdba96aad090396c13a3f", "rental_uris": {"ios": "https://dc.lft.to/lastmile_qr_scan", "android": "https://dc.lft.to/lastmile_qr_scan"}, "fusion_lat": 0.0}, {"lat": 38.918085833333336, "lon": -77.02683083333334, "is_disabled": 0, "fusion_lon": 0.0, "is_reserved": 0, "name": "3dd3240fc2c1415a8e8e5e2ba1d8173a", "type": "electric_scooter", "bike_id": "3dd3240fc2c1415a8e8e5e2ba1d8173a", "rental_uris": {"ios": "https://dc.lft.to/lastmile_qr_scan", "android": "https://dc.lft.to/lastmile_qr_scan"}, "fusion_lat": 0.0}, {"lat": 38.9180465, "lon": -77.0363295, "is_disabled": 0, "fusion_lon": 0.0, "is_reserved": 0, "name": "e411c6673c27e3ef7e73b07e4c3918b1", "type": "electric_scooter", "bike_id": "e411c6673c27e3ef7e73b07e4c3918b1", "rental_uris": {"ios": "https://dc.lft.to/lastmile_qr_scan", "android": "https://dc.lft.to/lastmile_qr_scan"}, "fusion_lat": 0.0}, {"lat": 38.931380833333336, "lon": -77.038313, "is_disabled": 0, "fusion_lon": 0.0, "is_reserved": 0, "name": "a2cbad1d68c274f45a0d402b19a916be", "type": "electric_scooter", "bike_id": "a2cbad1d68c274f45a0d402b19a916be", "rental_uris": {"ios": "https://dc.lft.to/lastmile_qr_scan", "android": "https://dc.lft.to/lastmile_qr_scan"}, "fusion_lat": 0.0}, {"lat": 38.899722833333335, "lon": -77.017753, "is_disabled": 0, "fusion_lon": 0.0, "is_reserved": 0, "name": "368a0f95b2da90dae7678c0c8a32dd0a", "type": "electric_scooter", "bike_id": "368a0f95b2da90dae7678c0c8a32dd0a", "rental_uris": {"ios": "https://dc.lft.to/lastmile_qr_scan", "android": "https://dc.lft.to/lastmile_qr_scan"}, "fusion_lat": 0.0}, {"lat": 38.88745133333333, "lon": -77.0140625, "is_disabled": 0, "fusion_lon": 0.0, "is_reserved": 0, "name": "341d138e21adb5d7943556b70acc45bc", "type": "electric_scooter", "bike_id": "341d138e21adb5d7943556b70acc45bc", "rental_uris": {"ios": "https://dc.lft.to/lastmile_qr_scan", "android": "https://dc.lft.to/lastmile_qr_scan"}, "fusion_lat": 0.0}, {"lat": 38.880170666666665, "lon": -76.98071533333334, "is_disabled": 0, "fusion_lon": 0.0, "is_reserved": 0, "name": "62b27fa31f1b2c9a0d590ea2742d78eb", "type": "electric_scooter", "bike_id": "62b27fa31f1b2c9a0d590ea2742d78eb", "rental_uris": {"ios": "https://dc.lft.to/lastmile_qr_scan", "android": "https://dc.lft.to/lastmile_qr_scan"}, "fusion_lat": 0.0}, {"lat": 38.8873595, "lon": -77.0317695, "is_disabled": 0, "fusion_lon": 0.0, "is_reserved": 0, "name": "a7748b2f8c48c36a956ee4f8fa97f9ce", "type": "electric_scooter", "bike_id": "a7748b2f8c48c36a956ee4f8fa97f9ce", "rental_uris": {"ios": "https://dc.lft.to/lastmile_qr_scan", "android": "https://dc.lft.to/lastmile_qr_scan"}, "fusion_lat": 0.0}, {"lat": 38.91799833333334, "lon": -77.04017466666667, "is_disabled": 0, "fusion_lon": 0.0, "is_reserved": 0, "name": "7f3c6be2ea479ecac353ceee3128aa2c", "type": "electric_scooter", "bike_id": "7f3c6be2ea479ecac353ceee3128aa2c", "rental_uris": {"ios": "https://dc.lft.to/lastmile_qr_scan", "android": "https://dc.lft.to/lastmile_qr_scan"}, "fusion_lat": 0.0}, {"lat": 38.96215133333333, "lon": -77.02631183333334, "is_disabled": 0, "fusion_lon": 0.0, "is_reserved": 0, "name": "e18510d83262408c9a96355b3b4ce640", "type": "electric_bike", "bike_id": "e18510d83262408c9a96355b3b4ce640", "rental_uris": {"ios": "https://dc.lft.to/lastmile_qr_scan", "android": "https://dc.lft.to/lastmile_qr_scan"}, "fusion_lat": 0.0}, {"lat": 38.900128333333335, "lon": -76.98906166666667, "is_disabled": 0, "fusion_lon": 0.0, "is_reserved": 0, "name": "e8a8d6d2b46940893c76d096a181656e", "type": "electric_scooter", "bike_id": "e8a8d6d2b46940893c76d096a181656e", "rental_uris": {"ios": "https://dc.lft.to/lastmile_qr_scan", "android": "https://dc.lft.to/lastmile_qr_scan"}, "fusion_lat": 0.0}, {"lat": 38.929700833333335, "lon": -77.02825283333334, "is_disabled": 0, "fusion_lon": 0.0, "is_reserved": 0, "name": "fd65b6eb9166c1cce14f867304b71b9e", "type": "electric_scooter", "bike_id": "fd65b6eb9166c1cce14f867304b71b9e", "rental_uris": {"ios": "https://dc.lft.to/lastmile_qr_scan", "android": "https://dc.lft.to/lastmile_qr_scan"}, "fusion_lat": 0.0}, {"lat": 38.943364333333335, "lon": -76.9831715, "is_disabled": 0, "fusion_lon": 0.0, "is_reserved": 0, "name": "03ac4f3fa1e2c453feacc28485e5409d", "type": "electric_scooter", "bike_id": "03ac4f3fa1e2c453feacc28485e5409d", "rental_uris": {"ios": "https://dc.lft.to/lastmile_qr_scan", "android": "https://dc.lft.to/lastmile_qr_scan"}, "fusion_lat": 0.0}, {"lat": 38.87544366666667, "lon": -77.005395, "is_disabled": 0, "fusion_lon": 0.0, "is_reserved": 0, "name": "876a0c97e49d5f17445c3447dc0d1fc3", "type": "electric_scooter", "bike_id": "876a0c97e49d5f17445c3447dc0d1fc3", "rental_uris": {"ios": "https://dc.lft.to/lastmile_qr_scan", "android": "https://dc.lft.to/lastmile_qr_scan"}, "fusion_lat": 0.0}, {"lat": 38.91907766666667, "lon": -77.03215983333334, "is_disabled": 0, "fusion_lon": 0.0, "is_reserved": 0, "name": "da788f43b78dd18c46453ac0a84d2bf2", "type": "electric_scooter", "bike_id": "da788f43b78dd18c46453ac0a84d2bf2", "rental_uris": {"ios": "https://dc.lft.to/lastmile_qr_scan", "android": "https://dc.lft.to/lastmile_qr_scan"}, "fusion_lat": 0.0}, {"lat": 38.92340133333333, "lon": -77.051838, "is_disabled": 0, "fusion_lon": 0.0, "is_reserved": 0, "name": "2a84a66c5fda047c61a741055a8cc4b8", "type": "electric_scooter", "bike_id": "2a84a66c5fda047c61a741055a8cc4b8", "rental_uris": {"ios": "https://dc.lft.to/lastmile_qr_scan", "android": "https://dc.lft.to/lastmile_qr_scan"}, "fusion_lat": 0.0}, {"lat": 38.9535655, "lon": -76.9809685, "is_disabled": 0, "fusion_lon": 0.0, "is_reserved": 0, "name": "093697b2df6df5ddb2328b5c475e5288", "type": "electric_bike", "bike_id": "093697b2df6df5ddb2328b5c475e5288", "rental_uris": {"ios": "https://dc.lft.to/lastmile_qr_scan", "android": "https://dc.lft.to/lastmile_qr_scan"}, "fusion_lat": 0.0}, {"lat": 38.9142245, "lon": -77.031904, "is_disabled": 0, "fusion_lon": 0.0, "is_reserved": 0, "name": "36608f02694f7263fe69d12f9aab2c52", "type": "electric_scooter", "bike_id": "36608f02694f7263fe69d12f9aab2c52", "rental_uris": {"ios": "https://dc.lft.to/lastmile_qr_scan", "android": "https://dc.lft.to/lastmile_qr_scan"}, "fusion_lat": 0.0}, {"lat": 38.96608166666667, "lon": -77.02742133333334, "is_disabled": 0, "fusion_lon": 0.0, "is_reserved": 0, "name": "422b3744c242c8c05e25ed3ff6c6ffae", "type": "electric_scooter", "bike_id": "422b3744c242c8c05e25ed3ff6c6ffae", "rental_uris": {"ios": "https://dc.lft.to/lastmile_qr_scan", "android": "https://dc.lft.to/lastmile_qr_scan"}, "fusion_lat": 0.0}, {"lat": 38.90638516666667, "lon": -77.014338, "is_disabled": 0, "fusion_lon": 0.0, "is_reserved": 0, "name": "55cc4d3209c4611e1116556747972044", "type": "electric_scooter", "bike_id": "55cc4d3209c4611e1116556747972044", "rental_uris": {"ios": "https://dc.lft.to/lastmile_qr_scan", "android": "https://dc.lft.to/lastmile_qr_scan"}, "fusion_lat": 0.0}, {"lat": 38.893799666666666, "lon": -76.92306633333334, "is_disabled": 0, "fusion_lon": 0.0, "is_reserved": 0, "name": "2e3ef2b78a1ebdb29f62d46f539faff8", "type": "electric_scooter", "bike_id": "2e3ef2b78a1ebdb29f62d46f539faff8", "rental_uris": {"ios": "https://dc.lft.to/lastmile_qr_scan", "android": "https://dc.lft.to/lastmile_qr_scan"}, "fusion_lat": 0.0}, {"lat": 38.86750966666666, "lon": -76.94538983333334, "is_disabled": 0, "fusion_lon": 0.0, "is_reserved": 0, "name": "d9a3940f281935ef72fc2191cda2b4d0", "type": "electric_bike", "bike_id": "d9a3940f281935ef72fc2191cda2b4d0", "rental_uris": {"ios": "https://dc.lft.to/lastmile_qr_scan", "android": "https://dc.lft.to/lastmile_qr_scan"}, "fusion_lat": 0.0}, {"lat": 38.87670383333333, "lon": -76.99275266666666, "is_disabled": 0, "fusion_lon": 0.0, "is_reserved": 0, "name": "b410dc69de2889d35fcd6e73ef30fb2e", "type": "electric_scooter", "bike_id": "b410dc69de2889d35fcd6e73ef30fb2e", "rental_uris": {"ios": "https://dc.lft.to/lastmile_qr_scan", "android": "https://dc.lft.to/lastmile_qr_scan"}, "fusion_lat": 0.0}, {"lat": 38.96465883333333, "lon": -77.03566616666667, "is_disabled": 0, "fusion_lon": 0.0, "is_reserved": 0, "name": "178a70a978cd7b773bd59fa6897308d2", "type": "electric_bike", "bike_id": "178a70a978cd7b773bd59fa6897308d2", "rental_uris": {"ios": "https://dc.lft.to/lastmile_qr_scan", "android": "https://dc.lft.to/lastmile_qr_scan"}, "fusion_lat": 0.0}, {"lat": 38.922542, "lon": -77.052826, "is_disabled": 0, "fusion_lon": 0.0, "is_reserved": 0, "name": "85d7390d53a5bd4e0f3f0ccca62fdd97", "type": "electric_scooter", "bike_id": "85d7390d53a5bd4e0f3f0ccca62fdd97", "rental_uris": {"ios": "https://dc.lft.to/lastmile_qr_scan", "android": "https://dc.lft.to/lastmile_qr_scan"}, "fusion_lat": 0.0}, {"lat": 38.90438366666667, "lon": -77.02847083333333, "is_disabled": 0, "fusion_lon": 0.0, "is_reserved": 0, "name": "49a3bdd7120892de6b760bd4d3a0cae2", "type": "electric_scooter", "bike_id": "49a3bdd7120892de6b760bd4d3a0cae2", "rental_uris": {"ios": "https://dc.lft.to/lastmile_qr_scan", "android": "https://dc.lft.to/lastmile_qr_scan"}, "fusion_lat": 0.0}, {"lat": 38.920671666666664, "lon": -77.02425533333333, "is_disabled": 0, "fusion_lon": 0.0, "is_reserved": 0, "name": "0f699d0641ae1669c0ab6379ac1aa874", "type": "electric_bike", "bike_id": "0f699d0641ae1669c0ab6379ac1aa874", "rental_uris": {"ios": "https://dc.lft.to/lastmile_qr_scan", "android": "https://dc.lft.to/lastmile_qr_scan"}, "fusion_lat": 0.0}, {"lat": 38.94272466666666, "lon": -77.03261066666667, "is_disabled": 0, "fusion_lon": 0.0, "is_reserved": 0, "name": "e280e5a8e73a321bfc562d359721377f", "type": "electric_scooter", "bike_id": "e280e5a8e73a321bfc562d359721377f", "rental_uris": {"ios": "https://dc.lft.to/lastmile_qr_scan", "android": "https://dc.lft.to/lastmile_qr_scan"}, "fusion_lat": 0.0}, {"lat": 38.902764833333336, "lon": -77.04610233333334, "is_disabled": 0, "fusion_lon": 0.0, "is_reserved": 0, "name": "417e91ec412eaaaea197ab9d7e70e66f", "type": "electric_scooter", "bike_id": "417e91ec412eaaaea197ab9d7e70e66f", "rental_uris": {"ios": "https://dc.lft.to/lastmile_qr_scan", "android": "https://dc.lft.to/lastmile_qr_scan"}, "fusion_lat": 0.0}, {"lat": 38.9071255, "lon": -77.025229, "is_disabled": 0, "fusion_lon": 0.0, "is_reserved": 0, "name": "25147f4f87a2c2a0f098c83b6e39449a", "type": "electric_scooter", "bike_id": "25147f4f87a2c2a0f098c83b6e39449a", "rental_uris": {"ios": "https://dc.lft.to/lastmile_qr_scan", "android": "https://dc.lft.to/lastmile_qr_scan"}, "fusion_lat": 0.0}, {"lat": 38.927997833333336, "lon": -77.0272635, "is_disabled": 0, "fusion_lon": 0.0, "is_reserved": 0, "name": "303b6e7c85a845c50375ec2040dad19a", "type": "electric_scooter", "bike_id": "303b6e7c85a845c50375ec2040dad19a", "rental_uris": {"ios": "https://dc.lft.to/lastmile_qr_scan", "android": "https://dc.lft.to/lastmile_qr_scan"}, "fusion_lat": 0.0}, {"lat": 38.9192835, "lon": -77.03261583333334, "is_disabled": 0, "fusion_lon": 0.0, "is_reserved": 0, "name": "6b3ca36d4948e47f2681cdee832471f3", "type": "electric_scooter", "bike_id": "6b3ca36d4948e47f2681cdee832471f3", "rental_uris": {"ios": "https://dc.lft.to/lastmile_qr_scan", "android": "https://dc.lft.to/lastmile_qr_scan"}, "fusion_lat": 0.0}, {"lat": 38.8703405, "lon": -77.22912166666667, "is_disabled": 0, "fusion_lon": 0.0, "is_reserved": 0, "name": "84c413a9c86f338d3af257e65e98e8d6", "type": "electric_bike", "bike_id": "84c413a9c86f338d3af257e65e98e8d6", "rental_uris": {"ios": "https://dc.lft.to/lastmile_qr_scan", "android": "https://dc.lft.to/lastmile_qr_scan"}, "fusion_lat": 0.0}, {"lat": 38.905070333333335, "lon": -77.04826516666667, "is_disabled": 0, "fusion_lon": 0.0, "is_reserved": 0, "name": "91d86fcd553a87e4507837b7d6f9e4ae", "type": "electric_scooter", "bike_id": "91d86fcd553a87e4507837b7d6f9e4ae", "rental_uris": {"ios": "https://dc.lft.to/lastmile_qr_scan", "android": "https://dc.lft.to/lastmile_qr_scan"}, "fusion_lat": 0.0}, {"lat": 38.95011433333333, "lon": -77.08045783333333, "is_disabled": 0, "fusion_lon": 0.0, "is_reserved": 0, "name": "3ba15210c7ceb33dc242159622ea3bdb", "type": "electric_scooter", "bike_id": "3ba15210c7ceb33dc242159622ea3bdb", "rental_uris": {"ios": "https://dc.lft.to/lastmile_qr_scan", "android": "https://dc.lft.to/lastmile_qr_scan"}, "fusion_lat": 0.0}, {"lat": 38.91512566666667, "lon": -77.0385865, "is_disabled": 0, "fusion_lon": 0.0, "is_reserved": 0, "name": "020eed3b859a6abbe09b0a1ff5c69493", "type": "electric_scooter", "bike_id": "020eed3b859a6abbe09b0a1ff5c69493", "rental_uris": {"ios": "https://dc.lft.to/lastmile_qr_scan", "android": "https://dc.lft.to/lastmile_qr_scan"}, "fusion_lat": 0.0}, {"lat": 38.9082485, "lon": -77.043457, "is_disabled": 0, "fusion_lon": 0.0, "is_reserved": 0, "name": "d13d6cb40e29c6612cb240508b622245", "type": "electric_scooter", "bike_id": "d13d6cb40e29c6612cb240508b622245", "rental_uris": {"ios": "https://dc.lft.to/lastmile_qr_scan", "android": "https://dc.lft.to/lastmile_qr_scan"}, "fusion_lat": 0.0}, {"lat": 38.84757283333333, "lon": -76.99500366666666, "is_disabled": 0, "fusion_lon": 0.0, "is_reserved": 0, "name": "de780c18d04ecbfd1bb18416aee051ff", "type": "electric_scooter", "bike_id": "de780c18d04ecbfd1bb18416aee051ff", "rental_uris": {"ios": "https://dc.lft.to/lastmile_qr_scan", "android": "https://dc.lft.to/lastmile_qr_scan"}, "fusion_lat": 0.0}, {"lat": 38.889566, "lon": -76.93684866666666, "is_disabled": 0, "fusion_lon": 0.0, "is_reserved": 0, "name": "674969a5e17e56c653621e46df61814f", "type": "electric_scooter", "bike_id": "674969a5e17e56c653621e46df61814f", "rental_uris": {"ios": "https://dc.lft.to/lastmile_qr_scan", "android": "https://dc.lft.to/lastmile_qr_scan"}, "fusion_lat": 0.0}, {"lat": 38.92222983333333, "lon": -77.0212465, "is_disabled": 0, "fusion_lon": 0.0, "is_reserved": 0, "name": "c936402b04f0af0253b4cb8f0a3f7ff0", "type": "electric_scooter", "bike_id": "c936402b04f0af0253b4cb8f0a3f7ff0", "rental_uris": {"ios": "https://dc.lft.to/lastmile_qr_scan", "android": "https://dc.lft.to/lastmile_qr_scan"}, "fusion_lat": 0.0}, {"lat": 38.92156383333333, "lon": -77.03356216666667, "is_disabled": 0, "fusion_lon": 0.0, "is_reserved": 0, "name": "e622a554b74ae3768eb179e61d1c17ac", "type": "electric_scooter", "bike_id": "e622a554b74ae3768eb179e61d1c17ac", "rental_uris": {"ios": "https://dc.lft.to/lastmile_qr_scan", "android": "https://dc.lft.to/lastmile_qr_scan"}, "fusion_lat": 0.0}, {"lat": 38.90439216666667, "lon": -76.99830316666667, "is_disabled": 0, "fusion_lon": 0.0, "is_reserved": 0, "name": "6b0ff0ad460cf6dbbed8a8ae991b862a", "type": "electric_scooter", "bike_id": "6b0ff0ad460cf6dbbed8a8ae991b862a", "rental_uris": {"ios": "https://dc.lft.to/lastmile_qr_scan", "android": "https://dc.lft.to/lastmile_qr_scan"}, "fusion_lat": 0.0}, {"lat": 38.903366166666665, "lon": -77.0629095, "is_disabled": 0, "fusion_lon": 0.0, "is_reserved": 0, "name": "c83948b694963ca9a4682502a9a6ff0d", "type": "electric_scooter", "bike_id": "c83948b694963ca9a4682502a9a6ff0d", "rental_uris": {"ios": "https://dc.lft.to/lastmile_qr_scan", "android": "https://dc.lft.to/lastmile_qr_scan"}, "fusion_lat": 0.0}, {"lat": 39.0525335, "lon": -77.08067, "is_disabled": 0, "fusion_lon": 0.0, "is_reserved": 0, "name": "a401a6dcbe4d1d9512dbe34171094d8a", "type": "electric_bike", "bike_id": "a401a6dcbe4d1d9512dbe34171094d8a", "rental_uris": {"ios": "https://dc.lft.to/lastmile_qr_scan", "android": "https://dc.lft.to/lastmile_qr_scan"}, "fusion_lat": 0.0}, {"lat": 38.9156815, "lon": -77.019051, "is_disabled": 0, "fusion_lon": 0.0, "is_reserved": 0, "name": "c4332e650e4cd512af1655c85525f1fc", "type": "electric_scooter", "bike_id": "c4332e650e4cd512af1655c85525f1fc", "rental_uris": {"ios": "https://dc.lft.to/lastmile_qr_scan", "android": "https://dc.lft.to/lastmile_qr_scan"}, "fusion_lat": 0.0}, {"lat": 38.899742833333335, "lon": -76.9855365, "is_disabled": 0, "fusion_lon": 0.0, "is_reserved": 0, "name": "6826f81936d1595adc1ffb8050c29669", "type": "electric_scooter", "bike_id": "6826f81936d1595adc1ffb8050c29669", "rental_uris": {"ios": "https://dc.lft.to/lastmile_qr_scan", "android": "https://dc.lft.to/lastmile_qr_scan"}, "fusion_lat": 0.0}, {"lat": 38.86894083333333, "lon": -76.98522866666667, "is_disabled": 0, "fusion_lon": 0.0, "is_reserved": 0, "name": "d6b63d89d4b18a3fc3751348f2a28903", "type": "electric_bike", "bike_id": "d6b63d89d4b18a3fc3751348f2a28903", "rental_uris": {"ios": "https://dc.lft.to/lastmile_qr_scan", "android": "https://dc.lft.to/lastmile_qr_scan"}, "fusion_lat": 0.0}, {"lat": 38.907214833333335, "lon": -77.04142716666667, "is_disabled": 0, "fusion_lon": 0.0, "is_reserved": 0, "name": "46ab3abab128cda13b1882ab5d98e64a", "type": "electric_scooter", "bike_id": "46ab3abab128cda13b1882ab5d98e64a", "rental_uris": {"ios": "https://dc.lft.to/lastmile_qr_scan", "android": "https://dc.lft.to/lastmile_qr_scan"}, "fusion_lat": 0.0}, {"lat": 38.87695633333333, "lon": -77.0171415, "is_disabled": 0, "fusion_lon": 0.0, "is_reserved": 0, "name": "7d2ea9fa07f833bf377968c858c1a834", "type": "electric_scooter", "bike_id": "7d2ea9fa07f833bf377968c858c1a834", "rental_uris": {"ios": "https://dc.lft.to/lastmile_qr_scan", "android": "https://dc.lft.to/lastmile_qr_scan"}, "fusion_lat": 0.0}, {"lat": 38.92339233333333, "lon": -77.05173033333334, "is_disabled": 0, "fusion_lon": 0.0, "is_reserved": 0, "name": "be5cd9c75b2952035bc02617831916e5", "type": "electric_scooter", "bike_id": "be5cd9c75b2952035bc02617831916e5", "rental_uris": {"ios": "https://dc.lft.to/lastmile_qr_scan", "android": "https://dc.lft.to/lastmile_qr_scan"}, "fusion_lat": 0.0}, {"lat": 38.9643865, "lon": -77.03158466666666, "is_disabled": 0, "fusion_lon": 0.0, "is_reserved": 0, "name": "c185a4e9c87ab7414d4d91f9b0373b44", "type": "electric_bike", "bike_id": "c185a4e9c87ab7414d4d91f9b0373b44", "rental_uris": {"ios": "https://dc.lft.to/lastmile_qr_scan", "android": "https://dc.lft.to/lastmile_qr_scan"}, "fusion_lat": 0.0}, {"lat": 38.91005, "lon": -77.04913983333333, "is_disabled": 0, "fusion_lon": 0.0, "is_reserved": 0, "name": "f8d33f088c5534a333812f9c745a22f0", "type": "electric_scooter", "bike_id": "f8d33f088c5534a333812f9c745a22f0", "rental_uris": {"ios": "https://dc.lft.to/lastmile_qr_scan", "android": "https://dc.lft.to/lastmile_qr_scan"}, "fusion_lat": 0.0}, {"lat": 38.93214233333333, "lon": -77.032659, "is_disabled": 0, "fusion_lon": 0.0, "is_reserved": 0, "name": "b886f83fa169ec346232200e31c908d5", "type": "electric_scooter", "bike_id": "b886f83fa169ec346232200e31c908d5", "rental_uris": {"ios": "https://dc.lft.to/lastmile_qr_scan", "android": "https://dc.lft.to/lastmile_qr_scan"}, "fusion_lat": 0.0}, {"lat": 38.90026616666667, "lon": -77.0119275, "is_disabled": 0, "fusion_lon": 0.0, "is_reserved": 0, "name": "8b032ce77975444a1ed3454640588c1f", "type": "electric_scooter", "bike_id": "8b032ce77975444a1ed3454640588c1f", "rental_uris": {"ios": "https://dc.lft.to/lastmile_qr_scan", "android": "https://dc.lft.to/lastmile_qr_scan"}, "fusion_lat": 0.0}, {"lat": 38.926354333333336, "lon": -77.038414, "is_disabled": 0, "fusion_lon": 0.0, "is_reserved": 0, "name": "11be3d6ed163970ad070fbacc87ff12e", "type": "electric_scooter", "bike_id": "11be3d6ed163970ad070fbacc87ff12e", "rental_uris": {"ios": "https://dc.lft.to/lastmile_qr_scan", "android": "https://dc.lft.to/lastmile_qr_scan"}, "fusion_lat": 0.0}, {"lat": 38.898317666666664, "lon": -76.9463785, "is_disabled": 0, "fusion_lon": 0.0, "is_reserved": 0, "name": "d71ca5fe3741fd5d945d8f880dd11742", "type": "electric_scooter", "bike_id": "d71ca5fe3741fd5d945d8f880dd11742", "rental_uris": {"ios": "https://dc.lft.to/lastmile_qr_scan", "android": "https://dc.lft.to/lastmile_qr_scan"}, "fusion_lat": 0.0}, {"lat": 38.9096, "lon": -77.03422983333333, "is_disabled": 0, "fusion_lon": 0.0, "is_reserved": 0, "name": "c2ec32940595b08c511b079139ccfa14", "type": "electric_scooter", "bike_id": "c2ec32940595b08c511b079139ccfa14", "rental_uris": {"ios": "https://dc.lft.to/lastmile_qr_scan", "android": "https://dc.lft.to/lastmile_qr_scan"}, "fusion_lat": 0.0}, {"lat": 38.92447466666667, "lon": -77.02171916666667, "is_disabled": 0, "fusion_lon": 0.0, "is_reserved": 0, "name": "4b963e07004e84808cff642629df7cb5", "type": "electric_scooter", "bike_id": "4b963e07004e84808cff642629df7cb5", "rental_uris": {"ios": "https://dc.lft.to/lastmile_qr_scan", "android": "https://dc.lft.to/lastmile_qr_scan"}, "fusion_lat": 0.0}, {"lat": 38.90797883333333, "lon": -77.06355416666666, "is_disabled": 0, "fusion_lon": 0.0, "is_reserved": 0, "name": "90a74d83152b1c6dfccb192d99011ba9", "type": "electric_scooter", "bike_id": "90a74d83152b1c6dfccb192d99011ba9", "rental_uris": {"ios": "https://dc.lft.to/lastmile_qr_scan", "android": "https://dc.lft.to/lastmile_qr_scan"}, "fusion_lat": 0.0}, {"lat": 38.9170965, "lon": -77.03867333333334, "is_disabled": 0, "fusion_lon": 0.0, "is_reserved": 0, "name": "f3b7dcb81207bf7a354d37a6d3f3bb7f", "type": "electric_scooter", "bike_id": "f3b7dcb81207bf7a354d37a6d3f3bb7f", "rental_uris": {"ios": "https://dc.lft.to/lastmile_qr_scan", "android": "https://dc.lft.to/lastmile_qr_scan"}, "fusion_lat": 0.0}, {"lat": 38.908325, "lon": -77.03552066666667, "is_disabled": 0, "fusion_lon": 0.0, "is_reserved": 0, "name": "5fe6a82e0e5e62c77e3f8f97fa1fc73a", "type": "electric_scooter", "bike_id": "5fe6a82e0e5e62c77e3f8f97fa1fc73a", "rental_uris": {"ios": "https://dc.lft.to/lastmile_qr_scan", "android": "https://dc.lft.to/lastmile_qr_scan"}, "fusion_lat": 0.0}, {"lat": 38.895256, "lon": -77.02811916666667, "is_disabled": 0, "fusion_lon": 0.0, "is_reserved": 0, "name": "d7c01ed9fef10a9b2832caac7cfdd98b", "type": "electric_scooter", "bike_id": "d7c01ed9fef10a9b2832caac7cfdd98b", "rental_uris": {"ios": "https://dc.lft.to/lastmile_qr_scan", "android": "https://dc.lft.to/lastmile_qr_scan"}, "fusion_lat": 0.0}, {"lat": 38.873969333333335, "lon": -77.01454133333333, "is_disabled": 0, "fusion_lon": 0.0, "is_reserved": 0, "name": "2d812e236b14f94961dbbda1570332aa", "type": "electric_scooter", "bike_id": "2d812e236b14f94961dbbda1570332aa", "rental_uris": {"ios": "https://dc.lft.to/lastmile_qr_scan", "android": "https://dc.lft.to/lastmile_qr_scan"}, "fusion_lat": 0.0}, {"lat": 38.91772233333333, "lon": -77.04421083333334, "is_disabled": 0, "fusion_lon": 0.0, "is_reserved": 0, "name": "8db0318ec180651893f76edfbef345b7", "type": "electric_scooter", "bike_id": "8db0318ec180651893f76edfbef345b7", "rental_uris": {"ios": "https://dc.lft.to/lastmile_qr_scan", "android": "https://dc.lft.to/lastmile_qr_scan"}, "fusion_lat": 0.0}, {"lat": 38.87470183333333, "lon": -77.00467516666667, "is_disabled": 0, "fusion_lon": 0.0, "is_reserved": 0, "name": "c01337f5bceddeb416219cbe23274b36", "type": "electric_scooter", "bike_id": "c01337f5bceddeb416219cbe23274b36", "rental_uris": {"ios": "https://dc.lft.to/lastmile_qr_scan", "android": "https://dc.lft.to/lastmile_qr_scan"}, "fusion_lat": 0.0}, {"lat": 38.90340033333333, "lon": -77.03548916666666, "is_disabled": 0, "fusion_lon": 0.0, "is_reserved": 0, "name": "dbb5539746067a17d8dacde5b3d39739", "type": "electric_scooter", "bike_id": "dbb5539746067a17d8dacde5b3d39739", "rental_uris": {"ios": "https://dc.lft.to/lastmile_qr_scan", "android": "https://dc.lft.to/lastmile_qr_scan"}, "fusion_lat": 0.0}, {"lat": 38.902818333333336, "lon": -77.03459366666667, "is_disabled": 0, "fusion_lon": 0.0, "is_reserved": 0, "name": "3936b20b8deb662137b43efd7a1cafa9", "type": "electric_scooter", "bike_id": "3936b20b8deb662137b43efd7a1cafa9", "rental_uris": {"ios": "https://dc.lft.to/lastmile_qr_scan", "android": "https://dc.lft.to/lastmile_qr_scan"}, "fusion_lat": 0.0}, {"lat": 38.890006166666666, "lon": -76.983797, "is_disabled": 0, "fusion_lon": 0.0, "is_reserved": 0, "name": "218a89db5296563cb1ce7dacefbb6396", "type": "electric_scooter", "bike_id": "218a89db5296563cb1ce7dacefbb6396", "rental_uris": {"ios": "https://dc.lft.to/lastmile_qr_scan", "android": "https://dc.lft.to/lastmile_qr_scan"}, "fusion_lat": 0.0}, {"lat": 38.8762775, "lon": -77.01479233333333, "is_disabled": 0, "fusion_lon": 0.0, "is_reserved": 0, "name": "0df0f76911d50bac5b87e4f36eaadf08", "type": "electric_scooter", "bike_id": "0df0f76911d50bac5b87e4f36eaadf08", "rental_uris": {"ios": "https://dc.lft.to/lastmile_qr_scan", "android": "https://dc.lft.to/lastmile_qr_scan"}, "fusion_lat": 0.0}, {"lat": 38.90763916666667, "lon": -77.00092583333333, "is_disabled": 0, "fusion_lon": 0.0, "is_reserved": 0, "name": "2e0235066ff7a911c801e20d500769b7", "type": "electric_scooter", "bike_id": "2e0235066ff7a911c801e20d500769b7", "rental_uris": {"ios": "https://dc.lft.to/lastmile_qr_scan", "android": "https://dc.lft.to/lastmile_qr_scan"}, "fusion_lat": 0.0}, {"lat": 38.901449, "lon": -76.99024483333334, "is_disabled": 0, "fusion_lon": 0.0, "is_reserved": 0, "name": "9629077c4b52103fc7eb501e593d971a", "type": "electric_scooter", "bike_id": "9629077c4b52103fc7eb501e593d971a", "rental_uris": {"ios": "https://dc.lft.to/lastmile_qr_scan", "android": "https://dc.lft.to/lastmile_qr_scan"}, "fusion_lat": 0.0}, {"lat": 38.90405583333333, "lon": -77.0485235, "is_disabled": 0, "fusion_lon": 0.0, "is_reserved": 0, "name": "2ef456c1d0baf64b081b57bd73c2dacf", "type": "electric_scooter", "bike_id": "2ef456c1d0baf64b081b57bd73c2dacf", "rental_uris": {"ios": "https://dc.lft.to/lastmile_qr_scan", "android": "https://dc.lft.to/lastmile_qr_scan"}, "fusion_lat": 0.0}, {"lat": 38.89558616666667, "lon": -77.07853216666666, "is_disabled": 0, "fusion_lon": 0.0, "is_reserved": 0, "name": "e5ad4d60217bb6f07a9b26e817bed92a", "type": "electric_bike", "bike_id": "e5ad4d60217bb6f07a9b26e817bed92a", "rental_uris": {"ios": "https://dc.lft.to/lastmile_qr_scan", "android": "https://dc.lft.to/lastmile_qr_scan"}, "fusion_lat": 0.0}, {"lat": 38.9134835, "lon": -77.036727, "is_disabled": 0, "fusion_lon": 0.0, "is_reserved": 0, "name": "e3e034866ae23e13609dcb047eb3150b", "type": "electric_scooter", "bike_id": "e3e034866ae23e13609dcb047eb3150b", "rental_uris": {"ios": "https://dc.lft.to/lastmile_qr_scan", "android": "https://dc.lft.to/lastmile_qr_scan"}, "fusion_lat": 0.0}, {"lat": 38.9214335, "lon": -77.01806216666667, "is_disabled": 0, "fusion_lon": 0.0, "is_reserved": 0, "name": "779ca49d30af237ac1726e4e43cbbc4b", "type": "electric_scooter", "bike_id": "779ca49d30af237ac1726e4e43cbbc4b", "rental_uris": {"ios": "https://dc.lft.to/lastmile_qr_scan", "android": "https://dc.lft.to/lastmile_qr_scan"}, "fusion_lat": 0.0}, {"lat": 38.89750316666667, "lon": -77.02768733333333, "is_disabled": 0, "fusion_lon": 0.0, "is_reserved": 0, "name": "87b5e106921bf2cea94ac92464a2a10c", "type": "electric_scooter", "bike_id": "87b5e106921bf2cea94ac92464a2a10c", "rental_uris": {"ios": "https://dc.lft.to/lastmile_qr_scan", "android": "https://dc.lft.to/lastmile_qr_scan"}, "fusion_lat": 0.0}, {"lat": 38.8753075, "lon": -77.005611, "is_disabled": 0, "fusion_lon": 0.0, "is_reserved": 0, "name": "71af4cc63d917640fd06a25f31ce08d9", "type": "electric_scooter", "bike_id": "71af4cc63d917640fd06a25f31ce08d9", "rental_uris": {"ios": "https://dc.lft.to/lastmile_qr_scan", "android": "https://dc.lft.to/lastmile_qr_scan"}, "fusion_lat": 0.0}, {"lat": 38.905635833333335, "lon": -77.0042395, "is_disabled": 0, "fusion_lon": 0.0, "is_reserved": 0, "name": "3efe52a24335004a7af4db60b30312f8", "type": "electric_scooter", "bike_id": "3efe52a24335004a7af4db60b30312f8", "rental_uris": {"ios": "https://dc.lft.to/lastmile_qr_scan", "android": "https://dc.lft.to/lastmile_qr_scan"}, "fusion_lat": 0.0}, {"lat": 38.9155465, "lon": -77.025205, "is_disabled": 0, "fusion_lon": 0.0, "is_reserved": 0, "name": "d3f0fdbb6cfd71cd2183af668e32c095", "type": "electric_scooter", "bike_id": "d3f0fdbb6cfd71cd2183af668e32c095", "rental_uris": {"ios": "https://dc.lft.to/lastmile_qr_scan", "android": "https://dc.lft.to/lastmile_qr_scan"}, "fusion_lat": 0.0}, {"lat": 38.92293816666667, "lon": -77.02705566666667, "is_disabled": 0, "fusion_lon": 0.0, "is_reserved": 0, "name": "55b8d998fc4bc81b995f57dd0c61686b", "type": "electric_scooter", "bike_id": "55b8d998fc4bc81b995f57dd0c61686b", "rental_uris": {"ios": "https://dc.lft.to/lastmile_qr_scan", "android": "https://dc.lft.to/lastmile_qr_scan"}, "fusion_lat": 0.0}, {"lat": 38.916681, "lon": -77.03466783333333, "is_disabled": 0, "fusion_lon": 0.0, "is_reserved": 0, "name": "b29b7d378c737a975a114cbd743d983d", "type": "electric_scooter", "bike_id": "b29b7d378c737a975a114cbd743d983d", "rental_uris": {"ios": "https://dc.lft.to/lastmile_qr_scan", "android": "https://dc.lft.to/lastmile_qr_scan"}, "fusion_lat": 0.0}, {"lat": 38.926779333333336, "lon": -77.0277855, "is_disabled": 0, "fusion_lon": 0.0, "is_reserved": 0, "name": "fead04a0591ebf2ee5069ccda4844337", "type": "electric_scooter", "bike_id": "fead04a0591ebf2ee5069ccda4844337", "rental_uris": {"ios": "https://dc.lft.to/lastmile_qr_scan", "android": "https://dc.lft.to/lastmile_qr_scan"}, "fusion_lat": 0.0}, {"lat": 38.877045333333335, "lon": -77.018403, "is_disabled": 0, "fusion_lon": 0.0, "is_reserved": 0, "name": "460d1ac6160a7a110fd993f12ab070a5", "type": "electric_scooter", "bike_id": "460d1ac6160a7a110fd993f12ab070a5", "rental_uris": {"ios": "https://dc.lft.to/lastmile_qr_scan", "android": "https://dc.lft.to/lastmile_qr_scan"}, "fusion_lat": 0.0}, {"lat": 38.885015333333335, "lon": -76.99736366666667, "is_disabled": 0, "fusion_lon": 0.0, "is_reserved": 0, "name": "31fe3258089929365aa27b460e7e76b2", "type": "electric_scooter", "bike_id": "31fe3258089929365aa27b460e7e76b2", "rental_uris": {"ios": "https://dc.lft.to/lastmile_qr_scan", "android": "https://dc.lft.to/lastmile_qr_scan"}, "fusion_lat": 0.0}, {"lat": 38.9099515, "lon": -77.03204933333333, "is_disabled": 0, "fusion_lon": 0.0, "is_reserved": 0, "name": "ae4b7b3f98935833144dcc81eb644c25", "type": "electric_scooter", "bike_id": "ae4b7b3f98935833144dcc81eb644c25", "rental_uris": {"ios": "https://dc.lft.to/lastmile_qr_scan", "android": "https://dc.lft.to/lastmile_qr_scan"}, "fusion_lat": 0.0}, {"lat": 38.89723733333334, "lon": -77.05523833333334, "is_disabled": 0, "fusion_lon": 0.0, "is_reserved": 0, "name": "9ab1c5ec08beebd6d3b0c6f7902e1ddc", "type": "electric_scooter", "bike_id": "9ab1c5ec08beebd6d3b0c6f7902e1ddc", "rental_uris": {"ios": "https://dc.lft.to/lastmile_qr_scan", "android": "https://dc.lft.to/lastmile_qr_scan"}, "fusion_lat": 0.0}, {"lat": 38.907104833333335, "lon": -77.03575216666667, "is_disabled": 0, "fusion_lon": 0.0, "is_reserved": 0, "name": "b04d79ceda42db484309118c8131c2e4", "type": "electric_scooter", "bike_id": "b04d79ceda42db484309118c8131c2e4", "rental_uris": {"ios": "https://dc.lft.to/lastmile_qr_scan", "android": "https://dc.lft.to/lastmile_qr_scan"}, "fusion_lat": 0.0}, {"lat": 38.902544166666665, "lon": -77.01775116666667, "is_disabled": 0, "fusion_lon": 0.0, "is_reserved": 0, "name": "b5e8e44689cc15eefd668f019ee76ffe", "type": "electric_scooter", "bike_id": "b5e8e44689cc15eefd668f019ee76ffe", "rental_uris": {"ios": "https://dc.lft.to/lastmile_qr_scan", "android": "https://dc.lft.to/lastmile_qr_scan"}, "fusion_lat": 0.0}, {"lat": 38.91412533333333, "lon": -77.02099916666667, "is_disabled": 0, "fusion_lon": 0.0, "is_reserved": 0, "name": "d1ed4abc0dd43f4d26fc42e70ff1c3d9", "type": "electric_scooter", "bike_id": "d1ed4abc0dd43f4d26fc42e70ff1c3d9", "rental_uris": {"ios": "https://dc.lft.to/lastmile_qr_scan", "android": "https://dc.lft.to/lastmile_qr_scan"}, "fusion_lat": 0.0}, {"lat": 38.91404133333333, "lon": -77.0322005, "is_disabled": 0, "fusion_lon": 0.0, "is_reserved": 0, "name": "1810e524c26b0f837c3dc1975857f075", "type": "electric_scooter", "bike_id": "1810e524c26b0f837c3dc1975857f075", "rental_uris": {"ios": "https://dc.lft.to/lastmile_qr_scan", "android": "https://dc.lft.to/lastmile_qr_scan"}, "fusion_lat": 0.0}, {"lat": 38.887458, "lon": -77.01781516666667, "is_disabled": 0, "fusion_lon": 0.0, "is_reserved": 0, "name": "0d87cd2d660ae7bfcd9f2ea6043a21f0", "type": "electric_scooter", "bike_id": "0d87cd2d660ae7bfcd9f2ea6043a21f0", "rental_uris": {"ios": "https://dc.lft.to/lastmile_qr_scan", "android": "https://dc.lft.to/lastmile_qr_scan"}, "fusion_lat": 0.0}, {"lat": 38.88764466666667, "lon": -76.98292583333334, "is_disabled": 0, "fusion_lon": 0.0, "is_reserved": 0, "name": "413c300046f2df73fd891aaace65f5a6", "type": "electric_scooter", "bike_id": "413c300046f2df73fd891aaace65f5a6", "rental_uris": {"ios": "https://dc.lft.to/lastmile_qr_scan", "android": "https://dc.lft.to/lastmile_qr_scan"}, "fusion_lat": 0.0}, {"lat": 38.92205283333333, "lon": -77.0377685, "is_disabled": 0, "fusion_lon": 0.0, "is_reserved": 0, "name": "49f16c652b35bd6fd8d456225ee1f70f", "type": "electric_scooter", "bike_id": "49f16c652b35bd6fd8d456225ee1f70f", "rental_uris": {"ios": "https://dc.lft.to/lastmile_qr_scan", "android": "https://dc.lft.to/lastmile_qr_scan"}, "fusion_lat": 0.0}, {"lat": 38.90509183333333, "lon": -77.02935133333334, "is_disabled": 0, "fusion_lon": 0.0, "is_reserved": 0, "name": "006978343b0bcebaabd3675218b2dfe5", "type": "electric_scooter", "bike_id": "006978343b0bcebaabd3675218b2dfe5", "rental_uris": {"ios": "https://dc.lft.to/lastmile_qr_scan", "android": "https://dc.lft.to/lastmile_qr_scan"}, "fusion_lat": 0.0}, {"lat": 38.919868666666666, "lon": -76.97309183333333, "is_disabled": 0, "fusion_lon": 0.0, "is_reserved": 0, "name": "c502071392426741b51e269910d9a194", "type": "electric_scooter", "bike_id": "c502071392426741b51e269910d9a194", "rental_uris": {"ios": "https://dc.lft.to/lastmile_qr_scan", "android": "https://dc.lft.to/lastmile_qr_scan"}, "fusion_lat": 0.0}, {"lat": 38.932070333333336, "lon": -77.0351585, "is_disabled": 0, "fusion_lon": 0.0, "is_reserved": 0, "name": "fbd704e1570d2998d68ca4618abfa872", "type": "electric_scooter", "bike_id": "fbd704e1570d2998d68ca4618abfa872", "rental_uris": {"ios": "https://dc.lft.to/lastmile_qr_scan", "android": "https://dc.lft.to/lastmile_qr_scan"}, "fusion_lat": 0.0}, {"lat": 38.901421666666664, "lon": -76.974203, "is_disabled": 0, "fusion_lon": 0.0, "is_reserved": 0, "name": "dd59ebc68bdae329dcc0498da36f4c50", "type": "electric_scooter", "bike_id": "dd59ebc68bdae329dcc0498da36f4c50", "rental_uris": {"ios": "https://dc.lft.to/lastmile_qr_scan", "android": "https://dc.lft.to/lastmile_qr_scan"}, "fusion_lat": 0.0}, {"lat": 38.91594, "lon": -77.0148985, "is_disabled": 0, "fusion_lon": 0.0, "is_reserved": 0, "name": "2f539e8da902bb834e4563713cd64f3a", "type": "electric_scooter", "bike_id": "2f539e8da902bb834e4563713cd64f3a", "rental_uris": {"ios": "https://dc.lft.to/lastmile_qr_scan", "android": "https://dc.lft.to/lastmile_qr_scan"}, "fusion_lat": 0.0}, {"lat": 38.903934, "lon": -77.05144283333334, "is_disabled": 0, "fusion_lon": 0.0, "is_reserved": 0, "name": "1515afe8a81a0dfd8139d11cdef11c8e", "type": "electric_scooter", "bike_id": "1515afe8a81a0dfd8139d11cdef11c8e", "rental_uris": {"ios": "https://dc.lft.to/lastmile_qr_scan", "android": "https://dc.lft.to/lastmile_qr_scan"}, "fusion_lat": 0.0}, {"lat": 38.9057675, "lon": -77.043565, "is_disabled": 0, "fusion_lon": 0.0, "is_reserved": 0, "name": "6c36e5c03f4086525b120f59f71f1e00", "type": "electric_scooter", "bike_id": "6c36e5c03f4086525b120f59f71f1e00", "rental_uris": {"ios": "https://dc.lft.to/lastmile_qr_scan", "android": "https://dc.lft.to/lastmile_qr_scan"}, "fusion_lat": 0.0}, {"lat": 38.898035166666666, "lon": -77.03157133333333, "is_disabled": 0, "fusion_lon": 0.0, "is_reserved": 0, "name": "980719106348e25be3a71148ba185ded", "type": "electric_scooter", "bike_id": "980719106348e25be3a71148ba185ded", "rental_uris": {"ios": "https://dc.lft.to/lastmile_qr_scan", "android": "https://dc.lft.to/lastmile_qr_scan"}, "fusion_lat": 0.0}, {"lat": 38.93610133333333, "lon": -77.031817, "is_disabled": 0, "fusion_lon": 0.0, "is_reserved": 0, "name": "6079a7a070b7704f6eed5128df285a7d", "type": "electric_scooter", "bike_id": "6079a7a070b7704f6eed5128df285a7d", "rental_uris": {"ios": "https://dc.lft.to/lastmile_qr_scan", "android": "https://dc.lft.to/lastmile_qr_scan"}, "fusion_lat": 0.0}, {"lat": 38.9573185, "lon": -77.024037, "is_disabled": 0, "fusion_lon": 0.0, "is_reserved": 0, "name": "89277f915c2a8b31b7998fcc173f485a", "type": "electric_scooter", "bike_id": "89277f915c2a8b31b7998fcc173f485a", "rental_uris": {"ios": "https://dc.lft.to/lastmile_qr_scan", "android": "https://dc.lft.to/lastmile_qr_scan"}, "fusion_lat": 0.0}, {"lat": 38.916935, "lon": -77.0287815, "is_disabled": 0, "fusion_lon": 0.0, "is_reserved": 0, "name": "09cbfd6f76364a855cfba5f872e77599", "type": "electric_scooter", "bike_id": "09cbfd6f76364a855cfba5f872e77599", "rental_uris": {"ios": "https://dc.lft.to/lastmile_qr_scan", "android": "https://dc.lft.to/lastmile_qr_scan"}, "fusion_lat": 0.0}, {"lat": 38.93188216666667, "lon": -77.03465883333334, "is_disabled": 0, "fusion_lon": 0.0, "is_reserved": 0, "name": "f85f2dbe79e9b8fb1d7dae5c5d13e6ee", "type": "electric_scooter", "bike_id": "f85f2dbe79e9b8fb1d7dae5c5d13e6ee", "rental_uris": {"ios": "https://dc.lft.to/lastmile_qr_scan", "android": "https://dc.lft.to/lastmile_qr_scan"}, "fusion_lat": 0.0}, {"lat": 38.937126166666665, "lon": -77.0326665, "is_disabled": 0, "fusion_lon": 0.0, "is_reserved": 0, "name": "e5ba78840e511e6574ba042ec982e6cd", "type": "electric_scooter", "bike_id": "e5ba78840e511e6574ba042ec982e6cd", "rental_uris": {"ios": "https://dc.lft.to/lastmile_qr_scan", "android": "https://dc.lft.to/lastmile_qr_scan"}, "fusion_lat": 0.0}, {"lat": 38.93879783333333, "lon": -77.024821, "is_disabled": 0, "fusion_lon": 0.0, "is_reserved": 0, "name": "f84e7621d043ccf041a3ac1c2384a26c", "type": "electric_scooter", "bike_id": "f84e7621d043ccf041a3ac1c2384a26c", "rental_uris": {"ios": "https://dc.lft.to/lastmile_qr_scan", "android": "https://dc.lft.to/lastmile_qr_scan"}, "fusion_lat": 0.0}, {"lat": 38.897337666666665, "lon": -77.043399, "is_disabled": 0, "fusion_lon": 0.0, "is_reserved": 0, "name": "44c20a09c65f48d0a8358153c961ed69", "type": "electric_scooter", "bike_id": "44c20a09c65f48d0a8358153c961ed69", "rental_uris": {"ios": "https://dc.lft.to/lastmile_qr_scan", "android": "https://dc.lft.to/lastmile_qr_scan"}, "fusion_lat": 0.0}, {"lat": 38.956353, "lon": -77.03305616666667, "is_disabled": 0, "fusion_lon": 0.0, "is_reserved": 0, "name": "516482ce08019ec8a6657c05ff3d7fe3", "type": "electric_scooter", "bike_id": "516482ce08019ec8a6657c05ff3d7fe3", "rental_uris": {"ios": "https://dc.lft.to/lastmile_qr_scan", "android": "https://dc.lft.to/lastmile_qr_scan"}, "fusion_lat": 0.0}, {"lat": 38.909551, "lon": -77.03945966666667, "is_disabled": 0, "fusion_lon": 0.0, "is_reserved": 0, "name": "ba3d2a47194bd6f89eab735cb2696a2c", "type": "electric_scooter", "bike_id": "ba3d2a47194bd6f89eab735cb2696a2c", "rental_uris": {"ios": "https://dc.lft.to/lastmile_qr_scan", "android": "https://dc.lft.to/lastmile_qr_scan"}, "fusion_lat": 0.0}, {"lat": 38.9283465, "lon": -77.05424766666667, "is_disabled": 0, "fusion_lon": 0.0, "is_reserved": 0, "name": "2c8a1f525db8f600b325402319bbb17a", "type": "electric_scooter", "bike_id": "2c8a1f525db8f600b325402319bbb17a", "rental_uris": {"ios": "https://dc.lft.to/lastmile_qr_scan", "android": "https://dc.lft.to/lastmile_qr_scan"}, "fusion_lat": 0.0}, {"lat": 38.907195, "lon": -77.0298175, "is_disabled": 0, "fusion_lon": 0.0, "is_reserved": 0, "name": "0b9d9b8cab3d96306faa1bc934dd8fc9", "type": "electric_scooter", "bike_id": "0b9d9b8cab3d96306faa1bc934dd8fc9", "rental_uris": {"ios": "https://dc.lft.to/lastmile_qr_scan", "android": "https://dc.lft.to/lastmile_qr_scan"}, "fusion_lat": 0.0}, {"lat": 38.873938833333334, "lon": -77.00189933333333, "is_disabled": 0, "fusion_lon": 0.0, "is_reserved": 0, "name": "cbf0bc2f3afa9eeb71545f83c95f4b4b", "type": "electric_scooter", "bike_id": "cbf0bc2f3afa9eeb71545f83c95f4b4b", "rental_uris": {"ios": "https://dc.lft.to/lastmile_qr_scan", "android": "https://dc.lft.to/lastmile_qr_scan"}, "fusion_lat": 0.0}, {"lat": 38.918510833333336, "lon": -76.9653925, "is_disabled": 0, "fusion_lon": 0.0, "is_reserved": 0, "name": "b40fc25536a86f81375fb519bb26eebc", "type": "electric_scooter", "bike_id": "b40fc25536a86f81375fb519bb26eebc", "rental_uris": {"ios": "https://dc.lft.to/lastmile_qr_scan", "android": "https://dc.lft.to/lastmile_qr_scan"}, "fusion_lat": 0.0}, {"lat": 38.906975333333335, "lon": -77.005822, "is_disabled": 0, "fusion_lon": 0.0, "is_reserved": 0, "name": "5e1b733be3c70564b6397b70f662b5a6", "type": "electric_scooter", "bike_id": "5e1b733be3c70564b6397b70f662b5a6", "rental_uris": {"ios": "https://dc.lft.to/lastmile_qr_scan", "android": "https://dc.lft.to/lastmile_qr_scan"}, "fusion_lat": 0.0}, {"lat": 38.921137333333334, "lon": -77.02691783333333, "is_disabled": 0, "fusion_lon": 0.0, "is_reserved": 0, "name": "b92d2ef4cc4da310890e791c95c63de9", "type": "electric_scooter", "bike_id": "b92d2ef4cc4da310890e791c95c63de9", "rental_uris": {"ios": "https://dc.lft.to/lastmile_qr_scan", "android": "https://dc.lft.to/lastmile_qr_scan"}, "fusion_lat": 0.0}, {"lat": 38.83156566666667, "lon": -76.9957575, "is_disabled": 0, "fusion_lon": 0.0, "is_reserved": 0, "name": "d8d3d38c9ebf3baf1ae40685d87a2d22", "type": "electric_bike", "bike_id": "d8d3d38c9ebf3baf1ae40685d87a2d22", "rental_uris": {"ios": "https://dc.lft.to/lastmile_qr_scan", "android": "https://dc.lft.to/lastmile_qr_scan"}, "fusion_lat": 0.0}, {"lat": 38.95733333333333, "lon": -77.02404433333334, "is_disabled": 0, "fusion_lon": 0.0, "is_reserved": 0, "name": "ca0f57c3001d723ba402fa8e91334bc4", "type": "electric_scooter", "bike_id": "ca0f57c3001d723ba402fa8e91334bc4", "rental_uris": {"ios": "https://dc.lft.to/lastmile_qr_scan", "android": "https://dc.lft.to/lastmile_qr_scan"}, "fusion_lat": 0.0}, {"lat": 38.91599566666667, "lon": -77.049061, "is_disabled": 0, "fusion_lon": 0.0, "is_reserved": 0, "name": "9f75bd7159865fabb51d5d31d89f09ff", "type": "electric_scooter", "bike_id": "9f75bd7159865fabb51d5d31d89f09ff", "rental_uris": {"ios": "https://dc.lft.to/lastmile_qr_scan", "android": "https://dc.lft.to/lastmile_qr_scan"}, "fusion_lat": 0.0}, {"lat": 38.878238, "lon": -76.99607683333333, "is_disabled": 0, "fusion_lon": 0.0, "is_reserved": 0, "name": "f066537b4114a2ed40f13d1a173bc97f", "type": "electric_scooter", "bike_id": "f066537b4114a2ed40f13d1a173bc97f", "rental_uris": {"ios": "https://dc.lft.to/lastmile_qr_scan", "android": "https://dc.lft.to/lastmile_qr_scan"}, "fusion_lat": 0.0}, {"lat": 38.916619833333336, "lon": -77.03855083333333, "is_disabled": 0, "fusion_lon": 0.0, "is_reserved": 0, "name": "1aa1ffb88705d131844dee12778e080a", "type": "electric_scooter", "bike_id": "1aa1ffb88705d131844dee12778e080a", "rental_uris": {"ios": "https://dc.lft.to/lastmile_qr_scan", "android": "https://dc.lft.to/lastmile_qr_scan"}, "fusion_lat": 0.0}, {"lat": 38.920765833333334, "lon": -77.0231755, "is_disabled": 0, "fusion_lon": 0.0, "is_reserved": 0, "name": "257c8c17ab73dca0785aa684bad66562", "type": "electric_scooter", "bike_id": "257c8c17ab73dca0785aa684bad66562", "rental_uris": {"ios": "https://dc.lft.to/lastmile_qr_scan", "android": "https://dc.lft.to/lastmile_qr_scan"}, "fusion_lat": 0.0}, {"lat": 38.88735333333333, "lon": -77.02384416666666, "is_disabled": 0, "fusion_lon": 0.0, "is_reserved": 0, "name": "6801317e15bf7af0e8b3dd036ba0d7d7", "type": "electric_scooter", "bike_id": "6801317e15bf7af0e8b3dd036ba0d7d7", "rental_uris": {"ios": "https://dc.lft.to/lastmile_qr_scan", "android": "https://dc.lft.to/lastmile_qr_scan"}, "fusion_lat": 0.0}, {"lat": 38.9202635, "lon": -77.071655, "is_disabled": 0, "fusion_lon": 0.0, "is_reserved": 0, "name": "9305b57128cbd2b8790919cdef330757", "type": "electric_scooter", "bike_id": "9305b57128cbd2b8790919cdef330757", "rental_uris": {"ios": "https://dc.lft.to/lastmile_qr_scan", "android": "https://dc.lft.to/lastmile_qr_scan"}, "fusion_lat": 0.0}, {"lat": 38.87717266666667, "lon": -77.017537, "is_disabled": 0, "fusion_lon": 0.0, "is_reserved": 0, "name": "fdd9ce6a70efb2622f14af7690acbdcd", "type": "electric_scooter", "bike_id": "fdd9ce6a70efb2622f14af7690acbdcd", "rental_uris": {"ios": "https://dc.lft.to/lastmile_qr_scan", "android": "https://dc.lft.to/lastmile_qr_scan"}, "fusion_lat": 0.0}, {"lat": 38.911177333333335, "lon": -77.03826583333333, "is_disabled": 0, "fusion_lon": 0.0, "is_reserved": 0, "name": "e0c41a9e1b9d4a6c83bd4974aa9dbefc", "type": "electric_scooter", "bike_id": "e0c41a9e1b9d4a6c83bd4974aa9dbefc", "rental_uris": {"ios": "https://dc.lft.to/lastmile_qr_scan", "android": "https://dc.lft.to/lastmile_qr_scan"}, "fusion_lat": 0.0}, {"lat": 38.899848, "lon": -77.0271045, "is_disabled": 0, "fusion_lon": 0.0, "is_reserved": 0, "name": "0a3fd40b000f4c7d2fce31241dafd2ad", "type": "electric_scooter", "bike_id": "0a3fd40b000f4c7d2fce31241dafd2ad", "rental_uris": {"ios": "https://dc.lft.to/lastmile_qr_scan", "android": "https://dc.lft.to/lastmile_qr_scan"}, "fusion_lat": 0.0}, {"lat": 38.90037433333333, "lon": -76.99834366666667, "is_disabled": 0, "fusion_lon": 0.0, "is_reserved": 0, "name": "ef42dddaef80409d50b221258d5d2664", "type": "electric_scooter", "bike_id": "ef42dddaef80409d50b221258d5d2664", "rental_uris": {"ios": "https://dc.lft.to/lastmile_qr_scan", "android": "https://dc.lft.to/lastmile_qr_scan"}, "fusion_lat": 0.0}, {"lat": 38.905771333333334, "lon": -77.00891416666667, "is_disabled": 0, "fusion_lon": 0.0, "is_reserved": 0, "name": "26b795052ea7873c6b9ea5c0163c2051", "type": "electric_scooter", "bike_id": "26b795052ea7873c6b9ea5c0163c2051", "rental_uris": {"ios": "https://dc.lft.to/lastmile_qr_scan", "android": "https://dc.lft.to/lastmile_qr_scan"}, "fusion_lat": 0.0}, {"lat": 38.9118205, "lon": -77.03511166666667, "is_disabled": 0, "fusion_lon": 0.0, "is_reserved": 0, "name": "d1c0290a23aa19cfc193e7cea737b707", "type": "electric_scooter", "bike_id": "d1c0290a23aa19cfc193e7cea737b707", "rental_uris": {"ios": "https://dc.lft.to/lastmile_qr_scan", "android": "https://dc.lft.to/lastmile_qr_scan"}, "fusion_lat": 0.0}, {"lat": 38.899065, "lon": -76.9456035, "is_disabled": 0, "fusion_lon": 0.0, "is_reserved": 0, "name": "7b7cf861ea696e228d9ea919b4ff22cb", "type": "electric_scooter", "bike_id": "7b7cf861ea696e228d9ea919b4ff22cb", "rental_uris": {"ios": "https://dc.lft.to/lastmile_qr_scan", "android": "https://dc.lft.to/lastmile_qr_scan"}, "fusion_lat": 0.0}, {"lat": 38.91798633333333, "lon": -77.02486783333333, "is_disabled": 0, "fusion_lon": 0.0, "is_reserved": 0, "name": "163fb4ccba77efc7e7d78edb665dd525", "type": "electric_scooter", "bike_id": "163fb4ccba77efc7e7d78edb665dd525", "rental_uris": {"ios": "https://dc.lft.to/lastmile_qr_scan", "android": "https://dc.lft.to/lastmile_qr_scan"}, "fusion_lat": 0.0}, {"lat": 38.89683566666667, "lon": -76.93713433333333, "is_disabled": 0, "fusion_lon": 0.0, "is_reserved": 0, "name": "c9e122d3d481ceba0d4c103d013838c0", "type": "electric_scooter", "bike_id": "c9e122d3d481ceba0d4c103d013838c0", "rental_uris": {"ios": "https://dc.lft.to/lastmile_qr_scan", "android": "https://dc.lft.to/lastmile_qr_scan"}, "fusion_lat": 0.0}, {"lat": 38.92591733333333, "lon": -77.0969325, "is_disabled": 0, "fusion_lon": 0.0, "is_reserved": 0, "name": "7b7e04644a3e76904b72cad0ea1078fa", "type": "electric_scooter", "bike_id": "7b7e04644a3e76904b72cad0ea1078fa", "rental_uris": {"ios": "https://dc.lft.to/lastmile_qr_scan", "android": "https://dc.lft.to/lastmile_qr_scan"}, "fusion_lat": 0.0}, {"lat": 38.915263333333336, "lon": -77.04861266666667, "is_disabled": 0, "fusion_lon": 0.0, "is_reserved": 0, "name": "cdeedcd2c1d05db6eb7265976a088526", "type": "electric_scooter", "bike_id": "cdeedcd2c1d05db6eb7265976a088526", "rental_uris": {"ios": "https://dc.lft.to/lastmile_qr_scan", "android": "https://dc.lft.to/lastmile_qr_scan"}, "fusion_lat": 0.0}, {"lat": 38.905607833333335, "lon": -77.03441333333333, "is_disabled": 0, "fusion_lon": 0.0, "is_reserved": 0, "name": "2341685abd0c1f866485e65277aaa807", "type": "electric_scooter", "bike_id": "2341685abd0c1f866485e65277aaa807", "rental_uris": {"ios": "https://dc.lft.to/lastmile_qr_scan", "android": "https://dc.lft.to/lastmile_qr_scan"}, "fusion_lat": 0.0}, {"lat": 38.95057216666667, "lon": -77.08027716666666, "is_disabled": 0, "fusion_lon": 0.0, "is_reserved": 0, "name": "99b7a3814f337bef119717ce24733ca3", "type": "electric_scooter", "bike_id": "99b7a3814f337bef119717ce24733ca3", "rental_uris": {"ios": "https://dc.lft.to/lastmile_qr_scan", "android": "https://dc.lft.to/lastmile_qr_scan"}, "fusion_lat": 0.0}, {"lat": 38.89899616666667, "lon": -76.99962616666667, "is_disabled": 0, "fusion_lon": 0.0, "is_reserved": 0, "name": "475e39fbc95fd9f9b2c4af477b7ce177", "type": "electric_scooter", "bike_id": "475e39fbc95fd9f9b2c4af477b7ce177", "rental_uris": {"ios": "https://dc.lft.to/lastmile_qr_scan", "android": "https://dc.lft.to/lastmile_qr_scan"}, "fusion_lat": 0.0}, {"lat": 38.917285, "lon": -77.02591266666667, "is_disabled": 0, "fusion_lon": 0.0, "is_reserved": 0, "name": "b2e97c1ef491b166d905eed54b00372e", "type": "electric_scooter", "bike_id": "b2e97c1ef491b166d905eed54b00372e", "rental_uris": {"ios": "https://dc.lft.to/lastmile_qr_scan", "android": "https://dc.lft.to/lastmile_qr_scan"}, "fusion_lat": 0.0}, {"lat": 38.934452666666665, "lon": -77.09062566666667, "is_disabled": 0, "fusion_lon": 0.0, "is_reserved": 0, "name": "5ff9364517153181aa6e191f93ff5986", "type": "electric_scooter", "bike_id": "5ff9364517153181aa6e191f93ff5986", "rental_uris": {"ios": "https://dc.lft.to/lastmile_qr_scan", "android": "https://dc.lft.to/lastmile_qr_scan"}, "fusion_lat": 0.0}, {"lat": 38.91414133333333, "lon": -77.00876966666667, "is_disabled": 0, "fusion_lon": 0.0, "is_reserved": 0, "name": "dcaa8943c53f59c909f6063191c344ab", "type": "electric_scooter", "bike_id": "dcaa8943c53f59c909f6063191c344ab", "rental_uris": {"ios": "https://dc.lft.to/lastmile_qr_scan", "android": "https://dc.lft.to/lastmile_qr_scan"}, "fusion_lat": 0.0}, {"lat": 38.87575566666667, "lon": -77.23408416666666, "is_disabled": 0, "fusion_lon": 0.0, "is_reserved": 0, "name": "811a0de4f94203f5a6d614926af50dc4", "type": "electric_bike", "bike_id": "811a0de4f94203f5a6d614926af50dc4", "rental_uris": {"ios": "https://dc.lft.to/lastmile_qr_scan", "android": "https://dc.lft.to/lastmile_qr_scan"}, "fusion_lat": 0.0}, {"lat": 38.9071945, "lon": -77.02678066666667, "is_disabled": 0, "fusion_lon": 0.0, "is_reserved": 0, "name": "57e5e347ede9aa6e97bafcf791190829", "type": "electric_scooter", "bike_id": "57e5e347ede9aa6e97bafcf791190829", "rental_uris": {"ios": "https://dc.lft.to/lastmile_qr_scan", "android": "https://dc.lft.to/lastmile_qr_scan"}, "fusion_lat": 0.0}, {"lat": 38.934589, "lon": -77.02913983333333, "is_disabled": 0, "fusion_lon": 0.0, "is_reserved": 0, "name": "d7960644adf03f7dfa56f76563308e75", "type": "electric_scooter", "bike_id": "d7960644adf03f7dfa56f76563308e75", "rental_uris": {"ios": "https://dc.lft.to/lastmile_qr_scan", "android": "https://dc.lft.to/lastmile_qr_scan"}, "fusion_lat": 0.0}, {"lat": 38.8970285, "lon": -76.93579216666667, "is_disabled": 0, "fusion_lon": 0.0, "is_reserved": 0, "name": "c2ad4622f3ad84d20cd0e3e281736004", "type": "electric_scooter", "bike_id": "c2ad4622f3ad84d20cd0e3e281736004", "rental_uris": {"ios": "https://dc.lft.to/lastmile_qr_scan", "android": "https://dc.lft.to/lastmile_qr_scan"}, "fusion_lat": 0.0}, {"lat": 38.957327, "lon": -77.02405683333333, "is_disabled": 0, "fusion_lon": 0.0, "is_reserved": 0, "name": "17d061b19557d03dd33aee03df26b031", "type": "electric_scooter", "bike_id": "17d061b19557d03dd33aee03df26b031", "rental_uris": {"ios": "https://dc.lft.to/lastmile_qr_scan", "android": "https://dc.lft.to/lastmile_qr_scan"}, "fusion_lat": 0.0}, {"lat": 38.90726033333333, "lon": -77.02980216666667, "is_disabled": 0, "fusion_lon": 0.0, "is_reserved": 0, "name": "601751ed1ce616533f23633b7f002867", "type": "electric_scooter", "bike_id": "601751ed1ce616533f23633b7f002867", "rental_uris": {"ios": "https://dc.lft.to/lastmile_qr_scan", "android": "https://dc.lft.to/lastmile_qr_scan"}, "fusion_lat": 0.0}, {"lat": 38.924941, "lon": -77.024073, "is_disabled": 0, "fusion_lon": 0.0, "is_reserved": 0, "name": "c629f654cb179eb6ccf61c16f85fdb48", "type": "electric_scooter", "bike_id": "c629f654cb179eb6ccf61c16f85fdb48", "rental_uris": {"ios": "https://dc.lft.to/lastmile_qr_scan", "android": "https://dc.lft.to/lastmile_qr_scan"}, "fusion_lat": 0.0}, {"lat": 38.899285666666664, "lon": -77.012688, "is_disabled": 0, "fusion_lon": 0.0, "is_reserved": 0, "name": "7d89b95ba385b26ac257cdab5a54e71c", "type": "electric_scooter", "bike_id": "7d89b95ba385b26ac257cdab5a54e71c", "rental_uris": {"ios": "https://dc.lft.to/lastmile_qr_scan", "android": "https://dc.lft.to/lastmile_qr_scan"}, "fusion_lat": 0.0}, {"lat": 38.91612166666667, "lon": -77.03203616666667, "is_disabled": 0, "fusion_lon": 0.0, "is_reserved": 0, "name": "c0e68caa54226773c602d87b8e47d5f7", "type": "electric_scooter", "bike_id": "c0e68caa54226773c602d87b8e47d5f7", "rental_uris": {"ios": "https://dc.lft.to/lastmile_qr_scan", "android": "https://dc.lft.to/lastmile_qr_scan"}, "fusion_lat": 0.0}, {"lat": 38.911145166666664, "lon": -77.038333, "is_disabled": 0, "fusion_lon": 0.0, "is_reserved": 0, "name": "0ddbfe4acd3533d0c6ea1034f2bef438", "type": "electric_scooter", "bike_id": "0ddbfe4acd3533d0c6ea1034f2bef438", "rental_uris": {"ios": "https://dc.lft.to/lastmile_qr_scan", "android": "https://dc.lft.to/lastmile_qr_scan"}, "fusion_lat": 0.0}, {"lat": 38.90530166666667, "lon": -77.00484716666666, "is_disabled": 0, "fusion_lon": 0.0, "is_reserved": 0, "name": "f6d433a3f77e451637c1f6e7bc21dbe9", "type": "electric_scooter", "bike_id": "f6d433a3f77e451637c1f6e7bc21dbe9", "rental_uris": {"ios": "https://dc.lft.to/lastmile_qr_scan", "android": "https://dc.lft.to/lastmile_qr_scan"}, "fusion_lat": 0.0}, {"lat": 38.980431, "lon": -76.957851, "is_disabled": 0, "fusion_lon": 0.0, "is_reserved": 0, "name": "089351a47cbc1e7a4ec30cb05b57a5a6", "type": "electric_bike", "bike_id": "089351a47cbc1e7a4ec30cb05b57a5a6", "rental_uris": {"ios": "https://dc.lft.to/lastmile_qr_scan", "android": "https://dc.lft.to/lastmile_qr_scan"}, "fusion_lat": 0.0}, {"lat": 38.92060433333333, "lon": -77.03201783333333, "is_disabled": 0, "fusion_lon": 0.0, "is_reserved": 0, "name": "1e9400f021b3bf757031b66c6c5aadf1", "type": "electric_scooter", "bike_id": "1e9400f021b3bf757031b66c6c5aadf1", "rental_uris": {"ios": "https://dc.lft.to/lastmile_qr_scan", "android": "https://dc.lft.to/lastmile_qr_scan"}, "fusion_lat": 0.0}, {"lat": 38.909909, "lon": -77.0401125, "is_disabled": 0, "fusion_lon": 0.0, "is_reserved": 0, "name": "8f278e614e7dfd8595008473b5cfdd1b", "type": "electric_scooter", "bike_id": "8f278e614e7dfd8595008473b5cfdd1b", "rental_uris": {"ios": "https://dc.lft.to/lastmile_qr_scan", "android": "https://dc.lft.to/lastmile_qr_scan"}, "fusion_lat": 0.0}, {"lat": 38.95359283333333, "lon": -76.980917, "is_disabled": 0, "fusion_lon": 0.0, "is_reserved": 0, "name": "149e599ff23cb2ab96298cd578479b4a", "type": "electric_bike", "bike_id": "149e599ff23cb2ab96298cd578479b4a", "rental_uris": {"ios": "https://dc.lft.to/lastmile_qr_scan", "android": "https://dc.lft.to/lastmile_qr_scan"}, "fusion_lat": 0.0}, {"lat": 38.94190716666667, "lon": -77.04111466666667, "is_disabled": 0, "fusion_lon": 0.0, "is_reserved": 0, "name": "1b95c33b38ff117e7c54951e452d9326", "type": "electric_scooter", "bike_id": "1b95c33b38ff117e7c54951e452d9326", "rental_uris": {"ios": "https://dc.lft.to/lastmile_qr_scan", "android": "https://dc.lft.to/lastmile_qr_scan"}, "fusion_lat": 0.0}, {"lat": 38.923585833333334, "lon": -77.050757, "is_disabled": 0, "fusion_lon": 0.0, "is_reserved": 0, "name": "a3509def8e40204428c2fc455c5a6019", "type": "electric_scooter", "bike_id": "a3509def8e40204428c2fc455c5a6019", "rental_uris": {"ios": "https://dc.lft.to/lastmile_qr_scan", "android": "https://dc.lft.to/lastmile_qr_scan"}, "fusion_lat": 0.0}, {"lat": 38.91278233333333, "lon": -77.04509833333333, "is_disabled": 0, "fusion_lon": 0.0, "is_reserved": 0, "name": "86d75777b4d51d89fce3f8fd505e40cb", "type": "electric_scooter", "bike_id": "86d75777b4d51d89fce3f8fd505e40cb", "rental_uris": {"ios": "https://dc.lft.to/lastmile_qr_scan", "android": "https://dc.lft.to/lastmile_qr_scan"}, "fusion_lat": 0.0}, {"lat": 38.90546533333333, "lon": -77.041764, "is_disabled": 0, "fusion_lon": 0.0, "is_reserved": 0, "name": "774eed78fd306c5f5b4fd4bf066645e8", "type": "electric_scooter", "bike_id": "774eed78fd306c5f5b4fd4bf066645e8", "rental_uris": {"ios": "https://dc.lft.to/lastmile_qr_scan", "android": "https://dc.lft.to/lastmile_qr_scan"}, "fusion_lat": 0.0}, {"lat": 38.89830766666667, "lon": -77.0154235, "is_disabled": 0, "fusion_lon": 0.0, "is_reserved": 0, "name": "3231f7f2f4b266194648063ff1bc25cc", "type": "electric_scooter", "bike_id": "3231f7f2f4b266194648063ff1bc25cc", "rental_uris": {"ios": "https://dc.lft.to/lastmile_qr_scan", "android": "https://dc.lft.to/lastmile_qr_scan"}, "fusion_lat": 0.0}, {"lat": 38.88633866666667, "lon": -76.92592816666667, "is_disabled": 0, "fusion_lon": 0.0, "is_reserved": 0, "name": "95159a72a9d617c182aa937bd3fa5587", "type": "electric_scooter", "bike_id": "95159a72a9d617c182aa937bd3fa5587", "rental_uris": {"ios": "https://dc.lft.to/lastmile_qr_scan", "android": "https://dc.lft.to/lastmile_qr_scan"}, "fusion_lat": 0.0}, {"lat": 38.88719316666667, "lon": -77.028289, "is_disabled": 0, "fusion_lon": 0.0, "is_reserved": 0, "name": "581a70756b1b8dff84b2a10c0e068ea5", "type": "electric_scooter", "bike_id": "581a70756b1b8dff84b2a10c0e068ea5", "rental_uris": {"ios": "https://dc.lft.to/lastmile_qr_scan", "android": "https://dc.lft.to/lastmile_qr_scan"}, "fusion_lat": 0.0}, {"lat": 38.91623583333333, "lon": -77.023938, "is_disabled": 0, "fusion_lon": 0.0, "is_reserved": 0, "name": "178e0c3d1f60d34a17a5f2232d7e320b", "type": "electric_scooter", "bike_id": "178e0c3d1f60d34a17a5f2232d7e320b", "rental_uris": {"ios": "https://dc.lft.to/lastmile_qr_scan", "android": "https://dc.lft.to/lastmile_qr_scan"}, "fusion_lat": 0.0}, {"lat": 38.8992575, "lon": -77.05002733333333, "is_disabled": 0, "fusion_lon": 0.0, "is_reserved": 0, "name": "5584a5e486b2687d24f39f88e3fc517a", "type": "electric_scooter", "bike_id": "5584a5e486b2687d24f39f88e3fc517a", "rental_uris": {"ios": "https://dc.lft.to/lastmile_qr_scan", "android": "https://dc.lft.to/lastmile_qr_scan"}, "fusion_lat": 0.0}, {"lat": 38.87865383333333, "lon": -76.96260566666666, "is_disabled": 0, "fusion_lon": 0.0, "is_reserved": 0, "name": "39a00e6befad08c6e3ab3c93a618a50b", "type": "electric_scooter", "bike_id": "39a00e6befad08c6e3ab3c93a618a50b", "rental_uris": {"ios": "https://dc.lft.to/lastmile_qr_scan", "android": "https://dc.lft.to/lastmile_qr_scan"}, "fusion_lat": 0.0}, {"lat": 38.93970566666667, "lon": -77.03259666666666, "is_disabled": 0, "fusion_lon": 0.0, "is_reserved": 0, "name": "45b0a666a3538f4cbe832c7045cbbb42", "type": "electric_scooter", "bike_id": "45b0a666a3538f4cbe832c7045cbbb42", "rental_uris": {"ios": "https://dc.lft.to/lastmile_qr_scan", "android": "https://dc.lft.to/lastmile_qr_scan"}, "fusion_lat": 0.0}, {"lat": 38.9172415, "lon": -77.03660216666667, "is_disabled": 0, "fusion_lon": 0.0, "is_reserved": 0, "name": "beea8a9940d03b70f040734445d971f0", "type": "electric_scooter", "bike_id": "beea8a9940d03b70f040734445d971f0", "rental_uris": {"ios": "https://dc.lft.to/lastmile_qr_scan", "android": "https://dc.lft.to/lastmile_qr_scan"}, "fusion_lat": 0.0}, {"lat": 38.9172565, "lon": -77.02701616666667, "is_disabled": 0, "fusion_lon": 0.0, "is_reserved": 0, "name": "79b0316872ebcbc3e22e0bf15500f2d1", "type": "electric_scooter", "bike_id": "79b0316872ebcbc3e22e0bf15500f2d1", "rental_uris": {"ios": "https://dc.lft.to/lastmile_qr_scan", "android": "https://dc.lft.to/lastmile_qr_scan"}, "fusion_lat": 0.0}, {"lat": 38.930914, "lon": -77.03081183333333, "is_disabled": 0, "fusion_lon": 0.0, "is_reserved": 0, "name": "c13dddf79ca60febfdfc9d35c362ef81", "type": "electric_scooter", "bike_id": "c13dddf79ca60febfdfc9d35c362ef81", "rental_uris": {"ios": "https://dc.lft.to/lastmile_qr_scan", "android": "https://dc.lft.to/lastmile_qr_scan"}, "fusion_lat": 0.0}, {"lat": 38.90470916666666, "lon": -77.02106683333334, "is_disabled": 0, "fusion_lon": 0.0, "is_reserved": 0, "name": "3a6b983e1b14353a0b432eada5d48082", "type": "electric_scooter", "bike_id": "3a6b983e1b14353a0b432eada5d48082", "rental_uris": {"ios": "https://dc.lft.to/lastmile_qr_scan", "android": "https://dc.lft.to/lastmile_qr_scan"}, "fusion_lat": 0.0}, {"lat": 38.884913, "lon": -76.98059316666667, "is_disabled": 0, "fusion_lon": 0.0, "is_reserved": 0, "name": "032dd6a61ddf0305d08cae0e064cd953", "type": "electric_scooter", "bike_id": "032dd6a61ddf0305d08cae0e064cd953", "rental_uris": {"ios": "https://dc.lft.to/lastmile_qr_scan", "android": "https://dc.lft.to/lastmile_qr_scan"}, "fusion_lat": 0.0}, {"lat": 38.92281416666667, "lon": -77.03205883333334, "is_disabled": 0, "fusion_lon": 0.0, "is_reserved": 0, "name": "2088c3f511d7a7f8f975d11336c2eb31", "type": "electric_scooter", "bike_id": "2088c3f511d7a7f8f975d11336c2eb31", "rental_uris": {"ios": "https://dc.lft.to/lastmile_qr_scan", "android": "https://dc.lft.to/lastmile_qr_scan"}, "fusion_lat": 0.0}, {"lat": 38.898708666666664, "lon": -77.02197266666667, "is_disabled": 0, "fusion_lon": 0.0, "is_reserved": 0, "name": "9f614d5b68220524e4ed0acf8a4d849d", "type": "electric_scooter", "bike_id": "9f614d5b68220524e4ed0acf8a4d849d", "rental_uris": {"ios": "https://dc.lft.to/lastmile_qr_scan", "android": "https://dc.lft.to/lastmile_qr_scan"}, "fusion_lat": 0.0}, {"lat": 38.921073166666666, "lon": -77.0420755, "is_disabled": 0, "fusion_lon": 0.0, "is_reserved": 0, "name": "2eceab68591ab1815ef2d7b21b908784", "type": "electric_scooter", "bike_id": "2eceab68591ab1815ef2d7b21b908784", "rental_uris": {"ios": "https://dc.lft.to/lastmile_qr_scan", "android": "https://dc.lft.to/lastmile_qr_scan"}, "fusion_lat": 0.0}, {"lat": 38.922306666666664, "lon": -77.0233485, "is_disabled": 0, "fusion_lon": 0.0, "is_reserved": 0, "name": "bc96b963c8b5a098fce4910c97de855d", "type": "electric_scooter", "bike_id": "bc96b963c8b5a098fce4910c97de855d", "rental_uris": {"ios": "https://dc.lft.to/lastmile_qr_scan", "android": "https://dc.lft.to/lastmile_qr_scan"}, "fusion_lat": 0.0}, {"lat": 38.961820833333334, "lon": -77.05268383333333, "is_disabled": 0, "fusion_lon": 0.0, "is_reserved": 0, "name": "d488f084da4850c19260e7cce41910a9", "type": "electric_bike", "bike_id": "d488f084da4850c19260e7cce41910a9", "rental_uris": {"ios": "https://dc.lft.to/lastmile_qr_scan", "android": "https://dc.lft.to/lastmile_qr_scan"}, "fusion_lat": 0.0}, {"lat": 38.873356666666666, "lon": -76.99167533333333, "is_disabled": 0, "fusion_lon": 0.0, "is_reserved": 0, "name": "88713daef380bf7df413a33abea16e09", "type": "electric_scooter", "bike_id": "88713daef380bf7df413a33abea16e09", "rental_uris": {"ios": "https://dc.lft.to/lastmile_qr_scan", "android": "https://dc.lft.to/lastmile_qr_scan"}, "fusion_lat": 0.0}, {"lat": 38.8955695, "lon": -76.94879366666666, "is_disabled": 0, "fusion_lon": 0.0, "is_reserved": 0, "name": "361592263cd3e731f627eabc2302fdab", "type": "electric_scooter", "bike_id": "361592263cd3e731f627eabc2302fdab", "rental_uris": {"ios": "https://dc.lft.to/lastmile_qr_scan", "android": "https://dc.lft.to/lastmile_qr_scan"}, "fusion_lat": 0.0}, {"lat": 38.92420666666666, "lon": -77.05753483333334, "is_disabled": 0, "fusion_lon": 0.0, "is_reserved": 0, "name": "53db1fe85eae670edf82f230a80bd502", "type": "electric_scooter", "bike_id": "53db1fe85eae670edf82f230a80bd502", "rental_uris": {"ios": "https://dc.lft.to/lastmile_qr_scan", "android": "https://dc.lft.to/lastmile_qr_scan"}, "fusion_lat": 0.0}, {"lat": 38.923676666666665, "lon": -77.02060783333333, "is_disabled": 0, "fusion_lon": 0.0, "is_reserved": 0, "name": "f66b740679df4ad63b61ed960d2f9282", "type": "electric_scooter", "bike_id": "f66b740679df4ad63b61ed960d2f9282", "rental_uris": {"ios": "https://dc.lft.to/lastmile_qr_scan", "android": "https://dc.lft.to/lastmile_qr_scan"}, "fusion_lat": 0.0}, {"lat": 38.9121175, "lon": -77.07591483333333, "is_disabled": 0, "fusion_lon": 0.0, "is_reserved": 0, "name": "11efe8e7ec49893a64812b94822bef16", "type": "electric_scooter", "bike_id": "11efe8e7ec49893a64812b94822bef16", "rental_uris": {"ios": "https://dc.lft.to/lastmile_qr_scan", "android": "https://dc.lft.to/lastmile_qr_scan"}, "fusion_lat": 0.0}, {"lat": 38.89742066666667, "lon": -77.049667, "is_disabled": 0, "fusion_lon": 0.0, "is_reserved": 0, "name": "20c1b7aaedd9d6cfcd4318914f04c5b2", "type": "electric_scooter", "bike_id": "20c1b7aaedd9d6cfcd4318914f04c5b2", "rental_uris": {"ios": "https://dc.lft.to/lastmile_qr_scan", "android": "https://dc.lft.to/lastmile_qr_scan"}, "fusion_lat": 0.0}, {"lat": 38.8984795, "lon": -76.9425965, "is_disabled": 0, "fusion_lon": 0.0, "is_reserved": 0, "name": "b80f6bfbcf88bad691d2842cf3bd261f", "type": "electric_scooter", "bike_id": "b80f6bfbcf88bad691d2842cf3bd261f", "rental_uris": {"ios": "https://dc.lft.to/lastmile_qr_scan", "android": "https://dc.lft.to/lastmile_qr_scan"}, "fusion_lat": 0.0}, {"lat": 38.91690966666667, "lon": -77.03044766666666, "is_disabled": 0, "fusion_lon": 0.0, "is_reserved": 0, "name": "d62801345459022e78c1fba5d72d258f", "type": "electric_scooter", "bike_id": "d62801345459022e78c1fba5d72d258f", "rental_uris": {"ios": "https://dc.lft.to/lastmile_qr_scan", "android": "https://dc.lft.to/lastmile_qr_scan"}, "fusion_lat": 0.0}, {"lat": 38.942556833333335, "lon": -76.99073716666666, "is_disabled": 0, "fusion_lon": 0.0, "is_reserved": 0, "name": "3547c5c11043f530e35430ee3e574744", "type": "electric_bike", "bike_id": "3547c5c11043f530e35430ee3e574744", "rental_uris": {"ios": "https://dc.lft.to/lastmile_qr_scan", "android": "https://dc.lft.to/lastmile_qr_scan"}, "fusion_lat": 0.0}, {"lat": 38.90509, "lon": -77.05912983333333, "is_disabled": 0, "fusion_lon": 0.0, "is_reserved": 0, "name": "d7dd8c341a7f12bac1da5016c6096b8b", "type": "electric_scooter", "bike_id": "d7dd8c341a7f12bac1da5016c6096b8b", "rental_uris": {"ios": "https://dc.lft.to/lastmile_qr_scan", "android": "https://dc.lft.to/lastmile_qr_scan"}, "fusion_lat": 0.0}, {"lat": 38.9182225, "lon": -77.0120845, "is_disabled": 0, "fusion_lon": 0.0, "is_reserved": 0, "name": "22da82827128f5d99bf51d6ead4c9594", "type": "electric_scooter", "bike_id": "22da82827128f5d99bf51d6ead4c9594", "rental_uris": {"ios": "https://dc.lft.to/lastmile_qr_scan", "android": "https://dc.lft.to/lastmile_qr_scan"}, "fusion_lat": 0.0}, {"lat": 38.91625333333333, "lon": -77.02700066666667, "is_disabled": 0, "fusion_lon": 0.0, "is_reserved": 0, "name": "dd1760e4bf21134ef28fb22d6e795851", "type": "electric_scooter", "bike_id": "dd1760e4bf21134ef28fb22d6e795851", "rental_uris": {"ios": "https://dc.lft.to/lastmile_qr_scan", "android": "https://dc.lft.to/lastmile_qr_scan"}, "fusion_lat": 0.0}, {"lat": 38.923075833333336, "lon": -76.99779016666666, "is_disabled": 0, "fusion_lon": 0.0, "is_reserved": 0, "name": "33a4ea15e275a7f3355b31da91dd85ee", "type": "electric_scooter", "bike_id": "33a4ea15e275a7f3355b31da91dd85ee", "rental_uris": {"ios": "https://dc.lft.to/lastmile_qr_scan", "android": "https://dc.lft.to/lastmile_qr_scan"}, "fusion_lat": 0.0}, {"lat": 38.88097116666667, "lon": -77.01657866666666, "is_disabled": 0, "fusion_lon": 0.0, "is_reserved": 0, "name": "51ddd404dbd07b2030f34e9dde265a1a", "type": "electric_scooter", "bike_id": "51ddd404dbd07b2030f34e9dde265a1a", "rental_uris": {"ios": "https://dc.lft.to/lastmile_qr_scan", "android": "https://dc.lft.to/lastmile_qr_scan"}, "fusion_lat": 0.0}, {"lat": 38.923752, "lon": -77.03537166666666, "is_disabled": 0, "fusion_lon": 0.0, "is_reserved": 0, "name": "173bb7779089b30d1832516078e0205d", "type": "electric_scooter", "bike_id": "173bb7779089b30d1832516078e0205d", "rental_uris": {"ios": "https://dc.lft.to/lastmile_qr_scan", "android": "https://dc.lft.to/lastmile_qr_scan"}, "fusion_lat": 0.0}, {"lat": 38.921926666666664, "lon": -77.04015733333334, "is_disabled": 0, "fusion_lon": 0.0, "is_reserved": 0, "name": "5945f15a983c425da733383075033adb", "type": "electric_scooter", "bike_id": "5945f15a983c425da733383075033adb", "rental_uris": {"ios": "https://dc.lft.to/lastmile_qr_scan", "android": "https://dc.lft.to/lastmile_qr_scan"}, "fusion_lat": 0.0}, {"lat": 38.916331666666665, "lon": -77.042348, "is_disabled": 0, "fusion_lon": 0.0, "is_reserved": 0, "name": "2b6275691ec73b865208dea51bd377b8", "type": "electric_scooter", "bike_id": "2b6275691ec73b865208dea51bd377b8", "rental_uris": {"ios": "https://dc.lft.to/lastmile_qr_scan", "android": "https://dc.lft.to/lastmile_qr_scan"}, "fusion_lat": 0.0}, {"lat": 38.938946666666666, "lon": -76.98609866666666, "is_disabled": 0, "fusion_lon": 0.0, "is_reserved": 0, "name": "5f690e26709822fd13584cfc138bb4ff", "type": "electric_scooter", "bike_id": "5f690e26709822fd13584cfc138bb4ff", "rental_uris": {"ios": "https://dc.lft.to/lastmile_qr_scan", "android": "https://dc.lft.to/lastmile_qr_scan"}, "fusion_lat": 0.0}, {"lat": 38.917583, "lon": -77.03999283333333, "is_disabled": 0, "fusion_lon": 0.0, "is_reserved": 0, "name": "511ad10656ed5de5c173199a4b30301b", "type": "electric_scooter", "bike_id": "511ad10656ed5de5c173199a4b30301b", "rental_uris": {"ios": "https://dc.lft.to/lastmile_qr_scan", "android": "https://dc.lft.to/lastmile_qr_scan"}, "fusion_lat": 0.0}, {"lat": 38.902702833333336, "lon": -77.05316216666667, "is_disabled": 0, "fusion_lon": 0.0, "is_reserved": 0, "name": "c7eca90b9fd784ecce656e2865f48df3", "type": "electric_scooter", "bike_id": "c7eca90b9fd784ecce656e2865f48df3", "rental_uris": {"ios": "https://dc.lft.to/lastmile_qr_scan", "android": "https://dc.lft.to/lastmile_qr_scan"}, "fusion_lat": 0.0}, {"lat": 38.874538333333334, "lon": -77.00546466666667, "is_disabled": 0, "fusion_lon": 0.0, "is_reserved": 0, "name": "13cb0bfb3a7c12f62a543014261ed531", "type": "electric_scooter", "bike_id": "13cb0bfb3a7c12f62a543014261ed531", "rental_uris": {"ios": "https://dc.lft.to/lastmile_qr_scan", "android": "https://dc.lft.to/lastmile_qr_scan"}, "fusion_lat": 0.0}, {"lat": 38.92754466666667, "lon": -77.03280116666667, "is_disabled": 0, "fusion_lon": 0.0, "is_reserved": 0, "name": "ff37054ec77664a4a0faf26b8b21bce4", "type": "electric_scooter", "bike_id": "ff37054ec77664a4a0faf26b8b21bce4", "rental_uris": {"ios": "https://dc.lft.to/lastmile_qr_scan", "android": "https://dc.lft.to/lastmile_qr_scan"}, "fusion_lat": 0.0}, {"lat": 38.923402333333335, "lon": -77.0518135, "is_disabled": 0, "fusion_lon": 0.0, "is_reserved": 0, "name": "f73d146f1a2505582d0408a0ab23bfae", "type": "electric_scooter", "bike_id": "f73d146f1a2505582d0408a0ab23bfae", "rental_uris": {"ios": "https://dc.lft.to/lastmile_qr_scan", "android": "https://dc.lft.to/lastmile_qr_scan"}, "fusion_lat": 0.0}, {"lat": 38.893208666666666, "lon": -77.08607433333333, "is_disabled": 0, "fusion_lon": 0.0, "is_reserved": 0, "name": "be77df535cfcf216768fbe8e3ed52555", "type": "electric_bike", "bike_id": "be77df535cfcf216768fbe8e3ed52555", "rental_uris": {"ios": "https://dc.lft.to/lastmile_qr_scan", "android": "https://dc.lft.to/lastmile_qr_scan"}, "fusion_lat": 0.0}, {"lat": 38.88449683333333, "lon": -77.01761216666667, "is_disabled": 0, "fusion_lon": 0.0, "is_reserved": 0, "name": "e16b083580fe4810ff4620a7aed37725", "type": "electric_scooter", "bike_id": "e16b083580fe4810ff4620a7aed37725", "rental_uris": {"ios": "https://dc.lft.to/lastmile_qr_scan", "android": "https://dc.lft.to/lastmile_qr_scan"}, "fusion_lat": 0.0}, {"lat": 38.87285816666667, "lon": -77.00987683333334, "is_disabled": 0, "fusion_lon": 0.0, "is_reserved": 0, "name": "58b750035579a27b196e606a9b6dee16", "type": "electric_scooter", "bike_id": "58b750035579a27b196e606a9b6dee16", "rental_uris": {"ios": "https://dc.lft.to/lastmile_qr_scan", "android": "https://dc.lft.to/lastmile_qr_scan"}, "fusion_lat": 0.0}, {"lat": 38.9363315, "lon": -77.06630083333333, "is_disabled": 0, "fusion_lon": 0.0, "is_reserved": 0, "name": "ece078a8dca2dffb14e5a5bb1f838492", "type": "electric_scooter", "bike_id": "ece078a8dca2dffb14e5a5bb1f838492", "rental_uris": {"ios": "https://dc.lft.to/lastmile_qr_scan", "android": "https://dc.lft.to/lastmile_qr_scan"}, "fusion_lat": 0.0}, {"lat": 38.903319333333336, "lon": -76.97594116666667, "is_disabled": 0, "fusion_lon": 0.0, "is_reserved": 0, "name": "eeb82e1d9b942f9de399a082ff11ddbf", "type": "electric_scooter", "bike_id": "eeb82e1d9b942f9de399a082ff11ddbf", "rental_uris": {"ios": "https://dc.lft.to/lastmile_qr_scan", "android": "https://dc.lft.to/lastmile_qr_scan"}, "fusion_lat": 0.0}, {"lat": 38.906500333333334, "lon": -77.02472616666667, "is_disabled": 0, "fusion_lon": 0.0, "is_reserved": 0, "name": "c21ec1d44b678726849f337821eb5cc5", "type": "electric_scooter", "bike_id": "c21ec1d44b678726849f337821eb5cc5", "rental_uris": {"ios": "https://dc.lft.to/lastmile_qr_scan", "android": "https://dc.lft.to/lastmile_qr_scan"}, "fusion_lat": 0.0}, {"lat": 38.92645983333333, "lon": -77.00758733333333, "is_disabled": 0, "fusion_lon": 0.0, "is_reserved": 0, "name": "34b6d280e4e60bf07c0432e69a74d9b5", "type": "electric_scooter", "bike_id": "34b6d280e4e60bf07c0432e69a74d9b5", "rental_uris": {"ios": "https://dc.lft.to/lastmile_qr_scan", "android": "https://dc.lft.to/lastmile_qr_scan"}, "fusion_lat": 0.0},