{"data": {"bikes": [{"lon": -76.965322, "lat": 38.876271, "name": "7ea71340e5db43689d8de41d691e0a77", "fusion_lat": 0.0, "fusion_lon": 0.0, "rental_uris": {"android": "https://dc.lft.to/lastmile_qr_scan", "ios": "https://dc.lft.to/lastmile_qr_scan"}, "is_reserved": 0, "is_disabled": 0, "type": "electric_scooter", "bike_id": "7ea71340e5db43689d8de41d691e0a77"}, {"lon": -77.02691033333333, "lat": 38.90943466666667, "name": "dc73bdd0634d10c1417042cbf9cfb2c8", "fusion_lat": 0.0, "fusion_lon": 0.0, "rental_uris": {"android": "https://dc.lft.to/lastmile_qr_scan", "ios": "https://dc.lft.to/lastmile_qr_scan"}, "is_reserved": 0, "is_disabled": 0, "type": "electric_scooter", "bike_id": "dc73bdd0634d10c1417042cbf9cfb2c8"}, {"lon": -77.04020216666666, "lat": 38.921825, "name": "0f668d9c74e081acd2bca686c89bcbf2", "fusion_lat": 0.0, "fusion_lon": 0.0, "rental_uris": {"android": "https://dc.lft.to/lastmile_qr_scan", "ios": "https://dc.lft.to/lastmile_qr_scan"}, "is_reserved": 0, "is_disabled": 0, "type": "electric_scooter", "bike_id": "0f668d9c74e081acd2bca686c89bcbf2"}, {"lon": -77.02824616666666, "lat": 38.9159645, "name": "8ecfee58ac05d692f7850ef0df8c1944", "fusion_lat": 0.0, "fusion_lon": 0.0, "rental_uris": {"android": "https://dc.lft.to/lastmile_qr_scan", "ios": "https://dc.lft.to/lastmile_qr_scan"}, "is_reserved": 0, "is_disabled": 0, "type": "electric_scooter", "bike_id": "8ecfee58ac05d692f7850ef0df8c1944"}, {"lon": -77.02720316666667, "lat": 38.89215566666667, "name": "cf89b0877f0f4cf401850e1520c8c6d1", "fusion_lat": 0.0, "fusion_lon": 0.0, "rental_uris": {"android": "https://dc.lft.to/lastmile_qr_scan", "ios": "https://dc.lft.to/lastmile_qr_scan"}, "is_reserved": 0, "is_disabled": 0, "type": "electric_scooter", "bike_id": "cf89b0877f0f4cf401850e1520c8c6d1"}, {"lon": -77.0110665, "lat": 38.90364016666667, "name": "2b4004c4bc5332db3a8e8f13a9b28f28", "fusion_lat": 0.0, "fusion_lon": 0.0, "rental_uris": {"android": "https://dc.lft.to/lastmile_qr_scan", "ios": "https://dc.lft.to/lastmile_qr_scan"}, "is_reserved": 0, "is_disabled": 0, "type": "electric_scooter", "bike_id": "2b4004c4bc5332db3a8e8f13a9b28f28"}, {"lon": -77.0469265, "lat": 38.921278666666666, "name": "ce7d862a4d036bca6ea23e8c23411420", "fusion_lat": 0.0, "fusion_lon": 0.0, "rental_uris": {"android": "https://dc.lft.to/lastmile_qr_scan", "ios": "https://dc.lft.to/lastmile_qr_scan"}, "is_reserved": 0, "is_disabled": 0, "type": "electric_scooter", "bike_id": "ce7d862a4d036bca6ea23e8c23411420"}, {"lon": -76.94666683333334, "lat": 38.898675, "name": "ed7f163bffb58db76e74df958a12b962", "fusion_lat": 0.0, "fusion_lon": 0.0, "rental_uris": {"android": "https://dc.lft.to/lastmile_qr_scan", "ios": "https://dc.lft.to/lastmile_qr_scan"}, "is_reserved": 0, "is_disabled": 0, "type": "electric_scooter", "bike_id": "ed7f163bffb58db76e74df958a12b962"}, {"lon": -77.04739033333334, "lat": 38.912586833333336, "name": "f80806ac5afb7ddf9e66a0c1c706d27a", "fusion_lat": 0.0, "fusion_lon": 0.0, "rental_uris": {"android": "https://dc.lft.to/lastmile_qr_scan", "ios": "https://dc.lft.to/lastmile_qr_scan"}, "is_reserved": 0, "is_disabled": 0, "type": "electric_scooter", "bike_id": "f80806ac5afb7ddf9e66a0c1c706d27a"}, {"lon": -77.026305, "lat": 38.896424333333336, "name": "a8be9d09c578f71c40b0f5e972a87b86", "fusion_lat": 0.0, "fusion_lon": 0.0, "rental_uris": {"android": "https://dc.lft.to/lastmile_qr_scan", "ios": "https://dc.lft.to/lastmile_qr_scan"}, "is_reserved": 0, "is_disabled": 0, "type": "electric_scooter", "bike_id": "a8be9d09c578f71c40b0f5e972a87b86"}, {"lon": -77.03949916666667, "lat": 38.90822766666667, "name": "8784a3feb1ddee21997291314b3ff9a1", "fusion_lat": 0.0, "fusion_lon": 0.0, "rental_uris": {"android": "https://dc.lft.to/lastmile_qr_scan", "ios": "https://dc.lft.to/lastmile_qr_scan"}, "is_reserved": 0, "is_disabled": 0, "type": "electric_scooter", "bike_id": "8784a3feb1ddee21997291314b3ff9a1"}, {"lon": -77.021071, "lat": 38.934455166666666, "name": "98aa139157136e0f527ec3d66e7df7c0", "fusion_lat": 0.0, "fusion_lon": 0.0, "rental_uris": {"android": "https://dc.lft.to/lastmile_qr_scan", "ios": "https://dc.lft.to/lastmile_qr_scan"}, "is_reserved": 0, "is_disabled": 0, "type": "electric_scooter", "bike_id": "98aa139157136e0f527ec3d66e7df7c0"}, {"lon": -77.0330695, "lat": 38.909626833333334, "name": "b9afcf24e1c3d4e2ef65d06e1405f653", "fusion_lat": 0.0, "fusion_lon": 0.0, "rental_uris": {"android": "https://dc.lft.to/lastmile_qr_scan", "ios": "https://dc.lft.to/lastmile_qr_scan"}, "is_reserved": 0, "is_disabled": 0, "type": "electric_scooter", "bike_id": "b9afcf24e1c3d4e2ef65d06e1405f653"}, {"lon": -77.000366, "lat": 38.8763585, "name": "77d697060efa63b2b1fea53230a354ec", "fusion_lat": 0.0, "fusion_lon": 0.0, "rental_uris": {"android": "https://dc.lft.to/lastmile_qr_scan", "ios": "https://dc.lft.to/lastmile_qr_scan"}, "is_reserved": 0, "is_disabled": 0, "type": "electric_scooter", "bike_id": "77d697060efa63b2b1fea53230a354ec"}, {"lon": -77.00335633333333, "lat": 38.893548333333335, "name": "016c7de7713bfe6f10a40f82181c710b", "fusion_lat": 0.0, "fusion_lon": 0.0, "rental_uris": {"android": "https://dc.lft.to/lastmile_qr_scan", "ios": "https://dc.lft.to/lastmile_qr_scan"}, "is_reserved": 0, "is_disabled": 0, "type": "electric_scooter", "bike_id": "016c7de7713bfe6f10a40f82181c710b"}, {"lon": -77.01409933333333, "lat": 38.928480666666665, "name": "30206902ece82be926e13c8e77717d1c", "fusion_lat": 0.0, "fusion_lon": 0.0, "rental_uris": {"android": "https://dc.lft.to/lastmile_qr_scan", "ios": "https://dc.lft.to/lastmile_qr_scan"}, "is_reserved": 0, "is_disabled": 0, "type": "electric_scooter", "bike_id": "30206902ece82be926e13c8e77717d1c"}, {"lon": -76.957551, "lat": 38.884257833333336, "name": "3bb257789ba0c1b650a3a4cf4c6e294f", "fusion_lat": 0.0, "fusion_lon": 0.0, "rental_uris": {"android": "https://dc.lft.to/lastmile_qr_scan", "ios": "https://dc.lft.to/lastmile_qr_scan"}, "is_reserved": 0, "is_disabled": 0, "type": "electric_scooter", "bike_id": "3bb257789ba0c1b650a3a4cf4c6e294f"}, {"lon": -77.0321205, "lat": 38.90772183333333, "name": "cc34e1df996553e6da3e0ff1c9128b01", "fusion_lat": 0.0, "fusion_lon": 0.0, "rental_uris": {"android": "https://dc.lft.to/lastmile_qr_scan", "ios": "https://dc.lft.to/lastmile_qr_scan"}, "is_reserved": 0, "is_disabled": 0, "type": "electric_scooter", "bike_id": "cc34e1df996553e6da3e0ff1c9128b01"}, {"lon": -77.04506433333333, "lat": 38.912737166666666, "name": "eb21f9cdc77a98786245915d710b2096", "fusion_lat": 0.0, "fusion_lon": 0.0, "rental_uris": {"android": "https://dc.lft.to/lastmile_qr_scan", "ios": "https://dc.lft.to/lastmile_qr_scan"}, "is_reserved": 0, "is_disabled": 0, "type": "electric_scooter", "bike_id": "eb21f9cdc77a98786245915d710b2096"}, {"lon": -77.02966216666667, "lat": 38.92407016666667, "name": "850cc39fdc61d347430e1541fe5d5df4", "fusion_lat": 0.0, "fusion_lon": 0.0, "rental_uris": {"android": "https://dc.lft.to/lastmile_qr_scan", "ios": "https://dc.lft.to/lastmile_qr_scan"}, "is_reserved": 0, "is_disabled": 0, "type": "electric_scooter", "bike_id": "850cc39fdc61d347430e1541fe5d5df4"}, {"lon": -76.98325166666666, "lat": 38.86171916666667, "name": "1ef014f386439392ae786d9b4888d0ea", "fusion_lat": 0.0, "fusion_lon": 0.0, "rental_uris": {"android": "https://dc.lft.to/lastmile_qr_scan", "ios": "https://dc.lft.to/lastmile_qr_scan"}, "is_reserved": 0, "is_disabled": 0, "type": "electric_scooter", "bike_id": "1ef014f386439392ae786d9b4888d0ea"}, {"lon": -77.023655, "lat": 38.925112166666665, "name": "854b52ba1d63649b5236588913da66a0", "fusion_lat": 0.0, "fusion_lon": 0.0, "rental_uris": {"android": "https://dc.lft.to/lastmile_qr_scan", "ios": "https://dc.lft.to/lastmile_qr_scan"}, "is_reserved": 0, "is_disabled": 0, "type": "electric_scooter", "bike_id": "854b52ba1d63649b5236588913da66a0"}, {"lon": -77.15270233333334, "lat": 39.1056485, "name": "b8c1f463f668834927f23f2796a73ac9", "fusion_lat": 0.0, "fusion_lon": 0.0, "rental_uris": {"android": "https://dc.lft.to/lastmile_qr_scan", "ios": "https://dc.lft.to/lastmile_qr_scan"}, "is_reserved": 0, "is_disabled": 0, "type": "electric_bike", "bike_id": "b8c1f463f668834927f23f2796a73ac9"}, {"lon": -77.05308533333333, "lat": 38.925469166666666, "name": "57fb7b8269f87a16e91553ac52f80f36", "fusion_lat": 0.0, "fusion_lon": 0.0, "rental_uris": {"android": "https://dc.lft.to/lastmile_qr_scan", "ios": "https://dc.lft.to/lastmile_qr_scan"}, "is_reserved": 0, "is_disabled": 0, "type": "electric_scooter", "bike_id": "57fb7b8269f87a16e91553ac52f80f36"}, {"lon": -77.03459583333333, "lat": 38.91812566666667, "name": "23a86add728947feb47d2a59c39cbf6e", "fusion_lat": 0.0, "fusion_lon": 0.0, "rental_uris": {"android": "https://dc.lft.to/lastmile_qr_scan", "ios": "https://dc.lft.to/lastmile_qr_scan"}, "is_reserved": 0, "is_disabled": 0, "type": "electric_scooter", "bike_id": "23a86add728947feb47d2a59c39cbf6e"}, {"lon": -77.0438585, "lat": 38.90388883333333, "name": "b173f1fbcb5379627877b0587a23a32c", "fusion_lat": 0.0, "fusion_lon": 0.0, "rental_uris": {"android": "https://dc.lft.to/lastmile_qr_scan", "ios": "https://dc.lft.to/lastmile_qr_scan"}, "is_reserved": 0, "is_disabled": 0, "type": "electric_scooter", "bike_id": "b173f1fbcb5379627877b0587a23a32c"}, {"lon": -77.02976616666666, "lat": 38.922544, "name": "f3a7871225ad4951d866f3310675d8e8", "fusion_lat": 0.0, "fusion_lon": 0.0, "rental_uris": {"android": "https://dc.lft.to/lastmile_qr_scan", "ios": "https://dc.lft.to/lastmile_qr_scan"}, "is_reserved": 0, "is_disabled": 0, "type": "electric_scooter", "bike_id": "f3a7871225ad4951d866f3310675d8e8"}, {"lon": -76.91653116666667, "lat": 38.86859283333333, "name": "8cc4a4b97f337da60261f8b4547005d5", "fusion_lat": 0.0, "fusion_lon": 0.0, "rental_uris": {"android": "https://dc.lft.to/lastmile_qr_scan", "ios": "https://dc.lft.to/lastmile_qr_scan"}, "is_reserved": 0, "is_disabled": 0, "type": "electric_bike", "bike_id": "8cc4a4b97f337da60261f8b4547005d5"}, {"lon": -77.00208716666667, "lat": 38.90218183333333, "name": "30c805488e1f79cc42f2fd0877b1bd15", "fusion_lat": 0.0, "fusion_lon": 0.0, "rental_uris": {"android": "https://dc.lft.to/lastmile_qr_scan", "ios": "https://dc.lft.to/lastmile_qr_scan"}, "is_reserved": 0, "is_disabled": 0, "type": "electric_scooter", "bike_id": "30c805488e1f79cc42f2fd0877b1bd15"}, {"lon": -77.04341833333334, "lat": 38.896643, "name": "b99e36955694be6d3d1fa465e11df427", "fusion_lat": 0.0, "fusion_lon": 0.0, "rental_uris": {"android": "https://dc.lft.to/lastmile_qr_scan", "ios": "https://dc.lft.to/lastmile_qr_scan"}, "is_reserved": 0, "is_disabled": 0, "type": "electric_scooter", "bike_id": "b99e36955694be6d3d1fa465e11df427"}, {"lon": -77.10767866666667, "lat": 38.89225366666667, "name": "a1b1f775eda068f37c4e849341b0df8e", "fusion_lat": 0.0, "fusion_lon": 0.0, "rental_uris": {"android": "https://dc.lft.to/lastmile_qr_scan", "ios": "https://dc.lft.to/lastmile_qr_scan"}, "is_reserved": 0, "is_disabled": 0, "type": "electric_bike", "bike_id": "a1b1f775eda068f37c4e849341b0df8e"}, {"lon": -77.02694716666667, "lat": 38.91518583333333, "name": "440698b60c49fa30dede452c02faaf16", "fusion_lat": 0.0, "fusion_lon": 0.0, "rental_uris": {"android": "https://dc.lft.to/lastmile_qr_scan", "ios": "https://dc.lft.to/lastmile_qr_scan"}, "is_reserved": 0, "is_disabled": 0, "type": "electric_scooter", "bike_id": "440698b60c49fa30dede452c02faaf16"}, {"lon": -77.02945533333333, "lat": 38.9037555, "name": "69a30f22a3d4e67e3deef786a5598872", "fusion_lat": 0.0, "fusion_lon": 0.0, "rental_uris": {"android": "https://dc.lft.to/lastmile_qr_scan", "ios": "https://dc.lft.to/lastmile_qr_scan"}, "is_reserved": 0, "is_disabled": 0, "type": "electric_scooter", "bike_id": "69a30f22a3d4e67e3deef786a5598872"}, {"lon": -76.95410333333334, "lat": 38.89155816666667, "name": "30a6f4e2dc6d1dd03a2957d8af98becd", "fusion_lat": 0.0, "fusion_lon": 0.0, "rental_uris": {"android": "https://dc.lft.to/lastmile_qr_scan", "ios": "https://dc.lft.to/lastmile_qr_scan"}, "is_reserved": 0, "is_disabled": 0, "type": "electric_scooter", "bike_id": "30a6f4e2dc6d1dd03a2957d8af98becd"}, {"lon": -77.02971616666666, "lat": 38.916761666666666, "name": "7dac7f376a4256fac0d58df4a91519ce", "fusion_lat": 0.0, "fusion_lon": 0.0, "rental_uris": {"android": "https://dc.lft.to/lastmile_qr_scan", "ios": "https://dc.lft.to/lastmile_qr_scan"}, "is_reserved": 0, "is_disabled": 0, "type": "electric_scooter", "bike_id": "7dac7f376a4256fac0d58df4a91519ce"}, {"lon": -77.04423233333333, "lat": 38.89184983333333, "name": "7ba67cb9340e978b85991451ea4ef1e0", "fusion_lat": 0.0, "fusion_lon": 0.0, "rental_uris": {"android": "https://dc.lft.to/lastmile_qr_scan", "ios": "https://dc.lft.to/lastmile_qr_scan"}, "is_reserved": 0, "is_disabled": 0, "type": "electric_scooter", "bike_id": "7ba67cb9340e978b85991451ea4ef1e0"}, {"lon": -77.04037816666667, "lat": 38.9190345, "name": "1efdbe59a8e0c069077313e38aba574f", "fusion_lat": 0.0, "fusion_lon": 0.0, "rental_uris": {"android": "https://dc.lft.to/lastmile_qr_scan", "ios": "https://dc.lft.to/lastmile_qr_scan"}, "is_reserved": 0, "is_disabled": 0, "type": "electric_scooter", "bike_id": "1efdbe59a8e0c069077313e38aba574f"}, {"lon": -77.02633583333333, "lat": 38.962167666666666, "name": "af1c8c6c4301706f7d1a1a11b1761ba9", "fusion_lat": 0.0, "fusion_lon": 0.0, "rental_uris": {"android": "https://dc.lft.to/lastmile_qr_scan", "ios": "https://dc.lft.to/lastmile_qr_scan"}, "is_reserved": 0, "is_disabled": 0, "type": "electric_bike", "bike_id": "af1c8c6c4301706f7d1a1a11b1761ba9"}, {"lon": -77.03463633333334, "lat": 38.945760166666666, "name": "c1b876e3a79adf6693d627d379af9c4e", "fusion_lat": 0.0, "fusion_lon": 0.0, "rental_uris": {"android": "https://dc.lft.to/lastmile_qr_scan", "ios": "https://dc.lft.to/lastmile_qr_scan"}, "is_reserved": 0, "is_disabled": 0, "type": "electric_scooter", "bike_id": "c1b876e3a79adf6693d627d379af9c4e"}, {"lon": -77.02188316666667, "lat": 38.898196666666664, "name": "ccf87221ca2549097b89b4c10dde14ef", "fusion_lat": 0.0, "fusion_lon": 0.0, "rental_uris": {"android": "https://dc.lft.to/lastmile_qr_scan", "ios": "https://dc.lft.to/lastmile_qr_scan"}, "is_reserved": 0, "is_disabled": 0, "type": "electric_scooter", "bike_id": "ccf87221ca2549097b89b4c10dde14ef"}, {"lon": -76.99501483333333, "lat": 38.862449, "name": "94bde9d0a3744f3a64a1727e88f5827e", "fusion_lat": 0.0, "fusion_lon": 0.0, "rental_uris": {"android": "https://dc.lft.to/lastmile_qr_scan", "ios": "https://dc.lft.to/lastmile_qr_scan"}, "is_reserved": 0, "is_disabled": 0, "type": "electric_scooter", "bike_id": "94bde9d0a3744f3a64a1727e88f5827e"}, {"lon": -77.00725333333334, "lat": 38.88491416666667, "name": "2cdca17d3343ece0c0b488a00f3abefe", "fusion_lat": 0.0, "fusion_lon": 0.0, "rental_uris": {"android": "https://dc.lft.to/lastmile_qr_scan", "ios": "https://dc.lft.to/lastmile_qr_scan"}, "is_reserved": 0, "is_disabled": 0, "type": "electric_scooter", "bike_id": "2cdca17d3343ece0c0b488a00f3abefe"}, {"lon": -77.03181083333334, "lat": 38.91560366666667, "name": "ba77c821f279e86c063cec0db1599a9e", "fusion_lat": 0.0, "fusion_lon": 0.0, "rental_uris": {"android": "https://dc.lft.to/lastmile_qr_scan", "ios": "https://dc.lft.to/lastmile_qr_scan"}, "is_reserved": 0, "is_disabled": 0, "type": "electric_scooter", "bike_id": "ba77c821f279e86c063cec0db1599a9e"}, {"lon": -77.03368383333333, "lat": 38.885080333333335, "name": "15cc67479e1a85744e8428bd7466c453", "fusion_lat": 0.0, "fusion_lon": 0.0, "rental_uris": {"android": "https://dc.lft.to/lastmile_qr_scan", "ios": "https://dc.lft.to/lastmile_qr_scan"}, "is_reserved": 0, "is_disabled": 0, "type": "electric_scooter", "bike_id": "15cc67479e1a85744e8428bd7466c453"}, {"lon": -77.03084766666667, "lat": 38.91259566666667, "name": "ea9f988bd9a82b64c43e146ea568d40b", "fusion_lat": 0.0, "fusion_lon": 0.0, "rental_uris": {"android": "https://dc.lft.to/lastmile_qr_scan", "ios": "https://dc.lft.to/lastmile_qr_scan"}, "is_reserved": 0, "is_disabled": 0, "type": "electric_scooter", "bike_id": "ea9f988bd9a82b64c43e146ea568d40b"}, {"lon": -76.995569, "lat": 38.8860815, "name": "d4e9b23255ad3709b948c3a03243177d", "fusion_lat": 0.0, "fusion_lon": 0.0, "rental_uris": {"android": "https://dc.lft.to/lastmile_qr_scan", "ios": "https://dc.lft.to/lastmile_qr_scan"}, "is_reserved": 0, "is_disabled": 0, "type": "electric_scooter", "bike_id": "d4e9b23255ad3709b948c3a03243177d"}, {"lon": -77.08549583333334, "lat": 38.8562195, "name": "b30523180ba9a81152596f8cf8ba5ddf", "fusion_lat": 0.0, "fusion_lon": 0.0, "rental_uris": {"android": "https://dc.lft.to/lastmile_qr_scan", "ios": "https://dc.lft.to/lastmile_qr_scan"}, "is_reserved": 0, "is_disabled": 0, "type": "electric_bike", "bike_id": "b30523180ba9a81152596f8cf8ba5ddf"}, {"lon": -77.17851316666666, "lat": 39.089045166666665, "name": "e89ecac8dc897074d167cd46dcb317dc", "fusion_lat": 0.0, "fusion_lon": 0.0, "rental_uris": {"android": "https://dc.lft.to/lastmile_qr_scan", "ios": "https://dc.lft.to/lastmile_qr_scan"}, "is_reserved": 0, "is_disabled": 0, "type": "electric_bike", "bike_id": "e89ecac8dc897074d167cd46dcb317dc"}, {"lon": -77.04157366666666, "lat": 38.91604133333333, "name": "8e936c2e7de19c5d77dbaf3d4301a6f7", "fusion_lat": 0.0, "fusion_lon": 0.0, "rental_uris": {"android": "https://dc.lft.to/lastmile_qr_scan", "ios": "https://dc.lft.to/lastmile_qr_scan"}, "is_reserved": 0, "is_disabled": 0, "type": "electric_scooter", "bike_id": "8e936c2e7de19c5d77dbaf3d4301a6f7"}, {"lon": -77.03285316666667, "lat": 38.91039216666667, "name": "0cab8041e99f3eecf7ce34c76afe0281", "fusion_lat": 0.0, "fusion_lon": 0.0, "rental_uris": {"android": "https://dc.lft.to/lastmile_qr_scan", "ios": "https://dc.lft.to/lastmile_qr_scan"}, "is_reserved": 0, "is_disabled": 0, "type": "electric_scooter", "bike_id": "0cab8041e99f3eecf7ce34c76afe0281"}, {"lon": -76.98686583333334, "lat": 38.8821065, "name": "fc89c28c99996277baf2ed36d381db87", "fusion_lat": 0.0, "fusion_lon": 0.0, "rental_uris": {"android": "https://dc.lft.to/lastmile_qr_scan", "ios": "https://dc.lft.to/lastmile_qr_scan"}, "is_reserved": 0, "is_disabled": 0, "type": "electric_scooter", "bike_id": "fc89c28c99996277baf2ed36d381db87"}, {"lon": -77.03286433333334, "lat": 38.939902833333335, "name": "f6d84e951db9ac8f36d874d6ed348082", "fusion_lat": 0.0, "fusion_lon": 0.0, "rental_uris": {"android": "https://dc.lft.to/lastmile_qr_scan", "ios": "https://dc.lft.to/lastmile_qr_scan"}, "is_reserved": 0, "is_disabled": 0, "type": "electric_scooter", "bike_id": "f6d84e951db9ac8f36d874d6ed348082"}, {"lon": -76.99069133333333, "lat": 38.926630833333334, "name": "ae7cb40bca7052c41d4ce3576cbe934a", "fusion_lat": 0.0, "fusion_lon": 0.0, "rental_uris": {"android": "https://dc.lft.to/lastmile_qr_scan", "ios": "https://dc.lft.to/lastmile_qr_scan"}, "is_reserved": 0, "is_disabled": 0, "type": "electric_scooter", "bike_id": "ae7cb40bca7052c41d4ce3576cbe934a"}, {"lon": -77.05750166666667, "lat": 38.904972, "name": "35134a13c9a47076cf0e5a0ac7ca8995", "fusion_lat": 0.0, "fusion_lon": 0.0, "rental_uris": {"android": "https://dc.lft.to/lastmile_qr_scan", "ios": "https://dc.lft.to/lastmile_qr_scan"}, "is_reserved": 0, "is_disabled": 0, "type": "electric_scooter", "bike_id": "35134a13c9a47076cf0e5a0ac7ca8995"}, {"lon": -77.02347783333333, "lat": 38.93595216666667, "name": "e2f9d021c226e9bde2ebc67e87149ef1", "fusion_lat": 0.0, "fusion_lon": 0.0, "rental_uris": {"android": "https://dc.lft.to/lastmile_qr_scan", "ios": "https://dc.lft.to/lastmile_qr_scan"}, "is_reserved": 0, "is_disabled": 0, "type": "electric_scooter", "bike_id": "e2f9d021c226e9bde2ebc67e87149ef1"}, {"lon": -77.02864283333334, "lat": 38.96502133333333, "name": "df88d690f11bfbf1ad535354325c7290", "fusion_lat": 0.0, "fusion_lon": 0.0, "rental_uris": {"android": "https://dc.lft.to/lastmile_qr_scan", "ios": "https://dc.lft.to/lastmile_qr_scan"}, "is_reserved": 0, "is_disabled": 0, "type": "electric_scooter", "bike_id": "df88d690f11bfbf1ad535354325c7290"}, {"lon": -76.9796135, "lat": 38.903809, "name": "47cbaf47fcaf0d33bea27f06398cd27e", "fusion_lat": 0.0, "fusion_lon": 0.0, "rental_uris": {"android": "https://dc.lft.to/lastmile_qr_scan", "ios": "https://dc.lft.to/lastmile_qr_scan"}, "is_reserved": 0, "is_disabled": 0, "type": "electric_scooter", "bike_id": "47cbaf47fcaf0d33bea27f06398cd27e"}, {"lon": -77.021878, "lat": 38.9227035, "name": "a3534a4733049626d6e4296ec5a34268", "fusion_lat": 0.0, "fusion_lon": 0.0, "rental_uris": {"android": "https://dc.lft.to/lastmile_qr_scan", "ios": "https://dc.lft.to/lastmile_qr_scan"}, "is_reserved": 0, "is_disabled": 0, "type": "electric_scooter", "bike_id": "a3534a4733049626d6e4296ec5a34268"}, {"lon": -77.03161783333333, "lat": 38.91412433333333, "name": "692a63fc7b07a30c20258a6aca492a90", "fusion_lat": 0.0, "fusion_lon": 0.0, "rental_uris": {"android": "https://dc.lft.to/lastmile_qr_scan", "ios": "https://dc.lft.to/lastmile_qr_scan"}, "is_reserved": 0, "is_disabled": 0, "type": "electric_scooter", "bike_id": "692a63fc7b07a30c20258a6aca492a90"}, {"lon": -77.02981733333333, "lat": 38.96228883333333, "name": "27d2970b2f0a6a668e6c3aa6492f9c5c", "fusion_lat": 0.0, "fusion_lon": 0.0, "rental_uris": {"android": "https://dc.lft.to/lastmile_qr_scan", "ios": "https://dc.lft.to/lastmile_qr_scan"}, "is_reserved": 0, "is_disabled": 0, "type": "electric_scooter", "bike_id": "27d2970b2f0a6a668e6c3aa6492f9c5c"}, {"lon": -77.0216425, "lat": 38.88629566666667, "name": "9acc9e0c0ecb3e84f61d5065d7c21095", "fusion_lat": 0.0, "fusion_lon": 0.0, "rental_uris": {"android": "https://dc.lft.to/lastmile_qr_scan", "ios": "https://dc.lft.to/lastmile_qr_scan"}, "is_reserved": 0, "is_disabled": 0, "type": "electric_scooter", "bike_id": "9acc9e0c0ecb3e84f61d5065d7c21095"}, {"lon": -77.03205116666666, "lat": 38.914575666666664, "name": "34855b1c8bf44011366f25f91c43a6a4", "fusion_lat": 0.0, "fusion_lon": 0.0, "rental_uris": {"android": "https://dc.lft.to/lastmile_qr_scan", "ios": "https://dc.lft.to/lastmile_qr_scan"}, "is_reserved": 0, "is_disabled": 0, "type": "electric_scooter", "bike_id": "34855b1c8bf44011366f25f91c43a6a4"}, {"lon": -77.10132283333333, "lat": 38.85211233333333, "name": "969af70a75f63ba5ecd1b02accb7f2e9", "fusion_lat": 0.0, "fusion_lon": 0.0, "rental_uris": {"android": "https://dc.lft.to/lastmile_qr_scan", "ios": "https://dc.lft.to/lastmile_qr_scan"}, "is_reserved": 0, "is_disabled": 0, "type": "electric_bike", "bike_id": "969af70a75f63ba5ecd1b02accb7f2e9"}, {"lon": -77.0420875, "lat": 38.933283, "name": "7f9c436cb608e51b97cfa1cf8d748817", "fusion_lat": 0.0, "fusion_lon": 0.0, "rental_uris": {"android": "https://dc.lft.to/lastmile_qr_scan", "ios": "https://dc.lft.to/lastmile_qr_scan"}, "is_reserved": 0, "is_disabled": 0, "type": "electric_bike", "bike_id": "7f9c436cb608e51b97cfa1cf8d748817"}, {"lon": -77.00138983333333, "lat": 38.90405233333333, "name": "a5d5ad2506973c4a32111a81bf771d91", "fusion_lat": 0.0, "fusion_lon": 0.0, "rental_uris": {"android": "https://dc.lft.to/lastmile_qr_scan", "ios": "https://dc.lft.to/lastmile_qr_scan"}, "is_reserved": 0, "is_disabled": 0, "type": "electric_scooter", "bike_id": "a5d5ad2506973c4a32111a81bf771d91"}, {"lon": -77.01871433333334, "lat": 38.948917333333334, "name": "344c5f0d2c5d30dd7026b63fc58f7095", "fusion_lat": 0.0, "fusion_lon": 0.0, "rental_uris": {"android": "https://dc.lft.to/lastmile_qr_scan", "ios": "https://dc.lft.to/lastmile_qr_scan"}, "is_reserved": 0, "is_disabled": 0, "type": "electric_scooter", "bike_id": "344c5f0d2c5d30dd7026b63fc58f7095"}, {"lon": -77.029277, "lat": 38.8821235, "name": "c8f7c40185ae29986d9393ef00dde458", "fusion_lat": 0.0, "fusion_lon": 0.0, "rental_uris": {"android": "https://dc.lft.to/lastmile_qr_scan", "ios": "https://dc.lft.to/lastmile_qr_scan"}, "is_reserved": 0, "is_disabled": 0, "type": "electric_scooter", "bike_id": "c8f7c40185ae29986d9393ef00dde458"}, {"lon": -77.02491733333333, "lat": 38.919292666666664, "name": "7c77df2532968734e4b8273b58fb6593", "fusion_lat": 0.0, "fusion_lon": 0.0, "rental_uris": {"android": "https://dc.lft.to/lastmile_qr_scan", "ios": "https://dc.lft.to/lastmile_qr_scan"}, "is_reserved": 0, "is_disabled": 0, "type": "electric_scooter", "bike_id": "7c77df2532968734e4b8273b58fb6593"}, {"lon": -77.05556833333333, "lat": 38.899615, "name": "8ec8aaf03b79f1ae0705f3c5c1660424", "fusion_lat": 0.0, "fusion_lon": 0.0, "rental_uris": {"android": "https://dc.lft.to/lastmile_qr_scan", "ios": "https://dc.lft.to/lastmile_qr_scan"}, "is_reserved": 0, "is_disabled": 0, "type": "electric_scooter", "bike_id": "8ec8aaf03b79f1ae0705f3c5c1660424"}, {"lon": -77.03324416666666, "lat": 38.898819333333336, "name": "a4df7b846e44d45b59607e3f5993afa1", "fusion_lat": 0.0, "fusion_lon": 0.0, "rental_uris": {"android": "https://dc.lft.to/lastmile_qr_scan", "ios": "https://dc.lft.to/lastmile_qr_scan"}, "is_reserved": 0, "is_disabled": 0, "type": "electric_scooter", "bike_id": "a4df7b846e44d45b59607e3f5993afa1"}, {"lon": -77.046225, "lat": 38.902721166666666, "name": "a8f4ba6490b7e3cef58a924c8aa5abeb", "fusion_lat": 0.0, "fusion_lon": 0.0, "rental_uris": {"android": "https://dc.lft.to/lastmile_qr_scan", "ios": "https://dc.lft.to/lastmile_qr_scan"}, "is_reserved": 0, "is_disabled": 0, "type": "electric_scooter", "bike_id": "a8f4ba6490b7e3cef58a924c8aa5abeb"}, {"lon": -76.9653065, "lat": 38.876297, "name": "641dfa60e48b23377102585e5fcff31e", "fusion_lat": 0.0, "fusion_lon": 0.0, "rental_uris": {"android": "https://dc.lft.to/lastmile_qr_scan", "ios": "https://dc.lft.to/lastmile_qr_scan"}, "is_reserved": 0, "is_disabled": 0, "type": "electric_scooter", "bike_id": "641dfa60e48b23377102585e5fcff31e"}, {"lon": -77.04895916666666, "lat": 38.892345666666664, "name": "8bfc94a85349f60de5989d3429cca43d", "fusion_lat": 0.0, "fusion_lon": 0.0, "rental_uris": {"android": "https://dc.lft.to/lastmile_qr_scan", "ios": "https://dc.lft.to/lastmile_qr_scan"}, "is_reserved": 0, "is_disabled": 0, "type": "electric_scooter", "bike_id": "8bfc94a85349f60de5989d3429cca43d"}, {"lon": -77.00349366666667, "lat": 38.896580166666666, "name": "0200b22fa9ddafd49fed9984426c9f5c", "fusion_lat": 0.0, "fusion_lon": 0.0, "rental_uris": {"android": "https://dc.lft.to/lastmile_qr_scan", "ios": "https://dc.lft.to/lastmile_qr_scan"}, "is_reserved": 0, "is_disabled": 0, "type": "electric_scooter", "bike_id": "0200b22fa9ddafd49fed9984426c9f5c"}, {"lon": -76.99342416666667, "lat": 38.961891666666666, "name": "0d3d8ee060de3d4d32df0a61ac3d23c7", "fusion_lat": 0.0, "fusion_lon": 0.0, "rental_uris": {"android": "https://dc.lft.to/lastmile_qr_scan", "ios": "https://dc.lft.to/lastmile_qr_scan"}, "is_reserved": 0, "is_disabled": 0, "type": "electric_bike", "bike_id": "0d3d8ee060de3d4d32df0a61ac3d23c7"}, {"lon": -77.0420985, "lat": 38.9231695, "name": "579b0a690073ca406eb78d3b1fa25c32", "fusion_lat": 0.0, "fusion_lon": 0.0, "rental_uris": {"android": "https://dc.lft.to/lastmile_qr_scan", "ios": "https://dc.lft.to/lastmile_qr_scan"}, "is_reserved": 0, "is_disabled": 0, "type": "electric_scooter", "bike_id": "579b0a690073ca406eb78d3b1fa25c32"}, {"lon": -77.02597483333334, "lat": 38.89824083333333, "name": "f14f70f6fff5100b3036731f2fa4c228", "fusion_lat": 0.0, "fusion_lon": 0.0, "rental_uris": {"android": "https://dc.lft.to/lastmile_qr_scan", "ios": "https://dc.lft.to/lastmile_qr_scan"}, "is_reserved": 0, "is_disabled": 0, "type": "electric_scooter", "bike_id": "f14f70f6fff5100b3036731f2fa4c228"}, {"lon": -77.1090015, "lat": 38.830411, "name": "f597422188e4a7a7c99bdf1e1391dca2", "fusion_lat": 0.0, "fusion_lon": 0.0, "rental_uris": {"android": "https://dc.lft.to/lastmile_qr_scan", "ios": "https://dc.lft.to/lastmile_qr_scan"}, "is_reserved": 0, "is_disabled": 0, "type": "electric_bike", "bike_id": "f597422188e4a7a7c99bdf1e1391dca2"}, {"lon": -76.99163183333333, "lat": 38.8823715, "name": "d81fab41223534386c16d375a6ef7cc9", "fusion_lat": 0.0, "fusion_lon": 0.0, "rental_uris": {"android": "https://dc.lft.to/lastmile_qr_scan", "ios": "https://dc.lft.to/lastmile_qr_scan"}, "is_reserved": 0, "is_disabled": 0, "type": "electric_scooter", "bike_id": "d81fab41223534386c16d375a6ef7cc9"}, {"lon": -77.0198725, "lat": 38.915212, "name": "4e06a515687c923640fa3f997283cfc0", "fusion_lat": 0.0, "fusion_lon": 0.0, "rental_uris": {"android": "https://dc.lft.to/lastmile_qr_scan", "ios": "https://dc.lft.to/lastmile_qr_scan"}, "is_reserved": 0, "is_disabled": 0, "type": "electric_scooter", "bike_id": "4e06a515687c923640fa3f997283cfc0"}, {"lon": -77.0013865, "lat": 38.90403033333333, "name": "8007195aa84a46ec925e6d0babea6dd2", "fusion_lat": 0.0, "fusion_lon": 0.0, "rental_uris": {"android": "https://dc.lft.to/lastmile_qr_scan", "ios": "https://dc.lft.to/lastmile_qr_scan"}, "is_reserved": 0, "is_disabled": 0, "type": "electric_scooter", "bike_id": "8007195aa84a46ec925e6d0babea6dd2"}, {"lon": -76.97337133333333, "lat": 38.904803333333334, "name": "943f3fae680e3c87c59d4f7e91eb547d", "fusion_lat": 0.0, "fusion_lon": 0.0, "rental_uris": {"android": "https://dc.lft.to/lastmile_qr_scan", "ios": "https://dc.lft.to/lastmile_qr_scan"}, "is_reserved": 0, "is_disabled": 0, "type": "electric_scooter", "bike_id": "943f3fae680e3c87c59d4f7e91eb547d"}, {"lon": -77.01109216666667, "lat": 38.96301583333333, "name": "f76b650f57a9dae61d44ecaa589ae1cd", "fusion_lat": 0.0, "fusion_lon": 0.0, "rental_uris": {"android": "https://dc.lft.to/lastmile_qr_scan", "ios": "https://dc.lft.to/lastmile_qr_scan"}, "is_reserved": 0, "is_disabled": 0, "type": "electric_bike", "bike_id": "f76b650f57a9dae61d44ecaa589ae1cd"}, {"lon": -77.03884033333334, "lat": 38.911801, "name": "c5f286da18dfd3fde74a5bb4db74776f", "fusion_lat": 0.0, "fusion_lon": 0.0, "rental_uris": {"android": "https://dc.lft.to/lastmile_qr_scan", "ios": "https://dc.lft.to/lastmile_qr_scan"}, "is_reserved": 0, "is_disabled": 0, "type": "electric_scooter", "bike_id": "c5f286da18dfd3fde74a5bb4db74776f"}, {"lon": -76.99156183333334, "lat": 38.9004435, "name": "206aadfb2fc59ec2a428bb4ec6921b81", "fusion_lat": 0.0, "fusion_lon": 0.0, "rental_uris": {"android": "https://dc.lft.to/lastmile_qr_scan", "ios": "https://dc.lft.to/lastmile_qr_scan"}, "is_reserved": 0, "is_disabled": 0, "type": "electric_scooter", "bike_id": "206aadfb2fc59ec2a428bb4ec6921b81"}, {"lon": -77.049039, "lat": 38.9051805, "name": "fa6a93eee345baa655c4bab3d85e58fb", "fusion_lat": 0.0, "fusion_lon": 0.0, "rental_uris": {"android": "https://dc.lft.to/lastmile_qr_scan", "ios": "https://dc.lft.to/lastmile_qr_scan"}, "is_reserved": 0, "is_disabled": 0, "type": "electric_scooter", "bike_id": "fa6a93eee345baa655c4bab3d85e58fb"}, {"lon": -77.01086533333333, "lat": 38.89395733333333, "name": "eba1052aecf35c81e418904434b29380", "fusion_lat": 0.0, "fusion_lon": 0.0, "rental_uris": {"android": "https://dc.lft.to/lastmile_qr_scan", "ios": "https://dc.lft.to/lastmile_qr_scan"}, "is_reserved": 0, "is_disabled": 0, "type": "electric_scooter", "bike_id": "eba1052aecf35c81e418904434b29380"}, {"lon": -77.046577, "lat": 38.89335966666667, "name": "6d36c0f5bfebdd065152cc4e44503653", "fusion_lat": 0.0, "fusion_lon": 0.0, "rental_uris": {"android": "https://dc.lft.to/lastmile_qr_scan", "ios": "https://dc.lft.to/lastmile_qr_scan"}, "is_reserved": 0, "is_disabled": 0, "type": "electric_scooter", "bike_id": "6d36c0f5bfebdd065152cc4e44503653"}, {"lon": -77.04137333333334, "lat": 38.9061525, "name": "f545a3b089cc7b8382945a57d885af1f", "fusion_lat": 0.0, "fusion_lon": 0.0, "rental_uris": {"android": "https://dc.lft.to/lastmile_qr_scan", "ios": "https://dc.lft.to/lastmile_qr_scan"}, "is_reserved": 0, "is_disabled": 0, "type": "electric_scooter", "bike_id": "f545a3b089cc7b8382945a57d885af1f"}, {"lon": -77.043506, "lat": 38.89824, "name": "fbb6ec1433387883d2fe00e6e66e9d17", "fusion_lat": 0.0, "fusion_lon": 0.0, "rental_uris": {"android": "https://dc.lft.to/lastmile_qr_scan", "ios": "https://dc.lft.to/lastmile_qr_scan"}, "is_reserved": 0, "is_disabled": 0, "type": "electric_scooter", "bike_id": "fbb6ec1433387883d2fe00e6e66e9d17"}, {"lon": -77.03223316666667, "lat": 38.8921935, "name": "ef26611e45d3172e7ecd79322be87818", "fusion_lat": 0.0, "fusion_lon": 0.0, "rental_uris": {"android": "https://dc.lft.to/lastmile_qr_scan", "ios": "https://dc.lft.to/lastmile_qr_scan"}, "is_reserved": 0, "is_disabled": 0, "type": "electric_scooter", "bike_id": "ef26611e45d3172e7ecd79322be87818"}, {"lon": -77.03073666666667, "lat": 38.907934, "name": "d6df3de0756c0ae9320c7f94bc54707e", "fusion_lat": 0.0, "fusion_lon": 0.0, "rental_uris": {"android": "https://dc.lft.to/lastmile_qr_scan", "ios": "https://dc.lft.to/lastmile_qr_scan"}, "is_reserved": 0, "is_disabled": 0, "type": "electric_scooter", "bike_id": "d6df3de0756c0ae9320c7f94bc54707e"}, {"lon": -77.10689316666667, "lat": 38.9357855, "name": "8ab7100c9e15f9192cad58a247aa5e75", "fusion_lat": 0.0, "fusion_lon": 0.0, "rental_uris": {"android": "https://dc.lft.to/lastmile_qr_scan", "ios": "https://dc.lft.to/lastmile_qr_scan"}, "is_reserved": 0, "is_disabled": 0, "type": "electric_bike", "bike_id": "8ab7100c9e15f9192cad58a247aa5e75"}, {"lon": -77.0241555, "lat": 38.904279833333334, "name": "80fcb963cde25aa740de5bda1df2712a", "fusion_lat": 0.0, "fusion_lon": 0.0, "rental_uris": {"android": "https://dc.lft.to/lastmile_qr_scan", "ios": "https://dc.lft.to/lastmile_qr_scan"}, "is_reserved": 0, "is_disabled": 0, "type": "electric_scooter", "bike_id": "80fcb963cde25aa740de5bda1df2712a"}, {"lon": -77.00726516666667, "lat": 38.8849095, "name": "1117a99148b5470dcdc2c9ed2f0a294d", "fusion_lat": 0.0, "fusion_lon": 0.0, "rental_uris": {"android": "https://dc.lft.to/lastmile_qr_scan", "ios": "https://dc.lft.to/lastmile_qr_scan"}, "is_reserved": 0, "is_disabled": 0, "type": "electric_scooter", "bike_id": "1117a99148b5470dcdc2c9ed2f0a294d"}, {"lon": -76.98863283333333, "lat": 38.90026366666667, "name": "53e62d6aebb07c6b3e2b61bebbb42a0b", "fusion_lat": 0.0, "fusion_lon": 0.0, "rental_uris": {"android": "https://dc.lft.to/lastmile_qr_scan", "ios": "https://dc.lft.to/lastmile_qr_scan"}, "is_reserved": 0, "is_disabled": 0, "type": "electric_scooter", "bike_id": "53e62d6aebb07c6b3e2b61bebbb42a0b"}, {"lon": -77.02123766666666, "lat": 38.90296766666667, "name": "e60b261125866d959c7cbd61adfa390c", "fusion_lat": 0.0, "fusion_lon": 0.0, "rental_uris": {"android": "https://dc.lft.to/lastmile_qr_scan", "ios": "https://dc.lft.to/lastmile_qr_scan"}, "is_reserved": 0, "is_disabled": 0, "type": "electric_scooter", "bike_id": "e60b261125866d959c7cbd61adfa390c"}, {"lon": -77.00755183333334, "lat": 38.87114016666666, "name": "5f211d02781682e86e78192aa690f67a", "fusion_lat": 0.0, "fusion_lon": 0.0, "rental_uris": {"android": "https://dc.lft.to/lastmile_qr_scan", "ios": "https://dc.lft.to/lastmile_qr_scan"}, "is_reserved": 0, "is_disabled": 0, "type": "electric_scooter", "bike_id": "5f211d02781682e86e78192aa690f67a"}, {"lon": -77.35311383333334, "lat": 38.94993083333333, "name": "37644fddcd69b0c82791e4fd930993f1", "fusion_lat": 0.0, "fusion_lon": 0.0, "rental_uris": {"android": "https://dc.lft.to/lastmile_qr_scan", "ios": "https://dc.lft.to/lastmile_qr_scan"}, "is_reserved": 0, "is_disabled": 0, "type": "electric_bike", "bike_id": "37644fddcd69b0c82791e4fd930993f1"}, {"lon": -77.038391, "lat": 38.931365, "name": "26bf6a803c2072cf39f950ca61e1e7b3", "fusion_lat": 0.0, "fusion_lon": 0.0, "rental_uris": {"android": "https://dc.lft.to/lastmile_qr_scan", "ios": "https://dc.lft.to/lastmile_qr_scan"}, "is_reserved": 0, "is_disabled": 0, "type": "electric_scooter", "bike_id": "26bf6a803c2072cf39f950ca61e1e7b3"}, {"lon": -76.93175033333333, "lat": 38.8988425, "name": "a2e040eae1b13e1f9f5cd275b09f26bf", "fusion_lat": 0.0, "fusion_lon": 0.0, "rental_uris": {"android": "https://dc.lft.to/lastmile_qr_scan", "ios": "https://dc.lft.to/lastmile_qr_scan"}, "is_reserved": 0, "is_disabled": 0, "type": "electric_scooter", "bike_id": "a2e040eae1b13e1f9f5cd275b09f26bf"}, {"lon": -76.94721416666667, "lat": 38.896738166666665, "name": "5e04600e9d78cc89c1c943169af44a6a", "fusion_lat": 0.0, "fusion_lon": 0.0, "rental_uris": {"android": "https://dc.lft.to/lastmile_qr_scan", "ios": "https://dc.lft.to/lastmile_qr_scan"}, "is_reserved": 0, "is_disabled": 0, "type": "electric_scooter", "bike_id": "5e04600e9d78cc89c1c943169af44a6a"}, {"lon": -77.04163733333333, "lat": 38.914207833333336, "name": "2f46169e4856a9a4a3df1a2d6d1f9936", "fusion_lat": 0.0, "fusion_lon": 0.0, "rental_uris": {"android": "https://dc.lft.to/lastmile_qr_scan", "ios": "https://dc.lft.to/lastmile_qr_scan"}, "is_reserved": 0, "is_disabled": 0, "type": "electric_scooter", "bike_id": "2f46169e4856a9a4a3df1a2d6d1f9936"}, {"lon": -77.0639215, "lat": 38.9290435, "name": "c0f0f5d23994203e6b030a73eb21228b", "fusion_lat": 0.0, "fusion_lon": 0.0, "rental_uris": {"android": "https://dc.lft.to/lastmile_qr_scan", "ios": "https://dc.lft.to/lastmile_qr_scan"}, "is_reserved": 0, "is_disabled": 0, "type": "electric_scooter", "bike_id": "c0f0f5d23994203e6b030a73eb21228b"}, {"lon": -77.04377683333334, "lat": 38.89224016666667, "name": "032c60c38d2938b3452fc75bc54c5749", "fusion_lat": 0.0, "fusion_lon": 0.0, "rental_uris": {"android": "https://dc.lft.to/lastmile_qr_scan", "ios": "https://dc.lft.to/lastmile_qr_scan"}, "is_reserved": 0, "is_disabled": 0, "type": "electric_scooter", "bike_id": "032c60c38d2938b3452fc75bc54c5749"}, {"lon": -77.12818416666667, "lat": 38.86525733333333, "name": "01c28e1af197b6aa8354be7701626ae2", "fusion_lat": 0.0, "fusion_lon": 0.0, "rental_uris": {"android": "https://dc.lft.to/lastmile_qr_scan", "ios": "https://dc.lft.to/lastmile_qr_scan"}, "is_reserved": 0, "is_disabled": 0, "type": "electric_bike", "bike_id": "01c28e1af197b6aa8354be7701626ae2"}, {"lon": -77.07051483333333, "lat": 38.82449, "name": "fb7ee4d002f6a21cffb629d10bca5e34", "fusion_lat": 0.0, "fusion_lon": 0.0, "rental_uris": {"android": "https://dc.lft.to/lastmile_qr_scan", "ios": "https://dc.lft.to/lastmile_qr_scan"}, "is_reserved": 0, "is_disabled": 0, "type": "electric_bike", "bike_id": "fb7ee4d002f6a21cffb629d10bca5e34"}, {"lon": -77.01692566666667, "lat": 38.905047, "name": "6dbd1821a2c272ef798faa9e76a704c4", "fusion_lat": 0.0, "fusion_lon": 0.0, "rental_uris": {"android": "https://dc.lft.to/lastmile_qr_scan", "ios": "https://dc.lft.to/lastmile_qr_scan"}, "is_reserved": 0, "is_disabled": 0, "type": "electric_scooter", "bike_id": "6dbd1821a2c272ef798faa9e76a704c4"}, {"lon": -77.12993416666667, "lat": 38.79983033333333, "name": "3744d3b1bfecad344445a3087389697d", "fusion_lat": 0.0, "fusion_lon": 0.0, "rental_uris": {"android": "https://dc.lft.to/lastmile_qr_scan", "ios": "https://dc.lft.to/lastmile_qr_scan"}, "is_reserved": 0, "is_disabled": 0, "type": "electric_bike", "bike_id": "3744d3b1bfecad344445a3087389697d"}, {"lon": -77.03755783333334, "lat": 38.93964116666667, "name": "368d9fb18cc5bb986cd76b6f5bd314c1", "fusion_lat": 0.0, "fusion_lon": 0.0, "rental_uris": {"android": "https://dc.lft.to/lastmile_qr_scan", "ios": "https://dc.lft.to/lastmile_qr_scan"}, "is_reserved": 0, "is_disabled": 0, "type": "electric_bike", "bike_id": "368d9fb18cc5bb986cd76b6f5bd314c1"}, {"lon": -76.97306233333333, "lat": 38.919850833333335, "name": "cfed61717b6fbaba65452dd59cad1459", "fusion_lat": 0.0, "fusion_lon": 0.0, "rental_uris": {"android": "https://dc.lft.to/lastmile_qr_scan", "ios": "https://dc.lft.to/lastmile_qr_scan"}, "is_reserved": 0, "is_disabled": 0, "type": "electric_scooter", "bike_id": "cfed61717b6fbaba65452dd59cad1459"}, {"lon": -77.00603, "lat": 38.884905333333336, "name": "621a715769c4f6e5ce7f5f26f3c2e927", "fusion_lat": 0.0, "fusion_lon": 0.0, "rental_uris": {"android": "https://dc.lft.to/lastmile_qr_scan", "ios": "https://dc.lft.to/lastmile_qr_scan"}, "is_reserved": 0, "is_disabled": 0, "type": "electric_scooter", "bike_id": "621a715769c4f6e5ce7f5f26f3c2e927"}, {"lon": -77.032712, "lat": 38.93444016666667, "name": "f08cd7ea6efbd7ed3c029593583437d3", "fusion_lat": 0.0, "fusion_lon": 0.0, "rental_uris": {"android": "https://dc.lft.to/lastmile_qr_scan", "ios": "https://dc.lft.to/lastmile_qr_scan"}, "is_reserved": 0, "is_disabled": 0, "type": "electric_scooter", "bike_id": "f08cd7ea6efbd7ed3c029593583437d3"}, {"lon": -77.01414533333333, "lat": 38.890918, "name": "1c90e87e77525a7badb5db831df2f6cb", "fusion_lat": 0.0, "fusion_lon": 0.0, "rental_uris": {"android": "https://dc.lft.to/lastmile_qr_scan", "ios": "https://dc.lft.to/lastmile_qr_scan"}, "is_reserved": 0, "is_disabled": 0, "type": "electric_scooter", "bike_id": "1c90e87e77525a7badb5db831df2f6cb"}, {"lon": -77.0249125, "lat": 38.938561, "name": "8727dcee80c7879bd02e3ce7a101dd17", "fusion_lat": 0.0, "fusion_lon": 0.0, "rental_uris": {"android": "https://dc.lft.to/lastmile_qr_scan", "ios": "https://dc.lft.to/lastmile_qr_scan"}, "is_reserved": 0, "is_disabled": 0, "type": "electric_scooter", "bike_id": "8727dcee80c7879bd02e3ce7a101dd17"}, {"lon": -77.03227633333333, "lat": 38.89221716666667, "name": "43012ac33695a455289d17b9ef279419", "fusion_lat": 0.0, "fusion_lon": 0.0, "rental_uris": {"android": "https://dc.lft.to/lastmile_qr_scan", "ios": "https://dc.lft.to/lastmile_qr_scan"}, "is_reserved": 0, "is_disabled": 0, "type": "electric_scooter", "bike_id": "43012ac33695a455289d17b9ef279419"}, {"lon": -77.07723066666667, "lat": 38.947084833333335, "name": "c785293a34e5c342438f0a9a60b07487", "fusion_lat": 0.0, "fusion_lon": 0.0, "rental_uris": {"android": "https://dc.lft.to/lastmile_qr_scan", "ios": "https://dc.lft.to/lastmile_qr_scan"}, "is_reserved": 0, "is_disabled": 0, "type": "electric_scooter", "bike_id": "c785293a34e5c342438f0a9a60b07487"}, {"lon": -77.033732, "lat": 38.93210533333333, "name": "a67b2082eaac4c19b82f7d241ab00340", "fusion_lat": 0.0, "fusion_lon": 0.0, "rental_uris": {"android": "https://dc.lft.to/lastmile_qr_scan", "ios": "https://dc.lft.to/lastmile_qr_scan"}, "is_reserved": 0, "is_disabled": 0, "type": "electric_scooter", "bike_id": "a67b2082eaac4c19b82f7d241ab00340"}, {"lon": -76.98758483333333, "lat": 38.844973333333336, "name": "3d3ef2e912371cc982f4a68c090a8514", "fusion_lat": 0.0, "fusion_lon": 0.0, "rental_uris": {"android": "https://dc.lft.to/lastmile_qr_scan", "ios": "https://dc.lft.to/lastmile_qr_scan"}, "is_reserved": 0, "is_disabled": 0, "type": "electric_scooter", "bike_id": "3d3ef2e912371cc982f4a68c090a8514"}, {"lon": -77.01262933333334, "lat": 38.899688833333336, "name": "8878043b5f8e938868eb05f56a1b6ae3", "fusion_lat": 0.0, "fusion_lon": 0.0, "rental_uris": {"android": "https://dc.lft.to/lastmile_qr_scan", "ios": "https://dc.lft.to/lastmile_qr_scan"}, "is_reserved": 0, "is_disabled": 0, "type": "electric_scooter", "bike_id": "8878043b5f8e938868eb05f56a1b6ae3"}, {"lon": -77.04900333333333, "lat": 38.89227433333333, "name": "e4fff156e628ee874c262c26ba06ab3f", "fusion_lat": 0.0, "fusion_lon": 0.0, "rental_uris": {"android": "https://dc.lft.to/lastmile_qr_scan", "ios": "https://dc.lft.to/lastmile_qr_scan"}, "is_reserved": 0, "is_disabled": 0, "type": "electric_scooter", "bike_id": "e4fff156e628ee874c262c26ba06ab3f"}, {"lon": -77.02961633333334, "lat": 38.927252, "name": "7096cbc7fecd9d26bee46cd0b6add204", "fusion_lat": 0.0, "fusion_lon": 0.0, "rental_uris": {"android": "https://dc.lft.to/lastmile_qr_scan", "ios": "https://dc.lft.to/lastmile_qr_scan"}, "is_reserved": 0, "is_disabled": 0, "type": "electric_scooter", "bike_id": "7096cbc7fecd9d26bee46cd0b6add204"}, {"lon": -76.94887583333333, "lat": 38.8946185, "name": "037839c4aba55653d50bfdc1505ab74e", "fusion_lat": 0.0, "fusion_lon": 0.0, "rental_uris": {"android": "https://dc.lft.to/lastmile_qr_scan", "ios": "https://dc.lft.to/lastmile_qr_scan"}, "is_reserved": 0, "is_disabled": 0, "type": "electric_scooter", "bike_id": "037839c4aba55653d50bfdc1505ab74e"}, {"lon": -77.13597866666667, "lat": 39.0534645, "name": "c0482abf68e39ec7c0028d73a4116a41", "fusion_lat": 0.0, "fusion_lon": 0.0, "rental_uris": {"android": "https://dc.lft.to/lastmile_qr_scan", "ios": "https://dc.lft.to/lastmile_qr_scan"}, "is_reserved": 0, "is_disabled": 0, "type": "electric_bike", "bike_id": "c0482abf68e39ec7c0028d73a4116a41"}, {"lon": -77.03639383333334, "lat": 38.929116, "name": "1fdfce8007b7902990ee6308b9c33bd1", "fusion_lat": 0.0, "fusion_lon": 0.0, "rental_uris": {"android": "https://dc.lft.to/lastmile_qr_scan", "ios": "https://dc.lft.to/lastmile_qr_scan"}, "is_reserved": 0, "is_disabled": 0, "type": "electric_scooter", "bike_id": "1fdfce8007b7902990ee6308b9c33bd1"}, {"lon": -76.98624033333333, "lat": 38.868139166666666, "name": "1dfb1ac11379d663d8d616a2ff04a5a1", "fusion_lat": 0.0, "fusion_lon": 0.0, "rental_uris": {"android": "https://dc.lft.to/lastmile_qr_scan", "ios": "https://dc.lft.to/lastmile_qr_scan"}, "is_reserved": 0, "is_disabled": 0, "type": "electric_scooter", "bike_id": "1dfb1ac11379d663d8d616a2ff04a5a1"}, {"lon": -77.04184916666667, "lat": 38.913316, "name": "15674c1d3d5d70629c485b87f607c2d4", "fusion_lat": 0.0, "fusion_lon": 0.0, "rental_uris": {"android": "https://dc.lft.to/lastmile_qr_scan", "ios": "https://dc.lft.to/lastmile_qr_scan"}, "is_reserved": 0, "is_disabled": 0, "type": "electric_scooter", "bike_id": "15674c1d3d5d70629c485b87f607c2d4"}, {"lon": -77.01443616666667, "lat": 38.8776935, "name": "3a8077508151ebbdc7d4d9620af479ea", "fusion_lat": 0.0, "fusion_lon": 0.0, "rental_uris": {"android": "https://dc.lft.to/lastmile_qr_scan", "ios": "https://dc.lft.to/lastmile_qr_scan"}, "is_reserved": 0, "is_disabled": 0, "type": "electric_scooter", "bike_id": "3a8077508151ebbdc7d4d9620af479ea"}, {"lon": -77.04295416666666, "lat": 38.92252033333333, "name": "7f18767d4874a4ecca39a6ed7401d227", "fusion_lat": 0.0, "fusion_lon": 0.0, "rental_uris": {"android": "https://dc.lft.to/lastmile_qr_scan", "ios": "https://dc.lft.to/lastmile_qr_scan"}, "is_reserved": 0, "is_disabled": 0, "type": "electric_scooter", "bike_id": "7f18767d4874a4ecca39a6ed7401d227"}, {"lon": -77.0450965, "lat": 38.907777333333335, "name": "96351b54b7eb951b08b1c0cb4b71c0fa", "fusion_lat": 0.0, "fusion_lon": 0.0, "rental_uris": {"android": "https://dc.lft.to/lastmile_qr_scan", "ios": "https://dc.lft.to/lastmile_qr_scan"}, "is_reserved": 0, "is_disabled": 0, "type": "electric_scooter", "bike_id": "96351b54b7eb951b08b1c0cb4b71c0fa"}, {"lon": -77.02213433333333, "lat": 38.88764366666667, "name": "1061d368aecafe3955de5bf4e09d8ba4", "fusion_lat": 0.0, "fusion_lon": 0.0, "rental_uris": {"android": "https://dc.lft.to/lastmile_qr_scan", "ios": "https://dc.lft.to/lastmile_qr_scan"}, "is_reserved": 0, "is_disabled": 0, "type": "electric_scooter", "bike_id": "1061d368aecafe3955de5bf4e09d8ba4"}, {"lon": -77.0120435, "lat": 38.9002025, "name": "da128893ddb411bf1f066c00d08229f1", "fusion_lat": 0.0, "fusion_lon": 0.0, "rental_uris": {"android": "https://dc.lft.to/lastmile_qr_scan", "ios": "https://dc.lft.to/lastmile_qr_scan"}, "is_reserved": 0, "is_disabled": 0, "type": "electric_scooter", "bike_id": "da128893ddb411bf1f066c00d08229f1"}, {"lon": -77.055255, "lat": 38.899335, "name": "50e673a3de78ad8bbdfca03da1ffe618", "fusion_lat": 0.0, "fusion_lon": 0.0, "rental_uris": {"android": "https://dc.lft.to/lastmile_qr_scan", "ios": "https://dc.lft.to/lastmile_qr_scan"}, "is_reserved": 0, "is_disabled": 0, "type": "electric_scooter", "bike_id": "50e673a3de78ad8bbdfca03da1ffe618"}, {"lon": -77.030861, "lat": 38.900385, "name": "2b4345cbcfbaf4c9656662c8a924497e", "fusion_lat": 0.0, "fusion_lon": 0.0, "rental_uris": {"android": "https://dc.lft.to/lastmile_qr_scan", "ios": "https://dc.lft.to/lastmile_qr_scan"}, "is_reserved": 0, "is_disabled": 0, "type": "electric_scooter", "bike_id": "2b4345cbcfbaf4c9656662c8a924497e"}, {"lon": -77.04740766666667, "lat": 38.9126305, "name": "1c53d3bffb24dbebd42ff9ca78525051", "fusion_lat": 0.0, "fusion_lon": 0.0, "rental_uris": {"android": "https://dc.lft.to/lastmile_qr_scan", "ios": "https://dc.lft.to/lastmile_qr_scan"}, "is_reserved": 0, "is_disabled": 0, "type": "electric_scooter", "bike_id": "1c53d3bffb24dbebd42ff9ca78525051"}, {"lon": -76.98413, "lat": 38.85962716666667, "name": "7d208474e5ea7ee93bd8e7adef71c579", "fusion_lat": 0.0, "fusion_lon": 0.0, "rental_uris": {"android": "https://dc.lft.to/lastmile_qr_scan", "ios": "https://dc.lft.to/lastmile_qr_scan"}, "is_reserved": 0, "is_disabled": 0, "type": "electric_scooter", "bike_id": "7d208474e5ea7ee93bd8e7adef71c579"}, {"lon": -77.027591, "lat": 38.942879, "name": "a7973148a5df744687455ad11ed203fb", "fusion_lat": 0.0, "fusion_lon": 0.0, "rental_uris": {"android": "https://dc.lft.to/lastmile_qr_scan", "ios": "https://dc.lft.to/lastmile_qr_scan"}, "is_reserved": 0, "is_disabled": 0, "type": "electric_scooter", "bike_id": "a7973148a5df744687455ad11ed203fb"}, {"lon": -77.105074, "lat": 38.928452166666666, "name": "8940c04201b5f51a2ce95df859001b13", "fusion_lat": 0.0, "fusion_lon": 0.0, "rental_uris": {"android": "https://dc.lft.to/lastmile_qr_scan", "ios": "https://dc.lft.to/lastmile_qr_scan"}, "is_reserved": 0, "is_disabled": 0, "type": "electric_bike", "bike_id": "8940c04201b5f51a2ce95df859001b13"}, {"lon": -77.00280816666667, "lat": 38.897409333333336, "name": "5009407a50be59dcdeb7d52c6e03faea", "fusion_lat": 0.0, "fusion_lon": 0.0, "rental_uris": {"android": "https://dc.lft.to/lastmile_qr_scan", "ios": "https://dc.lft.to/lastmile_qr_scan"}, "is_reserved": 0, "is_disabled": 0, "type": "electric_scooter", "bike_id": "5009407a50be59dcdeb7d52c6e03faea"}, {"lon": -77.02826166666667, "lat": 38.902588333333334, "name": "c6f8c2ebf5bf46b98f0849a16340640e", "fusion_lat": 0.0, "fusion_lon": 0.0, "rental_uris": {"android": "https://dc.lft.to/lastmile_qr_scan", "ios": "https://dc.lft.to/lastmile_qr_scan"}, "is_reserved": 0, "is_disabled": 0, "type": "electric_scooter", "bike_id": "c6f8c2ebf5bf46b98f0849a16340640e"}, {"lon": -77.0894245, "lat": 38.841014333333334, "name": "f6180c656f08db539b8eb3c1ff4f3d26", "fusion_lat": 0.0, "fusion_lon": 0.0, "rental_uris": {"android": "https://dc.lft.to/lastmile_qr_scan", "ios": "https://dc.lft.to/lastmile_qr_scan"}, "is_reserved": 0, "is_disabled": 0, "type": "electric_bike", "bike_id": "f6180c656f08db539b8eb3c1ff4f3d26"}, {"lon": -77.04645816666667, "lat": 38.8520975, "name": "f039d55627ee2014f830e27de7983f30", "fusion_lat": 0.0, "fusion_lon": 0.0, "rental_uris": {"android": "https://dc.lft.to/lastmile_qr_scan", "ios": "https://dc.lft.to/lastmile_qr_scan"}, "is_reserved": 0, "is_disabled": 0, "type": "electric_bike", "bike_id": "f039d55627ee2014f830e27de7983f30"}, {"lon": -77.0216515, "lat": 38.924543, "name": "6c02fc1304cc5aec151ec15c40a09746", "fusion_lat": 0.0, "fusion_lon": 0.0, "rental_uris": {"android": "https://dc.lft.to/lastmile_qr_scan", "ios": "https://dc.lft.to/lastmile_qr_scan"}, "is_reserved": 0, "is_disabled": 0, "type": "electric_scooter", "bike_id": "6c02fc1304cc5aec151ec15c40a09746"}, {"lon": -76.9994785, "lat": 38.842892, "name": "10f112b64e1a973fc24d5c0ab3bc0f9d", "fusion_lat": 0.0, "fusion_lon": 0.0, "rental_uris": {"android": "https://dc.lft.to/lastmile_qr_scan", "ios": "https://dc.lft.to/lastmile_qr_scan"}, "is_reserved": 0, "is_disabled": 0, "type": "electric_scooter", "bike_id": "10f112b64e1a973fc24d5c0ab3bc0f9d"}, {"lon": -77.044521, "lat": 38.9187485, "name": "7037f9393d8882cdb3dc6feb582d60b2", "fusion_lat": 0.0, "fusion_lon": 0.0, "rental_uris": {"android": "https://dc.lft.to/lastmile_qr_scan", "ios": "https://dc.lft.to/lastmile_qr_scan"}, "is_reserved": 0, "is_disabled": 0, "type": "electric_scooter", "bike_id": "7037f9393d8882cdb3dc6feb582d60b2"}, {"lon": -77.03744516666667, "lat": 38.9167305, "name": "047df04ea093d89d959bb1e6b124f67f", "fusion_lat": 0.0, "fusion_lon": 0.0, "rental_uris": {"android": "https://dc.lft.to/lastmile_qr_scan", "ios": "https://dc.lft.to/lastmile_qr_scan"}, "is_reserved": 0, "is_disabled": 0, "type": "electric_scooter", "bike_id": "047df04ea093d89d959bb1e6b124f67f"}, {"lon": -77.033241, "lat": 38.900341, "name": "3ba71680ee7a3ef64358af4abb6044fc", "fusion_lat": 0.0, "fusion_lon": 0.0, "rental_uris": {"android": "https://dc.lft.to/lastmile_qr_scan", "ios": "https://dc.lft.to/lastmile_qr_scan"}, "is_reserved": 0, "is_disabled": 0, "type": "electric_scooter", "bike_id": "3ba71680ee7a3ef64358af4abb6044fc"}, {"lon": -77.03168633333334, "lat": 38.94452233333333, "name": "3e30992ee16fed2a793745ee806e589f", "fusion_lat": 0.0, "fusion_lon": 0.0, "rental_uris": {"android": "https://dc.lft.to/lastmile_qr_scan", "ios": "https://dc.lft.to/lastmile_qr_scan"}, "is_reserved": 0, "is_disabled": 0, "type": "electric_bike", "bike_id": "3e30992ee16fed2a793745ee806e589f"}, {"lon": -77.0270425, "lat": 38.9718945, "name": "fd2652bb841eccdb66c337f8f6535252", "fusion_lat": 0.0, "fusion_lon": 0.0, "rental_uris": {"android": "https://dc.lft.to/lastmile_qr_scan", "ios": "https://dc.lft.to/lastmile_qr_scan"}, "is_reserved": 0, "is_disabled": 0, "type": "electric_bike", "bike_id": "fd2652bb841eccdb66c337f8f6535252"}, {"lon": -77.02947, "lat": 38.90502216666667, "name": "9bcdbb2ace714c6b160b2c4cb9174ee3", "fusion_lat": 0.0, "fusion_lon": 0.0, "rental_uris": {"android": "https://dc.lft.to/lastmile_qr_scan", "ios": "https://dc.lft.to/lastmile_qr_scan"}, "is_reserved": 0, "is_disabled": 0, "type": "electric_scooter", "bike_id": "9bcdbb2ace714c6b160b2c4cb9174ee3"}, {"lon": -76.9473785, "lat": 38.896688833333336, "name": "79b6892e11266830138a42cedafc7c97", "fusion_lat": 0.0, "fusion_lon": 0.0, "rental_uris": {"android": "https://dc.lft.to/lastmile_qr_scan", "ios": "https://dc.lft.to/lastmile_qr_scan"}, "is_reserved": 0, "is_disabled": 0, "type": "electric_scooter", "bike_id": "79b6892e11266830138a42cedafc7c97"}, {"lon": -77.0473555, "lat": 38.899634166666665, "name": "0f94f677a3dedc9b81d65f0fd7551a01", "fusion_lat": 0.0, "fusion_lon": 0.0, "rental_uris": {"android": "https://dc.lft.to/lastmile_qr_scan", "ios": "https://dc.lft.to/lastmile_qr_scan"}, "is_reserved": 0, "is_disabled": 0, "type": "electric_scooter", "bike_id": "0f94f677a3dedc9b81d65f0fd7551a01"}, {"lon": -76.981354, "lat": 38.90499966666667, "name": "c41f31add326101d66219107d7e5b1d3", "fusion_lat": 0.0, "fusion_lon": 0.0, "rental_uris": {"android": "https://dc.lft.to/lastmile_qr_scan", "ios": "https://dc.lft.to/lastmile_qr_scan"}, "is_reserved": 0, "is_disabled": 0, "type": "electric_scooter", "bike_id": "c41f31add326101d66219107d7e5b1d3"}, {"lon": -77.011043, "lat": 38.89506166666666, "name": "3ec88ea4ce7f9c3d02a722ae25d4cdbb", "fusion_lat": 0.0, "fusion_lon": 0.0, "rental_uris": {"android": "https://dc.lft.to/lastmile_qr_scan", "ios": "https://dc.lft.to/lastmile_qr_scan"}, "is_reserved": 0, "is_disabled": 0, "type": "electric_scooter", "bike_id": "3ec88ea4ce7f9c3d02a722ae25d4cdbb"}, {"lon": -77.03657233333334, "lat": 38.94913316666667, "name": "1e42ebdd2aef7ecaa4b196f7e1ba3daf", "fusion_lat": 0.0, "fusion_lon": 0.0, "rental_uris": {"android": "https://dc.lft.to/lastmile_qr_scan", "ios": "https://dc.lft.to/lastmile_qr_scan"}, "is_reserved": 0, "is_disabled": 0, "type": "electric_scooter", "bike_id": "1e42ebdd2aef7ecaa4b196f7e1ba3daf"}, {"lon": -77.0683195, "lat": 38.91180516666667, "name": "fe587d9d4dc02e31bdb2f33a9d486aec", "fusion_lat": 0.0, "fusion_lon": 0.0, "rental_uris": {"android": "https://dc.lft.to/lastmile_qr_scan", "ios": "https://dc.lft.to/lastmile_qr_scan"}, "is_reserved": 0, "is_disabled": 0, "type": "electric_scooter", "bike_id": "fe587d9d4dc02e31bdb2f33a9d486aec"}, {"lon": -77.0537415, "lat": 38.92338216666667, "name": "a435f67faa4eebc9b975b33b733f17eb", "fusion_lat": 0.0, "fusion_lon": 0.0, "rental_uris": {"android": "https://dc.lft.to/lastmile_qr_scan", "ios": "https://dc.lft.to/lastmile_qr_scan"}, "is_reserved": 0, "is_disabled": 0, "type": "electric_scooter", "bike_id": "a435f67faa4eebc9b975b33b733f17eb"}, {"lon": -77.14993, "lat": 39.09458216666667, "name": "e2d94217061335f0562e7d8373a9ae90", "fusion_lat": 0.0, "fusion_lon": 0.0, "rental_uris": {"android": "https://dc.lft.to/lastmile_qr_scan", "ios": "https://dc.lft.to/lastmile_qr_scan"}, "is_reserved": 0, "is_disabled": 0, "type": "electric_bike", "bike_id": "e2d94217061335f0562e7d8373a9ae90"}, {"lon": -77.09027266666666, "lat": 38.8411895, "name": "2c088945b963e19cfda5527c7de430d5", "fusion_lat": 0.0, "fusion_lon": 0.0, "rental_uris": {"android": "https://dc.lft.to/lastmile_qr_scan", "ios": "https://dc.lft.to/lastmile_qr_scan"}, "is_reserved": 0, "is_disabled": 0, "type": "electric_bike", "bike_id": "2c088945b963e19cfda5527c7de430d5"}, {"lon": -77.03864533333333, "lat": 38.93206933333333, "name": "46b9f097f0efbb30554f68da095e74f8", "fusion_lat": 0.0, "fusion_lon": 0.0, "rental_uris": {"android": "https://dc.lft.to/lastmile_qr_scan", "ios": "https://dc.lft.to/lastmile_qr_scan"}, "is_reserved": 0, "is_disabled": 0, "type": "electric_scooter", "bike_id": "46b9f097f0efbb30554f68da095e74f8"}, {"lon": -77.0035515, "lat": 38.89155933333333, "name": "05ba66eeae7abe40b918448bc9374529", "fusion_lat": 0.0, "fusion_lon": 0.0, "rental_uris": {"android": "https://dc.lft.to/lastmile_qr_scan", "ios": "https://dc.lft.to/lastmile_qr_scan"}, "is_reserved": 0, "is_disabled": 0, "type": "electric_scooter", "bike_id": "05ba66eeae7abe40b918448bc9374529"}, {"lon": -77.04387816666667, "lat": 38.916559666666664, "name": "50369180c2d7ec4ec89eef591caf1c84", "fusion_lat": 0.0, "fusion_lon": 0.0, "rental_uris": {"android": "https://dc.lft.to/lastmile_qr_scan", "ios": "https://dc.lft.to/lastmile_qr_scan"}, "is_reserved": 0, "is_disabled": 0, "type": "electric_scooter", "bike_id": "50369180c2d7ec4ec89eef591caf1c84"}, {"lon": -77.07658666666667, "lat": 38.91084566666667, "name": "46d536a1ec433487073f35c2e4bc00b1", "fusion_lat": 0.0, "fusion_lon": 0.0, "rental_uris": {"android": "https://dc.lft.to/lastmile_qr_scan", "ios": "https://dc.lft.to/lastmile_qr_scan"}, "is_reserved": 0, "is_disabled": 0, "type": "electric_scooter", "bike_id": "46d536a1ec433487073f35c2e4bc00b1"}, {"lon": -77.19912366666667, "lat": 38.875258333333335, "name": "d326fcad8e0df64676b13b5194760f79", "fusion_lat": 0.0, "fusion_lon": 0.0, "rental_uris": {"android": "https://dc.lft.to/lastmile_qr_scan", "ios": "https://dc.lft.to/lastmile_qr_scan"}, "is_reserved": 0, "is_disabled": 0, "type": "electric_bike", "bike_id": "d326fcad8e0df64676b13b5194760f79"}, {"lon": -77.0065275, "lat": 38.908605666666666, "name": "e14822e6c6171d69c4815d5eb359d180", "fusion_lat": 0.0, "fusion_lon": 0.0, "rental_uris": {"android": "https://dc.lft.to/lastmile_qr_scan", "ios": "https://dc.lft.to/lastmile_qr_scan"}, "is_reserved": 0, "is_disabled": 0, "type": "electric_scooter", "bike_id": "e14822e6c6171d69c4815d5eb359d180"}, {"lon": -77.1873965, "lat": 38.893514833333334, "name": "fca10eaca19f055b0a7683e85e9fcd5e", "fusion_lat": 0.0, "fusion_lon": 0.0, "rental_uris": {"android": "https://dc.lft.to/lastmile_qr_scan", "ios": "https://dc.lft.to/lastmile_qr_scan"}, "is_reserved": 0, "is_disabled": 0, "type": "electric_bike", "bike_id": "fca10eaca19f055b0a7683e85e9fcd5e"}, {"lon": -77.03805816666667, "lat": 38.930006166666665, "name": "652b398bbb6c1ce06536c271464d7d68", "fusion_lat": 0.0, "fusion_lon": 0.0, "rental_uris": {"android": "https://dc.lft.to/lastmile_qr_scan", "ios": "https://dc.lft.to/lastmile_qr_scan"}, "is_reserved": 0, "is_disabled": 0, "type": "electric_scooter", "bike_id": "652b398bbb6c1ce06536c271464d7d68"}, {"lon": -77.03312516666666, "lat": 38.92557766666667, "name": "bda3c8d8fa696187ca081e586ba7115c", "fusion_lat": 0.0, "fusion_lon": 0.0, "rental_uris": {"android": "https://dc.lft.to/lastmile_qr_scan", "ios": "https://dc.lft.to/lastmile_qr_scan"}, "is_reserved": 0, "is_disabled": 0, "type": "electric_scooter", "bike_id": "bda3c8d8fa696187ca081e586ba7115c"}, {"lon": -76.9465345, "lat": 38.898244166666665, "name": "94b6942137ab9e6ae9cea0d7c0a357e8", "fusion_lat": 0.0, "fusion_lon": 0.0, "rental_uris": {"android": "https://dc.lft.to/lastmile_qr_scan", "ios": "https://dc.lft.to/lastmile_qr_scan"}, "is_reserved": 0, "is_disabled": 0, "type": "electric_scooter", "bike_id": "94b6942137ab9e6ae9cea0d7c0a357e8"}, {"lon": -77.03830816666667, "lat": 38.91108, "name": "95256dea13d45d6122eab0a488b6b9e3", "fusion_lat": 0.0, "fusion_lon": 0.0, "rental_uris": {"android": "https://dc.lft.to/lastmile_qr_scan", "ios": "https://dc.lft.to/lastmile_qr_scan"}, "is_reserved": 0, "is_disabled": 0, "type": "electric_scooter", "bike_id": "95256dea13d45d6122eab0a488b6b9e3"}, {"lon": -77.002357, "lat": 38.90731016666667, "name": "a06c459549dc72bc60e81daad0350882", "fusion_lat": 0.0, "fusion_lon": 0.0, "rental_uris": {"android": "https://dc.lft.to/lastmile_qr_scan", "ios": "https://dc.lft.to/lastmile_qr_scan"}, "is_reserved": 0, "is_disabled": 0, "type": "electric_scooter", "bike_id": "a06c459549dc72bc60e81daad0350882"}, {"lon": -76.97253116666667, "lat": 38.95739783333333, "name": "a0653388eea856ac20e82466a3ac9996", "fusion_lat": 0.0, "fusion_lon": 0.0, "rental_uris": {"android": "https://dc.lft.to/lastmile_qr_scan", "ios": "https://dc.lft.to/lastmile_qr_scan"}, "is_reserved": 0, "is_disabled": 0, "type": "electric_bike", "bike_id": "a0653388eea856ac20e82466a3ac9996"}, {"lon": -77.07612383333333, "lat": 38.912113166666664, "name": "73574199e49b216b79096f530c945a2b", "fusion_lat": 0.0, "fusion_lon": 0.0, "rental_uris": {"android": "https://dc.lft.to/lastmile_qr_scan", "ios": "https://dc.lft.to/lastmile_qr_scan"}, "is_reserved": 0, "is_disabled": 0, "type": "electric_scooter", "bike_id": "73574199e49b216b79096f530c945a2b"}, {"lon": -76.95659483333333, "lat": 38.896084333333334, "name": "a1bd6ac2fbfc79c576f1b7e02d8a2eec", "fusion_lat": 0.0, "fusion_lon": 0.0, "rental_uris": {"android": "https://dc.lft.to/lastmile_qr_scan", "ios": "https://dc.lft.to/lastmile_qr_scan"}, "is_reserved": 0, "is_disabled": 0, "type": "electric_scooter", "bike_id": "a1bd6ac2fbfc79c576f1b7e02d8a2eec"}, {"lon": -77.02682583333333, "lat": 38.899309833333334, "name": "f476bb80f11cf26615910a18500d2cec", "fusion_lat": 0.0, "fusion_lon": 0.0, "rental_uris": {"android": "https://dc.lft.to/lastmile_qr_scan", "ios": "https://dc.lft.to/lastmile_qr_scan"}, "is_reserved": 0, "is_disabled": 0, "type": "electric_scooter", "bike_id": "f476bb80f11cf26615910a18500d2cec"}, {"lon": -77.07686616666666, "lat": 38.8319295, "name": "12201d5bdccfe9eae1c887c13a1bb71f", "fusion_lat": 0.0, "fusion_lon": 0.0, "rental_uris": {"android": "https://dc.lft.to/lastmile_qr_scan", "ios": "https://dc.lft.to/lastmile_qr_scan"}, "is_reserved": 0, "is_disabled": 0, "type": "electric_bike", "bike_id": "12201d5bdccfe9eae1c887c13a1bb71f"}, {"lon": -76.9874025, "lat": 38.94431383333333, "name": "97d36cbcaca7ddaf090ecf1dc2515af1", "fusion_lat": 0.0, "fusion_lon": 0.0, "rental_uris": {"android": "https://dc.lft.to/lastmile_qr_scan", "ios": "https://dc.lft.to/lastmile_qr_scan"}, "is_reserved": 0, "is_disabled": 0, "type": "electric_bike", "bike_id": "97d36cbcaca7ddaf090ecf1dc2515af1"}, {"lon": -77.036323, "lat": 38.955987, "name": "8539fe8cf01de65011ed8b384412b4b4", "fusion_lat": 0.0, "fusion_lon": 0.0, "rental_uris": {"android": "https://dc.lft.to/lastmile_qr_scan", "ios": "https://dc.lft.to/lastmile_qr_scan"}, "is_reserved": 0, "is_disabled": 0, "type": "electric_scooter", "bike_id": "8539fe8cf01de65011ed8b384412b4b4"}, {"lon": -77.03362883333334, "lat": 38.897814333333336, "name": "17072f4180fed10e661024985ef302cf", "fusion_lat": 0.0, "fusion_lon": 0.0, "rental_uris": {"android": "https://dc.lft.to/lastmile_qr_scan", "ios": "https://dc.lft.to/lastmile_qr_scan"}, "is_reserved": 0, "is_disabled": 0, "type": "electric_scooter", "bike_id": "17072f4180fed10e661024985ef302cf"}, {"lon": -76.93553216666666, "lat": 38.955486666666665, "name": "e2c028bcc20a0fd4adbea086a30fe737", "fusion_lat": 0.0, "fusion_lon": 0.0, "rental_uris": {"android": "https://dc.lft.to/lastmile_qr_scan", "ios": "https://dc.lft.to/lastmile_qr_scan"}, "is_reserved": 0, "is_disabled": 0, "type": "electric_bike", "bike_id": "e2c028bcc20a0fd4adbea086a30fe737"}, {"lon": -77.024033, "lat": 38.901684333333336, "name": "41e092e958df5895239d79af4af8840b", "fusion_lat": 0.0, "fusion_lon": 0.0, "rental_uris": {"android": "https://dc.lft.to/lastmile_qr_scan", "ios": "https://dc.lft.to/lastmile_qr_scan"}, "is_reserved": 0, "is_disabled": 0, "type": "electric_scooter", "bike_id": "41e092e958df5895239d79af4af8840b"}, {"lon": -77.00149983333333, "lat": 38.90019933333333, "name": "efc14e4ecba77329544abc07d23bfcd0", "fusion_lat": 0.0, "fusion_lon": 0.0, "rental_uris": {"android": "https://dc.lft.to/lastmile_qr_scan", "ios": "https://dc.lft.to/lastmile_qr_scan"}, "is_reserved": 0, "is_disabled": 0, "type": "electric_scooter", "bike_id": "efc14e4ecba77329544abc07d23bfcd0"}, {"lon": -77.03361983333333, "lat": 38.92442883333333, "name": "1cb8a3ccd54b0b8aaa7299deb4af313d", "fusion_lat": 0.0, "fusion_lon": 0.0, "rental_uris": {"android": "https://dc.lft.to/lastmile_qr_scan", "ios": "https://dc.lft.to/lastmile_qr_scan"}, "is_reserved": 0, "is_disabled": 0, "type": "electric_scooter", "bike_id": "1cb8a3ccd54b0b8aaa7299deb4af313d"}, {"lon": -77.05618283333334, "lat": 38.92409516666667, "name": "5422f5a16439a67b7beedd50f3cbf0ac", "fusion_lat": 0.0, "fusion_lon": 0.0, "rental_uris": {"android": "https://dc.lft.to/lastmile_qr_scan", "ios": "https://dc.lft.to/lastmile_qr_scan"}, "is_reserved": 0, "is_disabled": 0, "type": "electric_scooter", "bike_id": "5422f5a16439a67b7beedd50f3cbf0ac"}, {"lon": -77.073532, "lat": 38.93358333333333, "name": "f2f7647ee3ebb665cc0e56d546a0db22", "fusion_lat": 0.0, "fusion_lon": 0.0, "rental_uris": {"android": "https://dc.lft.to/lastmile_qr_scan", "ios": "https://dc.lft.to/lastmile_qr_scan"}, "is_reserved": 0, "is_disabled": 0, "type": "electric_scooter", "bike_id": "f2f7647ee3ebb665cc0e56d546a0db22"}, {"lon": -77.04875916666667, "lat": 38.901055166666666, "name": "18272e9af6b526f258c1e21f1a671b86", "fusion_lat": 0.0, "fusion_lon": 0.0, "rental_uris": {"android": "https://dc.lft.to/lastmile_qr_scan", "ios": "https://dc.lft.to/lastmile_qr_scan"}, "is_reserved": 0, "is_disabled": 0, "type": "electric_scooter", "bike_id": "18272e9af6b526f258c1e21f1a671b86"}, {"lon": -77.12264966666666, "lat": 38.8918895, "name": "80852bc41568900f6d1709c715efdaec", "fusion_lat": 0.0, "fusion_lon": 0.0, "rental_uris": {"android": "https://dc.lft.to/lastmile_qr_scan", "ios": "https://dc.lft.to/lastmile_qr_scan"}, "is_reserved": 0, "is_disabled": 0, "type": "electric_bike", "bike_id": "80852bc41568900f6d1709c715efdaec"}, {"lon": -77.057097, "lat": 38.931456833333336, "name": "65ccbee55a5e5b2a6d49e010743bc91d", "fusion_lat": 0.0, "fusion_lon": 0.0, "rental_uris": {"android": "https://dc.lft.to/lastmile_qr_scan", "ios": "https://dc.lft.to/lastmile_qr_scan"}, "is_reserved": 0, "is_disabled": 0, "type": "electric_scooter", "bike_id": "65ccbee55a5e5b2a6d49e010743bc91d"}, {"lon": -77.11231866666667, "lat": 38.82869216666667, "name": "8af4bb21fd3668a36d50156c0965dd5d", "fusion_lat": 0.0, "fusion_lon": 0.0, "rental_uris": {"android": "https://dc.lft.to/lastmile_qr_scan", "ios": "https://dc.lft.to/lastmile_qr_scan"}, "is_reserved": 0, "is_disabled": 0, "type": "electric_bike", "bike_id": "8af4bb21fd3668a36d50156c0965dd5d"}, {"lon": -77.01211066666667, "lat": 38.91882783333333, "name": "ac31112015424951bb611a060fce80b1", "fusion_lat": 0.0, "fusion_lon": 0.0, "rental_uris": {"android": "https://dc.lft.to/lastmile_qr_scan", "ios": "https://dc.lft.to/lastmile_qr_scan"}, "is_reserved": 0, "is_disabled": 0, "type": "electric_scooter", "bike_id": "ac31112015424951bb611a060fce80b1"}, {"lon": -77.035707, "lat": 38.95722116666666, "name": "78b9d86b01c6da179fd3bea72af3af39", "fusion_lat": 0.0, "fusion_lon": 0.0, "rental_uris": {"android": "https://dc.lft.to/lastmile_qr_scan", "ios": "https://dc.lft.to/lastmile_qr_scan"}, "is_reserved": 0, "is_disabled": 0, "type": "electric_scooter", "bike_id": "78b9d86b01c6da179fd3bea72af3af39"}, {"lon": -77.0475265, "lat": 38.9024605, "name": "cccba558608ff19a5ebf542716263d8e", "fusion_lat": 0.0, "fusion_lon": 0.0, "rental_uris": {"android": "https://dc.lft.to/lastmile_qr_scan", "ios": "https://dc.lft.to/lastmile_qr_scan"}, "is_reserved": 0, "is_disabled": 0, "type": "electric_scooter", "bike_id": "cccba558608ff19a5ebf542716263d8e"}, {"lon": -77.00567716666667, "lat": 38.87674, "name": "39e90b5dbb710c98627e27a4d7e33eb0", "fusion_lat": 0.0, "fusion_lon": 0.0, "rental_uris": {"android": "https://dc.lft.to/lastmile_qr_scan", "ios": "https://dc.lft.to/lastmile_qr_scan"}, "is_reserved": 0, "is_disabled": 0, "type": "electric_scooter", "bike_id": "39e90b5dbb710c98627e27a4d7e33eb0"}, {"lon": -77.03522016666666, "lat": 38.93592816666666, "name": "d5955b859f52e1097743a26684e893d3", "fusion_lat": 0.0, "fusion_lon": 0.0, "rental_uris": {"android": "https://dc.lft.to/lastmile_qr_scan", "ios": "https://dc.lft.to/lastmile_qr_scan"}, "is_reserved": 0, "is_disabled": 0, "type": "electric_scooter", "bike_id": "d5955b859f52e1097743a26684e893d3"}, {"lon": -77.04385616666667, "lat": 38.907043333333334, "name": "a6f19ec95d123cbf9c9b5a586dd56e14", "fusion_lat": 0.0, "fusion_lon": 0.0, "rental_uris": {"android": "https://dc.lft.to/lastmile_qr_scan", "ios": "https://dc.lft.to/lastmile_qr_scan"}, "is_reserved": 0, "is_disabled": 0, "type": "electric_scooter", "bike_id": "a6f19ec95d123cbf9c9b5a586dd56e14"}, {"lon": -77.0346805, "lat": 38.916621666666664, "name": "e8cfcb2520a2b334137111ed64565d3f", "fusion_lat": 0.0, "fusion_lon": 0.0, "rental_uris": {"android": "https://dc.lft.to/lastmile_qr_scan", "ios": "https://dc.lft.to/lastmile_qr_scan"}, "is_reserved": 0, "is_disabled": 0, "type": "electric_scooter", "bike_id": "e8cfcb2520a2b334137111ed64565d3f"}, {"lon": -76.98765016666667, "lat": 38.844977, "name": "08e810bae524f7ce9fc4d76ff6c82eef", "fusion_lat": 0.0, "fusion_lon": 0.0, "rental_uris": {"android": "https://dc.lft.to/lastmile_qr_scan", "ios": "https://dc.lft.to/lastmile_qr_scan"}, "is_reserved": 0, "is_disabled": 0, "type": "electric_scooter", "bike_id": "08e810bae524f7ce9fc4d76ff6c82eef"}, {"lon": -77.046177, "lat": 38.90960966666667, "name": "6d994ea877f0f750af7c228dd2a51019", "fusion_lat": 0.0, "fusion_lon": 0.0, "rental_uris": {"android": "https://dc.lft.to/lastmile_qr_scan", "ios": "https://dc.lft.to/lastmile_qr_scan"}, "is_reserved": 0, "is_disabled": 0, "type": "electric_scooter", "bike_id": "6d994ea877f0f750af7c228dd2a51019"}, {"lon": -77.02572933333333, "lat": 38.88738583333333, "name": "88bb89ceb72456e0304efde43cd87688", "fusion_lat": 0.0, "fusion_lon": 0.0, "rental_uris": {"android": "https://dc.lft.to/lastmile_qr_scan", "ios": "https://dc.lft.to/lastmile_qr_scan"}, "is_reserved": 0, "is_disabled": 0, "type": "electric_scooter", "bike_id": "88bb89ceb72456e0304efde43cd87688"}, {"lon": -77.04343016666667, "lat": 38.9119555, "name": "a749ce8ff71d1f44ac276e38ebcf8332", "fusion_lat": 0.0, "fusion_lon": 0.0, "rental_uris": {"android": "https://dc.lft.to/lastmile_qr_scan", "ios": "https://dc.lft.to/lastmile_qr_scan"}, "is_reserved": 0, "is_disabled": 0, "type": "electric_scooter", "bike_id": "a749ce8ff71d1f44ac276e38ebcf8332"}, {"lon": -77.03722, "lat": 38.9265855, "name": "09e81de13223b059f970ad7eea4cd3f0", "fusion_lat": 0.0, "fusion_lon": 0.0, "rental_uris": {"android": "https://dc.lft.to/lastmile_qr_scan", "ios": "https://dc.lft.to/lastmile_qr_scan"}, "is_reserved": 0, "is_disabled": 0, "type": "electric_scooter", "bike_id": "09e81de13223b059f970ad7eea4cd3f0"}, {"lon": -77.05219583333333, "lat": 38.935327, "name": "ae8f2542ebb05adb57cb86b3ff0e838a", "fusion_lat": 0.0, "fusion_lon": 0.0, "rental_uris": {"android": "https://dc.lft.to/lastmile_qr_scan", "ios": "https://dc.lft.to/lastmile_qr_scan"}, "is_reserved": 0, "is_disabled": 0, "type": "electric_bike", "bike_id": "ae8f2542ebb05adb57cb86b3ff0e838a"}, {"lon": -76.98433083333333, "lat": 38.855107, "name": "8c1f9594b7fc7cc6b7fc925b4a504249", "fusion_lat": 0.0, "fusion_lon": 0.0, "rental_uris": {"android": "https://dc.lft.to/lastmile_qr_scan", "ios": "https://dc.lft.to/lastmile_qr_scan"}, "is_reserved": 0, "is_disabled": 0, "type": "electric_bike", "bike_id": "8c1f9594b7fc7cc6b7fc925b4a504249"}, {"lon": -76.98236316666667, "lat": 38.867581333333334, "name": "4cba774163a47463aedddf2a8819d9a1", "fusion_lat": 0.0, "fusion_lon": 0.0, "rental_uris": {"android": "https://dc.lft.to/lastmile_qr_scan", "ios": "https://dc.lft.to/lastmile_qr_scan"}, "is_reserved": 0, "is_disabled": 0, "type": "electric_scooter", "bike_id": "4cba774163a47463aedddf2a8819d9a1"}, {"lon": -77.056936, "lat": 38.92324266666667, "name": "13ce812a77d9caabe41cc653ba9bb31e", "fusion_lat": 0.0, "fusion_lon": 0.0, "rental_uris": {"android": "https://dc.lft.to/lastmile_qr_scan", "ios": "https://dc.lft.to/lastmile_qr_scan"}, "is_reserved": 0, "is_disabled": 0, "type": "electric_scooter", "bike_id": "13ce812a77d9caabe41cc653ba9bb31e"}, {"lon": -76.996293, "lat": 38.88567283333333, "name": "57901cf0b0312d8e0866b07346751ed4", "fusion_lat": 0.0, "fusion_lon": 0.0, "rental_uris": {"android": "https://dc.lft.to/lastmile_qr_scan", "ios": "https://dc.lft.to/lastmile_qr_scan"}, "is_reserved": 0, "is_disabled": 0, "type": "electric_scooter", "bike_id": "57901cf0b0312d8e0866b07346751ed4"}, {"lon": -77.09548383333333, "lat": 38.83728516666667, "name": "61a029f529b3a6a8077e033a8fd82255", "fusion_lat": 0.0, "fusion_lon": 0.0, "rental_uris": {"android": "https://dc.lft.to/lastmile_qr_scan", "ios": "https://dc.lft.to/lastmile_qr_scan"}, "is_reserved": 0, "is_disabled": 0, "type": "electric_bike", "bike_id": "61a029f529b3a6a8077e033a8fd82255"}, {"lon": -76.99785666666666, "lat": 38.844191333333335, "name": "8292eac472cf5e493cc433bc9579041b", "fusion_lat": 0.0, "fusion_lon": 0.0, "rental_uris": {"android": "https://dc.lft.to/lastmile_qr_scan", "ios": "https://dc.lft.to/lastmile_qr_scan"}, "is_reserved": 0, "is_disabled": 0, "type": "electric_scooter", "bike_id": "8292eac472cf5e493cc433bc9579041b"}, {"lon": -77.036691, "lat": 38.9124225, "name": "04c38df908e2854328444512f936fcfb", "fusion_lat": 0.0, "fusion_lon": 0.0, "rental_uris": {"android": "https://dc.lft.to/lastmile_qr_scan", "ios": "https://dc.lft.to/lastmile_qr_scan"}, "is_reserved": 0, "is_disabled": 0, "type": "electric_scooter", "bike_id": "04c38df908e2854328444512f936fcfb"}, {"lon": -77.00374216666667, "lat": 38.83603933333333, "name": "88c4322b8fac807c7bd5ee7b33ec4e89", "fusion_lat": 0.0, "fusion_lon": 0.0, "rental_uris": {"android": "https://dc.lft.to/lastmile_qr_scan", "ios": "https://dc.lft.to/lastmile_qr_scan"}, "is_reserved": 0, "is_disabled": 0, "type": "electric_bike", "bike_id": "88c4322b8fac807c7bd5ee7b33ec4e89"}, {"lon": -76.94954566666667, "lat": 38.8831715, "name": "3a73865482ac10f67051bd6aba901dfb", "fusion_lat": 0.0, "fusion_lon": 0.0, "rental_uris": {"android": "https://dc.lft.to/lastmile_qr_scan", "ios": "https://dc.lft.to/lastmile_qr_scan"}, "is_reserved": 0, "is_disabled": 0, "type": "electric_scooter", "bike_id": "3a73865482ac10f67051bd6aba901dfb"}, {"lon": -77.032918, "lat": 38.95650366666667, "name": "52ca2deffd2d179a63bf3fda005806f2", "fusion_lat": 0.0, "fusion_lon": 0.0, "rental_uris": {"android": "https://dc.lft.to/lastmile_qr_scan", "ios": "https://dc.lft.to/lastmile_qr_scan"}, "is_reserved": 0, "is_disabled": 0, "type": "electric_scooter", "bike_id": "52ca2deffd2d179a63bf3fda005806f2"}, {"lon": -77.02475033333333, "lat": 38.90618833333333, "name": "29a087407dd50f1f54e1947f380dd894", "fusion_lat": 0.0, "fusion_lon": 0.0, "rental_uris": {"android": "https://dc.lft.to/lastmile_qr_scan", "ios": "https://dc.lft.to/lastmile_qr_scan"}, "is_reserved": 0, "is_disabled": 0, "type": "electric_bike", "bike_id": "29a087407dd50f1f54e1947f380dd894"}, {"lon": -77.04901966666667, "lat": 38.91323966666667, "name": "001b05a0d2406976cf35c67bd4feb065", "fusion_lat": 0.0, "fusion_lon": 0.0, "rental_uris": {"android": "https://dc.lft.to/lastmile_qr_scan", "ios": "https://dc.lft.to/lastmile_qr_scan"}, "is_reserved": 0, "is_disabled": 0, "type": "electric_scooter", "bike_id": "001b05a0d2406976cf35c67bd4feb065"}, {"lon": -77.01301033333333, "lat": 39.003787333333335, "name": "a54da9c8c62d748a2fde39130f74a8d5", "fusion_lat": 0.0, "fusion_lon": 0.0, "rental_uris": {"android": "https://dc.lft.to/lastmile_qr_scan", "ios": "https://dc.lft.to/lastmile_qr_scan"}, "is_reserved": 0, "is_disabled": 0, "type": "electric_bike", "bike_id": "a54da9c8c62d748a2fde39130f74a8d5"}, {"lon": -77.01177766666666, "lat": 38.903997833333335, "name": "75e693b08531c62bb98801bb34641ef1", "fusion_lat": 0.0, "fusion_lon": 0.0, "rental_uris": {"android": "https://dc.lft.to/lastmile_qr_scan", "ios": "https://dc.lft.to/lastmile_qr_scan"}, "is_reserved": 0, "is_disabled": 0, "type": "electric_scooter", "bike_id": "75e693b08531c62bb98801bb34641ef1"}, {"lon": -77.0318475, "lat": 38.915958833333335, "name": "d3481f6519ace588822914b5be7ed1f7", "fusion_lat": 0.0, "fusion_lon": 0.0, "rental_uris": {"android": "https://dc.lft.to/lastmile_qr_scan", "ios": "https://dc.lft.to/lastmile_qr_scan"}, "is_reserved": 0, "is_disabled": 0, "type": "electric_scooter", "bike_id": "d3481f6519ace588822914b5be7ed1f7"}, {"lon": -77.0448845, "lat": 38.911621833333335, "name": "a4886c6642f0f7bc2a747c9e2eabab5c", "fusion_lat": 0.0, "fusion_lon": 0.0, "rental_uris": {"android": "https://dc.lft.to/lastmile_qr_scan", "ios": "https://dc.lft.to/lastmile_qr_scan"}, "is_reserved": 0, "is_disabled": 0, "type": "electric_scooter", "bike_id": "a4886c6642f0f7bc2a747c9e2eabab5c"}, {"lon": -77.0006035, "lat": 38.888974, "name": "d77f16b807da1c31b70fe860dd3cd7c9", "fusion_lat": 0.0, "fusion_lon": 0.0, "rental_uris": {"android": "https://dc.lft.to/lastmile_qr_scan", "ios": "https://dc.lft.to/lastmile_qr_scan"}, "is_reserved": 0, "is_disabled": 0, "type": "electric_scooter", "bike_id": "d77f16b807da1c31b70fe860dd3cd7c9"}, {"lon": -76.94843066666667, "lat": 38.8947915, "name": "7661093890f7bdd62f47a4ea805bd25f", "fusion_lat": 0.0, "fusion_lon": 0.0, "rental_uris": {"android": "https://dc.lft.to/lastmile_qr_scan", "ios": "https://dc.lft.to/lastmile_qr_scan"}, "is_reserved": 0, "is_disabled": 0, "type": "electric_scooter", "bike_id": "7661093890f7bdd62f47a4ea805bd25f"}, {"lon": -77.09964283333333, "lat": 38.85787633333333, "name": "0d32b859f7e1cccff01c63f7897b1eaa", "fusion_lat": 0.0, "fusion_lon": 0.0, "rental_uris": {"android": "https://dc.lft.to/lastmile_qr_scan", "ios": "https://dc.lft.to/lastmile_qr_scan"}, "is_reserved": 0, "is_disabled": 0, "type": "electric_bike", "bike_id": "0d32b859f7e1cccff01c63f7897b1eaa"}, {"lon": -77.022708, "lat": 38.89370433333333, "name": "36d1ac834ef4f72e8474efc3f2298c3f", "fusion_lat": 0.0, "fusion_lon": 0.0, "rental_uris": {"android": "https://dc.lft.to/lastmile_qr_scan", "ios": "https://dc.lft.to/lastmile_qr_scan"}, "is_reserved": 0, "is_disabled": 0, "type": "electric_scooter", "bike_id": "36d1ac834ef4f72e8474efc3f2298c3f"}, {"lon": -77.02549533333334, "lat": 38.8922845, "name": "f6a0ef216601422469c7508c209bf849", "fusion_lat": 0.0, "fusion_lon": 0.0, "rental_uris": {"android": "https://dc.lft.to/lastmile_qr_scan", "ios": "https://dc.lft.to/lastmile_qr_scan"}, "is_reserved": 0, "is_disabled": 0, "type": "electric_scooter", "bike_id": "f6a0ef216601422469c7508c209bf849"}, {"lon": -76.99801666666667, "lat": 38.90855916666667, "name": "385a2c74c457098bfbd9fece12b6c342", "fusion_lat": 0.0, "fusion_lon": 0.0, "rental_uris": {"android": "https://dc.lft.to/lastmile_qr_scan", "ios": "https://dc.lft.to/lastmile_qr_scan"}, "is_reserved": 0, "is_disabled": 0, "type": "electric_scooter", "bike_id": "385a2c74c457098bfbd9fece12b6c342"}, {"lon": -77.032854, "lat": 38.9055765, "name": "3c10ab377f112b7a0b72f459d06ddba7", "fusion_lat": 0.0, "fusion_lon": 0.0, "rental_uris": {"android": "https://dc.lft.to/lastmile_qr_scan", "ios": "https://dc.lft.to/lastmile_qr_scan"}, "is_reserved": 0, "is_disabled": 0, "type": "electric_scooter", "bike_id": "3c10ab377f112b7a0b72f459d06ddba7"}, {"lon": -77.02755416666666, "lat": 38.88157833333333, "name": "cbe085b1c1c3883fae2eef9300b8663b", "fusion_lat": 0.0, "fusion_lon": 0.0, "rental_uris": {"android": "https://dc.lft.to/lastmile_qr_scan", "ios": "https://dc.lft.to/lastmile_qr_scan"}, "is_reserved": 0, "is_disabled": 0, "type": "electric_scooter", "bike_id": "cbe085b1c1c3883fae2eef9300b8663b"}, {"lon": -77.071682, "lat": 38.914523833333334, "name": "57d3b860d2c6289a54ccf3f4be1bf50c", "fusion_lat": 0.0, "fusion_lon": 0.0, "rental_uris": {"android": "https://dc.lft.to/lastmile_qr_scan", "ios": "https://dc.lft.to/lastmile_qr_scan"}, "is_reserved": 0, "is_disabled": 0, "type": "electric_scooter", "bike_id": "57d3b860d2c6289a54ccf3f4be1bf50c"}, {"lon": -77.03858483333333, "lat": 38.9064735, "name": "615f72ba0c6c3ac50b831d40070a6904", "fusion_lat": 0.0, "fusion_lon": 0.0, "rental_uris": {"android": "https://dc.lft.to/lastmile_qr_scan", "ios": "https://dc.lft.to/lastmile_qr_scan"}, "is_reserved": 0, "is_disabled": 0, "type": "electric_scooter", "bike_id": "615f72ba0c6c3ac50b831d40070a6904"}, {"lon": -76.99630816666667, "lat": 38.846166, "name": "958ca29cfea6ee6560e4b714a78ff2e9", "fusion_lat": 0.0, "fusion_lon": 0.0, "rental_uris": {"android": "https://dc.lft.to/lastmile_qr_scan", "ios": "https://dc.lft.to/lastmile_qr_scan"}, "is_reserved": 0, "is_disabled": 0, "type": "electric_scooter", "bike_id": "958ca29cfea6ee6560e4b714a78ff2e9"}, {"lon": -77.0435995, "lat": 38.904808833333334, "name": "cce3f2007bb9ab1c68a99c0270196425", "fusion_lat": 0.0, "fusion_lon": 0.0, "rental_uris": {"android": "https://dc.lft.to/lastmile_qr_scan", "ios": "https://dc.lft.to/lastmile_qr_scan"}, "is_reserved": 0, "is_disabled": 0, "type": "electric_scooter", "bike_id": "cce3f2007bb9ab1c68a99c0270196425"}, {"lon": -77.032555, "lat": 38.935231333333334, "name": "9da6a55a57aac66108a492f93f086f0d", "fusion_lat": 0.0, "fusion_lon": 0.0, "rental_uris": {"android": "https://dc.lft.to/lastmile_qr_scan", "ios": "https://dc.lft.to/lastmile_qr_scan"}, "is_reserved": 0, "is_disabled": 0, "type": "electric_scooter", "bike_id": "9da6a55a57aac66108a492f93f086f0d"}, {"lon": -77.04461716666667, "lat": 38.91871483333333, "name": "72ce38b20226917ea23ea118b94af781", "fusion_lat": 0.0, "fusion_lon": 0.0, "rental_uris": {"android": "https://dc.lft.to/lastmile_qr_scan", "ios": "https://dc.lft.to/lastmile_qr_scan"}, "is_reserved": 0, "is_disabled": 0, "type": "electric_scooter", "bike_id": "72ce38b20226917ea23ea118b94af781"}, {"lon": -76.997863, "lat": 38.84422433333334, "name": "b5fc6be2c3fabf55c79d55349d4026c0", "fusion_lat": 0.0, "fusion_lon": 0.0, "rental_uris": {"android": "https://dc.lft.to/lastmile_qr_scan", "ios": "https://dc.lft.to/lastmile_qr_scan"}, "is_reserved": 0, "is_disabled": 0, "type": "electric_scooter", "bike_id": "b5fc6be2c3fabf55c79d55349d4026c0"}, {"lon": -77.03601733333333, "lat": 38.95616316666667, "name": "17e75755db8f819ac563d7f761697738", "fusion_lat": 0.0, "fusion_lon": 0.0, "rental_uris": {"android": "https://dc.lft.to/lastmile_qr_scan", "ios": "https://dc.lft.to/lastmile_qr_scan"}, "is_reserved": 0, "is_disabled": 0, "type": "electric_scooter", "bike_id": "17e75755db8f819ac563d7f761697738"}, {"lon": -77.049097, "lat": 38.89728516666667, "name": "c8279af3be90a49590f2bd40bc02da39", "fusion_lat": 0.0, "fusion_lon": 0.0, "rental_uris": {"android": "https://dc.lft.to/lastmile_qr_scan", "ios": "https://dc.lft.to/lastmile_qr_scan"}, "is_reserved": 0, "is_disabled": 0, "type": "electric_scooter", "bike_id": "c8279af3be90a49590f2bd40bc02da39"}, {"lon": -77.02459466666667, "lat": 38.91909916666667, "name": "68a448b3fc99a76c7767852372410ee2", "fusion_lat": 0.0, "fusion_lon": 0.0, "rental_uris": {"android": "https://dc.lft.to/lastmile_qr_scan", "ios": "https://dc.lft.to/lastmile_qr_scan"}, "is_reserved": 0, "is_disabled": 0, "type": "electric_scooter", "bike_id": "68a448b3fc99a76c7767852372410ee2"}, {"lon": -76.98734083333333, "lat": 38.86700533333333, "name": "b39584dabe33405450c1d000334883ef", "fusion_lat": 0.0, "fusion_lon": 0.0, "rental_uris": {"android": "https://dc.lft.to/lastmile_qr_scan", "ios": "https://dc.lft.to/lastmile_qr_scan"}, "is_reserved": 0, "is_disabled": 0, "type": "electric_scooter", "bike_id": "b39584dabe33405450c1d000334883ef"}, {"lon": -77.01209216666666, "lat": 38.919718833333334, "name": "b07ad56fac887f6053cc23d73274f71e", "fusion_lat": 0.0, "fusion_lon": 0.0, "rental_uris": {"android": "https://dc.lft.to/lastmile_qr_scan", "ios": "https://dc.lft.to/lastmile_qr_scan"}, "is_reserved": 0, "is_disabled": 0, "type": "electric_scooter", "bike_id": "b07ad56fac887f6053cc23d73274f71e"}, {"lon": -77.055481, "lat": 38.899695, "name": "21e9b63d3bde17f593368312acbcca65", "fusion_lat": 0.0, "fusion_lon": 0.0, "rental_uris": {"android": "https://dc.lft.to/lastmile_qr_scan", "ios": "https://dc.lft.to/lastmile_qr_scan"}, "is_reserved": 0, "is_disabled": 0, "type": "electric_scooter", "bike_id": "21e9b63d3bde17f593368312acbcca65"}, {"lon": -76.9993485, "lat": 38.8961645, "name": "d1a46cc93889540b4c85343d821b471a", "fusion_lat": 0.0, "fusion_lon": 0.0, "rental_uris": {"android": "https://dc.lft.to/lastmile_qr_scan", "ios": "https://dc.lft.to/lastmile_qr_scan"}, "is_reserved": 0, "is_disabled": 0, "type": "electric_scooter", "bike_id": "d1a46cc93889540b4c85343d821b471a"}, {"lon": -77.03222033333333, "lat": 38.8922385, "name": "0f99ac53c0de3a248e5e41b03160c542", "fusion_lat": 0.0, "fusion_lon": 0.0, "rental_uris": {"android": "https://dc.lft.to/lastmile_qr_scan", "ios": "https://dc.lft.to/lastmile_qr_scan"}, "is_reserved": 0, "is_disabled": 0, "type": "electric_scooter", "bike_id": "0f99ac53c0de3a248e5e41b03160c542"}, {"lon": -77.037232, "lat": 38.906184833333334, "name": "13353ea75415969e792ee83e02ad4a9a", "fusion_lat": 0.0, "fusion_lon": 0.0, "rental_uris": {"android": "https://dc.lft.to/lastmile_qr_scan", "ios": "https://dc.lft.to/lastmile_qr_scan"}, "is_reserved": 0, "is_disabled": 0, "type": "electric_scooter", "bike_id": "13353ea75415969e792ee83e02ad4a9a"}, {"lon": -77.028969, "lat": 38.958414, "name": "ec29cfffa140cea257470fd3a1f8df1d", "fusion_lat": 0.0, "fusion_lon": 0.0, "rental_uris": {"android": "https://dc.lft.to/lastmile_qr_scan", "ios": "https://dc.lft.to/lastmile_qr_scan"}, "is_reserved": 0, "is_disabled": 0, "type": "electric_scooter", "bike_id": "ec29cfffa140cea257470fd3a1f8df1d"}, {"lon": -77.01758633333333, "lat": 38.876861, "name": "2f4cba018c88d828e03f2d6fa005a69f", "fusion_lat": 0.0, "fusion_lon": 0.0, "rental_uris": {"android": "https://dc.lft.to/lastmile_qr_scan", "ios": "https://dc.lft.to/lastmile_qr_scan"}, "is_reserved": 0, "is_disabled": 0, "type": "electric_scooter", "bike_id": "2f4cba018c88d828e03f2d6fa005a69f"}, {"lon": -77.04487916666666, "lat": 38.910639833333335, "name": "5199c9b2c4e472bc3771639d19f95c01", "fusion_lat": 0.0, "fusion_lon": 0.0, "rental_uris": {"android": "https://dc.lft.to/lastmile_qr_scan", "ios": "https://dc.lft.to/lastmile_qr_scan"}, "is_reserved": 0, "is_disabled": 0, "type": "electric_scooter", "bike_id": "5199c9b2c4e472bc3771639d19f95c01"}, {"lon": -77.03809683333333, "lat": 38.920449, "name": "4647a523a12852421a7f76c4717dfe38", "fusion_lat": 0.0, "fusion_lon": 0.0, "rental_uris": {"android": "https://dc.lft.to/lastmile_qr_scan", "ios": "https://dc.lft.to/lastmile_qr_scan"}, "is_reserved": 0, "is_disabled": 0, "type": "electric_scooter", "bike_id": "4647a523a12852421a7f76c4717dfe38"}, {"lon": -77.03792483333334, "lat": 38.91197966666667, "name": "dbeccc101e77ac6e3fe4b51d03006473", "fusion_lat": 0.0, "fusion_lon": 0.0, "rental_uris": {"android": "https://dc.lft.to/lastmile_qr_scan", "ios": "https://dc.lft.to/lastmile_qr_scan"}, "is_reserved": 0, "is_disabled": 0, "type": "electric_scooter", "bike_id": "dbeccc101e77ac6e3fe4b51d03006473"}, {"lon": -77.04509533333334, "lat": 38.90377633333333, "name": "7926fe23bc7d41146247ec873b7a38b0", "fusion_lat": 0.0, "fusion_lon": 0.0, "rental_uris": {"android": "https://dc.lft.to/lastmile_qr_scan", "ios": "https://dc.lft.to/lastmile_qr_scan"}, "is_reserved": 0, "is_disabled": 0, "type": "electric_scooter", "bike_id": "7926fe23bc7d41146247ec873b7a38b0"}, {"lon": -77.04383, "lat": 38.925697, "name": "6bf127f821b3ef49d7139f51080806af", "fusion_lat": 0.0, "fusion_lon": 0.0, "rental_uris": {"android": "https://dc.lft.to/lastmile_qr_scan", "ios": "https://dc.lft.to/lastmile_qr_scan"}, "is_reserved": 0, "is_disabled": 0, "type": "electric_scooter", "bike_id": "6bf127f821b3ef49d7139f51080806af"}, {"lon": -76.999513, "lat": 38.842901166666664, "name": "25dfb7727567fa80e66fa0b19a75d045", "fusion_lat": 0.0, "fusion_lon": 0.0, "rental_uris": {"android": "https://dc.lft.to/lastmile_qr_scan", "ios": "https://dc.lft.to/lastmile_qr_scan"}, "is_reserved": 0, "is_disabled": 0, "type": "electric_scooter", "bike_id": "25dfb7727567fa80e66fa0b19a75d045"}, {"lon": -77.0271955, "lat": 38.9182125, "name": "8449aeb7242217ff4757bf92109b05e4", "fusion_lat": 0.0, "fusion_lon": 0.0, "rental_uris": {"android": "https://dc.lft.to/lastmile_qr_scan", "ios": "https://dc.lft.to/lastmile_qr_scan"}, "is_reserved": 0, "is_disabled": 0, "type": "electric_scooter", "bike_id": "8449aeb7242217ff4757bf92109b05e4"}, {"lon": -77.00022366666667, "lat": 38.91977, "name": "44193d3dccf11a972c3620e6dbe1416a", "fusion_lat": 0.0, "fusion_lon": 0.0, "rental_uris": {"android": "https://dc.lft.to/lastmile_qr_scan", "ios": "https://dc.lft.to/lastmile_qr_scan"}, "is_reserved": 0, "is_disabled": 0, "type": "electric_scooter", "bike_id": "44193d3dccf11a972c3620e6dbe1416a"}, {"lon": -77.01936833333333, "lat": 38.94922733333333, "name": "775637866f791aec81048e0c10447ea1", "fusion_lat": 0.0, "fusion_lon": 0.0, "rental_uris": {"android": "https://dc.lft.to/lastmile_qr_scan", "ios": "https://dc.lft.to/lastmile_qr_scan"}, "is_reserved": 0, "is_disabled": 0, "type": "electric_scooter", "bike_id": "775637866f791aec81048e0c10447ea1"}, {"lon": -77.02243883333334, "lat": 38.911145, "name": "c07bb0aa762aef62e92726971dd89475", "fusion_lat": 0.0, "fusion_lon": 0.0, "rental_uris": {"android": "https://dc.lft.to/lastmile_qr_scan", "ios": "https://dc.lft.to/lastmile_qr_scan"}, "is_reserved": 0, "is_disabled": 0, "type": "electric_scooter", "bike_id": "c07bb0aa762aef62e92726971dd89475"}, {"lon": -77.03204733333334, "lat": 38.916382166666665, "name": "ec68d0560639b5c2c6a2dc3dfd4b8cb1", "fusion_lat": 0.0, "fusion_lon": 0.0, "rental_uris": {"android": "https://dc.lft.to/lastmile_qr_scan", "ios": "https://dc.lft.to/lastmile_qr_scan"}, "is_reserved": 0, "is_disabled": 0, "type": "electric_scooter", "bike_id": "ec68d0560639b5c2c6a2dc3dfd4b8cb1"}, {"lon": -77.05128816666667, "lat": 38.90536616666667, "name": "f1f8ee99c71ffe3a6253a241bf001b47", "fusion_lat": 0.0, "fusion_lon": 0.0, "rental_uris": {"android": "https://dc.lft.to/lastmile_qr_scan", "ios": "https://dc.lft.to/lastmile_qr_scan"}, "is_reserved": 0, "is_disabled": 0, "type": "electric_scooter", "bike_id": "f1f8ee99c71ffe3a6253a241bf001b47"}, {"lon": -77.03327016666667, "lat": 38.89815883333333, "name": "558253cdc7d57eb2ca5706e8f9f28344", "fusion_lat": 0.0, "fusion_lon": 0.0, "rental_uris": {"android": "https://dc.lft.to/lastmile_qr_scan", "ios": "https://dc.lft.to/lastmile_qr_scan"}, "is_reserved": 0, "is_disabled": 0, "type": "electric_scooter", "bike_id": "558253cdc7d57eb2ca5706e8f9f28344"}, {"lon": -77.013896, "lat": 38.9194595, "name": "fd00915823044084f03b609a64e44add", "fusion_lat": 0.0, "fusion_lon": 0.0, "rental_uris": {"android": "https://dc.lft.to/lastmile_qr_scan", "ios": "https://dc.lft.to/lastmile_qr_scan"}, "is_reserved": 0, "is_disabled": 0, "type": "electric_scooter", "bike_id": "fd00915823044084f03b609a64e44add"}, {"lon": -77.0377445, "lat": 38.925563, "name": "ee82fd6a8d0392f81e42494aed4572da", "fusion_lat": 0.0, "fusion_lon": 0.0, "rental_uris": {"android": "https://dc.lft.to/lastmile_qr_scan", "ios": "https://dc.lft.to/lastmile_qr_scan"}, "is_reserved": 0, "is_disabled": 0, "type": "electric_scooter", "bike_id": "ee82fd6a8d0392f81e42494aed4572da"}, {"lon": -77.023474, "lat": 38.962033, "name": "b4b0c69a7d3f9439fa58a6a8911b748f", "fusion_lat": 0.0, "fusion_lon": 0.0, "rental_uris": {"android": "https://dc.lft.to/lastmile_qr_scan", "ios": "https://dc.lft.to/lastmile_qr_scan"}, "is_reserved": 0, "is_disabled": 0, "type": "electric_scooter", "bike_id": "b4b0c69a7d3f9439fa58a6a8911b748f"}, {"lon": -76.99548516666667, "lat": 38.88417783333333, "name": "21258feb004c83b55c6efb9f48fb1b89", "fusion_lat": 0.0, "fusion_lon": 0.0, "rental_uris": {"android": "https://dc.lft.to/lastmile_qr_scan", "ios": "https://dc.lft.to/lastmile_qr_scan"}, "is_reserved": 0, "is_disabled": 0, "type": "electric_scooter", "bike_id": "21258feb004c83b55c6efb9f48fb1b89"}, {"lon": -77.02291733333334, "lat": 38.91567083333333, "name": "d26b70c7cf06c9228dd1a0f502941df4", "fusion_lat": 0.0, "fusion_lon": 0.0, "rental_uris": {"android": "https://dc.lft.to/lastmile_qr_scan", "ios": "https://dc.lft.to/lastmile_qr_scan"}, "is_reserved": 0, "is_disabled": 0, "type": "electric_scooter", "bike_id": "d26b70c7cf06c9228dd1a0f502941df4"}, {"lon": -77.022818, "lat": 38.916503166666665, "name": "61d0949699ec3dda5ee7ce0d60372af9", "fusion_lat": 0.0, "fusion_lon": 0.0, "rental_uris": {"android": "https://dc.lft.to/lastmile_qr_scan", "ios": "https://dc.lft.to/lastmile_qr_scan"}, "is_reserved": 0, "is_disabled": 0, "type": "electric_scooter", "bike_id": "61d0949699ec3dda5ee7ce0d60372af9"}, {"lon": -77.0053485, "lat": 38.928885666666666, "name": "1e768865726f6f74cd6a0ce097c49ea9", "fusion_lat": 0.0, "fusion_lon": 0.0, "rental_uris": {"android": "https://dc.lft.to/lastmile_qr_scan", "ios": "https://dc.lft.to/lastmile_qr_scan"}, "is_reserved": 0, "is_disabled": 0, "type": "electric_scooter", "bike_id": "1e768865726f6f74cd6a0ce097c49ea9"}, {"lon": -77.029734, "lat": 38.916836, "name": "dfb9df0b24ac372582be1d7188d0263f", "fusion_lat": 0.0, "fusion_lon": 0.0, "rental_uris": {"android": "https://dc.lft.to/lastmile_qr_scan", "ios": "https://dc.lft.to/lastmile_qr_scan"}, "is_reserved": 0, "is_disabled": 0, "type": "electric_scooter", "bike_id": "dfb9df0b24ac372582be1d7188d0263f"}, {"lon": -77.038755, "lat": 38.90813266666667, "name": "2eca39a5895c2ded4ece6ce6e3695997", "fusion_lat": 0.0, "fusion_lon": 0.0, "rental_uris": {"android": "https://dc.lft.to/lastmile_qr_scan", "ios": "https://dc.lft.to/lastmile_qr_scan"}, "is_reserved": 0, "is_disabled": 0, "type": "electric_scooter", "bike_id": "2eca39a5895c2ded4ece6ce6e3695997"}, {"lon": -77.057276, "lat": 38.93370216666667, "name": "7c71b241c18d38df3137e16fcabe1c58", "fusion_lat": 0.0, "fusion_lon": 0.0, "rental_uris": {"android": "https://dc.lft.to/lastmile_qr_scan", "ios": "https://dc.lft.to/lastmile_qr_scan"}, "is_reserved": 0, "is_disabled": 0, "type": "electric_scooter", "bike_id": "7c71b241c18d38df3137e16fcabe1c58"}, {"lon": -77.007574, "lat": 38.926710166666666, "name": "93d11af8abf8a64f72316edc961f269e", "fusion_lat": 0.0, "fusion_lon": 0.0, "rental_uris": {"android": "https://dc.lft.to/lastmile_qr_scan", "ios": "https://dc.lft.to/lastmile_qr_scan"}, "is_reserved": 0, "is_disabled": 0, "type": "electric_scooter", "bike_id": "93d11af8abf8a64f72316edc961f269e"}, {"lon": -77.02404833333334, "lat": 38.909874333333335, "name": "0219807613bb342c14e00353f878f09a", "fusion_lat": 0.0, "fusion_lon": 0.0, "rental_uris": {"android": "https://dc.lft.to/lastmile_qr_scan", "ios": "https://dc.lft.to/lastmile_qr_scan"}, "is_reserved": 0, "is_disabled": 0, "type": "electric_scooter", "bike_id": "0219807613bb342c14e00353f878f09a"}, {"lon": -76.99912183333333, "lat": 38.909336, "name": "277519bf533111d87f07fa873363ad3e", "fusion_lat": 0.0, "fusion_lon": 0.0, "rental_uris": {"android": "https://dc.lft.to/lastmile_qr_scan", "ios": "https://dc.lft.to/lastmile_qr_scan"}, "is_reserved": 0, "is_disabled": 0, "type": "electric_scooter", "bike_id": "277519bf533111d87f07fa873363ad3e"}, {"lon": -77.00751333333334, "lat": 38.87713216666667, "name": "4a05f8280365cd918910e67927c5806d", "fusion_lat": 0.0, "fusion_lon": 0.0, "rental_uris": {"android": "https://dc.lft.to/lastmile_qr_scan", "ios": "https://dc.lft.to/lastmile_qr_scan"}, "is_reserved": 0, "is_disabled": 0, "type": "electric_scooter", "bike_id": "4a05f8280365cd918910e67927c5806d"}, {"lon": -77.03410416666667, "lat": 38.91929283333333, "name": "692d4275083255950cccc3d75947ea32", "fusion_lat": 0.0, "fusion_lon": 0.0, "rental_uris": {"android": "https://dc.lft.to/lastmile_qr_scan", "ios": "https://dc.lft.to/lastmile_qr_scan"}, "is_reserved": 0, "is_disabled": 0, "type": "electric_scooter", "bike_id": "692d4275083255950cccc3d75947ea32"}, {"lon": -76.994679, "lat": 38.86191983333333, "name": "96a44c6b120fe15d1af0df0d8c3ff046", "fusion_lat": 0.0, "fusion_lon": 0.0, "rental_uris": {"android": "https://dc.lft.to/lastmile_qr_scan", "ios": "https://dc.lft.to/lastmile_qr_scan"}, "is_reserved": 0, "is_disabled": 0, "type": "electric_scooter", "bike_id": "96a44c6b120fe15d1af0df0d8c3ff046"}, {"lon": -77.06834066666667, "lat": 38.91717216666667, "name": "4e93905f560eba255f7e72d5c904a728", "fusion_lat": 0.0, "fusion_lon": 0.0, "rental_uris": {"android": "https://dc.lft.to/lastmile_qr_scan", "ios": "https://dc.lft.to/lastmile_qr_scan"}, "is_reserved": 0, "is_disabled": 0, "type": "electric_scooter", "bike_id": "4e93905f560eba255f7e72d5c904a728"}, {"lon": -77.03471816666666, "lat": 38.91708116666667, "name": "d6bf6bbd01705bc7d44c5330dc1c65f5", "fusion_lat": 0.0, "fusion_lon": 0.0, "rental_uris": {"android": "https://dc.lft.to/lastmile_qr_scan", "ios": "https://dc.lft.to/lastmile_qr_scan"}, "is_reserved": 0, "is_disabled": 0, "type": "electric_scooter", "bike_id": "d6bf6bbd01705bc7d44c5330dc1c65f5"}, {"lon": -77.03850933333334, "lat": 38.9324295, "name": "c51526388df6a73cb27520da253a6866", "fusion_lat": 0.0, "fusion_lon": 0.0, "rental_uris": {"android": "https://dc.lft.to/lastmile_qr_scan", "ios": "https://dc.lft.to/lastmile_qr_scan"}, "is_reserved": 0, "is_disabled": 0, "type": "electric_scooter", "bike_id": "c51526388df6a73cb27520da253a6866"}, {"lon": -77.024019, "lat": 38.919014, "name": "745af64d31ec7f4239bed877228b6f22", "fusion_lat": 0.0, "fusion_lon": 0.0, "rental_uris": {"android": "https://dc.lft.to/lastmile_qr_scan", "ios": "https://dc.lft.to/lastmile_qr_scan"}, "is_reserved": 0, "is_disabled": 0, "type": "electric_scooter", "bike_id": "745af64d31ec7f4239bed877228b6f22"}, {"lon": -77.13096283333333, "lat": 38.861542166666666, "name": "6f6d8d39a287626c36d2cf9962c45b5f", "fusion_lat": 0.0, "fusion_lon": 0.0, "rental_uris": {"android": "https://dc.lft.to/lastmile_qr_scan", "ios": "https://dc.lft.to/lastmile_qr_scan"}, "is_reserved": 0, "is_disabled": 0, "type": "electric_bike", "bike_id": "6f6d8d39a287626c36d2cf9962c45b5f"}, {"lon": -77.02473816666667, "lat": 38.938557333333335, "name": "2423dacf04260086463a952fc5a27936", "fusion_lat": 0.0, "fusion_lon": 0.0, "rental_uris": {"android": "https://dc.lft.to/lastmile_qr_scan", "ios": "https://dc.lft.to/lastmile_qr_scan"}, "is_reserved": 0, "is_disabled": 0, "type": "electric_scooter", "bike_id": "2423dacf04260086463a952fc5a27936"}, {"lon": -77.02835483333334, "lat": 38.887669, "name": "fbf165280a5e0cb6b49e713563ded3cd", "fusion_lat": 0.0, "fusion_lon": 0.0, "rental_uris": {"android": "https://dc.lft.to/lastmile_qr_scan", "ios": "https://dc.lft.to/lastmile_qr_scan"}, "is_reserved": 0, "is_disabled": 0, "type": "electric_scooter", "bike_id": "fbf165280a5e0cb6b49e713563ded3cd"}, {"lon": -77.04155216666666, "lat": 38.92332783333333, "name": "07c0fe6cbf2608e3d62bd047b43e0757", "fusion_lat": 0.0, "fusion_lon": 0.0, "rental_uris": {"android": "https://dc.lft.to/lastmile_qr_scan", "ios": "https://dc.lft.to/lastmile_qr_scan"}, "is_reserved": 0, "is_disabled": 0, "type": "electric_scooter", "bike_id": "07c0fe6cbf2608e3d62bd047b43e0757"}, {"lon": -76.990622, "lat": 38.8634185, "name": "d205ad4b163341461537bd9a2cc585b5", "fusion_lat": 0.0, "fusion_lon": 0.0, "rental_uris": {"android": "https://dc.lft.to/lastmile_qr_scan", "ios": "https://dc.lft.to/lastmile_qr_scan"}, "is_reserved": 0, "is_disabled": 0, "type": "electric_scooter", "bike_id": "d205ad4b163341461537bd9a2cc585b5"}, {"lon": -77.02946066666667, "lat": 38.94272733333333, "name": "e3fb8d85755aea88e9e0879ebc57dcdc", "fusion_lat": 0.0, "fusion_lon": 0.0, "rental_uris": {"android": "https://dc.lft.to/lastmile_qr_scan", "ios": "https://dc.lft.to/lastmile_qr_scan"},