{"data": {"bikes": [{"fusion_lon": 0.0, "bike_id": "582a2aec83ec8b1177ec3d45c3781c37", "name": "582a2aec83ec8b1177ec3d45c3781c37", "rental_uris": {"android": "https://dc.lft.to/lastmile_qr_scan", "ios": "https://dc.lft.to/lastmile_qr_scan"}, "lon": -77.06472383333333, "fusion_lat": 0.0, "is_disabled": 0, "is_reserved": 0, "lat": 38.905197, "type": "electric_scooter"}, {"fusion_lon": 0.0, "bike_id": "875b39f18107609207bdd4251d28ef3a", "name": "875b39f18107609207bdd4251d28ef3a", "rental_uris": {"android": "https://dc.lft.to/lastmile_qr_scan", "ios": "https://dc.lft.to/lastmile_qr_scan"}, "lon": -77.02440116666666, "fusion_lat": 0.0, "is_disabled": 0, "is_reserved": 0, "lat": 38.90004283333333, "type": "electric_scooter"}, {"fusion_lon": 0.0, "bike_id": "54fe8210f7e6ee4a89f5a21b622e6959", "name": "54fe8210f7e6ee4a89f5a21b622e6959", "rental_uris": {"android": "https://dc.lft.to/lastmile_qr_scan", "ios": "https://dc.lft.to/lastmile_qr_scan"}, "lon": -76.93864216666667, "fusion_lat": 0.0, "is_disabled": 0, "is_reserved": 0, "lat": 38.95644683333333, "type": "electric_bike"}, {"fusion_lon": 0.0, "bike_id": "99a343dc7dd4b21ed2548b002289b097", "name": "99a343dc7dd4b21ed2548b002289b097", "rental_uris": {"android": "https://dc.lft.to/lastmile_qr_scan", "ios": "https://dc.lft.to/lastmile_qr_scan"}, "lon": -77.03578533333334, "fusion_lat": 0.0, "is_disabled": 0, "is_reserved": 0, "lat": 38.902596833333334, "type": "electric_scooter"}, {"fusion_lon": 0.0, "bike_id": "b11b715c61dbafb369366284a540b715", "name": "b11b715c61dbafb369366284a540b715", "rental_uris": {"android": "https://dc.lft.to/lastmile_qr_scan", "ios": "https://dc.lft.to/lastmile_qr_scan"}, "lon": -77.02063733333334, "fusion_lat": 0.0, "is_disabled": 0, "is_reserved": 0, "lat": 38.9240815, "type": "electric_scooter"}, {"fusion_lon": 0.0, "bike_id": "3fa2e3be0124625585c27b458fad7254", "name": "3fa2e3be0124625585c27b458fad7254", "rental_uris": {"android": "https://dc.lft.to/lastmile_qr_scan", "ios": "https://dc.lft.to/lastmile_qr_scan"}, "lon": -77.04055416666667, "fusion_lat": 0.0, "is_disabled": 0, "is_reserved": 0, "lat": 38.901221, "type": "electric_scooter"}, {"fusion_lon": 0.0, "bike_id": "d0ed3e4a32b9ba6e5988d03049c9e2bf", "name": "d0ed3e4a32b9ba6e5988d03049c9e2bf", "rental_uris": {"android": "https://dc.lft.to/lastmile_qr_scan", "ios": "https://dc.lft.to/lastmile_qr_scan"}, "lon": -77.04447666666667, "fusion_lat": 0.0, "is_disabled": 0, "is_reserved": 0, "lat": 38.90570133333333, "type": "electric_scooter"}, {"fusion_lon": 0.0, "bike_id": "602599600a1263eb51228e82fc310172", "name": "602599600a1263eb51228e82fc310172", "rental_uris": {"android": "https://dc.lft.to/lastmile_qr_scan", "ios": "https://dc.lft.to/lastmile_qr_scan"}, "lon": -77.064199, "fusion_lat": 0.0, "is_disabled": 0, "is_reserved": 0, "lat": 38.914041, "type": "electric_scooter"}, {"fusion_lon": 0.0, "bike_id": "6ccee6926bd8c3f2c69f175017433270", "name": "6ccee6926bd8c3f2c69f175017433270", "rental_uris": {"android": "https://dc.lft.to/lastmile_qr_scan", "ios": "https://dc.lft.to/lastmile_qr_scan"}, "lon": -77.05004983333333, "fusion_lat": 0.0, "is_disabled": 0, "is_reserved": 0, "lat": 38.8922665, "type": "electric_scooter"}, {"fusion_lon": 0.0, "bike_id": "68ad6c2dc8361803d9b9ea17622c27b5", "name": "68ad6c2dc8361803d9b9ea17622c27b5", "rental_uris": {"android": "https://dc.lft.to/lastmile_qr_scan", "ios": "https://dc.lft.to/lastmile_qr_scan"}, "lon": -76.99941016666666, "fusion_lat": 0.0, "is_disabled": 0, "is_reserved": 0, "lat": 38.90659866666667, "type": "electric_scooter"}, {"fusion_lon": 0.0, "bike_id": "98e68ed6e63bba14730dbf19b8076e31", "name": "98e68ed6e63bba14730dbf19b8076e31", "rental_uris": {"android": "https://dc.lft.to/lastmile_qr_scan", "ios": "https://dc.lft.to/lastmile_qr_scan"}, "lon": -77.03933083333334, "fusion_lat": 0.0, "is_disabled": 0, "is_reserved": 0, "lat": 38.89912433333333, "type": "electric_scooter"}, {"fusion_lon": 0.0, "bike_id": "92de8bcdc4731582d3e3b45ecbabcd6b", "name": "92de8bcdc4731582d3e3b45ecbabcd6b", "rental_uris": {"android": "https://dc.lft.to/lastmile_qr_scan", "ios": "https://dc.lft.to/lastmile_qr_scan"}, "lon": -77.02281966666666, "fusion_lat": 0.0, "is_disabled": 0, "is_reserved": 0, "lat": 38.90963, "type": "electric_scooter"}, {"fusion_lon": 0.0, "bike_id": "adad74cf24b336a83cbe9a96c542a098", "name": "adad74cf24b336a83cbe9a96c542a098", "rental_uris": {"android": "https://dc.lft.to/lastmile_qr_scan", "ios": "https://dc.lft.to/lastmile_qr_scan"}, "lon": -77.01831116666666, "fusion_lat": 0.0, "is_disabled": 0, "is_reserved": 0, "lat": 38.919706166666664, "type": "electric_scooter"}, {"fusion_lon": 0.0, "bike_id": "1fd180143dbfa6ba47c0e01d7cde3302", "name": "1fd180143dbfa6ba47c0e01d7cde3302", "rental_uris": {"android": "https://dc.lft.to/lastmile_qr_scan", "ios": "https://dc.lft.to/lastmile_qr_scan"}, "lon": -77.04184216666667, "fusion_lat": 0.0, "is_disabled": 0, "is_reserved": 0, "lat": 38.9218195, "type": "electric_scooter"}, {"fusion_lon": 0.0, "bike_id": "506b19293aa2fb3f6b3f1c9e31f6d1d5", "name": "506b19293aa2fb3f6b3f1c9e31f6d1d5", "rental_uris": {"android": "https://dc.lft.to/lastmile_qr_scan", "ios": "https://dc.lft.to/lastmile_qr_scan"}, "lon": -77.02000816666667, "fusion_lat": 0.0, "is_disabled": 0, "is_reserved": 0, "lat": 38.88655766666667, "type": "electric_scooter"}, {"fusion_lon": 0.0, "bike_id": "066865cc11af459e3563564c4ed708d2", "name": "066865cc11af459e3563564c4ed708d2", "rental_uris": {"android": "https://dc.lft.to/lastmile_qr_scan", "ios": "https://dc.lft.to/lastmile_qr_scan"}, "lon": -77.0893935, "fusion_lat": 0.0, "is_disabled": 0, "is_reserved": 0, "lat": 38.841056, "type": "electric_bike"}, {"fusion_lon": 0.0, "bike_id": "e1e5065304945cf8e2e79fb1eb71f4ba", "name": "e1e5065304945cf8e2e79fb1eb71f4ba", "rental_uris": {"android": "https://dc.lft.to/lastmile_qr_scan", "ios": "https://dc.lft.to/lastmile_qr_scan"}, "lon": -76.98036866666666, "fusion_lat": 0.0, "is_disabled": 0, "is_reserved": 0, "lat": 38.91681833333333, "type": "electric_scooter"}, {"fusion_lon": 0.0, "bike_id": "69e99cf1727eade898db8950f3fe1552", "name": "69e99cf1727eade898db8950f3fe1552", "rental_uris": {"android": "https://dc.lft.to/lastmile_qr_scan", "ios": "https://dc.lft.to/lastmile_qr_scan"}, "lon": -77.03862766666667, "fusion_lat": 0.0, "is_disabled": 0, "is_reserved": 0, "lat": 38.92540733333333, "type": "electric_bike"}, {"fusion_lon": 0.0, "bike_id": "963b92ecdf203b9a60c68eeedb6d1359", "name": "963b92ecdf203b9a60c68eeedb6d1359", "rental_uris": {"android": "https://dc.lft.to/lastmile_qr_scan", "ios": "https://dc.lft.to/lastmile_qr_scan"}, "lon": -77.033283, "fusion_lat": 0.0, "is_disabled": 0, "is_reserved": 0, "lat": 38.897604333333334, "type": "electric_scooter"}, {"fusion_lon": 0.0, "bike_id": "4f38d0baa3ab8c370f848f3aee8c0cf1", "name": "4f38d0baa3ab8c370f848f3aee8c0cf1", "rental_uris": {"android": "https://dc.lft.to/lastmile_qr_scan", "ios": "https://dc.lft.to/lastmile_qr_scan"}, "lon": -77.04490433333333, "fusion_lat": 0.0, "is_disabled": 0, "is_reserved": 0, "lat": 38.903281, "type": "electric_scooter"}, {"fusion_lon": 0.0, "bike_id": "0f0549ba26361880d038857b2ee6ae71", "name": "0f0549ba26361880d038857b2ee6ae71", "rental_uris": {"android": "https://dc.lft.to/lastmile_qr_scan", "ios": "https://dc.lft.to/lastmile_qr_scan"}, "lon": -77.0480165, "fusion_lat": 0.0, "is_disabled": 0, "is_reserved": 0, "lat": 38.89952733333333, "type": "electric_scooter"}, {"fusion_lon": 0.0, "bike_id": "e918b548f3504d7bc32f1bcfa35b574e", "name": "e918b548f3504d7bc32f1bcfa35b574e", "rental_uris": {"android": "https://dc.lft.to/lastmile_qr_scan", "ios": "https://dc.lft.to/lastmile_qr_scan"}, "lon": -77.05754883333333, "fusion_lat": 0.0, "is_disabled": 0, "is_reserved": 0, "lat": 38.92418766666667, "type": "electric_scooter"}, {"fusion_lon": 0.0, "bike_id": "339302450012a64ec3a55582e9e0742d", "name": "339302450012a64ec3a55582e9e0742d", "rental_uris": {"android": "https://dc.lft.to/lastmile_qr_scan", "ios": "https://dc.lft.to/lastmile_qr_scan"}, "lon": -77.03605816666666, "fusion_lat": 0.0, "is_disabled": 0, "is_reserved": 0, "lat": 38.928549833333335, "type": "electric_scooter"}, {"fusion_lon": 0.0, "bike_id": "acb683bbf1bd551a9cafa98ccc20fa1b", "name": "acb683bbf1bd551a9cafa98ccc20fa1b", "rental_uris": {"android": "https://dc.lft.to/lastmile_qr_scan", "ios": "https://dc.lft.to/lastmile_qr_scan"}, "lon": -77.1297945, "fusion_lat": 0.0, "is_disabled": 0, "is_reserved": 0, "lat": 38.799855666666666, "type": "electric_bike"}, {"fusion_lon": 0.0, "bike_id": "cb8e0fbb0cb1ddcfbfa7598018374820", "name": "cb8e0fbb0cb1ddcfbfa7598018374820", "rental_uris": {"android": "https://dc.lft.to/lastmile_qr_scan", "ios": "https://dc.lft.to/lastmile_qr_scan"}, "lon": -77.04764266666666, "fusion_lat": 0.0, "is_disabled": 0, "is_reserved": 0, "lat": 38.91765266666667, "type": "electric_scooter"}, {"fusion_lon": 0.0, "bike_id": "330c66581c099d19f544f37524d818c7", "name": "330c66581c099d19f544f37524d818c7", "rental_uris": {"android": "https://dc.lft.to/lastmile_qr_scan", "ios": "https://dc.lft.to/lastmile_qr_scan"}, "lon": -77.0292765, "fusion_lat": 0.0, "is_disabled": 0, "is_reserved": 0, "lat": 38.91036833333333, "type": "electric_scooter"}, {"fusion_lon": 0.0, "bike_id": "8d0451da7e731734132d8ac5457e7d0a", "name": "8d0451da7e731734132d8ac5457e7d0a", "rental_uris": {"android": "https://dc.lft.to/lastmile_qr_scan", "ios": "https://dc.lft.to/lastmile_qr_scan"}, "lon": -77.03501433333334, "fusion_lat": 0.0, "is_disabled": 0, "is_reserved": 0, "lat": 38.93160483333333, "type": "electric_scooter"}, {"fusion_lon": 0.0, "bike_id": "18320a5c038630d9a300539d0f559204", "name": "18320a5c038630d9a300539d0f559204", "rental_uris": {"android": "https://dc.lft.to/lastmile_qr_scan", "ios": "https://dc.lft.to/lastmile_qr_scan"}, "lon": -77.03287783333333, "fusion_lat": 0.0, "is_disabled": 0, "is_reserved": 0, "lat": 38.93766983333333, "type": "electric_scooter"}, {"fusion_lon": 0.0, "bike_id": "e7e54f8aecb4cc1f551afea0ffe2a9c4", "name": "e7e54f8aecb4cc1f551afea0ffe2a9c4", "rental_uris": {"android": "https://dc.lft.to/lastmile_qr_scan", "ios": "https://dc.lft.to/lastmile_qr_scan"}, "lon": -77.0703815, "fusion_lat": 0.0, "is_disabled": 0, "is_reserved": 0, "lat": 38.90770533333333, "type": "electric_scooter"}, {"fusion_lon": 0.0, "bike_id": "66e8d23b8b03220988223d5cd32a5505", "name": "66e8d23b8b03220988223d5cd32a5505", "rental_uris": {"android": "https://dc.lft.to/lastmile_qr_scan", "ios": "https://dc.lft.to/lastmile_qr_scan"}, "lon": -77.04871333333334, "fusion_lat": 0.0, "is_disabled": 0, "is_reserved": 0, "lat": 38.892234333333334, "type": "electric_scooter"}, {"fusion_lon": 0.0, "bike_id": "30878129fc6a1f888cfa46cbc9118b3c", "name": "30878129fc6a1f888cfa46cbc9118b3c", "rental_uris": {"android": "https://dc.lft.to/lastmile_qr_scan", "ios": "https://dc.lft.to/lastmile_qr_scan"}, "lon": -77.0447105, "fusion_lat": 0.0, "is_disabled": 0, "is_reserved": 0, "lat": 38.90120616666667, "type": "electric_scooter"}, {"fusion_lon": 0.0, "bike_id": "1bff6d5664b7408862080cdf4a43459b", "name": "1bff6d5664b7408862080cdf4a43459b", "rental_uris": {"android": "https://dc.lft.to/lastmile_qr_scan", "ios": "https://dc.lft.to/lastmile_qr_scan"}, "lon": -77.02718166666666, "fusion_lat": 0.0, "is_disabled": 0, "is_reserved": 0, "lat": 38.89788766666667, "type": "electric_scooter"}, {"fusion_lon": 0.0, "bike_id": "a162a46b6819071b1797a9375dcccf53", "name": "a162a46b6819071b1797a9375dcccf53", "rental_uris": {"android": "https://dc.lft.to/lastmile_qr_scan", "ios": "https://dc.lft.to/lastmile_qr_scan"}, "lon": -76.96707783333333, "fusion_lat": 0.0, "is_disabled": 0, "is_reserved": 0, "lat": 38.860168333333334, "type": "electric_scooter"}, {"fusion_lon": 0.0, "bike_id": "4acc359683ef6319593b4722f17c690f", "name": "4acc359683ef6319593b4722f17c690f", "rental_uris": {"android": "https://dc.lft.to/lastmile_qr_scan", "ios": "https://dc.lft.to/lastmile_qr_scan"}, "lon": -77.04542166666667, "fusion_lat": 0.0, "is_disabled": 0, "is_reserved": 0, "lat": 38.911082666666665, "type": "electric_scooter"}, {"fusion_lon": 0.0, "bike_id": "322c19fc9aae28ebf4066dd2d2cf5826", "name": "322c19fc9aae28ebf4066dd2d2cf5826", "rental_uris": {"android": "https://dc.lft.to/lastmile_qr_scan", "ios": "https://dc.lft.to/lastmile_qr_scan"}, "lon": -77.06868583333333, "fusion_lat": 0.0, "is_disabled": 0, "is_reserved": 0, "lat": 38.9374525, "type": "electric_scooter"}, {"fusion_lon": 0.0, "bike_id": "74bb397b17e1e29c468abbbf13849b93", "name": "74bb397b17e1e29c468abbbf13849b93", "rental_uris": {"android": "https://dc.lft.to/lastmile_qr_scan", "ios": "https://dc.lft.to/lastmile_qr_scan"}, "lon": -77.03777383333333, "fusion_lat": 0.0, "is_disabled": 0, "is_reserved": 0, "lat": 38.916944, "type": "electric_scooter"}, {"fusion_lon": 0.0, "bike_id": "22d5a9a2b9f1dd55e35827e65faeae1f", "name": "22d5a9a2b9f1dd55e35827e65faeae1f", "rental_uris": {"android": "https://dc.lft.to/lastmile_qr_scan", "ios": "https://dc.lft.to/lastmile_qr_scan"}, "lon": -77.01713033333333, "fusion_lat": 0.0, "is_disabled": 0, "is_reserved": 0, "lat": 38.909687166666664, "type": "electric_scooter"}, {"fusion_lon": 0.0, "bike_id": "ab044909c83955dc0b89de9cb6d9d7b9", "name": "ab044909c83955dc0b89de9cb6d9d7b9", "rental_uris": {"android": "https://dc.lft.to/lastmile_qr_scan", "ios": "https://dc.lft.to/lastmile_qr_scan"}, "lon": -76.99827833333333, "fusion_lat": 0.0, "is_disabled": 0, "is_reserved": 0, "lat": 38.885340666666664, "type": "electric_scooter"}, {"fusion_lon": 0.0, "bike_id": "70f0713c8499f4f77eec74cba3e7468f", "name": "70f0713c8499f4f77eec74cba3e7468f", "rental_uris": {"android": "https://dc.lft.to/lastmile_qr_scan", "ios": "https://dc.lft.to/lastmile_qr_scan"}, "lon": -77.0180605, "fusion_lat": 0.0, "is_disabled": 0, "is_reserved": 0, "lat": 38.90132466666667, "type": "electric_scooter"}, {"fusion_lon": 0.0, "bike_id": "22bdf0a189c90f8ae30cda37e6df7456", "name": "22bdf0a189c90f8ae30cda37e6df7456", "rental_uris": {"android": "https://dc.lft.to/lastmile_qr_scan", "ios": "https://dc.lft.to/lastmile_qr_scan"}, "lon": -77.046068, "fusion_lat": 0.0, "is_disabled": 0, "is_reserved": 0, "lat": 38.90276083333333, "type": "electric_scooter"}, {"fusion_lon": 0.0, "bike_id": "a4fb69eb6806c1b82f380e26abfb79a5", "name": "a4fb69eb6806c1b82f380e26abfb79a5", "rental_uris": {"android": "https://dc.lft.to/lastmile_qr_scan", "ios": "https://dc.lft.to/lastmile_qr_scan"}, "lon": -76.917205, "fusion_lat": 0.0, "is_disabled": 0, "is_reserved": 0, "lat": 38.88031766666667, "type": "electric_bike"}, {"fusion_lon": 0.0, "bike_id": "38a7072b12369d255c7c57677f06d4be", "name": "38a7072b12369d255c7c57677f06d4be", "rental_uris": {"android": "https://dc.lft.to/lastmile_qr_scan", "ios": "https://dc.lft.to/lastmile_qr_scan"}, "lon": -76.99162716666666, "fusion_lat": 0.0, "is_disabled": 0, "is_reserved": 0, "lat": 38.89778833333333, "type": "electric_scooter"}, {"fusion_lon": 0.0, "bike_id": "8f6a9d73171783551f2ee5acb251c6b4", "name": "8f6a9d73171783551f2ee5acb251c6b4", "rental_uris": {"android": "https://dc.lft.to/lastmile_qr_scan", "ios": "https://dc.lft.to/lastmile_qr_scan"}, "lon": -77.05048466666666, "fusion_lat": 0.0, "is_disabled": 0, "is_reserved": 0, "lat": 38.92366366666667, "type": "electric_scooter"}, {"fusion_lon": 0.0, "bike_id": "ace6bf043de2558ec0f7bd21f9cbd1d3", "name": "ace6bf043de2558ec0f7bd21f9cbd1d3", "rental_uris": {"android": "https://dc.lft.to/lastmile_qr_scan", "ios": "https://dc.lft.to/lastmile_qr_scan"}, "lon": -77.06741383333333, "fusion_lat": 0.0, "is_disabled": 0, "is_reserved": 0, "lat": 38.905148833333335, "type": "electric_scooter"}, {"fusion_lon": 0.0, "bike_id": "fbb771997c6f1f932fe38ef006aba794", "name": "fbb771997c6f1f932fe38ef006aba794", "rental_uris": {"android": "https://dc.lft.to/lastmile_qr_scan", "ios": "https://dc.lft.to/lastmile_qr_scan"}, "lon": -77.01396966666667, "fusion_lat": 0.0, "is_disabled": 0, "is_reserved": 0, "lat": 38.974702, "type": "electric_scooter"}, {"fusion_lon": 0.0, "bike_id": "eac7a4fed8f002e24f16e123daa5129c", "name": "eac7a4fed8f002e24f16e123daa5129c", "rental_uris": {"android": "https://dc.lft.to/lastmile_qr_scan", "ios": "https://dc.lft.to/lastmile_qr_scan"}, "lon": -77.0220945, "fusion_lat": 0.0, "is_disabled": 0, "is_reserved": 0, "lat": 38.90976033333333, "type": "electric_scooter"}, {"fusion_lon": 0.0, "bike_id": "a399ab0c4b501cff7a6a0b7e9b19c703", "name": "a399ab0c4b501cff7a6a0b7e9b19c703", "rental_uris": {"android": "https://dc.lft.to/lastmile_qr_scan", "ios": "https://dc.lft.to/lastmile_qr_scan"}, "lon": -77.03209316666667, "fusion_lat": 0.0, "is_disabled": 0, "is_reserved": 0, "lat": 38.925818166666666, "type": "electric_scooter"}, {"fusion_lon": 0.0, "bike_id": "2e328469d21076a84eacabb1f4655a03", "name": "2e328469d21076a84eacabb1f4655a03", "rental_uris": {"android": "https://dc.lft.to/lastmile_qr_scan", "ios": "https://dc.lft.to/lastmile_qr_scan"}, "lon": -77.0482425, "fusion_lat": 0.0, "is_disabled": 0, "is_reserved": 0, "lat": 38.90979466666667, "type": "electric_scooter"}, {"fusion_lon": 0.0, "bike_id": "76266d93ea9cb60092d1e9ded59960c2", "name": "76266d93ea9cb60092d1e9ded59960c2", "rental_uris": {"android": "https://dc.lft.to/lastmile_qr_scan", "ios": "https://dc.lft.to/lastmile_qr_scan"}, "lon": -77.039414, "fusion_lat": 0.0, "is_disabled": 0, "is_reserved": 0, "lat": 38.928756666666665, "type": "electric_scooter"}, {"fusion_lon": 0.0, "bike_id": "7fcda4f691f87f352e63177131af1537", "name": "7fcda4f691f87f352e63177131af1537", "rental_uris": {"android": "https://dc.lft.to/lastmile_qr_scan", "ios": "https://dc.lft.to/lastmile_qr_scan"}, "lon": -77.06377983333333, "fusion_lat": 0.0, "is_disabled": 0, "is_reserved": 0, "lat": 38.9051585, "type": "electric_scooter"}, {"fusion_lon": 0.0, "bike_id": "c3e9607f501530e29fc58016c627ff62", "name": "c3e9607f501530e29fc58016c627ff62", "rental_uris": {"android": "https://dc.lft.to/lastmile_qr_scan", "ios": "https://dc.lft.to/lastmile_qr_scan"}, "lon": -77.02256783333333, "fusion_lat": 0.0, "is_disabled": 0, "is_reserved": 0, "lat": 38.925187, "type": "electric_scooter"}, {"fusion_lon": 0.0, "bike_id": "d2ae1e12dee08d4c265e9924d6d3b20e", "name": "d2ae1e12dee08d4c265e9924d6d3b20e", "rental_uris": {"android": "https://dc.lft.to/lastmile_qr_scan", "ios": "https://dc.lft.to/lastmile_qr_scan"}, "lon": -77.0466245, "fusion_lat": 0.0, "is_disabled": 0, "is_reserved": 0, "lat": 38.913671, "type": "electric_scooter"}, {"fusion_lon": 0.0, "bike_id": "0703b2e219af1d46285ccc3c2d21ecdb", "name": "0703b2e219af1d46285ccc3c2d21ecdb", "rental_uris": {"android": "https://dc.lft.to/lastmile_qr_scan", "ios": "https://dc.lft.to/lastmile_qr_scan"}, "lon": -77.02807933333334, "fusion_lat": 0.0, "is_disabled": 0, "is_reserved": 0, "lat": 38.933072333333335, "type": "electric_scooter"}, {"fusion_lon": 0.0, "bike_id": "e2d2a0ff601bf78180075c806e287575", "name": "e2d2a0ff601bf78180075c806e287575", "rental_uris": {"android": "https://dc.lft.to/lastmile_qr_scan", "ios": "https://dc.lft.to/lastmile_qr_scan"}, "lon": -77.04866266666667, "fusion_lat": 0.0, "is_disabled": 0, "is_reserved": 0, "lat": 38.89221966666667, "type": "electric_scooter"}, {"fusion_lon": 0.0, "bike_id": "de2020190fd48ec0cd96fb2287f3bd9c", "name": "de2020190fd48ec0cd96fb2287f3bd9c", "rental_uris": {"android": "https://dc.lft.to/lastmile_qr_scan", "ios": "https://dc.lft.to/lastmile_qr_scan"}, "lon": -76.96568483333333, "fusion_lat": 0.0, "is_disabled": 0, "is_reserved": 0, "lat": 38.870828833333334, "type": "electric_scooter"}, {"fusion_lon": 0.0, "bike_id": "d4a7f0ab9fe933d81c7928bdb9efc9b0", "name": "d4a7f0ab9fe933d81c7928bdb9efc9b0", "rental_uris": {"android": "https://dc.lft.to/lastmile_qr_scan", "ios": "https://dc.lft.to/lastmile_qr_scan"}, "lon": -77.02164966666666, "fusion_lat": 0.0, "is_disabled": 0, "is_reserved": 0, "lat": 38.92461333333333, "type": "electric_scooter"}, {"fusion_lon": 0.0, "bike_id": "2cf1abddc09b8ff6958cb57c9d28aec3", "name": "2cf1abddc09b8ff6958cb57c9d28aec3", "rental_uris": {"android": "https://dc.lft.to/lastmile_qr_scan", "ios": "https://dc.lft.to/lastmile_qr_scan"}, "lon": -77.0347295, "fusion_lat": 0.0, "is_disabled": 0, "is_reserved": 0, "lat": 38.917092833333335, "type": "electric_scooter"}, {"fusion_lon": 0.0, "bike_id": "da5974ed91c19ccef81dcfa779af03d7", "name": "da5974ed91c19ccef81dcfa779af03d7", "rental_uris": {"android": "https://dc.lft.to/lastmile_qr_scan", "ios": "https://dc.lft.to/lastmile_qr_scan"}, "lon": -77.044897, "fusion_lat": 0.0, "is_disabled": 0, "is_reserved": 0, "lat": 38.911226, "type": "electric_scooter"}, {"fusion_lon": 0.0, "bike_id": "739010f12ba753d2902036f99af208cf", "name": "739010f12ba753d2902036f99af208cf", "rental_uris": {"android": "https://dc.lft.to/lastmile_qr_scan", "ios": "https://dc.lft.to/lastmile_qr_scan"}, "lon": -76.99960716666666, "fusion_lat": 0.0, "is_disabled": 0, "is_reserved": 0, "lat": 38.89790816666667, "type": "electric_scooter"}, {"fusion_lon": 0.0, "bike_id": "fefa0ac6cd08994d62542a96a4784185", "name": "fefa0ac6cd08994d62542a96a4784185", "rental_uris": {"android": "https://dc.lft.to/lastmile_qr_scan", "ios": "https://dc.lft.to/lastmile_qr_scan"}, "lon": -77.07347416666667, "fusion_lat": 0.0, "is_disabled": 0, "is_reserved": 0, "lat": 38.934813, "type": "electric_scooter"}, {"fusion_lon": 0.0, "bike_id": "cbe8f3d02b6a2c417b261974b23f9095", "name": "cbe8f3d02b6a2c417b261974b23f9095", "rental_uris": {"android": "https://dc.lft.to/lastmile_qr_scan", "ios": "https://dc.lft.to/lastmile_qr_scan"}, "lon": -77.04198316666667, "fusion_lat": 0.0, "is_disabled": 0, "is_reserved": 0, "lat": 38.9271705, "type": "electric_scooter"}, {"fusion_lon": 0.0, "bike_id": "5df5977a0c8f559d44180fe1ab56ccc9", "name": "5df5977a0c8f559d44180fe1ab56ccc9", "rental_uris": {"android": "https://dc.lft.to/lastmile_qr_scan", "ios": "https://dc.lft.to/lastmile_qr_scan"}, "lon": -77.03776166666667, "fusion_lat": 0.0, "is_disabled": 0, "is_reserved": 0, "lat": 38.916994833333334, "type": "electric_scooter"}, {"fusion_lon": 0.0, "bike_id": "571524da4504ff117d66b574c2f92f42", "name": "571524da4504ff117d66b574c2f92f42", "rental_uris": {"android": "https://dc.lft.to/lastmile_qr_scan", "ios": "https://dc.lft.to/lastmile_qr_scan"}, "lon": -77.06916433333333, "fusion_lat": 0.0, "is_disabled": 0, "is_reserved": 0, "lat": 38.8068445, "type": "electric_bike"}, {"fusion_lon": 0.0, "bike_id": "a6263f02f1c8c4913bfb01589fa52a4e", "name": "a6263f02f1c8c4913bfb01589fa52a4e", "rental_uris": {"android": "https://dc.lft.to/lastmile_qr_scan", "ios": "https://dc.lft.to/lastmile_qr_scan"}, "lon": -77.03170616666667, "fusion_lat": 0.0, "is_disabled": 0, "is_reserved": 0, "lat": 38.918132166666666, "type": "electric_scooter"}, {"fusion_lon": 0.0, "bike_id": "3236a51bdc5af4cce54da5141cd986f4", "name": "3236a51bdc5af4cce54da5141cd986f4", "rental_uris": {"android": "https://dc.lft.to/lastmile_qr_scan", "ios": "https://dc.lft.to/lastmile_qr_scan"}, "lon": -77.03040433333334, "fusion_lat": 0.0, "is_disabled": 0, "is_reserved": 0, "lat": 38.89764183333333, "type": "electric_scooter"}, {"fusion_lon": 0.0, "bike_id": "dbc5f8fb8c3b5dba8e6829b96361ecb3", "name": "dbc5f8fb8c3b5dba8e6829b96361ecb3", "rental_uris": {"android": "https://dc.lft.to/lastmile_qr_scan", "ios": "https://dc.lft.to/lastmile_qr_scan"}, "lon": -77.04060416666667, "fusion_lat": 0.0, "is_disabled": 0, "is_reserved": 0, "lat": 38.90879016666667, "type": "electric_scooter"}, {"fusion_lon": 0.0, "bike_id": "1ca7075ad2d8b726e72913f63f04b65b", "name": "1ca7075ad2d8b726e72913f63f04b65b", "rental_uris": {"android": "https://dc.lft.to/lastmile_qr_scan", "ios": "https://dc.lft.to/lastmile_qr_scan"}, "lon": -76.97888216666666, "fusion_lat": 0.0, "is_disabled": 0, "is_reserved": 0, "lat": 38.885406, "type": "electric_scooter"}, {"fusion_lon": 0.0, "bike_id": "4035c740bfa51588f7f53667c43bd971", "name": "4035c740bfa51588f7f53667c43bd971", "rental_uris": {"android": "https://dc.lft.to/lastmile_qr_scan", "ios": "https://dc.lft.to/lastmile_qr_scan"}, "lon": -77.01033766666667, "fusion_lat": 0.0, "is_disabled": 0, "is_reserved": 0, "lat": 38.92030783333333, "type": "electric_scooter"}, {"fusion_lon": 0.0, "bike_id": "7136929838bc2310f64efe5427a93be0", "name": "7136929838bc2310f64efe5427a93be0", "rental_uris": {"android": "https://dc.lft.to/lastmile_qr_scan", "ios": "https://dc.lft.to/lastmile_qr_scan"}, "lon": -77.04657016666667, "fusion_lat": 0.0, "is_disabled": 0, "is_reserved": 0, "lat": 38.8982725, "type": "electric_scooter"}, {"fusion_lon": 0.0, "bike_id": "40d1129cd713e677b4c5f5322f326bbf", "name": "40d1129cd713e677b4c5f5322f326bbf", "rental_uris": {"android": "https://dc.lft.to/lastmile_qr_scan", "ios": "https://dc.lft.to/lastmile_qr_scan"}, "lon": -77.0147375, "fusion_lat": 0.0, "is_disabled": 0, "is_reserved": 0, "lat": 38.943349833333336, "type": "electric_scooter"}, {"fusion_lon": 0.0, "bike_id": "da6b6ef01406baca0592c8a28014379d", "name": "da6b6ef01406baca0592c8a28014379d", "rental_uris": {"android": "https://dc.lft.to/lastmile_qr_scan", "ios": "https://dc.lft.to/lastmile_qr_scan"}, "lon": -76.96557533333333, "fusion_lat": 0.0, "is_disabled": 0, "is_reserved": 0, "lat": 38.918482, "type": "electric_scooter"}, {"fusion_lon": 0.0, "bike_id": "6d7ba66a64bcd4a50e1e00bd7e48be76", "name": "6d7ba66a64bcd4a50e1e00bd7e48be76", "rental_uris": {"android": "https://dc.lft.to/lastmile_qr_scan", "ios": "https://dc.lft.to/lastmile_qr_scan"}, "lon": -76.933839, "fusion_lat": 0.0, "is_disabled": 0, "is_reserved": 0, "lat": 38.8991275, "type": "electric_scooter"}, {"fusion_lon": 0.0, "bike_id": "3502f5c4ce663ea1000406240832c895", "name": "3502f5c4ce663ea1000406240832c895", "rental_uris": {"android": "https://dc.lft.to/lastmile_qr_scan", "ios": "https://dc.lft.to/lastmile_qr_scan"}, "lon": -77.02938833333333, "fusion_lat": 0.0, "is_disabled": 0, "is_reserved": 0, "lat": 38.94284233333333, "type": "electric_scooter"}, {"fusion_lon": 0.0, "bike_id": "330bbafa32a0ad9fb6edff2ccc790173", "name": "330bbafa32a0ad9fb6edff2ccc790173", "rental_uris": {"android": "https://dc.lft.to/lastmile_qr_scan", "ios": "https://dc.lft.to/lastmile_qr_scan"}, "lon": -77.042627, "fusion_lat": 0.0, "is_disabled": 0, "is_reserved": 0, "lat": 38.899729666666666, "type": "electric_scooter"}, {"fusion_lon": 0.0, "bike_id": "6f09b7fba6e8a2de7f52e3146dfdd6d6", "name": "6f09b7fba6e8a2de7f52e3146dfdd6d6", "rental_uris": {"android": "https://dc.lft.to/lastmile_qr_scan", "ios": "https://dc.lft.to/lastmile_qr_scan"}, "lon": -77.0500405, "fusion_lat": 0.0, "is_disabled": 0, "is_reserved": 0, "lat": 38.899325, "type": "electric_scooter"}, {"fusion_lon": 0.0, "bike_id": "006e6a152cd59bd413ee8000e9e89160", "name": "006e6a152cd59bd413ee8000e9e89160", "rental_uris": {"android": "https://dc.lft.to/lastmile_qr_scan", "ios": "https://dc.lft.to/lastmile_qr_scan"}, "lon": -77.04526966666667, "fusion_lat": 0.0, "is_disabled": 0, "is_reserved": 0, "lat": 38.91830566666667, "type": "electric_scooter"}, {"fusion_lon": 0.0, "bike_id": "1e26b34eac06358fe9d769384a721e3f", "name": "1e26b34eac06358fe9d769384a721e3f", "rental_uris": {"android": "https://dc.lft.to/lastmile_qr_scan", "ios": "https://dc.lft.to/lastmile_qr_scan"}, "lon": -77.03822766666667, "fusion_lat": 0.0, "is_disabled": 0, "is_reserved": 0, "lat": 38.90968383333333, "type": "electric_scooter"}, {"fusion_lon": 0.0, "bike_id": "1ba35d66d04182c3df153ed7f8a824dc", "name": "1ba35d66d04182c3df153ed7f8a824dc", "rental_uris": {"android": "https://dc.lft.to/lastmile_qr_scan", "ios": "https://dc.lft.to/lastmile_qr_scan"}, "lon": -76.96260916666667, "fusion_lat": 0.0, "is_disabled": 0, "is_reserved": 0, "lat": 38.87870383333333, "type": "electric_scooter"}, {"fusion_lon": 0.0, "bike_id": "30d11f70380a68fedc26e4d0ea1a19d7", "name": "30d11f70380a68fedc26e4d0ea1a19d7", "rental_uris": {"android": "https://dc.lft.to/lastmile_qr_scan", "ios": "https://dc.lft.to/lastmile_qr_scan"}, "lon": -77.01843266666667, "fusion_lat": 0.0, "is_disabled": 0, "is_reserved": 0, "lat": 38.90421833333333, "type": "electric_scooter"}, {"fusion_lon": 0.0, "bike_id": "a89e3bc50d79b4463bd0b3f297b6d8e0", "name": "a89e3bc50d79b4463bd0b3f297b6d8e0", "rental_uris": {"android": "https://dc.lft.to/lastmile_qr_scan", "ios": "https://dc.lft.to/lastmile_qr_scan"}, "lon": -76.93754016666666, "fusion_lat": 0.0, "is_disabled": 0, "is_reserved": 0, "lat": 38.890456666666665, "type": "electric_scooter"}, {"fusion_lon": 0.0, "bike_id": "570c9794851de9b1aed0946942bb5bf7", "name": "570c9794851de9b1aed0946942bb5bf7", "rental_uris": {"android": "https://dc.lft.to/lastmile_qr_scan", "ios": "https://dc.lft.to/lastmile_qr_scan"}, "lon": -77.00341316666666, "fusion_lat": 0.0, "is_disabled": 0, "is_reserved": 0, "lat": 38.8992345, "type": "electric_scooter"}, {"fusion_lon": 0.0, "bike_id": "5a34eb4cd27e68d07439f28c0e3accd7", "name": "5a34eb4cd27e68d07439f28c0e3accd7", "rental_uris": {"android": "https://dc.lft.to/lastmile_qr_scan", "ios": "https://dc.lft.to/lastmile_qr_scan"}, "lon": -77.019924, "fusion_lat": 0.0, "is_disabled": 0, "is_reserved": 0, "lat": 38.9104945, "type": "electric_scooter"}, {"fusion_lon": 0.0, "bike_id": "bccddd8ac55142adc1f3d5f607ef9d21", "name": "bccddd8ac55142adc1f3d5f607ef9d21", "rental_uris": {"android": "https://dc.lft.to/lastmile_qr_scan", "ios": "https://dc.lft.to/lastmile_qr_scan"}, "lon": -76.98691183333334, "fusion_lat": 0.0, "is_disabled": 0, "is_reserved": 0, "lat": 38.944751833333335, "type": "electric_bike"}, {"fusion_lon": 0.0, "bike_id": "b42cadc5879d73d4a9da0c2105d883a8", "name": "b42cadc5879d73d4a9da0c2105d883a8", "rental_uris": {"android": "https://dc.lft.to/lastmile_qr_scan", "ios": "https://dc.lft.to/lastmile_qr_scan"}, "lon": -77.04349983333333, "fusion_lat": 0.0, "is_disabled": 0, "is_reserved": 0, "lat": 38.90616, "type": "electric_scooter"}, {"fusion_lon": 0.0, "bike_id": "5faa1f1c4415ea32ca64234348d6ba35", "name": "5faa1f1c4415ea32ca64234348d6ba35", "rental_uris": {"android": "https://dc.lft.to/lastmile_qr_scan", "ios": "https://dc.lft.to/lastmile_qr_scan"}, "lon": -77.01391666666666, "fusion_lat": 0.0, "is_disabled": 0, "is_reserved": 0, "lat": 38.904781666666665, "type": "electric_scooter"}, {"fusion_lon": 0.0, "bike_id": "6e056cfb0f88ea5394cf70d6e55226ea", "name": "6e056cfb0f88ea5394cf70d6e55226ea", "rental_uris": {"android": "https://dc.lft.to/lastmile_qr_scan", "ios": "https://dc.lft.to/lastmile_qr_scan"}, "lon": -77.01403083333334, "fusion_lat": 0.0, "is_disabled": 0, "is_reserved": 0, "lat": 38.89223033333333, "type": "electric_scooter"}, {"fusion_lon": 0.0, "bike_id": "7f281addce0adfa2a2119f5ec45b43c2", "name": "7f281addce0adfa2a2119f5ec45b43c2", "rental_uris": {"android": "https://dc.lft.to/lastmile_qr_scan", "ios": "https://dc.lft.to/lastmile_qr_scan"}, "lon": -77.02316666666667, "fusion_lat": 0.0, "is_disabled": 0, "is_reserved": 0, "lat": 38.92784666666667, "type": "electric_scooter"}, {"fusion_lon": 0.0, "bike_id": "61b4c155d42d29b8148dbb1e0debdcc9", "name": "61b4c155d42d29b8148dbb1e0debdcc9", "rental_uris": {"android": "https://dc.lft.to/lastmile_qr_scan", "ios": "https://dc.lft.to/lastmile_qr_scan"}, "lon": -77.033514, "fusion_lat": 0.0, "is_disabled": 0, "is_reserved": 0, "lat": 38.92753, "type": "electric_scooter"}, {"fusion_lon": 0.0, "bike_id": "87d8d6cf6715e1ab7c77499c56842dd9", "name": "87d8d6cf6715e1ab7c77499c56842dd9", "rental_uris": {"android": "https://dc.lft.to/lastmile_qr_scan", "ios": "https://dc.lft.to/lastmile_qr_scan"}, "lon": -77.04888483333333, "fusion_lat": 0.0, "is_disabled": 0, "is_reserved": 0, "lat": 38.9086965, "type": "electric_scooter"}, {"fusion_lon": 0.0, "bike_id": "f44fbb973e9d8f96b9e7277d9c015ef8", "name": "f44fbb973e9d8f96b9e7277d9c015ef8", "rental_uris": {"android": "https://dc.lft.to/lastmile_qr_scan", "ios": "https://dc.lft.to/lastmile_qr_scan"}, "lon": -77.00895, "fusion_lat": 0.0, "is_disabled": 0, "is_reserved": 0, "lat": 38.89555933333333, "type": "electric_scooter"}, {"fusion_lon": 0.0, "bike_id": "498698e76f456012b578afc330792192", "name": "498698e76f456012b578afc330792192", "rental_uris": {"android": "https://dc.lft.to/lastmile_qr_scan", "ios": "https://dc.lft.to/lastmile_qr_scan"}, "lon": -77.02842833333334, "fusion_lat": 0.0, "is_disabled": 0, "is_reserved": 0, "lat": 38.9213975, "type": "electric_bike"}, {"fusion_lon": 0.0, "bike_id": "1dac6fdd33129306603434482589dd67", "name": "1dac6fdd33129306603434482589dd67", "rental_uris": {"android": "https://dc.lft.to/lastmile_qr_scan", "ios": "https://dc.lft.to/lastmile_qr_scan"}, "lon": -77.02425233333334, "fusion_lat": 0.0, "is_disabled": 0, "is_reserved": 0, "lat": 38.900489666666665, "type": "electric_scooter"}, {"fusion_lon": 0.0, "bike_id": "f850a26887ea9ebd008f2770df03a1d4", "name": "f850a26887ea9ebd008f2770df03a1d4", "rental_uris": {"android": "https://dc.lft.to/lastmile_qr_scan", "ios": "https://dc.lft.to/lastmile_qr_scan"}, "lon": -77.03222383333333, "fusion_lat": 0.0, "is_disabled": 0, "is_reserved": 0, "lat": 38.91717766666667, "type": "electric_scooter"}, {"fusion_lon": 0.0, "bike_id": "c33eb31b3c2dae2ed2432da1d03c2f2c", "name": "c33eb31b3c2dae2ed2432da1d03c2f2c", "rental_uris": {"android": "https://dc.lft.to/lastmile_qr_scan", "ios": "https://dc.lft.to/lastmile_qr_scan"}, "lon": -77.039408, "fusion_lat": 0.0, "is_disabled": 0, "is_reserved": 0, "lat": 38.916138333333336, "type": "electric_scooter"}, {"fusion_lon": 0.0, "bike_id": "3abd99746b3b1bb08f79b38bd80c7c67", "name": "3abd99746b3b1bb08f79b38bd80c7c67", "rental_uris": {"android": "https://dc.lft.to/lastmile_qr_scan", "ios": "https://dc.lft.to/lastmile_qr_scan"}, "lon": -77.05183283333334, "fusion_lat": 0.0, "is_disabled": 0, "is_reserved": 0, "lat": 38.924281666666666, "type": "electric_scooter"}, {"fusion_lon": 0.0, "bike_id": "f95f984527b751324117f809aebbe405", "name": "f95f984527b751324117f809aebbe405", "rental_uris": {"android": "https://dc.lft.to/lastmile_qr_scan", "ios": "https://dc.lft.to/lastmile_qr_scan"}, "lon": -76.996932, "fusion_lat": 0.0, "is_disabled": 0, "is_reserved": 0, "lat": 38.88875183333333, "type": "electric_bike"}, {"fusion_lon": 0.0, "bike_id": "d454d8fb8f9d91a342ccc15282ffd139", "name": "d454d8fb8f9d91a342ccc15282ffd139", "rental_uris": {"android": "https://dc.lft.to/lastmile_qr_scan", "ios": "https://dc.lft.to/lastmile_qr_scan"}, "lon": -77.07345833333333, "fusion_lat": 0.0, "is_disabled": 0, "is_reserved": 0, "lat": 38.92249666666667, "type": "electric_scooter"}, {"fusion_lon": 0.0, "bike_id": "d4dc81c19795cdbd2b0705fc418059d9", "name": "d4dc81c19795cdbd2b0705fc418059d9", "rental_uris": {"android": "https://dc.lft.to/lastmile_qr_scan", "ios": "https://dc.lft.to/lastmile_qr_scan"}, "lon": -76.994114, "fusion_lat": 0.0, "is_disabled": 0, "is_reserved": 0, "lat": 38.877881, "type": "electric_scooter"}, {"fusion_lon": 0.0, "bike_id": "7b4517710feb738bd11c025d04b17c9c", "name": "7b4517710feb738bd11c025d04b17c9c", "rental_uris": {"android": "https://dc.lft.to/lastmile_qr_scan", "ios": "https://dc.lft.to/lastmile_qr_scan"}, "lon": -77.08200933333333, "fusion_lat": 0.0, "is_disabled": 0, "is_reserved": 0, "lat": 38.92214583333333, "type": "electric_bike"}, {"fusion_lon": 0.0, "bike_id": "caf96bdbcbae062275f6dc155d538933", "name": "caf96bdbcbae062275f6dc155d538933", "rental_uris": {"android": "https://dc.lft.to/lastmile_qr_scan", "ios": "https://dc.lft.to/lastmile_qr_scan"}, "lon": -77.032007, "fusion_lat": 0.0, "is_disabled": 0, "is_reserved": 0, "lat": 38.91629866666667, "type": "electric_scooter"}, {"fusion_lon": 0.0, "bike_id": "f70df7f150689b81f530ec57ef5a3bb9", "name": "f70df7f150689b81f530ec57ef5a3bb9", "rental_uris": {"android": "https://dc.lft.to/lastmile_qr_scan", "ios": "https://dc.lft.to/lastmile_qr_scan"}, "lon": -77.00677983333334, "fusion_lat": 0.0, "is_disabled": 0, "is_reserved": 0, "lat": 38.90008983333333, "type": "electric_scooter"}, {"fusion_lon": 0.0, "bike_id": "15b61403a160713a200e17015c7e50a7", "name": "15b61403a160713a200e17015c7e50a7", "rental_uris": {"android": "https://dc.lft.to/lastmile_qr_scan", "ios": "https://dc.lft.to/lastmile_qr_scan"}, "lon": -77.06759466666666, "fusion_lat": 0.0, "is_disabled": 0, "is_reserved": 0, "lat": 38.841972, "type": "electric_bike"}, {"fusion_lon": 0.0, "bike_id": "034effe1fcd0f9b20173cf50f57c6ad5", "name": "034effe1fcd0f9b20173cf50f57c6ad5", "rental_uris": {"android": "https://dc.lft.to/lastmile_qr_scan", "ios": "https://dc.lft.to/lastmile_qr_scan"}, "lon": -77.003858, "fusion_lat": 0.0, "is_disabled": 0, "is_reserved": 0, "lat": 38.87640616666667, "type": "electric_scooter"}, {"fusion_lon": 0.0, "bike_id": "ad3ce1506300717af3221c0fe0c3b490", "name": "ad3ce1506300717af3221c0fe0c3b490", "rental_uris": {"android": "https://dc.lft.to/lastmile_qr_scan", "ios": "https://dc.lft.to/lastmile_qr_scan"}, "lon": -77.201079, "fusion_lat": 0.0, "is_disabled": 0, "is_reserved": 0, "lat": 38.863990333333334, "type": "electric_bike"}, {"fusion_lon": 0.0, "bike_id": "4454bb67bc81e5fec5c305445b6bafcf", "name": "4454bb67bc81e5fec5c305445b6bafcf", "rental_uris": {"android": "https://dc.lft.to/lastmile_qr_scan", "ios": "https://dc.lft.to/lastmile_qr_scan"}, "lon": -77.04334683333333, "fusion_lat": 0.0, "is_disabled": 0, "is_reserved": 0, "lat": 38.892244, "type": "electric_scooter"}, {"fusion_lon": 0.0, "bike_id": "37ed4e31c20cbe33ecd45f60928a9483", "name": "37ed4e31c20cbe33ecd45f60928a9483", "rental_uris": {"android": "https://dc.lft.to/lastmile_qr_scan", "ios": "https://dc.lft.to/lastmile_qr_scan"}, "lon": -77.03524, "fusion_lat": 0.0, "is_disabled": 0, "is_reserved": 0, "lat": 38.90764566666667, "type": "electric_scooter"}, {"fusion_lon": 0.0, "bike_id": "6a861bc4b0fd8925114d1bf0f872aed3", "name": "6a861bc4b0fd8925114d1bf0f872aed3", "rental_uris": {"android": "https://dc.lft.to/lastmile_qr_scan", "ios": "https://dc.lft.to/lastmile_qr_scan"}, "lon": -77.0250995, "fusion_lat": 0.0, "is_disabled": 0, "is_reserved": 0, "lat": 38.920884, "type": "electric_scooter"}, {"fusion_lon": 0.0, "bike_id": "9fe8d78e15e46773bde0ee04a128a18c", "name": "9fe8d78e15e46773bde0ee04a128a18c", "rental_uris": {"android": "https://dc.lft.to/lastmile_qr_scan", "ios": "https://dc.lft.to/lastmile_qr_scan"}, "lon": -76.95206916666666, "fusion_lat": 0.0, "is_disabled": 0, "is_reserved": 0, "lat": 38.905117, "type": "electric_scooter"}, {"fusion_lon": 0.0, "bike_id": "5a6c832a8f53e967535c7a73fe9f61fa", "name": "5a6c832a8f53e967535c7a73fe9f61fa", "rental_uris": {"android": "https://dc.lft.to/lastmile_qr_scan", "ios": "https://dc.lft.to/lastmile_qr_scan"}, "lon": -77.033349, "fusion_lat": 0.0, "is_disabled": 0, "is_reserved": 0, "lat": 38.97217116666667, "type": "electric_scooter"}, {"fusion_lon": 0.0, "bike_id": "15850eb101fb897bd7db5c68a117f9fd", "name": "15850eb101fb897bd7db5c68a117f9fd", "rental_uris": {"android": "https://dc.lft.to/lastmile_qr_scan", "ios": "https://dc.lft.to/lastmile_qr_scan"}, "lon": -77.042626, "fusion_lat": 0.0, "is_disabled": 0, "is_reserved": 0, "lat": 38.904184666666666, "type": "electric_scooter"}, {"fusion_lon": 0.0, "bike_id": "4ad16cf1dd8682bd315b21089f39e272", "name": "4ad16cf1dd8682bd315b21089f39e272", "rental_uris": {"android": "https://dc.lft.to/lastmile_qr_scan", "ios": "https://dc.lft.to/lastmile_qr_scan"}, "lon": -77.03829916666666, "fusion_lat": 0.0, "is_disabled": 0, "is_reserved": 0, "lat": 38.918913833333335, "type": "electric_scooter"}, {"fusion_lon": 0.0, "bike_id": "44af463cd98dc32f599d8cdc16474b78", "name": "44af463cd98dc32f599d8cdc16474b78", "rental_uris": {"android": "https://dc.lft.to/lastmile_qr_scan", "ios": "https://dc.lft.to/lastmile_qr_scan"}, "lon": -77.00292, "fusion_lat": 0.0, "is_disabled": 0, "is_reserved": 0, "lat": 38.89202983333333, "type": "electric_scooter"}, {"fusion_lon": 0.0, "bike_id": "db4e90a6c426c3234d2d1d212b69ac73", "name": "db4e90a6c426c3234d2d1d212b69ac73", "rental_uris": {"android": "https://dc.lft.to/lastmile_qr_scan", "ios": "https://dc.lft.to/lastmile_qr_scan"}, "lon": -77.031862, "fusion_lat": 0.0, "is_disabled": 0, "is_reserved": 0, "lat": 38.913489166666665, "type": "electric_scooter"}, {"fusion_lon": 0.0, "bike_id": "061fc042d568e5129a8fcba926f71d8e", "name": "061fc042d568e5129a8fcba926f71d8e", "rental_uris": {"android": "https://dc.lft.to/lastmile_qr_scan", "ios": "https://dc.lft.to/lastmile_qr_scan"}, "lon": -76.95541933333334, "fusion_lat": 0.0, "is_disabled": 0, "is_reserved": 0, "lat": 38.947973833333336, "type": "electric_bike"}, {"fusion_lon": 0.0, "bike_id": "ba41a81bf78a4599ea2f474da5991319", "name": "ba41a81bf78a4599ea2f474da5991319", "rental_uris": {"android": "https://dc.lft.to/lastmile_qr_scan", "ios": "https://dc.lft.to/lastmile_qr_scan"}, "lon": -77.02537966666667, "fusion_lat": 0.0, "is_disabled": 0, "is_reserved": 0, "lat": 38.92746833333333, "type": "electric_scooter"}, {"fusion_lon": 0.0, "bike_id": "eca7ba99ea82d68166ac7b16e94d162c", "name": "eca7ba99ea82d68166ac7b16e94d162c", "rental_uris": {"android": "https://dc.lft.to/lastmile_qr_scan", "ios": "https://dc.lft.to/lastmile_qr_scan"}, "lon": -77.04157916666666, "fusion_lat": 0.0, "is_disabled": 0, "is_reserved": 0, "lat": 38.91446783333333, "type": "electric_scooter"}, {"fusion_lon": 0.0, "bike_id": "65803bf6e82209357d41f95415c1852e", "name": "65803bf6e82209357d41f95415c1852e", "rental_uris": {"android": "https://dc.lft.to/lastmile_qr_scan", "ios": "https://dc.lft.to/lastmile_qr_scan"}, "lon": -77.032442, "fusion_lat": 0.0, "is_disabled": 0, "is_reserved": 0, "lat": 38.934544833333334, "type": "electric_scooter"}, {"fusion_lon": 0.0, "bike_id": "3230ab1dec54df6769d083159f0b0d6f", "name": "3230ab1dec54df6769d083159f0b0d6f", "rental_uris": {"android": "https://dc.lft.to/lastmile_qr_scan", "ios": "https://dc.lft.to/lastmile_qr_scan"}, "lon": -77.03848866666667, "fusion_lat": 0.0, "is_disabled": 0, "is_reserved": 0, "lat": 38.910256, "type": "electric_scooter"}, {"fusion_lon": 0.0, "bike_id": "bfe13ab7634771f3ea1d14617c991bcd", "name": "bfe13ab7634771f3ea1d14617c991bcd", "rental_uris": {"android": "https://dc.lft.to/lastmile_qr_scan", "ios": "https://dc.lft.to/lastmile_qr_scan"}, "lon": -77.04110466666667, "fusion_lat": 0.0, "is_disabled": 0, "is_reserved": 0, "lat": 38.899309833333334, "type": "electric_scooter"}, {"fusion_lon": 0.0, "bike_id": "4a0b82550615824ccba5e314faf483da", "name": "4a0b82550615824ccba5e314faf483da", "rental_uris": {"android": "https://dc.lft.to/lastmile_qr_scan", "ios": "https://dc.lft.to/lastmile_qr_scan"}, "lon": -77.00152233333333, "fusion_lat": 0.0, "is_disabled": 0, "is_reserved": 0, "lat": 38.9108205, "type": "electric_scooter"}, {"fusion_lon": 0.0, "bike_id": "3d3456d6d549746eb44abe55c85eb246", "name": "3d3456d6d549746eb44abe55c85eb246", "rental_uris": {"android": "https://dc.lft.to/lastmile_qr_scan", "ios": "https://dc.lft.to/lastmile_qr_scan"}, "lon": -76.99034416666667, "fusion_lat": 0.0, "is_disabled": 0, "is_reserved": 0, "lat": 38.89853566666667, "type": "electric_scooter"}, {"fusion_lon": 0.0, "bike_id": "87941305f4276f2cd41bb215e9d8df36", "name": "87941305f4276f2cd41bb215e9d8df36", "rental_uris": {"android": "https://dc.lft.to/lastmile_qr_scan", "ios": "https://dc.lft.to/lastmile_qr_scan"}, "lon": -77.028352, "fusion_lat": 0.0, "is_disabled": 0, "is_reserved": 0, "lat": 38.88662083333333, "type": "electric_scooter"}, {"fusion_lon": 0.0, "bike_id": "0f406353fd34c73d17fbc7509d25db90", "name": "0f406353fd34c73d17fbc7509d25db90", "rental_uris": {"android": "https://dc.lft.to/lastmile_qr_scan", "ios": "https://dc.lft.to/lastmile_qr_scan"}, "lon": -77.0107365, "fusion_lat": 0.0, "is_disabled": 0, "is_reserved": 0, "lat": 38.914089833333335, "type": "electric_scooter"}, {"fusion_lon": 0.0, "bike_id": "1c21778c159b716d679d57773421fa2f", "name": "1c21778c159b716d679d57773421fa2f", "rental_uris": {"android": "https://dc.lft.to/lastmile_qr_scan", "ios": "https://dc.lft.to/lastmile_qr_scan"}, "lon": -77.02201316666667, "fusion_lat": 0.0, "is_disabled": 0, "is_reserved": 0, "lat": 38.905433333333335, "type": "electric_scooter"}, {"fusion_lon": 0.0, "bike_id": "4a3ec9f03d982f2b452b2c904d939bfb", "name": "4a3ec9f03d982f2b452b2c904d939bfb", "rental_uris": {"android": "https://dc.lft.to/lastmile_qr_scan", "ios": "https://dc.lft.to/lastmile_qr_scan"}, "lon": -77.02604383333333, "fusion_lat": 0.0, "is_disabled": 0, "is_reserved": 0, "lat": 38.9195485, "type": "electric_scooter"}, {"fusion_lon": 0.0, "bike_id": "806631ceb4a13a6cf3e4b278eb58a96a", "name": "806631ceb4a13a6cf3e4b278eb58a96a", "rental_uris": {"android": "https://dc.lft.to/lastmile_qr_scan", "ios": "https://dc.lft.to/lastmile_qr_scan"}, "lon": -77.01692733333333, "fusion_lat": 0.0, "is_disabled": 0, "is_reserved": 0, "lat": 38.907646166666666, "type": "electric_scooter"}, {"fusion_lon": 0.0, "bike_id": "6074f6180b7e943369c265f4441d6d23", "name": "6074f6180b7e943369c265f4441d6d23", "rental_uris": {"android": "https://dc.lft.to/lastmile_qr_scan", "ios": "https://dc.lft.to/lastmile_qr_scan"}, "lon": -77.0390615, "fusion_lat": 0.0, "is_disabled": 0, "is_reserved": 0, "lat": 38.91266183333333, "type": "electric_scooter"}, {"fusion_lon": 0.0, "bike_id": "125072a9d49d967edd85945032a36c88", "name": "125072a9d49d967edd85945032a36c88", "rental_uris": {"android": "https://dc.lft.to/lastmile_qr_scan", "ios": "https://dc.lft.to/lastmile_qr_scan"}, "lon": -77.04487466666667, "fusion_lat": 0.0, "is_disabled": 0, "is_reserved": 0, "lat": 38.909045166666665, "type": "electric_scooter"}, {"fusion_lon": 0.0, "bike_id": "038f63a5f36c794b2104cf38bfec6631", "name": "038f63a5f36c794b2104cf38bfec6631", "rental_uris": {"android": "https://dc.lft.to/lastmile_qr_scan", "ios": "https://dc.lft.to/lastmile_qr_scan"}, "lon": -77.00286166666666, "fusion_lat": 0.0, "is_disabled": 0, "is_reserved": 0, "lat": 38.876599, "type": "electric_scooter"}, {"fusion_lon": 0.0, "bike_id": "239dd50c1b966b0d46d1b46535128f79", "name": "239dd50c1b966b0d46d1b46535128f79", "rental_uris": {"android": "https://dc.lft.to/lastmile_qr_scan", "ios": "https://dc.lft.to/lastmile_qr_scan"}, "lon": -77.0465395, "fusion_lat": 0.0, "is_disabled": 0, "is_reserved": 0, "lat": 38.8922925, "type": "electric_scooter"}, {"fusion_lon": 0.0, "bike_id": "ecce90e23f60ee33bf7be5fc4c85f8c7", "name": "ecce90e23f60ee33bf7be5fc4c85f8c7", "rental_uris": {"android": "https://dc.lft.to/lastmile_qr_scan", "ios": "https://dc.lft.to/lastmile_qr_scan"}, "lon": -77.02816133333333, "fusion_lat": 0.0, "is_disabled": 0, "is_reserved": 0, "lat": 38.892375666666666, "type": "electric_scooter"}, {"fusion_lon": 0.0, "bike_id": "456d4f97fe63cd36467ad6b9d2223dce", "name": "456d4f97fe63cd36467ad6b9d2223dce", "rental_uris": {"android": "https://dc.lft.to/lastmile_qr_scan", "ios": "https://dc.lft.to/lastmile_qr_scan"}, "lon": -77.01743283333333, "fusion_lat": 0.0, "is_disabled": 0, "is_reserved": 0, "lat": 38.89223, "type": "electric_scooter"}, {"fusion_lon": 0.0, "bike_id": "b6654afe0cc005d662d976d27187f197", "name": "b6654afe0cc005d662d976d27187f197", "rental_uris": {"android": "https://dc.lft.to/lastmile_qr_scan", "ios": "https://dc.lft.to/lastmile_qr_scan"}, "lon": -76.958783, "fusion_lat": 0.0, "is_disabled": 0, "is_reserved": 0, "lat": 38.85946833333333, "type": "electric_scooter"}, {"fusion_lon": 0.0, "bike_id": "d9196ed4757f381d756d9ba790d3a855", "name": "d9196ed4757f381d756d9ba790d3a855", "rental_uris": {"android": "https://dc.lft.to/lastmile_qr_scan", "ios": "https://dc.lft.to/lastmile_qr_scan"}, "lon": -77.03371533333333, "fusion_lat": 0.0, "is_disabled": 0, "is_reserved": 0, "lat": 38.928829666666665, "type": "electric_bike"}, {"fusion_lon": 0.0, "bike_id": "9b540c325494388a22a5bd0199993766", "name": "9b540c325494388a22a5bd0199993766", "rental_uris": {"android": "https://dc.lft.to/lastmile_qr_scan", "ios": "https://dc.lft.to/lastmile_qr_scan"}, "lon": -77.0257135, "fusion_lat": 0.0, "is_disabled": 0, "is_reserved": 0, "lat": 38.926887666666666, "type": "electric_scooter"}, {"fusion_lon": 0.0, "bike_id": "c0a23c0887eee73911b4d9e87f03d7b4", "name": "c0a23c0887eee73911b4d9e87f03d7b4", "rental_uris": {"android": "https://dc.lft.to/lastmile_qr_scan", "ios": "https://dc.lft.to/lastmile_qr_scan"}, "lon": -77.01723566666666, "fusion_lat": 0.0, "is_disabled": 0, "is_reserved": 0, "lat": 38.894928666666665, "type": "electric_scooter"}, {"fusion_lon": 0.0, "bike_id": "cb9304476b746981bda88fd9ca42fea1", "name": "cb9304476b746981bda88fd9ca42fea1", "rental_uris": {"android": "https://dc.lft.to/lastmile_qr_scan", "ios": "https://dc.lft.to/lastmile_qr_scan"}, "lon": -76.9579565, "fusion_lat": 0.0, "is_disabled": 0, "is_reserved": 0, "lat": 38.980452166666666, "type": "electric_bike"}, {"fusion_lon": 0.0, "bike_id": "8812718842defd62bf9203251303cd34", "name": "8812718842defd62bf9203251303cd34", "rental_uris": {"android": "https://dc.lft.to/lastmile_qr_scan", "ios": "https://dc.lft.to/lastmile_qr_scan"}, "lon": -77.01683533333333, "fusion_lat": 0.0, "is_disabled": 0, "is_reserved": 0, "lat": 38.92043066666667, "type": "electric_scooter"}, {"fusion_lon": 0.0, "bike_id": "08a41409d20b856ee2b7af5e39cbbb8f", "name": "08a41409d20b856ee2b7af5e39cbbb8f", "rental_uris": {"android": "https://dc.lft.to/lastmile_qr_scan", "ios": "https://dc.lft.to/lastmile_qr_scan"}, "lon": -76.96555, "fusion_lat": 0.0, "is_disabled": 0, "is_reserved": 0, "lat": 38.9184875, "type": "electric_scooter"}, {"fusion_lon": 0.0, "bike_id": "b9d15b1ec4c168cfa9cad2231b6a94e8", "name": "b9d15b1ec4c168cfa9cad2231b6a94e8", "rental_uris": {"android": "https://dc.lft.to/lastmile_qr_scan", "ios": "https://dc.lft.to/lastmile_qr_scan"}, "lon": -77.0754185, "fusion_lat": 0.0, "is_disabled": 0, "is_reserved": 0, "lat": 38.91041116666667, "type": "electric_scooter"}, {"fusion_lon": 0.0, "bike_id": "b44a1c2889d769e1953b9ccf938d6ab2", "name": "b44a1c2889d769e1953b9ccf938d6ab2", "rental_uris": {"android": "https://dc.lft.to/lastmile_qr_scan", "ios": "https://dc.lft.to/lastmile_qr_scan"}, "lon": -77.0322615, "fusion_lat": 0.0, "is_disabled": 0, "is_reserved": 0, "lat": 38.91024916666667, "type": "electric_scooter"}, {"fusion_lon": 0.0, "bike_id": "f06d25623a801fa6c0eec2edda150a5c", "name": "f06d25623a801fa6c0eec2edda150a5c", "rental_uris": {"android": "https://dc.lft.to/lastmile_qr_scan", "ios": "https://dc.lft.to/lastmile_qr_scan"}, "lon": -77.0258705, "fusion_lat": 0.0, "is_disabled": 0, "is_reserved": 0, "lat": 38.9639725, "type": "electric_scooter"}, {"fusion_lon": 0.0, "bike_id": "ffe1c67c91566fc3c33fc00ae833a659", "name": "ffe1c67c91566fc3c33fc00ae833a659", "rental_uris": {"android": "https://dc.lft.to/lastmile_qr_scan", "ios": "https://dc.lft.to/lastmile_qr_scan"}, "lon": -77.04180916666667, "fusion_lat": 0.0, "is_disabled": 0, "is_reserved": 0, "lat": 38.9048595, "type": "electric_scooter"}, {"fusion_lon": 0.0, "bike_id": "727feafa3bfe58ecb4ae0f9d0a6f3b26", "name": "727feafa3bfe58ecb4ae0f9d0a6f3b26", "rental_uris": {"android": "https://dc.lft.to/lastmile_qr_scan", "ios": "https://dc.lft.to/lastmile_qr_scan"}, "lon": -77.02521516666667, "fusion_lat": 0.0, "is_disabled": 0, "is_reserved": 0, "lat": 38.94195583333333, "type": "electric_scooter"}, {"fusion_lon": 0.0, "bike_id": "61a5062e1e9d9f52d8a57cc5817ca88e", "name": "61a5062e1e9d9f52d8a57cc5817ca88e", "rental_uris": {"android": "https://dc.lft.to/lastmile_qr_scan", "ios": "https://dc.lft.to/lastmile_qr_scan"}, "lon": -77.07013666666667, "fusion_lat": 0.0, "is_disabled": 0, "is_reserved": 0, "lat": 38.956254666666666, "type": "electric_scooter"}, {"fusion_lon": 0.0, "bike_id": "88e954d3d2e21c8bc1423f46694a73d2", "name": "88e954d3d2e21c8bc1423f46694a73d2", "rental_uris": {"android": "https://dc.lft.to/lastmile_qr_scan", "ios": "https://dc.lft.to/lastmile_qr_scan"}, "lon": -77.02739216666667, "fusion_lat": 0.0, "is_disabled": 0, "is_reserved": 0, "lat": 38.8815195, "type": "electric_scooter"}, {"fusion_lon": 0.0, "bike_id": "9fe46da5688b1b21ccb3a7d631a62e10", "name": "9fe46da5688b1b21ccb3a7d631a62e10", "rental_uris": {"android": "https://dc.lft.to/lastmile_qr_scan", "ios": "https://dc.lft.to/lastmile_qr_scan"}, "lon": -77.0445395, "fusion_lat": 0.0, "is_disabled": 0, "is_reserved": 0, "lat": 38.9057925, "type": "electric_scooter"}, {"fusion_lon": 0.0, "bike_id": "6f142768970de3ffebd79bd5a2340c5c", "name": "6f142768970de3ffebd79bd5a2340c5c", "rental_uris": {"android": "https://dc.lft.to/lastmile_qr_scan", "ios": "https://dc.lft.to/lastmile_qr_scan"}, "lon": -77.02802316666667, "fusion_lat": 0.0, "is_disabled": 0, "is_reserved": 0, "lat": 38.961249333333335, "type": "electric_scooter"}, {"fusion_lon": 0.0, "bike_id": "abd872d712cb884b3ac8b0c73d30a2dc", "name": "abd872d712cb884b3ac8b0c73d30a2dc", "rental_uris": {"android": "https://dc.lft.to/lastmile_qr_scan", "ios": "https://dc.lft.to/lastmile_qr_scan"}, "lon": -77.03212633333334, "fusion_lat": 0.0, "is_disabled": 0, "is_reserved": 0, "lat": 38.916046, "type": "electric_scooter"}, {"fusion_lon": 0.0, "bike_id": "90909d9ec62b9c6db5f3fcf32404e210", "name": "90909d9ec62b9c6db5f3fcf32404e210", "rental_uris": {"android": "https://dc.lft.to/lastmile_qr_scan", "ios": "https://dc.lft.to/lastmile_qr_scan"}, "lon": -77.03179233333333, "fusion_lat": 0.0, "is_disabled": 0, "is_reserved": 0, "lat": 38.910616, "type": "electric_scooter"}, {"fusion_lon": 0.0, "bike_id": "b9dde4d22b6cc012b7965355e956244f", "name": "b9dde4d22b6cc012b7965355e956244f", "rental_uris": {"android": "https://dc.lft.to/lastmile_qr_scan", "ios": "https://dc.lft.to/lastmile_qr_scan"}, "lon": -77.02107783333334, "fusion_lat": 0.0, "is_disabled": 0, "is_reserved": 0, "lat": 38.904832166666665, "type": "electric_scooter"}, {"fusion_lon": 0.0, "bike_id": "bb3e8455ccffb9d41b480fabe7c99ff3", "name": "bb3e8455ccffb9d41b480fabe7c99ff3", "rental_uris": {"android": "https://dc.lft.to/lastmile_qr_scan", "ios": "https://dc.lft.to/lastmile_qr_scan"}, "lon": -77.023279, "fusion_lat": 0.0, "is_disabled": 0, "is_reserved": 0, "lat": 38.930603, "type": "electric_scooter"}, {"fusion_lon": 0.0, "bike_id": "ac03f4bb872075dbf98ea1dd4bf49104", "name": "ac03f4bb872075dbf98ea1dd4bf49104", "rental_uris": {"android": "https://dc.lft.to/lastmile_qr_scan", "ios": "https://dc.lft.to/lastmile_qr_scan"}, "lon": -77.0416345, "fusion_lat": 0.0, "is_disabled": 0, "is_reserved": 0, "lat": 38.91305783333333, "type": "electric_scooter"}, {"fusion_lon": 0.0, "bike_id": "99007bc9335d5683e7511800b21ba2be", "name": "99007bc9335d5683e7511800b21ba2be", "rental_uris": {"android": "https://dc.lft.to/lastmile_qr_scan", "ios": "https://dc.lft.to/lastmile_qr_scan"}, "lon": -77.006058, "fusion_lat": 0.0, "is_disabled": 0, "is_reserved": 0, "lat": 38.90636383333333, "type": "electric_scooter"}, {"fusion_lon": 0.0, "bike_id": "19833b1081c16472f49eb4c721fe8f2b", "name": "19833b1081c16472f49eb4c721fe8f2b", "rental_uris": {"android": "https://dc.lft.to/lastmile_qr_scan", "ios": "https://dc.lft.to/lastmile_qr_scan"}, "lon": -77.03181533333333, "fusion_lat": 0.0, "is_disabled": 0, "is_reserved": 0, "lat": 38.91122983333333, "type": "electric_scooter"}, {"fusion_lon": 0.0, "bike_id": "a807c938f3a563fe0a97ec7a72a8e11c", "name": "a807c938f3a563fe0a97ec7a72a8e11c", "rental_uris": {"android": "https://dc.lft.to/lastmile_qr_scan", "ios": "https://dc.lft.to/lastmile_qr_scan"}, "lon": -77.05593633333334, "fusion_lat": 0.0, "is_disabled": 0, "is_reserved": 0, "lat": 39.03971166666667, "type": "electric_bike"}, {"fusion_lon": 0.0, "bike_id": "c9858aaeb7ef9bb5ba22fae0d9115fce", "name": "c9858aaeb7ef9bb5ba22fae0d9115fce", "rental_uris": {"android": "https://dc.lft.to/lastmile_qr_scan", "ios": "https://dc.lft.to/lastmile_qr_scan"}, "lon": -77.04150583333333, "fusion_lat": 0.0, "is_disabled": 0, "is_reserved": 0, "lat": 38.909053, "type": "electric_scooter"}, {"fusion_lon": 0.0, "bike_id": "7d2246d626d3a02c4cd9d34637e653fa", "name": "7d2246d626d3a02c4cd9d34637e653fa", "rental_uris": {"android": "https://dc.lft.to/lastmile_qr_scan", "ios": "https://dc.lft.to/lastmile_qr_scan"}, "lon": -77.03435833333333, "fusion_lat": 0.0, "is_disabled": 0, "is_reserved": 0, "lat": 38.91711683333333, "type": "electric_scooter"}, {"fusion_lon": 0.0, "bike_id": "e0767632c4c4ae2e96130538cda2e021", "name": "e0767632c4c4ae2e96130538cda2e021", "rental_uris": {"android": "https://dc.lft.to/lastmile_qr_scan", "ios": "https://dc.lft.to/lastmile_qr_scan"}, "lon": -77.03959416666666, "fusion_lat": 0.0, "is_disabled": 0, "is_reserved": 0, "lat": 38.89246116666666, "type": "electric_scooter"}, {"fusion_lon": 0.0, "bike_id": "e14f296c8949d9acb67113c24b5050e9", "name": "e14f296c8949d9acb67113c24b5050e9", "rental_uris": {"android": "https://dc.lft.to/lastmile_qr_scan", "ios": "https://dc.lft.to/lastmile_qr_scan"}, "lon": -77.04044966666666, "fusion_lat": 0.0, "is_disabled": 0, "is_reserved": 0, "lat": 38.924628166666665, "type": "electric_scooter"}, {"fusion_lon": 0.0, "bike_id": "9e07407fe7c47008b0479e019ba94e1f", "name": "9e07407fe7c47008b0479e019ba94e1f", "rental_uris": {"android": "https://dc.lft.to/lastmile_qr_scan", "ios": "https://dc.lft.to/lastmile_qr_scan"}, "lon": -77.01986783333334, "fusion_lat": 0.0, "is_disabled": 0, "is_reserved": 0, "lat": 38.89900516666667, "type": "electric_scooter"}, {"fusion_lon": 0.0, "bike_id": "ed6aa55564d91533e7c309573592ab5b", "name": "ed6aa55564d91533e7c309573592ab5b", "rental_uris": {"android": "https://dc.lft.to/lastmile_qr_scan", "ios": "https://dc.lft.to/lastmile_qr_scan"}, "lon": -77.0323175, "fusion_lat": 0.0, "is_disabled": 0, "is_reserved": 0, "lat": 38.9086705, "type": "electric_scooter"}, {"fusion_lon": 0.0, "bike_id": "11e2c5adf4d704de07c2b327fd471b9b", "name": "11e2c5adf4d704de07c2b327fd471b9b", "rental_uris": {"android": "https://dc.lft.to/lastmile_qr_scan", "ios": "https://dc.lft.to/lastmile_qr_scan"}, "lon": -77.022024, "fusion_lat": 0.0, "is_disabled": 0, "is_reserved": 0, "lat": 38.901884333333335, "type": "electric_scooter"}, {"fusion_lon": 0.0, "bike_id": "0e493d6e6537870ac6016751513f9eeb", "name": "0e493d6e6537870ac6016751513f9eeb", "rental_uris": {"android": "https://dc.lft.to/lastmile_qr_scan", "ios": "https://dc.lft.to/lastmile_qr_scan"}, "lon": -76.9793355, "fusion_lat": 0.0, "is_disabled": 0, "is_reserved": 0, "lat": 38.9330525, "type": "electric_scooter"}, {"fusion_lon": 0.0, "bike_id": "f375aa3e41de10759233b0e7296e5ef3", "name": "f375aa3e41de10759233b0e7296e5ef3", "rental_uris": {"android": "https://dc.lft.to/lastmile_qr_scan", "ios": "https://dc.lft.to/lastmile_qr_scan"}, "lon": -77.025456, "fusion_lat": 0.0, "is_disabled": 0, "is_reserved": 0, "lat": 38.9072035, "type": "electric_scooter"}, {"fusion_lon": 0.0, "bike_id": "c8aa7eba81a23d52e21a7e0200300318", "name": "c8aa7eba81a23d52e21a7e0200300318", "rental_uris": {"android": "https://dc.lft.to/lastmile_qr_scan", "ios": "https://dc.lft.to/lastmile_qr_scan"}, "lon": -77.041591, "fusion_lat": 0.0, "is_disabled": 0, "is_reserved": 0, "lat": 38.89241916666667, "type": "electric_scooter"}, {"fusion_lon": 0.0, "bike_id": "24dda29a8d47b62a2264d1d9c1faf661", "name": "24dda29a8d47b62a2264d1d9c1faf661", "rental_uris": {"android": "https://dc.lft.to/lastmile_qr_scan", "ios": "https://dc.lft.to/lastmile_qr_scan"}, "lon": -77.0279, "fusion_lat": 0.0, "is_disabled": 0, "is_reserved": 0, "lat": 38.8984495, "type": "electric_scooter"}, {"fusion_lon": 0.0, "bike_id": "da68ab9b0c7f26e369300fec8285ef09", "name": "da68ab9b0c7f26e369300fec8285ef09", "rental_uris": {"android": "https://dc.lft.to/lastmile_qr_scan", "ios": "https://dc.lft.to/lastmile_qr_scan"}, "lon": -77.0426005, "fusion_lat": 0.0, "is_disabled": 0, "is_reserved": 0, "lat": 38.90005016666667, "type": "electric_scooter"}, {"fusion_lon": 0.0, "bike_id": "db160e654724552dcdc658aa4cce8f44", "name": "db160e654724552dcdc658aa4cce8f44", "rental_uris": {"android": "https://dc.lft.to/lastmile_qr_scan", "ios": "https://dc.lft.to/lastmile_qr_scan"}, "lon": -77.02825583333333, "fusion_lat": 0.0, "is_disabled": 0, "is_reserved": 0, "lat": 38.927656999999996, "type": "electric_scooter"}, {"fusion_lon": 0.0, "bike_id": "9ec343aec65404c38ac2be20b71b29ba", "name": "9ec343aec65404c38ac2be20b71b29ba", "rental_uris": {"android": "https://dc.lft.to/lastmile_qr_scan", "ios": "https://dc.lft.to/lastmile_qr_scan"}, "lon": -77.025955, "fusion_lat": 0.0, "is_disabled": 0, "is_reserved": 0, "lat": 38.942018, "type": "electric_scooter"}, {"fusion_lon": 0.0, "bike_id": "50f0850967ace8ebba6a5942c2b9f5b2", "name": "50f0850967ace8ebba6a5942c2b9f5b2", "rental_uris": {"android": "https://dc.lft.to/lastmile_qr_scan", "ios": "https://dc.lft.to/lastmile_qr_scan"}, "lon": -77.034076, "fusion_lat": 0.0, "is_disabled": 0, "is_reserved": 0, "lat": 38.90270866666667, "type": "electric_scooter"}, {"fusion_lon": 0.0, "bike_id": "96a5ce016d73396d194c2d595342d61b", "name": "96a5ce016d73396d194c2d595342d61b", "rental_uris": {"android": "https://dc.lft.to/lastmile_qr_scan", "ios": "https://dc.lft.to/lastmile_qr_scan"}, "lon": -77.04423516666667, "fusion_lat": 0.0, "is_disabled": 0, "is_reserved": 0, "lat": 38.93151266666667, "type": "electric_scooter"}, {"fusion_lon": 0.0, "bike_id": "54fbb23973261e47cbb895af7b966b58", "name": "54fbb23973261e47cbb895af7b966b58", "rental_uris": {"android": "https://dc.lft.to/lastmile_qr_scan", "ios": "https://dc.lft.to/lastmile_qr_scan"}, "lon": -77.048926, "fusion_lat": 0.0, "is_disabled": 0, "is_reserved": 0, "lat": 38.90051866666667, "type": "electric_scooter"}, {"fusion_lon": 0.0, "bike_id": "5027e1d7382c2323da1713af7729211e", "name": "5027e1d7382c2323da1713af7729211e", "rental_uris": {"android": "https://dc.lft.to/lastmile_qr_scan", "ios": "https://dc.lft.to/lastmile_qr_scan"}, "lon": -77.01848316666667, "fusion_lat": 0.0, "is_disabled": 0, "is_reserved": 0, "lat": 38.922704, "type": "electric_scooter"}, {"fusion_lon": 0.0, "bike_id": "cddde6df1ef15b4f5381ddd94a72af29", "name": "cddde6df1ef15b4f5381ddd94a72af29", "rental_uris": {"android": "https://dc.lft.to/lastmile_qr_scan", "ios": "https://dc.lft.to/lastmile_qr_scan"}, "lon": -77.00035283333334, "fusion_lat": 0.0, "is_disabled": 0, "is_reserved": 0, "lat": 38.8748115, "type": "electric_scooter"}, {"fusion_lon": 0.0, "bike_id": "83564ea6b6b0d9b1538def44226002a1", "name": "83564ea6b6b0d9b1538def44226002a1", "rental_uris": {"android": "https://dc.lft.to/lastmile_qr_scan", "ios": "https://dc.lft.to/lastmile_qr_scan"}, "lon": -77.07253766666666, "fusion_lat": 0.0, "is_disabled": 0, "is_reserved": 0, "lat": 38.9078415, "type": "electric_scooter"}, {"fusion_lon": 0.0, "bike_id": "6a2b74e5d416add4013d275f01b904d9", "name": "6a2b74e5d416add4013d275f01b904d9", "rental_uris": {"android": "https://dc.lft.to/lastmile_qr_scan", "ios": "https://dc.lft.to/lastmile_qr_scan"}, "lon": -77.062893, "fusion_lat": 0.0, "is_disabled": 0, "is_reserved": 0, "lat": 38.912469, "type": "electric_scooter"}, {"fusion_lon": 0.0, "bike_id": "f28387a0dd9839bde81525c71169798d", "name": "f28387a0dd9839bde81525c71169798d", "rental_uris": {"android": "https://dc.lft.to/lastmile_qr_scan", "ios": "https://dc.lft.to/lastmile_qr_scan"}, "lon": -77.02515333333334, "fusion_lat": 0.0, "is_disabled": 0, "is_reserved": 0, "lat": 38.921047, "type": "electric_scooter"}, {"fusion_lon": 0.0, "bike_id": "05fa217620e90532cce868091809f6c9", "name": "05fa217620e90532cce868091809f6c9", "rental_uris": {"android": "https://dc.lft.to/lastmile_qr_scan", "ios": "https://dc.lft.to/lastmile_qr_scan"}, "lon": -77.01829066666667, "fusion_lat": 0.0, "is_disabled": 0, "is_reserved": 0, "lat": 38.922366333333336, "type": "electric_scooter"}, {"fusion_lon": 0.0, "bike_id": "6242e293860c93e5225d8d0c29424aee", "name": "6242e293860c93e5225d8d0c29424aee", "rental_uris": {"android": "https://dc.lft.to/lastmile_qr_scan", "ios": "https://dc.lft.to/lastmile_qr_scan"}, "lon": -77.03436233333333, "fusion_lat": 0.0, "is_disabled": 0, "is_reserved": 0, "lat": 38.91811633333333, "type": "electric_scooter"}, {"fusion_lon": 0.0, "bike_id": "12956c7f4b5b28aa8d77eddd7172443c", "name": "12956c7f4b5b28aa8d77eddd7172443c", "rental_uris": {"android": "https://dc.lft.to/lastmile_qr_scan", "ios": "https://dc.lft.to/lastmile_qr_scan"}, "lon": -77.00920616666667, "fusion_lat": 0.0, "is_disabled": 0, "is_reserved": 0, "lat": 38.906710333333336, "type": "electric_scooter"}, {"fusion_lon": 0.0, "bike_id": "02a5ece6daef565087913db070c4ca7e", "name": "02a5ece6daef565087913db070c4ca7e", "rental_uris": {"android": "https://dc.lft.to/lastmile_qr_scan", "ios": "https://dc.lft.to/lastmile_qr_scan"}, "lon": -77.03549383333333, "fusion_lat": 0.0, "is_disabled": 0, "is_reserved": 0, "lat": 38.923382, "type": "electric_scooter"}, {"fusion_lon": 0.0, "bike_id": "10843ec2fde601032c78834a204aa0d8", "name": "10843ec2fde601032c78834a204aa0d8", "rental_uris": {"android": "https://dc.lft.to/lastmile_qr_scan", "ios": "https://dc.lft.to/lastmile_qr_scan"}, "lon": -77.04007733333333, "fusion_lat": 0.0, "is_disabled": 0, "is_reserved": 0, "lat": 38.909988166666665, "type": "electric_scooter"}, {"fusion_lon": 0.0, "bike_id": "322533d8a1586e853c729296f8b6ece2", "name": "322533d8a1586e853c729296f8b6ece2", "rental_uris": {"android": "https://dc.lft.to/lastmile_qr_scan", "ios": "https://dc.lft.to/lastmile_qr_scan"}, "lon": -77.0211745, "fusion_lat": 0.0, "is_disabled": 0, "is_reserved": 0, "lat": 38.926721666666666, "type": "electric_scooter"}, {"fusion_lon": 0.0, "bike_id": "caf7b0b3e2ab5a758615d7035f9fa9df", "name": "caf7b0b3e2ab5a758615d7035f9fa9df", "rental_uris": {"android": "https://dc.lft.to/lastmile_qr_scan", "ios": "https://dc.lft.to/lastmile_qr_scan"}, "lon": -77.04191083333333, "fusion_lat": 0.0, "is_disabled": 0, "is_reserved": 0, "lat": 38.92215016666667, "type": "electric_scooter"}, {"fusion_lon": 0.0, "bike_id": "9ba5ad3e0694030d364cac42c9fe9afb", "name": "9ba5ad3e0694030d364cac42c9fe9afb", "rental_uris": {"android": "https://dc.lft.to/lastmile_qr_scan", "ios": "https://dc.lft.to/lastmile_qr_scan"}, "lon": -77.019004, "fusion_lat": 0.0, "is_disabled": 0, "is_reserved": 0, "lat": 38.919176, "type": "electric_scooter"}, {"fusion_lon": 0.0, "bike_id": "b4f722afd2ad3d0517100dca154b8f14", "name": "b4f722afd2ad3d0517100dca154b8f14", "rental_uris": {"android": "https://dc.lft.to/lastmile_qr_scan", "ios": "https://dc.lft.to/lastmile_qr_scan"}, "lon": -77.0470125, "fusion_lat": 0.0, "is_disabled": 0, "is_reserved": 0, "lat": 38.921428, "type": "electric_scooter"}, {"fusion_lon": 0.0, "bike_id": "0da2e1ac3524c2958d772265740074d7", "name": "0da2e1ac3524c2958d772265740074d7", "rental_uris": {"android": "https://dc.lft.to/lastmile_qr_scan", "ios": "https://dc.lft.to/lastmile_qr_scan"}, "lon": -77.04508, "fusion_lat": 0.0, "is_disabled": 0, "is_reserved": 0, "lat": 38.90360016666666, "type": "electric_scooter"}, {"fusion_lon": 0.0, "bike_id": "ccd16005cf1e92036324684da8d5d980", "name": "ccd16005cf1e92036324684da8d5d980", "rental_uris": {"android": "https://dc.lft.to/lastmile_qr_scan", "ios": "https://dc.lft.to/lastmile_qr_scan"}, "lon": -77.0328825, "fusion_lat": 0.0, "is_disabled": 0, "is_reserved": 0, "lat": 38.93760983333333, "type": "electric_scooter"}, {"fusion_lon": 0.0, "bike_id": "5bfea6b80790952b54360b2bc9e41e66", "name": "5bfea6b80790952b54360b2bc9e41e66", "rental_uris": {"android": "https://dc.lft.to/lastmile_qr_scan", "ios": "https://dc.lft.to/lastmile_qr_scan"}, "lon": -76.97668766666666, "fusion_lat": 0.0, "is_disabled": 0, "is_reserved": 0, "lat": 38.84053383333333, "type": "electric_scooter"}, {"fusion_lon": 0.0, "bike_id": "fb99646694ca7a52e473eadc2270d312", "name": "fb99646694ca7a52e473eadc2270d312", "rental_uris": {"android": "https://dc.lft.to/lastmile_qr_scan", "ios": "https://dc.lft.to/lastmile_qr_scan"}, "lon": -76.95236333333334, "fusion_lat": 0.0, "is_disabled": 0, "is_reserved": 0, "lat": 38.884621, "type": "electric_bike"}, {"fusion_lon": 0.0, "bike_id": "aa4ee603ebff320ca1ccf5c24e9a64c2", "name": "aa4ee603ebff320ca1ccf5c24e9a64c2", "rental_uris": {"android": "https://dc.lft.to/lastmile_qr_scan", "ios": "https://dc.lft.to/lastmile_qr_scan"}, "lon": -77.04991483333333, "fusion_lat": 0.0, "is_disabled": 0, "is_reserved": 0, "lat": 38.90118666666667, "type": "electric_scooter"}, {"fusion_lon": 0.0, "bike_id": "a5b184b5524df5535dd71cf338651813", "name": "a5b184b5524df5535dd71cf338651813", "rental_uris": {"android": "https://dc.lft.to/lastmile_qr_scan", "ios": "https://dc.lft.to/lastmile_qr_scan"}, "lon": -77.01130583333334, "fusion_lat": 0.0, "is_disabled": 0, "is_reserved": 0, "lat": 38.9119155, "type": "electric_scooter"}, {"fusion_lon": 0.0, "bike_id": "52a5ded3bdfc889b4046443ab1591b70", "name": "52a5ded3bdfc889b4046443ab1591b70", "rental_uris": {"android": "https://dc.lft.to/lastmile_qr_scan", "ios": "https://dc.lft.to/lastmile_qr_scan"}, "lon": -77.04380533333334, "fusion_lat": 0.0, "is_disabled": 0, "is_reserved": 0, "lat": 38.934972, "type": "electric_scooter"}, {"fusion_lon": 0.0, "bike_id": "f0b970fd7539bbc8c05a9e6d296419ff", "name": "f0b970fd7539bbc8c05a9e6d296419ff", "rental_uris": {"android": "https://dc.lft.to/lastmile_qr_scan", "ios": "https://dc.lft.to/lastmile_qr_scan"}, "lon": -77.0295635, "fusion_lat": 0.0, "is_disabled": 0, "is_reserved": 0, "lat": 38.91895783333333, "type": "electric_scooter"}, {"fusion_lon": 0.0, "bike_id": "45137f4d67ceb9d4e37e94013035fdb0", "name": "45137f4d67ceb9d4e37e94013035fdb0", "rental_uris": {"android": "https://dc.lft.to/lastmile_qr_scan", "ios": "https://dc.lft.to/lastmile_qr_scan"}, "lon": -77.04073966666667, "fusion_lat": 0.0, "is_disabled": 0, "is_reserved": 0, "lat": 38.993806166666666, "type": "electric_bike"}, {"fusion_lon": 0.0, "bike_id": "26eedcc8f343200b424712c8dbea596b", "name": "26eedcc8f343200b424712c8dbea596b", "rental_uris": {"android": "https://dc.lft.to/lastmile_qr_scan", "ios": "https://dc.lft.to/lastmile_qr_scan"}, "lon": -76.93964866666667, "fusion_lat": 0.0, "is_disabled": 0, "is_reserved": 0, "lat": 38.988157333333334, "type": "electric_bike"}, {"fusion_lon": 0.0, "bike_id": "fb2c482f18dc9d44cb9afe1e95a46a3c", "name": "fb2c482f18dc9d44cb9afe1e95a46a3c", "rental_uris": {"android": "https://dc.lft.to/lastmile_qr_scan", "ios": "https://dc.lft.to/lastmile_qr_scan"}, "lon": -77.0725775, "fusion_lat": 0.0, "is_disabled": 0, "is_reserved": 0, "lat": 38.934422166666664, "type": "electric_scooter"}, {"fusion_lon": 0.0, "bike_id": "8b73759316533dbfc87b2bbffb25b681", "name": "8b73759316533dbfc87b2bbffb25b681", "rental_uris": {"android": "https://dc.lft.to/lastmile_qr_scan", "ios": "https://dc.lft.to/lastmile_qr_scan"}, "lon": -77.02204466666667, "fusion_lat": 0.0, "is_disabled": 0, "is_reserved": 0, "lat": 38.887172166666666, "type": "electric_scooter"}, {"fusion_lon": 0.0, "bike_id": "89dbf5b2ec4b7ddb3e0c78eb7a08ac6d", "name": "89dbf5b2ec4b7ddb3e0c78eb7a08ac6d", "rental_uris": {"android": "https://dc.lft.to/lastmile_qr_scan", "ios": "https://dc.lft.to/lastmile_qr_scan"}, "lon": -76.94974066666667, "fusion_lat": 0.0, "is_disabled": 0, "is_reserved": 0, "lat": 38.904243666666666, "type": "electric_scooter"}, {"fusion_lon": 0.0, "bike_id": "75eec43f2bfdc75a2b9e34be4a2f8ecb", "name": "75eec43f2bfdc75a2b9e34be4a2f8ecb", "rental_uris": {"android": "https://dc.lft.to/lastmile_qr_scan", "ios": "https://dc.lft.to/lastmile_qr_scan"}, "lon": -77.02303516666667, "fusion_lat": 0.0, "is_disabled": 0, "is_reserved": 0, "lat": 38.91839983333333, "type": "electric_scooter"}, {"fusion_lon": 0.0, "bike_id": "0641d7ff359c290d501fe7cfe7674902", "name": "0641d7ff359c290d501fe7cfe7674902", "rental_uris": {"android": "https://dc.lft.to/lastmile_qr_scan", "ios": "https://dc.lft.to/lastmile_qr_scan"}, "lon": -77.00152083333333, "fusion_lat": 0.0, "is_disabled": 0, "is_reserved": 0, "lat": 38.910788333333336, "type": "electric_scooter"}, {"fusion_lon": 0.0, "bike_id": "08ef709c2a79ba0359e2c49b7c8c037c", "name": "08ef709c2a79ba0359e2c49b7c8c037c", "rental_uris": {"android": "https://dc.lft.to/lastmile_qr_scan", "ios": "https://dc.lft.to/lastmile_qr_scan"}, "lon": -77.023783, "fusion_lat": 0.0, "is_disabled": 0, "is_reserved": 0, "lat": 38.8922135, "type": "electric_scooter"}, {"fusion_lon": 0.0, "bike_id": "6709318cb751a3b34b1f3922b1610d6a", "name": "6709318cb751a3b34b1f3922b1610d6a", "rental_uris": {"android": "https://dc.lft.to/lastmile_qr_scan", "ios": "https://dc.lft.to/lastmile_qr_scan"}, "lon": -77.06356516666666, "fusion_lat": 0.0, "is_disabled": 0, "is_reserved": 0, "lat": 38.94451883333333, "type": "electric_scooter"}, {"fusion_lon": 0.0, "bike_id": "e12d1d39f3bd28f77438986c6b7028d3", "name": "e12d1d39f3bd28f77438986c6b7028d3", "rental_uris": {"android": "https://dc.lft.to/lastmile_qr_scan", "ios": "https://dc.lft.to/lastmile_qr_scan"}, "lon": -76.98724583333333, "fusion_lat": 0.0, "is_disabled": 0, "is_reserved": 0, "lat": 38.903547833333334, "type": "electric_scooter"}, {"fusion_lon": 0.0, "bike_id": "1555398539c2172e684304d9f1e3f6a3", "name": "1555398539c2172e684304d9f1e3f6a3", "rental_uris": {"android": "https://dc.lft.to/lastmile_qr_scan", "ios": "https://dc.lft.to/lastmile_qr_scan"}, "lon": -77.038326, "fusion_lat": 0.0, "is_disabled": 0, "is_reserved": 0, "lat": 38.945067333333334, "type": "electric_scooter"}, {"fusion_lon": 0.0, "bike_id": "ca13d01fc20167de88896a1460e12b7a", "name": "ca13d01fc20167de88896a1460e12b7a", "rental_uris": {"android": "https://dc.lft.to/lastmile_qr_scan", "ios": "https://dc.lft.to/lastmile_qr_scan"}, "lon": -77.05036566666666, "fusion_lat": 0.0, "is_disabled": 0, "is_reserved": 0, "lat": 38.906196333333334, "type": "electric_scooter"}, {"fusion_lon": 0.0, "bike_id": "1077d8ae60b4149afb14f90957042757", "name": "1077d8ae60b4149afb14f90957042757", "rental_uris": {"android": "https://dc.lft.to/lastmile_qr_scan", "ios": "https://dc.lft.to/lastmile_qr_scan"}, "lon": -77.0278735, "fusion_lat": 0.0, "is_disabled": 0, "is_reserved": 0, "lat": 38.973527833333335, "type": "electric_scooter"}, {"fusion_lon": 0.0, "bike_id": "25f530b99e6285412c7e73ad4f041716", "name": "25f530b99e6285412c7e73ad4f041716", "rental_uris": {"android": "https://dc.lft.to/lastmile_qr_scan", "ios": "https://dc.lft.to/lastmile_qr_scan"}, "lon": -77.0236815, "fusion_lat": 0.0, "is_disabled": 0, "is_reserved": 0, "lat": 38.901988833333334, "type": "electric_scooter"}, {"fusion_lon": 0.0, "bike_id": "0e094d18b8dc81c77cca6ecb28fe63f6", "name": "0e094d18b8dc81c77cca6ecb28fe63f6", "rental_uris": {"android": "https://dc.lft.to/lastmile_qr_scan", "ios": "https://dc.lft.to/lastmile_qr_scan"}, "lon": -77.0196685, "fusion_lat": 0.0, "is_disabled": 0, "is_reserved": 0, "lat": 38.9190575, "type": "electric_scooter"}, {"fusion_lon": 0.0, "bike_id": "2f8fa6a12cdb142e7c7659e6febea322", "name": "2f8fa6a12cdb142e7c7659e6febea322", "rental_uris": {"android": "https://dc.lft.to/lastmile_qr_scan", "ios": "https://dc.lft.to/lastmile_qr_scan"}, "lon": -77.03222416666667, "fusion_lat": 0.0, "is_disabled": 0, "is_reserved": 0, "lat": 38.90962483333333, "type": "electric_scooter"}, {"fusion_lon": 0.0, "bike_id": "c9775c785c1ae23c99a76c13fd21b590", "name": "c9775c785c1ae23c99a76c13fd21b590", "rental_uris": {"android": "https://dc.lft.to/lastmile_qr_scan", "ios": "https://dc.lft.to/lastmile_qr_scan"}, "lon": -77.036661, "fusion_lat": 0.0, "is_disabled": 0, "is_reserved": 0, "lat": 38.932087833333334, "type": "electric_scooter"}, {"fusion_lon": 0.0, "bike_id": "4c30fe91b7bc89c83169bfb568f16f94", "name": "4c30fe91b7bc89c83169bfb568f16f94", "rental_uris": {"android": "https://dc.lft.to/lastmile_qr_scan", "ios": "https://dc.lft.to/lastmile_qr_scan"}, "lon": -77.03204383333333, "fusion_lat": 0.0, "is_disabled": 0, "is_reserved": 0, "lat": 38.91781833333334, "type": "electric_scooter"}, {"fusion_lon": 0.0, "bike_id": "7b1e6c4aaa35f4195c2a2d4406b28a53", "name": "7b1e6c4aaa35f4195c2a2d4406b28a53", "rental_uris": {"android": "https://dc.lft.to/lastmile_qr_scan", "ios": "https://dc.lft.to/lastmile_qr_scan"}, "lon": -77.02191416666666, "fusion_lat": 0.0, "is_disabled": 0, "is_reserved": 0, "lat": 38.89743983333334, "type": "electric_scooter"}, {"fusion_lon": 0.0, "bike_id": "6c7f22cafa36141d1cc48423966f08d7", "name": "6c7f22cafa36141d1cc48423966f08d7", "rental_uris": {"android": "https://dc.lft.to/lastmile_qr_scan", "ios": "https://dc.lft.to/lastmile_qr_scan"}, "lon": -77.005983, "fusion_lat": 0.0, "is_disabled": 0, "is_reserved": 0, "lat": 38.90627683333334, "type": "electric_scooter"}, {"fusion_lon": 0.0, "bike_id": "d45e260c0076c74e365381222b48f738", "name": "d45e260c0076c74e365381222b48f738", "rental_uris": {"android": "https://dc.lft.to/lastmile_qr_scan", "ios": "https://dc.lft.to/lastmile_qr_scan"}, "lon": -77.046558, "fusion_lat": 0.0, "is_disabled": 0, "is_reserved": 0, "lat": 38.89234166666667, "type": "electric_scooter"}, {"fusion_lon": 0.0, "bike_id": "2fc90d1dadba155ac67acbe5c0453e82", "name": "2fc90d1dadba155ac67acbe5c0453e82", "rental_uris": {"android": "https://dc.lft.to/lastmile_qr_scan", "ios": "https://dc.lft.to/lastmile_qr_scan"}, "lon": -77.04651516666667, "fusion_lat": 0.0, "is_disabled": 0, "is_reserved": 0, "lat": 38.899533, "type": "electric_scooter"}, {"fusion_lon": 0.0, "bike_id": "7e45ef4796f17ccbf444c1351f02a3a3", "name": "7e45ef4796f17ccbf444c1351f02a3a3", "rental_uris": {"android": "https://dc.lft.to/lastmile_qr_scan", "ios": "https://dc.lft.to/lastmile_qr_scan"}, "lon": -77.01994, "fusion_lat": 0.0, "is_disabled": 0, "is_reserved": 0, "lat": 38.89917366666667, "type": "electric_scooter"}, {"fusion_lon": 0.0, "bike_id": "556f9dbb99695f1e262d5ee701bf48be", "name": "556f9dbb99695f1e262d5ee701bf48be", "rental_uris": {"android": "https://dc.lft.to/lastmile_qr_scan", "ios": "https://dc.lft.to/lastmile_qr_scan"}, "lon": -76.97958233333334, "fusion_lat": 0.0, "is_disabled": 0, "is_reserved": 0, "lat": 38.892190666666664, "type": "electric_scooter"}, {"fusion_lon": 0.0, "bike_id": "2c05ae91aac2b01ea57b0004f29c0df3", "name": "2c05ae91aac2b01ea57b0004f29c0df3", "rental_uris": {"android": "https://dc.lft.to/lastmile_qr_scan", "ios": "https://dc.lft.to/lastmile_qr_scan"}, "lon": -77.07464583333334, "fusion_lat": 0.0, "is_disabled": 0, "is_reserved": 0, "lat": 38.93563266666666, "type": "electric_scooter"}, {"fusion_lon": 0.0, "bike_id": "60a9d3edf39c3edb173816c4995f3e30", "name": "60a9d3edf39c3edb173816c4995f3e30", "rental_uris": {"android": "https://dc.lft.to/lastmile_qr_scan", "ios": "https://dc.lft.to/lastmile_qr_scan"}, "lon": -77.04346633333333, "fusion_lat": 0.0, "is_disabled": 0, "is_reserved": 0, "lat": 38.905405333333334, "type": "electric_scooter"}, {"fusion_lon": 0.0, "bike_id": "c02ac06f26d841a55f8d902f34ebb899", "name": "c02ac06f26d841a55f8d902f34ebb899", "rental_uris": {"android": "https://dc.lft.to/lastmile_qr_scan", "ios": "https://dc.lft.to/lastmile_qr_scan"}, "lon": -77.04128716666666, "fusion_lat": 0.0, "is_disabled": 0, "is_reserved": 0, "lat": 38.921384, "type": "electric_scooter"}, {"fusion_lon": 0.0, "bike_id": "93a86d7ba583506330e92f8d6dda56c4", "name": "93a86d7ba583506330e92f8d6dda56c4", "rental_uris": {"android": "https://dc.lft.to/lastmile_qr_scan", "ios": "https://dc.lft.to/lastmile_qr_scan"}, "lon": -77.04355133333334, "fusion_lat": 0.0, "is_disabled": 0, "is_reserved": 0, "lat": 38.90367166666667, "type": "electric_scooter"}, {"fusion_lon": 0.0, "bike_id": "eab508c006cbf87e9b266392ab6314b8", "name": "eab508c006cbf87e9b266392ab6314b8", "rental_uris": {"android": "https://dc.lft.to/lastmile_qr_scan", "ios": "https://dc.lft.to/lastmile_qr_scan"}, "lon": -77.0616805, "fusion_lat": 0.0, "is_disabled": 0, "is_reserved": 0, "lat": 38.943121, "type": "electric_scooter"}, {"fusion_lon": 0.0, "bike_id": "5211fdba331002932891c7446321f496", "name": "5211fdba331002932891c7446321f496", "rental_uris": {"android": "https://dc.lft.to/lastmile_qr_scan", "ios": "https://dc.lft.to/lastmile_qr_scan"}, "lon": -76.9722065, "fusion_lat": 0.0, "is_disabled": 0, "is_reserved": 0, "lat": 38.9004055, "type": "electric_bike"}, {"fusion_lon": 0.0, "bike_id": "655619cf5c38604eac6e1c19556bafb7", "name": "655619cf5c38604eac6e1c19556bafb7", "rental_uris": {"android": "https://dc.lft.to/lastmile_qr_scan", "ios": "https://dc.lft.to/lastmile_qr_scan"}, "lon": -77.0399605, "fusion_lat": 0.0, "is_disabled": 0, "is_reserved": 0, "lat": 38.924582666666666, "type": "electric_scooter"}, {"fusion_lon": 0.0, "bike_id": "f3fca78be05fcb4ccb66496860814f74", "name": "f3fca78be05fcb4ccb66496860814f74", "rental_uris": {"android": "https://dc.lft.to/lastmile_qr_scan", "ios": "https://dc.lft.to/lastmile_qr_scan"}, "lon": -77.03215433333334, "fusion_lat": 0.0, "is_disabled": 0, "is_reserved": 0, "lat": 38.9192775, "type": "electric_scooter"}, {"fusion_lon": 0.0, "bike_id": "8981fcaaefbf1b54eeccfcc783457d4b", "name": "8981fcaaefbf1b54eeccfcc783457d4b", "rental_uris": {"android": "https://dc.lft.to/lastmile_qr_scan", "ios": "https://dc.lft.to/lastmile_qr_scan"}, "lon": -77.07661083333333, "fusion_lat": 0.0, "is_disabled": 0, "is_reserved": 0, "lat": 38.809802, "type": "electric_bike"}, {"fusion_lon": 0.0, "bike_id": "822a04eff1d8c7c798d7e28c8a64ea78", "name": "822a04eff1d8c7c798d7e28c8a64ea78", "rental_uris": {"android": "https://dc.lft.to/lastmile_qr_scan", "ios": "https://dc.lft.to/lastmile_qr_scan"}, "lon": -77.02576233333333, "fusion_lat": 0.0, "is_disabled": 0, "is_reserved": 0, "lat": 38.92046666666667, "type": "electric_scooter"}, {"fusion_lon": 0.0, "bike_id": "0edc0efa028effbd27bbedce32a0e091", "name": "0edc0efa028effbd27bbedce32a0e091", "rental_uris": {"android": "https://dc.lft.to/lastmile_qr_scan", "ios": "https://dc.lft.to/lastmile_qr_scan"}, "lon": -77.05340516666666, "fusion_lat": 0.0, "is_disabled": 0, "is_reserved": 0, "lat": 38.89883416666667, "type": "electric_scooter"}, {"fusion_lon": 0.0, "bike_id": "b524022fdb27a2c6a1e460f98661cbe0", "name": "b524022fdb27a2c6a1e460f98661cbe0", "rental_uris": {"android": "https://dc.lft.to/lastmile_qr_scan", "ios": "https://dc.lft.to/lastmile_qr_scan"}, "lon": -77.04500516666667, "fusion_lat": 0.0, "is_disabled": 0, "is_reserved": 0, "lat": 38.89944166666667, "type": "electric_scooter"}, {"fusion_lon": 0.0, "bike_id": "537976a7bfcc3bdb1c2eee78e4dae42f", "name": "537976a7bfcc3bdb1c2eee78e4dae42f", "rental_uris": {"android": "https://dc.lft.to/lastmile_qr_scan", "ios": "https://dc.lft.to/lastmile_qr_scan"}, "lon": -77.0419125, "fusion_lat": 0.0, "is_disabled": 0, "is_reserved": 0, "lat": 38.897424, "type": "electric_scooter"}, {"fusion_lon": 0.0, "bike_id": "0341c06eafc9d5c8c4f89eed8c4265f2", "name": "0341c06eafc9d5c8c4f89eed8c4265f2", "rental_uris": {"android": "https://dc.lft.to/lastmile_qr_scan", "ios": "https://dc.lft.to/lastmile_qr_scan"}, "lon": -76.98512766666667, "fusion_lat": 0.0, "is_disabled": 0, "is_reserved": 0, "lat": 38.87994233333333, "type": "electric_scooter"}, {"fusion_lon": 0.0, "bike_id": "78a8bc2339ec7fbbec0fd3f1d4042332", "name": "78a8bc2339ec7fbbec0fd3f1d4042332", "rental_uris": {"android": "https://dc.lft.to/lastmile_qr_scan", "ios": "https://dc.lft.to/lastmile_qr_scan"}, "lon": -76.97526783333333, "fusion_lat": 0.0, "is_disabled": 0, "is_reserved": 0, "lat": 38.84006316666667, "type": "electric_bike"}, {"fusion_lon": 0.0, "bike_id": "274b040c01cef4c969200a52dc51fe8e", "name": "274b040c01cef4c969200a52dc51fe8e", "rental_uris": {"android": "https://dc.lft.to/lastmile_qr_scan", "ios": "https://dc.lft.to/lastmile_qr_scan"}, "lon": -77.0379565, "fusion_lat": 0.0, "is_disabled": 0, "is_reserved": 0, "lat": 38.90245216666667, "type": "electric_scooter"}, {"fusion_lon": 0.0, "bike_id": "c2eef71f4964f07f06398342251b2134", "name": "c2eef71f4964f07f06398342251b2134", "rental_uris": {"android": "https://dc.lft.to/lastmile_qr_scan", "ios": "https://dc.lft.to/lastmile_qr_scan"}, "lon": -76.9650605, "fusion_lat": 0.0, "is_disabled": 0, "is_reserved": 0, "lat": 38.876481, "type": "electric_scooter"}, {"fusion_lon": 0.0, "bike_id": "8da344d543986f8a550c8f80e0275d54", "name": "8da344d543986f8a550c8f80e0275d54", "rental_uris": {"android": "https://dc.lft.to/lastmile_qr_scan", "ios": "https://dc.lft.to/lastmile_qr_scan"}, "lon": -77.0402305, "fusion_lat": 0.0, "is_disabled": 0, "is_reserved": 0, "lat": 38.90146633333333, "type": "electric_scooter"}, {"fusion_lon": 0.0, "bike_id": "be71d21e0782578d39b3ee7092437c34", "name": "be71d21e0782578d39b3ee7092437c34", "rental_uris": {"android": "https://dc.lft.to/lastmile_qr_scan", "ios": "https://dc.lft.to/lastmile_qr_scan"}, "lon": -77.05595516666666, "fusion_lat": 0.0, "is_disabled": 0, "is_reserved": 0, "lat": 39.0396445, "type": "electric_bike"}, {"fusion_lon": 0.0, "bike_id": "3dd3a89ded776a6fb04851be184727ba", "name": "3dd3a89ded776a6fb04851be184727ba", "rental_uris": {"android": "https://dc.lft.to/lastmile_qr_scan", "ios": "https://dc.lft.to/lastmile_qr_scan"}, "lon": -77.05139183333333, "fusion_lat": 0.0, "is_disabled": 0, "is_reserved": 0, "lat": 38.90646016666667, "type": "electric_scooter"}, {"fusion_lon": 0.0, "bike_id": "484cdc39d0b9774ba76328fb20002bd9", "name": "484cdc39d0b9774ba76328fb20002bd9", "rental_uris": {"android": "https://dc.lft.to/lastmile_qr_scan", "ios": "https://dc.lft.to/lastmile_qr_scan"}, "lon": -77.03795366666667, "fusion_lat": 0.0, "is_disabled": 0, "is_reserved": 0, "lat": 38.90689366666667, "type": "electric_scooter"}, {"fusion_lon": 0.0, "bike_id": "e89c05975e9e18f483144140275bc89c", "name": "e89c05975e9e18f483144140275bc89c", "rental_uris": {"android": "https://dc.lft.to/lastmile_qr_scan", "ios": "https://dc.lft.to/lastmile_qr_scan"}, "lon": -77.03358983333334, "fusion_lat": 0.0, "is_disabled": 0, "is_reserved": 0, "lat": 38.9289155, "type": "electric_scooter"}, {"fusion_lon": 0.0, "bike_id": "df6b40367756539f0e21624834299159", "name": "df6b40367756539f0e21624834299159", "rental_uris": {"android": "https://dc.lft.to/lastmile_qr_scan", "ios": "https://dc.lft.to/lastmile_qr_scan"}, "lon": -77.03163233333333, "fusion_lat": 0.0, "is_disabled": 0, "is_reserved": 0, "lat": 38.89235083333333, "type": "electric_scooter"}, {"fusion_lon": 0.0, "bike_id": "403c0d7ef147ed763be0ba41bc220f0c", "name": "403c0d7ef147ed763be0ba41bc220f0c", "rental_uris": {"android": "https://dc.lft.to/lastmile_qr_scan", "ios": "https://dc.lft.to/lastmile_qr_scan"}, "lon": -77.04679166666666, "fusion_lat": 0.0, "is_disabled": 0, "is_reserved": 0, "lat": 38.895103666666664, "type": "electric_scooter"}, {"fusion_lon": 0.0, "bike_id": "253f09a7bface6d49af4414911776427", "name": "253f09a7bface6d49af4414911776427", "rental_uris": {"android": "https://dc.lft.to/lastmile_qr_scan", "ios": "https://dc.lft.to/lastmile_qr_scan"}, "lon": -77.043797, "fusion_lat": 0.0, "is_disabled": 0, "is_reserved": 0, "lat": 38.90743066666667, "type": "electric_scooter"}, {"fusion_lon": 0.0, "bike_id": "b102b498a4c7e1677b6a5582da876482", "name": "b102b498a4c7e1677b6a5582da876482", "rental_uris": {"android": "https://dc.lft.to/lastmile_qr_scan", "ios": "https://dc.lft.to/lastmile_qr_scan"}, "lon": -77.02950183333333, "fusion_lat": 0.0, "is_disabled": 0, "is_reserved": 0, "lat": 38.88398933333333, "type": "electric_scooter"}, {"fusion_lon": 0.0, "bike_id": "cf50a800a3812e4060926ec8eebb058e", "name": "cf50a800a3812e4060926ec8eebb058e", "rental_uris": {"android": "https://dc.lft.to/lastmile_qr_scan", "ios": "https://dc.lft.to/lastmile_qr_scan"}, "lon": -76.98439816666667, "fusion_lat": 0.0, "is_disabled": 0, "is_reserved": 0, "lat": 38.91435666666667, "type": "electric_scooter"}, {"fusion_lon": 0.0, "bike_id": "f0c38ad2f4780f6c054e03ccabec2bc4", "name": "f0c38ad2f4780f6c054e03ccabec2bc4", "rental_uris": {"android": "https://dc.lft.to/lastmile_qr_scan", "ios": "https://dc.lft.to/lastmile_qr_scan"}, "lon": -77.05590533333333, "fusion_lat": 0.0, "is_disabled": 0, "is_reserved": 0, "lat": 39.03957916666667, "type": "electric_bike"}, {"fusion_lon": 0.0, "bike_id": "8f86e443e0faf679fd9382e18a155516", "name": "8f86e443e0faf679fd9382e18a155516", "rental_uris": {"android": "https://dc.lft.to/lastmile_qr_scan", "ios": "https://dc.lft.to/lastmile_qr_scan"}, "lon": -76.973307, "fusion_lat": 0.0, "is_disabled": 0, "is_reserved": 0, "lat": 38.904106, "type": "electric_scooter"}, {"fusion_lon": 0.0, "bike_id": "8764e1051d0c8e95388d5d86f0eef3dc", "name": "8764e1051d0c8e95388d5d86f0eef3dc", "rental_uris": {"android": "https://dc.lft.to/lastmile_qr_scan", "ios": "https://dc.lft.to/lastmile_qr_scan"}, "lon": -77.03768783333334, "fusion_lat": 0.0, "is_disabled": 0, "is_reserved": 0, "lat": 38.927092333333334, "type": "electric_scooter"}, {"fusion_lon": 0.0, "bike_id": "6e511bb326554243267571547784f979", "name": "6e511bb326554243267571547784f979", "rental_uris": {"android": "https://dc.lft.to/lastmile_qr_scan", "ios": "https://dc.lft.to/lastmile_qr_scan"}, "lon": -77.02926066666667, "fusion_lat": 0.0, "is_disabled": 0, "is_reserved": 0, "lat": 38.94285333333333, "type": "electric_scooter"}, {"fusion_lon": 0.0, "bike_id": "f4b3f6bd1642c38efd50baecb25b15db", "name": "f4b3f6bd1642c38efd50baecb25b15db", "rental_uris": {"android": "https://dc.lft.to/lastmile_qr_scan", "ios": "https://dc.lft.to/lastmile_qr_scan"}, "lon": -77.005793, "fusion_lat": 0.0, "is_disabled": 0, "is_reserved": 0, "lat": 38.8776335, "type": "electric_scooter"}, {"fusion_lon": 0.0, "bike_id": "76f55e0fd164394d8bed55d0ca5ddf77", "name": "76f55e0fd164394d8bed55d0ca5ddf77", "rental_uris": {"android": "https://dc.lft.to/lastmile_qr_scan", "ios": "https://dc.lft.to/lastmile_qr_scan"}, "lon": -77.031748, "fusion_lat": 0.0, "is_disabled": 0, "is_reserved": 0, "lat": 38.887336166666664, "type": "electric_scooter"}, {"fusion_lon": 0.0, "bike_id": "08b995d4baa7e2493b7a6fe0735f2f5d", "name": "08b995d4baa7e2493b7a6fe0735f2f5d", "rental_uris": {"android": "https://dc.lft.to/lastmile_qr_scan", "ios": "https://dc.lft.to/lastmile_qr_scan"}, "lon": -77.03434216666666, "fusion_lat": 0.0, "is_disabled": 0, "is_reserved": 0, "lat": 38.90993983333333, "type": "electric_bike"}, {"fusion_lon": 0.0, "bike_id": "7a149bf1dcee75e66b228b862e6056fb", "name": "7a149bf1dcee75e66b228b862e6056fb", "rental_uris": {"android": "https://dc.lft.to/lastmile_qr_scan", "ios": "https://dc.lft.to/lastmile_qr_scan"}, "lon": -77.046309, "fusion_lat": 0.0, "is_disabled": 0, "is_reserved": 0, "lat": 38.90361, "type": "electric_scooter"}, {"fusion_lon": 0.0, "bike_id": "923f510612291ee5e4b627e3c371f6f8", "name": "923f510612291ee5e4b627e3c371f6f8", "rental_uris": {"android": "https://dc.lft.to/lastmile_qr_scan", "ios": "https://dc.lft.to/lastmile_qr_scan"}, "lon": -76.97994816666667, "fusion_lat": 0.0, "is_disabled": 0, "is_reserved": 0, "lat": 38.93405683333334, "type": "electric_bike"}, {"fusion_lon": 0.0, "bike_id": "a9774153c3c23b59d9a49ffad904c004", "name": "a9774153c3c23b59d9a49ffad904c004", "rental_uris": {"android": "https://dc.lft.to/lastmile_qr_scan", "ios": "https://dc.lft.to/lastmile_qr_scan"}, "lon": -77.04650833333334, "fusion_lat": 0.0, "is_disabled": 0, "is_reserved": 0, "lat": 38.91029233333333, "type": "electric_scooter"}, {"fusion_lon": 0.0, "bike_id": "60a4d17475d79f3c2d3c3b6689c9b5f8", "name": "60a4d17475d79f3c2d3c3b6689c9b5f8", "rental_uris": {"android": "https://dc.lft.to/lastmile_qr_scan", "ios": "https://dc.lft.to/lastmile_qr_scan"}, "lon": -77.00294383333333, "fusion_lat": 0.0, "is_disabled": 0, "is_reserved": 0, "lat": 38.89234716666667, "type": "electric_scooter"}, {"fusion_lon": 0.0, "bike_id": "e8c6a5b9cd16eba7330bee0f0d3eacaa", "name": "e8c6a5b9cd16eba7330bee0f0d3eacaa", "rental_uris": {"android": "https://dc.lft.to/lastmile_qr_scan", "ios": "https://dc.lft.to/lastmile_qr_scan"}, "lon": -77.01829166666667, "fusion_lat": 0.0, "is_disabled": 0, "is_reserved": 0, "lat": 38.92263033333333, "type": "electric_scooter"}, {"fusion_lon": 0.0, "bike_id": "fd6428f878f222a2970cb7f6f98b85e9", "name": "fd6428f878f222a2970cb7f6f98b85e9", "rental_uris": {"android": "https://dc.lft.to/lastmile_qr_scan", "ios": "https://dc.lft.to/lastmile_qr_scan"}, "lon": -77.04517166666666, "fusion_lat": 0.0, "is_disabled": 0, "is_reserved": 0, "lat": 38.901114, "type": "electric_scooter"}, {"fusion_lon": 0.0, "bike_id": "f652545910ce93fafaa408dba8ed2b68", "name": "f652545910ce93fafaa408dba8ed2b68", "rental_uris": {"android": "https://dc.lft.to/lastmile_qr_scan", "ios": "https://dc.lft.to/lastmile_qr_scan"}, "lon": -77.03242816666666, "fusion_lat": 0.0, "is_disabled": 0, "is_reserved": 0, "lat": 38.937665, "type": "electric_scooter"}, {"fusion_lon": 0.0, "bike_id": "e9936121a2fee66bf4ece834d7c85068", "name": "e9936121a2fee66bf4ece834d7c85068", "rental_uris": {"android": "https://dc.lft.to/lastmile_qr_scan", "ios": "https://dc.lft.to/lastmile_qr_scan"}, "lon": -77.06949416666667, "fusion_lat": 0.0, "is_disabled": 0, "is_reserved": 0, "lat": 38.917326833333334, "type": "electric_scooter"}, {"fusion_lon": 0.0, "bike_id": "083b0eb9f7902da0d374234b7150a10c", "name": "083b0eb9f7902da0d374234b7150a10c", "rental_uris": {"android": "https://dc.lft.to/lastmile_qr_scan", "ios": "https://dc.lft.to/lastmile_qr_scan"}, "lon": -77.05437066666667, "fusion_lat": 0.0, "is_disabled": 0, "is_reserved": 0, "lat": 38.8960545, "type": "electric_scooter"}, {"fusion_lon": 0.0, "bike_id": "ca286de408c15b87f5cafce369ffb877", "name": "ca286de408c15b87f5cafce369ffb877", "rental_uris": {"android": "https://dc.lft.to/lastmile_qr_scan", "ios": "https://dc.lft.to/lastmile_qr_scan"}, "lon": -76.94052516666666, "fusion_lat": 0.0, "is_disabled": 0, "is_reserved": 0, "lat": 38.9559765, "type": "electric_bike"}, {"fusion_lon": 0.0, "bike_id": "3377e3725b49c7037b893df060d1d6a4", "name": "3377e3725b49c7037b893df060d1d6a4", "rental_uris": {"android": "https://dc.lft.to/lastmile_qr_scan", "ios": "https://dc.lft.to/lastmile_qr_scan"}, "lon": -77.0168115, "fusion_lat": 0.0, "is_disabled": 0, "is_reserved": 0, "lat": 38.91960816666667, "type": "electric_scooter"}, {"fusion_lon": 0.0, "bike_id": "b8b1155a9ba251a993b0893f433f65af", "name": "b8b1155a9ba251a993b0893f433f65af", "rental_uris": {"android": "https://dc.lft.to/lastmile_qr_scan", "ios": "https://dc.lft.to/lastmile_qr_scan"}, "lon": -77.036295, "fusion_lat": 0.0, "is_disabled": 0, "is_reserved": 0, "lat": 38.93935233333333, "type": "electric_scooter"}, {"fusion_lon": 0.0, "bike_id": "600cc1ab467351b030ef0b7b8e69a566", "name": "600cc1ab467351b030ef0b7b8e69a566", "rental_uris": {"android": "https://dc.lft.to/lastmile_qr_scan", "ios": "https://dc.lft.to/lastmile_qr_scan"}, "lon": -77.058483, "fusion_lat": 0.0, "is_disabled": 0, "is_reserved": 0, "lat": 38.93057683333333, "type": "electric_scooter"}, {"fusion_lon": 0.0, "bike_id": "428838b505bd380257910e16ec1d476e", "name": "428838b505bd380257910e16ec1d476e", "rental_uris": {"android": "https://dc.lft.to/lastmile_qr_scan", "ios": "https://dc.lft.to/lastmile_qr_scan"}, "lon": -77.038441, "fusion_lat": 0.0, "is_disabled": 0, "is_reserved": 0, "lat": 38.906796, "type": "electric_scooter"}, {"fusion_lon": 0.0, "bike_id": "c46b2ed719a682dc6eb8bdffdb601605", "name": "c46b2ed719a682dc6eb8bdffdb601605", "rental_uris": {"android": "https://dc.lft.to/lastmile_qr_scan", "ios": "https://dc.lft.to/lastmile_qr_scan"}, "lon": -77.02576966666666, "fusion_lat": 0.0, "is_disabled": 0, "is_reserved": 0, "lat": 38.92048066666667, "type": "electric_scooter"}, {"fusion_lon": 0.0, "bike_id": "571d247d333a59dd115721150f423004", "name": "571d247d333a59dd115721150f423004", "rental_uris": {"android": "https://dc.lft.to/lastmile_qr_scan", "ios": "https://dc.lft.to/lastmile_qr_scan"}, "lon": -77.00640266666667, "fusion_lat": 0.0, "is_disabled": 0, "is_reserved": 0, "lat": 38.8718555, "type": "electric_scooter"}, {"fusion_lon": 0.0, "bike_id": "d5864354868e7b5bf32e86b756376d0f", "name": "d5864354868e7b5bf32e86b756376d0f", "rental_uris": {"android": "https://dc.lft.to/lastmile_qr_scan", "ios": "https://dc.lft.to/lastmile_qr_scan"}, "lon": -77.00768116666667, "fusion_lat": 0.0, "is_disabled": 0, "is_reserved": 0, "lat": 38.874807833333335, "type": "electric_bike"}, {"fusion_lon": 0.0, "bike_id": "68ef7d3a196d84b6eb7254c833e9feef", "name": "68ef7d3a196d84b6eb7254c833e9feef", "rental_uris": {"android": "https://dc.lft.to/lastmile_qr_scan", "ios": "https://dc.lft.to/lastmile_qr_scan"}, "lon": -77.00167383333333, "fusion_lat": 0.0, "is_disabled": 0, "is_reserved": 0, "lat": 38.87370166666667, "type": "electric_scooter"}, {"fusion_lon": 0.0, "bike_id": "ab8b245418e5bfc5ce21f689923255e1", "name": "ab8b245418e5bfc5ce21f689923255e1", "rental_uris": {"android": "https://dc.lft.to/lastmile_qr_scan", "ios": "https://dc.lft.to/lastmile_qr_scan"}, "lon": -77.02841216666667, "fusion_lat": 0.0, "is_disabled": 0, "is_reserved": 0, "lat": 38.9426365, "type": "electric_bike"}, {"fusion_lon": 0.0, "bike_id": "80ac3deb2068dea1e0d2e07bf74e2c0c", "name": "80ac3deb2068dea1e0d2e07bf74e2c0c", "rental_uris": {"android": "https://dc.lft.to/lastmile_qr_scan", "ios": "https://dc.lft.to/lastmile_qr_scan"}, "lon": -77.0203735, "fusion_lat": 0.0, "is_disabled": 0, "is_reserved": 0, "lat": 38.899646, "type": "electric_scooter"}, {"fusion_lon": 0.0, "bike_id": "3cbe0c5da01f3bbd01ae9c7beb6d64d6", "name": "3cbe0c5da01f3bbd01ae9c7beb6d64d6", "rental_uris": {"android": "https://dc.lft.to/lastmile_qr_scan", "ios": "https://dc.lft.to/lastmile_qr_scan"}, "lon": -77.03183516666667, "fusion_lat": 0.0, "is_disabled": 0, "is_reserved": 0, "lat": 38.91198216666667, "type": "electric_scooter"}, {"fusion_lon": 0.0, "bike_id": "56f86b7e5c4c58208234ebcfe448417f", "name": "56f86b7e5c4c58208234ebcfe448417f", "rental_uris": {"android": "https://dc.lft.to/lastmile_qr_scan", "ios": "https://dc.lft.to/lastmile_qr_scan"}, "lon": -77.0200155, "fusion_lat": 0.0, "is_disabled": 0, "is_reserved": 0, "lat": 38.96445633333333, "type": "electric_scooter"}, {"fusion_lon": 0.0, "bike_id": "514164c49bc258de06282913e1fd60cd", "name": "514164c49bc258de06282913e1fd60cd", "rental_uris": {"android": "https://dc.lft.to/lastmile_qr_scan", "ios": "https://dc.lft.to/lastmile_qr_scan"}, "lon": -77.017599, "fusion_lat": 0.0, "is_disabled": 0, "is_reserved": 0, "lat": 38.8772495, "type": "electric_scooter"}, {"fusion_lon": 0.0, "bike_id": "31fd8415a8603d1462f40aa1d60c43ac", "name": "31fd8415a8603d1462f40aa1d60c43ac", "rental_uris": {"android": "https://dc.lft.to/lastmile_qr_scan", "ios": "https://dc.lft.to/lastmile_qr_scan"}, "lon": -77.00894816666667, "fusion_lat": 0.0, "is_disabled": 0, "is_reserved": 0, "lat": 38.955693833333335, "type": "electric_scooter"}, {"fusion_lon": 0.0, "bike_id": "d3ecbbf4317f4228e902f485f1546f64", "name": "d3ecbbf4317f4228e902f485f1546f64", "rental_uris": {"android": "https://dc.lft.to/lastmile_qr_scan", "ios": "https://dc.lft.to/lastmile_qr_scan"}, "lon": -77.0409925, "fusion_lat": 0.0, "is_disabled": 0, "is_reserved": 0, "lat": 38.89859416666667, "type": "electric_scooter"}, {"fusion_lon": 0.0, "bike_id": "665bc14dd1b12b4035ddb218c46d1216", "name": "665bc14dd1b12b4035ddb218c46d1216", "rental_uris": {"android": "https://dc.lft.to/lastmile_qr_scan", "ios": "https://dc.lft.to/lastmile_qr_scan"}, "lon": -77.01231966666667, "fusion_lat": 0.0, "is_disabled": 0, "is_reserved": 0, "lat": 38.89343066666667, "type": "electric_scooter"}, {"fusion_lon": 0.0, "bike_id": "a13df322651edaedcee9352eedb1b3cb", "name": "a13df322651edaedcee9352eedb1b3cb", "rental_uris": {"android": "https://dc.lft.to/lastmile_qr_scan", "ios": "https://dc.lft.to/lastmile_qr_scan"}, "lon": -77.01948083333333, "fusion_lat": 0.0, "is_disabled": 0, "is_reserved": 0, "lat": 38.923273, "type": "electric_scooter"}, {"fusion_lon": 0.0, "bike_id": "54225079aa519e0e71992117b263fbff", "name": "54225079aa519e0e71992117b263fbff", "rental_uris": {"android": "https://dc.lft.to/lastmile_qr_scan", "ios": "https://dc.lft.to/lastmile_qr_scan"}, "lon": -77.0901395, "fusion_lat": 0.0, "is_disabled": 0, "is_reserved": 0, "lat": 38.92662283333333, "type": "electric_bike"}, {"fusion_lon": 0.0, "bike_id": "9dd08bac5ad6afdcfeb3d35f479e4400", "name": "9dd08bac5ad6afdcfeb3d35f479e4400", "rental_uris": {"android": "https://dc.lft.to/lastmile_qr_scan", "ios": "https://dc.lft.to/lastmile_qr_scan"}, "lon": -77.04177416666667, "fusion_lat": 0.0, "is_disabled": 0, "is_reserved": 0, "lat": 38.8993855, "type": "electric_scooter"},