{"data": {"bikes": [{"fusion_lat": 0.0, "name": "84a398abf2af3312fb7b5794f732ffc6", "is_disabled": 0, "rental_uris": {"android": "https://dc.lft.to/lastmile_qr_scan", "ios": "https://dc.lft.to/lastmile_qr_scan"}, "fusion_lon": 0.0, "lat": 38.87710716666667, "bike_id": "84a398abf2af3312fb7b5794f732ffc6", "type": "electric_scooter", "is_reserved": 0, "lon": -76.99378233333333}, {"fusion_lat": 0.0, "name": "c8b0b8ca1fc124c42f9e97e86defcb83", "is_disabled": 0, "rental_uris": {"android": "https://dc.lft.to/lastmile_qr_scan", "ios": "https://dc.lft.to/lastmile_qr_scan"}, "fusion_lon": 0.0, "lat": 38.9278445, "bike_id": "c8b0b8ca1fc124c42f9e97e86defcb83", "type": "electric_scooter", "is_reserved": 0, "lon": -77.05284083333333}, {"fusion_lat": 0.0, "name": "6cf0162f4394f2181c1084299340244e", "is_disabled": 0, "rental_uris": {"android": "https://dc.lft.to/lastmile_qr_scan", "ios": "https://dc.lft.to/lastmile_qr_scan"}, "fusion_lon": 0.0, "lat": 38.9170855, "bike_id": "6cf0162f4394f2181c1084299340244e", "type": "electric_scooter", "is_reserved": 0, "lon": -77.04217733333333}, {"fusion_lat": 0.0, "name": "c59c060af765f39a79e530012da051ae", "is_disabled": 0, "rental_uris": {"android": "https://dc.lft.to/lastmile_qr_scan", "ios": "https://dc.lft.to/lastmile_qr_scan"}, "fusion_lon": 0.0, "lat": 38.8966125, "bike_id": "c59c060af765f39a79e530012da051ae", "type": "electric_scooter", "is_reserved": 0, "lon": -77.04354716666667}, {"fusion_lat": 0.0, "name": "f28ab12dede243c20770f1bf21370318", "is_disabled": 0, "rental_uris": {"android": "https://dc.lft.to/lastmile_qr_scan", "ios": "https://dc.lft.to/lastmile_qr_scan"}, "fusion_lon": 0.0, "lat": 38.9173575, "bike_id": "f28ab12dede243c20770f1bf21370318", "type": "electric_scooter", "is_reserved": 0, "lon": -77.041561}, {"fusion_lat": 0.0, "name": "6b7cc22100aa0aa4001801b71edd3408", "is_disabled": 0, "rental_uris": {"android": "https://dc.lft.to/lastmile_qr_scan", "ios": "https://dc.lft.to/lastmile_qr_scan"}, "fusion_lon": 0.0, "lat": 38.89607316666667, "bike_id": "6b7cc22100aa0aa4001801b71edd3408", "type": "electric_scooter", "is_reserved": 0, "lon": -77.009253}, {"fusion_lat": 0.0, "name": "1726465313f9bea8d1da580b2ebe04b1", "is_disabled": 0, "rental_uris": {"android": "https://dc.lft.to/lastmile_qr_scan", "ios": "https://dc.lft.to/lastmile_qr_scan"}, "fusion_lon": 0.0, "lat": 38.89878233333334, "bike_id": "1726465313f9bea8d1da580b2ebe04b1", "type": "electric_scooter", "is_reserved": 0, "lon": -76.93185616666666}, {"fusion_lat": 0.0, "name": "68a8a4d581de7eafaf34ccba1869f1b0", "is_disabled": 0, "rental_uris": {"android": "https://dc.lft.to/lastmile_qr_scan", "ios": "https://dc.lft.to/lastmile_qr_scan"}, "fusion_lon": 0.0, "lat": 38.90448333333333, "bike_id": "68a8a4d581de7eafaf34ccba1869f1b0", "type": "electric_scooter", "is_reserved": 0, "lon": -77.01766616666667}, {"fusion_lat": 0.0, "name": "959cb3777841d95376c32af1870870c2", "is_disabled": 0, "rental_uris": {"android": "https://dc.lft.to/lastmile_qr_scan", "ios": "https://dc.lft.to/lastmile_qr_scan"}, "fusion_lon": 0.0, "lat": 38.88612666666667, "bike_id": "959cb3777841d95376c32af1870870c2", "type": "electric_scooter", "is_reserved": 0, "lon": -77.01555}, {"fusion_lat": 0.0, "name": "f8db66d3bd9c2cf42f4b7461aeaa209f", "is_disabled": 0, "rental_uris": {"android": "https://dc.lft.to/lastmile_qr_scan", "ios": "https://dc.lft.to/lastmile_qr_scan"}, "fusion_lon": 0.0, "lat": 38.91918183333333, "bike_id": "f8db66d3bd9c2cf42f4b7461aeaa209f", "type": "electric_scooter", "is_reserved": 0, "lon": -77.024639}, {"fusion_lat": 0.0, "name": "fd2e0187118e88b0bb163b9314706b1c", "is_disabled": 0, "rental_uris": {"android": "https://dc.lft.to/lastmile_qr_scan", "ios": "https://dc.lft.to/lastmile_qr_scan"}, "fusion_lon": 0.0, "lat": 38.92067466666666, "bike_id": "fd2e0187118e88b0bb163b9314706b1c", "type": "electric_scooter", "is_reserved": 0, "lon": -77.03260683333333}, {"fusion_lat": 0.0, "name": "c5fd9b8fbc0dda91d4df74e287abe820", "is_disabled": 0, "rental_uris": {"android": "https://dc.lft.to/lastmile_qr_scan", "ios": "https://dc.lft.to/lastmile_qr_scan"}, "fusion_lon": 0.0, "lat": 38.857021, "bike_id": "c5fd9b8fbc0dda91d4df74e287abe820", "type": "electric_scooter", "is_reserved": 0, "lon": -76.996017}, {"fusion_lat": 0.0, "name": "fe48fe24f35f082388db4bc3ca939461", "is_disabled": 0, "rental_uris": {"android": "https://dc.lft.to/lastmile_qr_scan", "ios": "https://dc.lft.to/lastmile_qr_scan"}, "fusion_lon": 0.0, "lat": 38.91576416666667, "bike_id": "fe48fe24f35f082388db4bc3ca939461", "type": "electric_scooter", "is_reserved": 0, "lon": -77.0378365}, {"fusion_lat": 0.0, "name": "f24e25710307e8e88a1c09c88b409b82", "is_disabled": 0, "rental_uris": {"android": "https://dc.lft.to/lastmile_qr_scan", "ios": "https://dc.lft.to/lastmile_qr_scan"}, "fusion_lon": 0.0, "lat": 38.90245266666667, "bike_id": "f24e25710307e8e88a1c09c88b409b82", "type": "electric_scooter", "is_reserved": 0, "lon": -77.0236275}, {"fusion_lat": 0.0, "name": "3163aa7889c73648eb2628681963e35f", "is_disabled": 0, "rental_uris": {"android": "https://dc.lft.to/lastmile_qr_scan", "ios": "https://dc.lft.to/lastmile_qr_scan"}, "fusion_lon": 0.0, "lat": 38.932205333333336, "bike_id": "3163aa7889c73648eb2628681963e35f", "type": "electric_scooter", "is_reserved": 0, "lon": -77.03347916666667}, {"fusion_lat": 0.0, "name": "ea0499e184f248ffc34bc62d7dedacec", "is_disabled": 0, "rental_uris": {"android": "https://dc.lft.to/lastmile_qr_scan", "ios": "https://dc.lft.to/lastmile_qr_scan"}, "fusion_lon": 0.0, "lat": 38.92486916666667, "bike_id": "ea0499e184f248ffc34bc62d7dedacec", "type": "electric_scooter", "is_reserved": 0, "lon": -77.02659266666667}, {"fusion_lat": 0.0, "name": "ac2b805ca1ec7270a83cbc6d71994bde", "is_disabled": 0, "rental_uris": {"android": "https://dc.lft.to/lastmile_qr_scan", "ios": "https://dc.lft.to/lastmile_qr_scan"}, "fusion_lon": 0.0, "lat": 38.88987783333334, "bike_id": "ac2b805ca1ec7270a83cbc6d71994bde", "type": "electric_scooter", "is_reserved": 0, "lon": -76.98410983333333}, {"fusion_lat": 0.0, "name": "dde09199ece0a8560f5c7f958df949bc", "is_disabled": 0, "rental_uris": {"android": "https://dc.lft.to/lastmile_qr_scan", "ios": "https://dc.lft.to/lastmile_qr_scan"}, "fusion_lon": 0.0, "lat": 38.927992833333334, "bike_id": "dde09199ece0a8560f5c7f958df949bc", "type": "electric_scooter", "is_reserved": 0, "lon": -77.05518033333334}, {"fusion_lat": 0.0, "name": "0907d07b80ed17be59d1f3f1f6c0af95", "is_disabled": 0, "rental_uris": {"android": "https://dc.lft.to/lastmile_qr_scan", "ios": "https://dc.lft.to/lastmile_qr_scan"}, "fusion_lon": 0.0, "lat": 38.89639916666667, "bike_id": "0907d07b80ed17be59d1f3f1f6c0af95", "type": "electric_scooter", "is_reserved": 0, "lon": -77.009226}, {"fusion_lat": 0.0, "name": "d12277180973906d097c5f04acc24024", "is_disabled": 0, "rental_uris": {"android": "https://dc.lft.to/lastmile_qr_scan", "ios": "https://dc.lft.to/lastmile_qr_scan"}, "fusion_lon": 0.0, "lat": 38.907251333333335, "bike_id": "d12277180973906d097c5f04acc24024", "type": "electric_scooter", "is_reserved": 0, "lon": -77.02817366666666}, {"fusion_lat": 0.0, "name": "a96f33d28268853ea8bcf3017d7f10e8", "is_disabled": 0, "rental_uris": {"android": "https://dc.lft.to/lastmile_qr_scan", "ios": "https://dc.lft.to/lastmile_qr_scan"}, "fusion_lon": 0.0, "lat": 38.901777, "bike_id": "a96f33d28268853ea8bcf3017d7f10e8", "type": "electric_scooter", "is_reserved": 0, "lon": -77.02226116666667}, {"fusion_lat": 0.0, "name": "90b2e0e72edc1f32edfa747fc4348ed5", "is_disabled": 0, "rental_uris": {"android": "https://dc.lft.to/lastmile_qr_scan", "ios": "https://dc.lft.to/lastmile_qr_scan"}, "fusion_lon": 0.0, "lat": 38.9248605, "bike_id": "90b2e0e72edc1f32edfa747fc4348ed5", "type": "electric_scooter", "is_reserved": 0, "lon": -77.02653066666667}, {"fusion_lat": 0.0, "name": "13f6fd26dc5a798a95df425b2c196e29", "is_disabled": 0, "rental_uris": {"android": "https://dc.lft.to/lastmile_qr_scan", "ios": "https://dc.lft.to/lastmile_qr_scan"}, "fusion_lon": 0.0, "lat": 38.932508166666665, "bike_id": "13f6fd26dc5a798a95df425b2c196e29", "type": "electric_scooter", "is_reserved": 0, "lon": -77.032878}, {"fusion_lat": 0.0, "name": "6b8adea3f04724d7b4005014511618aa", "is_disabled": 0, "rental_uris": {"android": "https://dc.lft.to/lastmile_qr_scan", "ios": "https://dc.lft.to/lastmile_qr_scan"}, "fusion_lon": 0.0, "lat": 38.95884183333333, "bike_id": "6b8adea3f04724d7b4005014511618aa", "type": "electric_scooter", "is_reserved": 0, "lon": -77.01164816666666}, {"fusion_lat": 0.0, "name": "cdf7ba0ac59c346234c756494cd10eda", "is_disabled": 0, "rental_uris": {"android": "https://dc.lft.to/lastmile_qr_scan", "ios": "https://dc.lft.to/lastmile_qr_scan"}, "fusion_lon": 0.0, "lat": 38.9189755, "bike_id": "cdf7ba0ac59c346234c756494cd10eda", "type": "electric_scooter", "is_reserved": 0, "lon": -77.02357966666666}, {"fusion_lat": 0.0, "name": "84f82aab5413f5e25dba6e83cefa0a38", "is_disabled": 0, "rental_uris": {"android": "https://dc.lft.to/lastmile_qr_scan", "ios": "https://dc.lft.to/lastmile_qr_scan"}, "fusion_lon": 0.0, "lat": 38.876608166666664, "bike_id": "84f82aab5413f5e25dba6e83cefa0a38", "type": "electric_scooter", "is_reserved": 0, "lon": -77.00922833333334}, {"fusion_lat": 0.0, "name": "812c0ddcdc970e75eb945ebb431de540", "is_disabled": 0, "rental_uris": {"android": "https://dc.lft.to/lastmile_qr_scan", "ios": "https://dc.lft.to/lastmile_qr_scan"}, "fusion_lon": 0.0, "lat": 38.9157005, "bike_id": "812c0ddcdc970e75eb945ebb431de540", "type": "electric_scooter", "is_reserved": 0, "lon": -77.03212733333334}, {"fusion_lat": 0.0, "name": "093ae335607fd07198e6b8be68b3d58c", "is_disabled": 0, "rental_uris": {"android": "https://dc.lft.to/lastmile_qr_scan", "ios": "https://dc.lft.to/lastmile_qr_scan"}, "fusion_lon": 0.0, "lat": 38.9097525, "bike_id": "093ae335607fd07198e6b8be68b3d58c", "type": "electric_scooter", "is_reserved": 0, "lon": -77.02286633333334}, {"fusion_lat": 0.0, "name": "06dd5d7d27630d954af1dbd395016436", "is_disabled": 0, "rental_uris": {"android": "https://dc.lft.to/lastmile_qr_scan", "ios": "https://dc.lft.to/lastmile_qr_scan"}, "fusion_lon": 0.0, "lat": 38.92487233333333, "bike_id": "06dd5d7d27630d954af1dbd395016436", "type": "electric_scooter", "is_reserved": 0, "lon": -77.02546166666667}, {"fusion_lat": 0.0, "name": "1e1733df39f41293ece055dd29db71b5", "is_disabled": 0, "rental_uris": {"android": "https://dc.lft.to/lastmile_qr_scan", "ios": "https://dc.lft.to/lastmile_qr_scan"}, "fusion_lon": 0.0, "lat": 38.88232133333333, "bike_id": "1e1733df39f41293ece055dd29db71b5", "type": "electric_scooter", "is_reserved": 0, "lon": -77.026122}, {"fusion_lat": 0.0, "name": "687f5a5a7c472ba347c1e3ff3e6b7c75", "is_disabled": 0, "rental_uris": {"android": "https://dc.lft.to/lastmile_qr_scan", "ios": "https://dc.lft.to/lastmile_qr_scan"}, "fusion_lon": 0.0, "lat": 38.915677, "bike_id": "687f5a5a7c472ba347c1e3ff3e6b7c75", "type": "electric_scooter", "is_reserved": 0, "lon": -77.03220283333333}, {"fusion_lat": 0.0, "name": "1c88d7afc0f7ab471838db942ed68e77", "is_disabled": 0, "rental_uris": {"android": "https://dc.lft.to/lastmile_qr_scan", "ios": "https://dc.lft.to/lastmile_qr_scan"}, "fusion_lon": 0.0, "lat": 38.879175000000004, "bike_id": "1c88d7afc0f7ab471838db942ed68e77", "type": "electric_scooter", "is_reserved": 0, "lon": -77.0089285}, {"fusion_lat": 0.0, "name": "25812f93e365203d3dae84e51faab745", "is_disabled": 0, "rental_uris": {"android": "https://dc.lft.to/lastmile_qr_scan", "ios": "https://dc.lft.to/lastmile_qr_scan"}, "fusion_lon": 0.0, "lat": 38.892253833333335, "bike_id": "25812f93e365203d3dae84e51faab745", "type": "electric_scooter", "is_reserved": 0, "lon": -77.03170983333334}, {"fusion_lat": 0.0, "name": "e19d150969383b04b39d257447788b8f", "is_disabled": 0, "rental_uris": {"android": "https://dc.lft.to/lastmile_qr_scan", "ios": "https://dc.lft.to/lastmile_qr_scan"}, "fusion_lon": 0.0, "lat": 38.88768233333333, "bike_id": "e19d150969383b04b39d257447788b8f", "type": "electric_scooter", "is_reserved": 0, "lon": -77.0026085}, {"fusion_lat": 0.0, "name": "a73dd6e3f444f41290312ce8feb1b4ac", "is_disabled": 0, "rental_uris": {"android": "https://dc.lft.to/lastmile_qr_scan", "ios": "https://dc.lft.to/lastmile_qr_scan"}, "fusion_lon": 0.0, "lat": 38.9067695, "bike_id": "a73dd6e3f444f41290312ce8feb1b4ac", "type": "electric_scooter", "is_reserved": 0, "lon": -77.02709083333333}, {"fusion_lat": 0.0, "name": "94d73f6acf6e1a7a10242023e36c16c1", "is_disabled": 0, "rental_uris": {"android": "https://dc.lft.to/lastmile_qr_scan", "ios": "https://dc.lft.to/lastmile_qr_scan"}, "fusion_lon": 0.0, "lat": 38.90415983333333, "bike_id": "94d73f6acf6e1a7a10242023e36c16c1", "type": "electric_scooter", "is_reserved": 0, "lon": -76.973341}, {"fusion_lat": 0.0, "name": "7c3a3be35a57d48aaa69b4baeaf7a08e", "is_disabled": 0, "rental_uris": {"android": "https://dc.lft.to/lastmile_qr_scan", "ios": "https://dc.lft.to/lastmile_qr_scan"}, "fusion_lon": 0.0, "lat": 38.93079133333333, "bike_id": "7c3a3be35a57d48aaa69b4baeaf7a08e", "type": "electric_scooter", "is_reserved": 0, "lon": -77.07764566666667}, {"fusion_lat": 0.0, "name": "a48d66d8195647e8f46a30d9ed0c2029", "is_disabled": 0, "rental_uris": {"android": "https://dc.lft.to/lastmile_qr_scan", "ios": "https://dc.lft.to/lastmile_qr_scan"}, "fusion_lon": 0.0, "lat": 38.901293833333334, "bike_id": "a48d66d8195647e8f46a30d9ed0c2029", "type": "electric_scooter", "is_reserved": 0, "lon": -77.03324733333334}, {"fusion_lat": 0.0, "name": "146a62534cb1c4d5948babd5896ed9c9", "is_disabled": 0, "rental_uris": {"android": "https://dc.lft.to/lastmile_qr_scan", "ios": "https://dc.lft.to/lastmile_qr_scan"}, "fusion_lon": 0.0, "lat": 38.88059, "bike_id": "146a62534cb1c4d5948babd5896ed9c9", "type": "electric_scooter", "is_reserved": 0, "lon": -77.0255515}, {"fusion_lat": 0.0, "name": "d02798dfa58ec4ef24fa5e0b15034873", "is_disabled": 0, "rental_uris": {"android": "https://dc.lft.to/lastmile_qr_scan", "ios": "https://dc.lft.to/lastmile_qr_scan"}, "fusion_lon": 0.0, "lat": 38.9025225, "bike_id": "d02798dfa58ec4ef24fa5e0b15034873", "type": "electric_scooter", "is_reserved": 0, "lon": -76.974517}, {"fusion_lat": 0.0, "name": "f69a2f39821d8db7fc4f641a91b1f935", "is_disabled": 0, "rental_uris": {"android": "https://dc.lft.to/lastmile_qr_scan", "ios": "https://dc.lft.to/lastmile_qr_scan"}, "fusion_lon": 0.0, "lat": 38.860235833333334, "bike_id": "f69a2f39821d8db7fc4f641a91b1f935", "type": "electric_bike", "is_reserved": 0, "lon": -77.12805333333333}, {"fusion_lat": 0.0, "name": "f4f3343e3feb80a5803816d250a7b04e", "is_disabled": 0, "rental_uris": {"android": "https://dc.lft.to/lastmile_qr_scan", "ios": "https://dc.lft.to/lastmile_qr_scan"}, "fusion_lon": 0.0, "lat": 38.952329166666665, "bike_id": "f4f3343e3feb80a5803816d250a7b04e", "type": "electric_scooter", "is_reserved": 0, "lon": -76.99001466666667}, {"fusion_lat": 0.0, "name": "463d070c3d21d00f5a4335f50cedcb2a", "is_disabled": 0, "rental_uris": {"android": "https://dc.lft.to/lastmile_qr_scan", "ios": "https://dc.lft.to/lastmile_qr_scan"}, "fusion_lon": 0.0, "lat": 38.956302, "bike_id": "463d070c3d21d00f5a4335f50cedcb2a", "type": "electric_scooter", "is_reserved": 0, "lon": -77.023114}, {"fusion_lat": 0.0, "name": "922506edd57e90a59703d8fcfc98a0e5", "is_disabled": 0, "rental_uris": {"android": "https://dc.lft.to/lastmile_qr_scan", "ios": "https://dc.lft.to/lastmile_qr_scan"}, "fusion_lon": 0.0, "lat": 38.884874, "bike_id": "922506edd57e90a59703d8fcfc98a0e5", "type": "electric_scooter", "is_reserved": 0, "lon": -77.0070895}, {"fusion_lat": 0.0, "name": "50dcccd69f81c5d2965889142015ae89", "is_disabled": 0, "rental_uris": {"android": "https://dc.lft.to/lastmile_qr_scan", "ios": "https://dc.lft.to/lastmile_qr_scan"}, "fusion_lon": 0.0, "lat": 38.92253683333333, "bike_id": "50dcccd69f81c5d2965889142015ae89", "type": "electric_scooter", "is_reserved": 0, "lon": -77.04191533333334}, {"fusion_lat": 0.0, "name": "5e6d41661bce6a96a8174ba005b3fb91", "is_disabled": 0, "rental_uris": {"android": "https://dc.lft.to/lastmile_qr_scan", "ios": "https://dc.lft.to/lastmile_qr_scan"}, "fusion_lon": 0.0, "lat": 38.842809833333334, "bike_id": "5e6d41661bce6a96a8174ba005b3fb91", "type": "electric_bike", "is_reserved": 0, "lon": -77.04492466666666}, {"fusion_lat": 0.0, "name": "97ef323b5e53abd12a20611ae0b0277f", "is_disabled": 0, "rental_uris": {"android": "https://dc.lft.to/lastmile_qr_scan", "ios": "https://dc.lft.to/lastmile_qr_scan"}, "fusion_lon": 0.0, "lat": 38.897356, "bike_id": "97ef323b5e53abd12a20611ae0b0277f", "type": "electric_scooter", "is_reserved": 0, "lon": -77.043461}, {"fusion_lat": 0.0, "name": "9ac5ddd4d8a1c87e8ccf771b0409ef50", "is_disabled": 0, "rental_uris": {"android": "https://dc.lft.to/lastmile_qr_scan", "ios": "https://dc.lft.to/lastmile_qr_scan"}, "fusion_lon": 0.0, "lat": 38.935337833333335, "bike_id": "9ac5ddd4d8a1c87e8ccf771b0409ef50", "type": "electric_scooter", "is_reserved": 0, "lon": -77.03654766666666}, {"fusion_lat": 0.0, "name": "c385a85f775b96b71227763fe2afcdb7", "is_disabled": 0, "rental_uris": {"android": "https://dc.lft.to/lastmile_qr_scan", "ios": "https://dc.lft.to/lastmile_qr_scan"}, "fusion_lon": 0.0, "lat": 38.928462833333334, "bike_id": "c385a85f775b96b71227763fe2afcdb7", "type": "electric_scooter", "is_reserved": 0, "lon": -77.0326595}, {"fusion_lat": 0.0, "name": "00c20c926c40f89495fc6c8d9d467063", "is_disabled": 0, "rental_uris": {"android": "https://dc.lft.to/lastmile_qr_scan", "ios": "https://dc.lft.to/lastmile_qr_scan"}, "fusion_lon": 0.0, "lat": 38.899918666666665, "bike_id": "00c20c926c40f89495fc6c8d9d467063", "type": "electric_scooter", "is_reserved": 0, "lon": -77.00625866666667}, {"fusion_lat": 0.0, "name": "d2d65dc6eef70f3f9020208335f0d846", "is_disabled": 0, "rental_uris": {"android": "https://dc.lft.to/lastmile_qr_scan", "ios": "https://dc.lft.to/lastmile_qr_scan"}, "fusion_lon": 0.0, "lat": 38.934703666666664, "bike_id": "d2d65dc6eef70f3f9020208335f0d846", "type": "electric_scooter", "is_reserved": 0, "lon": -77.04124633333333}, {"fusion_lat": 0.0, "name": "c753af73057a0d6c8bce19b76891d85b", "is_disabled": 0, "rental_uris": {"android": "https://dc.lft.to/lastmile_qr_scan", "ios": "https://dc.lft.to/lastmile_qr_scan"}, "fusion_lon": 0.0, "lat": 38.9000405, "bike_id": "c753af73057a0d6c8bce19b76891d85b", "type": "electric_scooter", "is_reserved": 0, "lon": -76.93152116666667}, {"fusion_lat": 0.0, "name": "bebbb77b07dda67b3231f3106fdfa457", "is_disabled": 0, "rental_uris": {"android": "https://dc.lft.to/lastmile_qr_scan", "ios": "https://dc.lft.to/lastmile_qr_scan"}, "fusion_lon": 0.0, "lat": 38.91043633333334, "bike_id": "bebbb77b07dda67b3231f3106fdfa457", "type": "electric_scooter", "is_reserved": 0, "lon": -77.0344015}, {"fusion_lat": 0.0, "name": "c9a6501f640e5f239f86a4afa9397a55", "is_disabled": 0, "rental_uris": {"android": "https://dc.lft.to/lastmile_qr_scan", "ios": "https://dc.lft.to/lastmile_qr_scan"}, "fusion_lon": 0.0, "lat": 38.86684366666667, "bike_id": "c9a6501f640e5f239f86a4afa9397a55", "type": "electric_scooter", "is_reserved": 0, "lon": -76.98563866666667}, {"fusion_lat": 0.0, "name": "19450843c30d3490145425482de6e4cc", "is_disabled": 0, "rental_uris": {"android": "https://dc.lft.to/lastmile_qr_scan", "ios": "https://dc.lft.to/lastmile_qr_scan"}, "fusion_lon": 0.0, "lat": 38.91743783333333, "bike_id": "19450843c30d3490145425482de6e4cc", "type": "electric_scooter", "is_reserved": 0, "lon": -77.04153116666667}, {"fusion_lat": 0.0, "name": "134fb4727303ac1e27fbba1142a0f9bf", "is_disabled": 0, "rental_uris": {"android": "https://dc.lft.to/lastmile_qr_scan", "ios": "https://dc.lft.to/lastmile_qr_scan"}, "fusion_lon": 0.0, "lat": 38.92104716666667, "bike_id": "134fb4727303ac1e27fbba1142a0f9bf", "type": "electric_scooter", "is_reserved": 0, "lon": -77.0469575}, {"fusion_lat": 0.0, "name": "75337cb1d0e64ab44e6092a123010bda", "is_disabled": 0, "rental_uris": {"android": "https://dc.lft.to/lastmile_qr_scan", "ios": "https://dc.lft.to/lastmile_qr_scan"}, "fusion_lon": 0.0, "lat": 38.899021833333336, "bike_id": "75337cb1d0e64ab44e6092a123010bda", "type": "electric_scooter", "is_reserved": 0, "lon": -76.933664}, {"fusion_lat": 0.0, "name": "211b6ed1d384a807d680696fa0ba0dc8", "is_disabled": 0, "rental_uris": {"android": "https://dc.lft.to/lastmile_qr_scan", "ios": "https://dc.lft.to/lastmile_qr_scan"}, "fusion_lon": 0.0, "lat": 38.89787833333333, "bike_id": "211b6ed1d384a807d680696fa0ba0dc8", "type": "electric_scooter", "is_reserved": 0, "lon": -77.04658866666666}, {"fusion_lat": 0.0, "name": "61ea315b7fcfcbb768b3f02dd4c6b435", "is_disabled": 0, "rental_uris": {"android": "https://dc.lft.to/lastmile_qr_scan", "ios": "https://dc.lft.to/lastmile_qr_scan"}, "fusion_lon": 0.0, "lat": 38.948401833333335, "bike_id": "61ea315b7fcfcbb768b3f02dd4c6b435", "type": "electric_scooter", "is_reserved": 0, "lon": -77.02565966666667}, {"fusion_lat": 0.0, "name": "d61254104f1e7cd75990eb0ef0b4ad83", "is_disabled": 0, "rental_uris": {"android": "https://dc.lft.to/lastmile_qr_scan", "ios": "https://dc.lft.to/lastmile_qr_scan"}, "fusion_lon": 0.0, "lat": 38.900459166666664, "bike_id": "d61254104f1e7cd75990eb0ef0b4ad83", "type": "electric_scooter", "is_reserved": 0, "lon": -77.05573683333333}, {"fusion_lat": 0.0, "name": "80cbf8a0b36fde4f6cab0c570aedec0c", "is_disabled": 0, "rental_uris": {"android": "https://dc.lft.to/lastmile_qr_scan", "ios": "https://dc.lft.to/lastmile_qr_scan"}, "fusion_lon": 0.0, "lat": 38.7947355, "bike_id": "80cbf8a0b36fde4f6cab0c570aedec0c", "type": "electric_bike", "is_reserved": 0, "lon": -76.99248266666666}, {"fusion_lat": 0.0, "name": "836a7693c170435d6dcdf91cf6ee9450", "is_disabled": 0, "rental_uris": {"android": "https://dc.lft.to/lastmile_qr_scan", "ios": "https://dc.lft.to/lastmile_qr_scan"}, "fusion_lon": 0.0, "lat": 38.9170625, "bike_id": "836a7693c170435d6dcdf91cf6ee9450", "type": "electric_scooter", "is_reserved": 0, "lon": -77.04174833333333}, {"fusion_lat": 0.0, "name": "7e23def31c0a7251668fcf324bbdf3cf", "is_disabled": 0, "rental_uris": {"android": "https://dc.lft.to/lastmile_qr_scan", "ios": "https://dc.lft.to/lastmile_qr_scan"}, "fusion_lon": 0.0, "lat": 38.90029333333333, "bike_id": "7e23def31c0a7251668fcf324bbdf3cf", "type": "electric_scooter", "is_reserved": 0, "lon": -77.05819783333334}, {"fusion_lat": 0.0, "name": "478575dbebad767b844a1ad1fa3ad8fc", "is_disabled": 0, "rental_uris": {"android": "https://dc.lft.to/lastmile_qr_scan", "ios": "https://dc.lft.to/lastmile_qr_scan"}, "fusion_lon": 0.0, "lat": 38.9225215, "bike_id": "478575dbebad767b844a1ad1fa3ad8fc", "type": "electric_scooter", "is_reserved": 0, "lon": -77.0297795}, {"fusion_lat": 0.0, "name": "c7a13fa0cc4eeabf50c279bbe9593287", "is_disabled": 0, "rental_uris": {"android": "https://dc.lft.to/lastmile_qr_scan", "ios": "https://dc.lft.to/lastmile_qr_scan"}, "fusion_lon": 0.0, "lat": 38.9190615, "bike_id": "c7a13fa0cc4eeabf50c279bbe9593287", "type": "electric_scooter", "is_reserved": 0, "lon": -77.02751516666666}, {"fusion_lat": 0.0, "name": "1ed55303a1054333d7e07abcb6e461cf", "is_disabled": 0, "rental_uris": {"android": "https://dc.lft.to/lastmile_qr_scan", "ios": "https://dc.lft.to/lastmile_qr_scan"}, "fusion_lon": 0.0, "lat": 38.89310833333333, "bike_id": "1ed55303a1054333d7e07abcb6e461cf", "type": "electric_scooter", "is_reserved": 0, "lon": -77.02153083333333}, {"fusion_lat": 0.0, "name": "0038f1c80e1c20f029b21facdbec71d2", "is_disabled": 0, "rental_uris": {"android": "https://dc.lft.to/lastmile_qr_scan", "ios": "https://dc.lft.to/lastmile_qr_scan"}, "fusion_lon": 0.0, "lat": 38.946594166666664, "bike_id": "0038f1c80e1c20f029b21facdbec71d2", "type": "electric_bike", "is_reserved": 0, "lon": -76.95668683333334}, {"fusion_lat": 0.0, "name": "083039620d4803caae24baacbb4d6f7a", "is_disabled": 0, "rental_uris": {"android": "https://dc.lft.to/lastmile_qr_scan", "ios": "https://dc.lft.to/lastmile_qr_scan"}, "fusion_lon": 0.0, "lat": 38.904481833333335, "bike_id": "083039620d4803caae24baacbb4d6f7a", "type": "electric_scooter", "is_reserved": 0, "lon": -76.97425716666666}, {"fusion_lat": 0.0, "name": "7e5356d787eff6854d6106bbb73e261d", "is_disabled": 0, "rental_uris": {"android": "https://dc.lft.to/lastmile_qr_scan", "ios": "https://dc.lft.to/lastmile_qr_scan"}, "fusion_lon": 0.0, "lat": 38.919317, "bike_id": "7e5356d787eff6854d6106bbb73e261d", "type": "electric_scooter", "is_reserved": 0, "lon": -77.02505383333333}, {"fusion_lat": 0.0, "name": "6eb9bc0c6df4615544b871f490746188", "is_disabled": 0, "rental_uris": {"android": "https://dc.lft.to/lastmile_qr_scan", "ios": "https://dc.lft.to/lastmile_qr_scan"}, "fusion_lon": 0.0, "lat": 38.9022225, "bike_id": "6eb9bc0c6df4615544b871f490746188", "type": "electric_scooter", "is_reserved": 0, "lon": -76.99505083333334}, {"fusion_lat": 0.0, "name": "19d6075dfd89e1b495e1a61a4cf9791d", "is_disabled": 0, "rental_uris": {"android": "https://dc.lft.to/lastmile_qr_scan", "ios": "https://dc.lft.to/lastmile_qr_scan"}, "fusion_lon": 0.0, "lat": 38.90768833333333, "bike_id": "19d6075dfd89e1b495e1a61a4cf9791d", "type": "electric_scooter", "is_reserved": 0, "lon": -77.03830466666666}, {"fusion_lat": 0.0, "name": "468769a5d057ad56ea848fa67895233a", "is_disabled": 0, "rental_uris": {"android": "https://dc.lft.to/lastmile_qr_scan", "ios": "https://dc.lft.to/lastmile_qr_scan"}, "fusion_lon": 0.0, "lat": 38.92882433333333, "bike_id": "468769a5d057ad56ea848fa67895233a", "type": "electric_scooter", "is_reserved": 0, "lon": -77.03220533333334}, {"fusion_lat": 0.0, "name": "b548eb415d2f8bf31592d3b8d770b38f", "is_disabled": 0, "rental_uris": {"android": "https://dc.lft.to/lastmile_qr_scan", "ios": "https://dc.lft.to/lastmile_qr_scan"}, "fusion_lon": 0.0, "lat": 38.91566683333333, "bike_id": "b548eb415d2f8bf31592d3b8d770b38f", "type": "electric_scooter", "is_reserved": 0, "lon": -77.02217733333333}, {"fusion_lat": 0.0, "name": "3c466e065124576d1343b192f783df08", "is_disabled": 0, "rental_uris": {"android": "https://dc.lft.to/lastmile_qr_scan", "ios": "https://dc.lft.to/lastmile_qr_scan"}, "fusion_lon": 0.0, "lat": 38.901504333333335, "bike_id": "3c466e065124576d1343b192f783df08", "type": "electric_scooter", "is_reserved": 0, "lon": -77.00918383333334}, {"fusion_lat": 0.0, "name": "367e62bb70162c6ecc6833ee40b25e1f", "is_disabled": 0, "rental_uris": {"android": "https://dc.lft.to/lastmile_qr_scan", "ios": "https://dc.lft.to/lastmile_qr_scan"}, "fusion_lon": 0.0, "lat": 38.93397433333333, "bike_id": "367e62bb70162c6ecc6833ee40b25e1f", "type": "electric_scooter", "is_reserved": 0, "lon": -77.057715}, {"fusion_lat": 0.0, "name": "3c4a07cc795a64435ef0cd8b421f3cb7", "is_disabled": 0, "rental_uris": {"android": "https://dc.lft.to/lastmile_qr_scan", "ios": "https://dc.lft.to/lastmile_qr_scan"}, "fusion_lon": 0.0, "lat": 38.91538666666667, "bike_id": "3c4a07cc795a64435ef0cd8b421f3cb7", "type": "electric_scooter", "is_reserved": 0, "lon": -76.98237566666667}, {"fusion_lat": 0.0, "name": "5b6bac2561df96c99572e76e5f6f14c0", "is_disabled": 0, "rental_uris": {"android": "https://dc.lft.to/lastmile_qr_scan", "ios": "https://dc.lft.to/lastmile_qr_scan"}, "fusion_lon": 0.0, "lat": 38.892369, "bike_id": "5b6bac2561df96c99572e76e5f6f14c0", "type": "electric_scooter", "is_reserved": 0, "lon": -77.03346416666666}, {"fusion_lat": 0.0, "name": "c9abb104a5b2eea1597269e14e0e7d17", "is_disabled": 0, "rental_uris": {"android": "https://dc.lft.to/lastmile_qr_scan", "ios": "https://dc.lft.to/lastmile_qr_scan"}, "fusion_lon": 0.0, "lat": 38.9249655, "bike_id": "c9abb104a5b2eea1597269e14e0e7d17", "type": "electric_scooter", "is_reserved": 0, "lon": -77.05106116666667}, {"fusion_lat": 0.0, "name": "f1ba68ffa0589f9eea54d7e8d49808a0", "is_disabled": 0, "rental_uris": {"android": "https://dc.lft.to/lastmile_qr_scan", "ios": "https://dc.lft.to/lastmile_qr_scan"}, "fusion_lon": 0.0, "lat": 38.93820616666667, "bike_id": "f1ba68ffa0589f9eea54d7e8d49808a0", "type": "electric_scooter", "is_reserved": 0, "lon": -77.06019916666666}, {"fusion_lat": 0.0, "name": "0fed31e0af3142971df49a535d399e42", "is_disabled": 0, "rental_uris": {"android": "https://dc.lft.to/lastmile_qr_scan", "ios": "https://dc.lft.to/lastmile_qr_scan"}, "fusion_lon": 0.0, "lat": 38.92082333333333, "bike_id": "0fed31e0af3142971df49a535d399e42", "type": "electric_scooter", "is_reserved": 0, "lon": -77.02416816666667}, {"fusion_lat": 0.0, "name": "7c3244e4f81c165361db2fb0e71fa7f7", "is_disabled": 0, "rental_uris": {"android": "https://dc.lft.to/lastmile_qr_scan", "ios": "https://dc.lft.to/lastmile_qr_scan"}, "fusion_lon": 0.0, "lat": 38.879741, "bike_id": "7c3244e4f81c165361db2fb0e71fa7f7", "type": "electric_bike", "is_reserved": 0, "lon": -76.9160675}, {"fusion_lat": 0.0, "name": "c9e89d6e07f0056548cde7e2e051d3ae", "is_disabled": 0, "rental_uris": {"android": "https://dc.lft.to/lastmile_qr_scan", "ios": "https://dc.lft.to/lastmile_qr_scan"}, "fusion_lon": 0.0, "lat": 38.917249166666664, "bike_id": "c9e89d6e07f0056548cde7e2e051d3ae", "type": "electric_scooter", "is_reserved": 0, "lon": -77.06833733333333}, {"fusion_lat": 0.0, "name": "74ce89d58137fb5134b950450fbb410c", "is_disabled": 0, "rental_uris": {"android": "https://dc.lft.to/lastmile_qr_scan", "ios": "https://dc.lft.to/lastmile_qr_scan"}, "fusion_lon": 0.0, "lat": 38.91328333333333, "bike_id": "74ce89d58137fb5134b950450fbb410c", "type": "electric_scooter", "is_reserved": 0, "lon": -77.02137066666667}, {"fusion_lat": 0.0, "name": "0ad0b3f70019033c95a5514579e40354", "is_disabled": 0, "rental_uris": {"android": "https://dc.lft.to/lastmile_qr_scan", "ios": "https://dc.lft.to/lastmile_qr_scan"}, "fusion_lon": 0.0, "lat": 38.900194166666665, "bike_id": "0ad0b3f70019033c95a5514579e40354", "type": "electric_scooter", "is_reserved": 0, "lon": -76.98816233333334}, {"fusion_lat": 0.0, "name": "c7b4fd2afa71dd59d0ec5c4aa715f636", "is_disabled": 0, "rental_uris": {"android": "https://dc.lft.to/lastmile_qr_scan", "ios": "https://dc.lft.to/lastmile_qr_scan"}, "fusion_lon": 0.0, "lat": 38.915519333333336, "bike_id": "c7b4fd2afa71dd59d0ec5c4aa715f636", "type": "electric_scooter", "is_reserved": 0, "lon": -77.0320395}, {"fusion_lat": 0.0, "name": "bf946ee31f44cce6f82c0f2c6a781896", "is_disabled": 0, "rental_uris": {"android": "https://dc.lft.to/lastmile_qr_scan", "ios": "https://dc.lft.to/lastmile_qr_scan"}, "fusion_lon": 0.0, "lat": 38.92833366666667, "bike_id": "bf946ee31f44cce6f82c0f2c6a781896", "type": "electric_scooter", "is_reserved": 0, "lon": -77.05464716666667}, {"fusion_lat": 0.0, "name": "1909707d27818c1ed2196320269def52", "is_disabled": 0, "rental_uris": {"android": "https://dc.lft.to/lastmile_qr_scan", "ios": "https://dc.lft.to/lastmile_qr_scan"}, "fusion_lon": 0.0, "lat": 38.9242135, "bike_id": "1909707d27818c1ed2196320269def52", "type": "electric_scooter", "is_reserved": 0, "lon": -77.01954716666667}, {"fusion_lat": 0.0, "name": "de4331c4d43dc3ef40277808fd2c22df", "is_disabled": 0, "rental_uris": {"android": "https://dc.lft.to/lastmile_qr_scan", "ios": "https://dc.lft.to/lastmile_qr_scan"}, "fusion_lon": 0.0, "lat": 38.953759833333336, "bike_id": "de4331c4d43dc3ef40277808fd2c22df", "type": "electric_bike", "is_reserved": 0, "lon": -76.97959016666667}, {"fusion_lat": 0.0, "name": "a24cca5b4b2e9e08d99cc49d51c7ab3e", "is_disabled": 0, "rental_uris": {"android": "https://dc.lft.to/lastmile_qr_scan", "ios": "https://dc.lft.to/lastmile_qr_scan"}, "fusion_lon": 0.0, "lat": 38.898791, "bike_id": "a24cca5b4b2e9e08d99cc49d51c7ab3e", "type": "electric_scooter", "is_reserved": 0, "lon": -76.931837}, {"fusion_lat": 0.0, "name": "4fcfcc591c7e190f50bf2ed978e821bf", "is_disabled": 0, "rental_uris": {"android": "https://dc.lft.to/lastmile_qr_scan", "ios": "https://dc.lft.to/lastmile_qr_scan"}, "fusion_lon": 0.0, "lat": 38.9057445, "bike_id": "4fcfcc591c7e190f50bf2ed978e821bf", "type": "electric_scooter", "is_reserved": 0, "lon": -77.00563916666667}, {"fusion_lat": 0.0, "name": "01a747b22bbfba495a7784802734eaa4", "is_disabled": 0, "rental_uris": {"android": "https://dc.lft.to/lastmile_qr_scan", "ios": "https://dc.lft.to/lastmile_qr_scan"}, "fusion_lon": 0.0, "lat": 38.900353333333335, "bike_id": "01a747b22bbfba495a7784802734eaa4", "type": "electric_scooter", "is_reserved": 0, "lon": -76.99602133333333}, {"fusion_lat": 0.0, "name": "f667d9d7dec42ee3ca9c22f1cc84f5ff", "is_disabled": 0, "rental_uris": {"android": "https://dc.lft.to/lastmile_qr_scan", "ios": "https://dc.lft.to/lastmile_qr_scan"}, "fusion_lon": 0.0, "lat": 38.921408666666665, "bike_id": "f667d9d7dec42ee3ca9c22f1cc84f5ff", "type": "electric_scooter", "is_reserved": 0, "lon": -77.04692566666667}, {"fusion_lat": 0.0, "name": "2e72ecdba28924867bc4d5b507ccbfa1", "is_disabled": 0, "rental_uris": {"android": "https://dc.lft.to/lastmile_qr_scan", "ios": "https://dc.lft.to/lastmile_qr_scan"}, "fusion_lon": 0.0, "lat": 38.90271416666667, "bike_id": "2e72ecdba28924867bc4d5b507ccbfa1", "type": "electric_scooter", "is_reserved": 0, "lon": -76.97669216666667}, {"fusion_lat": 0.0, "name": "4decbf23da712396d457b931a0e75658", "is_disabled": 0, "rental_uris": {"android": "https://dc.lft.to/lastmile_qr_scan", "ios": "https://dc.lft.to/lastmile_qr_scan"}, "fusion_lon": 0.0, "lat": 38.924557666666665, "bike_id": "4decbf23da712396d457b931a0e75658", "type": "electric_scooter", "is_reserved": 0, "lon": -77.02406483333333}, {"fusion_lat": 0.0, "name": "489880e4529ee0ea1d07d3bf87b3cce4", "is_disabled": 0, "rental_uris": {"android": "https://dc.lft.to/lastmile_qr_scan", "ios": "https://dc.lft.to/lastmile_qr_scan"}, "fusion_lon": 0.0, "lat": 38.921434, "bike_id": "489880e4529ee0ea1d07d3bf87b3cce4", "type": "electric_scooter", "is_reserved": 0, "lon": -77.01810066666667}, {"fusion_lat": 0.0, "name": "b56c64b1df1c9703811b8d3993901e43", "is_disabled": 0, "rental_uris": {"android": "https://dc.lft.to/lastmile_qr_scan", "ios": "https://dc.lft.to/lastmile_qr_scan"}, "fusion_lon": 0.0, "lat": 38.93460966666667, "bike_id": "b56c64b1df1c9703811b8d3993901e43", "type": "electric_scooter", "is_reserved": 0, "lon": -77.02787}, {"fusion_lat": 0.0, "name": "8f340d03b1d13d7aeb19e10952cbca4d", "is_disabled": 0, "rental_uris": {"android": "https://dc.lft.to/lastmile_qr_scan", "ios": "https://dc.lft.to/lastmile_qr_scan"}, "fusion_lon": 0.0, "lat": 38.871785333333335, "bike_id": "8f340d03b1d13d7aeb19e10952cbca4d", "type": "electric_scooter", "is_reserved": 0, "lon": -77.00616783333334}, {"fusion_lat": 0.0, "name": "ff35c1de01402b736a6b7f4251518817", "is_disabled": 0, "rental_uris": {"android": "https://dc.lft.to/lastmile_qr_scan", "ios": "https://dc.lft.to/lastmile_qr_scan"}, "fusion_lon": 0.0, "lat": 38.93484683333333, "bike_id": "ff35c1de01402b736a6b7f4251518817", "type": "electric_scooter", "is_reserved": 0, "lon": -77.04539116666666}, {"fusion_lat": 0.0, "name": "45cee785f887f9473090285537915a94", "is_disabled": 0, "rental_uris": {"android": "https://dc.lft.to/lastmile_qr_scan", "ios": "https://dc.lft.to/lastmile_qr_scan"}, "fusion_lon": 0.0, "lat": 38.915262166666665, "bike_id": "45cee785f887f9473090285537915a94", "type": "electric_scooter", "is_reserved": 0, "lon": -77.07271383333334}, {"fusion_lat": 0.0, "name": "76802809442eba434c976f5eb0c89a61", "is_disabled": 0, "rental_uris": {"android": "https://dc.lft.to/lastmile_qr_scan", "ios": "https://dc.lft.to/lastmile_qr_scan"}, "fusion_lon": 0.0, "lat": 38.870936, "bike_id": "76802809442eba434c976f5eb0c89a61", "type": "electric_scooter", "is_reserved": 0, "lon": -77.00735516666667}, {"fusion_lat": 0.0, "name": "9a97dcd8cc821f29b2edf9bd7fd9357c", "is_disabled": 0, "rental_uris": {"android": "https://dc.lft.to/lastmile_qr_scan", "ios": "https://dc.lft.to/lastmile_qr_scan"}, "fusion_lon": 0.0, "lat": 38.92344533333333, "bike_id": "9a97dcd8cc821f29b2edf9bd7fd9357c", "type": "electric_scooter", "is_reserved": 0, "lon": -77.02014033333333}, {"fusion_lat": 0.0, "name": "e4c78a201f25515d4479cfba1d8ec35a", "is_disabled": 0, "rental_uris": {"android": "https://dc.lft.to/lastmile_qr_scan", "ios": "https://dc.lft.to/lastmile_qr_scan"}, "fusion_lon": 0.0, "lat": 38.919229666666666, "bike_id": "e4c78a201f25515d4479cfba1d8ec35a", "type": "electric_scooter", "is_reserved": 0, "lon": -77.03314833333333}, {"fusion_lat": 0.0, "name": "7bef22f38d9a3dd1f08af85dc583df00", "is_disabled": 0, "rental_uris": {"android": "https://dc.lft.to/lastmile_qr_scan", "ios": "https://dc.lft.to/lastmile_qr_scan"}, "fusion_lon": 0.0, "lat": 38.9330565, "bike_id": "7bef22f38d9a3dd1f08af85dc583df00", "type": "electric_scooter", "is_reserved": 0, "lon": -77.0246665}, {"fusion_lat": 0.0, "name": "c81b5cb7253a2139038637f6efecbd28", "is_disabled": 0, "rental_uris": {"android": "https://dc.lft.to/lastmile_qr_scan", "ios": "https://dc.lft.to/lastmile_qr_scan"}, "fusion_lon": 0.0, "lat": 38.931914666666664, "bike_id": "c81b5cb7253a2139038637f6efecbd28", "type": "electric_scooter", "is_reserved": 0, "lon": -77.04291833333333}, {"fusion_lat": 0.0, "name": "bd11f19ce36ca8efd82a22515ffd1dc5", "is_disabled": 0, "rental_uris": {"android": "https://dc.lft.to/lastmile_qr_scan", "ios": "https://dc.lft.to/lastmile_qr_scan"}, "fusion_lon": 0.0, "lat": 38.920846, "bike_id": "bd11f19ce36ca8efd82a22515ffd1dc5", "type": "electric_scooter", "is_reserved": 0, "lon": -77.0046175}, {"fusion_lat": 0.0, "name": "bcd24776490951fbb85841ee54f4bc84", "is_disabled": 0, "rental_uris": {"android": "https://dc.lft.to/lastmile_qr_scan", "ios": "https://dc.lft.to/lastmile_qr_scan"}, "fusion_lon": 0.0, "lat": 38.917126833333334, "bike_id": "bcd24776490951fbb85841ee54f4bc84", "type": "electric_scooter", "is_reserved": 0, "lon": -77.011974}, {"fusion_lat": 0.0, "name": "d9a401a496ebbbc7138c06d13375fffc", "is_disabled": 0, "rental_uris": {"android": "https://dc.lft.to/lastmile_qr_scan", "ios": "https://dc.lft.to/lastmile_qr_scan"}, "fusion_lon": 0.0, "lat": 38.90825383333333, "bike_id": "d9a401a496ebbbc7138c06d13375fffc", "type": "electric_scooter", "is_reserved": 0, "lon": -77.05487466666666}, {"fusion_lat": 0.0, "name": "bf4131c74b50d7c924b68eb98f2e5e70", "is_disabled": 0, "rental_uris": {"android": "https://dc.lft.to/lastmile_qr_scan", "ios": "https://dc.lft.to/lastmile_qr_scan"}, "fusion_lon": 0.0, "lat": 38.961164, "bike_id": "bf4131c74b50d7c924b68eb98f2e5e70", "type": "electric_scooter", "is_reserved": 0, "lon": -77.0285715}, {"fusion_lat": 0.0, "name": "c1d059647aa5ac99ab6da6be2bfa7ba9", "is_disabled": 0, "rental_uris": {"android": "https://dc.lft.to/lastmile_qr_scan", "ios": "https://dc.lft.to/lastmile_qr_scan"}, "fusion_lon": 0.0, "lat": 38.91807266666667, "bike_id": "c1d059647aa5ac99ab6da6be2bfa7ba9", "type": "electric_scooter", "is_reserved": 0, "lon": -76.99978616666667}, {"fusion_lat": 0.0, "name": "336e2878fddc8952b88d3b6ba8b44e7b", "is_disabled": 0, "rental_uris": {"android": "https://dc.lft.to/lastmile_qr_scan", "ios": "https://dc.lft.to/lastmile_qr_scan"}, "fusion_lon": 0.0, "lat": 38.951186666666665, "bike_id": "336e2878fddc8952b88d3b6ba8b44e7b", "type": "electric_scooter", "is_reserved": 0, "lon": -77.0136685}, {"fusion_lat": 0.0, "name": "4a68594e32c0d3545a79a791a2f68aef", "is_disabled": 0, "rental_uris": {"android": "https://dc.lft.to/lastmile_qr_scan", "ios": "https://dc.lft.to/lastmile_qr_scan"}, "fusion_lon": 0.0, "lat": 38.94649166666667, "bike_id": "4a68594e32c0d3545a79a791a2f68aef", "type": "electric_bike", "is_reserved": 0, "lon": -77.03052183333334}, {"fusion_lat": 0.0, "name": "4d24fa9b85382c5eec21ffe8b86647c4", "is_disabled": 0, "rental_uris": {"android": "https://dc.lft.to/lastmile_qr_scan", "ios": "https://dc.lft.to/lastmile_qr_scan"}, "fusion_lon": 0.0, "lat": 38.93673, "bike_id": "4d24fa9b85382c5eec21ffe8b86647c4", "type": "electric_scooter", "is_reserved": 0, "lon": -77.03588733333333}, {"fusion_lat": 0.0, "name": "921a027c1b6e3558bfb42a1cdc2f43e2", "is_disabled": 0, "rental_uris": {"android": "https://dc.lft.to/lastmile_qr_scan", "ios": "https://dc.lft.to/lastmile_qr_scan"}, "fusion_lon": 0.0, "lat": 38.97490466666667, "bike_id": "921a027c1b6e3558bfb42a1cdc2f43e2", "type": "electric_scooter", "is_reserved": 0, "lon": -77.01688066666667}, {"fusion_lat": 0.0, "name": "4456103f47f2aff75bc5c9d71ab681c4", "is_disabled": 0, "rental_uris": {"android": "https://dc.lft.to/lastmile_qr_scan", "ios": "https://dc.lft.to/lastmile_qr_scan"}, "fusion_lon": 0.0, "lat": 38.917771333333334, "bike_id": "4456103f47f2aff75bc5c9d71ab681c4", "type": "electric_scooter", "is_reserved": 0, "lon": -77.01923866666667}, {"fusion_lat": 0.0, "name": "6278523e738d270d8ab5708055c4858c", "is_disabled": 0, "rental_uris": {"android": "https://dc.lft.to/lastmile_qr_scan", "ios": "https://dc.lft.to/lastmile_qr_scan"}, "fusion_lon": 0.0, "lat": 38.947001, "bike_id": "6278523e738d270d8ab5708055c4858c", "type": "electric_scooter", "is_reserved": 0, "lon": -77.01949066666667}, {"fusion_lat": 0.0, "name": "9fabb2bc6c24da55900bafdb9cfacad3", "is_disabled": 0, "rental_uris": {"android": "https://dc.lft.to/lastmile_qr_scan", "ios": "https://dc.lft.to/lastmile_qr_scan"}, "fusion_lon": 0.0, "lat": 38.88514116666666, "bike_id": "9fabb2bc6c24da55900bafdb9cfacad3", "type": "electric_scooter", "is_reserved": 0, "lon": -76.92950566666667}, {"fusion_lat": 0.0, "name": "155c15f7f3e3f70204f6473bb518a5de", "is_disabled": 0, "rental_uris": {"android": "https://dc.lft.to/lastmile_qr_scan", "ios": "https://dc.lft.to/lastmile_qr_scan"}, "fusion_lon": 0.0, "lat": 38.9359695, "bike_id": "155c15f7f3e3f70204f6473bb518a5de", "type": "electric_scooter", "is_reserved": 0, "lon": -77.03730033333333}, {"fusion_lat": 0.0, "name": "264294cbc9d93873e1db970c00b05fa2", "is_disabled": 0, "rental_uris": {"android": "https://dc.lft.to/lastmile_qr_scan", "ios": "https://dc.lft.to/lastmile_qr_scan"}, "fusion_lon": 0.0, "lat": 38.884554666666666, "bike_id": "264294cbc9d93873e1db970c00b05fa2", "type": "electric_scooter", "is_reserved": 0, "lon": -76.998302}, {"fusion_lat": 0.0, "name": "387ab73c3312308a8b9b002d6fab2ca9", "is_disabled": 0, "rental_uris": {"android": "https://dc.lft.to/lastmile_qr_scan", "ios": "https://dc.lft.to/lastmile_qr_scan"}, "fusion_lon": 0.0, "lat": 38.9111865, "bike_id": "387ab73c3312308a8b9b002d6fab2ca9", "type": "electric_scooter", "is_reserved": 0, "lon": -77.0208385}, {"fusion_lat": 0.0, "name": "644aa3f98a26371238fd449bfdeaea03", "is_disabled": 0, "rental_uris": {"android": "https://dc.lft.to/lastmile_qr_scan", "ios": "https://dc.lft.to/lastmile_qr_scan"}, "fusion_lon": 0.0, "lat": 38.9377855, "bike_id": "644aa3f98a26371238fd449bfdeaea03", "type": "electric_scooter", "is_reserved": 0, "lon": -77.0245275}, {"fusion_lat": 0.0, "name": "e60415c13f4f518d564013b1b3ec26ca", "is_disabled": 0, "rental_uris": {"android": "https://dc.lft.to/lastmile_qr_scan", "ios": "https://dc.lft.to/lastmile_qr_scan"}, "fusion_lon": 0.0, "lat": 38.88613466666666, "bike_id": "e60415c13f4f518d564013b1b3ec26ca", "type": "electric_scooter", "is_reserved": 0, "lon": -77.01554116666667}, {"fusion_lat": 0.0, "name": "8f1f5834b6a4975a476212934ac06366", "is_disabled": 0, "rental_uris": {"android": "https://dc.lft.to/lastmile_qr_scan", "ios": "https://dc.lft.to/lastmile_qr_scan"}, "fusion_lon": 0.0, "lat": 38.93261866666667, "bike_id": "8f1f5834b6a4975a476212934ac06366", "type": "electric_scooter", "is_reserved": 0, "lon": -77.034512}, {"fusion_lat": 0.0, "name": "9344a960517d9bc17d55ae8fc37e9050", "is_disabled": 0, "rental_uris": {"android": "https://dc.lft.to/lastmile_qr_scan", "ios": "https://dc.lft.to/lastmile_qr_scan"}, "fusion_lon": 0.0, "lat": 38.93435066666667, "bike_id": "9344a960517d9bc17d55ae8fc37e9050", "type": "electric_scooter", "is_reserved": 0, "lon": -77.03998516666667}, {"fusion_lat": 0.0, "name": "22f365b072d5f388bdaaf48f20982d2d", "is_disabled": 0, "rental_uris": {"android": "https://dc.lft.to/lastmile_qr_scan", "ios": "https://dc.lft.to/lastmile_qr_scan"}, "fusion_lon": 0.0, "lat": 38.923951333333335, "bike_id": "22f365b072d5f388bdaaf48f20982d2d", "type": "electric_scooter", "is_reserved": 0, "lon": -77.03654366666666}, {"fusion_lat": 0.0, "name": "a9d876d0ff4e4a6caf88a52cae662825", "is_disabled": 0, "rental_uris": {"android": "https://dc.lft.to/lastmile_qr_scan", "ios": "https://dc.lft.to/lastmile_qr_scan"}, "fusion_lon": 0.0, "lat": 38.89239666666667, "bike_id": "a9d876d0ff4e4a6caf88a52cae662825", "type": "electric_scooter", "is_reserved": 0, "lon": -77.03348766666667}, {"fusion_lat": 0.0, "name": "a501690f3fe0870c9772c713e8b8dcf0", "is_disabled": 0, "rental_uris": {"android": "https://dc.lft.to/lastmile_qr_scan", "ios": "https://dc.lft.to/lastmile_qr_scan"}, "fusion_lon": 0.0, "lat": 38.900657833333334, "bike_id": "a501690f3fe0870c9772c713e8b8dcf0", "type": "electric_scooter", "is_reserved": 0, "lon": -76.93383316666667}, {"fusion_lat": 0.0, "name": "247bf5c706e1aa10f740c563c1cb53ea", "is_disabled": 0, "rental_uris": {"android": "https://dc.lft.to/lastmile_qr_scan", "ios": "https://dc.lft.to/lastmile_qr_scan"}, "fusion_lon": 0.0, "lat": 38.922351166666665, "bike_id": "247bf5c706e1aa10f740c563c1cb53ea", "type": "electric_scooter", "is_reserved": 0, "lon": -77.042422}, {"fusion_lat": 0.0, "name": "ea477e84b22eae331026d27bf8a13d37", "is_disabled": 0, "rental_uris": {"android": "https://dc.lft.to/lastmile_qr_scan", "ios": "https://dc.lft.to/lastmile_qr_scan"}, "fusion_lon": 0.0, "lat": 38.9482545, "bike_id": "ea477e84b22eae331026d27bf8a13d37", "type": "electric_scooter", "is_reserved": 0, "lon": -77.02615933333334}, {"fusion_lat": 0.0, "name": "49613d2e69534e54cc751a21ae43a115", "is_disabled": 0, "rental_uris": {"android": "https://dc.lft.to/lastmile_qr_scan", "ios": "https://dc.lft.to/lastmile_qr_scan"}, "fusion_lon": 0.0, "lat": 38.905651, "bike_id": "49613d2e69534e54cc751a21ae43a115", "type": "electric_scooter", "is_reserved": 0, "lon": -77.00589683333334}, {"fusion_lat": 0.0, "name": "a344efc3010461dba8e6db42a7485382", "is_disabled": 0, "rental_uris": {"android": "https://dc.lft.to/lastmile_qr_scan", "ios": "https://dc.lft.to/lastmile_qr_scan"}, "fusion_lon": 0.0, "lat": 38.91548016666667, "bike_id": "a344efc3010461dba8e6db42a7485382", "type": "electric_scooter", "is_reserved": 0, "lon": -77.041477}, {"fusion_lat": 0.0, "name": "a200fc395abc85bdd34e7856dd535477", "is_disabled": 0, "rental_uris": {"android": "https://dc.lft.to/lastmile_qr_scan", "ios": "https://dc.lft.to/lastmile_qr_scan"}, "fusion_lon": 0.0, "lat": 38.88096, "bike_id": "a200fc395abc85bdd34e7856dd535477", "type": "electric_scooter", "is_reserved": 0, "lon": -76.98661633333333}, {"fusion_lat": 0.0, "name": "1f16c9f7ed666f11080eed5673bd3e62", "is_disabled": 0, "rental_uris": {"android": "https://dc.lft.to/lastmile_qr_scan", "ios": "https://dc.lft.to/lastmile_qr_scan"}, "fusion_lon": 0.0, "lat": 38.835475833333334, "bike_id": "1f16c9f7ed666f11080eed5673bd3e62", "type": "electric_bike", "is_reserved": 0, "lon": -76.98726633333334}, {"fusion_lat": 0.0, "name": "fdc7cea8545578e315b82bbda4df5afa", "is_disabled": 0, "rental_uris": {"android": "https://dc.lft.to/lastmile_qr_scan", "ios": "https://dc.lft.to/lastmile_qr_scan"}, "fusion_lon": 0.0, "lat": 38.900339833333334, "bike_id": "fdc7cea8545578e315b82bbda4df5afa", "type": "electric_scooter", "is_reserved": 0, "lon": -77.00190783333333}, {"fusion_lat": 0.0, "name": "cc2a13da92e0aef02cc51d6b2a8b3e69", "is_disabled": 0, "rental_uris": {"android": "https://dc.lft.to/lastmile_qr_scan", "ios": "https://dc.lft.to/lastmile_qr_scan"}, "fusion_lon": 0.0, "lat": 38.92749416666667, "bike_id": "cc2a13da92e0aef02cc51d6b2a8b3e69", "type": "electric_scooter", "is_reserved": 0, "lon": -77.03433833333334}, {"fusion_lat": 0.0, "name": "bf3d9c4d66e8ceecde12bc76bea5b74b", "is_disabled": 0, "rental_uris": {"android": "https://dc.lft.to/lastmile_qr_scan", "ios": "https://dc.lft.to/lastmile_qr_scan"}, "fusion_lon": 0.0, "lat": 38.90413983333333, "bike_id": "bf3d9c4d66e8ceecde12bc76bea5b74b", "type": "electric_scooter", "is_reserved": 0, "lon": -76.97335816666667}, {"fusion_lat": 0.0, "name": "3362497367d6c52c6868b5cd30e1a56b", "is_disabled": 0, "rental_uris": {"android": "https://dc.lft.to/lastmile_qr_scan", "ios": "https://dc.lft.to/lastmile_qr_scan"}, "fusion_lon": 0.0, "lat": 38.88719366666667, "bike_id": "3362497367d6c52c6868b5cd30e1a56b", "type": "electric_scooter", "is_reserved": 0, "lon": -77.00238983333334}, {"fusion_lat": 0.0, "name": "129eb3a1f540aee53f6668320581aac6", "is_disabled": 0, "rental_uris": {"android": "https://dc.lft.to/lastmile_qr_scan", "ios": "https://dc.lft.to/lastmile_qr_scan"}, "fusion_lon": 0.0, "lat": 38.89673416666667, "bike_id": "129eb3a1f540aee53f6668320581aac6", "type": "electric_scooter", "is_reserved": 0, "lon": -77.02949433333333}, {"fusion_lat": 0.0, "name": "ca433d51273536a8695d02b2d82ea206", "is_disabled": 0, "rental_uris": {"android": "https://dc.lft.to/lastmile_qr_scan", "ios": "https://dc.lft.to/lastmile_qr_scan"}, "fusion_lon": 0.0, "lat": 38.902124, "bike_id": "ca433d51273536a8695d02b2d82ea206", "type": "electric_scooter", "is_reserved": 0, "lon": -77.02357166666667}, {"fusion_lat": 0.0, "name": "a797b9bdbc784483844803d8facc4e33", "is_disabled": 0, "rental_uris": {"android": "https://dc.lft.to/lastmile_qr_scan", "ios": "https://dc.lft.to/lastmile_qr_scan"}, "fusion_lon": 0.0, "lat": 38.897089, "bike_id": "a797b9bdbc784483844803d8facc4e33", "type": "electric_scooter", "is_reserved": 0, "lon": -77.05124783333333}, {"fusion_lat": 0.0, "name": "a3c5b2030b2f514e2f17c9e7320f9afe", "is_disabled": 0, "rental_uris": {"android": "https://dc.lft.to/lastmile_qr_scan", "ios": "https://dc.lft.to/lastmile_qr_scan"}, "fusion_lon": 0.0, "lat": 38.90120366666667, "bike_id": "a3c5b2030b2f514e2f17c9e7320f9afe", "type": "electric_scooter", "is_reserved": 0, "lon": -77.0523935}, {"fusion_lat": 0.0, "name": "aacf89447da57e5a632f1824f272fa9b", "is_disabled": 0, "rental_uris": {"android": "https://dc.lft.to/lastmile_qr_scan", "ios": "https://dc.lft.to/lastmile_qr_scan"}, "fusion_lon": 0.0, "lat": 38.89830883333333, "bike_id": "aacf89447da57e5a632f1824f272fa9b", "type": "electric_scooter", "is_reserved": 0, "lon": -76.94631183333334}, {"fusion_lat": 0.0, "name": "b2d2c65283e9a2f730243d86f3acfabd", "is_disabled": 0, "rental_uris": {"android": "https://dc.lft.to/lastmile_qr_scan", "ios": "https://dc.lft.to/lastmile_qr_scan"}, "fusion_lon": 0.0, "lat": 38.82177816666667, "bike_id": "b2d2c65283e9a2f730243d86f3acfabd", "type": "electric_bike", "is_reserved": 0, "lon": -76.99515016666666}, {"fusion_lat": 0.0, "name": "44195e1c5b6e3ac0fb98569f916c9631", "is_disabled": 0, "rental_uris": {"android": "https://dc.lft.to/lastmile_qr_scan", "ios": "https://dc.lft.to/lastmile_qr_scan"}, "fusion_lon": 0.0, "lat": 38.89610783333333, "bike_id": "44195e1c5b6e3ac0fb98569f916c9631", "type": "electric_scooter", "is_reserved": 0, "lon": -76.94811583333333}, {"fusion_lat": 0.0, "name": "ebe909f4de5d52a0112c5d9d30b1df42", "is_disabled": 0, "rental_uris": {"android": "https://dc.lft.to/lastmile_qr_scan", "ios": "https://dc.lft.to/lastmile_qr_scan"}, "fusion_lon": 0.0, "lat": 38.8774715, "bike_id": "ebe909f4de5d52a0112c5d9d30b1df42", "type": "electric_scooter", "is_reserved": 0, "lon": -77.014259}, {"fusion_lat": 0.0, "name": "f8801c551368b0abd1248d3f07753ead", "is_disabled": 0, "rental_uris": {"android": "https://dc.lft.to/lastmile_qr_scan", "ios": "https://dc.lft.to/lastmile_qr_scan"}, "fusion_lon": 0.0, "lat": 38.87956466666667, "bike_id": "f8801c551368b0abd1248d3f07753ead", "type": "electric_scooter", "is_reserved": 0, "lon": -76.99011483333334}, {"fusion_lat": 0.0, "name": "7ce29672e738acdba3a28d767f92f7a8", "is_disabled": 0, "rental_uris": {"android": "https://dc.lft.to/lastmile_qr_scan", "ios": "https://dc.lft.to/lastmile_qr_scan"}, "fusion_lon": 0.0, "lat": 38.88335983333333, "bike_id": "7ce29672e738acdba3a28d767f92f7a8", "type": "electric_scooter", "is_reserved": 0, "lon": -77.01772933333334}, {"fusion_lat": 0.0, "name": "c532301210827e7d2aef9873a138e9bc", "is_disabled": 0, "rental_uris": {"android": "https://dc.lft.to/lastmile_qr_scan", "ios": "https://dc.lft.to/lastmile_qr_scan"}, "fusion_lon": 0.0, "lat": 38.92603483333333, "bike_id": "c532301210827e7d2aef9873a138e9bc", "type": "electric_scooter", "is_reserved": 0, "lon": -77.0215565}, {"fusion_lat": 0.0, "name": "c9de5264e5f691093112ba468b5b77e9", "is_disabled": 0, "rental_uris": {"android": "https://dc.lft.to/lastmile_qr_scan", "ios": "https://dc.lft.to/lastmile_qr_scan"}, "fusion_lon": 0.0, "lat": 38.89010716666667, "bike_id": "c9de5264e5f691093112ba468b5b77e9", "type": "electric_scooter", "is_reserved": 0, "lon": -76.93743016666667}, {"fusion_lat": 0.0, "name": "ebebe6b5ff2f8e0f4dd6f6df1c56995a", "is_disabled": 0, "rental_uris": {"android": "https://dc.lft.to/lastmile_qr_scan", "ios": "https://dc.lft.to/lastmile_qr_scan"}, "fusion_lon": 0.0, "lat": 38.91665866666666, "bike_id": "ebebe6b5ff2f8e0f4dd6f6df1c56995a", "type": "electric_scooter", "is_reserved": 0, "lon": -77.0281695}, {"fusion_lat": 0.0, "name": "9f68b154351b11c2ed77f2779aed2ca1", "is_disabled": 0, "rental_uris": {"android": "https://dc.lft.to/lastmile_qr_scan", "ios": "https://dc.lft.to/lastmile_qr_scan"}, "fusion_lon": 0.0, "lat": 38.87687833333333, "bike_id": "9f68b154351b11c2ed77f2779aed2ca1", "type": "electric_scooter", "is_reserved": 0, "lon": -77.01753816666667}, {"fusion_lat": 0.0, "name": "859ea05053fe9a1f9981e435ceec2092", "is_disabled": 0, "rental_uris": {"android": "https://dc.lft.to/lastmile_qr_scan", "ios": "https://dc.lft.to/lastmile_qr_scan"}, "fusion_lon": 0.0, "lat": 38.932671666666664, "bike_id": "859ea05053fe9a1f9981e435ceec2092", "type": "electric_scooter", "is_reserved": 0, "lon": -77.02090816666667}, {"fusion_lat": 0.0, "name": "5ff00b1195ed701e475c7939ff58f530", "is_disabled": 0, "rental_uris": {"android": "https://dc.lft.to/lastmile_qr_scan", "ios": "https://dc.lft.to/lastmile_qr_scan"}, "fusion_lon": 0.0, "lat": 38.90904116666667, "bike_id": "5ff00b1195ed701e475c7939ff58f530", "type": "electric_bike", "is_reserved": 0, "lon": -77.03223183333333}, {"fusion_lat": 0.0, "name": "a07879de1423bde5f554a648297ed7c0", "is_disabled": 0, "rental_uris": {"android": "https://dc.lft.to/lastmile_qr_scan", "ios": "https://dc.lft.to/lastmile_qr_scan"}, "fusion_lon": 0.0, "lat": 38.8045355, "bike_id": "a07879de1423bde5f554a648297ed7c0", "type": "electric_bike", "is_reserved": 0, "lon": -77.05389333333333}, {"fusion_lat": 0.0, "name": "e77021ee8cb41d8b2e59e79e8a450f35", "is_disabled": 0, "rental_uris": {"android": "https://dc.lft.to/lastmile_qr_scan", "ios": "https://dc.lft.to/lastmile_qr_scan"}, "fusion_lon": 0.0, "lat": 38.92091583333333, "bike_id": "e77021ee8cb41d8b2e59e79e8a450f35", "type": "electric_scooter", "is_reserved": 0, "lon": -76.99456433333333}, {"fusion_lat": 0.0, "name": "a5b2074d3472130d129795e8ee0bd1fd", "is_disabled": 0, "rental_uris": {"android": "https://dc.lft.to/lastmile_qr_scan", "ios": "https://dc.lft.to/lastmile_qr_scan"}, "fusion_lon": 0.0, "lat": 38.897502833333334, "bike_id": "a5b2074d3472130d129795e8ee0bd1fd", "type": "electric_scooter", "is_reserved": 0, "lon": -77.04633266666667}, {"fusion_lat": 0.0, "name": "c68c1bd7964b7cb472f40d6cd2cb7a97", "is_disabled": 0, "rental_uris": {"android": "https://dc.lft.to/lastmile_qr_scan", "ios": "https://dc.lft.to/lastmile_qr_scan"}, "fusion_lon": 0.0, "lat": 38.914714833333335, "bike_id": "c68c1bd7964b7cb472f40d6cd2cb7a97", "type": "electric_scooter", "is_reserved": 0, "lon": -77.04550183333333}, {"fusion_lat": 0.0, "name": "a342868f7607fb950469ca826d5c82c8", "is_disabled": 0, "rental_uris": {"android": "https://dc.lft.to/lastmile_qr_scan", "ios": "https://dc.lft.to/lastmile_qr_scan"}, "fusion_lon": 0.0, "lat": 38.91238166666667, "bike_id": "a342868f7607fb950469ca826d5c82c8", "type": "electric_scooter", "is_reserved": 0, "lon": -77.0486895}, {"fusion_lat": 0.0, "name": "f76c0cf125dd1595a4b434e98e4095a8", "is_disabled": 0, "rental_uris": {"android": "https://dc.lft.to/lastmile_qr_scan", "ios": "https://dc.lft.to/lastmile_qr_scan"}, "fusion_lon": 0.0, "lat": 38.923516666666664, "bike_id": "f76c0cf125dd1595a4b434e98e4095a8", "type": "electric_scooter", "is_reserved": 0, "lon": -77.02450833333333}, {"fusion_lat": 0.0, "name": "b44794b2a20802d7a5f4d8ed0d107069", "is_disabled": 0, "rental_uris": {"android": "https://dc.lft.to/lastmile_qr_scan", "ios": "https://dc.lft.to/lastmile_qr_scan"}, "fusion_lon": 0.0, "lat": 38.93369716666667, "bike_id": "b44794b2a20802d7a5f4d8ed0d107069", "type": "electric_scooter", "is_reserved": 0, "lon": -77.03082566666667}, {"fusion_lat": 0.0, "name": "c332ee51b67465a3eb7c7da1c7ac3829", "is_disabled": 0, "rental_uris": {"android": "https://dc.lft.to/lastmile_qr_scan", "ios": "https://dc.lft.to/lastmile_qr_scan"}, "fusion_lon": 0.0, "lat": 38.8427475, "bike_id": "c332ee51b67465a3eb7c7da1c7ac3829", "type": "electric_bike", "is_reserved": 0, "lon": -76.9883855}, {"fusion_lat": 0.0, "name": "d82792b4ee8b20319e146c570cdc3b9d", "is_disabled": 0, "rental_uris": {"android": "https://dc.lft.to/lastmile_qr_scan", "ios": "https://dc.lft.to/lastmile_qr_scan"}, "fusion_lon": 0.0, "lat": 38.9226015, "bike_id": "d82792b4ee8b20319e146c570cdc3b9d", "type": "electric_bike", "is_reserved": 0, "lon": -77.0702745}, {"fusion_lat": 0.0, "name": "4d57f5a4d6bb8494297ee22ba19f4d4b", "is_disabled": 0, "rental_uris": {"android": "https://dc.lft.to/lastmile_qr_scan", "ios": "https://dc.lft.to/lastmile_qr_scan"}, "fusion_lon": 0.0, "lat": 38.911283, "bike_id": "4d57f5a4d6bb8494297ee22ba19f4d4b", "type": "electric_scooter", "is_reserved": 0, "lon": -77.022002}, {"fusion_lat": 0.0, "name": "ee95575b127598d1802beef9079dac1b", "is_disabled": 0, "rental_uris": {"android": "https://dc.lft.to/lastmile_qr_scan", "ios": "https://dc.lft.to/lastmile_qr_scan"}, "fusion_lon": 0.0, "lat": 38.92462733333333, "bike_id": "ee95575b127598d1802beef9079dac1b", "type": "electric_scooter", "is_reserved": 0, "lon": -77.024073}, {"fusion_lat": 0.0, "name": "64836409c52cc86ca3f995d21687a71f", "is_disabled": 0, "rental_uris": {"android": "https://dc.lft.to/lastmile_qr_scan", "ios": "https://dc.lft.to/lastmile_qr_scan"}, "fusion_lon": 0.0, "lat": 38.908910666666664, "bike_id": "64836409c52cc86ca3f995d21687a71f", "type": "electric_scooter", "is_reserved": 0, "lon": -77.044187}, {"fusion_lat": 0.0, "name": "4449ba432e91f3f8f8ce945c16b5ae6e", "is_disabled": 0, "rental_uris": {"android": "https://dc.lft.to/lastmile_qr_scan", "ios": "https://dc.lft.to/lastmile_qr_scan"}, "fusion_lon": 0.0, "lat": 38.9204785, "bike_id": "4449ba432e91f3f8f8ce945c16b5ae6e", "type": "electric_scooter", "is_reserved": 0, "lon": -77.03079783333334}, {"fusion_lat": 0.0, "name": "0ea907823926e065d44c30acc51571f1", "is_disabled": 0, "rental_uris": {"android": "https://dc.lft.to/lastmile_qr_scan", "ios": "https://dc.lft.to/lastmile_qr_scan"}, "fusion_lon": 0.0, "lat": 38.920679, "bike_id": "0ea907823926e065d44c30acc51571f1", "type": "electric_scooter", "is_reserved": 0, "lon": -77.02855533333333}, {"fusion_lat": 0.0, "name": "2b13debfd91913bebaac935636307a6e", "is_disabled": 0, "rental_uris": {"android": "https://dc.lft.to/lastmile_qr_scan", "ios": "https://dc.lft.to/lastmile_qr_scan"}, "fusion_lon": 0.0, "lat": 38.9182185, "bike_id": "2b13debfd91913bebaac935636307a6e", "type": "electric_scooter", "is_reserved": 0, "lon": -77.03273383333334}, {"fusion_lat": 0.0, "name": "290e1ba8e56554efe83acfed1da6ad4c", "is_disabled": 0, "rental_uris": {"android": "https://dc.lft.to/lastmile_qr_scan", "ios": "https://dc.lft.to/lastmile_qr_scan"}, "fusion_lon": 0.0, "lat": 38.920754, "bike_id": "290e1ba8e56554efe83acfed1da6ad4c", "type": "electric_scooter", "is_reserved": 0, "lon": -77.02310266666667}, {"fusion_lat": 0.0, "name": "49cb5146ffb60a201bc4f680e12aeb1e", "is_disabled": 0, "rental_uris": {"android": "https://dc.lft.to/lastmile_qr_scan", "ios": "https://dc.lft.to/lastmile_qr_scan"}, "fusion_lon": 0.0, "lat": 38.916619833333336, "bike_id": "49cb5146ffb60a201bc4f680e12aeb1e", "type": "electric_scooter", "is_reserved": 0, "lon": -77.04197816666667}, {"fusion_lat": 0.0, "name": "c17f0a14c776daa3d6a22cb9cc065871", "is_disabled": 0, "rental_uris": {"android": "https://dc.lft.to/lastmile_qr_scan", "ios": "https://dc.lft.to/lastmile_qr_scan"}, "fusion_lon": 0.0, "lat": 38.9209315, "bike_id": "c17f0a14c776daa3d6a22cb9cc065871", "type": "electric_scooter", "is_reserved": 0, "lon": -77.03933383333333}, {"fusion_lat": 0.0, "name": "788f45c969c888933c73df7fdd96f7a7", "is_disabled": 0, "rental_uris": {"android": "https://dc.lft.to/lastmile_qr_scan", "ios": "https://dc.lft.to/lastmile_qr_scan"}, "fusion_lon": 0.0, "lat": 38.93458066666667, "bike_id": "788f45c969c888933c73df7fdd96f7a7", "type": "electric_scooter", "is_reserved": 0, "lon": -77.05775883333334}, {"fusion_lat": 0.0, "name": "2fc67eb23d4a69320ea15c9bdeedce70", "is_disabled": 0, "rental_uris": {"android": "https://dc.lft.to/lastmile_qr_scan", "ios": "https://dc.lft.to/lastmile_qr_scan"}, "fusion_lon": 0.0, "lat": 38.897434833333335, "bike_id": "2fc67eb23d4a69320ea15c9bdeedce70", "type": "electric_scooter", "is_reserved": 0, "lon": -77.03197116666666}, {"fusion_lat": 0.0, "name": "ad141eef17093c627484a1933da16b6b", "is_disabled": 0, "rental_uris": {"android": "https://dc.lft.to/lastmile_qr_scan", "ios": "https://dc.lft.to/lastmile_qr_scan"}, "fusion_lon": 0.0, "lat": 38.9353, "bike_id": "ad141eef17093c627484a1933da16b6b", "type": "electric_scooter", "is_reserved": 0, "lon": -77.02337866666667}, {"fusion_lat": 0.0, "name": "0dd6f1b62c9de63dd993a60875f96e6f", "is_disabled": 0, "rental_uris": {"android": "https://dc.lft.to/lastmile_qr_scan", "ios": "https://dc.lft.to/lastmile_qr_scan"}, "fusion_lon": 0.0, "lat": 38.9211055, "bike_id": "0dd6f1b62c9de63dd993a60875f96e6f", "type": "electric_scooter", "is_reserved": 0, "lon": -77.046824}, {"fusion_lat": 0.0, "name": "3f1be4f1559ed34bf4ff9e7a89f2a502", "is_disabled": 0, "rental_uris": {"android": "https://dc.lft.to/lastmile_qr_scan", "ios": "https://dc.lft.to/lastmile_qr_scan"}, "fusion_lon": 0.0, "lat": 38.8851405, "bike_id": "3f1be4f1559ed34bf4ff9e7a89f2a502", "type": "electric_scooter", "is_reserved": 0, "lon": -76.9295685}, {"fusion_lat": 0.0, "name": "268358c04388906ae4e62e6640452d71", "is_disabled": 0, "rental_uris": {"android": "https://dc.lft.to/lastmile_qr_scan", "ios": "https://dc.lft.to/lastmile_qr_scan"}, "fusion_lon": 0.0, "lat": 38.908515666666666, "bike_id": "268358c04388906ae4e62e6640452d71", "type": "electric_scooter", "is_reserved": 0, "lon": -77.0454345}, {"fusion_lat": 0.0, "name": "6fad6bb80961b53994471e39683955f0", "is_disabled": 0, "rental_uris": {"android": "https://dc.lft.to/lastmile_qr_scan", "ios": "https://dc.lft.to/lastmile_qr_scan"}, "fusion_lon": 0.0, "lat": 38.96128683333333, "bike_id": "6fad6bb80961b53994471e39683955f0", "type": "electric_bike", "is_reserved": 0, "lon": -77.0327905}, {"fusion_lat": 0.0, "name": "cbf95188227667b79f2ad872d5866c20", "is_disabled": 0, "rental_uris": {"android": "https://dc.lft.to/lastmile_qr_scan", "ios": "https://dc.lft.to/lastmile_qr_scan"}, "fusion_lon": 0.0, "lat": 38.9154815, "bike_id": "cbf95188227667b79f2ad872d5866c20", "type": "electric_scooter", "is_reserved": 0, "lon": -77.02201733333334}, {"fusion_lat": 0.0, "name": "8462b48685c677604483885e5db3909d", "is_disabled": 0, "rental_uris": {"android": "https://dc.lft.to/lastmile_qr_scan", "ios": "https://dc.lft.to/lastmile_qr_scan"}, "fusion_lon": 0.0, "lat": 38.94399933333333, "bike_id": "8462b48685c677604483885e5db3909d", "type": "electric_scooter", "is_reserved": 0, "lon": -77.0612225}, {"fusion_lat": 0.0, "name": "6e4bbd962d5ac984885a90f781145ce0", "is_disabled": 0, "rental_uris": {"android": "https://dc.lft.to/lastmile_qr_scan", "ios": "https://dc.lft.to/lastmile_qr_scan"}, "fusion_lon": 0.0, "lat": 38.8737925, "bike_id": "6e4bbd962d5ac984885a90f781145ce0", "type": "electric_scooter", "is_reserved": 0, "lon": -77.000916}, {"fusion_lat": 0.0, "name": "4cb4b1f92a6e3b067d90e02bb8855b4f", "is_disabled": 0, "rental_uris": {"android": "https://dc.lft.to/lastmile_qr_scan", "ios": "https://dc.lft.to/lastmile_qr_scan"}, "fusion_lon": 0.0, "lat": 38.916483666666664, "bike_id": "4cb4b1f92a6e3b067d90e02bb8855b4f", "type": "electric_scooter", "is_reserved": 0, "lon": -77.04795483333334}, {"fusion_lat": 0.0, "name": "87daacc6ff08c17350564f26735ad30c", "is_disabled": 0, "rental_uris": {"android": "https://dc.lft.to/lastmile_qr_scan", "ios": "https://dc.lft.to/lastmile_qr_scan"}, "fusion_lon": 0.0, "lat": 38.89910183333333, "bike_id": "87daacc6ff08c17350564f26735ad30c", "type": "electric_scooter", "is_reserved": 0, "lon": -77.0330595}, {"fusion_lat": 0.0, "name": "035d6cfc7288526f875541139fd080e2", "is_disabled": 0, "rental_uris": {"android": "https://dc.lft.to/lastmile_qr_scan", "ios": "https://dc.lft.to/lastmile_qr_scan"}, "fusion_lon": 0.0, "lat": 38.91670233333333, "bike_id": "035d6cfc7288526f875541139fd080e2", "type": "electric_scooter", "is_reserved": 0, "lon": -77.02965583333334}, {"fusion_lat": 0.0, "name": "803246020cae2e195888e5cedbc95c7b", "is_disabled": 0, "rental_uris": {"android": "https://dc.lft.to/lastmile_qr_scan", "ios": "https://dc.lft.to/lastmile_qr_scan"}, "fusion_lon": 0.0, "lat": 38.939725333333335, "bike_id": "803246020cae2e195888e5cedbc95c7b", "type": "electric_scooter", "is_reserved": 0, "lon": -77.0356255}, {"fusion_lat": 0.0, "name": "d90a23c4cd0a09b21a6c11b6ef671e86", "is_disabled": 0, "rental_uris": {"android": "https://dc.lft.to/lastmile_qr_scan", "ios": "https://dc.lft.to/lastmile_qr_scan"}, "fusion_lon": 0.0, "lat": 38.8846785, "bike_id": "d90a23c4cd0a09b21a6c11b6ef671e86", "type": "electric_scooter", "is_reserved": 0, "lon": -76.949824}, {"fusion_lat": 0.0, "name": "38b78a29b5fd7d5b2982aeea0f40f76c", "is_disabled": 0, "rental_uris": {"android": "https://dc.lft.to/lastmile_qr_scan", "ios": "https://dc.lft.to/lastmile_qr_scan"}, "fusion_lon": 0.0, "lat": 38.876352, "bike_id": "38b78a29b5fd7d5b2982aeea0f40f76c", "type": "electric_scooter", "is_reserved": 0, "lon": -77.00118333333333}, {"fusion_lat": 0.0, "name": "f74d1898668eafeeeb6e9c7b0deb22c3", "is_disabled": 0, "rental_uris": {"android": "https://dc.lft.to/lastmile_qr_scan", "ios": "https://dc.lft.to/lastmile_qr_scan"}, "fusion_lon": 0.0, "lat": 38.87868516666666, "bike_id": "f74d1898668eafeeeb6e9c7b0deb22c3", "type": "electric_scooter", "is_reserved": 0, "lon": -77.005438}, {"fusion_lat": 0.0, "name": "f02046beb79dd9211d1edfbfd0a3240a", "is_disabled": 0, "rental_uris": {"android": "https://dc.lft.to/lastmile_qr_scan", "ios": "https://dc.lft.to/lastmile_qr_scan"}, "fusion_lon": 0.0, "lat": 38.92701233333333, "bike_id": "f02046beb79dd9211d1edfbfd0a3240a", "type": "electric_scooter", "is_reserved": 0, "lon": -77.02074266666666}, {"fusion_lat": 0.0, "name": "439bbae7b320d0b0e511d66bfe951fcd", "is_disabled": 0, "rental_uris": {"android": "https://dc.lft.to/lastmile_qr_scan", "ios": "https://dc.lft.to/lastmile_qr_scan"}, "fusion_lon": 0.0, "lat": 38.883938666666666, "bike_id": "439bbae7b320d0b0e511d66bfe951fcd", "type": "electric_scooter", "is_reserved": 0, "lon": -76.930572}, {"fusion_lat": 0.0, "name": "149255140ff4e15bcb4acca2e55f31b5", "is_disabled": 0, "rental_uris": {"android": "https://dc.lft.to/lastmile_qr_scan", "ios": "https://dc.lft.to/lastmile_qr_scan"}, "fusion_lon": 0.0, "lat": 38.90387166666667, "bike_id": "149255140ff4e15bcb4acca2e55f31b5", "type": "electric_scooter", "is_reserved": 0, "lon": -77.06719033333333}, {"fusion_lat": 0.0, "name": "a52a38830b56582eb89de3d431657ebd", "is_disabled": 0, "rental_uris": {"android": "https://dc.lft.to/lastmile_qr_scan", "ios": "https://dc.lft.to/lastmile_qr_scan"}, "fusion_lon": 0.0, "lat": 38.92252116666667, "bike_id": "a52a38830b56582eb89de3d431657ebd", "type": "electric_scooter", "is_reserved": 0, "lon": -77.08078533333334}, {"fusion_lat": 0.0, "name": "976742482a335d703cb179e9b3e8a0fe", "is_disabled": 0, "rental_uris": {"android": "https://dc.lft.to/lastmile_qr_scan", "ios": "https://dc.lft.to/lastmile_qr_scan"}, "fusion_lon": 0.0, "lat": 38.91551283333333, "bike_id": "976742482a335d703cb179e9b3e8a0fe", "type": "electric_scooter", "is_reserved": 0, "lon": -77.0411245}, {"fusion_lat": 0.0, "name": "e8076402f387e075319018eca114c529", "is_disabled": 0, "rental_uris": {"android": "https://dc.lft.to/lastmile_qr_scan", "ios": "https://dc.lft.to/lastmile_qr_scan"}, "fusion_lon": 0.0, "lat": 38.89681016666667, "bike_id": "e8076402f387e075319018eca114c529", "type": "electric_scooter", "is_reserved": 0, "lon": -77.00515666666666}, {"fusion_lat": 0.0, "name": "6af87cfa64379e1390adf17e4f5fb15b", "is_disabled": 0, "rental_uris": {"android": "https://dc.lft.to/lastmile_qr_scan", "ios": "https://dc.lft.to/lastmile_qr_scan"}, "fusion_lon": 0.0, "lat": 38.896542, "bike_id": "6af87cfa64379e1390adf17e4f5fb15b", "type": "electric_scooter", "is_reserved": 0, "lon": -77.04994083333334}, {"fusion_lat": 0.0, "name": "aa3ee86a83f4ba7fa8aee77e4bc5f422", "is_disabled": 0, "rental_uris": {"android": "https://dc.lft.to/lastmile_qr_scan", "ios": "https://dc.lft.to/lastmile_qr_scan"}, "fusion_lon": 0.0, "lat": 38.81335166666667, "bike_id": "aa3ee86a83f4ba7fa8aee77e4bc5f422", "type": "electric_bike", "is_reserved": 0, "lon": -77.05090916666667}, {"fusion_lat": 0.0, "name": "d4bd0ee0fe7f5ca43b59a91d7ab87a1e", "is_disabled": 0, "rental_uris": {"android": "https://dc.lft.to/lastmile_qr_scan", "ios": "https://dc.lft.to/lastmile_qr_scan"}, "fusion_lon": 0.0, "lat": 38.90906583333334, "bike_id": "d4bd0ee0fe7f5ca43b59a91d7ab87a1e", "type": "electric_scooter", "is_reserved": 0, "lon": -77.044612}, {"fusion_lat": 0.0, "name": "a7db4d3c823f274d0a1e18120cb68569", "is_disabled": 0, "rental_uris": {"android": "https://dc.lft.to/lastmile_qr_scan", "ios": "https://dc.lft.to/lastmile_qr_scan"}, "fusion_lon": 0.0, "lat": 38.958981333333334, "bike_id": "a7db4d3c823f274d0a1e18120cb68569", "type": "electric_scooter", "is_reserved": 0, "lon": -77.027346}, {"fusion_lat": 0.0, "name": "dcd64da22fc6ebeb5812a1432323d925", "is_disabled": 0, "rental_uris": {"android": "https://dc.lft.to/lastmile_qr_scan", "ios": "https://dc.lft.to/lastmile_qr_scan"}, "fusion_lon": 0.0, "lat": 38.90487816666667, "bike_id": "dcd64da22fc6ebeb5812a1432323d925", "type": "electric_scooter", "is_reserved": 0, "lon": -77.03447266666667}, {"fusion_lat": 0.0, "name": "e3ddfb52a54420a47348ff1d634897e0", "is_disabled": 0, "rental_uris": {"android": "https://dc.lft.to/lastmile_qr_scan", "ios": "https://dc.lft.to/lastmile_qr_scan"}, "fusion_lon": 0.0, "lat": 38.891972, "bike_id": "e3ddfb52a54420a47348ff1d634897e0", "type": "electric_scooter", "is_reserved": 0, "lon": -76.9983965}, {"fusion_lat": 0.0, "name": "7e107b39e9df07675c9b9e5e78a3d3d4", "is_disabled": 0, "rental_uris": {"android": "https://dc.lft.to/lastmile_qr_scan", "ios": "https://dc.lft.to/lastmile_qr_scan"}, "fusion_lon": 0.0, "lat": 38.91884366666667, "bike_id": "7e107b39e9df07675c9b9e5e78a3d3d4", "type": "electric_scooter", "is_reserved": 0, "lon": -77.04827533333334}, {"fusion_lat": 0.0, "name": "9ce797506f111bb6a4f46f0b967e4d6d", "is_disabled": 0, "rental_uris": {"android": "https://dc.lft.to/lastmile_qr_scan", "ios": "https://dc.lft.to/lastmile_qr_scan"}, "fusion_lon": 0.0, "lat": 38.91608566666667, "bike_id": "9ce797506f111bb6a4f46f0b967e4d6d", "type": "electric_scooter", "is_reserved": 0, "lon": -77.03130083333333}, {"fusion_lat": 0.0, "name": "e1808f407a5709b9080422e16c044db1", "is_disabled": 0, "rental_uris": {"android": "https://dc.lft.to/lastmile_qr_scan", "ios": "https://dc.lft.to/lastmile_qr_scan"}, "fusion_lon": 0.0, "lat": 38.916974333333336, "bike_id": "e1808f407a5709b9080422e16c044db1", "type": "electric_scooter", "is_reserved": 0, "lon": -77.03227683333333}, {"fusion_lat": 0.0, "name": "b2d44d68b344dc047116ee4ef47fc9c8", "is_disabled": 0, "rental_uris": {"android": "https://dc.lft.to/lastmile_qr_scan", "ios": "https://dc.lft.to/lastmile_qr_scan"}, "fusion_lon": 0.0, "lat": 38.885327, "bike_id": "b2d44d68b344dc047116ee4ef47fc9c8", "type": "electric_scooter", "is_reserved": 0, "lon": -76.92913066666667}, {"fusion_lat": 0.0, "name": "340ccb7c8df8825805a2a826df1bb149", "is_disabled": 0, "rental_uris": {"android": "https://dc.lft.to/lastmile_qr_scan", "ios": "https://dc.lft.to/lastmile_qr_scan"}, "fusion_lon": 0.0, "lat": 38.9214625, "bike_id": "340ccb7c8df8825805a2a826df1bb149", "type": "electric_scooter", "is_reserved": 0, "lon": -77.018115}, {"fusion_lat": 0.0, "name": "077882bda0897c72049a6dd379210a66", "is_disabled": 0, "rental_uris": {"android": "https://dc.lft.to/lastmile_qr_scan", "ios": "https://dc.lft.to/lastmile_qr_scan"}, "fusion_lon": 0.0, "lat": 38.90046366666667, "bike_id": "077882bda0897c72049a6dd379210a66", "type": "electric_scooter", "is_reserved": 0, "lon": -77.03480616666667}, {"fusion_lat": 0.0, "name": "9e20aa2757b12ad6953637b8cd69630e", "is_disabled": 0, "rental_uris": {"android": "https://dc.lft.to/lastmile_qr_scan", "ios": "https://dc.lft.to/lastmile_qr_scan"}, "fusion_lon": 0.0, "lat": 38.8982655, "bike_id": "9e20aa2757b12ad6953637b8cd69630e", "type": "electric_scooter", "is_reserved": 0, "lon": -76.94649616666666}, {"fusion_lat": 0.0, "name": "1634afd1a904d777a875df22b93f979d", "is_disabled": 0, "rental_uris": {"android": "https://dc.lft.to/lastmile_qr_scan", "ios": "https://dc.lft.to/lastmile_qr_scan"}, "fusion_lon": 0.0, "lat": 38.90782166666666, "bike_id": "1634afd1a904d777a875df22b93f979d", "type": "electric_scooter", "is_reserved": 0, "lon": -77.0433555}, {"fusion_lat": 0.0, "name": "ce27d54e66036bfce4fb0a30f215c903", "is_disabled": 0, "rental_uris": {"android": "https://dc.lft.to/lastmile_qr_scan", "ios": "https://dc.lft.to/lastmile_qr_scan"}, "fusion_lon": 0.0, "lat": 38.8991695, "bike_id": "ce27d54e66036bfce4fb0a30f215c903", "type": "electric_scooter", "is_reserved": 0, "lon": -76.93352783333333}, {"fusion_lat": 0.0, "name": "482cf278e74a97cc415d7ccc53ccded4", "is_disabled": 0, "rental_uris": {"android": "https://dc.lft.to/lastmile_qr_scan", "ios": "https://dc.lft.to/lastmile_qr_scan"}, "fusion_lon": 0.0, "lat": 38.935995166666665, "bike_id": "482cf278e74a97cc415d7ccc53ccded4", "type": "electric_scooter", "is_reserved": 0, "lon": -77.03653266666667}, {"fusion_lat": 0.0, "name": "7c3d2405cb4a71e83bf1596daabbde54", "is_disabled": 0, "rental_uris": {"android": "https://dc.lft.to/lastmile_qr_scan", "ios": "https://dc.lft.to/lastmile_qr_scan"}, "fusion_lon": 0.0, "lat": 38.950573166666665, "bike_id": "7c3d2405cb4a71e83bf1596daabbde54", "type": "electric_scooter", "is_reserved": 0, "lon": -77.08025183333334}, {"fusion_lat": 0.0, "name": "da4856f1c880ae4fa6b52b62a2cab62a", "is_disabled": 0, "rental_uris": {"android": "https://dc.lft.to/lastmile_qr_scan", "ios": "https://dc.lft.to/lastmile_qr_scan"}, "fusion_lon": 0.0, "lat": 38.9226, "bike_id": "da4856f1c880ae4fa6b52b62a2cab62a", "type": "electric_scooter", "is_reserved": 0, "lon": -77.01951866666667}, {"fusion_lat": 0.0, "name": "b340ee73f64a30fbf8c1048e9a58c3d7", "is_disabled": 0, "rental_uris": {"android": "https://dc.lft.to/lastmile_qr_scan", "ios": "https://dc.lft.to/lastmile_qr_scan"}, "fusion_lon": 0.0, "lat": 38.896126833333334, "bike_id": "b340ee73f64a30fbf8c1048e9a58c3d7", "type": "electric_scooter", "is_reserved": 0, "lon": -77.0324455}, {"fusion_lat": 0.0, "name": "61539771d935590d56ed5114aca58106", "is_disabled": 0, "rental_uris": {"android": "https://dc.lft.to/lastmile_qr_scan", "ios": "https://dc.lft.to/lastmile_qr_scan"}, "fusion_lon": 0.0, "lat": 38.875815833333334, "bike_id": "61539771d935590d56ed5114aca58106", "type": "electric_bike", "is_reserved": 0, "lon": -77.23410283333334}, {"fusion_lat": 0.0, "name": "a8236958364675ba099a6952db8039ac", "is_disabled": 0, "rental_uris": {"android": "https://dc.lft.to/lastmile_qr_scan", "ios": "https://dc.lft.to/lastmile_qr_scan"}, "fusion_lon": 0.0, "lat": 38.91850316666667, "bike_id": "a8236958364675ba099a6952db8039ac", "type": "electric_scooter", "is_reserved": 0, "lon": -77.0231765}, {"fusion_lat": 0.0, "name": "6dd2fbdc44e137e9fb280b00909298b7", "is_disabled": 0, "rental_uris": {"android": "https://dc.lft.to/lastmile_qr_scan", "ios": "https://dc.lft.to/lastmile_qr_scan"}, "fusion_lon": 0.0, "lat": 38.9235095, "bike_id": "6dd2fbdc44e137e9fb280b00909298b7", "type": "electric_scooter", "is_reserved": 0, "lon": -77.0503325}, {"fusion_lat": 0.0, "name": "9802b00963064bc100017d49264382f9", "is_disabled": 0, "rental_uris": {"android": "https://dc.lft.to/lastmile_qr_scan", "ios": "https://dc.lft.to/lastmile_qr_scan"}, "fusion_lon": 0.0, "lat": 38.93660966666667, "bike_id": "9802b00963064bc100017d49264382f9", "type": "electric_scooter", "is_reserved": 0, "lon": -77.03054433333334}, {"fusion_lat": 0.0, "name": "3f8d24ae8d27b72082a18258d746b4c7", "is_disabled": 0, "rental_uris": {"android": "https://dc.lft.to/lastmile_qr_scan", "ios": "https://dc.lft.to/lastmile_qr_scan"}, "fusion_lon": 0.0, "lat": 38.8852925, "bike_id": "3f8d24ae8d27b72082a18258d746b4c7", "type": "electric_scooter", "is_reserved": 0, "lon": -77.01544433333333}, {"fusion_lat": 0.0, "name": "db8d962ab0265ddac2cadc76dade7e64", "is_disabled": 0, "rental_uris": {"android": "https://dc.lft.to/lastmile_qr_scan", "ios": "https://dc.lft.to/lastmile_qr_scan"}, "fusion_lon": 0.0, "lat": 38.923203666666666, "bike_id": "db8d962ab0265ddac2cadc76dade7e64", "type": "electric_scooter", "is_reserved": 0, "lon": -77.02691683333333}, {"fusion_lat": 0.0, "name": "e9afc5a6f3c4a8bedaa894ff671e7cef", "is_disabled": 0, "rental_uris": {"android": "https://dc.lft.to/lastmile_qr_scan", "ios": "https://dc.lft.to/lastmile_qr_scan"}, "fusion_lon": 0.0, "lat": 38.902523333333335, "bike_id": "e9afc5a6f3c4a8bedaa894ff671e7cef", "type": "electric_scooter", "is_reserved": 0, "lon": -77.05937183333333}, {"fusion_lat": 0.0, "name": "8e306b7143efb815f316366ecc3a8923", "is_disabled": 0, "rental_uris": {"android": "https://dc.lft.to/lastmile_qr_scan", "ios": "https://dc.lft.to/lastmile_qr_scan"}, "fusion_lon": 0.0, "lat": 38.918115, "bike_id": "8e306b7143efb815f316366ecc3a8923", "type": "electric_scooter", "is_reserved": 0, "lon": -77.0444135}, {"fusion_lat": 0.0, "name": "0d6ced3e64524ae20f3f27b330fb2b81", "is_disabled": 0, "rental_uris": {"android": "https://dc.lft.to/lastmile_qr_scan", "ios": "https://dc.lft.to/lastmile_qr_scan"}, "fusion_lon": 0.0, "lat": 38.92078816666667, "bike_id": "0d6ced3e64524ae20f3f27b330fb2b81", "type": "electric_bike", "is_reserved": 0, "lon": -76.98941116666667}, {"fusion_lat": 0.0, "name": "2c2a5bb330c88689d9dbcf36e5da1b22", "is_disabled": 0, "rental_uris": {"android": "https://dc.lft.to/lastmile_qr_scan", "ios": "https://dc.lft.to/lastmile_qr_scan"}, "fusion_lon": 0.0, "lat": 38.917291666666664, "bike_id": "2c2a5bb330c88689d9dbcf36e5da1b22", "type": "electric_scooter", "is_reserved": 0, "lon": -77.0250005}, {"fusion_lat": 0.0, "name": "b838f13e00f767b171fd09a53c49aa12", "is_disabled": 0, "rental_uris": {"android": "https://dc.lft.to/lastmile_qr_scan", "ios": "https://dc.lft.to/lastmile_qr_scan"}, "fusion_lon": 0.0, "lat": 38.895018, "bike_id": "b838f13e00f767b171fd09a53c49aa12", "type": "electric_scooter", "is_reserved": 0, "lon": -77.02157483333333}, {"fusion_lat": 0.0, "name": "d501ea02b186a680dfee034f8f2301e1", "is_disabled": 0, "rental_uris": {"android": "https://dc.lft.to/lastmile_qr_scan", "ios": "https://dc.lft.to/lastmile_qr_scan"}, "fusion_lon": 0.0, "lat": 38.93730083333333, "bike_id": "d501ea02b186a680dfee034f8f2301e1", "type": "electric_scooter", "is_reserved": 0, "lon": -77.024561}, {"fusion_lat": 0.0, "name": "3a9cbdf9e2f901cc7bc65a499b3f5ea9", "is_disabled": 0, "rental_uris": {"android": "https://dc.lft.to/lastmile_qr_scan", "ios": "https://dc.lft.to/lastmile_qr_scan"}, "fusion_lon": 0.0, "lat": 38.942319, "bike_id": "3a9cbdf9e2f901cc7bc65a499b3f5ea9", "type": "electric_scooter", "is_reserved": 0, "lon": -77.01384}, {"fusion_lat": 0.0, "name": "9cb95452ae63f89f66a5836ffd3223e9", "is_disabled": 0, "rental_uris": {"android": "https://dc.lft.to/lastmile_qr_scan", "ios": "https://dc.lft.to/lastmile_qr_scan"}, "fusion_lon": 0.0, "lat": 38.8983135, "bike_id": "9cb95452ae63f89f66a5836ffd3223e9", "type": "electric_scooter", "is_reserved": 0, "lon": -77.04677616666666}, {"fusion_lat": 0.0, "name": "73883a77b14e890a7b1b7269226f6027", "is_disabled": 0, "rental_uris": {"android": "https://dc.lft.to/lastmile_qr_scan", "ios": "https://dc.lft.to/lastmile_qr_scan"}, "fusion_lon": 0.0, "lat": 38.936072333333335, "bike_id": "73883a77b14e890a7b1b7269226f6027", "type": "electric_scooter", "is_reserved": 0, "lon": -77.02292083333333}, {"fusion_lat": 0.0, "name": "f72763b6cef4d3913bd534b011110b4e", "is_disabled": 0, "rental_uris": {"android": "https://dc.lft.to/lastmile_qr_scan", "ios": "https://dc.lft.to/lastmile_qr_scan"}, "fusion_lon": 0.0, "lat": 38.8616125, "bike_id": "f72763b6cef4d3913bd534b011110b4e", "type": "electric_scooter", "is_reserved": 0, "lon": -76.98356616666666}, {"fusion_lat": 0.0, "name": "09a9c066e333962e975b7004235a6d6e", "is_disabled": 0, "rental_uris": {"android": "https://dc.lft.to/lastmile_qr_scan", "ios": "https://dc.lft.to/lastmile_qr_scan"}, "fusion_lon": 0.0, "lat": 38.92017033333333, "bike_id": "09a9c066e333962e975b7004235a6d6e", "type": "electric_scooter", "is_reserved": 0, "lon": -77.031471}, {"fusion_lat": 0.0, "name": "afd950859182af48d34c749fce668158", "is_disabled": 0, "rental_uris": {"android": "https://dc.lft.to/lastmile_qr_scan", "ios": "https://dc.lft.to/lastmile_qr_scan"}, "fusion_lon": 0.0, "lat": 38.942312, "bike_id": "afd950859182af48d34c749fce668158", "type": "electric_bike", "is_reserved": 0, "lon": -77.01381166666667}, {"fusion_lat": 0.0, "name": "a22e9ede9efdc73c745abebd19aa6eca", "is_disabled": 0, "rental_uris": {"android": "https://dc.lft.to/lastmile_qr_scan", "ios": "https://dc.lft.to/lastmile_qr_scan"}, "fusion_lon": 0.0, "lat": 38.892866166666664, "bike_id": "a22e9ede9efdc73c745abebd19aa6eca", "type": "electric_scooter", "is_reserved": 0, "lon": -76.98304016666667}, {"fusion_lat": 0.0, "name": "02dd099aef513a2bdfae08457c830f4d", "is_disabled": 0, "rental_uris": {"android": "https://dc.lft.to/lastmile_qr_scan", "ios": "https://dc.lft.to/lastmile_qr_scan"}, "fusion_lon": 0.0, "lat": 38.925024, "bike_id": "02dd099aef513a2bdfae08457c830f4d", "type": "electric_scooter", "is_reserved": 0, "lon": -77.021418}, {"fusion_lat": 0.0, "name": "f9bfa95a69c9f787cb8ec277254ababc", "is_disabled": 0, "rental_uris": {"android": "https://dc.lft.to/lastmile_qr_scan", "ios": "https://dc.lft.to/lastmile_qr_scan"}, "fusion_lon": 0.0, "lat": 38.927924833333336, "bike_id": "f9bfa95a69c9f787cb8ec277254ababc", "type": "electric_scooter", "is_reserved": 0, "lon": -77.032133}, {"fusion_lat": 0.0, "name": "7f476c18a5f05db024b65acb59dba28a", "is_disabled": 0, "rental_uris": {"android": "https://dc.lft.to/lastmile_qr_scan", "ios": "https://dc.lft.to/lastmile_qr_scan"}, "fusion_lon": 0.0, "lat": 38.914160333333335, "bike_id": "7f476c18a5f05db024b65acb59dba28a", "type": "electric_scooter", "is_reserved": 0, "lon": -77.02207016666667}, {"fusion_lat": 0.0, "name": "6c59490827e0ffd5d0a03337171f3350", "is_disabled": 0, "rental_uris": {"android": "https://dc.lft.to/lastmile_qr_scan", "ios": "https://dc.lft.to/lastmile_qr_scan"}, "fusion_lon": 0.0, "lat": 38.90829333333333, "bike_id": "6c59490827e0ffd5d0a03337171f3350", "type": "electric_scooter", "is_reserved": 0, "lon": -76.98261583333333}, {"fusion_lat": 0.0, "name": "f776363fa0fe042acf402b0f5ad359f6", "is_disabled": 0, "rental_uris": {"android": "https://dc.lft.to/lastmile_qr_scan", "ios": "https://dc.lft.to/lastmile_qr_scan"}, "fusion_lon": 0.0, "lat": 38.91824033333333, "bike_id": "f776363fa0fe042acf402b0f5ad359f6", "type": "electric_scooter", "is_reserved": 0, "lon": -77.0351125}, {"fusion_lat": 0.0, "name": "355e8b760b1f3f989a2f1b6f0f21f678", "is_disabled": 0, "rental_uris": {"android": "https://dc.lft.to/lastmile_qr_scan", "ios": "https://dc.lft.to/lastmile_qr_scan"}, "fusion_lon": 0.0, "lat": 38.91765633333333, "bike_id": "355e8b760b1f3f989a2f1b6f0f21f678", "type": "electric_scooter", "is_reserved": 0, "lon": -77.03634566666666}, {"fusion_lat": 0.0, "name": "538294b759f8bb8463edbcd48c165b34", "is_disabled": 0, "rental_uris": {"android": "https://dc.lft.to/lastmile_qr_scan", "ios": "https://dc.lft.to/lastmile_qr_scan"}, "fusion_lon": 0.0, "lat": 38.91301083333333, "bike_id": "538294b759f8bb8463edbcd48c165b34", "type": "electric_scooter", "is_reserved": 0, "lon": -77.04863666666667}, {"fusion_lat": 0.0, "name": "aca19a252be68c4161cc9abf4fd43aa5", "is_disabled": 0, "rental_uris": {"android": "https://dc.lft.to/lastmile_qr_scan", "ios": "https://dc.lft.to/lastmile_qr_scan"}, "fusion_lon": 0.0, "lat": 38.91968216666667, "bike_id": "aca19a252be68c4161cc9abf4fd43aa5", "type": "electric_scooter", "is_reserved": 0, "lon": -77.07098016666667}, {"fusion_lat": 0.0, "name": "377b4f7db650a76dd68d958c79953ce2", "is_disabled": 0, "rental_uris": {"android": "https://dc.lft.to/lastmile_qr_scan", "ios": "https://dc.lft.to/lastmile_qr_scan"}, "fusion_lon": 0.0, "lat": 38.920486, "bike_id": "377b4f7db650a76dd68d958c79953ce2", "type": "electric_scooter", "is_reserved": 0, "lon": -77.00206016666667}, {"fusion_lat": 0.0, "name": "2d373189861c3a814a9a5790ff9bfefe", "is_disabled": 0, "rental_uris": {"android": "https://dc.lft.to/lastmile_qr_scan", "ios": "https://dc.lft.to/lastmile_qr_scan"}, "fusion_lon": 0.0, "lat": 38.9206505, "bike_id": "2d373189861c3a814a9a5790ff9bfefe", "type": "electric_scooter", "is_reserved": 0, "lon": -77.02536133333334}, {"fusion_lat": 0.0, "name": "aa140f2f3a426dae458eb83003e8bf0d", "is_disabled": 0, "rental_uris": {"android": "https://dc.lft.to/lastmile_qr_scan", "ios": "https://dc.lft.to/lastmile_qr_scan"}, "fusion_lon": 0.0, "lat": 38.92383533333334, "bike_id": "aa140f2f3a426dae458eb83003e8bf0d", "type": "electric_scooter", "is_reserved": 0, "lon": -77.0753105}, {"fusion_lat": 0.0, "name": "ebe27d7795963cf04cc46cc2fd576075", "is_disabled": 0, "rental_uris": {"android": "https://dc.lft.to/lastmile_qr_scan", "ios": "https://dc.lft.to/lastmile_qr_scan"}, "fusion_lon": 0.0, "lat": 38.897147333333336, "bike_id": "ebe27d7795963cf04cc46cc2fd576075", "type": "electric_scooter", "is_reserved": 0, "lon": -77.03179666666666}, {"fusion_lat": 0.0, "name": "55031ce8b4bb38c2b85c88cf5919279d", "is_disabled": 0, "rental_uris": {"android": "https://dc.lft.to/lastmile_qr_scan", "ios": "https://dc.lft.to/lastmile_qr_scan"}, "fusion_lon": 0.0, "lat": 38.91700733333333, "bike_id": "55031ce8b4bb38c2b85c88cf5919279d", "type": "electric_scooter", "is_reserved": 0, "lon": -77.01165783333333}, {"fusion_lat": 0.0, "name": "a237c700c7756c3e316aa5b88b4d6217", "is_disabled": 0, "rental_uris": {"android": "https://dc.lft.to/lastmile_qr_scan", "ios": "https://dc.lft.to/lastmile_qr_scan"}, "fusion_lon": 0.0, "lat": 38.90414966666667, "bike_id": "a237c700c7756c3e316aa5b88b4d6217", "type": "electric_scooter", "is_reserved": 0, "lon": -76.97328633333333}, {"fusion_lat": 0.0, "name": "fab7d4cc08e72f988f28a4dfd62e955b", "is_disabled": 0, "rental_uris": {"android": "https://dc.lft.to/lastmile_qr_scan", "ios": "https://dc.lft.to/lastmile_qr_scan"}, "fusion_lon": 0.0, "lat": 38.911069, "bike_id": "fab7d4cc08e72f988f28a4dfd62e955b", "type": "electric_scooter", "is_reserved": 0, "lon": -77.01525116666667}, {"fusion_lat": 0.0, "name": "73a087353bf9f50c40ebfbb74935f5eb", "is_disabled": 0, "rental_uris": {"android": "https://dc.lft.to/lastmile_qr_scan", "ios": "https://dc.lft.to/lastmile_qr_scan"}, "fusion_lon": 0.0, "lat": 38.845068, "bike_id": "73a087353bf9f50c40ebfbb74935f5eb", "type": "electric_bike", "is_reserved": 0, "lon": -76.993497}, {"fusion_lat": 0.0, "name": "481533fcca25e4d7cc6a47a6666dd9ab", "is_disabled": 0, "rental_uris": {"android": "https://dc.lft.to/lastmile_qr_scan", "ios": "https://dc.lft.to/lastmile_qr_scan"}, "fusion_lon": 0.0, "lat": 38.913628333333335, "bike_id": "481533fcca25e4d7cc6a47a6666dd9ab", "type": "electric_scooter", "is_reserved": 0, "lon": -77.04870433333333}, {"fusion_lat": 0.0, "name": "1bc1c4a04f95b73faf59218f0beb484d", "is_disabled": 0, "rental_uris": {"android": "https://dc.lft.to/lastmile_qr_scan", "ios": "https://dc.lft.to/lastmile_qr_scan"}, "fusion_lon": 0.0, "lat": 38.93389966666667, "bike_id": "1bc1c4a04f95b73faf59218f0beb484d", "type": "electric_scooter", "is_reserved": 0, "lon": -77.02680116666667}, {"fusion_lat": 0.0, "name": "4b296751b1ab0be30785a6fc6301b214", "is_disabled": 0, "rental_uris": {"android": "https://dc.lft.to/lastmile_qr_scan", "ios": "https://dc.lft.to/lastmile_qr_scan"}, "fusion_lon": 0.0, "lat": 38.898594333333335, "bike_id": "4b296751b1ab0be30785a6fc6301b214", "type": "electric_scooter", "is_reserved": 0, "lon": -76.94639283333333}, {"fusion_lat": 0.0, "name": "1e47de9e98005ef77b3e711077081b25", "is_disabled": 0, "rental_uris": {"android": "https://dc.lft.to/lastmile_qr_scan", "ios": "https://dc.lft.to/lastmile_qr_scan"}, "fusion_lon": 0.0, "lat": 38.893854833333336, "bike_id": "1e47de9e98005ef77b3e711077081b25", "type": "electric_scooter", "is_reserved": 0, "lon": -76.922969}, {"fusion_lat": 0.0, "name": "8c86efee6c90ab3311afa7e9c3017755", "is_disabled": 0, "rental_uris": {"android": "https://dc.lft.to/lastmile_qr_scan", "ios": "https://dc.lft.to/lastmile_qr_scan"}, "fusion_lon": 0.0, "lat": 39.0563485, "bike_id": "8c86efee6c90ab3311afa7e9c3017755", "type": "electric_bike", "is_reserved": 0, "lon": -77.12530466666666}, {"fusion_lat": 0.0, "name": "65ef9d417e335427e3966daea6dd6ad6", "is_disabled": 0, "rental_uris": {"android": "https://dc.lft.to/lastmile_qr_scan", "ios": "https://dc.lft.to/lastmile_qr_scan"}, "fusion_lon": 0.0, "lat": 38.912683666666666, "bike_id": "65ef9d417e335427e3966daea6dd6ad6", "type": "electric_scooter", "is_reserved": 0, "lon": -77.04915583333333}, {"fusion_lat": 0.0, "name": "13d025337efbd5ac527abfaa64fb6d29", "is_disabled": 0, "rental_uris": {"android": "https://dc.lft.to/lastmile_qr_scan", "ios": "https://dc.lft.to/lastmile_qr_scan"}, "fusion_lon": 0.0, "lat": 38.9287175, "bike_id": "13d025337efbd5ac527abfaa64fb6d29", "type": "electric_scooter", "is_reserved": 0, "lon": -77.01928333333333}, {"fusion_lat": 0.0, "name": "72543f98e3d8890aa4a033cfce6aa337", "is_disabled": 0, "rental_uris": {"android": "https://dc.lft.to/lastmile_qr_scan", "ios": "https://dc.lft.to/lastmile_qr_scan"}, "fusion_lon": 0.0, "lat": 38.91032883333333, "bike_id": "72543f98e3d8890aa4a033cfce6aa337", "type": "electric_scooter", "is_reserved": 0, "lon": -77.01510933333333}, {"fusion_lat": 0.0, "name": "cf646a85544823a3f51abc58bc9649c5", "is_disabled": 0, "rental_uris": {"android": "https://dc.lft.to/lastmile_qr_scan", "ios": "https://dc.lft.to/lastmile_qr_scan"}, "fusion_lon": 0.0, "lat": 38.86059616666667, "bike_id": "cf646a85544823a3f51abc58bc9649c5", "type": "electric_scooter", "is_reserved": 0, "lon": -76.985077}, {"fusion_lat": 0.0, "name": "070d48e62a4dab5400b13cc099b431be", "is_disabled": 0, "rental_uris": {"android": "https://dc.lft.to/lastmile_qr_scan", "ios": "https://dc.lft.to/lastmile_qr_scan"}, "fusion_lon": 0.0, "lat": 38.898527666666666, "bike_id": "070d48e62a4dab5400b13cc099b431be", "type": "electric_scooter", "is_reserved": 0, "lon": -77.02815983333333}, {"fusion_lat": 0.0, "name": "918380e5cf4f3552b2acfdd0e9538e20", "is_disabled": 0, "rental_uris": {"android": "https://dc.lft.to/lastmile_qr_scan", "ios": "https://dc.lft.to/lastmile_qr_scan"}, "fusion_lon": 0.0, "lat": 38.90444183333334, "bike_id": "918380e5cf4f3552b2acfdd0e9538e20", "type": "electric_scooter", "is_reserved": 0, "lon": -77.03353166666666}, {"fusion_lat": 0.0, "name": "9178a7c8fe812ca50b945fe4186d3449", "is_disabled": 0, "rental_uris": {"android": "https://dc.lft.to/lastmile_qr_scan", "ios": "https://dc.lft.to/lastmile_qr_scan"}, "fusion_lon": 0.0, "lat": 38.9326565, "bike_id": "9178a7c8fe812ca50b945fe4186d3449", "type": "electric_scooter", "is_reserved": 0, "lon": -77.02094666666666}, {"fusion_lat": 0.0, "name": "cb63d47b6be7f616ff0b729bf4740b36", "is_disabled": 0, "rental_uris": {"android": "https://dc.lft.to/lastmile_qr_scan", "ios": "https://dc.lft.to/lastmile_qr_scan"}, "fusion_lon": 0.0, "lat": 38.90795683333333, "bike_id": "cb63d47b6be7f616ff0b729bf4740b36", "type": "electric_scooter", "is_reserved": 0, "lon": -77.03822916666667}, {"fusion_lat": 0.0, "name": "e72fcc8aff738c62a659e5a5211c578e", "is_disabled": 0, "rental_uris": {"android": "https://dc.lft.to/lastmile_qr_scan", "ios": "https://dc.lft.to/lastmile_qr_scan"}, "fusion_lon": 0.0, "lat": 38.884099166666665, "bike_id": "e72fcc8aff738c62a659e5a5211c578e", "type": "electric_scooter", "is_reserved": 0, "lon": -77.025623}, {"fusion_lat": 0.0, "name": "37aaaa93962a0081af1c4d48b41b2885", "is_disabled": 0, "rental_uris": {"android": "https://dc.lft.to/lastmile_qr_scan", "ios": "https://dc.lft.to/lastmile_qr_scan"}, "fusion_lon": 0.0, "lat": 38.905104333333334, "bike_id": "37aaaa93962a0081af1c4d48b41b2885", "type": "electric_scooter", "is_reserved": 0, "lon": -77.06872933333334}, {"fusion_lat": 0.0, "name": "f98246a40f37d9541f4a1dc37b5f5313", "is_disabled": 0, "rental_uris": {"android": "https://dc.lft.to/lastmile_qr_scan", "ios": "https://dc.lft.to/lastmile_qr_scan"}, "fusion_lon": 0.0, "lat": 38.9274655, "bike_id": "f98246a40f37d9541f4a1dc37b5f5313", "type": "electric_scooter", "is_reserved": 0, "lon": -77.03444116666667}, {"fusion_lat": 0.0, "name": "41975ff1a0d0f69e3f134b56f211a379", "is_disabled": 0, "rental_uris": {"android": "https://dc.lft.to/lastmile_qr_scan", "ios": "https://dc.lft.to/lastmile_qr_scan"}, "fusion_lon": 0.0, "lat": 38.9249915, "bike_id": "41975ff1a0d0f69e3f134b56f211a379", "type": "electric_scooter", "is_reserved": 0, "lon": -77.02138233333334}, {"fusion_lat": 0.0, "name": "35f6ff73bbb77342afddaf59016ca6a4", "is_disabled": 0, "rental_uris": {"android": "https://dc.lft.to/lastmile_qr_scan", "ios": "https://dc.lft.to/lastmile_qr_scan"}, "fusion_lon": 0.0, "lat": 38.910336666666666, "bike_id": "35f6ff73bbb77342afddaf59016ca6a4", "type": "electric_scooter", "is_reserved": 0, "lon": -77.0075875}, {"fusion_lat": 0.0, "name": "092cc8205389da987616f88596b0d6d0", "is_disabled": 0, "rental_uris": {"android": "https://dc.lft.to/lastmile_qr_scan", "ios": "https://dc.lft.to/lastmile_qr_scan"}, "fusion_lon": 0.0, "lat": 38.921995, "bike_id": "092cc8205389da987616f88596b0d6d0", "type": "electric_scooter", "is_reserved": 0, "lon": -76.9975645}, {"fusion_lat": 0.0, "name": "c03bf57a2ac87aab8fa4879da3e81616", "is_disabled": 0, "rental_uris": {"android": "https://dc.lft.to/lastmile_qr_scan", "ios": "https://dc.lft.to/lastmile_qr_scan"}, "fusion_lon": 0.0, "lat": 38.94537566666666, "bike_id": "c03bf57a2ac87aab8fa4879da3e81616", "type": "electric_scooter", "is_reserved": 0, "lon": -77.02535616666667}, {"fusion_lat": 0.0, "name": "2b3990fe3821b688910fb88be1b943ad", "is_disabled": 0, "rental_uris": {"android": "https://dc.lft.to/lastmile_qr_scan", "ios": "https://dc.lft.to/lastmile_qr_scan"}, "fusion_lon": 0.0, "lat": 38.89873266666667, "bike_id": "2b3990fe3821b688910fb88be1b943ad", "type": "electric_scooter", "is_reserved": 0, "lon": -76.9274095}, {"fusion_lat": 0.0, "name": "10e2a8d5e07735ff956b9f9db996027a", "is_disabled": 0, "rental_uris": {"android": "https://dc.lft.to/lastmile_qr_scan", "ios": "https://dc.lft.to/lastmile_qr_scan"}, "fusion_lon": 0.0, "lat": 39.070573, "bike_id": "10e2a8d5e07735ff956b9f9db996027a", "type": "electric_bike", "is_reserved": 0, "lon": -77.11485333333333}, {"fusion_lat": 0.0, "name": "6f56d34c3865e79fd5bfbcbb7cdd6af3", "is_disabled": 0, "rental_uris": {"android": "https://dc.lft.to/lastmile_qr_scan", "ios": "https://dc.lft.to/lastmile_qr_scan"}, "fusion_lon": 0.0, "lat": 38.89857033333333, "bike_id": "6f56d34c3865e79fd5bfbcbb7cdd6af3", "type": "electric_scooter", "is_reserved": 0, "lon": -76.990331}, {"fusion_lat": 0.0, "name": "98d75e5ea1a3a9c5f729538a9b011a26", "is_disabled": 0, "rental_uris": {"android": "https://dc.lft.to/lastmile_qr_scan", "ios": "https://dc.lft.to/lastmile_qr_scan"}, "fusion_lon": 0.0, "lat": 38.88307283333333, "bike_id": "98d75e5ea1a3a9c5f729538a9b011a26", "type": "electric_scooter", "is_reserved": 0, "lon": -76.948523}, {"fusion_lat": 0.0, "name": "b9873bc0f61d81b9fedc124fd5704fbc", "is_disabled": 0, "rental_uris": {"android": "https://dc.lft.to/lastmile_qr_scan", "ios": "https://dc.lft.to/lastmile_qr_scan"}, "fusion_lon": 0.0, "lat": 38.906041333333334, "bike_id": "b9873bc0f61d81b9fedc124fd5704fbc", "type": "electric_scooter", "is_reserved": 0, "lon": -77.00782766666667}, {"fusion_lat": 0.0, "name": "8103c1f5f9d7c1a56659d3f3689f7849", "is_disabled": 0, "rental_uris": {"android": "https://dc.lft.to/lastmile_qr_scan", "ios": "https://dc.lft.to/lastmile_qr_scan"}, "fusion_lon": 0.0, "lat": 38.905798, "bike_id": "8103c1f5f9d7c1a56659d3f3689f7849", "type": "electric_scooter", "is_reserved": 0, "lon": -77.0220805}, {"fusion_lat": 0.0, "name": "e710c73b7de211b99376f8e8fa2bc29c", "is_disabled": 0, "rental_uris": {"android": "https://dc.lft.to/lastmile_qr_scan", "ios": "https://dc.lft.to/lastmile_qr_scan"}, "fusion_lon": 0.0, "lat": 38.90764016666667, "bike_id": "e710c73b7de211b99376f8e8fa2bc29c", "type": "electric_scooter", "is_reserved": 0, "lon": -77.03829766666667}, {"fusion_lat": 0.0, "name": "46836e746c7236332faf34b3bf463798", "is_disabled": 0, "rental_uris": {"android": "https://dc.lft.to/lastmile_qr_scan", "ios": "https://dc.lft.to/lastmile_qr_scan"}, "fusion_lon": 0.0, "lat": 38.935398666666664, "bike_id": "46836e746c7236332faf34b3bf463798", "type": "electric_scooter", "is_reserved": 0, "lon": -77.03261466666666}, {"fusion_lat": 0.0, "name": "472460b2d42cf33e7c1ca683dd45e3e6", "is_disabled": 0, "rental_uris": {"android": "https://dc.lft.to/lastmile_qr_scan", "ios": "https://dc.lft.to/lastmile_qr_scan"}, "fusion_lon": 0.0, "lat": 38.923734833333334, "bike_id": "472460b2d42cf33e7c1ca683dd45e3e6", "type": "electric_scooter", "is_reserved": 0, "lon": -77.02138816666667}, {"fusion_lat": 0.0, "name": "01b29693e3ba2384e3fde1818dab93f0", "is_disabled": 0, "rental_uris": {"android": "https://dc.lft.to/lastmile_qr_scan", "ios": "https://dc.lft.to/lastmile_qr_scan"}, "fusion_lon": 0.0, "lat": 38.913236833333336, "bike_id": "01b29693e3ba2384e3fde1818dab93f0", "type": "electric_scooter", "is_reserved": 0, "lon": -77.02121333333334}, {"fusion_lat": 0.0, "name": "74c6d728741c1db365beefbaf9d952bb", "is_disabled": 0, "rental_uris": {"android": "https://dc.lft.to/lastmile_qr_scan", "ios": "https://dc.lft.to/lastmile_qr_scan"}, "fusion_lon": 0.0, "lat": 38.9002535, "bike_id": "74c6d728741c1db365beefbaf9d952bb", "type": "electric_scooter", "is_reserved": 0, "lon": -77.03187466666667}, {"fusion_lat": 0.0, "name": "2c5947204d3b8f88463b59c247d8207e", "is_disabled": 0, "rental_uris": {"android": "https://dc.lft.to/lastmile_qr_scan", "ios": "https://dc.lft.to/lastmile_qr_scan"}, "fusion_lon": 0.0, "lat": 38.8847165, "bike_id": "2c5947204d3b8f88463b59c247d8207e", "type": "electric_scooter", "is_reserved": 0, "lon": -77.01510833333333}, {"fusion_lat": 0.0, "name": "1fbd45046eece596706140a180ee8d0e", "is_disabled": 0, "rental_uris": {"android": "https://dc.lft.to/lastmile_qr_scan", "ios": "https://dc.lft.to/lastmile_qr_scan"}, "fusion_lon": 0.0, "lat": 39.0038815, "bike_id": "1fbd45046eece596706140a180ee8d0e", "type": "electric_bike", "is_reserved": 0, "lon": -77.01284216666667}, {"fusion_lat": 0.0, "name": "f1f482cd2f8b2d47bb3fd06823cad86b", "is_disabled": 0, "rental_uris": {"android": "https://dc.lft.to/lastmile_qr_scan", "ios": "https://dc.lft.to/lastmile_qr_scan"}, "fusion_lon": 0.0, "lat": 38.93189266666667, "bike_id": "f1f482cd2f8b2d47bb3fd06823cad86b", "type": "electric_scooter", "is_reserved": 0, "lon": -77.0731565}, {"fusion_lat": 0.0, "name": "68c9d47de0f37aa001005ad0d5e40d8c", "is_disabled": 0, "rental_uris": {"android": "https://dc.lft.to/lastmile_qr_scan", "ios": "https://dc.lft.to/lastmile_qr_scan"}, "fusion_lon": 0.0, "lat": 38.88493733333333, "bike_id": "68c9d47de0f37aa001005ad0d5e40d8c", "type": "electric_scooter", "is_reserved": 0, "lon": -77.01085466666666},