{"data": {"bikes": [{"is_disabled": 0, "fusion_lat": 0.0, "lat": 38.86530283333333, "type": "electric_scooter", "lon": -76.98700633333333, "is_reserved": 0, "fusion_lon": 0.0, "bike_id": "8e73192fe99cb15198bfc18ca2a5528e", "name": "8e73192fe99cb15198bfc18ca2a5528e", "rental_uris": {"ios": "https://dc.lft.to/lastmile_qr_scan", "android": "https://dc.lft.to/lastmile_qr_scan"}}, {"is_disabled": 0, "fusion_lat": 0.0, "lat": 38.89609816666667, "type": "electric_bike", "lon": -76.9778995, "is_reserved": 0, "fusion_lon": 0.0, "bike_id": "5849e3fecb702f3c7e76c0662a56ed16", "name": "5849e3fecb702f3c7e76c0662a56ed16", "rental_uris": {"ios": "https://dc.lft.to/lastmile_qr_scan", "android": "https://dc.lft.to/lastmile_qr_scan"}}, {"is_disabled": 0, "fusion_lat": 0.0, "lat": 38.92710616666667, "type": "electric_scooter", "lon": -77.04198933333333, "is_reserved": 0, "fusion_lon": 0.0, "bike_id": "e488e7a7483e29979499dd098408f7e2", "name": "e488e7a7483e29979499dd098408f7e2", "rental_uris": {"ios": "https://dc.lft.to/lastmile_qr_scan", "android": "https://dc.lft.to/lastmile_qr_scan"}}, {"is_disabled": 0, "fusion_lat": 0.0, "lat": 38.872453, "type": "electric_scooter", "lon": -77.0163105, "is_reserved": 0, "fusion_lon": 0.0, "bike_id": "06ef2f40aa6e2c7b6de73b02ca35c80d", "name": "06ef2f40aa6e2c7b6de73b02ca35c80d", "rental_uris": {"ios": "https://dc.lft.to/lastmile_qr_scan", "android": "https://dc.lft.to/lastmile_qr_scan"}}, {"is_disabled": 0, "fusion_lat": 0.0, "lat": 38.954876, "type": "electric_scooter", "lon": -77.06564833333333, "is_reserved": 0, "fusion_lon": 0.0, "bike_id": "f3d021e043e281296029711cf4012f0f", "name": "f3d021e043e281296029711cf4012f0f", "rental_uris": {"ios": "https://dc.lft.to/lastmile_qr_scan", "android": "https://dc.lft.to/lastmile_qr_scan"}}, {"is_disabled": 0, "fusion_lat": 0.0, "lat": 38.93393066666667, "type": "electric_scooter", "lon": -77.04125233333333, "is_reserved": 0, "fusion_lon": 0.0, "bike_id": "46b6a2a8e6724c77d11bb99380478d2f", "name": "46b6a2a8e6724c77d11bb99380478d2f", "rental_uris": {"ios": "https://dc.lft.to/lastmile_qr_scan", "android": "https://dc.lft.to/lastmile_qr_scan"}}, {"is_disabled": 0, "fusion_lat": 0.0, "lat": 38.92228983333333, "type": "electric_scooter", "lon": -77.04393066666667, "is_reserved": 0, "fusion_lon": 0.0, "bike_id": "7209020e355c1b5de10b90070312531e", "name": "7209020e355c1b5de10b90070312531e", "rental_uris": {"ios": "https://dc.lft.to/lastmile_qr_scan", "android": "https://dc.lft.to/lastmile_qr_scan"}}, {"is_disabled": 0, "fusion_lat": 0.0, "lat": 38.902634, "type": "electric_scooter", "lon": -77.017242, "is_reserved": 0, "fusion_lon": 0.0, "bike_id": "95b64c89163a9b51d280804d068ca81b", "name": "95b64c89163a9b51d280804d068ca81b", "rental_uris": {"ios": "https://dc.lft.to/lastmile_qr_scan", "android": "https://dc.lft.to/lastmile_qr_scan"}}, {"is_disabled": 0, "fusion_lat": 0.0, "lat": 38.90519466666667, "type": "electric_scooter", "lon": -77.05013366666667, "is_reserved": 0, "fusion_lon": 0.0, "bike_id": "591df4c78ee1ff69e4d193f0da573975", "name": "591df4c78ee1ff69e4d193f0da573975", "rental_uris": {"ios": "https://dc.lft.to/lastmile_qr_scan", "android": "https://dc.lft.to/lastmile_qr_scan"}}, {"is_disabled": 0, "fusion_lat": 0.0, "lat": 38.86652733333333, "type": "electric_scooter", "lon": -76.98888083333334, "is_reserved": 0, "fusion_lon": 0.0, "bike_id": "df63d88b9ffa3fc6fe7625d4e66abbd8", "name": "df63d88b9ffa3fc6fe7625d4e66abbd8", "rental_uris": {"ios": "https://dc.lft.to/lastmile_qr_scan", "android": "https://dc.lft.to/lastmile_qr_scan"}}, {"is_disabled": 0, "fusion_lat": 0.0, "lat": 38.90688083333333, "type": "electric_scooter", "lon": -77.06325033333333, "is_reserved": 0, "fusion_lon": 0.0, "bike_id": "aaeab1eb72bfab467607740ee710545b", "name": "aaeab1eb72bfab467607740ee710545b", "rental_uris": {"ios": "https://dc.lft.to/lastmile_qr_scan", "android": "https://dc.lft.to/lastmile_qr_scan"}}, {"is_disabled": 0, "fusion_lat": 0.0, "lat": 38.88993466666667, "type": "electric_scooter", "lon": -76.99511816666667, "is_reserved": 0, "fusion_lon": 0.0, "bike_id": "3689ede314bdb5b747e36dfed4a4ff33", "name": "3689ede314bdb5b747e36dfed4a4ff33", "rental_uris": {"ios": "https://dc.lft.to/lastmile_qr_scan", "android": "https://dc.lft.to/lastmile_qr_scan"}}, {"is_disabled": 0, "fusion_lat": 0.0, "lat": 38.844291, "type": "electric_scooter", "lon": -76.9977765, "is_reserved": 0, "fusion_lon": 0.0, "bike_id": "aa580bed59782383d062285bbecef300", "name": "aa580bed59782383d062285bbecef300", "rental_uris": {"ios": "https://dc.lft.to/lastmile_qr_scan", "android": "https://dc.lft.to/lastmile_qr_scan"}}, {"is_disabled": 0, "fusion_lat": 0.0, "lat": 38.91552216666667, "type": "electric_scooter", "lon": -77.04156016666667, "is_reserved": 0, "fusion_lon": 0.0, "bike_id": "d75cfa73794f624940fe3543b0636cf6", "name": "d75cfa73794f624940fe3543b0636cf6", "rental_uris": {"ios": "https://dc.lft.to/lastmile_qr_scan", "android": "https://dc.lft.to/lastmile_qr_scan"}}, {"is_disabled": 0, "fusion_lat": 0.0, "lat": 38.906874, "type": "electric_bike", "lon": -76.95181733333334, "is_reserved": 0, "fusion_lon": 0.0, "bike_id": "64e88698086e73299b0bfa25170472da", "name": "64e88698086e73299b0bfa25170472da", "rental_uris": {"ios": "https://dc.lft.to/lastmile_qr_scan", "android": "https://dc.lft.to/lastmile_qr_scan"}}, {"is_disabled": 0, "fusion_lat": 0.0, "lat": 38.907607666666664, "type": "electric_scooter", "lon": -77.0205925, "is_reserved": 0, "fusion_lon": 0.0, "bike_id": "320e8d21788a47941ae5732c596c77f0", "name": "320e8d21788a47941ae5732c596c77f0", "rental_uris": {"ios": "https://dc.lft.to/lastmile_qr_scan", "android": "https://dc.lft.to/lastmile_qr_scan"}}, {"is_disabled": 0, "fusion_lat": 0.0, "lat": 38.882658, "type": "electric_scooter", "lon": -76.99537933333333, "is_reserved": 0, "fusion_lon": 0.0, "bike_id": "77c36a5c3cb02dd750fc1ca04030c8f7", "name": "77c36a5c3cb02dd750fc1ca04030c8f7", "rental_uris": {"ios": "https://dc.lft.to/lastmile_qr_scan", "android": "https://dc.lft.to/lastmile_qr_scan"}}, {"is_disabled": 0, "fusion_lat": 0.0, "lat": 38.915567333333335, "type": "electric_scooter", "lon": -77.03201283333334, "is_reserved": 0, "fusion_lon": 0.0, "bike_id": "f8e34dc07e0c4d5d5bb28fcb28411db2", "name": "f8e34dc07e0c4d5d5bb28fcb28411db2", "rental_uris": {"ios": "https://dc.lft.to/lastmile_qr_scan", "android": "https://dc.lft.to/lastmile_qr_scan"}}, {"is_disabled": 0, "fusion_lat": 0.0, "lat": 38.866199333333334, "type": "electric_scooter", "lon": -76.98646633333334, "is_reserved": 0, "fusion_lon": 0.0, "bike_id": "e9114a78e1fe379e68a3abe896dc6d8d", "name": "e9114a78e1fe379e68a3abe896dc6d8d", "rental_uris": {"ios": "https://dc.lft.to/lastmile_qr_scan", "android": "https://dc.lft.to/lastmile_qr_scan"}}, {"is_disabled": 0, "fusion_lat": 0.0, "lat": 38.862489833333335, "type": "electric_scooter", "lon": -76.98705583333333, "is_reserved": 0, "fusion_lon": 0.0, "bike_id": "e0e857952512c98f4d753f5b3d44d9b7", "name": "e0e857952512c98f4d753f5b3d44d9b7", "rental_uris": {"ios": "https://dc.lft.to/lastmile_qr_scan", "android": "https://dc.lft.to/lastmile_qr_scan"}}, {"is_disabled": 0, "fusion_lat": 0.0, "lat": 38.9022525, "type": "electric_scooter", "lon": -77.02369266666666, "is_reserved": 0, "fusion_lon": 0.0, "bike_id": "9d9a5305facb02eb102bc851113f98f6", "name": "9d9a5305facb02eb102bc851113f98f6", "rental_uris": {"ios": "https://dc.lft.to/lastmile_qr_scan", "android": "https://dc.lft.to/lastmile_qr_scan"}}, {"is_disabled": 0, "fusion_lat": 0.0, "lat": 38.802279, "type": "electric_bike", "lon": -77.07914866666667, "is_reserved": 0, "fusion_lon": 0.0, "bike_id": "f15a77c52ccfdd72599fabbb12017c54", "name": "f15a77c52ccfdd72599fabbb12017c54", "rental_uris": {"ios": "https://dc.lft.to/lastmile_qr_scan", "android": "https://dc.lft.to/lastmile_qr_scan"}}, {"is_disabled": 0, "fusion_lat": 0.0, "lat": 38.909707833333336, "type": "electric_scooter", "lon": -77.03865133333333, "is_reserved": 0, "fusion_lon": 0.0, "bike_id": "493041b9ba971bcce85417d92adcc4f2", "name": "493041b9ba971bcce85417d92adcc4f2", "rental_uris": {"ios": "https://dc.lft.to/lastmile_qr_scan", "android": "https://dc.lft.to/lastmile_qr_scan"}}, {"is_disabled": 0, "fusion_lat": 0.0, "lat": 38.879448, "type": "electric_scooter", "lon": -77.00467716666667, "is_reserved": 0, "fusion_lon": 0.0, "bike_id": "16d3e68828ba02106d9587a4ced62f4c", "name": "16d3e68828ba02106d9587a4ced62f4c", "rental_uris": {"ios": "https://dc.lft.to/lastmile_qr_scan", "android": "https://dc.lft.to/lastmile_qr_scan"}}, {"is_disabled": 0, "fusion_lat": 0.0, "lat": 38.844228333333334, "type": "electric_scooter", "lon": -76.99775083333333, "is_reserved": 0, "fusion_lon": 0.0, "bike_id": "162fe0e27187e7658e0c3c743a44e63a", "name": "162fe0e27187e7658e0c3c743a44e63a", "rental_uris": {"ios": "https://dc.lft.to/lastmile_qr_scan", "android": "https://dc.lft.to/lastmile_qr_scan"}}, {"is_disabled": 0, "fusion_lat": 0.0, "lat": 38.986436166666664, "type": "electric_bike", "lon": -77.05631433333333, "is_reserved": 0, "fusion_lon": 0.0, "bike_id": "21682a817a6ac303528df9f8b78db800", "name": "21682a817a6ac303528df9f8b78db800", "rental_uris": {"ios": "https://dc.lft.to/lastmile_qr_scan", "android": "https://dc.lft.to/lastmile_qr_scan"}}, {"is_disabled": 0, "fusion_lat": 0.0, "lat": 38.90336383333333, "type": "electric_scooter", "lon": -77.043184, "is_reserved": 0, "fusion_lon": 0.0, "bike_id": "454aaf2ae0c71fccd42c430082e85363", "name": "454aaf2ae0c71fccd42c430082e85363", "rental_uris": {"ios": "https://dc.lft.to/lastmile_qr_scan", "android": "https://dc.lft.to/lastmile_qr_scan"}}, {"is_disabled": 0, "fusion_lat": 0.0, "lat": 38.86917, "type": "electric_scooter", "lon": -76.98300016666667, "is_reserved": 0, "fusion_lon": 0.0, "bike_id": "5a8d92096a8d0af8103fee7be2ad672c", "name": "5a8d92096a8d0af8103fee7be2ad672c", "rental_uris": {"ios": "https://dc.lft.to/lastmile_qr_scan", "android": "https://dc.lft.to/lastmile_qr_scan"}}, {"is_disabled": 0, "fusion_lat": 0.0, "lat": 38.88502033333333, "type": "electric_scooter", "lon": -77.00561816666666, "is_reserved": 0, "fusion_lon": 0.0, "bike_id": "eb5c807d7bbffec4dbfe28da5ec142e2", "name": "eb5c807d7bbffec4dbfe28da5ec142e2", "rental_uris": {"ios": "https://dc.lft.to/lastmile_qr_scan", "android": "https://dc.lft.to/lastmile_qr_scan"}}, {"is_disabled": 0, "fusion_lat": 0.0, "lat": 38.90452333333333, "type": "electric_scooter", "lon": -77.032659, "is_reserved": 0, "fusion_lon": 0.0, "bike_id": "16d4c7fcd0a4a9becf29905b348b9d7b", "name": "16d4c7fcd0a4a9becf29905b348b9d7b", "rental_uris": {"ios": "https://dc.lft.to/lastmile_qr_scan", "android": "https://dc.lft.to/lastmile_qr_scan"}}, {"is_disabled": 0, "fusion_lat": 0.0, "lat": 38.9117405, "type": "electric_scooter", "lon": -77.06829066666667, "is_reserved": 0, "fusion_lon": 0.0, "bike_id": "3338bc5e6495ce94dedc27332f2e3be6", "name": "3338bc5e6495ce94dedc27332f2e3be6", "rental_uris": {"ios": "https://dc.lft.to/lastmile_qr_scan", "android": "https://dc.lft.to/lastmile_qr_scan"}}, {"is_disabled": 0, "fusion_lat": 0.0, "lat": 38.91735333333333, "type": "electric_scooter", "lon": -77.02696, "is_reserved": 0, "fusion_lon": 0.0, "bike_id": "4b5e2d8ea383b319a024f582f733b582", "name": "4b5e2d8ea383b319a024f582f733b582", "rental_uris": {"ios": "https://dc.lft.to/lastmile_qr_scan", "android": "https://dc.lft.to/lastmile_qr_scan"}}, {"is_disabled": 0, "fusion_lat": 0.0, "lat": 38.898866, "type": "electric_scooter", "lon": -76.93309016666667, "is_reserved": 0, "fusion_lon": 0.0, "bike_id": "0f1437fa0dececf1f34fb395b576795e", "name": "0f1437fa0dececf1f34fb395b576795e", "rental_uris": {"ios": "https://dc.lft.to/lastmile_qr_scan", "android": "https://dc.lft.to/lastmile_qr_scan"}}, {"is_disabled": 0, "fusion_lat": 0.0, "lat": 38.88132866666667, "type": "electric_bike", "lon": -76.98093666666666, "is_reserved": 0, "fusion_lon": 0.0, "bike_id": "c07a825b0ba0f6928f1b1cb0f32c3030", "name": "c07a825b0ba0f6928f1b1cb0f32c3030", "rental_uris": {"ios": "https://dc.lft.to/lastmile_qr_scan", "android": "https://dc.lft.to/lastmile_qr_scan"}}, {"is_disabled": 0, "fusion_lat": 0.0, "lat": 38.83981966666666, "type": "electric_bike", "lon": -77.005624, "is_reserved": 0, "fusion_lon": 0.0, "bike_id": "b3c65a6495bc7bbb578647688a0796ac", "name": "b3c65a6495bc7bbb578647688a0796ac", "rental_uris": {"ios": "https://dc.lft.to/lastmile_qr_scan", "android": "https://dc.lft.to/lastmile_qr_scan"}}, {"is_disabled": 0, "fusion_lat": 0.0, "lat": 38.919735, "type": "electric_scooter", "lon": -77.04176466666667, "is_reserved": 0, "fusion_lon": 0.0, "bike_id": "aa87d72494a46fd7cdba45b8b588c116", "name": "aa87d72494a46fd7cdba45b8b588c116", "rental_uris": {"ios": "https://dc.lft.to/lastmile_qr_scan", "android": "https://dc.lft.to/lastmile_qr_scan"}}, {"is_disabled": 0, "fusion_lat": 0.0, "lat": 38.866589833333336, "type": "electric_scooter", "lon": -76.99015916666667, "is_reserved": 0, "fusion_lon": 0.0, "bike_id": "2c25a5bf3524bebf6fea7bcda3045469", "name": "2c25a5bf3524bebf6fea7bcda3045469", "rental_uris": {"ios": "https://dc.lft.to/lastmile_qr_scan", "android": "https://dc.lft.to/lastmile_qr_scan"}}, {"is_disabled": 0, "fusion_lat": 0.0, "lat": 38.915689, "type": "electric_scooter", "lon": -77.01192283333333, "is_reserved": 0, "fusion_lon": 0.0, "bike_id": "cd56f50d381d5dd254a9effa534860f9", "name": "cd56f50d381d5dd254a9effa534860f9", "rental_uris": {"ios": "https://dc.lft.to/lastmile_qr_scan", "android": "https://dc.lft.to/lastmile_qr_scan"}}, {"is_disabled": 0, "fusion_lat": 0.0, "lat": 38.8998165, "type": "electric_scooter", "lon": -77.05226533333334, "is_reserved": 0, "fusion_lon": 0.0, "bike_id": "238829dc53059590ae4bb3d7d0bfb5a0", "name": "238829dc53059590ae4bb3d7d0bfb5a0", "rental_uris": {"ios": "https://dc.lft.to/lastmile_qr_scan", "android": "https://dc.lft.to/lastmile_qr_scan"}}, {"is_disabled": 0, "fusion_lat": 0.0, "lat": 38.9077325, "type": "electric_scooter", "lon": -77.03823666666666, "is_reserved": 0, "fusion_lon": 0.0, "bike_id": "fe0c40058b10d89fb5e4c647d7bc46a2", "name": "fe0c40058b10d89fb5e4c647d7bc46a2", "rental_uris": {"ios": "https://dc.lft.to/lastmile_qr_scan", "android": "https://dc.lft.to/lastmile_qr_scan"}}, {"is_disabled": 0, "fusion_lat": 0.0, "lat": 38.923118, "type": "electric_scooter", "lon": -77.04127883333334, "is_reserved": 0, "fusion_lon": 0.0, "bike_id": "1de1f9dcd183470099be52f790807a94", "name": "1de1f9dcd183470099be52f790807a94", "rental_uris": {"ios": "https://dc.lft.to/lastmile_qr_scan", "android": "https://dc.lft.to/lastmile_qr_scan"}}, {"is_disabled": 0, "fusion_lat": 0.0, "lat": 38.90471616666667, "type": "electric_scooter", "lon": -76.98905633333334, "is_reserved": 0, "fusion_lon": 0.0, "bike_id": "347fee6c1da5d671a5a2054e25a3ebc2", "name": "347fee6c1da5d671a5a2054e25a3ebc2", "rental_uris": {"ios": "https://dc.lft.to/lastmile_qr_scan", "android": "https://dc.lft.to/lastmile_qr_scan"}}, {"is_disabled": 0, "fusion_lat": 0.0, "lat": 38.96616133333333, "type": "electric_bike", "lon": -77.0342335, "is_reserved": 0, "fusion_lon": 0.0, "bike_id": "e14f04ab374d3d691a7059fd803e7ce5", "name": "e14f04ab374d3d691a7059fd803e7ce5", "rental_uris": {"ios": "https://dc.lft.to/lastmile_qr_scan", "android": "https://dc.lft.to/lastmile_qr_scan"}}, {"is_disabled": 0, "fusion_lat": 0.0, "lat": 38.913993166666664, "type": "electric_scooter", "lon": -77.039203, "is_reserved": 0, "fusion_lon": 0.0, "bike_id": "3ed35d7deed6278d732a6c74c96fd1f6", "name": "3ed35d7deed6278d732a6c74c96fd1f6", "rental_uris": {"ios": "https://dc.lft.to/lastmile_qr_scan", "android": "https://dc.lft.to/lastmile_qr_scan"}}, {"is_disabled": 0, "fusion_lat": 0.0, "lat": 38.91692716666667, "type": "electric_scooter", "lon": -77.03476183333333, "is_reserved": 0, "fusion_lon": 0.0, "bike_id": "296d9857ad28dc554c3a11880e859277", "name": "296d9857ad28dc554c3a11880e859277", "rental_uris": {"ios": "https://dc.lft.to/lastmile_qr_scan", "android": "https://dc.lft.to/lastmile_qr_scan"}}, {"is_disabled": 0, "fusion_lat": 0.0, "lat": 38.9081155, "type": "electric_scooter", "lon": -76.99858083333334, "is_reserved": 0, "fusion_lon": 0.0, "bike_id": "686e592feccc492b5ac08075876b1e50", "name": "686e592feccc492b5ac08075876b1e50", "rental_uris": {"ios": "https://dc.lft.to/lastmile_qr_scan", "android": "https://dc.lft.to/lastmile_qr_scan"}}, {"is_disabled": 0, "fusion_lat": 0.0, "lat": 38.90650333333333, "type": "electric_scooter", "lon": -77.04153683333334, "is_reserved": 0, "fusion_lon": 0.0, "bike_id": "77bb690b7fed8ed240747226e06fa5d6", "name": "77bb690b7fed8ed240747226e06fa5d6", "rental_uris": {"ios": "https://dc.lft.to/lastmile_qr_scan", "android": "https://dc.lft.to/lastmile_qr_scan"}}, {"is_disabled": 0, "fusion_lat": 0.0, "lat": 38.897413666666665, "type": "electric_scooter", "lon": -76.947149, "is_reserved": 0, "fusion_lon": 0.0, "bike_id": "355083614fed45b8043cff3db5764805", "name": "355083614fed45b8043cff3db5764805", "rental_uris": {"ios": "https://dc.lft.to/lastmile_qr_scan", "android": "https://dc.lft.to/lastmile_qr_scan"}}, {"is_disabled": 0, "fusion_lat": 0.0, "lat": 38.91542716666667, "type": "electric_scooter", "lon": -77.03788833333333, "is_reserved": 0, "fusion_lon": 0.0, "bike_id": "4fb904d6dcafe334bc05f4249b2fb98b", "name": "4fb904d6dcafe334bc05f4249b2fb98b", "rental_uris": {"ios": "https://dc.lft.to/lastmile_qr_scan", "android": "https://dc.lft.to/lastmile_qr_scan"}}, {"is_disabled": 0, "fusion_lat": 0.0, "lat": 38.874817166666666, "type": "electric_bike", "lon": -76.96526916666667, "is_reserved": 0, "fusion_lon": 0.0, "bike_id": "cdaf3447eaccc336fe7440d59be2de4d", "name": "cdaf3447eaccc336fe7440d59be2de4d", "rental_uris": {"ios": "https://dc.lft.to/lastmile_qr_scan", "android": "https://dc.lft.to/lastmile_qr_scan"}}, {"is_disabled": 0, "fusion_lat": 0.0, "lat": 38.92073283333333, "type": "electric_scooter", "lon": -77.03203066666667, "is_reserved": 0, "fusion_lon": 0.0, "bike_id": "cd56cd17bfc8b0f2e1298840de57ebfd", "name": "cd56cd17bfc8b0f2e1298840de57ebfd", "rental_uris": {"ios": "https://dc.lft.to/lastmile_qr_scan", "android": "https://dc.lft.to/lastmile_qr_scan"}}, {"is_disabled": 0, "fusion_lat": 0.0, "lat": 38.92331183333334, "type": "electric_scooter", "lon": -77.0361885, "is_reserved": 0, "fusion_lon": 0.0, "bike_id": "62a5b060b8e5196f56cbffc518e1eae8", "name": "62a5b060b8e5196f56cbffc518e1eae8", "rental_uris": {"ios": "https://dc.lft.to/lastmile_qr_scan", "android": "https://dc.lft.to/lastmile_qr_scan"}}, {"is_disabled": 0, "fusion_lat": 0.0, "lat": 38.90582, "type": "electric_scooter", "lon": -77.04861033333333, "is_reserved": 0, "fusion_lon": 0.0, "bike_id": "a3aa72e38ecc9d5967e6c70e07c514da", "name": "a3aa72e38ecc9d5967e6c70e07c514da", "rental_uris": {"ios": "https://dc.lft.to/lastmile_qr_scan", "android": "https://dc.lft.to/lastmile_qr_scan"}}, {"is_disabled": 0, "fusion_lat": 0.0, "lat": 38.897346666666664, "type": "electric_scooter", "lon": -77.04679683333333, "is_reserved": 0, "fusion_lon": 0.0, "bike_id": "0271fd224f15a1638a44462b9be41ccd", "name": "0271fd224f15a1638a44462b9be41ccd", "rental_uris": {"ios": "https://dc.lft.to/lastmile_qr_scan", "android": "https://dc.lft.to/lastmile_qr_scan"}}, {"is_disabled": 0, "fusion_lat": 0.0, "lat": 38.88590383333333, "type": "electric_scooter", "lon": -77.01979216666666, "is_reserved": 0, "fusion_lon": 0.0, "bike_id": "e7672e569c281c46d10f03ca1a69782b", "name": "e7672e569c281c46d10f03ca1a69782b", "rental_uris": {"ios": "https://dc.lft.to/lastmile_qr_scan", "android": "https://dc.lft.to/lastmile_qr_scan"}}, {"is_disabled": 0, "fusion_lat": 0.0, "lat": 38.92066466666667, "type": "electric_scooter", "lon": -77.0454405, "is_reserved": 0, "fusion_lon": 0.0, "bike_id": "7cb17272468386dc7e6d882dedd2a3e7", "name": "7cb17272468386dc7e6d882dedd2a3e7", "rental_uris": {"ios": "https://dc.lft.to/lastmile_qr_scan", "android": "https://dc.lft.to/lastmile_qr_scan"}}, {"is_disabled": 0, "fusion_lat": 0.0, "lat": 38.94631433333333, "type": "electric_scooter", "lon": -77.01843466666666, "is_reserved": 0, "fusion_lon": 0.0, "bike_id": "a8d8497579b77f0bca9f111defd70f70", "name": "a8d8497579b77f0bca9f111defd70f70", "rental_uris": {"ios": "https://dc.lft.to/lastmile_qr_scan", "android": "https://dc.lft.to/lastmile_qr_scan"}}, {"is_disabled": 0, "fusion_lat": 0.0, "lat": 38.925562, "type": "electric_scooter", "lon": -77.05264416666667, "is_reserved": 0, "fusion_lon": 0.0, "bike_id": "e280440c972a6188d0d013cfa634a2f6", "name": "e280440c972a6188d0d013cfa634a2f6", "rental_uris": {"ios": "https://dc.lft.to/lastmile_qr_scan", "android": "https://dc.lft.to/lastmile_qr_scan"}}, {"is_disabled": 0, "fusion_lat": 0.0, "lat": 38.914592166666665, "type": "electric_scooter", "lon": -76.98425383333333, "is_reserved": 0, "fusion_lon": 0.0, "bike_id": "14d2c4dd0c3ea00008bd4f8d71d577f0", "name": "14d2c4dd0c3ea00008bd4f8d71d577f0", "rental_uris": {"ios": "https://dc.lft.to/lastmile_qr_scan", "android": "https://dc.lft.to/lastmile_qr_scan"}}, {"is_disabled": 0, "fusion_lat": 0.0, "lat": 38.9212005, "type": "electric_scooter", "lon": -77.04569066666667, "is_reserved": 0, "fusion_lon": 0.0, "bike_id": "cd0ee0df8038f5fc00c3fc3c174d400c", "name": "cd0ee0df8038f5fc00c3fc3c174d400c", "rental_uris": {"ios": "https://dc.lft.to/lastmile_qr_scan", "android": "https://dc.lft.to/lastmile_qr_scan"}}, {"is_disabled": 0, "fusion_lat": 0.0, "lat": 38.89048583333334, "type": "electric_scooter", "lon": -76.93753883333333, "is_reserved": 0, "fusion_lon": 0.0, "bike_id": "0eca615a56408d8ebdec8a86c3562117", "name": "0eca615a56408d8ebdec8a86c3562117", "rental_uris": {"ios": "https://dc.lft.to/lastmile_qr_scan", "android": "https://dc.lft.to/lastmile_qr_scan"}}, {"is_disabled": 0, "fusion_lat": 0.0, "lat": 38.87629783333333, "type": "electric_scooter", "lon": -76.96518933333333, "is_reserved": 0, "fusion_lon": 0.0, "bike_id": "b9e3d8d68d1e22caf5aa79b8a3ce125c", "name": "b9e3d8d68d1e22caf5aa79b8a3ce125c", "rental_uris": {"ios": "https://dc.lft.to/lastmile_qr_scan", "android": "https://dc.lft.to/lastmile_qr_scan"}}, {"is_disabled": 0, "fusion_lat": 0.0, "lat": 38.91264733333333, "type": "electric_scooter", "lon": -77.0338025, "is_reserved": 0, "fusion_lon": 0.0, "bike_id": "19653c9e998164ab4b8de38b1709937d", "name": "19653c9e998164ab4b8de38b1709937d", "rental_uris": {"ios": "https://dc.lft.to/lastmile_qr_scan", "android": "https://dc.lft.to/lastmile_qr_scan"}}, {"is_disabled": 0, "fusion_lat": 0.0, "lat": 38.90834866666667, "type": "electric_scooter", "lon": -77.02688383333333, "is_reserved": 0, "fusion_lon": 0.0, "bike_id": "e37f7cb7df0a5350a87781e8dbc6dd72", "name": "e37f7cb7df0a5350a87781e8dbc6dd72", "rental_uris": {"ios": "https://dc.lft.to/lastmile_qr_scan", "android": "https://dc.lft.to/lastmile_qr_scan"}}, {"is_disabled": 0, "fusion_lat": 0.0, "lat": 38.919605, "type": "electric_scooter", "lon": -77.02713283333334, "is_reserved": 0, "fusion_lon": 0.0, "bike_id": "9c27a7a7b6b27ae258d36013e7bf5b9b", "name": "9c27a7a7b6b27ae258d36013e7bf5b9b", "rental_uris": {"ios": "https://dc.lft.to/lastmile_qr_scan", "android": "https://dc.lft.to/lastmile_qr_scan"}}, {"is_disabled": 0, "fusion_lat": 0.0, "lat": 38.84464633333333, "type": "electric_bike", "lon": -76.98743533333334, "is_reserved": 0, "fusion_lon": 0.0, "bike_id": "30be7c141732154210d21007378dd14f", "name": "30be7c141732154210d21007378dd14f", "rental_uris": {"ios": "https://dc.lft.to/lastmile_qr_scan", "android": "https://dc.lft.to/lastmile_qr_scan"}}, {"is_disabled": 0, "fusion_lat": 0.0, "lat": 38.9540915, "type": "electric_scooter", "lon": -77.02745516666667, "is_reserved": 0, "fusion_lon": 0.0, "bike_id": "f21308aa705c7ceb83e978d69f785e2b", "name": "f21308aa705c7ceb83e978d69f785e2b", "rental_uris": {"ios": "https://dc.lft.to/lastmile_qr_scan", "android": "https://dc.lft.to/lastmile_qr_scan"}}, {"is_disabled": 0, "fusion_lat": 0.0, "lat": 38.866673666666664, "type": "electric_scooter", "lon": -76.9890685, "is_reserved": 0, "fusion_lon": 0.0, "bike_id": "6fb06b3981444fe7f60b7f0eb8546a03", "name": "6fb06b3981444fe7f60b7f0eb8546a03", "rental_uris": {"ios": "https://dc.lft.to/lastmile_qr_scan", "android": "https://dc.lft.to/lastmile_qr_scan"}}, {"is_disabled": 0, "fusion_lat": 0.0, "lat": 38.90027366666666, "type": "electric_scooter", "lon": -76.99854983333333, "is_reserved": 0, "fusion_lon": 0.0, "bike_id": "4667425a4c925f709b51d8911ce7607a", "name": "4667425a4c925f709b51d8911ce7607a", "rental_uris": {"ios": "https://dc.lft.to/lastmile_qr_scan", "android": "https://dc.lft.to/lastmile_qr_scan"}}, {"is_disabled": 0, "fusion_lat": 0.0, "lat": 38.86523416666667, "type": "electric_scooter", "lon": -76.9903825, "is_reserved": 0, "fusion_lon": 0.0, "bike_id": "1d4271db4b651936915976314fc1e42a", "name": "1d4271db4b651936915976314fc1e42a", "rental_uris": {"ios": "https://dc.lft.to/lastmile_qr_scan", "android": "https://dc.lft.to/lastmile_qr_scan"}}, {"is_disabled": 0, "fusion_lat": 0.0, "lat": 38.9233255, "type": "electric_scooter", "lon": -77.05676933333334, "is_reserved": 0, "fusion_lon": 0.0, "bike_id": "f719a807ee578d496c0ed764b48b4509", "name": "f719a807ee578d496c0ed764b48b4509", "rental_uris": {"ios": "https://dc.lft.to/lastmile_qr_scan", "android": "https://dc.lft.to/lastmile_qr_scan"}}, {"is_disabled": 0, "fusion_lat": 0.0, "lat": 38.924450666666665, "type": "electric_scooter", "lon": -77.04112116666667, "is_reserved": 0, "fusion_lon": 0.0, "bike_id": "e3bbe68c3279ad973e11176e5daf02f5", "name": "e3bbe68c3279ad973e11176e5daf02f5", "rental_uris": {"ios": "https://dc.lft.to/lastmile_qr_scan", "android": "https://dc.lft.to/lastmile_qr_scan"}}, {"is_disabled": 0, "fusion_lat": 0.0, "lat": 38.917045, "type": "electric_scooter", "lon": -77.03121583333333, "is_reserved": 0, "fusion_lon": 0.0, "bike_id": "8e5a6cd742a0ff7e51840f346a40fede", "name": "8e5a6cd742a0ff7e51840f346a40fede", "rental_uris": {"ios": "https://dc.lft.to/lastmile_qr_scan", "android": "https://dc.lft.to/lastmile_qr_scan"}}, {"is_disabled": 0, "fusion_lat": 0.0, "lat": 38.89244583333333, "type": "electric_scooter", "lon": -77.03951316666667, "is_reserved": 0, "fusion_lon": 0.0, "bike_id": "aa54e9b09a75f3b6f0b4acddb4f102b7", "name": "aa54e9b09a75f3b6f0b4acddb4f102b7", "rental_uris": {"ios": "https://dc.lft.to/lastmile_qr_scan", "android": "https://dc.lft.to/lastmile_qr_scan"}}, {"is_disabled": 0, "fusion_lat": 0.0, "lat": 38.8953465, "type": "electric_scooter", "lon": -76.94890616666666, "is_reserved": 0, "fusion_lon": 0.0, "bike_id": "5413dc13b0ff58c6fdf5aa5ea6032f3f", "name": "5413dc13b0ff58c6fdf5aa5ea6032f3f", "rental_uris": {"ios": "https://dc.lft.to/lastmile_qr_scan", "android": "https://dc.lft.to/lastmile_qr_scan"}}, {"is_disabled": 0, "fusion_lat": 0.0, "lat": 38.861653833333335, "type": "electric_bike", "lon": -76.95065833333334, "is_reserved": 0, "fusion_lon": 0.0, "bike_id": "98986ed9236b9e18e2c3440823f93ec5", "name": "98986ed9236b9e18e2c3440823f93ec5", "rental_uris": {"ios": "https://dc.lft.to/lastmile_qr_scan", "android": "https://dc.lft.to/lastmile_qr_scan"}}, {"is_disabled": 0, "fusion_lat": 0.0, "lat": 38.95648, "type": "electric_bike", "lon": -77.0225355, "is_reserved": 0, "fusion_lon": 0.0, "bike_id": "a55f2f9e63a9c002fd6d1606dae1f845", "name": "a55f2f9e63a9c002fd6d1606dae1f845", "rental_uris": {"ios": "https://dc.lft.to/lastmile_qr_scan", "android": "https://dc.lft.to/lastmile_qr_scan"}}, {"is_disabled": 0, "fusion_lat": 0.0, "lat": 38.954025666666666, "type": "electric_scooter", "lon": -77.02744583333333, "is_reserved": 0, "fusion_lon": 0.0, "bike_id": "9eec038aaf5a59ed89e2c204f7af0476", "name": "9eec038aaf5a59ed89e2c204f7af0476", "rental_uris": {"ios": "https://dc.lft.to/lastmile_qr_scan", "android": "https://dc.lft.to/lastmile_qr_scan"}}, {"is_disabled": 0, "fusion_lat": 0.0, "lat": 38.92375833333333, "type": "electric_scooter", "lon": -77.03537133333333, "is_reserved": 0, "fusion_lon": 0.0, "bike_id": "69d2add4a243ff067129564261c67de1", "name": "69d2add4a243ff067129564261c67de1", "rental_uris": {"ios": "https://dc.lft.to/lastmile_qr_scan", "android": "https://dc.lft.to/lastmile_qr_scan"}}, {"is_disabled": 0, "fusion_lat": 0.0, "lat": 38.92847366666667, "type": "electric_scooter", "lon": -77.05435033333333, "is_reserved": 0, "fusion_lon": 0.0, "bike_id": "fa07fb64cba7bf7e1f9d614acb1b936e", "name": "fa07fb64cba7bf7e1f9d614acb1b936e", "rental_uris": {"ios": "https://dc.lft.to/lastmile_qr_scan", "android": "https://dc.lft.to/lastmile_qr_scan"}}, {"is_disabled": 0, "fusion_lat": 0.0, "lat": 38.89609466666667, "type": "electric_scooter", "lon": -77.0479805, "is_reserved": 0, "fusion_lon": 0.0, "bike_id": "4737a0552ac022c3ffc6ae1a7be6ee49", "name": "4737a0552ac022c3ffc6ae1a7be6ee49", "rental_uris": {"ios": "https://dc.lft.to/lastmile_qr_scan", "android": "https://dc.lft.to/lastmile_qr_scan"}}, {"is_disabled": 0, "fusion_lat": 0.0, "lat": 38.92329983333333, "type": "electric_scooter", "lon": -77.04751966666667, "is_reserved": 0, "fusion_lon": 0.0, "bike_id": "26f558cae5d7ee2aa1b1431c890aadf9", "name": "26f558cae5d7ee2aa1b1431c890aadf9", "rental_uris": {"ios": "https://dc.lft.to/lastmile_qr_scan", "android": "https://dc.lft.to/lastmile_qr_scan"}}, {"is_disabled": 0, "fusion_lat": 0.0, "lat": 38.90978033333333, "type": "electric_scooter", "lon": -77.04867583333333, "is_reserved": 0, "fusion_lon": 0.0, "bike_id": "a2d42cfd634c892fc0487abab1818c8f", "name": "a2d42cfd634c892fc0487abab1818c8f", "rental_uris": {"ios": "https://dc.lft.to/lastmile_qr_scan", "android": "https://dc.lft.to/lastmile_qr_scan"}}, {"is_disabled": 0, "fusion_lat": 0.0, "lat": 38.92702883333333, "type": "electric_scooter", "lon": -77.020798, "is_reserved": 0, "fusion_lon": 0.0, "bike_id": "bbef5d3d61bebd8dfc0b4d12c7b997bc", "name": "bbef5d3d61bebd8dfc0b4d12c7b997bc", "rental_uris": {"ios": "https://dc.lft.to/lastmile_qr_scan", "android": "https://dc.lft.to/lastmile_qr_scan"}}, {"is_disabled": 0, "fusion_lat": 0.0, "lat": 38.9324565, "type": "electric_scooter", "lon": -77.0310355, "is_reserved": 0, "fusion_lon": 0.0, "bike_id": "8629a303ed4eea83ca059fbc42bd45e3", "name": "8629a303ed4eea83ca059fbc42bd45e3", "rental_uris": {"ios": "https://dc.lft.to/lastmile_qr_scan", "android": "https://dc.lft.to/lastmile_qr_scan"}}, {"is_disabled": 0, "fusion_lat": 0.0, "lat": 38.869054, "type": "electric_bike", "lon": -77.1317455, "is_reserved": 0, "fusion_lon": 0.0, "bike_id": "9e60893814f30842d0562fd056fb71e1", "name": "9e60893814f30842d0562fd056fb71e1", "rental_uris": {"ios": "https://dc.lft.to/lastmile_qr_scan", "android": "https://dc.lft.to/lastmile_qr_scan"}}, {"is_disabled": 0, "fusion_lat": 0.0, "lat": 38.819970166666664, "type": "electric_bike", "lon": -76.99808083333333, "is_reserved": 0, "fusion_lon": 0.0, "bike_id": "03538647bdd443348a1e575a5c4b9f16", "name": "03538647bdd443348a1e575a5c4b9f16", "rental_uris": {"ios": "https://dc.lft.to/lastmile_qr_scan", "android": "https://dc.lft.to/lastmile_qr_scan"}}, {"is_disabled": 0, "fusion_lat": 0.0, "lat": 38.892208, "type": "electric_scooter", "lon": -77.04636983333333, "is_reserved": 0, "fusion_lon": 0.0, "bike_id": "41e8997b57bb370345fcc713759b4a0f", "name": "41e8997b57bb370345fcc713759b4a0f", "rental_uris": {"ios": "https://dc.lft.to/lastmile_qr_scan", "android": "https://dc.lft.to/lastmile_qr_scan"}}, {"is_disabled": 0, "fusion_lat": 0.0, "lat": 38.925063, "type": "electric_scooter", "lon": -77.03878483333334, "is_reserved": 0, "fusion_lon": 0.0, "bike_id": "98c86ee6b333430f010ca83501afeb2c", "name": "98c86ee6b333430f010ca83501afeb2c", "rental_uris": {"ios": "https://dc.lft.to/lastmile_qr_scan", "android": "https://dc.lft.to/lastmile_qr_scan"}}, {"is_disabled": 0, "fusion_lat": 0.0, "lat": 38.94148233333333, "type": "electric_scooter", "lon": -77.02974866666666, "is_reserved": 0, "fusion_lon": 0.0, "bike_id": "493c23e36b2debb52a46c9cc3f3da9db", "name": "493c23e36b2debb52a46c9cc3f3da9db", "rental_uris": {"ios": "https://dc.lft.to/lastmile_qr_scan", "android": "https://dc.lft.to/lastmile_qr_scan"}}, {"is_disabled": 0, "fusion_lat": 0.0, "lat": 38.93240383333333, "type": "electric_scooter", "lon": -77.03276066666666, "is_reserved": 0, "fusion_lon": 0.0, "bike_id": "7eae9252c15a1a14287081bd06328cc0", "name": "7eae9252c15a1a14287081bd06328cc0", "rental_uris": {"ios": "https://dc.lft.to/lastmile_qr_scan", "android": "https://dc.lft.to/lastmile_qr_scan"}}, {"is_disabled": 0, "fusion_lat": 0.0, "lat": 38.89364316666666, "type": "electric_scooter", "lon": -76.94963666666666, "is_reserved": 0, "fusion_lon": 0.0, "bike_id": "b1cd31470df51f3ed20c1c527359b423", "name": "b1cd31470df51f3ed20c1c527359b423", "rental_uris": {"ios": "https://dc.lft.to/lastmile_qr_scan", "android": "https://dc.lft.to/lastmile_qr_scan"}}, {"is_disabled": 0, "fusion_lat": 0.0, "lat": 38.928528166666666, "type": "electric_scooter", "lon": -77.054204, "is_reserved": 0, "fusion_lon": 0.0, "bike_id": "d4f27e6b891780f8898df4d150ff0e47", "name": "d4f27e6b891780f8898df4d150ff0e47", "rental_uris": {"ios": "https://dc.lft.to/lastmile_qr_scan", "android": "https://dc.lft.to/lastmile_qr_scan"}}, {"is_disabled": 0, "fusion_lat": 0.0, "lat": 38.93288066666667, "type": "electric_scooter", "lon": -77.0397395, "is_reserved": 0, "fusion_lon": 0.0, "bike_id": "02537bf68643d188e7129278482dadd0", "name": "02537bf68643d188e7129278482dadd0", "rental_uris": {"ios": "https://dc.lft.to/lastmile_qr_scan", "android": "https://dc.lft.to/lastmile_qr_scan"}}, {"is_disabled": 0, "fusion_lat": 0.0, "lat": 38.896243, "type": "electric_scooter", "lon": -76.99851733333334, "is_reserved": 0, "fusion_lon": 0.0, "bike_id": "77d6f1482df3d5135ac1f6b5193de4cc", "name": "77d6f1482df3d5135ac1f6b5193de4cc", "rental_uris": {"ios": "https://dc.lft.to/lastmile_qr_scan", "android": "https://dc.lft.to/lastmile_qr_scan"}}, {"is_disabled": 0, "fusion_lat": 0.0, "lat": 38.9097, "type": "electric_scooter", "lon": -77.04045066666667, "is_reserved": 0, "fusion_lon": 0.0, "bike_id": "2b2a77faefd12a5a7f2062439c129ddf", "name": "2b2a77faefd12a5a7f2062439c129ddf", "rental_uris": {"ios": "https://dc.lft.to/lastmile_qr_scan", "android": "https://dc.lft.to/lastmile_qr_scan"}}, {"is_disabled": 0, "fusion_lat": 0.0, "lat": 38.89810416666667, "type": "electric_scooter", "lon": -77.03305616666667, "is_reserved": 0, "fusion_lon": 0.0, "bike_id": "953f5db4c0c6ffbb956ec5bee3db50b1", "name": "953f5db4c0c6ffbb956ec5bee3db50b1", "rental_uris": {"ios": "https://dc.lft.to/lastmile_qr_scan", "android": "https://dc.lft.to/lastmile_qr_scan"}}, {"is_disabled": 0, "fusion_lat": 0.0, "lat": 38.91114116666667, "type": "electric_scooter", "lon": -77.04841433333333, "is_reserved": 0, "fusion_lon": 0.0, "bike_id": "31b7fcccea2b3254f23f4ab02b4445e9", "name": "31b7fcccea2b3254f23f4ab02b4445e9", "rental_uris": {"ios": "https://dc.lft.to/lastmile_qr_scan", "android": "https://dc.lft.to/lastmile_qr_scan"}}, {"is_disabled": 0, "fusion_lat": 0.0, "lat": 38.871886, "type": "electric_bike", "lon": -77.08408466666667, "is_reserved": 0, "fusion_lon": 0.0, "bike_id": "087cb5b1c9ddbd57a6f911475dd91b4b", "name": "087cb5b1c9ddbd57a6f911475dd91b4b", "rental_uris": {"ios": "https://dc.lft.to/lastmile_qr_scan", "android": "https://dc.lft.to/lastmile_qr_scan"}}, {"is_disabled": 0, "fusion_lat": 0.0, "lat": 38.894990166666666, "type": "electric_scooter", "lon": -77.02268366666667, "is_reserved": 0, "fusion_lon": 0.0, "bike_id": "709ae843284622a5b5d51513c59fa95c", "name": "709ae843284622a5b5d51513c59fa95c", "rental_uris": {"ios": "https://dc.lft.to/lastmile_qr_scan", "android": "https://dc.lft.to/lastmile_qr_scan"}}, {"is_disabled": 0, "fusion_lat": 0.0, "lat": 38.90393066666667, "type": "electric_scooter", "lon": -77.0248715, "is_reserved": 0, "fusion_lon": 0.0, "bike_id": "b7f6a50a6fcaa5ed4b36d18e5e4c9fc7", "name": "b7f6a50a6fcaa5ed4b36d18e5e4c9fc7", "rental_uris": {"ios": "https://dc.lft.to/lastmile_qr_scan", "android": "https://dc.lft.to/lastmile_qr_scan"}}, {"is_disabled": 0, "fusion_lat": 0.0, "lat": 38.90560816666667, "type": "electric_scooter", "lon": -77.030606, "is_reserved": 0, "fusion_lon": 0.0, "bike_id": "2883697f920325a7260a414b082e22fc", "name": "2883697f920325a7260a414b082e22fc", "rental_uris": {"ios": "https://dc.lft.to/lastmile_qr_scan", "android": "https://dc.lft.to/lastmile_qr_scan"}}, {"is_disabled": 0, "fusion_lat": 0.0, "lat": 38.892275, "type": "electric_scooter", "lon": -77.04641583333333, "is_reserved": 0, "fusion_lon": 0.0, "bike_id": "0e6f740c08ce81d655cd8b4385b1dd70", "name": "0e6f740c08ce81d655cd8b4385b1dd70", "rental_uris": {"ios": "https://dc.lft.to/lastmile_qr_scan", "android": "https://dc.lft.to/lastmile_qr_scan"}}, {"is_disabled": 0, "fusion_lat": 0.0, "lat": 38.9232865, "type": "electric_scooter", "lon": -77.03781566666666, "is_reserved": 0, "fusion_lon": 0.0, "bike_id": "3337c2644a87a90cc16040e86e24c27b", "name": "3337c2644a87a90cc16040e86e24c27b", "rental_uris": {"ios": "https://dc.lft.to/lastmile_qr_scan", "android": "https://dc.lft.to/lastmile_qr_scan"}}, {"is_disabled": 0, "fusion_lat": 0.0, "lat": 38.914509833333334, "type": "electric_scooter", "lon": -77.03650716666667, "is_reserved": 0, "fusion_lon": 0.0, "bike_id": "3d30fb8994d4ca7d682cbe68361d897e", "name": "3d30fb8994d4ca7d682cbe68361d897e", "rental_uris": {"ios": "https://dc.lft.to/lastmile_qr_scan", "android": "https://dc.lft.to/lastmile_qr_scan"}}, {"is_disabled": 0, "fusion_lat": 0.0, "lat": 38.9221945, "type": "electric_scooter", "lon": -77.04252616666666, "is_reserved": 0, "fusion_lon": 0.0, "bike_id": "28ee81ccbb4e693e48ef203c4f660dcf", "name": "28ee81ccbb4e693e48ef203c4f660dcf", "rental_uris": {"ios": "https://dc.lft.to/lastmile_qr_scan", "android": "https://dc.lft.to/lastmile_qr_scan"}}, {"is_disabled": 0, "fusion_lat": 0.0, "lat": 38.874931833333335, "type": "electric_scooter", "lon": -77.0017165, "is_reserved": 0, "fusion_lon": 0.0, "bike_id": "d237af26c8b88ca50d79223a059dace2", "name": "d237af26c8b88ca50d79223a059dace2", "rental_uris": {"ios": "https://dc.lft.to/lastmile_qr_scan", "android": "https://dc.lft.to/lastmile_qr_scan"}}, {"is_disabled": 0, "fusion_lat": 0.0, "lat": 38.911099166666666, "type": "electric_scooter", "lon": -77.038286, "is_reserved": 0, "fusion_lon": 0.0, "bike_id": "830840a66149d466ee80d6dd7105540c", "name": "830840a66149d466ee80d6dd7105540c", "rental_uris": {"ios": "https://dc.lft.to/lastmile_qr_scan", "android": "https://dc.lft.to/lastmile_qr_scan"}}, {"is_disabled": 0, "fusion_lat": 0.0, "lat": 38.91927416666667, "type": "electric_scooter", "lon": -77.0341965, "is_reserved": 0, "fusion_lon": 0.0, "bike_id": "e557e4148af911cae5a446f255dd9efc", "name": "e557e4148af911cae5a446f255dd9efc", "rental_uris": {"ios": "https://dc.lft.to/lastmile_qr_scan", "android": "https://dc.lft.to/lastmile_qr_scan"}}, {"is_disabled": 0, "fusion_lat": 0.0, "lat": 38.9353945, "type": "electric_scooter", "lon": -77.02343516666667, "is_reserved": 0, "fusion_lon": 0.0, "bike_id": "44ccdb9e0af628f74a68b8a7eceb112d", "name": "44ccdb9e0af628f74a68b8a7eceb112d", "rental_uris": {"ios": "https://dc.lft.to/lastmile_qr_scan", "android": "https://dc.lft.to/lastmile_qr_scan"}}, {"is_disabled": 0, "fusion_lat": 0.0, "lat": 38.937609, "type": "electric_scooter", "lon": -77.0210615, "is_reserved": 0, "fusion_lon": 0.0, "bike_id": "061e5bf9a048544d8db93e17ed4e523a", "name": "061e5bf9a048544d8db93e17ed4e523a", "rental_uris": {"ios": "https://dc.lft.to/lastmile_qr_scan", "android": "https://dc.lft.to/lastmile_qr_scan"}}, {"is_disabled": 0, "fusion_lat": 0.0, "lat": 38.90811766666667, "type": "electric_scooter", "lon": -77.044897, "is_reserved": 0, "fusion_lon": 0.0, "bike_id": "cbc9c8063dd950cf4a9326f205ed8db9", "name": "cbc9c8063dd950cf4a9326f205ed8db9", "rental_uris": {"ios": "https://dc.lft.to/lastmile_qr_scan", "android": "https://dc.lft.to/lastmile_qr_scan"}}, {"is_disabled": 0, "fusion_lat": 0.0, "lat": 38.92636983333333, "type": "electric_scooter", "lon": -77.01337833333334, "is_reserved": 0, "fusion_lon": 0.0, "bike_id": "b69487bd49f493df842c31532330c9e2", "name": "b69487bd49f493df842c31532330c9e2", "rental_uris": {"ios": "https://dc.lft.to/lastmile_qr_scan", "android": "https://dc.lft.to/lastmile_qr_scan"}}, {"is_disabled": 0, "fusion_lat": 0.0, "lat": 38.92606333333333, "type": "electric_scooter", "lon": -77.05687133333333, "is_reserved": 0, "fusion_lon": 0.0, "bike_id": "081e594aae3f6e1c9fa174f4f8078e94", "name": "081e594aae3f6e1c9fa174f4f8078e94", "rental_uris": {"ios": "https://dc.lft.to/lastmile_qr_scan", "android": "https://dc.lft.to/lastmile_qr_scan"}}, {"is_disabled": 0, "fusion_lat": 0.0, "lat": 38.8990665, "type": "electric_scooter", "lon": -77.00722983333333, "is_reserved": 0, "fusion_lon": 0.0, "bike_id": "74ec296135a34f9d92c2ef777ef4aa7e", "name": "74ec296135a34f9d92c2ef777ef4aa7e", "rental_uris": {"ios": "https://dc.lft.to/lastmile_qr_scan", "android": "https://dc.lft.to/lastmile_qr_scan"}}, {"is_disabled": 0, "fusion_lat": 0.0, "lat": 38.91827416666667, "type": "electric_scooter", "lon": -77.035262, "is_reserved": 0, "fusion_lon": 0.0, "bike_id": "f833ee84abd53ace7284b2c2ece6b13c", "name": "f833ee84abd53ace7284b2c2ece6b13c", "rental_uris": {"ios": "https://dc.lft.to/lastmile_qr_scan", "android": "https://dc.lft.to/lastmile_qr_scan"}}, {"is_disabled": 0, "fusion_lat": 0.0, "lat": 38.91946983333333, "type": "electric_scooter", "lon": -77.03199216666667, "is_reserved": 0, "fusion_lon": 0.0, "bike_id": "fa3de70e6437dd4bb9bfbb47386b3a0a", "name": "fa3de70e6437dd4bb9bfbb47386b3a0a", "rental_uris": {"ios": "https://dc.lft.to/lastmile_qr_scan", "android": "https://dc.lft.to/lastmile_qr_scan"}}, {"is_disabled": 0, "fusion_lat": 0.0, "lat": 38.95085, "type": "electric_scooter", "lon": -77.02828566666666, "is_reserved": 0, "fusion_lon": 0.0, "bike_id": "7089653864b5c6f1cfea551d526b1bf4", "name": "7089653864b5c6f1cfea551d526b1bf4", "rental_uris": {"ios": "https://dc.lft.to/lastmile_qr_scan", "android": "https://dc.lft.to/lastmile_qr_scan"}}, {"is_disabled": 0, "fusion_lat": 0.0, "lat": 38.909695, "type": "electric_scooter", "lon": -77.03864516666667, "is_reserved": 0, "fusion_lon": 0.0, "bike_id": "08f13a3ad97c66a12a28c291320d0494", "name": "08f13a3ad97c66a12a28c291320d0494", "rental_uris": {"ios": "https://dc.lft.to/lastmile_qr_scan", "android": "https://dc.lft.to/lastmile_qr_scan"}}, {"is_disabled": 0, "fusion_lat": 0.0, "lat": 38.92324383333333, "type": "electric_scooter", "lon": -77.03889816666667, "is_reserved": 0, "fusion_lon": 0.0, "bike_id": "9d19f80feb97c41d8bac0e62b89beb1f", "name": "9d19f80feb97c41d8bac0e62b89beb1f", "rental_uris": {"ios": "https://dc.lft.to/lastmile_qr_scan", "android": "https://dc.lft.to/lastmile_qr_scan"}}, {"is_disabled": 0, "fusion_lat": 0.0, "lat": 38.94083, "type": "electric_scooter", "lon": -77.02716983333333, "is_reserved": 0, "fusion_lon": 0.0, "bike_id": "27cfbae0f18fa78e75ef4445d9032a03", "name": "27cfbae0f18fa78e75ef4445d9032a03", "rental_uris": {"ios": "https://dc.lft.to/lastmile_qr_scan", "android": "https://dc.lft.to/lastmile_qr_scan"}}, {"is_disabled": 0, "fusion_lat": 0.0, "lat": 38.919498, "type": "electric_scooter", "lon": -77.03200533333333, "is_reserved": 0, "fusion_lon": 0.0, "bike_id": "42bf02ea7d1ac67b7ce586397185a336", "name": "42bf02ea7d1ac67b7ce586397185a336", "rental_uris": {"ios": "https://dc.lft.to/lastmile_qr_scan", "android": "https://dc.lft.to/lastmile_qr_scan"}}, {"is_disabled": 0, "fusion_lat": 0.0, "lat": 38.91921766666667, "type": "electric_scooter", "lon": -77.03186616666666, "is_reserved": 0, "fusion_lon": 0.0, "bike_id": "01d22d46fabddff454b45f014f48c845", "name": "01d22d46fabddff454b45f014f48c845", "rental_uris": {"ios": "https://dc.lft.to/lastmile_qr_scan", "android": "https://dc.lft.to/lastmile_qr_scan"}}, {"is_disabled": 0, "fusion_lat": 0.0, "lat": 38.93190716666667, "type": "electric_scooter", "lon": -77.0283065, "is_reserved": 0, "fusion_lon": 0.0, "bike_id": "f3bce88ee49c6236cfc75e3712105489", "name": "f3bce88ee49c6236cfc75e3712105489", "rental_uris": {"ios": "https://dc.lft.to/lastmile_qr_scan", "android": "https://dc.lft.to/lastmile_qr_scan"}}, {"is_disabled": 0, "fusion_lat": 0.0, "lat": 38.88769933333333, "type": "electric_scooter", "lon": -77.02228566666666, "is_reserved": 0, "fusion_lon": 0.0, "bike_id": "d45d9a6fdcb74bce8e629b93c04b4e68", "name": "d45d9a6fdcb74bce8e629b93c04b4e68", "rental_uris": {"ios": "https://dc.lft.to/lastmile_qr_scan", "android": "https://dc.lft.to/lastmile_qr_scan"}}, {"is_disabled": 0, "fusion_lat": 0.0, "lat": 38.90062416666667, "type": "electric_scooter", "lon": -76.933824, "is_reserved": 0, "fusion_lon": 0.0, "bike_id": "6854283f3c3ffb9af935fb3c3d43dafd", "name": "6854283f3c3ffb9af935fb3c3d43dafd", "rental_uris": {"ios": "https://dc.lft.to/lastmile_qr_scan", "android": "https://dc.lft.to/lastmile_qr_scan"}}, {"is_disabled": 0, "fusion_lat": 0.0, "lat": 38.915561333333336, "type": "electric_scooter", "lon": -77.0305805, "is_reserved": 0, "fusion_lon": 0.0, "bike_id": "c40294c98420f6124266b3832db14e13", "name": "c40294c98420f6124266b3832db14e13", "rental_uris": {"ios": "https://dc.lft.to/lastmile_qr_scan", "android": "https://dc.lft.to/lastmile_qr_scan"}}, {"is_disabled": 0, "fusion_lat": 0.0, "lat": 38.88431, "type": "electric_scooter", "lon": -76.957506, "is_reserved": 0, "fusion_lon": 0.0, "bike_id": "8ff5c218b4524c2c3c24243fd94fcbfa", "name": "8ff5c218b4524c2c3c24243fd94fcbfa", "rental_uris": {"ios": "https://dc.lft.to/lastmile_qr_scan", "android": "https://dc.lft.to/lastmile_qr_scan"}}, {"is_disabled": 0, "fusion_lat": 0.0, "lat": 38.92292033333333, "type": "electric_scooter", "lon": -77.02069866666666, "is_reserved": 0, "fusion_lon": 0.0, "bike_id": "cdd505f1381709a3a4a41250b8991f06", "name": "cdd505f1381709a3a4a41250b8991f06", "rental_uris": {"ios": "https://dc.lft.to/lastmile_qr_scan", "android": "https://dc.lft.to/lastmile_qr_scan"}}, {"is_disabled": 0, "fusion_lat": 0.0, "lat": 38.90795116666666, "type": "electric_scooter", "lon": -77.02385116666666, "is_reserved": 0, "fusion_lon": 0.0, "bike_id": "df8252c097dc099bb1ae2028e15bc4e2", "name": "df8252c097dc099bb1ae2028e15bc4e2", "rental_uris": {"ios": "https://dc.lft.to/lastmile_qr_scan", "android": "https://dc.lft.to/lastmile_qr_scan"}}, {"is_disabled": 0, "fusion_lat": 0.0, "lat": 38.919325666666666, "type": "electric_scooter", "lon": -77.08128383333333, "is_reserved": 0, "fusion_lon": 0.0, "bike_id": "b6bdfb173cf6a1b4147e16cf5eb9577f", "name": "b6bdfb173cf6a1b4147e16cf5eb9577f", "rental_uris": {"ios": "https://dc.lft.to/lastmile_qr_scan", "android": "https://dc.lft.to/lastmile_qr_scan"}}, {"is_disabled": 0, "fusion_lat": 0.0, "lat": 38.861027666666665, "type": "electric_scooter", "lon": -76.98329483333333, "is_reserved": 0, "fusion_lon": 0.0, "bike_id": "ed5c4a253331ab7b768867c6693e9dac", "name": "ed5c4a253331ab7b768867c6693e9dac", "rental_uris": {"ios": "https://dc.lft.to/lastmile_qr_scan", "android": "https://dc.lft.to/lastmile_qr_scan"}}, {"is_disabled": 0, "fusion_lat": 0.0, "lat": 38.89498316666667, "type": "electric_scooter", "lon": -77.02290516666666, "is_reserved": 0, "fusion_lon": 0.0, "bike_id": "0467de8eb94a44931a867c513bbefa68", "name": "0467de8eb94a44931a867c513bbefa68", "rental_uris": {"ios": "https://dc.lft.to/lastmile_qr_scan", "android": "https://dc.lft.to/lastmile_qr_scan"}}, {"is_disabled": 0, "fusion_lat": 0.0, "lat": 38.934712166666664, "type": "electric_scooter", "lon": -77.0192255, "is_reserved": 0, "fusion_lon": 0.0, "bike_id": "cfd8aad8f90de4c1805fd4e08d3c3403", "name": "cfd8aad8f90de4c1805fd4e08d3c3403", "rental_uris": {"ios": "https://dc.lft.to/lastmile_qr_scan", "android": "https://dc.lft.to/lastmile_qr_scan"}}, {"is_disabled": 0, "fusion_lat": 0.0, "lat": 38.90300716666667, "type": "electric_scooter", "lon": -77.03848016666667, "is_reserved": 0, "fusion_lon": 0.0, "bike_id": "62bab08b8f12d6c895cd703497670775", "name": "62bab08b8f12d6c895cd703497670775", "rental_uris": {"ios": "https://dc.lft.to/lastmile_qr_scan", "android": "https://dc.lft.to/lastmile_qr_scan"}}, {"is_disabled": 0, "fusion_lat": 0.0, "lat": 38.8972035, "type": "electric_scooter", "lon": -77.02704116666666, "is_reserved": 0, "fusion_lon": 0.0, "bike_id": "6a41bd478a620d00e4f536c0ab078843", "name": "6a41bd478a620d00e4f536c0ab078843", "rental_uris": {"ios": "https://dc.lft.to/lastmile_qr_scan", "android": "https://dc.lft.to/lastmile_qr_scan"}}, {"is_disabled": 0, "fusion_lat": 0.0, "lat": 38.9272225, "type": "electric_scooter", "lon": -77.0396935, "is_reserved": 0, "fusion_lon": 0.0, "bike_id": "0386c915b114e370f9b4313bec8ee5c8", "name": "0386c915b114e370f9b4313bec8ee5c8", "rental_uris": {"ios": "https://dc.lft.to/lastmile_qr_scan", "android": "https://dc.lft.to/lastmile_qr_scan"}}, {"is_disabled": 0, "fusion_lat": 0.0, "lat": 38.881246833333336, "type": "electric_scooter", "lon": -77.00092783333334, "is_reserved": 0, "fusion_lon": 0.0, "bike_id": "91d954dd9a1ac6f684c644c94abfca6c", "name": "91d954dd9a1ac6f684c644c94abfca6c", "rental_uris": {"ios": "https://dc.lft.to/lastmile_qr_scan", "android": "https://dc.lft.to/lastmile_qr_scan"}}, {"is_disabled": 0, "fusion_lat": 0.0, "lat": 38.892262333333335, "type": "electric_scooter", "lon": -77.02217683333333, "is_reserved": 0, "fusion_lon": 0.0, "bike_id": "c491592847b86c9f64cc239044fa52f0", "name": "c491592847b86c9f64cc239044fa52f0", "rental_uris": {"ios": "https://dc.lft.to/lastmile_qr_scan", "android": "https://dc.lft.to/lastmile_qr_scan"}}, {"is_disabled": 0, "fusion_lat": 0.0, "lat": 38.8850575, "type": "electric_scooter", "lon": -77.00564583333333, "is_reserved": 0, "fusion_lon": 0.0, "bike_id": "072a77c98783c866c1566fc1c4140501", "name": "072a77c98783c866c1566fc1c4140501", "rental_uris": {"ios": "https://dc.lft.to/lastmile_qr_scan", "android": "https://dc.lft.to/lastmile_qr_scan"}}, {"is_disabled": 0, "fusion_lat": 0.0, "lat": 38.893479, "type": "electric_scooter", "lon": -76.94931783333334, "is_reserved": 0, "fusion_lon": 0.0, "bike_id": "7d94ac6961d8c049153b623d3d01685b", "name": "7d94ac6961d8c049153b623d3d01685b", "rental_uris": {"ios": "https://dc.lft.to/lastmile_qr_scan", "android": "https://dc.lft.to/lastmile_qr_scan"}}, {"is_disabled": 0, "fusion_lat": 0.0, "lat": 38.917802, "type": "electric_scooter", "lon": -77.05254033333334, "is_reserved": 0, "fusion_lon": 0.0, "bike_id": "921a7f0f0f98aaf99409d540f1448fb7", "name": "921a7f0f0f98aaf99409d540f1448fb7", "rental_uris": {"ios": "https://dc.lft.to/lastmile_qr_scan", "android": "https://dc.lft.to/lastmile_qr_scan"}}, {"is_disabled": 0, "fusion_lat": 0.0, "lat": 38.91943916666666, "type": "electric_scooter", "lon": -77.04156, "is_reserved": 0, "fusion_lon": 0.0, "bike_id": "a57529f667736be22fb639eccbb64b1c", "name": "a57529f667736be22fb639eccbb64b1c", "rental_uris": {"ios": "https://dc.lft.to/lastmile_qr_scan", "android": "https://dc.lft.to/lastmile_qr_scan"}}, {"is_disabled": 0, "fusion_lat": 0.0, "lat": 38.944295333333336, "type": "electric_scooter", "lon": -76.991914, "is_reserved": 0, "fusion_lon": 0.0, "bike_id": "229b4705184a8d41196f3f9b54f2abdc", "name": "229b4705184a8d41196f3f9b54f2abdc", "rental_uris": {"ios": "https://dc.lft.to/lastmile_qr_scan", "android": "https://dc.lft.to/lastmile_qr_scan"}}, {"is_disabled": 0, "fusion_lat": 0.0, "lat": 38.873727833333334, "type": "electric_bike", "lon": -77.11795916666667, "is_reserved": 0, "fusion_lon": 0.0, "bike_id": "2c2cc56847feec0731e39adaec8c5893", "name": "2c2cc56847feec0731e39adaec8c5893", "rental_uris": {"ios": "https://dc.lft.to/lastmile_qr_scan", "android": "https://dc.lft.to/lastmile_qr_scan"}}, {"is_disabled": 0, "fusion_lat": 0.0, "lat": 38.906043333333336, "type": "electric_scooter", "lon": -77.041092, "is_reserved": 0, "fusion_lon": 0.0, "bike_id": "06b80d94abe8a412cc6febd693c94977", "name": "06b80d94abe8a412cc6febd693c94977", "rental_uris": {"ios": "https://dc.lft.to/lastmile_qr_scan", "android": "https://dc.lft.to/lastmile_qr_scan"}}, {"is_disabled": 0, "fusion_lat": 0.0, "lat": 38.96555083333333, "type": "electric_bike", "lon": -77.02296166666666, "is_reserved": 0, "fusion_lon": 0.0, "bike_id": "586e138d6eea5f861bc61be56bbef397", "name": "586e138d6eea5f861bc61be56bbef397", "rental_uris": {"ios": "https://dc.lft.to/lastmile_qr_scan", "android": "https://dc.lft.to/lastmile_qr_scan"}}, {"is_disabled": 0, "fusion_lat": 0.0, "lat": 38.918435833333334, "type": "electric_scooter", "lon": -77.032118, "is_reserved": 0, "fusion_lon": 0.0, "bike_id": "57041b417764e1d64ce7bf423ff26145", "name": "57041b417764e1d64ce7bf423ff26145", "rental_uris": {"ios": "https://dc.lft.to/lastmile_qr_scan", "android": "https://dc.lft.to/lastmile_qr_scan"}}, {"is_disabled": 0, "fusion_lat": 0.0, "lat": 38.891902, "type": "electric_bike", "lon": -77.12260466666666, "is_reserved": 0, "fusion_lon": 0.0, "bike_id": "fb3b090169d1411c83541f4d982018ff", "name": "fb3b090169d1411c83541f4d982018ff", "rental_uris": {"ios": "https://dc.lft.to/lastmile_qr_scan", "android": "https://dc.lft.to/lastmile_qr_scan"}}, {"is_disabled": 0, "fusion_lat": 0.0, "lat": 38.921049, "type": "electric_scooter", "lon": -77.0317635, "is_reserved": 0, "fusion_lon": 0.0, "bike_id": "360960080faddf948600578c5c868346", "name": "360960080faddf948600578c5c868346", "rental_uris": {"ios": "https://dc.lft.to/lastmile_qr_scan", "android": "https://dc.lft.to/lastmile_qr_scan"}}, {"is_disabled": 0, "fusion_lat": 0.0, "lat": 38.897172, "type": "electric_scooter", "lon": -77.02167366666667, "is_reserved": 0, "fusion_lon": 0.0, "bike_id": "bce8710661979293579233b53085028c", "name": "bce8710661979293579233b53085028c", "rental_uris": {"ios": "https://dc.lft.to/lastmile_qr_scan", "android": "https://dc.lft.to/lastmile_qr_scan"}}, {"is_disabled": 0, "fusion_lat": 0.0, "lat": 38.941676333333334, "type": "electric_scooter", "lon": -77.02531383333333, "is_reserved": 0, "fusion_lon": 0.0, "bike_id": "5d679ceda877662daab4383c305884c1", "name": "5d679ceda877662daab4383c305884c1", "rental_uris": {"ios": "https://dc.lft.to/lastmile_qr_scan", "android": "https://dc.lft.to/lastmile_qr_scan"}}, {"is_disabled": 0, "fusion_lat": 0.0, "lat": 38.90704133333333, "type": "electric_scooter", "lon": -76.9979265, "is_reserved": 0, "fusion_lon": 0.0, "bike_id": "0544e0ef7afe4e60ca885424eadf3656", "name": "0544e0ef7afe4e60ca885424eadf3656", "rental_uris": {"ios": "https://dc.lft.to/lastmile_qr_scan", "android": "https://dc.lft.to/lastmile_qr_scan"}}, {"is_disabled": 0, "fusion_lat": 0.0, "lat": 38.9021635, "type": "electric_scooter", "lon": -77.04099783333334, "is_reserved": 0, "fusion_lon": 0.0, "bike_id": "cea5cca41524008573330a74ffab8b0b", "name": "cea5cca41524008573330a74ffab8b0b", "rental_uris": {"ios": "https://dc.lft.to/lastmile_qr_scan", "android": "https://dc.lft.to/lastmile_qr_scan"}}, {"is_disabled": 0, "fusion_lat": 0.0, "lat": 38.93598583333333, "type": "electric_scooter", "lon": -77.02326316666667, "is_reserved": 0, "fusion_lon": 0.0, "bike_id": "c6abd4ce8e6d0a08a930dd4d31421fa6", "name": "c6abd4ce8e6d0a08a930dd4d31421fa6", "rental_uris": {"ios": "https://dc.lft.to/lastmile_qr_scan", "android": "https://dc.lft.to/lastmile_qr_scan"}}, {"is_disabled": 0, "fusion_lat": 0.0, "lat": 38.916137166666665, "type": "electric_scooter", "lon": -77.02280466666667, "is_reserved": 0, "fusion_lon": 0.0, "bike_id": "bfcbd2cca10683657414f991993195b0", "name": "bfcbd2cca10683657414f991993195b0", "rental_uris": {"ios": "https://dc.lft.to/lastmile_qr_scan", "android": "https://dc.lft.to/lastmile_qr_scan"}}, {"is_disabled": 0, "fusion_lat": 0.0, "lat": 38.924301, "type": "electric_scooter", "lon": -77.042503, "is_reserved": 0, "fusion_lon": 0.0, "bike_id": "de83d85a67b84230d405934b8f8efccc", "name": "de83d85a67b84230d405934b8f8efccc", "rental_uris": {"ios": "https://dc.lft.to/lastmile_qr_scan", "android": "https://dc.lft.to/lastmile_qr_scan"}}, {"is_disabled": 0, "fusion_lat": 0.0, "lat": 38.910164, "type": "electric_scooter", "lon": -77.05463733333333, "is_reserved": 0, "fusion_lon": 0.0, "bike_id": "3eaf40ee3b7586a39c18cb8cd7eb274d", "name": "3eaf40ee3b7586a39c18cb8cd7eb274d", "rental_uris": {"ios": "https://dc.lft.to/lastmile_qr_scan", "android": "https://dc.lft.to/lastmile_qr_scan"}}, {"is_disabled": 0, "fusion_lat": 0.0, "lat": 38.924591166666666, "type": "electric_bike", "lon": -77.2083595, "is_reserved": 0, "fusion_lon": 0.0, "bike_id": "f34328f1209731f080d6e4c4ef09e4b9", "name": "f34328f1209731f080d6e4c4ef09e4b9", "rental_uris": {"ios": "https://dc.lft.to/lastmile_qr_scan", "android": "https://dc.lft.to/lastmile_qr_scan"}}, {"is_disabled": 0, "fusion_lat": 0.0, "lat": 38.86613716666667, "type": "electric_bike", "lon": -76.94572033333333, "is_reserved": 0, "fusion_lon": 0.0, "bike_id": "ff15315f1c1b69a15aa46a2f08d8d599", "name": "ff15315f1c1b69a15aa46a2f08d8d599", "rental_uris": {"ios": "https://dc.lft.to/lastmile_qr_scan", "android": "https://dc.lft.to/lastmile_qr_scan"}}, {"is_disabled": 0, "fusion_lat": 0.0, "lat": 38.890610333333335, "type": "electric_scooter", "lon": -76.94329183333333, "is_reserved": 0, "fusion_lon": 0.0, "bike_id": "2022f6ce6db3783a1ec3ad1198fa8578", "name": "2022f6ce6db3783a1ec3ad1198fa8578", "rental_uris": {"ios": "https://dc.lft.to/lastmile_qr_scan", "android": "https://dc.lft.to/lastmile_qr_scan"}}, {"is_disabled": 0, "fusion_lat": 0.0, "lat": 38.9129715, "type": "electric_scooter", "lon": -77.0434985, "is_reserved": 0, "fusion_lon": 0.0, "bike_id": "f16cf1228e214c96fae98ab7c9923cb6", "name": "f16cf1228e214c96fae98ab7c9923cb6", "rental_uris": {"ios": "https://dc.lft.to/lastmile_qr_scan", "android": "https://dc.lft.to/lastmile_qr_scan"}}, {"is_disabled": 0, "fusion_lat": 0.0, "lat": 38.882926, "type": "electric_scooter", "lon": -76.99138666666667, "is_reserved": 0, "fusion_lon": 0.0, "bike_id": "dd1557df98c398dec9ba940369665dc5", "name": "dd1557df98c398dec9ba940369665dc5", "rental_uris": {"ios": "https://dc.lft.to/lastmile_qr_scan", "android": "https://dc.lft.to/lastmile_qr_scan"}}, {"is_disabled": 0, "fusion_lat": 0.0, "lat": 38.90777816666667, "type": "electric_scooter", "lon": -77.0382995, "is_reserved": 0, "fusion_lon": 0.0, "bike_id": "06bc3621b3d1d628dbbbe22a146ccf6e", "name": "06bc3621b3d1d628dbbbe22a146ccf6e", "rental_uris": {"ios": "https://dc.lft.to/lastmile_qr_scan", "android": "https://dc.lft.to/lastmile_qr_scan"}}, {"is_disabled": 0, "fusion_lat": 0.0, "lat": 38.858070833333336, "type": "electric_scooter", "lon": -76.98653316666666, "is_reserved": 0, "fusion_lon": 0.0, "bike_id": "579ab77bd0e6ef99bae4bd5d0e48e431", "name": "579ab77bd0e6ef99bae4bd5d0e48e431", "rental_uris": {"ios": "https://dc.lft.to/lastmile_qr_scan", "android": "https://dc.lft.to/lastmile_qr_scan"}}, {"is_disabled": 0, "fusion_lat": 0.0, "lat": 38.921024833333334, "type": "electric_scooter", "lon": -77.01778066666667, "is_reserved": 0, "fusion_lon": 0.0, "bike_id": "7b5c5dd33e057784eb5aeb88ca19e700", "name": "7b5c5dd33e057784eb5aeb88ca19e700", "rental_uris": {"ios": "https://dc.lft.to/lastmile_qr_scan", "android": "https://dc.lft.to/lastmile_qr_scan"}}, {"is_disabled": 0, "fusion_lat": 0.0, "lat": 38.92074816666667, "type": "electric_scooter", "lon": -77.02386666666666, "is_reserved": 0, "fusion_lon": 0.0, "bike_id": "0571807518e497a5eecf15b174fc02e5", "name": "0571807518e497a5eecf15b174fc02e5", "rental_uris": {"ios": "https://dc.lft.to/lastmile_qr_scan", "android": "https://dc.lft.to/lastmile_qr_scan"}}, {"is_disabled": 0, "fusion_lat": 0.0, "lat": 38.90499066666667, "type": "electric_scooter", "lon": -77.06286266666666, "is_reserved": 0, "fusion_lon": 0.0, "bike_id": "a59af1f207b558e65b4deab654a26ac3", "name": "a59af1f207b558e65b4deab654a26ac3", "rental_uris": {"ios": "https://dc.lft.to/lastmile_qr_scan", "android": "https://dc.lft.to/lastmile_qr_scan"}}, {"is_disabled": 0, "fusion_lat": 0.0, "lat": 38.924614166666665, "type": "electric_scooter", "lon": -77.03275683333334, "is_reserved": 0, "fusion_lon": 0.0, "bike_id": "a0ce20272ac93297598d24c0e9e1f800", "name": "a0ce20272ac93297598d24c0e9e1f800", "rental_uris": {"ios": "https://dc.lft.to/lastmile_qr_scan", "android": "https://dc.lft.to/lastmile_qr_scan"}}, {"is_disabled": 0, "fusion_lat": 0.0, "lat": 38.896128166666664, "type": "electric_scooter", "lon": -77.0280605, "is_reserved": 0, "fusion_lon": 0.0, "bike_id": "01cd202ec01ce99ac9f08981b9d0bf7e", "name": "01cd202ec01ce99ac9f08981b9d0bf7e", "rental_uris": {"ios": "https://dc.lft.to/lastmile_qr_scan", "android": "https://dc.lft.to/lastmile_qr_scan"}}, {"is_disabled": 0, "fusion_lat": 0.0, "lat": 38.86278216666667, "type": "electric_scooter", "lon": -76.99232633333334, "is_reserved": 0, "fusion_lon": 0.0, "bike_id": "0630358836df7a06fe4da8c84f2f9a5e", "name": "0630358836df7a06fe4da8c84f2f9a5e", "rental_uris": {"ios": "https://dc.lft.to/lastmile_qr_scan", "android": "https://dc.lft.to/lastmile_qr_scan"}}, {"is_disabled": 0, "fusion_lat": 0.0, "lat": 38.94172183333333, "type": "electric_scooter", "lon": -77.0233545, "is_reserved": 0, "fusion_lon": 0.0, "bike_id": "f49f2ee43df4058227348cdaa25d994b", "name": "f49f2ee43df4058227348cdaa25d994b", "rental_uris": {"ios": "https://dc.lft.to/lastmile_qr_scan", "android": "https://dc.lft.to/lastmile_qr_scan"}}, {"is_disabled": 0, "fusion_lat": 0.0, "lat": 38.941701333333334, "type": "electric_scooter", "lon": -77.02528766666667, "is_reserved": 0, "fusion_lon": 0.0, "bike_id": "f4aeccc4d51b23dcd6217e7d5ad556a5", "name": "f4aeccc4d51b23dcd6217e7d5ad556a5", "rental_uris": {"ios": "https://dc.lft.to/lastmile_qr_scan", "android": "https://dc.lft.to/lastmile_qr_scan"}}, {"is_disabled": 0, "fusion_lat": 0.0, "lat": 38.92385483333333, "type": "electric_scooter", "lon": -77.02552966666667, "is_reserved": 0, "fusion_lon": 0.0, "bike_id": "bd5c74e647851cd235b40501da4ba016", "name": "bd5c74e647851cd235b40501da4ba016", "rental_uris": {"ios": "https://dc.lft.to/lastmile_qr_scan", "android": "https://dc.lft.to/lastmile_qr_scan"}}, {"is_disabled": 0, "fusion_lat": 0.0, "lat": 38.90958333333333, "type": "electric_scooter", "lon": -77.01436283333334, "is_reserved": 0, "fusion_lon": 0.0, "bike_id": "1888d1e01376316629dadd9e29a5e326", "name": "1888d1e01376316629dadd9e29a5e326", "rental_uris": {"ios": "https://dc.lft.to/lastmile_qr_scan", "android": "https://dc.lft.to/lastmile_qr_scan"}}, {"is_disabled": 0, "fusion_lat": 0.0, "lat": 38.8763105, "type": "electric_scooter", "lon": -76.96518933333333, "is_reserved": 0, "fusion_lon": 0.0, "bike_id": "627b060a70a137b938d933c03ceb3c8e", "name": "627b060a70a137b938d933c03ceb3c8e", "rental_uris": {"ios": "https://dc.lft.to/lastmile_qr_scan", "android": "https://dc.lft.to/lastmile_qr_scan"}}, {"is_disabled": 0, "fusion_lat": 0.0, "lat": 38.908102166666666, "type": "electric_scooter", "lon": -77.04334816666666, "is_reserved": 0, "fusion_lon": 0.0, "bike_id": "93ad1d367d99007c4353780fb21f79d1", "name": "93ad1d367d99007c4353780fb21f79d1", "rental_uris": {"ios": "https://dc.lft.to/lastmile_qr_scan", "android": "https://dc.lft.to/lastmile_qr_scan"}}, {"is_disabled": 0, "fusion_lat": 0.0, "lat": 38.9217875, "type": "electric_scooter", "lon": -77.03206783333333, "is_reserved": 0, "fusion_lon": 0.0, "bike_id": "729d218eb0a5cc185523f7efddf5da7b", "name": "729d218eb0a5cc185523f7efddf5da7b", "rental_uris": {"ios": "https://dc.lft.to/lastmile_qr_scan", "android": "https://dc.lft.to/lastmile_qr_scan"}}, {"is_disabled": 0, "fusion_lat": 0.0, "lat": 38.8932865, "type": "electric_scooter", "lon": -76.9299205, "is_reserved": 0, "fusion_lon": 0.0, "bike_id": "bd244ba191339b29f3b19b7d613110ed", "name": "bd244ba191339b29f3b19b7d613110ed", "rental_uris": {"ios": "https://dc.lft.to/lastmile_qr_scan", "android": "https://dc.lft.to/lastmile_qr_scan"}}, {"is_disabled": 0, "fusion_lat": 0.0, "lat": 38.9051445, "type": "electric_scooter", "lon": -76.9883145, "is_reserved": 0, "fusion_lon": 0.0, "bike_id": "5a353779f1b81d2e9adbf5d5633be411", "name": "5a353779f1b81d2e9adbf5d5633be411", "rental_uris": {"ios": "https://dc.lft.to/lastmile_qr_scan", "android": "https://dc.lft.to/lastmile_qr_scan"}}, {"is_disabled": 0, "fusion_lat": 0.0, "lat": 38.905023666666665, "type": "electric_scooter", "lon": -77.051181, "is_reserved": 0, "fusion_lon": 0.0, "bike_id": "15ba2069d7375417fed2b051bd392cde", "name": "15ba2069d7375417fed2b051bd392cde", "rental_uris": {"ios": "https://dc.lft.to/lastmile_qr_scan", "android": "https://dc.lft.to/lastmile_qr_scan"}}, {"is_disabled": 0, "fusion_lat": 0.0, "lat": 38.873852666666664, "type": "electric_scooter", "lon": -77.000868, "is_reserved": 0, "fusion_lon": 0.0, "bike_id": "98d702166fcd5892ab08325eeba307dc", "name": "98d702166fcd5892ab08325eeba307dc", "rental_uris": {"ios": "https://dc.lft.to/lastmile_qr_scan", "android": "https://dc.lft.to/lastmile_qr_scan"}}, {"is_disabled": 0, "fusion_lat": 0.0, "lat": 38.90310516666667, "type": "electric_scooter", "lon": -77.05149883333333, "is_reserved": 0, "fusion_lon": 0.0, "bike_id": "1b7dc7f3598ddb4ca9937a198e7fa55f", "name": "1b7dc7f3598ddb4ca9937a198e7fa55f", "rental_uris": {"ios": "https://dc.lft.to/lastmile_qr_scan", "android": "https://dc.lft.to/lastmile_qr_scan"}}, {"is_disabled": 0, "fusion_lat": 0.0, "lat": 38.91712483333333, "type": "electric_scooter", "lon": -77.02887766666667, "is_reserved": 0, "fusion_lon": 0.0, "bike_id": "021b1efc346360f91aac8f1121bc6210", "name": "021b1efc346360f91aac8f1121bc6210", "rental_uris": {"ios": "https://dc.lft.to/lastmile_qr_scan", "android": "https://dc.lft.to/lastmile_qr_scan"}}, {"is_disabled": 0, "fusion_lat": 0.0, "lat": 38.917524666666665, "type": "electric_scooter", "lon": -77.02294433333333, "is_reserved": 0, "fusion_lon": 0.0, "bike_id": "7f5cf741a293a412146f0c6d602618ab", "name": "7f5cf741a293a412146f0c6d602618ab", "rental_uris": {"ios": "https://dc.lft.to/lastmile_qr_scan", "android": "https://dc.lft.to/lastmile_qr_scan"}}, {"is_disabled": 0, "fusion_lat": 0.0, "lat": 38.90416283333333, "type": "electric_scooter", "lon": -77.03213116666667, "is_reserved": 0, "fusion_lon": 0.0, "bike_id": "c417d11d9554f3ea7c54004f5c604ce0", "name": "c417d11d9554f3ea7c54004f5c604ce0", "rental_uris": {"ios": "https://dc.lft.to/lastmile_qr_scan", "android": "https://dc.lft.to/lastmile_qr_scan"}}, {"is_disabled": 0, "fusion_lat": 0.0, "lat": 38.90174016666667, "type": "electric_scooter", "lon": -76.9807665, "is_reserved": 0, "fusion_lon": 0.0, "bike_id": "5ae74a70fa92ee296bc0482bc7600440", "name": "5ae74a70fa92ee296bc0482bc7600440", "rental_uris": {"ios": "https://dc.lft.to/lastmile_qr_scan", "android": "https://dc.lft.to/lastmile_qr_scan"}}, {"is_disabled": 0, "fusion_lat": 0.0, "lat": 38.913985, "type": "electric_scooter", "lon": -77.03925216666667, "is_reserved": 0, "fusion_lon": 0.0, "bike_id": "6384d53bb2abc9dff8914637c77c3577", "name": "6384d53bb2abc9dff8914637c77c3577", "rental_uris": {"ios": "https://dc.lft.to/lastmile_qr_scan", "android": "https://dc.lft.to/lastmile_qr_scan"}}, {"is_disabled": 0, "fusion_lat": 0.0, "lat": 38.921259166666665, "type": "electric_scooter", "lon": -77.01787466666667, "is_reserved": 0, "fusion_lon": 0.0, "bike_id": "a290a3cf8ba6691e2d701f13a60150eb", "name": "a290a3cf8ba6691e2d701f13a60150eb", "rental_uris": {"ios": "https://dc.lft.to/lastmile_qr_scan", "android": "https://dc.lft.to/lastmile_qr_scan"}}, {"is_disabled": 0, "fusion_lat": 0.0, "lat": 38.87241366666667, "type": "electric_scooter", "lon": -76.97730983333334, "is_reserved": 0, "fusion_lon": 0.0, "bike_id": "357f7b7d32186331b6c784fbb46130cb", "name": "357f7b7d32186331b6c784fbb46130cb", "rental_uris": {"ios": "https://dc.lft.to/lastmile_qr_scan", "android": "https://dc.lft.to/lastmile_qr_scan"}}, {"is_disabled": 0, "fusion_lat": 0.0, "lat": 38.89531933333333, "type": "electric_scooter", "lon": -76.94878283333334, "is_reserved": 0, "fusion_lon": 0.0, "bike_id": "342e06ca3500489c25bcf1edb90c8918", "name": "342e06ca3500489c25bcf1edb90c8918", "rental_uris": {"ios": "https://dc.lft.to/lastmile_qr_scan", "android": "https://dc.lft.to/lastmile_qr_scan"}}, {"is_disabled": 0, "fusion_lat": 0.0, "lat": 38.8552435, "type": "electric_scooter", "lon": -76.96916116666667, "is_reserved": 0, "fusion_lon": 0.0, "bike_id": "ded1ce1e4178e7fde4e81afff2ceed79", "name": "ded1ce1e4178e7fde4e81afff2ceed79", "rental_uris": {"ios": "https://dc.lft.to/lastmile_qr_scan", "android": "https://dc.lft.to/lastmile_qr_scan"}}, {"is_disabled": 0, "fusion_lat": 0.0, "lat": 38.923635, "type": "electric_scooter", "lon": -77.051275, "is_reserved": 0, "fusion_lon": 0.0, "bike_id": "68b98926684d2e1cf53647f59f59a82a", "name": "68b98926684d2e1cf53647f59f59a82a", "rental_uris": {"ios": "https://dc.lft.to/lastmile_qr_scan", "android": "https://dc.lft.to/lastmile_qr_scan"}}, {"is_disabled": 0, "fusion_lat": 0.0, "lat": 38.89227183333333, "type": "electric_scooter", "lon": -77.0444375, "is_reserved": 0, "fusion_lon": 0.0, "bike_id": "90137fcb4847dfc9c6913e8f26456379", "name": "90137fcb4847dfc9c6913e8f26456379", "rental_uris": {"ios": "https://dc.lft.to/lastmile_qr_scan", "android": "https://dc.lft.to/lastmile_qr_scan"}}, {"is_disabled": 0, "fusion_lat": 0.0, "lat": 38.91759233333333, "type": "electric_scooter", "lon": -77.00398066666666, "is_reserved": 0, "fusion_lon": 0.0, "bike_id": "7e8ef3b2d2d625497ba576fdd303fe04", "name": "7e8ef3b2d2d625497ba576fdd303fe04", "rental_uris": {"ios": "https://dc.lft.to/lastmile_qr_scan", "android": "https://dc.lft.to/lastmile_qr_scan"}}, {"is_disabled": 0, "fusion_lat": 0.0, "lat": 38.908008833333334, "type": "electric_scooter", "lon": -77.038545, "is_reserved": 0, "fusion_lon": 0.0, "bike_id": "a6641e580dd849ff3ab8ed94bbfab022", "name": "a6641e580dd849ff3ab8ed94bbfab022", "rental_uris": {"ios": "https://dc.lft.to/lastmile_qr_scan", "android": "https://dc.lft.to/lastmile_qr_scan"}}, {"is_disabled": 0, "fusion_lat": 0.0, "lat": 38.92614583333334, "type": "electric_scooter", "lon": -77.005622, "is_reserved": 0, "fusion_lon": 0.0, "bike_id": "3354c69d960f5030b56e4ea64496e308", "name": "3354c69d960f5030b56e4ea64496e308", "rental_uris": {"ios": "https://dc.lft.to/lastmile_qr_scan", "android": "https://dc.lft.to/lastmile_qr_scan"}}, {"is_disabled": 0, "fusion_lat": 0.0, "lat": 38.92237016666667, "type": "electric_scooter", "lon": -77.03068333333333, "is_reserved": 0, "fusion_lon": 0.0, "bike_id": "3807bb93a0e627c26ee7f03de30f29f7", "name": "3807bb93a0e627c26ee7f03de30f29f7", "rental_uris": {"ios": "https://dc.lft.to/lastmile_qr_scan", "android": "https://dc.lft.to/lastmile_qr_scan"}}, {"is_disabled": 0, "fusion_lat": 0.0, "lat": 38.88707766666667, "type": "electric_scooter", "lon": -77.03213, "is_reserved": 0, "fusion_lon": 0.0, "bike_id": "900db4ce0facaeb011cbcbba48a01f57", "name": "900db4ce0facaeb011cbcbba48a01f57", "rental_uris": {"ios": "https://dc.lft.to/lastmile_qr_scan", "android": "https://dc.lft.to/lastmile_qr_scan"}}, {"is_disabled": 0, "fusion_lat": 0.0, "lat": 38.8828615, "type": "electric_scooter", "lon": -77.041565, "is_reserved": 0, "fusion_lon": 0.0, "bike_id": "7f517930f7f7f53fe78857026829e012", "name": "7f517930f7f7f53fe78857026829e012", "rental_uris": {"ios": "https://dc.lft.to/lastmile_qr_scan", "android": "https://dc.lft.to/lastmile_qr_scan"}}, {"is_disabled": 0, "fusion_lat": 0.0, "lat": 38.918927, "type": "electric_scooter", "lon": -76.97144616666667, "is_reserved": 0, "fusion_lon": 0.0, "bike_id": "635da05472fdfb2659a4aee838503b71", "name": "635da05472fdfb2659a4aee838503b71", "rental_uris": {"ios": "https://dc.lft.to/lastmile_qr_scan", "android": "https://dc.lft.to/lastmile_qr_scan"}}, {"is_disabled": 0, "fusion_lat": 0.0, "lat": 38.90281383333333, "type": "electric_scooter", "lon": -77.03858116666666, "is_reserved": 0, "fusion_lon": 0.0, "bike_id": "ce9d3ad7e5ef4f80a114b72df2b5870b", "name": "ce9d3ad7e5ef4f80a114b72df2b5870b", "rental_uris": {"ios": "https://dc.lft.to/lastmile_qr_scan", "android": "https://dc.lft.to/lastmile_qr_scan"}}, {"is_disabled": 0, "fusion_lat": 0.0, "lat": 38.908470666666666, "type": "electric_scooter", "lon": -77.02442633333334, "is_reserved": 0, "fusion_lon": 0.0, "bike_id": "45045a4249d3741e236886f8603501fb", "name": "45045a4249d3741e236886f8603501fb", "rental_uris": {"ios": "https://dc.lft.to/lastmile_qr_scan", "android": "https://dc.lft.to/lastmile_qr_scan"}}, {"is_disabled": 0, "fusion_lat": 0.0, "lat": 38.9461635, "type": "electric_scooter", "lon": -77.03498066666667, "is_reserved": 0, "fusion_lon": 0.0, "bike_id": "9c68bdc9ddf36b2562380f3a7534bc93", "name": "9c68bdc9ddf36b2562380f3a7534bc93", "rental_uris": {"ios": "https://dc.lft.to/lastmile_qr_scan", "android": "https://dc.lft.to/lastmile_qr_scan"}}, {"is_disabled": 0, "fusion_lat": 0.0, "lat": 38.943192833333335, "type": "electric_scooter", "lon": -77.07385683333334, "is_reserved": 0, "fusion_lon": 0.0, "bike_id": "2b1c5e212795f75b9d165b54fe5d3cd6", "name": "2b1c5e212795f75b9d165b54fe5d3cd6", "rental_uris": {"ios": "https://dc.lft.to/lastmile_qr_scan", "android": "https://dc.lft.to/lastmile_qr_scan"}}, {"is_disabled": 0, "fusion_lat": 0.0, "lat": 38.89929566666667, "type": "electric_scooter", "lon": -77.05417283333334, "is_reserved": 0, "fusion_lon": 0.0, "bike_id": "1cee801ca40477bf3dc8b662a139c6e7", "name": "1cee801ca40477bf3dc8b662a139c6e7", "rental_uris": {"ios": "https://dc.lft.to/lastmile_qr_scan", "android": "https://dc.lft.to/lastmile_qr_scan"}}, {"is_disabled": 0, "fusion_lat": 0.0, "lat": 38.86354683333333, "type": "electric_scooter", "lon": -76.99030533333334, "is_reserved": 0, "fusion_lon": 0.0, "bike_id": "72d5e570e07e36c4d79e686979b3ff4b", "name": "72d5e570e07e36c4d79e686979b3ff4b", "rental_uris": {"ios": "https://dc.lft.to/lastmile_qr_scan", "android": "https://dc.lft.to/lastmile_qr_scan"}}, {"is_disabled": 0, "fusion_lat": 0.0, "lat": 38.90716316666666, "type": "electric_scooter", "lon": -77.02974316666666, "is_reserved": 0, "fusion_lon": 0.0, "bike_id": "a57a1181b6bec63e5c0603639063bc2e", "name": "a57a1181b6bec63e5c0603639063bc2e", "rental_uris": {"ios": "https://dc.lft.to/lastmile_qr_scan", "android": "https://dc.lft.to/lastmile_qr_scan"}}, {"is_disabled": 0, "fusion_lat": 0.0, "lat": 38.874811333333334, "type": "electric_scooter", "lon": -77.00175966666667, "is_reserved": 0, "fusion_lon": 0.0, "bike_id": "4275eee973d897fed9dac87412c1e93a", "name": "4275eee973d897fed9dac87412c1e93a", "rental_uris": {"ios": "https://dc.lft.to/lastmile_qr_scan", "android": "https://dc.lft.to/lastmile_qr_scan"}}, {"is_disabled": 0, "fusion_lat": 0.0, "lat": 38.89847366666667, "type": "electric_scooter", "lon": -76.94474533333333, "is_reserved": 0, "fusion_lon": 0.0, "bike_id": "1ea19f6f46525bc3203ae63f4553f2e3", "name": "1ea19f6f46525bc3203ae63f4553f2e3", "rental_uris": {"ios": "https://dc.lft.to/lastmile_qr_scan", "android": "https://dc.lft.to/lastmile_qr_scan"}}, {"is_disabled": 0, "fusion_lat": 0.0, "lat": 38.91680266666667, "type": "electric_scooter", "lon": -77.02942266666666, "is_reserved": 0, "fusion_lon": 0.0, "bike_id": "a1b8f91b750fecaaa1e38dd899175238", "name": "a1b8f91b750fecaaa1e38dd899175238", "rental_uris": {"ios": "https://dc.lft.to/lastmile_qr_scan", "android": "https://dc.lft.to/lastmile_qr_scan"}}, {"is_disabled": 0, "fusion_lat": 0.0, "lat": 38.92665616666667, "type": "electric_bike", "lon": -77.00814533333333, "is_reserved": 0, "fusion_lon": 0.0, "bike_id": "29471eec6a57762016021ae5d321630b", "name": "29471eec6a57762016021ae5d321630b", "rental_uris": {"ios": "https://dc.lft.to/lastmile_qr_scan", "android": "https://dc.lft.to/lastmile_qr_scan"}}, {"is_disabled": 0, "fusion_lat": 0.0, "lat": 38.862905, "type": "electric_scooter", "lon": -76.99229816666667, "is_reserved": 0, "fusion_lon": 0.0, "bike_id": "03d361137740d276519489d1e8f29740", "name": "03d361137740d276519489d1e8f29740", "rental_uris": {"ios": "https://dc.lft.to/lastmile_qr_scan", "android": "https://dc.lft.to/lastmile_qr_scan"}}, {"is_disabled": 0, "fusion_lat": 0.0, "lat": 38.920095333333336, "type": "electric_scooter", "lon": -77.03143483333334, "is_reserved": 0, "fusion_lon": 0.0, "bike_id": "fc36b2f09eb71094b13fa2a8ee5962c1", "name": "fc36b2f09eb71094b13fa2a8ee5962c1", "rental_uris": {"ios": "https://dc.lft.to/lastmile_qr_scan", "android": "https://dc.lft.to/lastmile_qr_scan"}}, {"is_disabled": 0, "fusion_lat": 0.0, "lat": 38.902646, "type": "electric_scooter", "lon": -77.04276616666667, "is_reserved": 0, "fusion_lon": 0.0, "bike_id": "caef2ba1c04473e4aa6e78a604ece267", "name": "caef2ba1c04473e4aa6e78a604ece267", "rental_uris": {"ios": "https://dc.lft.to/lastmile_qr_scan", "android": "https://dc.lft.to/lastmile_qr_scan"}}, {"is_disabled": 0, "fusion_lat": 0.0, "lat": 38.950130333333334, "type": "electric_bike", "lon": -77.01560266666667, "is_reserved": 0, "fusion_lon": 0.0, "bike_id": "dcaa1aeb48536acb8e222b0a3ff16597", "name": "dcaa1aeb48536acb8e222b0a3ff16597", "rental_uris": {"ios": "https://dc.lft.to/lastmile_qr_scan", "android": "https://dc.lft.to/lastmile_qr_scan"}}, {"is_disabled": 0, "fusion_lat": 0.0, "lat": 38.930853, "type": "electric_scooter", "lon": -77.03774416666667, "is_reserved": 0, "fusion_lon": 0.0, "bike_id": "2eee64c2b7e13e39a2c75271b29c7b53", "name": "2eee64c2b7e13e39a2c75271b29c7b53", "rental_uris": {"ios": "https://dc.lft.to/lastmile_qr_scan", "android": "https://dc.lft.to/lastmile_qr_scan"}}, {"is_disabled": 0, "fusion_lat": 0.0, "lat": 39.094401, "type": "electric_bike", "lon": -77.13463066666667, "is_reserved": 0, "fusion_lon": 0.0, "bike_id": "79cb5667d4a8401c14f36b31b29b8fd4", "name": "79cb5667d4a8401c14f36b31b29b8fd4", "rental_uris": {"ios": "https://dc.lft.to/lastmile_qr_scan", "android": "https://dc.lft.to/lastmile_qr_scan"}}, {"is_disabled": 0, "fusion_lat": 0.0, "lat": 38.88709266666667, "type": "electric_scooter", "lon": -77.0137095, "is_reserved": 0, "fusion_lon": 0.0, "bike_id": "5a0d7901224eedc649bef3b7e52da8aa", "name": "5a0d7901224eedc649bef3b7e52da8aa", "rental_uris": {"ios": "https://dc.lft.to/lastmile_qr_scan", "android": "https://dc.lft.to/lastmile_qr_scan"}}, {"is_disabled": 0, "fusion_lat": 0.0, "lat": 38.92693516666667, "type": "electric_scooter", "lon": -77.024246, "is_reserved": 0, "fusion_lon": 0.0, "bike_id": "b789c9ede2080bae7ad896608c72f6ab", "name": "b789c9ede2080bae7ad896608c72f6ab", "rental_uris": {"ios": "https://dc.lft.to/lastmile_qr_scan", "android": "https://dc.lft.to/lastmile_qr_scan"}}, {"is_disabled": 0, "fusion_lat": 0.0, "lat": 38.87265816666667, "type": "electric_bike", "lon": -76.97901033333333, "is_reserved": 0, "fusion_lon": 0.0, "bike_id": "9f84309e854cb3684d5f65e4cd1834dc", "name": "9f84309e854cb3684d5f65e4cd1834dc", "rental_uris": {"ios": "https://dc.lft.to/lastmile_qr_scan", "android": "https://dc.lft.to/lastmile_qr_scan"}}, {"is_disabled": 0, "fusion_lat": 0.0, "lat": 38.901772333333334, "type": "electric_scooter", "lon": -77.02555133333334, "is_reserved": 0, "fusion_lon": 0.0, "bike_id": "90a460a334c49f7cb37956294ba110d3", "name": "90a460a334c49f7cb37956294ba110d3", "rental_uris": {"ios": "https://dc.lft.to/lastmile_qr_scan", "android": "https://dc.lft.to/lastmile_qr_scan"}}, {"is_disabled": 0, "fusion_lat": 0.0, "lat": 38.9001695, "type": "electric_scooter", "lon": -77.00589766666667, "is_reserved": 0, "fusion_lon": 0.0, "bike_id": "7bb38a7e331265391d1e8a5eca22445e", "name": "7bb38a7e331265391d1e8a5eca22445e", "rental_uris": {"ios": "https://dc.lft.to/lastmile_qr_scan", "android": "https://dc.lft.to/lastmile_qr_scan"}}, {"is_disabled": 0, "fusion_lat": 0.0, "lat": 38.953505166666666, "type": "electric_bike", "lon": -76.980852, "is_reserved": 0, "fusion_lon": 0.0, "bike_id": "c753b33135c3ce55d8b49819ba9139c1", "name": "c753b33135c3ce55d8b49819ba9139c1", "rental_uris": {"ios": "https://dc.lft.to/lastmile_qr_scan", "android": "https://dc.lft.to/lastmile_qr_scan"}}, {"is_disabled": 0, "fusion_lat": 0.0, "lat": 38.9097605, "type": "electric_scooter", "lon": -77.04866966666667, "is_reserved": 0, "fusion_lon": 0.0, "bike_id": "c2c8ac8e8d4b3e428964f9ddc01ffaad", "name": "c2c8ac8e8d4b3e428964f9ddc01ffaad", "rental_uris": {"ios": "https://dc.lft.to/lastmile_qr_scan", "android": "https://dc.lft.to/lastmile_qr_scan"}}, {"is_disabled": 0, "fusion_lat": 0.0, "lat": 38.87535183333333, "type": "electric_scooter", "lon": -77.00073783333333, "is_reserved": 0, "fusion_lon": 0.0, "bike_id": "862a884599839b589f85004524a40160", "name": "862a884599839b589f85004524a40160", "rental_uris": {"ios": "https://dc.lft.to/lastmile_qr_scan", "android": "https://dc.lft.to/lastmile_qr_scan"}}, {"is_disabled": 0, "fusion_lat": 0.0, "lat": 38.8987775, "type": "electric_scooter", "lon": -77.032705, "is_reserved": 0, "fusion_lon": 0.0, "bike_id": "6e46e3584870c21c07f2fd34df92c06a", "name": "6e46e3584870c21c07f2fd34df92c06a", "rental_uris": {"ios": "https://dc.lft.to/lastmile_qr_scan", "android": "https://dc.lft.to/lastmile_qr_scan"}}, {"is_disabled": 0, "fusion_lat": 0.0, "lat": 38.941839, "type": "electric_scooter", "lon": -77.02489116666666, "is_reserved": 0, "fusion_lon": 0.0, "bike_id": "8c5717d81e3a692117d9cd24f5c7e0d7", "name": "8c5717d81e3a692117d9cd24f5c7e0d7", "rental_uris": {"ios": "https://dc.lft.to/lastmile_qr_scan", "android": "https://dc.lft.to/lastmile_qr_scan"}}, {"is_disabled": 0, "fusion_lat": 0.0, "lat": 38.883130333333334, "type": "electric_scooter", "lon": -77.00931933333334, "is_reserved": 0, "fusion_lon": 0.0, "bike_id": "6148d7b07080613309a22d818fd28ee8", "name": "6148d7b07080613309a22d818fd28ee8", "rental_uris": {"ios": "https://dc.lft.to/lastmile_qr_scan", "android": "https://dc.lft.to/lastmile_qr_scan"}}, {"is_disabled": 0, "fusion_lat": 0.0, "lat": 38.90369033333333, "type": "electric_scooter", "lon": -77.03853666666667, "is_reserved": 0, "fusion_lon": 0.0, "bike_id": "3db111da8a314e4c1cd504d63886d14e", "name": "3db111da8a314e4c1cd504d63886d14e", "rental_uris": {"ios": "https://dc.lft.to/lastmile_qr_scan", "android": "https://dc.lft.to/lastmile_qr_scan"}}, {"is_disabled": 0, "fusion_lat": 0.0, "lat": 38.9013685, "type": "electric_scooter", "lon": -76.99792916666667, "is_reserved": 0, "fusion_lon": 0.0, "bike_id": "2d3a958bebd5a808e7229d243ce6a4ac", "name": "2d3a958bebd5a808e7229d243ce6a4ac", "rental_uris": {"ios": "https://dc.lft.to/lastmile_qr_scan", "android": "https://dc.lft.to/lastmile_qr_scan"}}, {"is_disabled": 0, "fusion_lat": 0.0, "lat": 38.89251866666667, "type": "electric_scooter", "lon": -76.943351, "is_reserved": 0, "fusion_lon": 0.0, "bike_id": "b83b6cfb86fd422a1d87827700b50a04", "name": "b83b6cfb86fd422a1d87827700b50a04", "rental_uris": {"ios": "https://dc.lft.to/lastmile_qr_scan", "android": "https://dc.lft.to/lastmile_qr_scan"}}, {"is_disabled": 0, "fusion_lat": 0.0, "lat": 38.916173, "type": "electric_scooter", "lon": -77.0270575, "is_reserved": 0, "fusion_lon": 0.0, "bike_id": "d514e0cbbfe1337d92e11a304a181492", "name": "d514e0cbbfe1337d92e11a304a181492", "rental_uris": {"ios": "https://dc.lft.to/lastmile_qr_scan", "android": "https://dc.lft.to/lastmile_qr_scan"}}, {"is_disabled": 0, "fusion_lat": 0.0, "lat": 38.921527166666664, "type": "electric_scooter", "lon": -77.03868266666667, "is_reserved": 0, "fusion_lon": 0.0, "bike_id": "b64ea7ae0285d563d707fb61e14f06a8", "name": "b64ea7ae0285d563d707fb61e14f06a8", "rental_uris": {"ios": "https://dc.lft.to/lastmile_qr_scan", "android": "https://dc.lft.to/lastmile_qr_scan"}}, {"is_disabled": 0, "fusion_lat": 0.0, "lat": 38.912721833333336, "type": "electric_scooter", "lon": -77.0417595, "is_reserved": 0, "fusion_lon": 0.0, "bike_id": "4b5c6c07e2a635567d6f62c5f866e932", "name": "4b5c6c07e2a635567d6f62c5f866e932", "rental_uris": {"ios": "https://dc.lft.to/lastmile_qr_scan", "android": "https://dc.lft.to/lastmile_qr_scan"}}, {"is_disabled": 0, "fusion_lat": 0.0, "lat": 38.90852666666667, "type": "electric_scooter", "lon": -77.02456116666667, "is_reserved": 0, "fusion_lon": 0.0, "bike_id": "d373d4d45c6f603349569116c190e0c7", "name": "d373d4d45c6f603349569116c190e0c7", "rental_uris": {"ios": "https://dc.lft.to/lastmile_qr_scan", "android": "https://dc.lft.to/lastmile_qr_scan"}}, {"is_disabled": 0, "fusion_lat": 0.0, "lat": 38.952182, "type": "electric_bike", "lon": -77.00275716666667, "is_reserved": 0, "fusion_lon": 0.0, "bike_id": "9d314e5cd651bf56f291e9545b32e855", "name": "9d314e5cd651bf56f291e9545b32e855", "rental_uris": {"ios": "https://dc.lft.to/lastmile_qr_scan", "android": "https://dc.lft.to/lastmile_qr_scan"}}, {"is_disabled": 0, "fusion_lat": 0.0, "lat": 38.896137833333334, "type": "electric_scooter", "lon": -76.99417766666667, "is_reserved": 0, "fusion_lon": 0.0, "bike_id": "1024ea1477dfbd2a0db4246e6c54a1ca", "name": "1024ea1477dfbd2a0db4246e6c54a1ca", "rental_uris": {"ios": "https://dc.lft.to/lastmile_qr_scan", "android": "https://dc.lft.to/lastmile_qr_scan"}}, {"is_disabled": 0, "fusion_lat": 0.0, "lat": 38.92494633333333, "type": "electric_scooter", "lon": -77.02150833333333, "is_reserved": 0, "fusion_lon": 0.0, "bike_id": "5f53b01b2200e1c81991210d9e326a93", "name": "5f53b01b2200e1c81991210d9e326a93", "rental_uris": {"ios": "https://dc.lft.to/lastmile_qr_scan", "android": "https://dc.lft.to/lastmile_qr_scan"}}, {"is_disabled": 0, "fusion_lat": 0.0, "lat": 38.87143583333334, "type": "electric_bike", "lon": -76.93664416666667, "is_reserved": 0, "fusion_lon": 0.0, "bike_id": "4afa1634eaa371a933274121d31b4a4c", "name": "4afa1634eaa371a933274121d31b4a4c", "rental_uris": {"ios": "https://dc.lft.to/lastmile_qr_scan", "android": "https://dc.lft.to/lastmile_qr_scan"}}, {"is_disabled": 0, "fusion_lat": 0.0, "lat": 38.91385483333333, "type": "electric_scooter", "lon": -77.03208216666667, "is_reserved": 0, "fusion_lon": 0.0, "bike_id": "66de563333691fcf48e628498b23ee7b", "name": "66de563333691fcf48e628498b23ee7b", "rental_uris": {"ios": "https://dc.lft.to/lastmile_qr_scan", "android": "https://dc.lft.to/lastmile_qr_scan"}}, {"is_disabled": 0, "fusion_lat": 0.0, "lat": 38.904908666666664, "type": "electric_scooter", "lon": -77.06006583333334, "is_reserved": 0, "fusion_lon": 0.0, "bike_id": "2e67d2fbf01d60aa90a1c67e81da579c", "name": "2e67d2fbf01d60aa90a1c67e81da579c", "rental_uris": {"ios": "https://dc.lft.to/lastmile_qr_scan", "android": "https://dc.lft.to/lastmile_qr_scan"}}, {"is_disabled": 0, "fusion_lat": 0.0, "lat": 38.88336183333333, "type": "electric_scooter", "lon": -76.93451933333333, "is_reserved": 0, "fusion_lon": 0.0, "bike_id": "27f6a8bb15fa3f7580bf6f93a60e4916", "name": "27f6a8bb15fa3f7580bf6f93a60e4916", "rental_uris": {"ios": "https://dc.lft.to/lastmile_qr_scan", "android": "https://dc.lft.to/lastmile_qr_scan"}}, {"is_disabled": 0, "fusion_lat": 0.0, "lat": 38.858175333333335, "type": "electric_scooter", "lon": -76.98991383333333, "is_reserved": 0, "fusion_lon": 0.0, "bike_id": "5681da6eab4fffce2477419d0a20cc5b", "name": "5681da6eab4fffce2477419d0a20cc5b", "rental_uris": {"ios": "https://dc.lft.to/lastmile_qr_scan", "android": "https://dc.lft.to/lastmile_qr_scan"}}, {"is_disabled": 0, "fusion_lat": 0.0, "lat": 38.923592166666666, "type": "electric_scooter", "lon": -77.0503335, "is_reserved": 0, "fusion_lon": 0.0, "bike_id": "3b6a6ad3ee0677390919e6d03ffcb601", "name": "3b6a6ad3ee0677390919e6d03ffcb601", "rental_uris": {"ios": "https://dc.lft.to/lastmile_qr_scan", "android": "https://dc.lft.to/lastmile_qr_scan"}}, {"is_disabled": 0, "fusion_lat": 0.0, "lat": 38.940226833333334, "type": "electric_scooter", "lon": -77.0717, "is_reserved": 0, "fusion_lon": 0.0, "bike_id": "5d2dc82850f2a979d41390655ce1e39c", "name": "5d2dc82850f2a979d41390655ce1e39c", "rental_uris": {"ios": "https://dc.lft.to/lastmile_qr_scan", "android": "https://dc.lft.to/lastmile_qr_scan"}}, {"is_disabled": 0, "fusion_lat": 0.0, "lat": 38.88519333333333, "type": "electric_scooter", "lon": -77.03345316666666, "is_reserved": 0, "fusion_lon": 0.0, "bike_id": "6617813a7ce191fea17f70fdd733a528", "name": "6617813a7ce191fea17f70fdd733a528", "rental_uris": {"ios": "https://dc.lft.to/lastmile_qr_scan", "android": "https://dc.lft.to/lastmile_qr_scan"}}, {"is_disabled": 0, "fusion_lat": 0.0, "lat": 38.908360333333334, "type": "electric_scooter", "lon": -77.02690066666666, "is_reserved": 0, "fusion_lon": 0.0, "bike_id": "433c1c07b52fe44b38b5b4c2492aed26", "name": "433c1c07b52fe44b38b5b4c2492aed26", "rental_uris": {"ios": "https://dc.lft.to/lastmile_qr_scan", "android": "https://dc.lft.to/lastmile_qr_scan"}}, {"is_disabled": 0, "fusion_lat": 0.0, "lat": 38.8749715, "type": "electric_scooter", "lon": -76.99798266666667, "is_reserved": 0, "fusion_lon": 0.0, "bike_id": "1c902c697fa89898843b482a59281703", "name": "1c902c697fa89898843b482a59281703", "rental_uris": {"ios": "https://dc.lft.to/lastmile_qr_scan", "android": "https://dc.lft.to/lastmile_qr_scan"}}, {"is_disabled": 0, "fusion_lat": 0.0, "lat": 38.92416033333333, "type": "electric_scooter", "lon": -77.02238433333333, "is_reserved": 0, "fusion_lon": 0.0, "bike_id": "25991b7fb3589037d1672ead226acd1c", "name": "25991b7fb3589037d1672ead226acd1c", "rental_uris": {"ios": "https://dc.lft.to/lastmile_qr_scan", "android": "https://dc.lft.to/lastmile_qr_scan"}}, {"is_disabled": 0, "fusion_lat": 0.0, "lat": 38.89197133333333, "type": "electric_scooter", "lon": -77.02373066666667, "is_reserved": 0, "fusion_lon": 0.0, "bike_id": "dc191aa6fbb897ef17dd8627f1741820", "name": "dc191aa6fbb897ef17dd8627f1741820", "rental_uris": {"ios": "https://dc.lft.to/lastmile_qr_scan", "android": "https://dc.lft.to/lastmile_qr_scan"}}, {"is_disabled": 0, "fusion_lat": 0.0, "lat": 38.89899916666667, "type": "electric_scooter", "lon": -76.93356033333333, "is_reserved": 0, "fusion_lon": 0.0, "bike_id": "cd71d0b978b43ce6eb6ac3a4c07731d3", "name": "cd71d0b978b43ce6eb6ac3a4c07731d3", "rental_uris": {"ios": "https://dc.lft.to/lastmile_qr_scan", "android": "https://dc.lft.to/lastmile_qr_scan"}}, {"is_disabled": 0, "fusion_lat": 0.0, "lat": 38.90396333333333, "type": "electric_scooter", "lon": -77.02075666666667, "is_reserved": 0, "fusion_lon": 0.0, "bike_id": "fe12ac0948f85449b9d94b9857f1fdb3", "name": "fe12ac0948f85449b9d94b9857f1fdb3", "rental_uris": {"ios": "https://dc.lft.to/lastmile_qr_scan", "android": "https://dc.lft.to/lastmile_qr_scan"}}, {"is_disabled": 0, "fusion_lat": 0.0, "lat": 38.887851, "type": "electric_scooter", "lon": -76.95515283333333, "is_reserved": 0, "fusion_lon": 0.0, "bike_id": "048d65e650f29fcb185b4046e36acad5", "name": "048d65e650f29fcb185b4046e36acad5", "rental_uris": {"ios": "https://dc.lft.to/lastmile_qr_scan", "android": "https://dc.lft.to/lastmile_qr_scan"}}, {"is_disabled": 0, "fusion_lat": 0.0, "lat": 38.896018166666664, "type": "electric_scooter", "lon": -77.04231083333333, "is_reserved": 0, "fusion_lon": 0.0, "bike_id": "1fd262eb23e1dd73ca11c94e71fb5285", "name": "1fd262eb23e1dd73ca11c94e71fb5285", "rental_uris": {"ios": "https://dc.lft.to/lastmile_qr_scan", "android": "https://dc.lft.to/lastmile_qr_scan"}}, {"is_disabled": 0, "fusion_lat": 0.0, "lat": 38.898966333333334, "type": "electric_scooter", "lon": -77.0033945, "is_reserved": 0, "fusion_lon": 0.0, "bike_id": "01c1e8bcca2d3f63dd044505eccbc3a5", "name": "01c1e8bcca2d3f63dd044505eccbc3a5", "rental_uris": {"ios": "https://dc.lft.to/lastmile_qr_scan", "android": "https://dc.lft.to/lastmile_qr_scan"}}, {"is_disabled": 0, "fusion_lat": 0.0, "lat": 38.9058005, "type": "electric_scooter", "lon": -77.02205383333333, "is_reserved": 0, "fusion_lon": 0.0, "bike_id": "14b8f3c5be35ff1935818b39c3cf1395", "name": "14b8f3c5be35ff1935818b39c3cf1395", "rental_uris": {"ios": "https://dc.lft.to/lastmile_qr_scan", "android": "https://dc.lft.to/lastmile_qr_scan"}}, {"is_disabled": 0, "fusion_lat": 0.0, "lat": 38.90035866666667, "type": "electric_scooter", "lon": -77.00204333333333, "is_reserved": 0, "fusion_lon": 0.0, "bike_id": "67f0233ace4e7c1f5a820038202e1a24", "name": "67f0233ace4e7c1f5a820038202e1a24", "rental_uris": {"ios": "https://dc.lft.to/lastmile_qr_scan", "android": "https://dc.lft.to/lastmile_qr_scan"}}, {"is_disabled": 0, "fusion_lat": 0.0, "lat": 38.96150766666667, "type": "electric_scooter", "lon": -76.9977415, "is_reserved": 0, "fusion_lon": 0.0, "bike_id": "d03e5732bfddab86554e738cfb154b06", "name": "d03e5732bfddab86554e738cfb154b06", "rental_uris": {"ios": "https://dc.lft.to/lastmile_qr_scan", "android": "https://dc.lft.to/lastmile_qr_scan"}}, {"is_disabled": 0, "fusion_lat": 0.0, "lat": 38.934034, "type": "electric_scooter", "lon": -77.02053366666667, "is_reserved": 0, "fusion_lon": 0.0, "bike_id": "1c40e7b46b75a4c1cbe4d4ad04b5ed87", "name": "1c40e7b46b75a4c1cbe4d4ad04b5ed87", "rental_uris": {"ios": "https://dc.lft.to/lastmile_qr_scan", "android": "https://dc.lft.to/lastmile_qr_scan"}}, {"is_disabled": 0, "fusion_lat": 0.0, "lat": 38.922502333333334, "type": "electric_scooter", "lon": -77.0412915, "is_reserved": 0, "fusion_lon": 0.0, "bike_id": "e0b09d92d1ed7346e841ae0b32906364", "name": "e0b09d92d1ed7346e841ae0b32906364", "rental_uris": {"ios": "https://dc.lft.to/lastmile_qr_scan", "android": "https://dc.lft.to/lastmile_qr_scan"}}, {"is_disabled": 0, "fusion_lat": 0.0, "lat": 38.933148, "type": "electric_scooter", "lon": -77.03275533333333, "is_reserved": 0, "fusion_lon": 0.0, "bike_id": "c903f93082d0d6ea1818ffc2abef0d9b", "name": "c903f93082d0d6ea1818ffc2abef0d9b", "rental_uris": {"ios": "https://dc.lft.to/lastmile_qr_scan", "android": "https://dc.lft.to/lastmile_qr_scan"}}, {"is_disabled": 0, "fusion_lat": 0.0, "lat": 38.853155, "type": "electric_scooter", "lon": -76.98000483333334, "is_reserved": 0, "fusion_lon": 0.0, "bike_id": "f6e1a78710d87d6e219988ba1d4e0705", "name": "f6e1a78710d87d6e219988ba1d4e0705", "rental_uris": {"ios": "https://dc.lft.to/lastmile_qr_scan", "android": "https://dc.lft.to/lastmile_qr_scan"}}, {"is_disabled": 0, "fusion_lat": 0.0, "lat": 38.91906316666667, "type": "electric_scooter", "lon": -77.041078, "is_reserved": 0, "fusion_lon": 0.0, "bike_id": "9e72d9617c1ce49bc7618ab1348d8acb", "name": "9e72d9617c1ce49bc7618ab1348d8acb", "rental_uris": {"ios": "https://dc.lft.to/lastmile_qr_scan", "android": "https://dc.lft.to/lastmile_qr_scan"}}, {"is_disabled": 0, "fusion_lat": 0.0, "lat": 38.940450166666665, "type": "electric_scooter", "lon": -77.029734, "is_reserved": 0, "fusion_lon": 0.0, "bike_id": "9afad84beb6753d54589cfc559f20e81", "name": "9afad84beb6753d54589cfc559f20e81", "rental_uris": {"ios": "https://dc.lft.to/lastmile_qr_scan", "android": "https://dc.lft.to/lastmile_qr_scan"}}, {"is_disabled": 0, "fusion_lat": 0.0, "lat": 38.91483366666667, "type": "electric_scooter", "lon": -77.00942733333333, "is_reserved": 0, "fusion_lon": 0.0, "bike_id": "807683545216718a8b078f4859217dd1", "name": "807683545216718a8b078f4859217dd1", "rental_uris": {"ios": "https://dc.lft.to/lastmile_qr_scan", "android": "https://dc.lft.to/lastmile_qr_scan"}}, {"is_disabled": 0, "fusion_lat": 0.0, "lat": 38.872338, "type": "electric_scooter", "lon": -77.01203733333334, "is_reserved": 0, "fusion_lon": 0.0, "bike_id": "d1b8ec1947911d3c87903c5b9a041339", "name": "d1b8ec1947911d3c87903c5b9a041339", "rental_uris": {"ios": "https://dc.lft.to/lastmile_qr_scan", "android": "https://dc.lft.to/lastmile_qr_scan"}}, {"is_disabled": 0, "fusion_lat": 0.0, "lat": 38.908517833333335, "type": "electric_scooter", "lon": -77.0445495, "is_reserved": 0, "fusion_lon": 0.0, "bike_id": "17fab54016da1a1080f41aaa539f06de", "name": "17fab54016da1a1080f41aaa539f06de", "rental_uris": {"ios": "https://dc.lft.to/lastmile_qr_scan", "android": "https://dc.lft.to/lastmile_qr_scan"}}, {"is_disabled": 0, "fusion_lat": 0.0, "lat": 38.90323466666667, "type": "electric_scooter", "lon": -76.97289183333334, "is_reserved": 0, "fusion_lon": 0.0, "bike_id": "e61d3eec36091cd19500a309ab9ccdfe", "name": "e61d3eec36091cd19500a309ab9ccdfe", "rental_uris": {"ios": "https://dc.lft.to/lastmile_qr_scan", "android": "https://dc.lft.to/lastmile_qr_scan"}}, {"is_disabled": 0, "fusion_lat": 0.0, "lat": 38.93116583333333, "type": "electric_scooter", "lon": -77.02393216666667, "is_reserved": 0, "fusion_lon": 0.0, "bike_id": "9f7cc9e2f72e72f53f9646cf8d8baa7b", "name": "9f7cc9e2f72e72f53f9646cf8d8baa7b", "rental_uris": {"ios": "https://dc.lft.to/lastmile_qr_scan", "android": "https://dc.lft.to/lastmile_qr_scan"}}, {"is_disabled": 0, "fusion_lat": 0.0, "lat": 38.8850325, "type": "electric_scooter", "lon": -77.00561366666666, "is_reserved": 0, "fusion_lon": 0.0, "bike_id": "f91b7376c3a770683b23253204d90423", "name": "f91b7376c3a770683b23253204d90423", "rental_uris": {"ios": "https://dc.lft.to/lastmile_qr_scan", "android": "https://dc.lft.to/lastmile_qr_scan"}}, {"is_disabled": 0, "fusion_lat": 0.0, "lat": 38.866297833333334, "type": "electric_scooter", "lon": -76.98713316666667, "is_reserved": 0, "fusion_lon": 0.0, "bike_id": "eb4813af8b90f5fd528ededd97af975a", "name": "eb4813af8b90f5fd528ededd97af975a", "rental_uris": {"ios": "https://dc.lft.to/lastmile_qr_scan", "android": "https://dc.lft.to/lastmile_qr_scan"}}, {"is_disabled": 0, "fusion_lat": 0.0, "lat": 38.90566066666667, "type": "electric_scooter", "lon": -77.00591933333334, "is_reserved": 0, "fusion_lon": 0.0, "bike_id": "2e62e3fe950fe1fa8faeeb2ac56e5833", "name": "2e62e3fe950fe1fa8faeeb2ac56e5833", "rental_uris": {"ios": "https://dc.lft.to/lastmile_qr_scan", "android": "https://dc.lft.to/lastmile_qr_scan"}}, {"is_disabled": 0, "fusion_lat": 0.0, "lat": 38.92115733333333, "type": "electric_scooter", "lon": -77.03175883333333, "is_reserved": 0, "fusion_lon": 0.0, "bike_id": "19feda84263553f2921e64c52d62d1c5", "name": "19feda84263553f2921e64c52d62d1c5", "rental_uris": {"ios": "https://dc.lft.to/lastmile_qr_scan", "android": "https://dc.lft.to/lastmile_qr_scan"}}, {"is_disabled": 0, "fusion_lat": 0.0, "lat": 38.93100533333333, "type": "electric_scooter", "lon": -77.02666383333333, "is_reserved": 0, "fusion_lon": 0.0, "bike_id": "3f06d218a8236b2eec723507a1018586", "name": "3f06d218a8236b2eec723507a1018586", "rental_uris": {"ios": "https://dc.lft.to/lastmile_qr_scan", "android": "https://dc.lft.to/lastmile_qr_scan"}}, {"is_disabled": 0, "fusion_lat": 0.0, "lat": 38.9707345, "type": "electric_bike", "lon": -76.93613083333334, "is_reserved": 0, "fusion_lon": 0.0, "bike_id": "f812d44e7d957bd3e9468d1bfdb2fbad", "name": "f812d44e7d957bd3e9468d1bfdb2fbad", "rental_uris": {"ios": "https://dc.lft.to/lastmile_qr_scan", "android": "https://dc.lft.to/lastmile_qr_scan"}}, {"is_disabled": 0, "fusion_lat": 0.0, "lat": 38.8977625, "type": "electric_bike", "lon": -76.9043475, "is_reserved": 0, "fusion_lon": 0.0, "bike_id": "66618db9d1d90cff03a214e2ac0d2701", "name": "66618db9d1d90cff03a214e2ac0d2701", "rental_uris": {"ios": "https://dc.lft.to/lastmile_qr_scan", "android": "https://dc.lft.to/lastmile_qr_scan"}}, {"is_disabled": 0, "fusion_lat": 0.0, "lat": 38.896767, "type": "electric_scooter", "lon": -77.00894916666667, "is_reserved": 0, "fusion_lon": 0.0, "bike_id": "72620711300156793f52aeba70350c46", "name": "72620711300156793f52aeba70350c46", "rental_uris": {"ios": "https://dc.lft.to/lastmile_qr_scan", "android": "https://dc.lft.to/lastmile_qr_scan"}}, {"is_disabled": 0, "fusion_lat": 0.0, "lat": 38.867320666666664, "type": "electric_scooter", "lon": -76.98802283333333, "is_reserved": 0, "fusion_lon": 0.0, "bike_id": "07d3c797b1768d54939c33be9471cbd8", "name": "07d3c797b1768d54939c33be9471cbd8", "rental_uris": {"ios": "https://dc.lft.to/lastmile_qr_scan", "android": "https://dc.lft.to/lastmile_qr_scan"}}, {"is_disabled": 0, "fusion_lat": 0.0, "lat": 38.905656666666665, "type": "electric_scooter", "lon": -77.03462716666667, "is_reserved": 0, "fusion_lon": 0.0, "bike_id": "1e14122fb0f2817f96b5083a5ca37fba", "name": "1e14122fb0f2817f96b5083a5ca37fba", "rental_uris": {"ios": "https://dc.lft.to/lastmile_qr_scan", "android": "https://dc.lft.to/lastmile_qr_scan"}}, {"is_disabled": 0, "fusion_lat": 0.0, "lat": 38.90041983333333, "type": "electric_scooter", "lon": -77.01221266666667, "is_reserved": 0, "fusion_lon": 0.0, "bike_id": "ea5a7cb030d5f6018d3c35a20e18ea80", "name": "ea5a7cb030d5f6018d3c35a20e18ea80", "rental_uris": {"ios": "https://dc.lft.to/lastmile_qr_scan", "android": "https://dc.lft.to/lastmile_qr_scan"}}, {"is_disabled": 0, "fusion_lat": 0.0, "lat": 38.91683183333333, "type": "electric_scooter", "lon": -77.02199, "is_reserved": 0, "fusion_lon": 0.0, "bike_id": "9ee2e5cf706e4ede71b5489f0389e3e7", "name": "9ee2e5cf706e4ede71b5489f0389e3e7", "rental_uris": {"ios": "https://dc.lft.to/lastmile_qr_scan", "android": "https://dc.lft.to/lastmile_qr_scan"}},