{"data": {"bikes": [{"rental_uris": {"android": "https://dc.lft.to/lastmile_qr_scan", "ios": "https://dc.lft.to/lastmile_qr_scan"}, "is_reserved": 0, "is_disabled": 0, "name": "f98c6818f52004574b37951b74034c68", "bike_id": "f98c6818f52004574b37951b74034c68", "fusion_lat": 0.0, "lon": -77.02477366666666, "type": "electric_scooter", "fusion_lon": 0.0, "lat": 38.914097166666664}, {"rental_uris": {"android": "https://dc.lft.to/lastmile_qr_scan", "ios": "https://dc.lft.to/lastmile_qr_scan"}, "is_reserved": 0, "is_disabled": 0, "name": "9f5bf2d73d74b952d5277a715b888fc8", "bike_id": "9f5bf2d73d74b952d5277a715b888fc8", "fusion_lat": 0.0, "lon": -77.01223583333334, "type": "electric_scooter", "fusion_lon": 0.0, "lat": 38.91522033333333}, {"rental_uris": {"android": "https://dc.lft.to/lastmile_qr_scan", "ios": "https://dc.lft.to/lastmile_qr_scan"}, "is_reserved": 0, "is_disabled": 0, "name": "be54a9c514bcad4de9c84f75c1ce95ee", "bike_id": "be54a9c514bcad4de9c84f75c1ce95ee", "fusion_lat": 0.0, "lon": -77.03163266666667, "type": "electric_scooter", "fusion_lon": 0.0, "lat": 38.91559783333334}, {"rental_uris": {"android": "https://dc.lft.to/lastmile_qr_scan", "ios": "https://dc.lft.to/lastmile_qr_scan"}, "is_reserved": 0, "is_disabled": 0, "name": "5c19fd297674f5500c4b7a0c037c45ab", "bike_id": "5c19fd297674f5500c4b7a0c037c45ab", "fusion_lat": 0.0, "lon": -76.99861716666666, "type": "electric_scooter", "fusion_lon": 0.0, "lat": 38.9001875}, {"rental_uris": {"android": "https://dc.lft.to/lastmile_qr_scan", "ios": "https://dc.lft.to/lastmile_qr_scan"}, "is_reserved": 0, "is_disabled": 0, "name": "6486d4b754fa5c5cf70ebeb63de61024", "bike_id": "6486d4b754fa5c5cf70ebeb63de61024", "fusion_lat": 0.0, "lon": -77.003474, "type": "electric_scooter", "fusion_lon": 0.0, "lat": 38.89265966666667}, {"rental_uris": {"android": "https://dc.lft.to/lastmile_qr_scan", "ios": "https://dc.lft.to/lastmile_qr_scan"}, "is_reserved": 0, "is_disabled": 0, "name": "e7b2b2fa1bb3608200087e4e130b3c01", "bike_id": "e7b2b2fa1bb3608200087e4e130b3c01", "fusion_lat": 0.0, "lon": -77.03662833333334, "type": "electric_scooter", "fusion_lon": 0.0, "lat": 38.921185666666666}, {"rental_uris": {"android": "https://dc.lft.to/lastmile_qr_scan", "ios": "https://dc.lft.to/lastmile_qr_scan"}, "is_reserved": 0, "is_disabled": 0, "name": "e8ba7a355d9031eb4600f44bf51c88e9", "bike_id": "e8ba7a355d9031eb4600f44bf51c88e9", "fusion_lat": 0.0, "lon": -77.01991616666666, "type": "electric_scooter", "fusion_lon": 0.0, "lat": 38.914946}, {"rental_uris": {"android": "https://dc.lft.to/lastmile_qr_scan", "ios": "https://dc.lft.to/lastmile_qr_scan"}, "is_reserved": 0, "is_disabled": 0, "name": "159bb1d54888e073b5c2e16adf070f46", "bike_id": "159bb1d54888e073b5c2e16adf070f46", "fusion_lat": 0.0, "lon": -77.05044633333333, "type": "electric_scooter", "fusion_lon": 0.0, "lat": 38.903014166666665}, {"rental_uris": {"android": "https://dc.lft.to/lastmile_qr_scan", "ios": "https://dc.lft.to/lastmile_qr_scan"}, "is_reserved": 0, "is_disabled": 0, "name": "a9e128acdcc07a19d845c87deb470c51", "bike_id": "a9e128acdcc07a19d845c87deb470c51", "fusion_lat": 0.0, "lon": -77.007277, "type": "electric_scooter", "fusion_lon": 0.0, "lat": 38.91188316666667}, {"rental_uris": {"android": "https://dc.lft.to/lastmile_qr_scan", "ios": "https://dc.lft.to/lastmile_qr_scan"}, "is_reserved": 0, "is_disabled": 0, "name": "4ba49be2db8103674af446cc3e6ace1b", "bike_id": "4ba49be2db8103674af446cc3e6ace1b", "fusion_lat": 0.0, "lon": -77.03505166666666, "type": "electric_scooter", "fusion_lon": 0.0, "lat": 38.91876416666667}, {"rental_uris": {"android": "https://dc.lft.to/lastmile_qr_scan", "ios": "https://dc.lft.to/lastmile_qr_scan"}, "is_reserved": 0, "is_disabled": 0, "name": "e3fe18392762761c6d43018e1e0654fc", "bike_id": "e3fe18392762761c6d43018e1e0654fc", "fusion_lat": 0.0, "lon": -77.03802483333334, "type": "electric_scooter", "fusion_lon": 0.0, "lat": 38.920705}, {"rental_uris": {"android": "https://dc.lft.to/lastmile_qr_scan", "ios": "https://dc.lft.to/lastmile_qr_scan"}, "is_reserved": 0, "is_disabled": 0, "name": "67ed9f5674fcff04ae265fd65cd4c607", "bike_id": "67ed9f5674fcff04ae265fd65cd4c607", "fusion_lat": 0.0, "lon": -77.018757, "type": "electric_scooter", "fusion_lon": 0.0, "lat": 38.90564216666667}, {"rental_uris": {"android": "https://dc.lft.to/lastmile_qr_scan", "ios": "https://dc.lft.to/lastmile_qr_scan"}, "is_reserved": 0, "is_disabled": 0, "name": "34e13f253ba2e9df6041c680fbe8af51", "bike_id": "34e13f253ba2e9df6041c680fbe8af51", "fusion_lat": 0.0, "lon": -77.0399795, "type": "electric_scooter", "fusion_lon": 0.0, "lat": 38.934299333333335}, {"rental_uris": {"android": "https://dc.lft.to/lastmile_qr_scan", "ios": "https://dc.lft.to/lastmile_qr_scan"}, "is_reserved": 0, "is_disabled": 0, "name": "32a70f01a40e132fc3262580ac61f618", "bike_id": "32a70f01a40e132fc3262580ac61f618", "fusion_lat": 0.0, "lon": -76.9362885, "type": "electric_scooter", "fusion_lon": 0.0, "lat": 38.883501}, {"rental_uris": {"android": "https://dc.lft.to/lastmile_qr_scan", "ios": "https://dc.lft.to/lastmile_qr_scan"}, "is_reserved": 0, "is_disabled": 0, "name": "820cf316f075fe73920d1662db603391", "bike_id": "820cf316f075fe73920d1662db603391", "fusion_lat": 0.0, "lon": -77.04176183333334, "type": "electric_scooter", "fusion_lon": 0.0, "lat": 38.920446}, {"rental_uris": {"android": "https://dc.lft.to/lastmile_qr_scan", "ios": "https://dc.lft.to/lastmile_qr_scan"}, "is_reserved": 0, "is_disabled": 0, "name": "82c748c6cf3bd9e19a3ce1a086b2603a", "bike_id": "82c748c6cf3bd9e19a3ce1a086b2603a", "fusion_lat": 0.0, "lon": -77.02085433333333, "type": "electric_scooter", "fusion_lon": 0.0, "lat": 38.922419833333336}, {"rental_uris": {"android": "https://dc.lft.to/lastmile_qr_scan", "ios": "https://dc.lft.to/lastmile_qr_scan"}, "is_reserved": 0, "is_disabled": 0, "name": "ed579a3af883ea4937dbb442271abcf3", "bike_id": "ed579a3af883ea4937dbb442271abcf3", "fusion_lat": 0.0, "lon": -77.00738866666667, "type": "electric_scooter", "fusion_lon": 0.0, "lat": 38.876092}, {"rental_uris": {"android": "https://dc.lft.to/lastmile_qr_scan", "ios": "https://dc.lft.to/lastmile_qr_scan"}, "is_reserved": 0, "is_disabled": 0, "name": "7c5c79632fe2bc18a3d02417f656de7e", "bike_id": "7c5c79632fe2bc18a3d02417f656de7e", "fusion_lat": 0.0, "lon": -77.01446383333334, "type": "electric_scooter", "fusion_lon": 0.0, "lat": 38.874321}, {"rental_uris": {"android": "https://dc.lft.to/lastmile_qr_scan", "ios": "https://dc.lft.to/lastmile_qr_scan"}, "is_reserved": 0, "is_disabled": 0, "name": "0a9857970778895a5fa26fa4af0cef47", "bike_id": "0a9857970778895a5fa26fa4af0cef47", "fusion_lat": 0.0, "lon": -76.99364666666666, "type": "electric_bike", "fusion_lon": 0.0, "lat": 38.99098466666667}, {"rental_uris": {"android": "https://dc.lft.to/lastmile_qr_scan", "ios": "https://dc.lft.to/lastmile_qr_scan"}, "is_reserved": 0, "is_disabled": 0, "name": "a1ebf361c17c92c6a6a2de78b3a16b7c", "bike_id": "a1ebf361c17c92c6a6a2de78b3a16b7c", "fusion_lat": 0.0, "lon": -77.02488716666667, "type": "electric_scooter", "fusion_lon": 0.0, "lat": 38.89727633333333}, {"rental_uris": {"android": "https://dc.lft.to/lastmile_qr_scan", "ios": "https://dc.lft.to/lastmile_qr_scan"}, "is_reserved": 0, "is_disabled": 0, "name": "0a813d3f24548ee0e29eb0ffbcdeffc2", "bike_id": "0a813d3f24548ee0e29eb0ffbcdeffc2", "fusion_lat": 0.0, "lon": -77.0431775, "type": "electric_scooter", "fusion_lon": 0.0, "lat": 38.89221933333334}, {"rental_uris": {"android": "https://dc.lft.to/lastmile_qr_scan", "ios": "https://dc.lft.to/lastmile_qr_scan"}, "is_reserved": 0, "is_disabled": 0, "name": "50911d6db0a9e1f0cee70cfe912eca5e", "bike_id": "50911d6db0a9e1f0cee70cfe912eca5e", "fusion_lat": 0.0, "lon": -77.06690333333333, "type": "electric_bike", "fusion_lon": 0.0, "lat": 38.831726833333335}, {"rental_uris": {"android": "https://dc.lft.to/lastmile_qr_scan", "ios": "https://dc.lft.to/lastmile_qr_scan"}, "is_reserved": 0, "is_disabled": 0, "name": "ac2ce57277d8c0f72c26c50c1462eeb0", "bike_id": "ac2ce57277d8c0f72c26c50c1462eeb0", "fusion_lat": 0.0, "lon": -77.04069966666667, "type": "electric_scooter", "fusion_lon": 0.0, "lat": 38.90869283333333}, {"rental_uris": {"android": "https://dc.lft.to/lastmile_qr_scan", "ios": "https://dc.lft.to/lastmile_qr_scan"}, "is_reserved": 0, "is_disabled": 0, "name": "de23307f173cab405bb0b0279a53e992", "bike_id": "de23307f173cab405bb0b0279a53e992", "fusion_lat": 0.0, "lon": -77.0317545, "type": "electric_scooter", "fusion_lon": 0.0, "lat": 38.920967166666664}, {"rental_uris": {"android": "https://dc.lft.to/lastmile_qr_scan", "ios": "https://dc.lft.to/lastmile_qr_scan"}, "is_reserved": 0, "is_disabled": 0, "name": "4fcc7f9ea5519fcf3fc09b41aa2381fc", "bike_id": "4fcc7f9ea5519fcf3fc09b41aa2381fc", "fusion_lat": 0.0, "lon": -77.0385355, "type": "electric_scooter", "fusion_lon": 0.0, "lat": 38.9097445}, {"rental_uris": {"android": "https://dc.lft.to/lastmile_qr_scan", "ios": "https://dc.lft.to/lastmile_qr_scan"}, "is_reserved": 0, "is_disabled": 0, "name": "e3d985844751eaec6fb45aa5f2d91427", "bike_id": "e3d985844751eaec6fb45aa5f2d91427", "fusion_lat": 0.0, "lon": -77.03729033333333, "type": "electric_scooter", "fusion_lon": 0.0, "lat": 38.9170385}, {"rental_uris": {"android": "https://dc.lft.to/lastmile_qr_scan", "ios": "https://dc.lft.to/lastmile_qr_scan"}, "is_reserved": 0, "is_disabled": 0, "name": "f4aadf7bb9a86b75cb5f785b937622ff", "bike_id": "f4aadf7bb9a86b75cb5f785b937622ff", "fusion_lat": 0.0, "lon": -77.00577483333333, "type": "electric_scooter", "fusion_lon": 0.0, "lat": 38.87658966666667}, {"rental_uris": {"android": "https://dc.lft.to/lastmile_qr_scan", "ios": "https://dc.lft.to/lastmile_qr_scan"}, "is_reserved": 0, "is_disabled": 0, "name": "ab33b4f840f21b8ce108420752c8e6f5", "bike_id": "ab33b4f840f21b8ce108420752c8e6f5", "fusion_lat": 0.0, "lon": -77.02518283333333, "type": "electric_scooter", "fusion_lon": 0.0, "lat": 38.9209025}, {"rental_uris": {"android": "https://dc.lft.to/lastmile_qr_scan", "ios": "https://dc.lft.to/lastmile_qr_scan"}, "is_reserved": 0, "is_disabled": 0, "name": "2484c43fb052f28a38bb2402a1db5530", "bike_id": "2484c43fb052f28a38bb2402a1db5530", "fusion_lat": 0.0, "lon": -76.99747866666667, "type": "electric_scooter", "fusion_lon": 0.0, "lat": 38.92279333333333}, {"rental_uris": {"android": "https://dc.lft.to/lastmile_qr_scan", "ios": "https://dc.lft.to/lastmile_qr_scan"}, "is_reserved": 0, "is_disabled": 0, "name": "5511117cef8cd01ac3482e18f43122f2", "bike_id": "5511117cef8cd01ac3482e18f43122f2", "fusion_lat": 0.0, "lon": -77.04606033333333, "type": "electric_scooter", "fusion_lon": 0.0, "lat": 38.9165015}, {"rental_uris": {"android": "https://dc.lft.to/lastmile_qr_scan", "ios": "https://dc.lft.to/lastmile_qr_scan"}, "is_reserved": 0, "is_disabled": 0, "name": "c555d6c1cfe1b3f82733b250c54a6101", "bike_id": "c555d6c1cfe1b3f82733b250c54a6101", "fusion_lat": 0.0, "lon": -77.02432116666667, "type": "electric_bike", "fusion_lon": 0.0, "lat": 38.92300266666667}, {"rental_uris": {"android": "https://dc.lft.to/lastmile_qr_scan", "ios": "https://dc.lft.to/lastmile_qr_scan"}, "is_reserved": 0, "is_disabled": 0, "name": "6dc55362db6136d4eb1ad31751be96d7", "bike_id": "6dc55362db6136d4eb1ad31751be96d7", "fusion_lat": 0.0, "lon": -76.93084483333334, "type": "electric_scooter", "fusion_lon": 0.0, "lat": 38.895594833333334}, {"rental_uris": {"android": "https://dc.lft.to/lastmile_qr_scan", "ios": "https://dc.lft.to/lastmile_qr_scan"}, "is_reserved": 0, "is_disabled": 0, "name": "2dc0b26d4c0cf4f02286b9679788ba5d", "bike_id": "2dc0b26d4c0cf4f02286b9679788ba5d", "fusion_lat": 0.0, "lon": -77.00603033333333, "type": "electric_scooter", "fusion_lon": 0.0, "lat": 38.905647333333334}, {"rental_uris": {"android": "https://dc.lft.to/lastmile_qr_scan", "ios": "https://dc.lft.to/lastmile_qr_scan"}, "is_reserved": 0, "is_disabled": 0, "name": "c1094dff09ca76d13551344df18469f7", "bike_id": "c1094dff09ca76d13551344df18469f7", "fusion_lat": 0.0, "lon": -77.03875066666667, "type": "electric_scooter", "fusion_lon": 0.0, "lat": 38.9320465}, {"rental_uris": {"android": "https://dc.lft.to/lastmile_qr_scan", "ios": "https://dc.lft.to/lastmile_qr_scan"}, "is_reserved": 0, "is_disabled": 0, "name": "5ba88ad3b4ed728a0e9c119578f78811", "bike_id": "5ba88ad3b4ed728a0e9c119578f78811", "fusion_lat": 0.0, "lon": -77.01653566666667, "type": "electric_scooter", "fusion_lon": 0.0, "lat": 38.942082}, {"rental_uris": {"android": "https://dc.lft.to/lastmile_qr_scan", "ios": "https://dc.lft.to/lastmile_qr_scan"}, "is_reserved": 0, "is_disabled": 0, "name": "706b03d153cb79e37623d48a57733abe", "bike_id": "706b03d153cb79e37623d48a57733abe", "fusion_lat": 0.0, "lon": -77.02172166666666, "type": "electric_scooter", "fusion_lon": 0.0, "lat": 38.92184783333333}, {"rental_uris": {"android": "https://dc.lft.to/lastmile_qr_scan", "ios": "https://dc.lft.to/lastmile_qr_scan"}, "is_reserved": 0, "is_disabled": 0, "name": "ddcfbee80621a12fdb7d76e5815ccca8", "bike_id": "ddcfbee80621a12fdb7d76e5815ccca8", "fusion_lat": 0.0, "lon": -77.000524, "type": "electric_scooter", "fusion_lon": 0.0, "lat": 38.878799666666666}, {"rental_uris": {"android": "https://dc.lft.to/lastmile_qr_scan", "ios": "https://dc.lft.to/lastmile_qr_scan"}, "is_reserved": 0, "is_disabled": 0, "name": "85036ccb6ed499d59c6c70d1fe905d11", "bike_id": "85036ccb6ed499d59c6c70d1fe905d11", "fusion_lat": 0.0, "lon": -77.00798083333333, "type": "electric_scooter", "fusion_lon": 0.0, "lat": 38.897201}, {"rental_uris": {"android": "https://dc.lft.to/lastmile_qr_scan", "ios": "https://dc.lft.to/lastmile_qr_scan"}, "is_reserved": 0, "is_disabled": 0, "name": "c7f86a54ee7dc9f20a81af5a4de4270f", "bike_id": "c7f86a54ee7dc9f20a81af5a4de4270f", "fusion_lat": 0.0, "lon": -77.0038555, "type": "electric_bike", "fusion_lon": 0.0, "lat": 38.834292833333336}, {"rental_uris": {"android": "https://dc.lft.to/lastmile_qr_scan", "ios": "https://dc.lft.to/lastmile_qr_scan"}, "is_reserved": 0, "is_disabled": 0, "name": "e3cb626b483316948a4f55b534cb54e8", "bike_id": "e3cb626b483316948a4f55b534cb54e8", "fusion_lat": 0.0, "lon": -77.03207516666667, "type": "electric_bike", "fusion_lon": 0.0, "lat": 38.91158933333333}, {"rental_uris": {"android": "https://dc.lft.to/lastmile_qr_scan", "ios": "https://dc.lft.to/lastmile_qr_scan"}, "is_reserved": 0, "is_disabled": 0, "name": "b6230afcfb2b20915447d69071dbbed3", "bike_id": "b6230afcfb2b20915447d69071dbbed3", "fusion_lat": 0.0, "lon": -77.02827666666667, "type": "electric_scooter", "fusion_lon": 0.0, "lat": 38.9317235}, {"rental_uris": {"android": "https://dc.lft.to/lastmile_qr_scan", "ios": "https://dc.lft.to/lastmile_qr_scan"}, "is_reserved": 0, "is_disabled": 0, "name": "367c656433b38e9c4a53181fc4d3c1de", "bike_id": "367c656433b38e9c4a53181fc4d3c1de", "fusion_lat": 0.0, "lon": -77.05149883333333, "type": "electric_scooter", "fusion_lon": 0.0, "lat": 38.92376333333333}, {"rental_uris": {"android": "https://dc.lft.to/lastmile_qr_scan", "ios": "https://dc.lft.to/lastmile_qr_scan"}, "is_reserved": 0, "is_disabled": 0, "name": "74e3cc5406a9674efd6d00d97edbc68a", "bike_id": "74e3cc5406a9674efd6d00d97edbc68a", "fusion_lat": 0.0, "lon": -77.02312916666666, "type": "electric_scooter", "fusion_lon": 0.0, "lat": 38.91286866666667}, {"rental_uris": {"android": "https://dc.lft.to/lastmile_qr_scan", "ios": "https://dc.lft.to/lastmile_qr_scan"}, "is_reserved": 0, "is_disabled": 0, "name": "03e90bb1472782f752f743f944ccbfc3", "bike_id": "03e90bb1472782f752f743f944ccbfc3", "fusion_lat": 0.0, "lon": -77.02006816666666, "type": "electric_bike", "fusion_lon": 0.0, "lat": 39.02620966666667}, {"rental_uris": {"android": "https://dc.lft.to/lastmile_qr_scan", "ios": "https://dc.lft.to/lastmile_qr_scan"}, "is_reserved": 0, "is_disabled": 0, "name": "fcb8e84a36d7bdbd8815c23cb437e750", "bike_id": "fcb8e84a36d7bdbd8815c23cb437e750", "fusion_lat": 0.0, "lon": -77.0296505, "type": "electric_scooter", "fusion_lon": 0.0, "lat": 38.92262983333333}, {"rental_uris": {"android": "https://dc.lft.to/lastmile_qr_scan", "ios": "https://dc.lft.to/lastmile_qr_scan"}, "is_reserved": 0, "is_disabled": 0, "name": "608118f6cdb20db55c069a76e27083f3", "bike_id": "608118f6cdb20db55c069a76e27083f3", "fusion_lat": 0.0, "lon": -77.11289233333333, "type": "electric_bike", "fusion_lon": 0.0, "lat": 38.83103066666666}, {"rental_uris": {"android": "https://dc.lft.to/lastmile_qr_scan", "ios": "https://dc.lft.to/lastmile_qr_scan"}, "is_reserved": 0, "is_disabled": 0, "name": "21d3560b1e040b3a3761e2f621560de0", "bike_id": "21d3560b1e040b3a3761e2f621560de0", "fusion_lat": 0.0, "lon": -77.03405033333334, "type": "electric_scooter", "fusion_lon": 0.0, "lat": 38.914028333333334}, {"rental_uris": {"android": "https://dc.lft.to/lastmile_qr_scan", "ios": "https://dc.lft.to/lastmile_qr_scan"}, "is_reserved": 0, "is_disabled": 0, "name": "4a405bcdea92222da849ac75dbb7da83", "bike_id": "4a405bcdea92222da849ac75dbb7da83", "fusion_lat": 0.0, "lon": -77.01408816666667, "type": "electric_scooter", "fusion_lon": 0.0, "lat": 38.918805166666665}, {"rental_uris": {"android": "https://dc.lft.to/lastmile_qr_scan", "ios": "https://dc.lft.to/lastmile_qr_scan"}, "is_reserved": 0, "is_disabled": 0, "name": "c3a952eec73c13b96dacaed632786e84", "bike_id": "c3a952eec73c13b96dacaed632786e84", "fusion_lat": 0.0, "lon": -77.02691033333333, "type": "electric_scooter", "fusion_lon": 0.0, "lat": 38.930803833333336}, {"rental_uris": {"android": "https://dc.lft.to/lastmile_qr_scan", "ios": "https://dc.lft.to/lastmile_qr_scan"}, "is_reserved": 0, "is_disabled": 0, "name": "bce44a516a96a3c9047d6ac696dfa694", "bike_id": "bce44a516a96a3c9047d6ac696dfa694", "fusion_lat": 0.0, "lon": -77.038593, "type": "electric_scooter", "fusion_lon": 0.0, "lat": 38.917141}, {"rental_uris": {"android": "https://dc.lft.to/lastmile_qr_scan", "ios": "https://dc.lft.to/lastmile_qr_scan"}, "is_reserved": 0, "is_disabled": 0, "name": "48a3358809d60512bf49bd0e17e956cd", "bike_id": "48a3358809d60512bf49bd0e17e956cd", "fusion_lat": 0.0, "lon": -77.0515115, "type": "electric_scooter", "fusion_lon": 0.0, "lat": 38.92377783333333}, {"rental_uris": {"android": "https://dc.lft.to/lastmile_qr_scan", "ios": "https://dc.lft.to/lastmile_qr_scan"}, "is_reserved": 0, "is_disabled": 0, "name": "16f7ebc9aa51769c0fab701f22b66fd2", "bike_id": "16f7ebc9aa51769c0fab701f22b66fd2", "fusion_lat": 0.0, "lon": -77.023063, "type": "electric_scooter", "fusion_lon": 0.0, "lat": 38.89474216666667}, {"rental_uris": {"android": "https://dc.lft.to/lastmile_qr_scan", "ios": "https://dc.lft.to/lastmile_qr_scan"}, "is_reserved": 0, "is_disabled": 0, "name": "86badd95ad6489e9b312380bd8f08665", "bike_id": "86badd95ad6489e9b312380bd8f08665", "fusion_lat": 0.0, "lon": -77.041545, "type": "electric_scooter", "fusion_lon": 0.0, "lat": 38.923359}, {"rental_uris": {"android": "https://dc.lft.to/lastmile_qr_scan", "ios": "https://dc.lft.to/lastmile_qr_scan"}, "is_reserved": 0, "is_disabled": 0, "name": "192f67cf4886bce756c7899ea6c5724f", "bike_id": "192f67cf4886bce756c7899ea6c5724f", "fusion_lat": 0.0, "lon": -77.002877, "type": "electric_scooter", "fusion_lon": 0.0, "lat": 38.8919865}, {"rental_uris": {"android": "https://dc.lft.to/lastmile_qr_scan", "ios": "https://dc.lft.to/lastmile_qr_scan"}, "is_reserved": 0, "is_disabled": 0, "name": "f6630eb808b1259cd41a739cc1dba5d2", "bike_id": "f6630eb808b1259cd41a739cc1dba5d2", "fusion_lat": 0.0, "lon": -77.0296295, "type": "electric_scooter", "fusion_lon": 0.0, "lat": 38.92725166666666}, {"rental_uris": {"android": "https://dc.lft.to/lastmile_qr_scan", "ios": "https://dc.lft.to/lastmile_qr_scan"}, "is_reserved": 0, "is_disabled": 0, "name": "f2e2071b6cc98abaa3d51acc00047569", "bike_id": "f2e2071b6cc98abaa3d51acc00047569", "fusion_lat": 0.0, "lon": -77.03937166666667, "type": "electric_scooter", "fusion_lon": 0.0, "lat": 38.915650666666664}, {"rental_uris": {"android": "https://dc.lft.to/lastmile_qr_scan", "ios": "https://dc.lft.to/lastmile_qr_scan"}, "is_reserved": 0, "is_disabled": 0, "name": "6b9c4b856ae2bb6e832fe97f675ddeb4", "bike_id": "6b9c4b856ae2bb6e832fe97f675ddeb4", "fusion_lat": 0.0, "lon": -77.0095365, "type": "electric_bike", "fusion_lon": 0.0, "lat": 38.921356333333335}, {"rental_uris": {"android": "https://dc.lft.to/lastmile_qr_scan", "ios": "https://dc.lft.to/lastmile_qr_scan"}, "is_reserved": 0, "is_disabled": 0, "name": "f3edcbe9d767c3a309f5a510508e7064", "bike_id": "f3edcbe9d767c3a309f5a510508e7064", "fusion_lat": 0.0, "lon": -76.93804366666667, "type": "electric_bike", "fusion_lon": 0.0, "lat": 38.97972983333333}, {"rental_uris": {"android": "https://dc.lft.to/lastmile_qr_scan", "ios": "https://dc.lft.to/lastmile_qr_scan"}, "is_reserved": 0, "is_disabled": 0, "name": "5cd20a176cccc02b43afc4faf29d6253", "bike_id": "5cd20a176cccc02b43afc4faf29d6253", "fusion_lat": 0.0, "lon": -77.03299016666666, "type": "electric_scooter", "fusion_lon": 0.0, "lat": 38.92747633333333}, {"rental_uris": {"android": "https://dc.lft.to/lastmile_qr_scan", "ios": "https://dc.lft.to/lastmile_qr_scan"}, "is_reserved": 0, "is_disabled": 0, "name": "ec667db3f1df3a76795c1e08b565e7b2", "bike_id": "ec667db3f1df3a76795c1e08b565e7b2", "fusion_lat": 0.0, "lon": -77.02651116666667, "type": "electric_bike", "fusion_lon": 0.0, "lat": 38.98817233333333}, {"rental_uris": {"android": "https://dc.lft.to/lastmile_qr_scan", "ios": "https://dc.lft.to/lastmile_qr_scan"}, "is_reserved": 0, "is_disabled": 0, "name": "752d1cab326141ea1ef3a476384f03ae", "bike_id": "752d1cab326141ea1ef3a476384f03ae", "fusion_lat": 0.0, "lon": -77.04371466666667, "type": "electric_scooter", "fusion_lon": 0.0, "lat": 38.920464}, {"rental_uris": {"android": "https://dc.lft.to/lastmile_qr_scan", "ios": "https://dc.lft.to/lastmile_qr_scan"}, "is_reserved": 0, "is_disabled": 0, "name": "5e3e85b97ddbd57cb0be439510cff192", "bike_id": "5e3e85b97ddbd57cb0be439510cff192", "fusion_lat": 0.0, "lon": -77.006144, "type": "electric_scooter", "fusion_lon": 0.0, "lat": 38.87546866666667}, {"rental_uris": {"android": "https://dc.lft.to/lastmile_qr_scan", "ios": "https://dc.lft.to/lastmile_qr_scan"}, "is_reserved": 0, "is_disabled": 0, "name": "cf8984807c4749dc57c9243c3f69daeb", "bike_id": "cf8984807c4749dc57c9243c3f69daeb", "fusion_lat": 0.0, "lon": -77.03181616666667, "type": "electric_scooter", "fusion_lon": 0.0, "lat": 38.915816}, {"rental_uris": {"android": "https://dc.lft.to/lastmile_qr_scan", "ios": "https://dc.lft.to/lastmile_qr_scan"}, "is_reserved": 0, "is_disabled": 0, "name": "e84801ef9e9c2baba478066e6dc92913", "bike_id": "e84801ef9e9c2baba478066e6dc92913", "fusion_lat": 0.0, "lon": -77.023223, "type": "electric_scooter", "fusion_lon": 0.0, "lat": 38.91702}, {"rental_uris": {"android": "https://dc.lft.to/lastmile_qr_scan", "ios": "https://dc.lft.to/lastmile_qr_scan"}, "is_reserved": 0, "is_disabled": 0, "name": "66efd48f82f2735b15b7c8bda0f2dbb2", "bike_id": "66efd48f82f2735b15b7c8bda0f2dbb2", "fusion_lat": 0.0, "lon": -77.03294833333334, "type": "electric_scooter", "fusion_lon": 0.0, "lat": 38.89989666666666}, {"rental_uris": {"android": "https://dc.lft.to/lastmile_qr_scan", "ios": "https://dc.lft.to/lastmile_qr_scan"}, "is_reserved": 0, "is_disabled": 0, "name": "81c5e4878b29bf07f63589e9ce223f17", "bike_id": "81c5e4878b29bf07f63589e9ce223f17", "fusion_lat": 0.0, "lon": -77.02139283333334, "type": "electric_scooter", "fusion_lon": 0.0, "lat": 38.90489566666667}, {"rental_uris": {"android": "https://dc.lft.to/lastmile_qr_scan", "ios": "https://dc.lft.to/lastmile_qr_scan"}, "is_reserved": 0, "is_disabled": 0, "name": "7d73bbf2fa71fe2f032f783de00f107a", "bike_id": "7d73bbf2fa71fe2f032f783de00f107a", "fusion_lat": 0.0, "lon": -77.0434435, "type": "electric_scooter", "fusion_lon": 0.0, "lat": 38.91309533333333}, {"rental_uris": {"android": "https://dc.lft.to/lastmile_qr_scan", "ios": "https://dc.lft.to/lastmile_qr_scan"}, "is_reserved": 0, "is_disabled": 0, "name": "c303b7b639c79072a8547287ab5e6698", "bike_id": "c303b7b639c79072a8547287ab5e6698", "fusion_lat": 0.0, "lon": -77.0266295, "type": "electric_scooter", "fusion_lon": 0.0, "lat": 38.921742333333334}, {"rental_uris": {"android": "https://dc.lft.to/lastmile_qr_scan", "ios": "https://dc.lft.to/lastmile_qr_scan"}, "is_reserved": 0, "is_disabled": 0, "name": "c7652a790c05dfceb656e6ca3af49ad7", "bike_id": "c7652a790c05dfceb656e6ca3af49ad7", "fusion_lat": 0.0, "lon": -77.02079483333333, "type": "electric_scooter", "fusion_lon": 0.0, "lat": 38.927158666666664}, {"rental_uris": {"android": "https://dc.lft.to/lastmile_qr_scan", "ios": "https://dc.lft.to/lastmile_qr_scan"}, "is_reserved": 0, "is_disabled": 0, "name": "af38d9b9299ff4f2ea811874b680ae03", "bike_id": "af38d9b9299ff4f2ea811874b680ae03", "fusion_lat": 0.0, "lon": -77.02694133333334, "type": "electric_scooter", "fusion_lon": 0.0, "lat": 38.94978866666666}, {"rental_uris": {"android": "https://dc.lft.to/lastmile_qr_scan", "ios": "https://dc.lft.to/lastmile_qr_scan"}, "is_reserved": 0, "is_disabled": 0, "name": "16bf7fb94d8466982e17d1f8ec6382a7", "bike_id": "16bf7fb94d8466982e17d1f8ec6382a7", "fusion_lat": 0.0, "lon": -76.98497716666667, "type": "electric_scooter", "fusion_lon": 0.0, "lat": 38.8606185}, {"rental_uris": {"android": "https://dc.lft.to/lastmile_qr_scan", "ios": "https://dc.lft.to/lastmile_qr_scan"}, "is_reserved": 0, "is_disabled": 0, "name": "25654d9c0d8e35958543c02c47e57f21", "bike_id": "25654d9c0d8e35958543c02c47e57f21", "fusion_lat": 0.0, "lon": -77.0326555, "type": "electric_scooter", "fusion_lon": 0.0, "lat": 38.93418966666667}, {"rental_uris": {"android": "https://dc.lft.to/lastmile_qr_scan", "ios": "https://dc.lft.to/lastmile_qr_scan"}, "is_reserved": 0, "is_disabled": 0, "name": "864a22f96d3a6dadfaeaaae2d996c9dc", "bike_id": "864a22f96d3a6dadfaeaaae2d996c9dc", "fusion_lat": 0.0, "lon": -77.033542, "type": "electric_scooter", "fusion_lon": 0.0, "lat": 38.90274133333333}, {"rental_uris": {"android": "https://dc.lft.to/lastmile_qr_scan", "ios": "https://dc.lft.to/lastmile_qr_scan"}, "is_reserved": 0, "is_disabled": 0, "name": "de684c0e132dc27926937723270459fc", "bike_id": "de684c0e132dc27926937723270459fc", "fusion_lat": 0.0, "lon": -77.03178733333333, "type": "electric_scooter", "fusion_lon": 0.0, "lat": 38.91930716666667}, {"rental_uris": {"android": "https://dc.lft.to/lastmile_qr_scan", "ios": "https://dc.lft.to/lastmile_qr_scan"}, "is_reserved": 0, "is_disabled": 0, "name": "118e1c909f9177652a7a7736083aac03", "bike_id": "118e1c909f9177652a7a7736083aac03", "fusion_lat": 0.0, "lon": -77.02602216666666, "type": "electric_scooter", "fusion_lon": 0.0, "lat": 38.920375666666665}, {"rental_uris": {"android": "https://dc.lft.to/lastmile_qr_scan", "ios": "https://dc.lft.to/lastmile_qr_scan"}, "is_reserved": 0, "is_disabled": 0, "name": "f6290f46fcc5821542f072a6ed093271", "bike_id": "f6290f46fcc5821542f072a6ed093271", "fusion_lat": 0.0, "lon": -77.0285485, "type": "electric_scooter", "fusion_lon": 0.0, "lat": 38.9353175}, {"rental_uris": {"android": "https://dc.lft.to/lastmile_qr_scan", "ios": "https://dc.lft.to/lastmile_qr_scan"}, "is_reserved": 0, "is_disabled": 0, "name": "4703d8d1c6cd76912712245c40b3f23d", "bike_id": "4703d8d1c6cd76912712245c40b3f23d", "fusion_lat": 0.0, "lon": -77.051078, "type": "electric_scooter", "fusion_lon": 0.0, "lat": 38.9064805}, {"rental_uris": {"android": "https://dc.lft.to/lastmile_qr_scan", "ios": "https://dc.lft.to/lastmile_qr_scan"}, "is_reserved": 0, "is_disabled": 0, "name": "0b735834947487cf5dac14458dd886d1", "bike_id": "0b735834947487cf5dac14458dd886d1", "fusion_lat": 0.0, "lon": -77.02653533333333, "type": "electric_scooter", "fusion_lon": 0.0, "lat": 38.92387983333333}, {"rental_uris": {"android": "https://dc.lft.to/lastmile_qr_scan", "ios": "https://dc.lft.to/lastmile_qr_scan"}, "is_reserved": 0, "is_disabled": 0, "name": "61e1d526cb68555900a89cb397adf19a", "bike_id": "61e1d526cb68555900a89cb397adf19a", "fusion_lat": 0.0, "lon": -77.06528833333333, "type": "electric_bike", "fusion_lon": 0.0, "lat": 38.9922585}, {"rental_uris": {"android": "https://dc.lft.to/lastmile_qr_scan", "ios": "https://dc.lft.to/lastmile_qr_scan"}, "is_reserved": 0, "is_disabled": 0, "name": "1083b2e0a9df3824f5012eca01782060", "bike_id": "1083b2e0a9df3824f5012eca01782060", "fusion_lat": 0.0, "lon": -77.01218183333333, "type": "electric_scooter", "fusion_lon": 0.0, "lat": 38.9140895}, {"rental_uris": {"android": "https://dc.lft.to/lastmile_qr_scan", "ios": "https://dc.lft.to/lastmile_qr_scan"}, "is_reserved": 0, "is_disabled": 0, "name": "bd02642df05e454a40c1bff0627654ef", "bike_id": "bd02642df05e454a40c1bff0627654ef", "fusion_lat": 0.0, "lon": -77.02400633333333, "type": "electric_scooter", "fusion_lon": 0.0, "lat": 38.90190783333333}, {"rental_uris": {"android": "https://dc.lft.to/lastmile_qr_scan", "ios": "https://dc.lft.to/lastmile_qr_scan"}, "is_reserved": 0, "is_disabled": 0, "name": "2441d1e606356fe0c0172d3dd4ead6ff", "bike_id": "2441d1e606356fe0c0172d3dd4ead6ff", "fusion_lat": 0.0, "lon": -76.9008245, "type": "electric_bike", "fusion_lon": 0.0, "lat": 38.88757433333333}, {"rental_uris": {"android": "https://dc.lft.to/lastmile_qr_scan", "ios": "https://dc.lft.to/lastmile_qr_scan"}, "is_reserved": 0, "is_disabled": 0, "name": "efc65c7df5ce7e4a86ef20cfb11fb060", "bike_id": "efc65c7df5ce7e4a86ef20cfb11fb060", "fusion_lat": 0.0, "lon": -77.00834683333333, "type": "electric_scooter", "fusion_lon": 0.0, "lat": 38.876496}, {"rental_uris": {"android": "https://dc.lft.to/lastmile_qr_scan", "ios": "https://dc.lft.to/lastmile_qr_scan"}, "is_reserved": 0, "is_disabled": 0, "name": "1b442ae5b44de4f53221d15861a675c0", "bike_id": "1b442ae5b44de4f53221d15861a675c0", "fusion_lat": 0.0, "lon": -77.0271515, "type": "electric_scooter", "fusion_lon": 0.0, "lat": 38.906839}, {"rental_uris": {"android": "https://dc.lft.to/lastmile_qr_scan", "ios": "https://dc.lft.to/lastmile_qr_scan"}, "is_reserved": 0, "is_disabled": 0, "name": "5e58b555c59ef8f79447e29c62c3b697", "bike_id": "5e58b555c59ef8f79447e29c62c3b697", "fusion_lat": 0.0, "lon": -77.0466025, "type": "electric_scooter", "fusion_lon": 0.0, "lat": 38.90949916666667}, {"rental_uris": {"android": "https://dc.lft.to/lastmile_qr_scan", "ios": "https://dc.lft.to/lastmile_qr_scan"}, "is_reserved": 0, "is_disabled": 0, "name": "02b20a7871d87c73b82c0b5186531d76", "bike_id": "02b20a7871d87c73b82c0b5186531d76", "fusion_lat": 0.0, "lon": -76.98568483333334, "type": "electric_scooter", "fusion_lon": 0.0, "lat": 38.89621433333333}, {"rental_uris": {"android": "https://dc.lft.to/lastmile_qr_scan", "ios": "https://dc.lft.to/lastmile_qr_scan"}, "is_reserved": 0, "is_disabled": 0, "name": "1ea2c677a96fb97cc6cc308bcfd63d3e", "bike_id": "1ea2c677a96fb97cc6cc308bcfd63d3e", "fusion_lat": 0.0, "lon": -77.01320633333333, "type": "electric_scooter", "fusion_lon": 0.0, "lat": 38.89234916666667}, {"rental_uris": {"android": "https://dc.lft.to/lastmile_qr_scan", "ios": "https://dc.lft.to/lastmile_qr_scan"}, "is_reserved": 0, "is_disabled": 0, "name": "4bad5f9ccc78e90c72291094c3f5d085", "bike_id": "4bad5f9ccc78e90c72291094c3f5d085", "fusion_lat": 0.0, "lon": -77.04462216666667, "type": "electric_scooter", "fusion_lon": 0.0, "lat": 38.90281266666667}, {"rental_uris": {"android": "https://dc.lft.to/lastmile_qr_scan", "ios": "https://dc.lft.to/lastmile_qr_scan"}, "is_reserved": 0, "is_disabled": 0, "name": "ccaa788a46d98aa14865d95efef4b418", "bike_id": "ccaa788a46d98aa14865d95efef4b418", "fusion_lat": 0.0, "lon": -77.01223616666667, "type": "electric_scooter", "fusion_lon": 0.0, "lat": 38.91519233333333}, {"rental_uris": {"android": "https://dc.lft.to/lastmile_qr_scan", "ios": "https://dc.lft.to/lastmile_qr_scan"}, "is_reserved": 0, "is_disabled": 0, "name": "bd41a8c31bb10301b3e096de539e001a", "bike_id": "bd41a8c31bb10301b3e096de539e001a", "fusion_lat": 0.0, "lon": -77.02908183333334, "type": "electric_scooter", "fusion_lon": 0.0, "lat": 38.95297816666667}, {"rental_uris": {"android": "https://dc.lft.to/lastmile_qr_scan", "ios": "https://dc.lft.to/lastmile_qr_scan"}, "is_reserved": 0, "is_disabled": 0, "name": "04df261ee2b2cbe346ea7ca4e0059303", "bike_id": "04df261ee2b2cbe346ea7ca4e0059303", "fusion_lat": 0.0, "lon": -77.0282025, "type": "electric_scooter", "fusion_lon": 0.0, "lat": 38.887408}, {"rental_uris": {"android": "https://dc.lft.to/lastmile_qr_scan", "ios": "https://dc.lft.to/lastmile_qr_scan"}, "is_reserved": 0, "is_disabled": 0, "name": "0edeea3b0584ca89413df687c68d006a", "bike_id": "0edeea3b0584ca89413df687c68d006a", "fusion_lat": 0.0, "lon": -77.04336483333333, "type": "electric_scooter", "fusion_lon": 0.0, "lat": 38.923265666666666}, {"rental_uris": {"android": "https://dc.lft.to/lastmile_qr_scan", "ios": "https://dc.lft.to/lastmile_qr_scan"}, "is_reserved": 0, "is_disabled": 0, "name": "1a9e20b0d9b8125ee8f6c7df15324b94", "bike_id": "1a9e20b0d9b8125ee8f6c7df15324b94", "fusion_lat": 0.0, "lon": -77.00212166666667, "type": "electric_scooter", "fusion_lon": 0.0, "lat": 38.90041183333334}, {"rental_uris": {"android": "https://dc.lft.to/lastmile_qr_scan", "ios": "https://dc.lft.to/lastmile_qr_scan"}, "is_reserved": 0, "is_disabled": 0, "name": "4ed9c61c4ff064eb55718826e55b84f2", "bike_id": "4ed9c61c4ff064eb55718826e55b84f2", "fusion_lat": 0.0, "lon": -76.92963516666667, "type": "electric_scooter", "fusion_lon": 0.0, "lat": 38.88446916666667}, {"rental_uris": {"android": "https://dc.lft.to/lastmile_qr_scan", "ios": "https://dc.lft.to/lastmile_qr_scan"}, "is_reserved": 0, "is_disabled": 0, "name": "3c2d40d9eda28130e58b45dc736497f3", "bike_id": "3c2d40d9eda28130e58b45dc736497f3", "fusion_lat": 0.0, "lon": -77.03615783333333, "type": "electric_scooter", "fusion_lon": 0.0, "lat": 38.903541833333335}, {"rental_uris": {"android": "https://dc.lft.to/lastmile_qr_scan", "ios": "https://dc.lft.to/lastmile_qr_scan"}, "is_reserved": 0, "is_disabled": 0, "name": "bff9c219f0e21bc32cccbfab5ac3ed7a", "bike_id": "bff9c219f0e21bc32cccbfab5ac3ed7a", "fusion_lat": 0.0, "lon": -77.0432995, "type": "electric_scooter", "fusion_lon": 0.0, "lat": 38.92619883333333}, {"rental_uris": {"android": "https://dc.lft.to/lastmile_qr_scan", "ios": "https://dc.lft.to/lastmile_qr_scan"}, "is_reserved": 0, "is_disabled": 0, "name": "d2cb6a1ac28d58d2f3b89e04621a2779", "bike_id": "d2cb6a1ac28d58d2f3b89e04621a2779", "fusion_lat": 0.0, "lon": -76.98368966666666, "type": "electric_scooter", "fusion_lon": 0.0, "lat": 38.89262383333333}, {"rental_uris": {"android": "https://dc.lft.to/lastmile_qr_scan", "ios": "https://dc.lft.to/lastmile_qr_scan"}, "is_reserved": 0, "is_disabled": 0, "name": "953f7bb22428bf3531c80528f03dd9a7", "bike_id": "953f7bb22428bf3531c80528f03dd9a7", "fusion_lat": 0.0, "lon": -76.98798616666667, "type": "electric_scooter", "fusion_lon": 0.0, "lat": 38.900312666666665}, {"rental_uris": {"android": "https://dc.lft.to/lastmile_qr_scan", "ios": "https://dc.lft.to/lastmile_qr_scan"}, "is_reserved": 0, "is_disabled": 0, "name": "834e9e1df40c8db82982feee7b281ed6", "bike_id": "834e9e1df40c8db82982feee7b281ed6", "fusion_lat": 0.0, "lon": -77.030856, "type": "electric_scooter", "fusion_lon": 0.0, "lat": 38.89983633333333}, {"rental_uris": {"android": "https://dc.lft.to/lastmile_qr_scan", "ios": "https://dc.lft.to/lastmile_qr_scan"}, "is_reserved": 0, "is_disabled": 0, "name": "e13378903d01d7215326ec75887fdf22", "bike_id": "e13378903d01d7215326ec75887fdf22", "fusion_lat": 0.0, "lon": -77.07483233333333, "type": "electric_scooter", "fusion_lon": 0.0, "lat": 38.962101833333335}, {"rental_uris": {"android": "https://dc.lft.to/lastmile_qr_scan", "ios": "https://dc.lft.to/lastmile_qr_scan"}, "is_reserved": 0, "is_disabled": 0, "name": "34ee41307f40e89f97bf37a34655b401", "bike_id": "34ee41307f40e89f97bf37a34655b401", "fusion_lat": 0.0, "lon": -77.0147035, "type": "electric_bike", "fusion_lon": 0.0, "lat": 38.8768185}, {"rental_uris": {"android": "https://dc.lft.to/lastmile_qr_scan", "ios": "https://dc.lft.to/lastmile_qr_scan"}, "is_reserved": 0, "is_disabled": 0, "name": "3c652ee5839c026b4ad6ff4a7a770026", "bike_id": "3c652ee5839c026b4ad6ff4a7a770026", "fusion_lat": 0.0, "lon": -77.02959566666667, "type": "electric_scooter", "fusion_lon": 0.0, "lat": 38.907316}, {"rental_uris": {"android": "https://dc.lft.to/lastmile_qr_scan", "ios": "https://dc.lft.to/lastmile_qr_scan"}, "is_reserved": 0, "is_disabled": 0, "name": "2f5e3c6cd908a14389e5447265111dee", "bike_id": "2f5e3c6cd908a14389e5447265111dee", "fusion_lat": 0.0, "lon": -77.039554, "type": "electric_scooter", "fusion_lon": 0.0, "lat": 38.908226666666664}, {"rental_uris": {"android": "https://dc.lft.to/lastmile_qr_scan", "ios": "https://dc.lft.to/lastmile_qr_scan"}, "is_reserved": 0, "is_disabled": 0, "name": "010e546fe78853406e9147a2f6c55720", "bike_id": "010e546fe78853406e9147a2f6c55720", "fusion_lat": 0.0, "lon": -77.0749225, "type": "electric_scooter", "fusion_lon": 0.0, "lat": 38.9230605}, {"rental_uris": {"android": "https://dc.lft.to/lastmile_qr_scan", "ios": "https://dc.lft.to/lastmile_qr_scan"}, "is_reserved": 0, "is_disabled": 0, "name": "fff56cad6a9aa59dfb93f9a34658bacc", "bike_id": "fff56cad6a9aa59dfb93f9a34658bacc", "fusion_lat": 0.0, "lon": -77.00336433333334, "type": "electric_scooter", "fusion_lon": 0.0, "lat": 38.894644666666665}, {"rental_uris": {"android": "https://dc.lft.to/lastmile_qr_scan", "ios": "https://dc.lft.to/lastmile_qr_scan"}, "is_reserved": 0, "is_disabled": 0, "name": "99500602aca0e344c1a11ab1352824f4", "bike_id": "99500602aca0e344c1a11ab1352824f4", "fusion_lat": 0.0, "lon": -77.017189, "type": "electric_scooter", "fusion_lon": 0.0, "lat": 38.97509083333333}, {"rental_uris": {"android": "https://dc.lft.to/lastmile_qr_scan", "ios": "https://dc.lft.to/lastmile_qr_scan"}, "is_reserved": 0, "is_disabled": 0, "name": "c1ddf732168165451972b432e1b0b003", "bike_id": "c1ddf732168165451972b432e1b0b003", "fusion_lat": 0.0, "lon": -77.019576, "type": "electric_scooter", "fusion_lon": 0.0, "lat": 38.93196866666667}, {"rental_uris": {"android": "https://dc.lft.to/lastmile_qr_scan", "ios": "https://dc.lft.to/lastmile_qr_scan"}, "is_reserved": 0, "is_disabled": 0, "name": "92f6fb551ab666e4b7fc34fcd55ce263", "bike_id": "92f6fb551ab666e4b7fc34fcd55ce263", "fusion_lat": 0.0, "lon": -77.03275133333334, "type": "electric_bike", "fusion_lon": 0.0, "lat": 38.961267166666666}, {"rental_uris": {"android": "https://dc.lft.to/lastmile_qr_scan", "ios": "https://dc.lft.to/lastmile_qr_scan"}, "is_reserved": 0, "is_disabled": 0, "name": "5b650fac6721f969ae5e848c4b54f340", "bike_id": "5b650fac6721f969ae5e848c4b54f340", "fusion_lat": 0.0, "lon": -77.0230585, "type": "electric_scooter", "fusion_lon": 0.0, "lat": 38.908675}, {"rental_uris": {"android": "https://dc.lft.to/lastmile_qr_scan", "ios": "https://dc.lft.to/lastmile_qr_scan"}, "is_reserved": 0, "is_disabled": 0, "name": "fa6d6e26cf556dea8432904871de9d0e", "bike_id": "fa6d6e26cf556dea8432904871de9d0e", "fusion_lat": 0.0, "lon": -77.0290455, "type": "electric_scooter", "fusion_lon": 0.0, "lat": 38.916427666666664}, {"rental_uris": {"android": "https://dc.lft.to/lastmile_qr_scan", "ios": "https://dc.lft.to/lastmile_qr_scan"}, "is_reserved": 0, "is_disabled": 0, "name": "654ef36ebfc2600493a3d0b29a6c2367", "bike_id": "654ef36ebfc2600493a3d0b29a6c2367", "fusion_lat": 0.0, "lon": -77.03838216666666, "type": "electric_scooter", "fusion_lon": 0.0, "lat": 38.9216805}, {"rental_uris": {"android": "https://dc.lft.to/lastmile_qr_scan", "ios": "https://dc.lft.to/lastmile_qr_scan"}, "is_reserved": 0, "is_disabled": 0, "name": "e003f7335ff6ba1704a5f1dd7ddb2373", "bike_id": "e003f7335ff6ba1704a5f1dd7ddb2373", "fusion_lat": 0.0, "lon": -77.03908616666666, "type": "electric_scooter", "fusion_lon": 0.0, "lat": 38.92217616666667}, {"rental_uris": {"android": "https://dc.lft.to/lastmile_qr_scan", "ios": "https://dc.lft.to/lastmile_qr_scan"}, "is_reserved": 0, "is_disabled": 0, "name": "a947878927137c6b9e41e7e68ec23488", "bike_id": "a947878927137c6b9e41e7e68ec23488", "fusion_lat": 0.0, "lon": -77.03268466666667, "type": "electric_scooter", "fusion_lon": 0.0, "lat": 38.898799333333336}, {"rental_uris": {"android": "https://dc.lft.to/lastmile_qr_scan", "ios": "https://dc.lft.to/lastmile_qr_scan"}, "is_reserved": 0, "is_disabled": 0, "name": "3ab75d3e8cc067d158f5cbaf2b8f5ed7", "bike_id": "3ab75d3e8cc067d158f5cbaf2b8f5ed7", "fusion_lat": 0.0, "lon": -76.96536, "type": "electric_scooter", "fusion_lon": 0.0, "lat": 38.918590333333334}, {"rental_uris": {"android": "https://dc.lft.to/lastmile_qr_scan", "ios": "https://dc.lft.to/lastmile_qr_scan"}, "is_reserved": 0, "is_disabled": 0, "name": "08dcb2504872479ad6c9d9e1a201bec4", "bike_id": "08dcb2504872479ad6c9d9e1a201bec4", "fusion_lat": 0.0, "lon": -77.01880883333334, "type": "electric_scooter", "fusion_lon": 0.0, "lat": 38.9055105}, {"rental_uris": {"android": "https://dc.lft.to/lastmile_qr_scan", "ios": "https://dc.lft.to/lastmile_qr_scan"}, "is_reserved": 0, "is_disabled": 0, "name": "0f7690d704fa88d052d6b3f0fc9777bd", "bike_id": "0f7690d704fa88d052d6b3f0fc9777bd", "fusion_lat": 0.0, "lon": -77.032052, "type": "electric_scooter", "fusion_lon": 0.0, "lat": 38.90352933333333}, {"rental_uris": {"android": "https://dc.lft.to/lastmile_qr_scan", "ios": "https://dc.lft.to/lastmile_qr_scan"}, "is_reserved": 0, "is_disabled": 0, "name": "5b46a1711890626d5a69f5751e1434a3", "bike_id": "5b46a1711890626d5a69f5751e1434a3", "fusion_lat": 0.0, "lon": -77.039635, "type": "electric_scooter", "fusion_lon": 0.0, "lat": 38.93149616666667}, {"rental_uris": {"android": "https://dc.lft.to/lastmile_qr_scan", "ios": "https://dc.lft.to/lastmile_qr_scan"}, "is_reserved": 0, "is_disabled": 0, "name": "ed17863c1988850829555cdc305a745d", "bike_id": "ed17863c1988850829555cdc305a745d", "fusion_lat": 0.0, "lon": -77.012285, "type": "electric_bike", "fusion_lon": 0.0, "lat": 38.95086666666667}, {"rental_uris": {"android": "https://dc.lft.to/lastmile_qr_scan", "ios": "https://dc.lft.to/lastmile_qr_scan"}, "is_reserved": 0, "is_disabled": 0, "name": "4dd3a4a112e300861180643bc870b6cd", "bike_id": "4dd3a4a112e300861180643bc870b6cd", "fusion_lat": 0.0, "lon": -76.92960916666667, "type": "electric_scooter", "fusion_lon": 0.0, "lat": 38.89630116666667}, {"rental_uris": {"android": "https://dc.lft.to/lastmile_qr_scan", "ios": "https://dc.lft.to/lastmile_qr_scan"}, "is_reserved": 0, "is_disabled": 0, "name": "fa213d93efb621ee9d6868a84484054d", "bike_id": "fa213d93efb621ee9d6868a84484054d", "fusion_lat": 0.0, "lon": -77.04181466666667, "type": "electric_scooter", "fusion_lon": 0.0, "lat": 38.92046066666666}, {"rental_uris": {"android": "https://dc.lft.to/lastmile_qr_scan", "ios": "https://dc.lft.to/lastmile_qr_scan"}, "is_reserved": 0, "is_disabled": 0, "name": "d9a5a11b8eb2810f2f6c01d74019336e", "bike_id": "d9a5a11b8eb2810f2f6c01d74019336e", "fusion_lat": 0.0, "lon": -77.0249455, "type": "electric_scooter", "fusion_lon": 0.0, "lat": 38.920611666666666}, {"rental_uris": {"android": "https://dc.lft.to/lastmile_qr_scan", "ios": "https://dc.lft.to/lastmile_qr_scan"}, "is_reserved": 0, "is_disabled": 0, "name": "6215fca251e9de1bcbda385008c3f025", "bike_id": "6215fca251e9de1bcbda385008c3f025", "fusion_lat": 0.0, "lon": -77.00335516666667, "type": "electric_scooter", "fusion_lon": 0.0, "lat": 38.886390666666664}, {"rental_uris": {"android": "https://dc.lft.to/lastmile_qr_scan", "ios": "https://dc.lft.to/lastmile_qr_scan"}, "is_reserved": 0, "is_disabled": 0, "name": "03c8a0b5081ab0dd81595ef978dfee56", "bike_id": "03c8a0b5081ab0dd81595ef978dfee56", "fusion_lat": 0.0, "lon": -76.99420566666667, "type": "electric_scooter", "fusion_lon": 0.0, "lat": 38.9334525}, {"rental_uris": {"android": "https://dc.lft.to/lastmile_qr_scan", "ios": "https://dc.lft.to/lastmile_qr_scan"}, "is_reserved": 0, "is_disabled": 0, "name": "616ae5dc58554443a445a5897ed4a443", "bike_id": "616ae5dc58554443a445a5897ed4a443", "fusion_lat": 0.0, "lon": -77.07331283333333, "type": "electric_scooter", "fusion_lon": 0.0, "lat": 38.92260133333333}, {"rental_uris": {"android": "https://dc.lft.to/lastmile_qr_scan", "ios": "https://dc.lft.to/lastmile_qr_scan"}, "is_reserved": 0, "is_disabled": 0, "name": "6bb9dea945addfe940d73ed4a1e5f5f8", "bike_id": "6bb9dea945addfe940d73ed4a1e5f5f8", "fusion_lat": 0.0, "lon": -77.03883283333333, "type": "electric_scooter", "fusion_lon": 0.0, "lat": 38.90081516666667}, {"rental_uris": {"android": "https://dc.lft.to/lastmile_qr_scan", "ios": "https://dc.lft.to/lastmile_qr_scan"}, "is_reserved": 0, "is_disabled": 0, "name": "e9c03d724c310aa9f4e657b8836c0a17", "bike_id": "e9c03d724c310aa9f4e657b8836c0a17", "fusion_lat": 0.0, "lon": -77.006214, "type": "electric_scooter", "fusion_lon": 0.0, "lat": 38.87178}, {"rental_uris": {"android": "https://dc.lft.to/lastmile_qr_scan", "ios": "https://dc.lft.to/lastmile_qr_scan"}, "is_reserved": 0, "is_disabled": 0, "name": "d2f65cad00f35403f1ab4b6c760498ea", "bike_id": "d2f65cad00f35403f1ab4b6c760498ea", "fusion_lat": 0.0, "lon": -77.04433183333333, "type": "electric_scooter", "fusion_lon": 0.0, "lat": 38.902539}, {"rental_uris": {"android": "https://dc.lft.to/lastmile_qr_scan", "ios": "https://dc.lft.to/lastmile_qr_scan"}, "is_reserved": 0, "is_disabled": 0, "name": "ec88a8247eba970430cb16147cf65d13", "bike_id": "ec88a8247eba970430cb16147cf65d13", "fusion_lat": 0.0, "lon": -77.04160616666667, "type": "electric_scooter", "fusion_lon": 0.0, "lat": 38.91980933333333}, {"rental_uris": {"android": "https://dc.lft.to/lastmile_qr_scan", "ios": "https://dc.lft.to/lastmile_qr_scan"}, "is_reserved": 0, "is_disabled": 0, "name": "b24faaf8d15e2f10c5ef62ce6630ce6e", "bike_id": "b24faaf8d15e2f10c5ef62ce6630ce6e", "fusion_lat": 0.0, "lon": -77.02799433333334, "type": "electric_scooter", "fusion_lon": 0.0, "lat": 38.90562333333333}, {"rental_uris": {"android": "https://dc.lft.to/lastmile_qr_scan", "ios": "https://dc.lft.to/lastmile_qr_scan"}, "is_reserved": 0, "is_disabled": 0, "name": "9f08b583b87f6249373cc3612ded8d19", "bike_id": "9f08b583b87f6249373cc3612ded8d19", "fusion_lat": 0.0, "lon": -77.12933716666667, "type": "electric_bike", "fusion_lon": 0.0, "lat": 38.86577616666667}, {"rental_uris": {"android": "https://dc.lft.to/lastmile_qr_scan", "ios": "https://dc.lft.to/lastmile_qr_scan"}, "is_reserved": 0, "is_disabled": 0, "name": "aea66b9755904b90991de5398b948b80", "bike_id": "aea66b9755904b90991de5398b948b80", "fusion_lat": 0.0, "lon": -76.9898985, "type": "electric_scooter", "fusion_lon": 0.0, "lat": 38.86437466666667}, {"rental_uris": {"android": "https://dc.lft.to/lastmile_qr_scan", "ios": "https://dc.lft.to/lastmile_qr_scan"}, "is_reserved": 0, "is_disabled": 0, "name": "69ef8f3f6244d9fec4b8a1fd4b7a4cf6", "bike_id": "69ef8f3f6244d9fec4b8a1fd4b7a4cf6", "fusion_lat": 0.0, "lon": -77.05689783333334, "type": "electric_scooter", "fusion_lon": 0.0, "lat": 38.906025666666665}, {"rental_uris": {"android": "https://dc.lft.to/lastmile_qr_scan", "ios": "https://dc.lft.to/lastmile_qr_scan"}, "is_reserved": 0, "is_disabled": 0, "name": "b7f53d145196a16ddf3ba571ccfa1147", "bike_id": "b7f53d145196a16ddf3ba571ccfa1147", "fusion_lat": 0.0, "lon": -76.96524033333333, "type": "electric_scooter", "fusion_lon": 0.0, "lat": 38.876305}, {"rental_uris": {"android": "https://dc.lft.to/lastmile_qr_scan", "ios": "https://dc.lft.to/lastmile_qr_scan"}, "is_reserved": 0, "is_disabled": 0, "name": "dfc9fa39a96d4e92e8d6616ef3bde191", "bike_id": "dfc9fa39a96d4e92e8d6616ef3bde191", "fusion_lat": 0.0, "lon": -77.04855416666666, "type": "electric_scooter", "fusion_lon": 0.0, "lat": 38.899388}, {"rental_uris": {"android": "https://dc.lft.to/lastmile_qr_scan", "ios": "https://dc.lft.to/lastmile_qr_scan"}, "is_reserved": 0, "is_disabled": 0, "name": "ab16fbd24f9377f369b7829385952fbb", "bike_id": "ab16fbd24f9377f369b7829385952fbb", "fusion_lat": 0.0, "lon": -77.03410516666666, "type": "electric_scooter", "fusion_lon": 0.0, "lat": 38.930855666666666}, {"rental_uris": {"android": "https://dc.lft.to/lastmile_qr_scan", "ios": "https://dc.lft.to/lastmile_qr_scan"}, "is_reserved": 0, "is_disabled": 0, "name": "c653c37da7565f7651d07a521f304356", "bike_id": "c653c37da7565f7651d07a521f304356", "fusion_lat": 0.0, "lon": -77.02947033333334, "type": "electric_scooter", "fusion_lon": 0.0, "lat": 38.905002833333334}, {"rental_uris": {"android": "https://dc.lft.to/lastmile_qr_scan", "ios": "https://dc.lft.to/lastmile_qr_scan"}, "is_reserved": 0, "is_disabled": 0, "name": "24fc055addb15cd4c9eb8b17c2ab9bd4", "bike_id": "24fc055addb15cd4c9eb8b17c2ab9bd4", "fusion_lat": 0.0, "lon": -77.0242835, "type": "electric_bike", "fusion_lon": 0.0, "lat": 38.936945}, {"rental_uris": {"android": "https://dc.lft.to/lastmile_qr_scan", "ios": "https://dc.lft.to/lastmile_qr_scan"}, "is_reserved": 0, "is_disabled": 0, "name": "ac8cb901bf7afa9100387152830ce15e", "bike_id": "ac8cb901bf7afa9100387152830ce15e", "fusion_lat": 0.0, "lon": -76.98227383333334, "type": "electric_scooter", "fusion_lon": 0.0, "lat": 38.868976333333336}, {"rental_uris": {"android": "https://dc.lft.to/lastmile_qr_scan", "ios": "https://dc.lft.to/lastmile_qr_scan"}, "is_reserved": 0, "is_disabled": 0, "name": "ccb2dfbc2b803904dbca7f2dff25439e", "bike_id": "ccb2dfbc2b803904dbca7f2dff25439e", "fusion_lat": 0.0, "lon": -76.98988483333333, "type": "electric_scooter", "fusion_lon": 0.0, "lat": 38.86433183333333}, {"rental_uris": {"android": "https://dc.lft.to/lastmile_qr_scan", "ios": "https://dc.lft.to/lastmile_qr_scan"}, "is_reserved": 0, "is_disabled": 0, "name": "cd8e1cd7f8033e4e182645c09a3e3022", "bike_id": "cd8e1cd7f8033e4e182645c09a3e3022", "fusion_lat": 0.0, "lon": -76.99512933333334, "type": "electric_scooter", "fusion_lon": 0.0, "lat": 38.887884}, {"rental_uris": {"android": "https://dc.lft.to/lastmile_qr_scan", "ios": "https://dc.lft.to/lastmile_qr_scan"}, "is_reserved": 0, "is_disabled": 0, "name": "9ed0c98db1037a03484f57a8439a0712", "bike_id": "9ed0c98db1037a03484f57a8439a0712", "fusion_lat": 0.0, "lon": -77.03857133333334, "type": "electric_scooter", "fusion_lon": 0.0, "lat": 38.91712283333333}, {"rental_uris": {"android": "https://dc.lft.to/lastmile_qr_scan", "ios": "https://dc.lft.to/lastmile_qr_scan"}, "is_reserved": 0, "is_disabled": 0, "name": "d359cae661583c8b3f1174b2e20ae2a5", "bike_id": "d359cae661583c8b3f1174b2e20ae2a5", "fusion_lat": 0.0, "lon": -77.0316255, "type": "electric_scooter", "fusion_lon": 0.0, "lat": 38.92974783333333}, {"rental_uris": {"android": "https://dc.lft.to/lastmile_qr_scan", "ios": "https://dc.lft.to/lastmile_qr_scan"}, "is_reserved": 0, "is_disabled": 0, "name": "ac4ec1a34cf17506eff09295723ad1a7", "bike_id": "ac4ec1a34cf17506eff09295723ad1a7", "fusion_lat": 0.0, "lon": -77.03467083333334, "type": "electric_scooter", "fusion_lon": 0.0, "lat": 38.92868683333333}, {"rental_uris": {"android": "https://dc.lft.to/lastmile_qr_scan", "ios": "https://dc.lft.to/lastmile_qr_scan"}, "is_reserved": 0, "is_disabled": 0, "name": "e8c2ee870da95feaaea68bd5c4eaea66", "bike_id": "e8c2ee870da95feaaea68bd5c4eaea66", "fusion_lat": 0.0, "lon": -77.05511066666666, "type": "electric_scooter", "fusion_lon": 0.0, "lat": 38.9284375}, {"rental_uris": {"android": "https://dc.lft.to/lastmile_qr_scan", "ios": "https://dc.lft.to/lastmile_qr_scan"}, "is_reserved": 0, "is_disabled": 0, "name": "57118eb48ed1a533beb0584b662b3b5b", "bike_id": "57118eb48ed1a533beb0584b662b3b5b", "fusion_lat": 0.0, "lon": -77.03250766666666, "type": "electric_scooter", "fusion_lon": 0.0, "lat": 38.91714616666667}, {"rental_uris": {"android": "https://dc.lft.to/lastmile_qr_scan", "ios": "https://dc.lft.to/lastmile_qr_scan"}, "is_reserved": 0, "is_disabled": 0, "name": "3baaa31cb2824c2a626cbeee7853401d", "bike_id": "3baaa31cb2824c2a626cbeee7853401d", "fusion_lat": 0.0, "lon": -76.96709616666666, "type": "electric_scooter", "fusion_lon": 0.0, "lat": 38.859733}, {"rental_uris": {"android": "https://dc.lft.to/lastmile_qr_scan", "ios": "https://dc.lft.to/lastmile_qr_scan"}, "is_reserved": 0, "is_disabled": 0, "name": "0ef519bd4ce31df84726c464f42e3e52", "bike_id": "0ef519bd4ce31df84726c464f42e3e52", "fusion_lat": 0.0, "lon": -77.0304015, "type": "electric_scooter", "fusion_lon": 0.0, "lat": 38.923819}, {"rental_uris": {"android": "https://dc.lft.to/lastmile_qr_scan", "ios": "https://dc.lft.to/lastmile_qr_scan"}, "is_reserved": 0, "is_disabled": 0, "name": "12f5fd6171b97387f6f85ec00bc96f15", "bike_id": "12f5fd6171b97387f6f85ec00bc96f15", "fusion_lat": 0.0, "lon": -77.02168016666667, "type": "electric_scooter", "fusion_lon": 0.0, "lat": 38.942941}, {"rental_uris": {"android": "https://dc.lft.to/lastmile_qr_scan", "ios": "https://dc.lft.to/lastmile_qr_scan"}, "is_reserved": 0, "is_disabled": 0, "name": "8fc8c478cddb559cf3e469823171e11f", "bike_id": "8fc8c478cddb559cf3e469823171e11f", "fusion_lat": 0.0, "lon": -76.995433, "type": "electric_bike", "fusion_lon": 0.0, "lat": 38.95633133333333}, {"rental_uris": {"android": "https://dc.lft.to/lastmile_qr_scan", "ios": "https://dc.lft.to/lastmile_qr_scan"}, "is_reserved": 0, "is_disabled": 0, "name": "c81b366704645cda57d437b640fe72e0", "bike_id": "c81b366704645cda57d437b640fe72e0", "fusion_lat": 0.0, "lon": -77.01864366666666, "type": "electric_scooter", "fusion_lon": 0.0, "lat": 38.9736595}, {"rental_uris": {"android": "https://dc.lft.to/lastmile_qr_scan", "ios": "https://dc.lft.to/lastmile_qr_scan"}, "is_reserved": 0, "is_disabled": 0, "name": "9b29a62b516b5b5f6c6fd9099d89f326", "bike_id": "9b29a62b516b5b5f6c6fd9099d89f326", "fusion_lat": 0.0, "lon": -77.0216515, "type": "electric_scooter", "fusion_lon": 0.0, "lat": 38.887175666666664}, {"rental_uris": {"android": "https://dc.lft.to/lastmile_qr_scan", "ios": "https://dc.lft.to/lastmile_qr_scan"}, "is_reserved": 0, "is_disabled": 0, "name": "d614cfed5af153f95cfb4a5a5ba5a71a", "bike_id": "d614cfed5af153f95cfb4a5a5ba5a71a", "fusion_lat": 0.0, "lon": -77.00370716666667, "type": "electric_scooter", "fusion_lon": 0.0, "lat": 38.8767485}, {"rental_uris": {"android": "https://dc.lft.to/lastmile_qr_scan", "ios": "https://dc.lft.to/lastmile_qr_scan"}, "is_reserved": 0, "is_disabled": 0, "name": "4845cee38183e56dd47f2d466b7d769e", "bike_id": "4845cee38183e56dd47f2d466b7d769e", "fusion_lat": 0.0, "lon": -77.0257155, "type": "electric_scooter", "fusion_lon": 0.0, "lat": 38.912585}, {"rental_uris": {"android": "https://dc.lft.to/lastmile_qr_scan", "ios": "https://dc.lft.to/lastmile_qr_scan"}, "is_reserved": 0, "is_disabled": 0, "name": "96f1f414143178f6de10a3380fac457a", "bike_id": "96f1f414143178f6de10a3380fac457a", "fusion_lat": 0.0, "lon": -77.027672, "type": "electric_scooter", "fusion_lon": 0.0, "lat": 38.934116}, {"rental_uris": {"android": "https://dc.lft.to/lastmile_qr_scan", "ios": "https://dc.lft.to/lastmile_qr_scan"}, "is_reserved": 0, "is_disabled": 0, "name": "f384635222227d0ccb5f71edf96eda51", "bike_id": "f384635222227d0ccb5f71edf96eda51", "fusion_lat": 0.0, "lon": -76.9355205, "type": "electric_scooter", "fusion_lon": 0.0, "lat": 38.882772333333335}, {"rental_uris": {"android": "https://dc.lft.to/lastmile_qr_scan", "ios": "https://dc.lft.to/lastmile_qr_scan"}, "is_reserved": 0, "is_disabled": 0, "name": "c375ce53d49fdcbda837fee7ffa8983f", "bike_id": "c375ce53d49fdcbda837fee7ffa8983f", "fusion_lat": 0.0, "lon": -77.00659433333334, "type": "electric_scooter", "fusion_lon": 0.0, "lat": 38.89997416666667}, {"rental_uris": {"android": "https://dc.lft.to/lastmile_qr_scan", "ios": "https://dc.lft.to/lastmile_qr_scan"}, "is_reserved": 0, "is_disabled": 0, "name": "11492ea710056d1a7f9ba60b526f5194", "bike_id": "11492ea710056d1a7f9ba60b526f5194", "fusion_lat": 0.0, "lon": -76.96548283333334, "type": "electric_scooter", "fusion_lon": 0.0, "lat": 38.9186205}, {"rental_uris": {"android": "https://dc.lft.to/lastmile_qr_scan", "ios": "https://dc.lft.to/lastmile_qr_scan"}, "is_reserved": 0, "is_disabled": 0, "name": "cbb4fd2ffe44c71c1e46191944cc6d93", "bike_id": "cbb4fd2ffe44c71c1e46191944cc6d93", "fusion_lat": 0.0, "lon": -77.02126866666667, "type": "electric_scooter", "fusion_lon": 0.0, "lat": 38.922752}, {"rental_uris": {"android": "https://dc.lft.to/lastmile_qr_scan", "ios": "https://dc.lft.to/lastmile_qr_scan"}, "is_reserved": 0, "is_disabled": 0, "name": "d80bf653fbd3eed632f981df6c1b5d11", "bike_id": "d80bf653fbd3eed632f981df6c1b5d11", "fusion_lat": 0.0, "lon": -77.032967, "type": "electric_scooter", "fusion_lon": 0.0, "lat": 38.95617}, {"rental_uris": {"android": "https://dc.lft.to/lastmile_qr_scan", "ios": "https://dc.lft.to/lastmile_qr_scan"}, "is_reserved": 0, "is_disabled": 0, "name": "c44a86ae8b188dcb8437b5b1a0714e55", "bike_id": "c44a86ae8b188dcb8437b5b1a0714e55", "fusion_lat": 0.0, "lon": -76.9853515, "type": "electric_bike", "fusion_lon": 0.0, "lat": 38.912946166666664}, {"rental_uris": {"android": "https://dc.lft.to/lastmile_qr_scan", "ios": "https://dc.lft.to/lastmile_qr_scan"}, "is_reserved": 0, "is_disabled": 0, "name": "5714bd48da87e2ed5062e4635bc403ea", "bike_id": "5714bd48da87e2ed5062e4635bc403ea", "fusion_lat": 0.0, "lon": -77.02335866666667, "type": "electric_scooter", "fusion_lon": 0.0, "lat": 38.92233383333333}, {"rental_uris": {"android": "https://dc.lft.to/lastmile_qr_scan", "ios": "https://dc.lft.to/lastmile_qr_scan"}, "is_reserved": 0, "is_disabled": 0, "name": "2d128d80222936035b77994b3848b3e3", "bike_id": "2d128d80222936035b77994b3848b3e3", "fusion_lat": 0.0, "lon": -77.038564, "type": "electric_scooter", "fusion_lon": 0.0, "lat": 38.91174066666667}, {"rental_uris": {"android": "https://dc.lft.to/lastmile_qr_scan", "ios": "https://dc.lft.to/lastmile_qr_scan"}, "is_reserved": 0, "is_disabled": 0, "name": "04246b0d0188204732cd6569ab536e19", "bike_id": "04246b0d0188204732cd6569ab536e19", "fusion_lat": 0.0, "lon": -77.04129983333333, "type": "electric_scooter", "fusion_lon": 0.0, "lat": 38.9217415}, {"rental_uris": {"android": "https://dc.lft.to/lastmile_qr_scan", "ios": "https://dc.lft.to/lastmile_qr_scan"}, "is_reserved": 0, "is_disabled": 0, "name": "36a78c2acfc05706f1d0e642d41e49cc", "bike_id": "36a78c2acfc05706f1d0e642d41e49cc", "fusion_lat": 0.0, "lon": -77.00293933333333, "type": "electric_scooter", "fusion_lon": 0.0, "lat": 38.89198}, {"rental_uris": {"android": "https://dc.lft.to/lastmile_qr_scan", "ios": "https://dc.lft.to/lastmile_qr_scan"}, "is_reserved": 0, "is_disabled": 0, "name": "5d06e778f2719e407ad49007d0394e70", "bike_id": "5d06e778f2719e407ad49007d0394e70", "fusion_lat": 0.0, "lon": -77.02304333333333, "type": "electric_scooter", "fusion_lon": 0.0, "lat": 38.900090666666664}, {"rental_uris": {"android": "https://dc.lft.to/lastmile_qr_scan", "ios": "https://dc.lft.to/lastmile_qr_scan"}, "is_reserved": 0, "is_disabled": 0, "name": "316689e65e9904f707c6242c9b794c76", "bike_id": "316689e65e9904f707c6242c9b794c76", "fusion_lat": 0.0, "lon": -76.91721666666666, "type": "electric_bike", "fusion_lon": 0.0, "lat": 38.8803115}, {"rental_uris": {"android": "https://dc.lft.to/lastmile_qr_scan", "ios": "https://dc.lft.to/lastmile_qr_scan"}, "is_reserved": 0, "is_disabled": 0, "name": "b1361dbfd1880c81f8a1ed93f4fac493", "bike_id": "b1361dbfd1880c81f8a1ed93f4fac493", "fusion_lat": 0.0, "lon": -77.04620683333333, "type": "electric_scooter", "fusion_lon": 0.0, "lat": 38.916453}, {"rental_uris": {"android": "https://dc.lft.to/lastmile_qr_scan", "ios": "https://dc.lft.to/lastmile_qr_scan"}, "is_reserved": 0, "is_disabled": 0, "name": "8ac00ea47a5d757e1330a55badcca774", "bike_id": "8ac00ea47a5d757e1330a55badcca774", "fusion_lat": 0.0, "lon": -77.04976083333334, "type": "electric_scooter", "fusion_lon": 0.0, "lat": 38.90120616666667}, {"rental_uris": {"android": "https://dc.lft.to/lastmile_qr_scan", "ios": "https://dc.lft.to/lastmile_qr_scan"}, "is_reserved": 0, "is_disabled": 0, "name": "722438b4d55b0848f964133bde07059e", "bike_id": "722438b4d55b0848f964133bde07059e", "fusion_lat": 0.0, "lon": -77.02893783333333, "type": "electric_bike", "fusion_lon": 0.0, "lat": 38.9951585}, {"rental_uris": {"android": "https://dc.lft.to/lastmile_qr_scan", "ios": "https://dc.lft.to/lastmile_qr_scan"}, "is_reserved": 0, "is_disabled": 0, "name": "cae879fe41515c4965dddccf41ca6834", "bike_id": "cae879fe41515c4965dddccf41ca6834", "fusion_lat": 0.0, "lon": -77.02575883333333, "type": "electric_scooter", "fusion_lon": 0.0, "lat": 38.952905}, {"rental_uris": {"android": "https://dc.lft.to/lastmile_qr_scan", "ios": "https://dc.lft.to/lastmile_qr_scan"}, "is_reserved": 0, "is_disabled": 0, "name": "2b171881f40ff292050f75c55341bb91", "bike_id": "2b171881f40ff292050f75c55341bb91", "fusion_lat": 0.0, "lon": -76.90305966666666, "type": "electric_bike", "fusion_lon": 0.0, "lat": 39.00296816666667}, {"rental_uris": {"android": "https://dc.lft.to/lastmile_qr_scan", "ios": "https://dc.lft.to/lastmile_qr_scan"}, "is_reserved": 0, "is_disabled": 0, "name": "6aa8a03e7a2464a044ba2c4d5375679d", "bike_id": "6aa8a03e7a2464a044ba2c4d5375679d", "fusion_lat": 0.0, "lon": -77.01219583333334, "type": "electric_scooter", "fusion_lon": 0.0, "lat": 38.898005}, {"rental_uris": {"android": "https://dc.lft.to/lastmile_qr_scan", "ios": "https://dc.lft.to/lastmile_qr_scan"}, "is_reserved": 0, "is_disabled": 0, "name": "b43170b5323959b3e7a9235ca7dda154", "bike_id": "b43170b5323959b3e7a9235ca7dda154", "fusion_lat": 0.0, "lon": -77.05146683333334, "type": "electric_scooter", "fusion_lon": 0.0, "lat": 38.92378316666667}, {"rental_uris": {"android": "https://dc.lft.to/lastmile_qr_scan", "ios": "https://dc.lft.to/lastmile_qr_scan"}, "is_reserved": 0, "is_disabled": 0, "name": "bca61842e6abfbd9fea7123e621006f9", "bike_id": "bca61842e6abfbd9fea7123e621006f9", "fusion_lat": 0.0, "lon": -77.040271, "type": "electric_scooter", "fusion_lon": 0.0, "lat": 38.918090666666664}, {"rental_uris": {"android": "https://dc.lft.to/lastmile_qr_scan", "ios": "https://dc.lft.to/lastmile_qr_scan"}, "is_reserved": 0, "is_disabled": 0, "name": "bf2e1a30995fd13378e38d121f09c90c", "bike_id": "bf2e1a30995fd13378e38d121f09c90c", "fusion_lat": 0.0, "lon": -77.01812683333333, "type": "electric_scooter", "fusion_lon": 0.0, "lat": 38.95227783333333}, {"rental_uris": {"android": "https://dc.lft.to/lastmile_qr_scan", "ios": "https://dc.lft.to/lastmile_qr_scan"}, "is_reserved": 0, "is_disabled": 0, "name": "aaa0c128726c6e3048b258e3ee342061", "bike_id": "aaa0c128726c6e3048b258e3ee342061", "fusion_lat": 0.0, "lon": -77.010138, "type": "electric_bike", "fusion_lon": 0.0, "lat": 38.95598416666667}, {"rental_uris": {"android": "https://dc.lft.to/lastmile_qr_scan", "ios": "https://dc.lft.to/lastmile_qr_scan"}, "is_reserved": 0, "is_disabled": 0, "name": "a1e1a1d67b524fc0b12cb93c1e86f985", "bike_id": "a1e1a1d67b524fc0b12cb93c1e86f985", "fusion_lat": 0.0, "lon": -77.02972133333333, "type": "electric_scooter", "fusion_lon": 0.0, "lat": 38.892276833333334}, {"rental_uris": {"android": "https://dc.lft.to/lastmile_qr_scan", "ios": "https://dc.lft.to/lastmile_qr_scan"}, "is_reserved": 0, "is_disabled": 0, "name": "1b724ec8b3cd1980bd181960586cdeb7", "bike_id": "1b724ec8b3cd1980bd181960586cdeb7", "fusion_lat": 0.0, "lon": -77.0264425, "type": "electric_scooter", "fusion_lon": 0.0, "lat": 38.931007}, {"rental_uris": {"android": "https://dc.lft.to/lastmile_qr_scan", "ios": "https://dc.lft.to/lastmile_qr_scan"}, "is_reserved": 0, "is_disabled": 0, "name": "2e8cdcf943d9651bff0638d274bcdbb3", "bike_id": "2e8cdcf943d9651bff0638d274bcdbb3", "fusion_lat": 0.0, "lon": -77.02714416666667, "type": "electric_scooter", "fusion_lon": 0.0, "lat": 38.897698166666665}, {"rental_uris": {"android": "https://dc.lft.to/lastmile_qr_scan", "ios": "https://dc.lft.to/lastmile_qr_scan"}, "is_reserved": 0, "is_disabled": 0, "name": "30e7e674a7fc9e38676871c2324c20a3", "bike_id": "30e7e674a7fc9e38676871c2324c20a3", "fusion_lat": 0.0, "lon": -77.01306366666667, "type": "electric_scooter", "fusion_lon": 0.0, "lat": 38.898467}, {"rental_uris": {"android": "https://dc.lft.to/lastmile_qr_scan", "ios": "https://dc.lft.to/lastmile_qr_scan"}, "is_reserved": 0, "is_disabled": 0, "name": "62756c76643a3244b22a4ccf37ea06a3", "bike_id": "62756c76643a3244b22a4ccf37ea06a3", "fusion_lat": 0.0, "lon": -77.0613555, "type": "electric_scooter", "fusion_lon": 0.0, "lat": 38.94307466666667}, {"rental_uris": {"android": "https://dc.lft.to/lastmile_qr_scan", "ios": "https://dc.lft.to/lastmile_qr_scan"}, "is_reserved": 0, "is_disabled": 0, "name": "39d55ec1ec9e5e08b855e5edc2d8d204", "bike_id": "39d55ec1ec9e5e08b855e5edc2d8d204", "fusion_lat": 0.0, "lon": -77.02969866666666, "type": "electric_scooter", "fusion_lon": 0.0, "lat": 38.9072035}, {"rental_uris": {"android": "https://dc.lft.to/lastmile_qr_scan", "ios": "https://dc.lft.to/lastmile_qr_scan"}, "is_reserved": 0, "is_disabled": 0, "name": "331ae77f57805ae84bee8cd55dfcab46", "bike_id": "331ae77f57805ae84bee8cd55dfcab46", "fusion_lat": 0.0, "lon": -77.01868516666667, "type": "electric_scooter", "fusion_lon": 0.0, "lat": 38.92912183333333}, {"rental_uris": {"android": "https://dc.lft.to/lastmile_qr_scan", "ios": "https://dc.lft.to/lastmile_qr_scan"}, "is_reserved": 0, "is_disabled": 0, "name": "eb58ba42102646ac31ca7650436ebf38", "bike_id": "eb58ba42102646ac31ca7650436ebf38", "fusion_lat": 0.0, "lon": -77.12733016666667, "type": "electric_bike", "fusion_lon": 0.0, "lat": 38.8956125}, {"rental_uris": {"android": "https://dc.lft.to/lastmile_qr_scan", "ios": "https://dc.lft.to/lastmile_qr_scan"}, "is_reserved": 0, "is_disabled": 0, "name": "3b2dd6b4a987f4559c61e7797032db70", "bike_id": "3b2dd6b4a987f4559c61e7797032db70", "fusion_lat": 0.0, "lon": -77.02167233333333, "type": "electric_scooter", "fusion_lon": 0.0, "lat": 38.900536333333335}, {"rental_uris": {"android": "https://dc.lft.to/lastmile_qr_scan", "ios": "https://dc.lft.to/lastmile_qr_scan"}, "is_reserved": 0, "is_disabled": 0, "name": "d608f4f6cf55dc673e43efed0bd29584", "bike_id": "d608f4f6cf55dc673e43efed0bd29584", "fusion_lat": 0.0, "lon": -77.0327095, "type": "electric_scooter", "fusion_lon": 0.0, "lat": 38.8988005}, {"rental_uris": {"android": "https://dc.lft.to/lastmile_qr_scan", "ios": "https://dc.lft.to/lastmile_qr_scan"}, "is_reserved": 0, "is_disabled": 0, "name": "a81f7d2b018c70b9c79e903cbad23a55", "bike_id": "a81f7d2b018c70b9c79e903cbad23a55", "fusion_lat": 0.0, "lon": -77.03373616666667, "type": "electric_scooter", "fusion_lon": 0.0, "lat": 38.922370666666666}, {"rental_uris": {"android": "https://dc.lft.to/lastmile_qr_scan", "ios": "https://dc.lft.to/lastmile_qr_scan"}, "is_reserved": 0, "is_disabled": 0, "name": "f06c23e78a5a2edf2b6d36f9c38c4513", "bike_id": "f06c23e78a5a2edf2b6d36f9c38c4513", "fusion_lat": 0.0, "lon": -76.95697233333334, "type": "electric_bike", "fusion_lon": 0.0, "lat": 38.85090566666667}, {"rental_uris": {"android": "https://dc.lft.to/lastmile_qr_scan", "ios": "https://dc.lft.to/lastmile_qr_scan"}, "is_reserved": 0, "is_disabled": 0, "name": "7662e41267e6eb382b1ad4abac6bf2ba", "bike_id": "7662e41267e6eb382b1ad4abac6bf2ba", "fusion_lat": 0.0, "lon": -77.031912, "type": "electric_scooter", "fusion_lon": 0.0, "lat": 38.9079015}, {"rental_uris": {"android": "https://dc.lft.to/lastmile_qr_scan", "ios": "https://dc.lft.to/lastmile_qr_scan"}, "is_reserved": 0, "is_disabled": 0, "name": "7bfab173c74c02e23ee499bc9804e5bc", "bike_id": "7bfab173c74c02e23ee499bc9804e5bc", "fusion_lat": 0.0, "lon": -77.02574033333333, "type": "electric_scooter", "fusion_lon": 0.0, "lat": 38.89583316666667}, {"rental_uris": {"android": "https://dc.lft.to/lastmile_qr_scan", "ios": "https://dc.lft.to/lastmile_qr_scan"}, "is_reserved": 0, "is_disabled": 0, "name": "590ad452489bd59130eb6970da14d890", "bike_id": "590ad452489bd59130eb6970da14d890", "fusion_lat": 0.0, "lon": -77.04023833333333, "type": "electric_scooter", "fusion_lon": 0.0, "lat": 38.9181705}, {"rental_uris": {"android": "https://dc.lft.to/lastmile_qr_scan", "ios": "https://dc.lft.to/lastmile_qr_scan"}, "is_reserved": 0, "is_disabled": 0, "name": "6332abe27d35c60a76bedfda3e1fb46c", "bike_id": "6332abe27d35c60a76bedfda3e1fb46c", "fusion_lat": 0.0, "lon": -77.090124, "type": "electric_bike", "fusion_lon": 0.0, "lat": 38.926474}, {"rental_uris": {"android": "https://dc.lft.to/lastmile_qr_scan", "ios": "https://dc.lft.to/lastmile_qr_scan"}, "is_reserved": 0, "is_disabled": 0, "name": "0d2f0ff7078c743045b2da85d3f1aa00", "bike_id": "0d2f0ff7078c743045b2da85d3f1aa00", "fusion_lat": 0.0, "lon": -76.94175816666667, "type": "electric_scooter", "fusion_lon": 0.0, "lat": 38.8927675}, {"rental_uris": {"android": "https://dc.lft.to/lastmile_qr_scan", "ios": "https://dc.lft.to/lastmile_qr_scan"}, "is_reserved": 0, "is_disabled": 0, "name": "e7b76c0be5438353ef1f14352b962c7e", "bike_id": "e7b76c0be5438353ef1f14352b962c7e", "fusion_lat": 0.0, "lon": -77.03900266666666, "type": "electric_scooter", "fusion_lon": 0.0, "lat": 38.9220735}, {"rental_uris": {"android": "https://dc.lft.to/lastmile_qr_scan", "ios": "https://dc.lft.to/lastmile_qr_scan"}, "is_reserved": 0, "is_disabled": 0, "name": "237608891ab6f14a0e431f70f9640c62", "bike_id": "237608891ab6f14a0e431f70f9640c62", "fusion_lat": 0.0, "lon": -77.00262266666667, "type": "electric_scooter", "fusion_lon": 0.0, "lat": 38.905617}, {"rental_uris": {"android": "https://dc.lft.to/lastmile_qr_scan", "ios": "https://dc.lft.to/lastmile_qr_scan"}, "is_reserved": 0, "is_disabled": 0, "name": "c939f1cfb2fdb0940aa877239d8679f1", "bike_id": "c939f1cfb2fdb0940aa877239d8679f1", "fusion_lat": 0.0, "lon": -77.02474066666667, "type": "electric_scooter", "fusion_lon": 0.0, "lat": 38.93853633333333}, {"rental_uris": {"android": "https://dc.lft.to/lastmile_qr_scan", "ios": "https://dc.lft.to/lastmile_qr_scan"}, "is_reserved": 0, "is_disabled": 0, "name": "d3d0d74fa62cd235f77ce5b4a996c1c7", "bike_id": "d3d0d74fa62cd235f77ce5b4a996c1c7", "fusion_lat": 0.0, "lon": -77.035207, "type": "electric_scooter", "fusion_lon": 0.0, "lat": 38.93280266666667}, {"rental_uris": {"android": "https://dc.lft.to/lastmile_qr_scan", "ios": "https://dc.lft.to/lastmile_qr_scan"}, "is_reserved": 0, "is_disabled": 0, "name": "c78063477ace9a9492d75978f876bb01", "bike_id": "c78063477ace9a9492d75978f876bb01", "fusion_lat": 0.0, "lon": -77.02507066666666, "type": "electric_scooter", "fusion_lon": 0.0, "lat": 38.935498}, {"rental_uris": {"android": "https://dc.lft.to/lastmile_qr_scan", "ios": "https://dc.lft.to/lastmile_qr_scan"}, "is_reserved": 0, "is_disabled": 0, "name": "dacf73f02c26f743453b2b064b879b38", "bike_id": "dacf73f02c26f743453b2b064b879b38", "fusion_lat": 0.0, "lon": -77.09656666666666, "type": "electric_bike", "fusion_lon": 0.0, "lat": 38.952165}, {"rental_uris": {"android": "https://dc.lft.to/lastmile_qr_scan", "ios": "https://dc.lft.to/lastmile_qr_scan"}, "is_reserved": 0, "is_disabled": 0, "name": "8ce0b831bbe78b791a6e7812de3007ab", "bike_id": "8ce0b831bbe78b791a6e7812de3007ab", "fusion_lat": 0.0, "lon": -77.03722233333333, "type": "electric_scooter", "fusion_lon": 0.0, "lat": 38.91269366666667}, {"rental_uris": {"android": "https://dc.lft.to/lastmile_qr_scan", "ios": "https://dc.lft.to/lastmile_qr_scan"}, "is_reserved": 0, "is_disabled": 0, "name": "02abb6ecc556c059594b7fe3f3e4826b", "bike_id": "02abb6ecc556c059594b7fe3f3e4826b", "fusion_lat": 0.0, "lon": -77.04255583333334, "type": "electric_scooter", "fusion_lon": 0.0, "lat": 38.91198816666667}, {"rental_uris": {"android": "https://dc.lft.to/lastmile_qr_scan", "ios": "https://dc.lft.to/lastmile_qr_scan"}, "is_reserved": 0, "is_disabled": 0, "name": "6b81f33ffc8b336dd965316eca16cf9f", "bike_id": "6b81f33ffc8b336dd965316eca16cf9f", "fusion_lat": 0.0, "lon": -77.02364016666667, "type": "electric_scooter", "fusion_lon": 0.0, "lat": 38.93530233333333}, {"rental_uris": {"android": "https://dc.lft.to/lastmile_qr_scan", "ios": "https://dc.lft.to/lastmile_qr_scan"}, "is_reserved": 0, "is_disabled": 0, "name": "8d78344b0a009ba9e0de059f6fa91fc5", "bike_id": "8d78344b0a009ba9e0de059f6fa91fc5", "fusion_lat": 0.0, "lon": -77.02182266666667, "type": "electric_scooter", "fusion_lon": 0.0, "lat": 38.91475166666667}, {"rental_uris": {"android": "https://dc.lft.to/lastmile_qr_scan", "ios": "https://dc.lft.to/lastmile_qr_scan"}, "is_reserved": 0, "is_disabled": 0, "name": "ab4770d938330f54b77fe1b8fe42cb6a", "bike_id": "ab4770d938330f54b77fe1b8fe42cb6a", "fusion_lat": 0.0, "lon": -77.03204916666667, "type": "electric_scooter", "fusion_lon": 0.0, "lat": 38.90745316666667}, {"rental_uris": {"android": "https://dc.lft.to/lastmile_qr_scan", "ios": "https://dc.lft.to/lastmile_qr_scan"}, "is_reserved": 0, "is_disabled": 0, "name": "5470fc0237e25a0f5f328a4d4450d833", "bike_id": "5470fc0237e25a0f5f328a4d4450d833", "fusion_lat": 0.0, "lon": -77.02591433333333, "type": "electric_scooter", "fusion_lon": 0.0, "lat": 38.91869466666667}, {"rental_uris": {"android": "https://dc.lft.to/lastmile_qr_scan", "ios": "https://dc.lft.to/lastmile_qr_scan"}, "is_reserved": 0, "is_disabled": 0, "name": "64c55c29096ab5e3ec7a1ed1c8c00795", "bike_id": "64c55c29096ab5e3ec7a1ed1c8c00795", "fusion_lat": 0.0, "lon": -77.01952133333333, "type": "electric_scooter", "fusion_lon": 0.0, "lat": 38.92332316666667}, {"rental_uris": {"android": "https://dc.lft.to/lastmile_qr_scan", "ios": "https://dc.lft.to/lastmile_qr_scan"}, "is_reserved": 0, "is_disabled": 0, "name": "7bbb55f9683b0301f81e9e02b9c1dffb", "bike_id": "7bbb55f9683b0301f81e9e02b9c1dffb", "fusion_lat": 0.0, "lon": -77.0271225, "type": "electric_bike", "fusion_lon": 0.0, "lat": 38.89631283333333}, {"rental_uris": {"android": "https://dc.lft.to/lastmile_qr_scan", "ios": "https://dc.lft.to/lastmile_qr_scan"}, "is_reserved": 0, "is_disabled": 0, "name": "09c7ad057d89a9a2a724f7a8ccade61b", "bike_id": "09c7ad057d89a9a2a724f7a8ccade61b", "fusion_lat": 0.0, "lon": -77.02444883333334, "type": "electric_scooter", "fusion_lon": 0.0, "lat": 38.94978783333333}, {"rental_uris": {"android": "https://dc.lft.to/lastmile_qr_scan", "ios": "https://dc.lft.to/lastmile_qr_scan"}, "is_reserved": 0, "is_disabled": 0, "name": "d598d5c78e9607309efff9d09c68b9ab", "bike_id": "d598d5c78e9607309efff9d09c68b9ab", "fusion_lat": 0.0, "lon": -77.03537166666666, "type": "electric_scooter", "fusion_lon": 0.0, "lat": 38.916949833333334}, {"rental_uris": {"android": "https://dc.lft.to/lastmile_qr_scan", "ios": "https://dc.lft.to/lastmile_qr_scan"}, "is_reserved": 0, "is_disabled": 0, "name": "f16d7dfd7eb185d010d438a959ed148b", "bike_id": "f16d7dfd7eb185d010d438a959ed148b", "fusion_lat": 0.0, "lon": -77.03793366666666, "type": "electric_scooter", "fusion_lon": 0.0, "lat": 38.925807}, {"rental_uris": {"android": "https://dc.lft.to/lastmile_qr_scan", "ios": "https://dc.lft.to/lastmile_qr_scan"}, "is_reserved": 0, "is_disabled": 0, "name": "128403ea043022042224bd893a454b91", "bike_id": "128403ea043022042224bd893a454b91", "fusion_lat": 0.0, "lon": -77.06943516666666, "type": "electric_bike", "fusion_lon": 0.0, "lat": 38.8362645}, {"rental_uris": {"android": "https://dc.lft.to/lastmile_qr_scan", "ios": "https://dc.lft.to/lastmile_qr_scan"}, "is_reserved": 0, "is_disabled": 0, "name": "691e035717cb9d4e86b953bb0453d37f", "bike_id": "691e035717cb9d4e86b953bb0453d37f", "fusion_lat": 0.0, "lon": -77.0441955, "type": "electric_scooter", "fusion_lon": 0.0, "lat": 38.89603416666667}, {"rental_uris": {"android": "https://dc.lft.to/lastmile_qr_scan", "ios": "https://dc.lft.to/lastmile_qr_scan"}, "is_reserved": 0, "is_disabled": 0, "name": "b0fb2297bf8fdfa42d5943f35f39bf68", "bike_id": "b0fb2297bf8fdfa42d5943f35f39bf68", "fusion_lat": 0.0, "lon": -77.02386716666666, "type": "electric_scooter", "fusion_lon": 0.0, "lat": 38.916539666666665}, {"rental_uris": {"android": "https://dc.lft.to/lastmile_qr_scan", "ios": "https://dc.lft.to/lastmile_qr_scan"}, "is_reserved": 0, "is_disabled": 0, "name": "5572057b5be6da58513b480d3f4dab83", "bike_id": "5572057b5be6da58513b480d3f4dab83", "fusion_lat": 0.0, "lon": -77.02457383333333, "type": "electric_scooter", "fusion_lon": 0.0, "lat": 38.95790983333333}, {"rental_uris": {"android": "https://dc.lft.to/lastmile_qr_scan", "ios": "https://dc.lft.to/lastmile_qr_scan"}, "is_reserved": 0, "is_disabled": 0, "name": "d5bbe9da2f937e046f6596f52c9ce338", "bike_id": "d5bbe9da2f937e046f6596f52c9ce338", "fusion_lat": 0.0, "lon": -76.97329016666667, "type": "electric_scooter", "fusion_lon": 0.0, "lat": 38.90408633333333}, {"rental_uris": {"android": "https://dc.lft.to/lastmile_qr_scan", "ios": "https://dc.lft.to/lastmile_qr_scan"}, "is_reserved": 0, "is_disabled": 0, "name": "c9afda7e4f788d32adaa713d294a1f04", "bike_id": "c9afda7e4f788d32adaa713d294a1f04", "fusion_lat": 0.0, "lon": -77.0581775, "type": "electric_scooter", "fusion_lon": 0.0, "lat": 38.935294166666665}, {"rental_uris": {"android": "https://dc.lft.to/lastmile_qr_scan", "ios": "https://dc.lft.to/lastmile_qr_scan"}, "is_reserved": 0, "is_disabled": 0, "name": "25e32e6d5c0c90c89805e8ecbc05e11d", "bike_id": "25e32e6d5c0c90c89805e8ecbc05e11d", "fusion_lat": 0.0, "lon": -77.03800483333333, "type": "electric_scooter", "fusion_lon": 0.0, "lat": 38.906795}, {"rental_uris": {"android": "https://dc.lft.to/lastmile_qr_scan", "ios": "https://dc.lft.to/lastmile_qr_scan"}, "is_reserved": 0, "is_disabled": 0, "name": "183c84fab7412848eb3808a2ee3316aa", "bike_id": "183c84fab7412848eb3808a2ee3316aa", "fusion_lat": 0.0, "lon": -77.00016266666667, "type": "electric_scooter", "fusion_lon": 0.0, "lat": 38.919793166666665}, {"rental_uris": {"android": "https://dc.lft.to/lastmile_qr_scan", "ios": "https://dc.lft.to/lastmile_qr_scan"}, "is_reserved": 0, "is_disabled": 0, "name": "0f41d0df0e93584a30a30ce738721432", "bike_id": "0f41d0df0e93584a30a30ce738721432", "fusion_lat": 0.0, "lon": -77.024098, "type": "electric_scooter", "fusion_lon": 0.0, "lat": 38.909798333333335}, {"rental_uris": {"android": "https://dc.lft.to/lastmile_qr_scan", "ios": "https://dc.lft.to/lastmile_qr_scan"}, "is_reserved": 0, "is_disabled": 0, "name": "7f5b538cb4a03396c6d61843d3d1b6b1", "bike_id": "7f5b538cb4a03396c6d61843d3d1b6b1", "fusion_lat": 0.0, "lon": -77.03441966666666, "type": "electric_scooter", "fusion_lon": 0.0, "lat": 38.918034}, {"rental_uris": {"android": "https://dc.lft.to/lastmile_qr_scan", "ios": "https://dc.lft.to/lastmile_qr_scan"}, "is_reserved": 0, "is_disabled": 0, "name": "2273716db27610cf6ce2698d7ff54e5e", "bike_id": "2273716db27610cf6ce2698d7ff54e5e", "fusion_lat": 0.0, "lon": -77.02869266666667, "type": "electric_scooter", "fusion_lon": 0.0, "lat": 38.916928166666665}, {"rental_uris": {"android": "https://dc.lft.to/lastmile_qr_scan", "ios": "https://dc.lft.to/lastmile_qr_scan"}, "is_reserved": 0, "is_disabled": 0, "name": "3d1de8c7ce62ea6a8f60eaba863daa1c", "bike_id": "3d1de8c7ce62ea6a8f60eaba863daa1c", "fusion_lat": 0.0, "lon": -77.01896583333334, "type": "electric_scooter", "fusion_lon": 0.0, "lat": 38.903561}, {"rental_uris": {"android": "https://dc.lft.to/lastmile_qr_scan", "ios": "https://dc.lft.to/lastmile_qr_scan"}, "is_reserved": 0, "is_disabled": 0, "name": "fdd3541e9546794bb8f270b7358f094e", "bike_id": "fdd3541e9546794bb8f270b7358f094e", "fusion_lat": 0.0, "lon": -77.04688683333333, "type": "electric_scooter", "fusion_lon": 0.0, "lat": 38.896075333333336}, {"rental_uris": {"android": "https://dc.lft.to/lastmile_qr_scan", "ios": "https://dc.lft.to/lastmile_qr_scan"}, "is_reserved": 0, "is_disabled": 0, "name": "553a19165fa91fb1e04db9a024c178da", "bike_id": "553a19165fa91fb1e04db9a024c178da", "fusion_lat": 0.0, "lon": -77.01526233333334, "type": "electric_scooter", "fusion_lon": 0.0, "lat": 38.90943033333333}, {"rental_uris": {"android": "https://dc.lft.to/lastmile_qr_scan", "ios": "https://dc.lft.to/lastmile_qr_scan"}, "is_reserved": 0, "is_disabled": 0, "name": "9a464363d97de3870c1ff1df816a3946", "bike_id": "9a464363d97de3870c1ff1df816a3946", "fusion_lat": 0.0, "lon": -76.986893, "type": "electric_bike", "fusion_lon": 0.0, "lat": 38.94474566666667}, {"rental_uris": {"android": "https://dc.lft.to/lastmile_qr_scan", "ios": "https://dc.lft.to/lastmile_qr_scan"}, "is_reserved": 0, "is_disabled": 0, "name": "6cc692d649fe1a6961bf324d28d54aa4", "bike_id": "6cc692d649fe1a6961bf324d28d54aa4", "fusion_lat": 0.0, "lon": -77.025091, "type": "electric_scooter", "fusion_lon": 0.0, "lat": 38.919192833333334}, {"rental_uris": {"android": "https://dc.lft.to/lastmile_qr_scan", "ios": "https://dc.lft.to/lastmile_qr_scan"}, "is_reserved": 0, "is_disabled": 0, "name": "593e3dbb058ca21df4ec882802bdcbe7", "bike_id": "593e3dbb058ca21df4ec882802bdcbe7", "fusion_lat": 0.0, "lon": -77.03390483333334, "type": "electric_scooter", "fusion_lon": 0.0, "lat": 38.901264}, {"rental_uris": {"android": "https://dc.lft.to/lastmile_qr_scan", "ios": "https://dc.lft.to/lastmile_qr_scan"}, "is_reserved": 0, "is_disabled": 0, "name": "f5456ce9176ddd61edd66d9b8567322f", "bike_id": "f5456ce9176ddd61edd66d9b8567322f", "fusion_lat": 0.0, "lon": -77.066423, "type": "electric_bike", "fusion_lon": 0.0, "lat": 38.949403833333335}, {"rental_uris": {"android": "https://dc.lft.to/lastmile_qr_scan", "ios": "https://dc.lft.to/lastmile_qr_scan"}, "is_reserved": 0, "is_disabled": 0, "name": "aebc0ded49c92172e33dc55ee946e034", "bike_id": "aebc0ded49c92172e33dc55ee946e034", "fusion_lat": 0.0, "lon": -77.02476316666667, "type": "electric_scooter", "fusion_lon": 0.0, "lat": 38.91868783333334}, {"rental_uris": {"android": "https://dc.lft.to/lastmile_qr_scan", "ios": "https://dc.lft.to/lastmile_qr_scan"}, "is_reserved": 0, "is_disabled": 0, "name": "6a3dd0c254748816b669550f96ff1b02", "bike_id": "6a3dd0c254748816b669550f96ff1b02", "fusion_lat": 0.0, "lon": -77.02828883333333, "type": "electric_scooter", "fusion_lon": 0.0, "lat": 38.938851666666665}, {"rental_uris": {"android": "https://dc.lft.to/lastmile_qr_scan", "ios": "https://dc.lft.to/lastmile_qr_scan"}, "is_reserved": 0, "is_disabled": 0, "name": "5760c543e6739149302027d9e4784cdf", "bike_id": "5760c543e6739149302027d9e4784cdf", "fusion_lat": 0.0, "lon": -77.02992916666666, "type": "electric_scooter", "fusion_lon": 0.0, "lat": 38.883139666666665}, {"rental_uris": {"android": "https://dc.lft.to/lastmile_qr_scan", "ios": "https://dc.lft.to/lastmile_qr_scan"}, "is_reserved": 0, "is_disabled": 0, "name": "c2c80b16f061208fe6b50d1156394907", "bike_id": "c2c80b16f061208fe6b50d1156394907", "fusion_lat": 0.0, "lon": -77.04441616666666, "type": "electric_scooter", "fusion_lon": 0.0, "lat": 38.9026295}, {"rental_uris": {"android": "https://dc.lft.to/lastmile_qr_scan", "ios": "https://dc.lft.to/lastmile_qr_scan"}, "is_reserved": 0, "is_disabled": 0, "name": "29234552552ee1fcc9780b27a8c12bd2", "bike_id": "29234552552ee1fcc9780b27a8c12bd2", "fusion_lat": 0.0, "lon": -77.06354216666666, "type": "electric_scooter", "fusion_lon": 0.0, "lat": 38.94435683333333}, {"rental_uris": {"android": "https://dc.lft.to/lastmile_qr_scan", "ios": "https://dc.lft.to/lastmile_qr_scan"}, "is_reserved": 0, "is_disabled": 0, "name": "6e60e04d7831b68eefa45d15a0ce5b8d", "bike_id": "6e60e04d7831b68eefa45d15a0ce5b8d", "fusion_lat": 0.0, "lon": -77.04494783333334, "type": "electric_scooter", "fusion_lon": 0.0, "lat": 38.8975075}, {"rental_uris": {"android": "https://dc.lft.to/lastmile_qr_scan", "ios": "https://dc.lft.to/lastmile_qr_scan"}, "is_reserved": 0, "is_disabled": 0, "name": "e38ee6483645f2d2315c04374453c107", "bike_id": "e38ee6483645f2d2315c04374453c107", "fusion_lat": 0.0, "lon": -77.02261966666667, "type": "electric_scooter", "fusion_lon": 0.0, "lat": 38.8984785}, {"rental_uris": {"android": "https://dc.lft.to/lastmile_qr_scan", "ios": "https://dc.lft.to/lastmile_qr_scan"}, "is_reserved": 0, "is_disabled": 0, "name": "5b5273e3643a763741593e129199877f", "bike_id": "5b5273e3643a763741593e129199877f", "fusion_lat": 0.0, "lon": -77.02301966666667, "type": "electric_scooter", "fusion_lon": 0.0, "lat": 38.90901016666667}, {"rental_uris": {"android": "https://dc.lft.to/lastmile_qr_scan", "ios": "https://dc.lft.to/lastmile_qr_scan"}, "is_reserved": 0, "is_disabled": 0, "name": "16801891d4c4a504209f9234e59fe202", "bike_id": "16801891d4c4a504209f9234e59fe202", "fusion_lat": 0.0, "lon": -77.03191616666666, "type": "electric_scooter", "fusion_lon": 0.0, "lat": 38.907307833333334}, {"rental_uris": {"android": "https://dc.lft.to/lastmile_qr_scan", "ios": "https://dc.lft.to/lastmile_qr_scan"}, "is_reserved": 0, "is_disabled": 0, "name": "7b0caff10f97cc6e3b6d06d3138c4731", "bike_id": "7b0caff10f97cc6e3b6d06d3138c4731", "fusion_lat": 0.0, "lon": -77.004404, "type": "electric_scooter", "fusion_lon": 0.0, "lat": 38.915648833333336}, {"rental_uris": {"android": "https://dc.lft.to/lastmile_qr_scan", "ios": "https://dc.lft.to/lastmile_qr_scan"}, "is_reserved": 0, "is_disabled": 0, "name": "c0db9c1955f491a625e171d083b14fc4", "bike_id": "c0db9c1955f491a625e171d083b14fc4", "fusion_lat": 0.0, "lon": -76.93175233333334, "type": "electric_scooter", "fusion_lon": 0.0, "lat": 38.89886283333333}, {"rental_uris": {"android": "https://dc.lft.to/lastmile_qr_scan", "ios": "https://dc.lft.to/lastmile_qr_scan"}, "is_reserved": 0, "is_disabled": 0, "name": "a31f185ca3dcb79c6def29f7970d78a6", "bike_id": "a31f185ca3dcb79c6def29f7970d78a6", "fusion_lat": 0.0, "lon": -77.0500825, "type": "electric_scooter", "fusion_lon": 0.0, "lat": 38.90534783333333}, {"rental_uris": {"android": "https://dc.lft.to/lastmile_qr_scan", "ios": "https://dc.lft.to/lastmile_qr_scan"}, "is_reserved": 0, "is_disabled": 0, "name": "16537c7121574665b4926ae04c6a03d7", "bike_id": "16537c7121574665b4926ae04c6a03d7", "fusion_lat": 0.0, "lon": -77.0075895, "type": "electric_scooter", "fusion_lon": 0.0, "lat": 38.90627583333333}, {"rental_uris": {"android": "https://dc.lft.to/lastmile_qr_scan", "ios": "https://dc.lft.to/lastmile_qr_scan"}, "is_reserved": 0, "is_disabled": 0, "name": "576adcebeb8805c6031fe8163e905b65", "bike_id": "576adcebeb8805c6031fe8163e905b65", "fusion_lat": 0.0, "lon": -77.05314483333333, "type": "electric_scooter", "fusion_lon": 0.0, "lat": 38.904116}, {"rental_uris": {"android": "https://dc.lft.to/lastmile_qr_scan", "ios": "https://dc.lft.to/lastmile_qr_scan"}, "is_reserved": 0, "is_disabled": 0, "name": "205c7e6b9f5ca01f0efec70c7a36ee28", "bike_id": "205c7e6b9f5ca01f0efec70c7a36ee28", "fusion_lat": 0.0, "lon": -77.01871766666666, "type": "electric_scooter", "fusion_lon": 0.0, "lat": 38.914138333333334}, {"rental_uris": {"android": "https://dc.lft.to/lastmile_qr_scan", "ios": "https://dc.lft.to/lastmile_qr_scan"}, "is_reserved": 0, "is_disabled": 0, "name": "dec26235fbc51363e6f4b0a70d27c118", "bike_id": "dec26235fbc51363e6f4b0a70d27c118", "fusion_lat": 0.0, "lon": -77.02565066666666, "type": "electric_scooter", "fusion_lon": 0.0, "lat": 38.887418}, {"rental_uris": {"android": "https://dc.lft.to/lastmile_qr_scan", "ios": "https://dc.lft.to/lastmile_qr_scan"}, "is_reserved": 0, "is_disabled": 0, "name": "7a59c5237e934f2f4edb8b1beb818795", "bike_id": "7a59c5237e934f2f4edb8b1beb818795", "fusion_lat": 0.0, "lon": -77.01136216666667, "type": "electric_scooter", "fusion_lon": 0.0, "lat": 38.917030833333335}, {"rental_uris": {"android": "https://dc.lft.to/lastmile_qr_scan", "ios": "https://dc.lft.to/lastmile_qr_scan"}, "is_reserved": 0, "is_disabled": 0, "name": "469bfedf015867546e7ebff91fd459e1", "bike_id": "469bfedf015867546e7ebff91fd459e1", "fusion_lat": 0.0, "lon": -77.033512, "type": "electric_scooter", "fusion_lon": 0.0, "lat": 38.921544}, {"rental_uris": {"android": "https://dc.lft.to/lastmile_qr_scan", "ios": "https://dc.lft.to/lastmile_qr_scan"}, "is_reserved": 0, "is_disabled": 0, "name": "1d2acbbd17063c1350512ffa59b6e1e2", "bike_id": "1d2acbbd17063c1350512ffa59b6e1e2", "fusion_lat": 0.0, "lon": -77.01310266666667, "type": "electric_scooter", "fusion_lon": 0.0, "lat": 38.90133266666667}, {"rental_uris": {"android": "https://dc.lft.to/lastmile_qr_scan", "ios": "https://dc.lft.to/lastmile_qr_scan"}, "is_reserved": 0, "is_disabled": 0, "name": "ac2249ec16eba0dfb9f1d9169dc0a20f", "bike_id": "ac2249ec16eba0dfb9f1d9169dc0a20f", "fusion_lat": 0.0, "lon": -77.031962, "type": "electric_scooter", "fusion_lon": 0.0, "lat": 38.9035455}, {"rental_uris": {"android": "https://dc.lft.to/lastmile_qr_scan", "ios": "https://dc.lft.to/lastmile_qr_scan"}, "is_reserved": 0, "is_disabled": 0, "name": "a7703beb3f4d9705fee4348feab2b53f", "bike_id": "a7703beb3f4d9705fee4348feab2b53f", "fusion_lat": 0.0, "lon": -77.04414833333334, "type": "electric_scooter", "fusion_lon": 0.0, "lat": 38.92581216666667}, {"rental_uris": {"android": "https://dc.lft.to/lastmile_qr_scan", "ios": "https://dc.lft.to/lastmile_qr_scan"}, "is_reserved": 0, "is_disabled": 0, "name": "9e6915946734dc3d23181e3d2199f450", "bike_id": "9e6915946734dc3d23181e3d2199f450", "fusion_lat": 0.0, "lon": -77.03667166666666, "type": "electric_scooter", "fusion_lon": 0.0, "lat": 38.92273483333334}, {"rental_uris": {"android": "https://dc.lft.to/lastmile_qr_scan", "ios": "https://dc.lft.to/lastmile_qr_scan"}, "is_reserved": 0, "is_disabled": 0, "name": "28def4507a3386bcf50dc9f9112c848b", "bike_id": "28def4507a3386bcf50dc9f9112c848b", "fusion_lat": 0.0, "lon": -77.02692583333334, "type": "electric_scooter", "fusion_lon": 0.0, "lat": 38.916767666666665}, {"rental_uris": {"android": "https://dc.lft.to/lastmile_qr_scan", "ios": "https://dc.lft.to/lastmile_qr_scan"}, "is_reserved": 0, "is_disabled": 0, "name": "2422a443664c1d9a3913b56be0f2dd7c", "bike_id": "2422a443664c1d9a3913b56be0f2dd7c", "fusion_lat": 0.0, "lon": -77.04513216666666, "type": "electric_scooter", "fusion_lon": 0.0, "lat": 38.9078025}, {"rental_uris": {"android": "https://dc.lft.to/lastmile_qr_scan", "ios": "https://dc.lft.to/lastmile_qr_scan"}, "is_reserved": 0, "is_disabled": 0, "name": "d857d654c8117928d9b5e7e23b079587", "bike_id": "d857d654c8117928d9b5e7e23b079587", "fusion_lat": 0.0, "lon": -77.0487625, "type": "electric_scooter", "fusion_lon": 0.0, "lat": 38.9008955}, {"rental_uris": {"android": "https://dc.lft.to/lastmile_qr_scan", "ios": "https://dc.lft.to/lastmile_qr_scan"}, "is_reserved": 0, "is_disabled": 0, "name": "9226cf0b67e4ce2241624e62b204b9c7", "bike_id": "9226cf0b67e4ce2241624e62b204b9c7", "fusion_lat": 0.0, "lon": -77.03174233333333, "type": "electric_scooter", "fusion_lon": 0.0, "lat": 38.89776466666667}, {"rental_uris": {"android": "https://dc.lft.to/lastmile_qr_scan", "ios": "https://dc.lft.to/lastmile_qr_scan"}, "is_reserved": 0, "is_disabled": 0, "name": "29d01dc1fa0377180c0e9c84b7480c4b", "bike_id": "29d01dc1fa0377180c0e9c84b7480c4b", "fusion_lat": 0.0, "lon": -76.9352315, "type": "electric_scooter", "fusion_lon": 0.0, "lat": 38.87896333333333}, {"rental_uris": {"android": "https://dc.lft.to/lastmile_qr_scan", "ios": "https://dc.lft.to/lastmile_qr_scan"}, "is_reserved": 0, "is_disabled": 0, "name": "211f5d3521be44f70e24e24735ad7b2b", "bike_id": "211f5d3521be44f70e24e24735ad7b2b", "fusion_lat": 0.0, "lon": -77.00585416666667, "type": "electric_scooter", "fusion_lon": 0.0, "lat": 38.9024565}, {"rental_uris": {"android": "https://dc.lft.to/lastmile_qr_scan", "ios": "https://dc.lft.to/lastmile_qr_scan"}, "is_reserved": 0, "is_disabled": 0, "name": "999b56fdefd5a65155902f100d395f92", "bike_id": "999b56fdefd5a65155902f100d395f92", "fusion_lat": 0.0, "lon": -77.031884, "type": "electric_scooter", "fusion_lon": 0.0, "lat": 38.913496}, {"rental_uris": {"android": "https://dc.lft.to/lastmile_qr_scan", "ios": "https://dc.lft.to/lastmile_qr_scan"}, "is_reserved": 0, "is_disabled": 0, "name": "5d8a263acb0c4420967902821c7ebfd2", "bike_id": "5d8a263acb0c4420967902821c7ebfd2", "fusion_lat": 0.0, "lon": -77.02807783333333, "type": "electric_scooter", "fusion_lon": 0.0, "lat": 38.917442333333334}, {"rental_uris": {"android": "https://dc.lft.to/lastmile_qr_scan", "ios": "https://dc.lft.to/lastmile_qr_scan"}, "is_reserved": 0, "is_disabled": 0, "name": "8a567dfaaa8ca7e06d157ef21839d5ff", "bike_id": "8a567dfaaa8ca7e06d157ef21839d5ff", "fusion_lat": 0.0, "lon": -77.03274016666667, "type": "electric_scooter", "fusion_lon": 0.0, "lat": 38.920077166666665}, {"rental_uris": {"android": "https://dc.lft.to/lastmile_qr_scan", "ios": "https://dc.lft.to/lastmile_qr_scan"}, "is_reserved": 0, "is_disabled": 0, "name": "8eefec97dbc1046c503a42f6b23ccd90", "bike_id": "8eefec97dbc1046c503a42f6b23ccd90", "fusion_lat": 0.0, "lon": -77.0356175, "type": "electric_scooter", "fusion_lon": 0.0, "lat": 38.908187166666664}, {"rental_uris": {"android": "https://dc.lft.to/lastmile_qr_scan", "ios": "https://dc.lft.to/lastmile_qr_scan"}, "is_reserved": 0, "is_disabled": 0, "name": "da9f06b7ef47277baa26597f03a57409", "bike_id": "da9f06b7ef47277baa26597f03a57409", "fusion_lat": 0.0, "lon": -76.98545833333333, "type": "electric_scooter", "fusion_lon": 0.0, "lat": 38.90592783333334}, {"rental_uris": {"android": "https://dc.lft.to/lastmile_qr_scan", "ios": "https://dc.lft.to/lastmile_qr_scan"}, "is_reserved": 0, "is_disabled": 0, "name": "ee8d62f8af8419a8763375f5a71c479b", "bike_id": "ee8d62f8af8419a8763375f5a71c479b", "fusion_lat": 0.0, "lon": -77.0251755, "type": "electric_scooter", "fusion_lon": 0.0, "lat": 38.91946983333333}, {"rental_uris": {"android": "https://dc.lft.to/lastmile_qr_scan", "ios": "https://dc.lft.to/lastmile_qr_scan"}, "is_reserved": 0, "is_disabled": 0, "name": "a80e9c5be1deb659fd1c773d0ad89299", "bike_id": "a80e9c5be1deb659fd1c773d0ad89299", "fusion_lat": 0.0, "lon": -77.02696783333333, "type": "electric_scooter", "fusion_lon": 0.0, "lat": 38.9278685}, {"rental_uris": {"android": "https://dc.lft.to/lastmile_qr_scan", "ios": "https://dc.lft.to/lastmile_qr_scan"}, "is_reserved": 0, "is_disabled": 0, "name": "b0cecea4fac044206ae9b18da37ae7e2", "bike_id": "b0cecea4fac044206ae9b18da37ae7e2", "fusion_lat": 0.0, "lon": -76.9770305, "type": "electric_bike", "fusion_lon": 0.0, "lat": 38.822053333333336}, {"rental_uris": {"android": "https://dc.lft.to/lastmile_qr_scan", "ios": "https://dc.lft.to/lastmile_qr_scan"}, "is_reserved": 0, "is_disabled": 0, "name": "ad9306399deb461fe63b35e3944235cf", "bike_id": "ad9306399deb461fe63b35e3944235cf", "fusion_lat": 0.0, "lon": -77.04142533333334, "type": "electric_scooter", "fusion_lon": 0.0, "lat": 38.922656}, {"rental_uris": {"android": "https://dc.lft.to/lastmile_qr_scan", "ios": "https://dc.lft.to/lastmile_qr_scan"}, "is_reserved": 0, "is_disabled": 0, "name": "58467d861d0c047524c90cb7c4787965", "bike_id": "58467d861d0c047524c90cb7c4787965", "fusion_lat": 0.0, "lon": -77.04491883333333, "type": "electric_scooter", "fusion_lon": 0.0, "lat": 38.89225183333333}, {"rental_uris": {"android": "https://dc.lft.to/lastmile_qr_scan", "ios": "https://dc.lft.to/lastmile_qr_scan"}, "is_reserved": 0, "is_disabled": 0, "name": "816ff0e883562443580e7a1a5a43104f", "bike_id": "816ff0e883562443580e7a1a5a43104f", "fusion_lat": 0.0, "lon": -77.0241325, "type": "electric_scooter", "fusion_lon": 0.0, "lat": 38.917083833333336}, {"rental_uris": {"android": "https://dc.lft.to/lastmile_qr_scan", "ios": "https://dc.lft.to/lastmile_qr_scan"}, "is_reserved": 0, "is_disabled": 0, "name": "0fdf29a290f510a3ebc99d64a7f5b623", "bike_id": "0fdf29a290f510a3ebc99d64a7f5b623", "fusion_lat": 0.0, "lon": -77.0831275, "type": "electric_bike", "fusion_lon": 0.0, "lat": 38.854392833333335}, {"rental_uris": {"android": "https://dc.lft.to/lastmile_qr_scan", "ios": "https://dc.lft.to/lastmile_qr_scan"}, "is_reserved": 0, "is_disabled": 0, "name": "9b834bd1bda5efa09008b59c868277f3", "bike_id": "9b834bd1bda5efa09008b59c868277f3", "fusion_lat": 0.0, "lon": -77.02786616666667, "type": "electric_scooter", "fusion_lon": 0.0, "lat": 38.961340166666666}, {"rental_uris": {"android": "https://dc.lft.to/lastmile_qr_scan", "ios": "https://dc.lft.to/lastmile_qr_scan"}, "is_reserved": 0, "is_disabled": 0, "name": "83eee3cc5f678676e3abef17237c5f88", "bike_id": "83eee3cc5f678676e3abef17237c5f88", "fusion_lat": 0.0, "lon": -77.06711933333334, "type": "electric_scooter", "fusion_lon": 0.0, "lat": 38.949990666666665}, {"rental_uris": {"android": "https://dc.lft.to/lastmile_qr_scan", "ios": "https://dc.lft.to/lastmile_qr_scan"}, "is_reserved": 0, "is_disabled": 0, "name": "789dc4476e0acc5c8abe518c2a5e7aa1", "bike_id": "789dc4476e0acc5c8abe518c2a5e7aa1", "fusion_lat": 0.0, "lon": -77.11411916666667, "type": "electric_bike", "fusion_lon": 0.0, "lat": 38.873222166666665}, {"rental_uris": {"android": "https://dc.lft.to/lastmile_qr_scan", "ios": "https://dc.lft.to/lastmile_qr_scan"}, "is_reserved": 0, "is_disabled": 0, "name": "cfd3b16e17852bf0d11b772257ae6e09", "bike_id": "cfd3b16e17852bf0d11b772257ae6e09", "fusion_lat": 0.0, "lon": -76.998724, "type": "electric_scooter", "fusion_lon": 0.0, "lat": 38.9075185}, {"rental_uris": {"android": "https://dc.lft.to/lastmile_qr_scan", "ios": "https://dc.lft.to/lastmile_qr_scan"}, "is_reserved": 0, "is_disabled": 0, "name": "5cb20cd22880206a90037431d881850d", "bike_id": "5cb20cd22880206a90037431d881850d", "fusion_lat": 0.0, "lon": -77.045053, "type": "electric_scooter", "fusion_lon": 0.0, "lat": 38.8922435}, {"rental_uris": {"android": "https://dc.lft.to/lastmile_qr_scan", "ios": "https://dc.lft.to/lastmile_qr_scan"}, "is_reserved": 0, "is_disabled": 0, "name": "df7c2f42041e96093207f9eae9b15e7a", "bike_id": "df7c2f42041e96093207f9eae9b15e7a", "fusion_lat": 0.0, "lon": -77.03484533333334, "type": "electric_scooter", "fusion_lon": 0.0, "lat": 38.915631}, {"rental_uris": {"android": "https://dc.lft.to/lastmile_qr_scan", "ios": "https://dc.lft.to/lastmile_qr_scan"}, "is_reserved": 0, "is_disabled": 0, "name": "0452f6300c40311ac6cfdfc2cff121f3", "bike_id": "0452f6300c40311ac6cfdfc2cff121f3", "fusion_lat": 0.0, "lon": -77.031775, "type": "electric_scooter", "fusion_lon": 0.0, "lat": 38.91784033333333}, {"rental_uris": {"android": "https://dc.lft.to/lastmile_qr_scan", "ios": "https://dc.lft.to/lastmile_qr_scan"}, "is_reserved": 0, "is_disabled": 0, "name": "745a3648b9cab05254a351f29efbd7d6", "bike_id": "745a3648b9cab05254a351f29efbd7d6", "fusion_lat": 0.0, "lon": -77.03797016666667, "type": "electric_scooter", "fusion_lon": 0.0, "lat": 38.93320966666667}, {"rental_uris": {"android": "https://dc.lft.to/lastmile_qr_scan", "ios": "https://dc.lft.to/lastmile_qr_scan"}, "is_reserved": 0, "is_disabled": 0, "name": "e409f6579caecf17a33526c537ca1b21", "bike_id": "e409f6579caecf17a33526c537ca1b21", "fusion_lat": 0.0, "lon": -77.03188066666667, "type": "electric_scooter", "fusion_lon": 0.0, "lat": 38.91655016666667}, {"rental_uris": {"android": "https://dc.lft.to/lastmile_qr_scan", "ios": "https://dc.lft.to/lastmile_qr_scan"}, "is_reserved": 0, "is_disabled": 0, "name": "dc042e78d5e7c6f1e76b500226312d8e", "bike_id": "dc042e78d5e7c6f1e76b500226312d8e", "fusion_lat": 0.0, "lon": -77.03302216666667, "type": "electric_scooter", "fusion_lon": 0.0, "lat": 38.92653116666666}, {"rental_uris": {"android": "https://dc.lft.to/lastmile_qr_scan", "ios": "https://dc.lft.to/lastmile_qr_scan"}, "is_reserved": 0, "is_disabled": 0, "name": "7f260e8e5ad971151b8dd1ff2f056c25", "bike_id": "7f260e8e5ad971151b8dd1ff2f056c25", "fusion_lat": 0.0, "lon": -77.0405565, "type": "electric_scooter", "fusion_lon": 0.0, "lat": 38.9098705}, {"rental_uris": {"android": "https://dc.lft.to/lastmile_qr_scan", "ios": "https://dc.lft.to/lastmile_qr_scan"}, "is_reserved": 0, "is_disabled": 0, "name": "d7f50949a8eea7b58e477a73ecd6a16e", "bike_id": "d7f50949a8eea7b58e477a73ecd6a16e", "fusion_lat": 0.0, "lon": -77.04334233333333, "type": "electric_scooter", "fusion_lon": 0.0, "lat": 38.92329766666667}, {"rental_uris": {"android": "https://dc.lft.to/lastmile_qr_scan", "ios": "https://dc.lft.to/lastmile_qr_scan"}, "is_reserved": 0, "is_disabled": 0, "name": "79aeab281b2f1ccc8f15c1005dff6125", "bike_id": "79aeab281b2f1ccc8f15c1005dff6125", "fusion_lat": 0.0, "lon": -77.02947466666667, "type": "electric_scooter", "fusion_lon": 0.0, "lat": 38.9050385}, {"rental_uris": {"android": "https://dc.lft.to/lastmile_qr_scan", "ios": "https://dc.lft.to/lastmile_qr_scan"}, "is_reserved": 0, "is_disabled": 0, "name": "3fe5941728fd9e181ba133faaf545dd7", "bike_id": "3fe5941728fd9e181ba133faaf545dd7", "fusion_lat": 0.0, "lon": -77.02151533333334, "type": "electric_scooter", "fusion_lon": 0.0, "lat": 38.924618833333334}, {"rental_uris": {"android": "https://dc.lft.to/lastmile_qr_scan", "ios": "https://dc.lft.to/lastmile_qr_scan"},