{"data": {"bikes": [{"bike_id": "bf78263939babc20b33586774fe1ffba", "type": "electric_scooter", "is_disabled": 0, "lat": 38.927703666666666, "rental_uris": {"ios": "https://dc.lft.to/lastmile_qr_scan", "android": "https://dc.lft.to/lastmile_qr_scan"}, "is_reserved": 0, "fusion_lon": 0.0, "fusion_lat": 0.0, "lon": -76.98758683333334, "name": "bf78263939babc20b33586774fe1ffba"}, {"bike_id": "3b4e7a9e7646fb5569be14d3f8dbbacc", "type": "electric_bike", "is_disabled": 0, "lat": 38.904670333333335, "rental_uris": {"ios": "https://dc.lft.to/lastmile_qr_scan", "android": "https://dc.lft.to/lastmile_qr_scan"}, "is_reserved": 0, "fusion_lon": 0.0, "fusion_lat": 0.0, "lon": -77.06761483333334, "name": "3b4e7a9e7646fb5569be14d3f8dbbacc"}, {"bike_id": "2de8140fe3a9a0f0a25f3bff9eaa2fac", "type": "electric_scooter", "is_disabled": 0, "lat": 38.9157355, "rental_uris": {"ios": "https://dc.lft.to/lastmile_qr_scan", "android": "https://dc.lft.to/lastmile_qr_scan"}, "is_reserved": 0, "fusion_lon": 0.0, "fusion_lat": 0.0, "lon": -77.04648, "name": "2de8140fe3a9a0f0a25f3bff9eaa2fac"}, {"bike_id": "8a03d6ea57adfb59c4ec7a34cc662689", "type": "electric_scooter", "is_disabled": 0, "lat": 38.89838566666667, "rental_uris": {"ios": "https://dc.lft.to/lastmile_qr_scan", "android": "https://dc.lft.to/lastmile_qr_scan"}, "is_reserved": 0, "fusion_lon": 0.0, "fusion_lat": 0.0, "lon": -77.04012916666667, "name": "8a03d6ea57adfb59c4ec7a34cc662689"}, {"bike_id": "ab7c51dc0dabb004b95fd6cc4475749c", "type": "electric_scooter", "is_disabled": 0, "lat": 38.865027166666664, "rental_uris": {"ios": "https://dc.lft.to/lastmile_qr_scan", "android": "https://dc.lft.to/lastmile_qr_scan"}, "is_reserved": 0, "fusion_lon": 0.0, "fusion_lat": 0.0, "lon": -76.99004216666667, "name": "ab7c51dc0dabb004b95fd6cc4475749c"}, {"bike_id": "ea6fa52f40f476217a6190000bb72ac5", "type": "electric_scooter", "is_disabled": 0, "lat": 38.95735083333334, "rental_uris": {"ios": "https://dc.lft.to/lastmile_qr_scan", "android": "https://dc.lft.to/lastmile_qr_scan"}, "is_reserved": 0, "fusion_lon": 0.0, "fusion_lat": 0.0, "lon": -77.024039, "name": "ea6fa52f40f476217a6190000bb72ac5"}, {"bike_id": "3a9032889e2601a46ce0333009c1ef22", "type": "electric_scooter", "is_disabled": 0, "lat": 38.86685583333333, "rental_uris": {"ios": "https://dc.lft.to/lastmile_qr_scan", "android": "https://dc.lft.to/lastmile_qr_scan"}, "is_reserved": 0, "fusion_lon": 0.0, "fusion_lat": 0.0, "lon": -76.98574133333334, "name": "3a9032889e2601a46ce0333009c1ef22"}, {"bike_id": "46f1a2d19db26ffb75ad1984453d374f", "type": "electric_scooter", "is_disabled": 0, "lat": 38.904893666666666, "rental_uris": {"ios": "https://dc.lft.to/lastmile_qr_scan", "android": "https://dc.lft.to/lastmile_qr_scan"}, "is_reserved": 0, "fusion_lon": 0.0, "fusion_lat": 0.0, "lon": -77.043345, "name": "46f1a2d19db26ffb75ad1984453d374f"}, {"bike_id": "af06af74beee40cf19c77f0874f8e256", "type": "electric_scooter", "is_disabled": 0, "lat": 38.89832783333333, "rental_uris": {"ios": "https://dc.lft.to/lastmile_qr_scan", "android": "https://dc.lft.to/lastmile_qr_scan"}, "is_reserved": 0, "fusion_lon": 0.0, "fusion_lat": 0.0, "lon": -76.91951433333334, "name": "af06af74beee40cf19c77f0874f8e256"}, {"bike_id": "6eb040a1d1bd6013731860e96802e7f1", "type": "electric_scooter", "is_disabled": 0, "lat": 38.923239333333335, "rental_uris": {"ios": "https://dc.lft.to/lastmile_qr_scan", "android": "https://dc.lft.to/lastmile_qr_scan"}, "is_reserved": 0, "fusion_lon": 0.0, "fusion_lat": 0.0, "lon": -77.0211835, "name": "6eb040a1d1bd6013731860e96802e7f1"}, {"bike_id": "cdafd2cf1833d5e89586e3e3773974e8", "type": "electric_scooter", "is_disabled": 0, "lat": 38.942896166666664, "rental_uris": {"ios": "https://dc.lft.to/lastmile_qr_scan", "android": "https://dc.lft.to/lastmile_qr_scan"}, "is_reserved": 0, "fusion_lon": 0.0, "fusion_lat": 0.0, "lon": -77.03620366666667, "name": "cdafd2cf1833d5e89586e3e3773974e8"}, {"bike_id": "6c425dcddcb9a979a65d5f5c55be9b0b", "type": "electric_scooter", "is_disabled": 0, "lat": 38.8908735, "rental_uris": {"ios": "https://dc.lft.to/lastmile_qr_scan", "android": "https://dc.lft.to/lastmile_qr_scan"}, "is_reserved": 0, "fusion_lon": 0.0, "fusion_lat": 0.0, "lon": -76.999432, "name": "6c425dcddcb9a979a65d5f5c55be9b0b"}, {"bike_id": "c95202cd19cbf3e527bc82abf74ae0c8", "type": "electric_scooter", "is_disabled": 0, "lat": 38.9012445, "rental_uris": {"ios": "https://dc.lft.to/lastmile_qr_scan", "android": "https://dc.lft.to/lastmile_qr_scan"}, "is_reserved": 0, "fusion_lon": 0.0, "fusion_lat": 0.0, "lon": -77.02186316666666, "name": "c95202cd19cbf3e527bc82abf74ae0c8"}, {"bike_id": "0206f793a209bcb54157868bd63ec2c6", "type": "electric_scooter", "is_disabled": 0, "lat": 38.91953766666666, "rental_uris": {"ios": "https://dc.lft.to/lastmile_qr_scan", "android": "https://dc.lft.to/lastmile_qr_scan"}, "is_reserved": 0, "fusion_lon": 0.0, "fusion_lat": 0.0, "lon": -77.04151916666666, "name": "0206f793a209bcb54157868bd63ec2c6"}, {"bike_id": "56bef985ef4317a7663eecfd30066b0e", "type": "electric_scooter", "is_disabled": 0, "lat": 38.9181195, "rental_uris": {"ios": "https://dc.lft.to/lastmile_qr_scan", "android": "https://dc.lft.to/lastmile_qr_scan"}, "is_reserved": 0, "fusion_lon": 0.0, "fusion_lat": 0.0, "lon": -77.02479933333333, "name": "56bef985ef4317a7663eecfd30066b0e"}, {"bike_id": "30e479956a463be249642040befaa25f", "type": "electric_scooter", "is_disabled": 0, "lat": 38.92676216666667, "rental_uris": {"ios": "https://dc.lft.to/lastmile_qr_scan", "android": "https://dc.lft.to/lastmile_qr_scan"}, "is_reserved": 0, "fusion_lon": 0.0, "fusion_lat": 0.0, "lon": -77.03564333333334, "name": "30e479956a463be249642040befaa25f"}, {"bike_id": "fac474b456a6aa73e68de139f74831d9", "type": "electric_scooter", "is_disabled": 0, "lat": 38.88404116666667, "rental_uris": {"ios": "https://dc.lft.to/lastmile_qr_scan", "android": "https://dc.lft.to/lastmile_qr_scan"}, "is_reserved": 0, "fusion_lon": 0.0, "fusion_lat": 0.0, "lon": -77.01769533333334, "name": "fac474b456a6aa73e68de139f74831d9"}, {"bike_id": "15a7480910af8c7b46b305fe52190d59", "type": "electric_scooter", "is_disabled": 0, "lat": 38.9170745, "rental_uris": {"ios": "https://dc.lft.to/lastmile_qr_scan", "android": "https://dc.lft.to/lastmile_qr_scan"}, "is_reserved": 0, "fusion_lon": 0.0, "fusion_lat": 0.0, "lon": -77.09576166666666, "name": "15a7480910af8c7b46b305fe52190d59"}, {"bike_id": "31450dcea341f752ea86f572dd1062b5", "type": "electric_scooter", "is_disabled": 0, "lat": 38.8771185, "rental_uris": {"ios": "https://dc.lft.to/lastmile_qr_scan", "android": "https://dc.lft.to/lastmile_qr_scan"}, "is_reserved": 0, "fusion_lon": 0.0, "fusion_lat": 0.0, "lon": -77.01876583333333, "name": "31450dcea341f752ea86f572dd1062b5"}, {"bike_id": "cb78e1dec2852a0e23ddf65cf708fc59", "type": "electric_scooter", "is_disabled": 0, "lat": 38.866567833333335, "rental_uris": {"ios": "https://dc.lft.to/lastmile_qr_scan", "android": "https://dc.lft.to/lastmile_qr_scan"}, "is_reserved": 0, "fusion_lon": 0.0, "fusion_lat": 0.0, "lon": -76.98889616666666, "name": "cb78e1dec2852a0e23ddf65cf708fc59"}, {"bike_id": "0ffec31c679899e254144d3f2aa7896c", "type": "electric_scooter", "is_disabled": 0, "lat": 38.93401166666666, "rental_uris": {"ios": "https://dc.lft.to/lastmile_qr_scan", "android": "https://dc.lft.to/lastmile_qr_scan"}, "is_reserved": 0, "fusion_lon": 0.0, "fusion_lat": 0.0, "lon": -77.02210116666667, "name": "0ffec31c679899e254144d3f2aa7896c"}, {"bike_id": "e04d73475d9da4ba570489cf48fb0222", "type": "electric_scooter", "is_disabled": 0, "lat": 38.91422016666667, "rental_uris": {"ios": "https://dc.lft.to/lastmile_qr_scan", "android": "https://dc.lft.to/lastmile_qr_scan"}, "is_reserved": 0, "fusion_lon": 0.0, "fusion_lat": 0.0, "lon": -77.04813033333333, "name": "e04d73475d9da4ba570489cf48fb0222"}, {"bike_id": "d40b02bb5d4d4962b9d7c4c2f029b65b", "type": "electric_scooter", "is_disabled": 0, "lat": 38.86980783333333, "rental_uris": {"ios": "https://dc.lft.to/lastmile_qr_scan", "android": "https://dc.lft.to/lastmile_qr_scan"}, "is_reserved": 0, "fusion_lon": 0.0, "fusion_lat": 0.0, "lon": -76.9817635, "name": "d40b02bb5d4d4962b9d7c4c2f029b65b"}, {"bike_id": "eb7db1064cbe50bd4d6378097a9f5d8e", "type": "electric_bike", "is_disabled": 0, "lat": 38.91022433333333, "rental_uris": {"ios": "https://dc.lft.to/lastmile_qr_scan", "android": "https://dc.lft.to/lastmile_qr_scan"}, "is_reserved": 0, "fusion_lon": 0.0, "fusion_lat": 0.0, "lon": -77.22798866666666, "name": "eb7db1064cbe50bd4d6378097a9f5d8e"}, {"bike_id": "28f932abddc5f5ec3666191b498de26e", "type": "electric_scooter", "is_disabled": 0, "lat": 38.922845, "rental_uris": {"ios": "https://dc.lft.to/lastmile_qr_scan", "android": "https://dc.lft.to/lastmile_qr_scan"}, "is_reserved": 0, "fusion_lon": 0.0, "fusion_lat": 0.0, "lon": -77.0224245, "name": "28f932abddc5f5ec3666191b498de26e"}, {"bike_id": "39b0416be42894849a598130933f3a3d", "type": "electric_scooter", "is_disabled": 0, "lat": 38.924487166666665, "rental_uris": {"ios": "https://dc.lft.to/lastmile_qr_scan", "android": "https://dc.lft.to/lastmile_qr_scan"}, "is_reserved": 0, "fusion_lon": 0.0, "fusion_lat": 0.0, "lon": -77.040228, "name": "39b0416be42894849a598130933f3a3d"}, {"bike_id": "f1ed5ed63e624b3af7660b6f30bb086b", "type": "electric_bike", "is_disabled": 0, "lat": 38.880642, "rental_uris": {"ios": "https://dc.lft.to/lastmile_qr_scan", "android": "https://dc.lft.to/lastmile_qr_scan"}, "is_reserved": 0, "fusion_lon": 0.0, "fusion_lat": 0.0, "lon": -76.96242033333333, "name": "f1ed5ed63e624b3af7660b6f30bb086b"}, {"bike_id": "8d1b06c117bb20088b50bb6361655200", "type": "electric_bike", "is_disabled": 0, "lat": 38.87270683333333, "rental_uris": {"ios": "https://dc.lft.to/lastmile_qr_scan", "android": "https://dc.lft.to/lastmile_qr_scan"}, "is_reserved": 0, "fusion_lon": 0.0, "fusion_lat": 0.0, "lon": -77.23248633333333, "name": "8d1b06c117bb20088b50bb6361655200"}, {"bike_id": "d2cc07633119feab75d4ffa3378c08fe", "type": "electric_scooter", "is_disabled": 0, "lat": 38.90194316666667, "rental_uris": {"ios": "https://dc.lft.to/lastmile_qr_scan", "android": "https://dc.lft.to/lastmile_qr_scan"}, "is_reserved": 0, "fusion_lon": 0.0, "fusion_lat": 0.0, "lon": -77.0403145, "name": "d2cc07633119feab75d4ffa3378c08fe"}, {"bike_id": "209f596db0fed30abb8fa6b76bfaa11e", "type": "electric_scooter", "is_disabled": 0, "lat": 38.9479315, "rental_uris": {"ios": "https://dc.lft.to/lastmile_qr_scan", "android": "https://dc.lft.to/lastmile_qr_scan"}, "is_reserved": 0, "fusion_lon": 0.0, "fusion_lat": 0.0, "lon": -77.02137533333334, "name": "209f596db0fed30abb8fa6b76bfaa11e"}, {"bike_id": "0514d177b1bd346020e431bde0bb9def", "type": "electric_scooter", "is_disabled": 0, "lat": 38.91212516666667, "rental_uris": {"ios": "https://dc.lft.to/lastmile_qr_scan", "android": "https://dc.lft.to/lastmile_qr_scan"}, "is_reserved": 0, "fusion_lon": 0.0, "fusion_lat": 0.0, "lon": -77.03840066666666, "name": "0514d177b1bd346020e431bde0bb9def"}, {"bike_id": "40249821f7ad43d32a4f9e3265a6bac0", "type": "electric_scooter", "is_disabled": 0, "lat": 38.93303, "rental_uris": {"ios": "https://dc.lft.to/lastmile_qr_scan", "android": "https://dc.lft.to/lastmile_qr_scan"}, "is_reserved": 0, "fusion_lon": 0.0, "fusion_lat": 0.0, "lon": -77.03263083333333, "name": "40249821f7ad43d32a4f9e3265a6bac0"}, {"bike_id": "ca626229839983cf9f0908d5696cda0a", "type": "electric_scooter", "is_disabled": 0, "lat": 38.90570116666667, "rental_uris": {"ios": "https://dc.lft.to/lastmile_qr_scan", "android": "https://dc.lft.to/lastmile_qr_scan"}, "is_reserved": 0, "fusion_lon": 0.0, "fusion_lat": 0.0, "lon": -77.00410216666667, "name": "ca626229839983cf9f0908d5696cda0a"}, {"bike_id": "97617559a3d62bdb847e03c7bd1252a9", "type": "electric_scooter", "is_disabled": 0, "lat": 38.9130255, "rental_uris": {"ios": "https://dc.lft.to/lastmile_qr_scan", "android": "https://dc.lft.to/lastmile_qr_scan"}, "is_reserved": 0, "fusion_lon": 0.0, "fusion_lat": 0.0, "lon": -77.04529733333334, "name": "97617559a3d62bdb847e03c7bd1252a9"}, {"bike_id": "79a52d9d116ad7be748e43656b5b2104", "type": "electric_bike", "is_disabled": 0, "lat": 38.99606383333333, "rental_uris": {"ios": "https://dc.lft.to/lastmile_qr_scan", "android": "https://dc.lft.to/lastmile_qr_scan"}, "is_reserved": 0, "fusion_lon": 0.0, "fusion_lat": 0.0, "lon": -77.02682383333334, "name": "79a52d9d116ad7be748e43656b5b2104"}, {"bike_id": "e8768b23bb26d02d3f50fe5e2b67344b", "type": "electric_scooter", "is_disabled": 0, "lat": 38.89242083333333, "rental_uris": {"ios": "https://dc.lft.to/lastmile_qr_scan", "android": "https://dc.lft.to/lastmile_qr_scan"}, "is_reserved": 0, "fusion_lon": 0.0, "fusion_lat": 0.0, "lon": -77.02205916666666, "name": "e8768b23bb26d02d3f50fe5e2b67344b"}, {"bike_id": "47ebc7e2bf0ded387fc9af020abe1d21", "type": "electric_scooter", "is_disabled": 0, "lat": 38.901393166666665, "rental_uris": {"ios": "https://dc.lft.to/lastmile_qr_scan", "android": "https://dc.lft.to/lastmile_qr_scan"}, "is_reserved": 0, "fusion_lon": 0.0, "fusion_lat": 0.0, "lon": -77.000793, "name": "47ebc7e2bf0ded387fc9af020abe1d21"}, {"bike_id": "f96e59cecebc155521717897d2d70556", "type": "electric_scooter", "is_disabled": 0, "lat": 38.915060833333335, "rental_uris": {"ios": "https://dc.lft.to/lastmile_qr_scan", "android": "https://dc.lft.to/lastmile_qr_scan"}, "is_reserved": 0, "fusion_lon": 0.0, "fusion_lat": 0.0, "lon": -77.01776483333333, "name": "f96e59cecebc155521717897d2d70556"}, {"bike_id": "3814c7f235e6ee8b19d5a0c13cd81d94", "type": "electric_scooter", "is_disabled": 0, "lat": 38.92452983333333, "rental_uris": {"ios": "https://dc.lft.to/lastmile_qr_scan", "android": "https://dc.lft.to/lastmile_qr_scan"}, "is_reserved": 0, "fusion_lon": 0.0, "fusion_lat": 0.0, "lon": -77.04396816666667, "name": "3814c7f235e6ee8b19d5a0c13cd81d94"}, {"bike_id": "4fd2e3322295fbf5860bb3f3338e7b42", "type": "electric_scooter", "is_disabled": 0, "lat": 38.918531, "rental_uris": {"ios": "https://dc.lft.to/lastmile_qr_scan", "android": "https://dc.lft.to/lastmile_qr_scan"}, "is_reserved": 0, "fusion_lon": 0.0, "fusion_lat": 0.0, "lon": -76.96557416666667, "name": "4fd2e3322295fbf5860bb3f3338e7b42"}, {"bike_id": "c7c2aad8bcc2ae0edeca1b660f149aba", "type": "electric_scooter", "is_disabled": 0, "lat": 38.886499, "rental_uris": {"ios": "https://dc.lft.to/lastmile_qr_scan", "android": "https://dc.lft.to/lastmile_qr_scan"}, "is_reserved": 0, "fusion_lon": 0.0, "fusion_lat": 0.0, "lon": -77.00117833333333, "name": "c7c2aad8bcc2ae0edeca1b660f149aba"}, {"bike_id": "c1c39d7f42fe019ec708aa4f4a08c3d1", "type": "electric_scooter", "is_disabled": 0, "lat": 38.90717266666667, "rental_uris": {"ios": "https://dc.lft.to/lastmile_qr_scan", "android": "https://dc.lft.to/lastmile_qr_scan"}, "is_reserved": 0, "fusion_lon": 0.0, "fusion_lat": 0.0, "lon": -77.03947716666667, "name": "c1c39d7f42fe019ec708aa4f4a08c3d1"}, {"bike_id": "6622ec3b7785f1034422ba86b3a5ceb7", "type": "electric_scooter", "is_disabled": 0, "lat": 38.915518, "rental_uris": {"ios": "https://dc.lft.to/lastmile_qr_scan", "android": "https://dc.lft.to/lastmile_qr_scan"}, "is_reserved": 0, "fusion_lon": 0.0, "fusion_lat": 0.0, "lon": -77.04008716666667, "name": "6622ec3b7785f1034422ba86b3a5ceb7"}, {"bike_id": "170e435523ac1bf0613ab2b6ca3dc0dc", "type": "electric_scooter", "is_disabled": 0, "lat": 38.90164383333333, "rental_uris": {"ios": "https://dc.lft.to/lastmile_qr_scan", "android": "https://dc.lft.to/lastmile_qr_scan"}, "is_reserved": 0, "fusion_lon": 0.0, "fusion_lat": 0.0, "lon": -76.930223, "name": "170e435523ac1bf0613ab2b6ca3dc0dc"}, {"bike_id": "d2f366b6150b8b24c7661a2b77264622", "type": "electric_bike", "is_disabled": 0, "lat": 38.798547666666664, "rental_uris": {"ios": "https://dc.lft.to/lastmile_qr_scan", "android": "https://dc.lft.to/lastmile_qr_scan"}, "is_reserved": 0, "fusion_lon": 0.0, "fusion_lat": 0.0, "lon": -77.0630555, "name": "d2f366b6150b8b24c7661a2b77264622"}, {"bike_id": "938f38181a4f0367b940e0c6a3a49b51", "type": "electric_scooter", "is_disabled": 0, "lat": 38.93243116666667, "rental_uris": {"ios": "https://dc.lft.to/lastmile_qr_scan", "android": "https://dc.lft.to/lastmile_qr_scan"}, "is_reserved": 0, "fusion_lon": 0.0, "fusion_lat": 0.0, "lon": -77.03874733333333, "name": "938f38181a4f0367b940e0c6a3a49b51"}, {"bike_id": "d0cb7ec75b043faeee8a311b83d6a1f6", "type": "electric_scooter", "is_disabled": 0, "lat": 38.956531166666664, "rental_uris": {"ios": "https://dc.lft.to/lastmile_qr_scan", "android": "https://dc.lft.to/lastmile_qr_scan"}, "is_reserved": 0, "fusion_lon": 0.0, "fusion_lat": 0.0, "lon": -77.01003183333333, "name": "d0cb7ec75b043faeee8a311b83d6a1f6"}, {"bike_id": "9cd55d9535fdca2ddebcb00afe00e615", "type": "electric_scooter", "is_disabled": 0, "lat": 38.887014, "rental_uris": {"ios": "https://dc.lft.to/lastmile_qr_scan", "android": "https://dc.lft.to/lastmile_qr_scan"}, "is_reserved": 0, "fusion_lon": 0.0, "fusion_lat": 0.0, "lon": -76.99613133333334, "name": "9cd55d9535fdca2ddebcb00afe00e615"}, {"bike_id": "3b2af9b55f58fa4da4f46fb0fd023857", "type": "electric_scooter", "is_disabled": 0, "lat": 38.95626733333334, "rental_uris": {"ios": "https://dc.lft.to/lastmile_qr_scan", "android": "https://dc.lft.to/lastmile_qr_scan"}, "is_reserved": 0, "fusion_lon": 0.0, "fusion_lat": 0.0, "lon": -77.011669, "name": "3b2af9b55f58fa4da4f46fb0fd023857"}, {"bike_id": "820e9d50ed889549c27fc39c9d8f7315", "type": "electric_scooter", "is_disabled": 0, "lat": 38.905212666666664, "rental_uris": {"ios": "https://dc.lft.to/lastmile_qr_scan", "android": "https://dc.lft.to/lastmile_qr_scan"}, "is_reserved": 0, "fusion_lon": 0.0, "fusion_lat": 0.0, "lon": -77.06380616666667, "name": "820e9d50ed889549c27fc39c9d8f7315"}, {"bike_id": "761c4c424b81863ea52a7204ba7fd100", "type": "electric_bike", "is_disabled": 0, "lat": 38.8747935, "rental_uris": {"ios": "https://dc.lft.to/lastmile_qr_scan", "android": "https://dc.lft.to/lastmile_qr_scan"}, "is_reserved": 0, "fusion_lon": 0.0, "fusion_lat": 0.0, "lon": -76.96527133333333, "name": "761c4c424b81863ea52a7204ba7fd100"}, {"bike_id": "3432ba01c35e9313c3e37a5105537a90", "type": "electric_scooter", "is_disabled": 0, "lat": 38.90051883333334, "rental_uris": {"ios": "https://dc.lft.to/lastmile_qr_scan", "android": "https://dc.lft.to/lastmile_qr_scan"}, "is_reserved": 0, "fusion_lon": 0.0, "fusion_lat": 0.0, "lon": -77.012327, "name": "3432ba01c35e9313c3e37a5105537a90"}, {"bike_id": "5a0a674ae2010895c093c050fd2b43e5", "type": "electric_scooter", "is_disabled": 0, "lat": 38.9163055, "rental_uris": {"ios": "https://dc.lft.to/lastmile_qr_scan", "android": "https://dc.lft.to/lastmile_qr_scan"}, "is_reserved": 0, "fusion_lon": 0.0, "fusion_lat": 0.0, "lon": -77.03963583333334, "name": "5a0a674ae2010895c093c050fd2b43e5"}, {"bike_id": "9bed300710150be503ca4f0b3f1fdd16", "type": "electric_scooter", "is_disabled": 0, "lat": 38.90995, "rental_uris": {"ios": "https://dc.lft.to/lastmile_qr_scan", "android": "https://dc.lft.to/lastmile_qr_scan"}, "is_reserved": 0, "fusion_lon": 0.0, "fusion_lat": 0.0, "lon": -77.04006266666667, "name": "9bed300710150be503ca4f0b3f1fdd16"}, {"bike_id": "6657f9920052363ac33b7a23746f6f45", "type": "electric_scooter", "is_disabled": 0, "lat": 38.923392666666665, "rental_uris": {"ios": "https://dc.lft.to/lastmile_qr_scan", "android": "https://dc.lft.to/lastmile_qr_scan"}, "is_reserved": 0, "fusion_lon": 0.0, "fusion_lat": 0.0, "lon": -77.05252766666666, "name": "6657f9920052363ac33b7a23746f6f45"}, {"bike_id": "be6f946a81eaa4c06a3dd1bec01889ef", "type": "electric_scooter", "is_disabled": 0, "lat": 38.9013785, "rental_uris": {"ios": "https://dc.lft.to/lastmile_qr_scan", "android": "https://dc.lft.to/lastmile_qr_scan"}, "is_reserved": 0, "fusion_lon": 0.0, "fusion_lat": 0.0, "lon": -77.0161345, "name": "be6f946a81eaa4c06a3dd1bec01889ef"}, {"bike_id": "b4541ea4ab0a61cbef50d6a23e4a97b7", "type": "electric_scooter", "is_disabled": 0, "lat": 38.92863466666667, "rental_uris": {"ios": "https://dc.lft.to/lastmile_qr_scan", "android": "https://dc.lft.to/lastmile_qr_scan"}, "is_reserved": 0, "fusion_lon": 0.0, "fusion_lat": 0.0, "lon": -77.0344215, "name": "b4541ea4ab0a61cbef50d6a23e4a97b7"}, {"bike_id": "8ffdec2e6a93545e020c085c84ee4323", "type": "electric_scooter", "is_disabled": 0, "lat": 38.931916666666666, "rental_uris": {"ios": "https://dc.lft.to/lastmile_qr_scan", "android": "https://dc.lft.to/lastmile_qr_scan"}, "is_reserved": 0, "fusion_lon": 0.0, "fusion_lat": 0.0, "lon": -77.02023266666667, "name": "8ffdec2e6a93545e020c085c84ee4323"}, {"bike_id": "3724f48b96cf03a809dec45e1da991e5", "type": "electric_scooter", "is_disabled": 0, "lat": 38.867225, "rental_uris": {"ios": "https://dc.lft.to/lastmile_qr_scan", "android": "https://dc.lft.to/lastmile_qr_scan"}, "is_reserved": 0, "fusion_lon": 0.0, "fusion_lat": 0.0, "lon": -77.0102145, "name": "3724f48b96cf03a809dec45e1da991e5"}, {"bike_id": "381b89561ae7fa1c8bc8987a4e9f9ecd", "type": "electric_scooter", "is_disabled": 0, "lat": 38.924413, "rental_uris": {"ios": "https://dc.lft.to/lastmile_qr_scan", "android": "https://dc.lft.to/lastmile_qr_scan"}, "is_reserved": 0, "fusion_lon": 0.0, "fusion_lat": 0.0, "lon": -77.04025433333334, "name": "381b89561ae7fa1c8bc8987a4e9f9ecd"}, {"bike_id": "86020a227970c363a3b167bf43f6ab12", "type": "electric_scooter", "is_disabled": 0, "lat": 38.91797783333333, "rental_uris": {"ios": "https://dc.lft.to/lastmile_qr_scan", "android": "https://dc.lft.to/lastmile_qr_scan"}, "is_reserved": 0, "fusion_lon": 0.0, "fusion_lat": 0.0, "lon": -77.03197166666666, "name": "86020a227970c363a3b167bf43f6ab12"}, {"bike_id": "e97e2ae661debb62c79ae8ad5bc6e6a5", "type": "electric_bike", "is_disabled": 0, "lat": 38.89612283333334, "rental_uris": {"ios": "https://dc.lft.to/lastmile_qr_scan", "android": "https://dc.lft.to/lastmile_qr_scan"}, "is_reserved": 0, "fusion_lon": 0.0, "fusion_lat": 0.0, "lon": -76.90735583333333, "name": "e97e2ae661debb62c79ae8ad5bc6e6a5"}, {"bike_id": "6e2db75cca32d5357764faa503b8cec5", "type": "electric_scooter", "is_disabled": 0, "lat": 38.90976666666667, "rental_uris": {"ios": "https://dc.lft.to/lastmile_qr_scan", "android": "https://dc.lft.to/lastmile_qr_scan"}, "is_reserved": 0, "fusion_lon": 0.0, "fusion_lat": 0.0, "lon": -77.02200766666667, "name": "6e2db75cca32d5357764faa503b8cec5"}, {"bike_id": "3b88e6114365e1e831749515fc01bf32", "type": "electric_scooter", "is_disabled": 0, "lat": 38.9177935, "rental_uris": {"ios": "https://dc.lft.to/lastmile_qr_scan", "android": "https://dc.lft.to/lastmile_qr_scan"}, "is_reserved": 0, "fusion_lon": 0.0, "fusion_lat": 0.0, "lon": -77.03175516666667, "name": "3b88e6114365e1e831749515fc01bf32"}, {"bike_id": "5d61704e8648096a35e0d642951f82f3", "type": "electric_scooter", "is_disabled": 0, "lat": 38.895989666666665, "rental_uris": {"ios": "https://dc.lft.to/lastmile_qr_scan", "android": "https://dc.lft.to/lastmile_qr_scan"}, "is_reserved": 0, "fusion_lon": 0.0, "fusion_lat": 0.0, "lon": -77.02210733333334, "name": "5d61704e8648096a35e0d642951f82f3"}, {"bike_id": "0ade1ff0d5e37e3c6863d8ae1e439fa6", "type": "electric_scooter", "is_disabled": 0, "lat": 38.90390633333333, "rental_uris": {"ios": "https://dc.lft.to/lastmile_qr_scan", "android": "https://dc.lft.to/lastmile_qr_scan"}, "is_reserved": 0, "fusion_lon": 0.0, "fusion_lat": 0.0, "lon": -77.0242665, "name": "0ade1ff0d5e37e3c6863d8ae1e439fa6"}, {"bike_id": "0eb8dcfe6761daf82fbf3c4992506311", "type": "electric_scooter", "is_disabled": 0, "lat": 38.924121, "rental_uris": {"ios": "https://dc.lft.to/lastmile_qr_scan", "android": "https://dc.lft.to/lastmile_qr_scan"}, "is_reserved": 0, "fusion_lon": 0.0, "fusion_lat": 0.0, "lon": -77.0200555, "name": "0eb8dcfe6761daf82fbf3c4992506311"}, {"bike_id": "f66b44f4e7d262303f99908ed7cba399", "type": "electric_scooter", "is_disabled": 0, "lat": 38.918443, "rental_uris": {"ios": "https://dc.lft.to/lastmile_qr_scan", "android": "https://dc.lft.to/lastmile_qr_scan"}, "is_reserved": 0, "fusion_lon": 0.0, "fusion_lat": 0.0, "lon": -76.96555916666667, "name": "f66b44f4e7d262303f99908ed7cba399"}, {"bike_id": "1221819b7b9a91b88853568cbe5b6bec", "type": "electric_scooter", "is_disabled": 0, "lat": 38.9473555, "rental_uris": {"ios": "https://dc.lft.to/lastmile_qr_scan", "android": "https://dc.lft.to/lastmile_qr_scan"}, "is_reserved": 0, "fusion_lon": 0.0, "fusion_lat": 0.0, "lon": -77.07865233333334, "name": "1221819b7b9a91b88853568cbe5b6bec"}, {"bike_id": "231233ed33dd7367f79a0006cbeb4ef3", "type": "electric_scooter", "is_disabled": 0, "lat": 38.9041675, "rental_uris": {"ios": "https://dc.lft.to/lastmile_qr_scan", "android": "https://dc.lft.to/lastmile_qr_scan"}, "is_reserved": 0, "fusion_lon": 0.0, "fusion_lat": 0.0, "lon": -76.97328966666667, "name": "231233ed33dd7367f79a0006cbeb4ef3"}, {"bike_id": "c4aa39e2e5f9a5808305f5a4cfe29d3f", "type": "electric_scooter", "is_disabled": 0, "lat": 38.915605166666666, "rental_uris": {"ios": "https://dc.lft.to/lastmile_qr_scan", "android": "https://dc.lft.to/lastmile_qr_scan"}, "is_reserved": 0, "fusion_lon": 0.0, "fusion_lat": 0.0, "lon": -77.0312535, "name": "c4aa39e2e5f9a5808305f5a4cfe29d3f"}, {"bike_id": "cfee554b745fa0778e97373700d22b91", "type": "electric_bike", "is_disabled": 0, "lat": 38.996755666666665, "rental_uris": {"ios": "https://dc.lft.to/lastmile_qr_scan", "android": "https://dc.lft.to/lastmile_qr_scan"}, "is_reserved": 0, "fusion_lon": 0.0, "fusion_lat": 0.0, "lon": -77.03794133333334, "name": "cfee554b745fa0778e97373700d22b91"}, {"bike_id": "09f3c433cf1acf7c52e55dc9d9db7a89", "type": "electric_scooter", "is_disabled": 0, "lat": 38.87559366666667, "rental_uris": {"ios": "https://dc.lft.to/lastmile_qr_scan", "android": "https://dc.lft.to/lastmile_qr_scan"}, "is_reserved": 0, "fusion_lon": 0.0, "fusion_lat": 0.0, "lon": -76.95867116666666, "name": "09f3c433cf1acf7c52e55dc9d9db7a89"}, {"bike_id": "8bb8dcc3434daf5d1cdef9f13d58c303", "type": "electric_scooter", "is_disabled": 0, "lat": 38.91538333333333, "rental_uris": {"ios": "https://dc.lft.to/lastmile_qr_scan", "android": "https://dc.lft.to/lastmile_qr_scan"}, "is_reserved": 0, "fusion_lon": 0.0, "fusion_lat": 0.0, "lon": -77.01841683333333, "name": "8bb8dcc3434daf5d1cdef9f13d58c303"}, {"bike_id": "a04d4ec1dafaf7f837e4a0d199955e15", "type": "electric_bike", "is_disabled": 0, "lat": 39.03705266666667, "rental_uris": {"ios": "https://dc.lft.to/lastmile_qr_scan", "android": "https://dc.lft.to/lastmile_qr_scan"}, "is_reserved": 0, "fusion_lon": 0.0, "fusion_lat": 0.0, "lon": -77.02861133333333, "name": "a04d4ec1dafaf7f837e4a0d199955e15"}, {"bike_id": "8df640aca021a866164ad11211407ca9", "type": "electric_scooter", "is_disabled": 0, "lat": 38.9224905, "rental_uris": {"ios": "https://dc.lft.to/lastmile_qr_scan", "android": "https://dc.lft.to/lastmile_qr_scan"}, "is_reserved": 0, "fusion_lon": 0.0, "fusion_lat": 0.0, "lon": -77.0427205, "name": "8df640aca021a866164ad11211407ca9"}, {"bike_id": "fbab6016b44e822cfa8e2e34a53f8f2e", "type": "electric_scooter", "is_disabled": 0, "lat": 38.90649533333333, "rental_uris": {"ios": "https://dc.lft.to/lastmile_qr_scan", "android": "https://dc.lft.to/lastmile_qr_scan"}, "is_reserved": 0, "fusion_lon": 0.0, "fusion_lat": 0.0, "lon": -77.05156116666667, "name": "fbab6016b44e822cfa8e2e34a53f8f2e"}, {"bike_id": "a291be813c3464345737dd2dd08ed715", "type": "electric_scooter", "is_disabled": 0, "lat": 38.919799, "rental_uris": {"ios": "https://dc.lft.to/lastmile_qr_scan", "android": "https://dc.lft.to/lastmile_qr_scan"}, "is_reserved": 0, "fusion_lon": 0.0, "fusion_lat": 0.0, "lon": -77.03982466666666, "name": "a291be813c3464345737dd2dd08ed715"}, {"bike_id": "2d67753daedb2f3232f9a2802ece85b9", "type": "electric_scooter", "is_disabled": 0, "lat": 38.92289433333333, "rental_uris": {"ios": "https://dc.lft.to/lastmile_qr_scan", "android": "https://dc.lft.to/lastmile_qr_scan"}, "is_reserved": 0, "fusion_lon": 0.0, "fusion_lat": 0.0, "lon": -77.02240266666666, "name": "2d67753daedb2f3232f9a2802ece85b9"}, {"bike_id": "e06b35adda7f83c6faedb9ed7b166999", "type": "electric_scooter", "is_disabled": 0, "lat": 38.90866316666666, "rental_uris": {"ios": "https://dc.lft.to/lastmile_qr_scan", "android": "https://dc.lft.to/lastmile_qr_scan"}, "is_reserved": 0, "fusion_lon": 0.0, "fusion_lat": 0.0, "lon": -76.99954366666667, "name": "e06b35adda7f83c6faedb9ed7b166999"}, {"bike_id": "8fa15dc00e45f49883d73522e020b8e2", "type": "electric_bike", "is_disabled": 0, "lat": 38.83825066666667, "rental_uris": {"ios": "https://dc.lft.to/lastmile_qr_scan", "android": "https://dc.lft.to/lastmile_qr_scan"}, "is_reserved": 0, "fusion_lon": 0.0, "fusion_lat": 0.0, "lon": -77.07925333333333, "name": "8fa15dc00e45f49883d73522e020b8e2"}, {"bike_id": "ebc3318c34ad829fa6c909b9bcedd71d", "type": "electric_scooter", "is_disabled": 0, "lat": 38.901867333333335, "rental_uris": {"ios": "https://dc.lft.to/lastmile_qr_scan", "android": "https://dc.lft.to/lastmile_qr_scan"}, "is_reserved": 0, "fusion_lon": 0.0, "fusion_lat": 0.0, "lon": -77.0126995, "name": "ebc3318c34ad829fa6c909b9bcedd71d"}, {"bike_id": "72919cc307d226527b996763a6b97228", "type": "electric_scooter", "is_disabled": 0, "lat": 38.939181166666664, "rental_uris": {"ios": "https://dc.lft.to/lastmile_qr_scan", "android": "https://dc.lft.to/lastmile_qr_scan"}, "is_reserved": 0, "fusion_lon": 0.0, "fusion_lat": 0.0, "lon": -77.06050616666667, "name": "72919cc307d226527b996763a6b97228"}, {"bike_id": "afb079b556e4bada4b6e35aab0b71ca0", "type": "electric_scooter", "is_disabled": 0, "lat": 38.917040666666665, "rental_uris": {"ios": "https://dc.lft.to/lastmile_qr_scan", "android": "https://dc.lft.to/lastmile_qr_scan"}, "is_reserved": 0, "fusion_lon": 0.0, "fusion_lat": 0.0, "lon": -77.02386683333333, "name": "afb079b556e4bada4b6e35aab0b71ca0"}, {"bike_id": "768d51bb946fc4b3b47ad6bac2df90fe", "type": "electric_scooter", "is_disabled": 0, "lat": 38.92147883333333, "rental_uris": {"ios": "https://dc.lft.to/lastmile_qr_scan", "android": "https://dc.lft.to/lastmile_qr_scan"}, "is_reserved": 0, "fusion_lon": 0.0, "fusion_lat": 0.0, "lon": -77.03319316666666, "name": "768d51bb946fc4b3b47ad6bac2df90fe"}, {"bike_id": "a1cd80c65ef329f1472580a3aacbf82d", "type": "electric_scooter", "is_disabled": 0, "lat": 38.8873485, "rental_uris": {"ios": "https://dc.lft.to/lastmile_qr_scan", "android": "https://dc.lft.to/lastmile_qr_scan"}, "is_reserved": 0, "fusion_lon": 0.0, "fusion_lat": 0.0, "lon": -77.02833416666667, "name": "a1cd80c65ef329f1472580a3aacbf82d"}, {"bike_id": "6999be58035fa62449d83d2b555df2f8", "type": "electric_scooter", "is_disabled": 0, "lat": 38.915716, "rental_uris": {"ios": "https://dc.lft.to/lastmile_qr_scan", "android": "https://dc.lft.to/lastmile_qr_scan"}, "is_reserved": 0, "fusion_lon": 0.0, "fusion_lat": 0.0, "lon": -77.020168, "name": "6999be58035fa62449d83d2b555df2f8"}, {"bike_id": "63a1774f3ea3e7466afe260d9ad52523", "type": "electric_scooter", "is_disabled": 0, "lat": 38.91416316666667, "rental_uris": {"ios": "https://dc.lft.to/lastmile_qr_scan", "android": "https://dc.lft.to/lastmile_qr_scan"}, "is_reserved": 0, "fusion_lon": 0.0, "fusion_lat": 0.0, "lon": -77.012349, "name": "63a1774f3ea3e7466afe260d9ad52523"}, {"bike_id": "ee37b43eabc2569e5e9c940e904c03e7", "type": "electric_scooter", "is_disabled": 0, "lat": 38.838255, "rental_uris": {"ios": "https://dc.lft.to/lastmile_qr_scan", "android": "https://dc.lft.to/lastmile_qr_scan"}, "is_reserved": 0, "fusion_lon": 0.0, "fusion_lat": 0.0, "lon": -77.002704, "name": "ee37b43eabc2569e5e9c940e904c03e7"}, {"bike_id": "3b66f15355e1685d1d77ab96af5f8e13", "type": "electric_scooter", "is_disabled": 0, "lat": 38.925006333333336, "rental_uris": {"ios": "https://dc.lft.to/lastmile_qr_scan", "android": "https://dc.lft.to/lastmile_qr_scan"}, "is_reserved": 0, "fusion_lon": 0.0, "fusion_lat": 0.0, "lon": -77.02153683333333, "name": "3b66f15355e1685d1d77ab96af5f8e13"}, {"bike_id": "53c9d1c51fd43bb0a2c1866b63e05b50", "type": "electric_scooter", "is_disabled": 0, "lat": 38.91757966666667, "rental_uris": {"ios": "https://dc.lft.to/lastmile_qr_scan", "android": "https://dc.lft.to/lastmile_qr_scan"}, "is_reserved": 0, "fusion_lon": 0.0, "fusion_lat": 0.0, "lon": -77.024873, "name": "53c9d1c51fd43bb0a2c1866b63e05b50"}, {"bike_id": "6b88b8958ae372d47c6d1c8e837e8135", "type": "electric_scooter", "is_disabled": 0, "lat": 38.904594333333335, "rental_uris": {"ios": "https://dc.lft.to/lastmile_qr_scan", "android": "https://dc.lft.to/lastmile_qr_scan"}, "is_reserved": 0, "fusion_lon": 0.0, "fusion_lat": 0.0, "lon": -77.0073835, "name": "6b88b8958ae372d47c6d1c8e837e8135"}, {"bike_id": "7328e66b2b99047bd24a4d67e8de06ec", "type": "electric_scooter", "is_disabled": 0, "lat": 38.8967005, "rental_uris": {"ios": "https://dc.lft.to/lastmile_qr_scan", "android": "https://dc.lft.to/lastmile_qr_scan"}, "is_reserved": 0, "fusion_lon": 0.0, "fusion_lat": 0.0, "lon": -77.02386666666666, "name": "7328e66b2b99047bd24a4d67e8de06ec"}, {"bike_id": "5cad3ede956544f72cd48cc6b14faf0a", "type": "electric_scooter", "is_disabled": 0, "lat": 38.919520166666665, "rental_uris": {"ios": "https://dc.lft.to/lastmile_qr_scan", "android": "https://dc.lft.to/lastmile_qr_scan"}, "is_reserved": 0, "fusion_lon": 0.0, "fusion_lat": 0.0, "lon": -77.025258, "name": "5cad3ede956544f72cd48cc6b14faf0a"}, {"bike_id": "d628341b5174da980e535e41bce8d6e8", "type": "electric_scooter", "is_disabled": 0, "lat": 38.88676066666667, "rental_uris": {"ios": "https://dc.lft.to/lastmile_qr_scan", "android": "https://dc.lft.to/lastmile_qr_scan"}, "is_reserved": 0, "fusion_lon": 0.0, "fusion_lat": 0.0, "lon": -76.98782133333333, "name": "d628341b5174da980e535e41bce8d6e8"}, {"bike_id": "5ead9d006ecd44f17ee6b576284b3e17", "type": "electric_scooter", "is_disabled": 0, "lat": 38.892224666666664, "rental_uris": {"ios": "https://dc.lft.to/lastmile_qr_scan", "android": "https://dc.lft.to/lastmile_qr_scan"}, "is_reserved": 0, "fusion_lon": 0.0, "fusion_lat": 0.0, "lon": -77.04311766666666, "name": "5ead9d006ecd44f17ee6b576284b3e17"}, {"bike_id": "4f693d6603685c835f3e16b7e1fefcae", "type": "electric_scooter", "is_disabled": 0, "lat": 38.905645, "rental_uris": {"ios": "https://dc.lft.to/lastmile_qr_scan", "android": "https://dc.lft.to/lastmile_qr_scan"}, "is_reserved": 0, "fusion_lon": 0.0, "fusion_lat": 0.0, "lon": -77.0179235, "name": "4f693d6603685c835f3e16b7e1fefcae"}, {"bike_id": "58e0b71faa732461dfc7c176eea81a0a", "type": "electric_scooter", "is_disabled": 0, "lat": 38.9072095, "rental_uris": {"ios": "https://dc.lft.to/lastmile_qr_scan", "android": "https://dc.lft.to/lastmile_qr_scan"}, "is_reserved": 0, "fusion_lon": 0.0, "fusion_lat": 0.0, "lon": -77.04344383333333, "name": "58e0b71faa732461dfc7c176eea81a0a"}, {"bike_id": "aa3781873f0455aa5192e043bf68ef5f", "type": "electric_scooter", "is_disabled": 0, "lat": 38.887123333333335, "rental_uris": {"ios": "https://dc.lft.to/lastmile_qr_scan", "android": "https://dc.lft.to/lastmile_qr_scan"}, "is_reserved": 0, "fusion_lon": 0.0, "fusion_lat": 0.0, "lon": -77.0317995, "name": "aa3781873f0455aa5192e043bf68ef5f"}, {"bike_id": "66fb4c0fe6e72b5b57ff7e0b23a825e2", "type": "electric_scooter", "is_disabled": 0, "lat": 38.902801833333335, "rental_uris": {"ios": "https://dc.lft.to/lastmile_qr_scan", "android": "https://dc.lft.to/lastmile_qr_scan"}, "is_reserved": 0, "fusion_lon": 0.0, "fusion_lat": 0.0, "lon": -77.03438, "name": "66fb4c0fe6e72b5b57ff7e0b23a825e2"}, {"bike_id": "59a32482947349e03d620416ac9be6af", "type": "electric_scooter", "is_disabled": 0, "lat": 38.922486166666665, "rental_uris": {"ios": "https://dc.lft.to/lastmile_qr_scan", "android": "https://dc.lft.to/lastmile_qr_scan"}, "is_reserved": 0, "fusion_lon": 0.0, "fusion_lat": 0.0, "lon": -77.04267116666666, "name": "59a32482947349e03d620416ac9be6af"}, {"bike_id": "88d777e4c8e13b73392aa9c85783c5db", "type": "electric_scooter", "is_disabled": 0, "lat": 38.928658, "rental_uris": {"ios": "https://dc.lft.to/lastmile_qr_scan", "android": "https://dc.lft.to/lastmile_qr_scan"}, "is_reserved": 0, "fusion_lon": 0.0, "fusion_lat": 0.0, "lon": -77.03710883333333, "name": "88d777e4c8e13b73392aa9c85783c5db"}, {"bike_id": "642e056d7645cbd48d52306a9a3a93d3", "type": "electric_scooter", "is_disabled": 0, "lat": 38.90357816666667, "rental_uris": {"ios": "https://dc.lft.to/lastmile_qr_scan", "android": "https://dc.lft.to/lastmile_qr_scan"}, "is_reserved": 0, "fusion_lon": 0.0, "fusion_lat": 0.0, "lon": -77.00745566666667, "name": "642e056d7645cbd48d52306a9a3a93d3"}, {"bike_id": "5ef5fb063956b026a6eeb0a2995fc393", "type": "electric_scooter", "is_disabled": 0, "lat": 38.9127395, "rental_uris": {"ios": "https://dc.lft.to/lastmile_qr_scan", "android": "https://dc.lft.to/lastmile_qr_scan"}, "is_reserved": 0, "fusion_lon": 0.0, "fusion_lat": 0.0, "lon": -77.02210033333333, "name": "5ef5fb063956b026a6eeb0a2995fc393"}, {"bike_id": "e3f297983fbf31f4716724ae58e55de2", "type": "electric_scooter", "is_disabled": 0, "lat": 38.92197433333333, "rental_uris": {"ios": "https://dc.lft.to/lastmile_qr_scan", "android": "https://dc.lft.to/lastmile_qr_scan"}, "is_reserved": 0, "fusion_lon": 0.0, "fusion_lat": 0.0, "lon": -77.038011, "name": "e3f297983fbf31f4716724ae58e55de2"}, {"bike_id": "4233dfef7742c11558c2bce82ba0c6d3", "type": "electric_scooter", "is_disabled": 0, "lat": 38.91818133333334, "rental_uris": {"ios": "https://dc.lft.to/lastmile_qr_scan", "android": "https://dc.lft.to/lastmile_qr_scan"}, "is_reserved": 0, "fusion_lon": 0.0, "fusion_lat": 0.0, "lon": -77.00256933333333, "name": "4233dfef7742c11558c2bce82ba0c6d3"}, {"bike_id": "f246bd2f3a9a94b71b20c6499b3013f0", "type": "electric_bike", "is_disabled": 0, "lat": 38.94897566666667, "rental_uris": {"ios": "https://dc.lft.to/lastmile_qr_scan", "android": "https://dc.lft.to/lastmile_qr_scan"}, "is_reserved": 0, "fusion_lon": 0.0, "fusion_lat": 0.0, "lon": -76.96379233333333, "name": "f246bd2f3a9a94b71b20c6499b3013f0"}, {"bike_id": "787d6c382499ede880ad6edfd757a6db", "type": "electric_scooter", "is_disabled": 0, "lat": 38.914090333333334, "rental_uris": {"ios": "https://dc.lft.to/lastmile_qr_scan", "android": "https://dc.lft.to/lastmile_qr_scan"}, "is_reserved": 0, "fusion_lon": 0.0, "fusion_lat": 0.0, "lon": -77.042255, "name": "787d6c382499ede880ad6edfd757a6db"}, {"bike_id": "efc74637c1b72742ecc8a212c383ea00", "type": "electric_scooter", "is_disabled": 0, "lat": 38.9177545, "rental_uris": {"ios": "https://dc.lft.to/lastmile_qr_scan", "android": "https://dc.lft.to/lastmile_qr_scan"}, "is_reserved": 0, "fusion_lon": 0.0, "fusion_lat": 0.0, "lon": -77.04765266666666, "name": "efc74637c1b72742ecc8a212c383ea00"}, {"bike_id": "64ca5f88f06b4f7c5daf767adc123ea2", "type": "electric_scooter", "is_disabled": 0, "lat": 38.912671833333334, "rental_uris": {"ios": "https://dc.lft.to/lastmile_qr_scan", "android": "https://dc.lft.to/lastmile_qr_scan"}, "is_reserved": 0, "fusion_lon": 0.0, "fusion_lat": 0.0, "lon": -77.02210183333334, "name": "64ca5f88f06b4f7c5daf767adc123ea2"}, {"bike_id": "ca80a67124dfaf9fa17cc3c9df00f9cd", "type": "electric_scooter", "is_disabled": 0, "lat": 38.915094333333336, "rental_uris": {"ios": "https://dc.lft.to/lastmile_qr_scan", "android": "https://dc.lft.to/lastmile_qr_scan"}, "is_reserved": 0, "fusion_lon": 0.0, "fusion_lat": 0.0, "lon": -77.0318235, "name": "ca80a67124dfaf9fa17cc3c9df00f9cd"}, {"bike_id": "3d9f7062946d3b1198033bbfb97d2f34", "type": "electric_scooter", "is_disabled": 0, "lat": 38.90050933333333, "rental_uris": {"ios": "https://dc.lft.to/lastmile_qr_scan", "android": "https://dc.lft.to/lastmile_qr_scan"}, "is_reserved": 0, "fusion_lon": 0.0, "fusion_lat": 0.0, "lon": -77.03388516666666, "name": "3d9f7062946d3b1198033bbfb97d2f34"}, {"bike_id": "01126053618e0fa2f1eeaf18b30b5a14", "type": "electric_scooter", "is_disabled": 0, "lat": 38.899575, "rental_uris": {"ios": "https://dc.lft.to/lastmile_qr_scan", "android": "https://dc.lft.to/lastmile_qr_scan"}, "is_reserved": 0, "fusion_lon": 0.0, "fusion_lat": 0.0, "lon": -77.01506716666667, "name": "01126053618e0fa2f1eeaf18b30b5a14"}, {"bike_id": "3b6c38ddb87d0bd9abdd9cd157872c0d", "type": "electric_scooter", "is_disabled": 0, "lat": 38.93036883333333, "rental_uris": {"ios": "https://dc.lft.to/lastmile_qr_scan", "android": "https://dc.lft.to/lastmile_qr_scan"}, "is_reserved": 0, "fusion_lon": 0.0, "fusion_lat": 0.0, "lon": -77.01823733333333, "name": "3b6c38ddb87d0bd9abdd9cd157872c0d"}, {"bike_id": "ba82fcf9fab117feef274097cfe96458", "type": "electric_scooter", "is_disabled": 0, "lat": 38.882197166666664, "rental_uris": {"ios": "https://dc.lft.to/lastmile_qr_scan", "android": "https://dc.lft.to/lastmile_qr_scan"}, "is_reserved": 0, "fusion_lon": 0.0, "fusion_lat": 0.0, "lon": -77.02905416666667, "name": "ba82fcf9fab117feef274097cfe96458"}, {"bike_id": "6c1725a216ffa07d86f0358e09476446", "type": "electric_scooter", "is_disabled": 0, "lat": 38.91843216666667, "rental_uris": {"ios": "https://dc.lft.to/lastmile_qr_scan", "android": "https://dc.lft.to/lastmile_qr_scan"}, "is_reserved": 0, "fusion_lon": 0.0, "fusion_lat": 0.0, "lon": -76.965617, "name": "6c1725a216ffa07d86f0358e09476446"}, {"bike_id": "aa0c7eab3616d0bfe57c88c338441499", "type": "electric_scooter", "is_disabled": 0, "lat": 38.901908166666665, "rental_uris": {"ios": "https://dc.lft.to/lastmile_qr_scan", "android": "https://dc.lft.to/lastmile_qr_scan"}, "is_reserved": 0, "fusion_lon": 0.0, "fusion_lat": 0.0, "lon": -76.9969025, "name": "aa0c7eab3616d0bfe57c88c338441499"}, {"bike_id": "47f8264fe1cf6a6d622fd179c1691cd3", "type": "electric_scooter", "is_disabled": 0, "lat": 38.8843495, "rental_uris": {"ios": "https://dc.lft.to/lastmile_qr_scan", "android": "https://dc.lft.to/lastmile_qr_scan"}, "is_reserved": 0, "fusion_lon": 0.0, "fusion_lat": 0.0, "lon": -76.95757266666666, "name": "47f8264fe1cf6a6d622fd179c1691cd3"}, {"bike_id": "8b3ae9c5322f01eaf3cbcaa8937d8076", "type": "electric_scooter", "is_disabled": 0, "lat": 38.9081385, "rental_uris": {"ios": "https://dc.lft.to/lastmile_qr_scan", "android": "https://dc.lft.to/lastmile_qr_scan"}, "is_reserved": 0, "fusion_lon": 0.0, "fusion_lat": 0.0, "lon": -77.02602583333334, "name": "8b3ae9c5322f01eaf3cbcaa8937d8076"}, {"bike_id": "3b3439246c28c5aecee39336e67025ed", "type": "electric_bike", "is_disabled": 0, "lat": 38.86515766666667, "rental_uris": {"ios": "https://dc.lft.to/lastmile_qr_scan", "android": "https://dc.lft.to/lastmile_qr_scan"}, "is_reserved": 0, "fusion_lon": 0.0, "fusion_lat": 0.0, "lon": -77.12933683333333, "name": "3b3439246c28c5aecee39336e67025ed"}, {"bike_id": "21398ca795400673a19a970cac321852", "type": "electric_scooter", "is_disabled": 0, "lat": 38.89220816666667, "rental_uris": {"ios": "https://dc.lft.to/lastmile_qr_scan", "android": "https://dc.lft.to/lastmile_qr_scan"}, "is_reserved": 0, "fusion_lon": 0.0, "fusion_lat": 0.0, "lon": -77.043099, "name": "21398ca795400673a19a970cac321852"}, {"bike_id": "3ef00905dd8ff832b7bc64b074b2084b", "type": "electric_bike", "is_disabled": 0, "lat": 38.803916, "rental_uris": {"ios": "https://dc.lft.to/lastmile_qr_scan", "android": "https://dc.lft.to/lastmile_qr_scan"}, "is_reserved": 0, "fusion_lon": 0.0, "fusion_lat": 0.0, "lon": -77.05566483333334, "name": "3ef00905dd8ff832b7bc64b074b2084b"}, {"bike_id": "711a8c47c263605657da960818f15632", "type": "electric_scooter", "is_disabled": 0, "lat": 38.876304833333336, "rental_uris": {"ios": "https://dc.lft.to/lastmile_qr_scan", "android": "https://dc.lft.to/lastmile_qr_scan"}, "is_reserved": 0, "fusion_lon": 0.0, "fusion_lat": 0.0, "lon": -77.0096, "name": "711a8c47c263605657da960818f15632"}, {"bike_id": "e79e05f870dff5680481dcfb7001f28c", "type": "electric_scooter", "is_disabled": 0, "lat": 38.90051733333333, "rental_uris": {"ios": "https://dc.lft.to/lastmile_qr_scan", "android": "https://dc.lft.to/lastmile_qr_scan"}, "is_reserved": 0, "fusion_lon": 0.0, "fusion_lat": 0.0, "lon": -77.050665, "name": "e79e05f870dff5680481dcfb7001f28c"}, {"bike_id": "faa85ba33561c8fefa556d1668f9cfd4", "type": "electric_scooter", "is_disabled": 0, "lat": 38.89701433333333, "rental_uris": {"ios": "https://dc.lft.to/lastmile_qr_scan", "android": "https://dc.lft.to/lastmile_qr_scan"}, "is_reserved": 0, "fusion_lon": 0.0, "fusion_lat": 0.0, "lon": -76.929945, "name": "faa85ba33561c8fefa556d1668f9cfd4"}, {"bike_id": "ca9135d7eaa6b38ab746ae5097fef7c6", "type": "electric_scooter", "is_disabled": 0, "lat": 38.900278666666665, "rental_uris": {"ios": "https://dc.lft.to/lastmile_qr_scan", "android": "https://dc.lft.to/lastmile_qr_scan"}, "is_reserved": 0, "fusion_lon": 0.0, "fusion_lat": 0.0, "lon": -77.041557, "name": "ca9135d7eaa6b38ab746ae5097fef7c6"}, {"bike_id": "aac33c786da4b67d1a06d2b29038789d", "type": "electric_scooter", "is_disabled": 0, "lat": 38.942048666666665, "rental_uris": {"ios": "https://dc.lft.to/lastmile_qr_scan", "android": "https://dc.lft.to/lastmile_qr_scan"}, "is_reserved": 0, "fusion_lon": 0.0, "fusion_lat": 0.0, "lon": -77.02591533333333, "name": "aac33c786da4b67d1a06d2b29038789d"}, {"bike_id": "c00d4fb650f9f4c15b62220e0a87ce0a", "type": "electric_scooter", "is_disabled": 0, "lat": 38.91554566666667, "rental_uris": {"ios": "https://dc.lft.to/lastmile_qr_scan", "android": "https://dc.lft.to/lastmile_qr_scan"}, "is_reserved": 0, "fusion_lon": 0.0, "fusion_lat": 0.0, "lon": -77.02133166666667, "name": "c00d4fb650f9f4c15b62220e0a87ce0a"}, {"bike_id": "fa18a1d3081d59c5b615aa1b5cc9cc2b", "type": "electric_scooter", "is_disabled": 0, "lat": 38.908458, "rental_uris": {"ios": "https://dc.lft.to/lastmile_qr_scan", "android": "https://dc.lft.to/lastmile_qr_scan"}, "is_reserved": 0, "fusion_lon": 0.0, "fusion_lat": 0.0, "lon": -77.02059966666667, "name": "fa18a1d3081d59c5b615aa1b5cc9cc2b"}, {"bike_id": "a0fc2513ecf4762d1daa2c3189edd727", "type": "electric_scooter", "is_disabled": 0, "lat": 38.90175883333333, "rental_uris": {"ios": "https://dc.lft.to/lastmile_qr_scan", "android": "https://dc.lft.to/lastmile_qr_scan"}, "is_reserved": 0, "fusion_lon": 0.0, "fusion_lat": 0.0, "lon": -76.9844975, "name": "a0fc2513ecf4762d1daa2c3189edd727"}, {"bike_id": "c79f0974efe9a78110732148685fee0f", "type": "electric_scooter", "is_disabled": 0, "lat": 38.91555666666667, "rental_uris": {"ios": "https://dc.lft.to/lastmile_qr_scan", "android": "https://dc.lft.to/lastmile_qr_scan"}, "is_reserved": 0, "fusion_lon": 0.0, "fusion_lat": 0.0, "lon": -77.020473, "name": "c79f0974efe9a78110732148685fee0f"}, {"bike_id": "d2aec4eccce42e635c5e44e753ba15ca", "type": "electric_scooter", "is_disabled": 0, "lat": 38.924532, "rental_uris": {"ios": "https://dc.lft.to/lastmile_qr_scan", "android": "https://dc.lft.to/lastmile_qr_scan"}, "is_reserved": 0, "fusion_lon": 0.0, "fusion_lat": 0.0, "lon": -77.02416916666667, "name": "d2aec4eccce42e635c5e44e753ba15ca"}, {"bike_id": "ebda5d7c5af57b7de20b15ace0640efc", "type": "electric_scooter", "is_disabled": 0, "lat": 38.8665685, "rental_uris": {"ios": "https://dc.lft.to/lastmile_qr_scan", "android": "https://dc.lft.to/lastmile_qr_scan"}, "is_reserved": 0, "fusion_lon": 0.0, "fusion_lat": 0.0, "lon": -76.98886033333334, "name": "ebda5d7c5af57b7de20b15ace0640efc"}, {"bike_id": "2f022d56a23dd4de3825a9049e68dbc0", "type": "electric_scooter", "is_disabled": 0, "lat": 38.865639, "rental_uris": {"ios": "https://dc.lft.to/lastmile_qr_scan", "android": "https://dc.lft.to/lastmile_qr_scan"}, "is_reserved": 0, "fusion_lon": 0.0, "fusion_lat": 0.0, "lon": -76.98212133333334, "name": "2f022d56a23dd4de3825a9049e68dbc0"}, {"bike_id": "eb99525e2d8411d429e97347cf1fa670", "type": "electric_scooter", "is_disabled": 0, "lat": 38.900431833333336, "rental_uris": {"ios": "https://dc.lft.to/lastmile_qr_scan", "android": "https://dc.lft.to/lastmile_qr_scan"}, "is_reserved": 0, "fusion_lon": 0.0, "fusion_lat": 0.0, "lon": -76.988148, "name": "eb99525e2d8411d429e97347cf1fa670"}, {"bike_id": "2b1748c4621c91816c2f2e6ae3aa0790", "type": "electric_scooter", "is_disabled": 0, "lat": 38.93167433333333, "rental_uris": {"ios": "https://dc.lft.to/lastmile_qr_scan", "android": "https://dc.lft.to/lastmile_qr_scan"}, "is_reserved": 0, "fusion_lon": 0.0, "fusion_lat": 0.0, "lon": -76.9961475, "name": "2b1748c4621c91816c2f2e6ae3aa0790"}, {"bike_id": "890dcbf570046f61554ff786fdcbe6d2", "type": "electric_scooter", "is_disabled": 0, "lat": 38.909686, "rental_uris": {"ios": "https://dc.lft.to/lastmile_qr_scan", "android": "https://dc.lft.to/lastmile_qr_scan"}, "is_reserved": 0, "fusion_lon": 0.0, "fusion_lat": 0.0, "lon": -77.02389916666667, "name": "890dcbf570046f61554ff786fdcbe6d2"}, {"bike_id": "dc620413061d73466c8791801c15264a", "type": "electric_scooter", "is_disabled": 0, "lat": 38.942921, "rental_uris": {"ios": "https://dc.lft.to/lastmile_qr_scan", "android": "https://dc.lft.to/lastmile_qr_scan"}, "is_reserved": 0, "fusion_lon": 0.0, "fusion_lat": 0.0, "lon": -77.02172316666666, "name": "dc620413061d73466c8791801c15264a"}, {"bike_id": "5bebfa9da5832c8949eafc8ec721ca87", "type": "electric_scooter", "is_disabled": 0, "lat": 38.91818416666667, "rental_uris": {"ios": "https://dc.lft.to/lastmile_qr_scan", "android": "https://dc.lft.to/lastmile_qr_scan"}, "is_reserved": 0, "fusion_lon": 0.0, "fusion_lat": 0.0, "lon": -77.02708383333334, "name": "5bebfa9da5832c8949eafc8ec721ca87"}, {"bike_id": "ec6fd83c15fdf5e638354e75e1022faf", "type": "electric_scooter", "is_disabled": 0, "lat": 38.933420166666664, "rental_uris": {"ios": "https://dc.lft.to/lastmile_qr_scan", "android": "https://dc.lft.to/lastmile_qr_scan"}, "is_reserved": 0, "fusion_lon": 0.0, "fusion_lat": 0.0, "lon": -77.039782, "name": "ec6fd83c15fdf5e638354e75e1022faf"}, {"bike_id": "67c886cd05596cbb52c0fc25aea314ac", "type": "electric_scooter", "is_disabled": 0, "lat": 38.92235816666667, "rental_uris": {"ios": "https://dc.lft.to/lastmile_qr_scan", "android": "https://dc.lft.to/lastmile_qr_scan"}, "is_reserved": 0, "fusion_lon": 0.0, "fusion_lat": 0.0, "lon": -77.0271635, "name": "67c886cd05596cbb52c0fc25aea314ac"}, {"bike_id": "4d3d8606541f87bdff253c001281b817", "type": "electric_scooter", "is_disabled": 0, "lat": 38.89355483333333, "rental_uris": {"ios": "https://dc.lft.to/lastmile_qr_scan", "android": "https://dc.lft.to/lastmile_qr_scan"}, "is_reserved": 0, "fusion_lon": 0.0, "fusion_lat": 0.0, "lon": -77.02217133333333, "name": "4d3d8606541f87bdff253c001281b817"}, {"bike_id": "0b2b0ad3dbd770ada6951c960e73f85a", "type": "electric_bike", "is_disabled": 0, "lat": 38.85425633333333, "rental_uris": {"ios": "https://dc.lft.to/lastmile_qr_scan", "android": "https://dc.lft.to/lastmile_qr_scan"}, "is_reserved": 0, "fusion_lon": 0.0, "fusion_lat": 0.0, "lon": -77.120788, "name": "0b2b0ad3dbd770ada6951c960e73f85a"}, {"bike_id": "1e90ddf0b8edc4df6dee311abec3f119", "type": "electric_scooter", "is_disabled": 0, "lat": 38.9042305, "rental_uris": {"ios": "https://dc.lft.to/lastmile_qr_scan", "android": "https://dc.lft.to/lastmile_qr_scan"}, "is_reserved": 0, "fusion_lon": 0.0, "fusion_lat": 0.0, "lon": -76.97372849999999, "name": "1e90ddf0b8edc4df6dee311abec3f119"}, {"bike_id": "a5f0b54c230d6d2d168c46b57e90e110", "type": "electric_scooter", "is_disabled": 0, "lat": 38.90755333333333, "rental_uris": {"ios": "https://dc.lft.to/lastmile_qr_scan", "android": "https://dc.lft.to/lastmile_qr_scan"}, "is_reserved": 0, "fusion_lon": 0.0, "fusion_lat": 0.0, "lon": -77.00235633333334, "name": "a5f0b54c230d6d2d168c46b57e90e110"}, {"bike_id": "e6b6a94775b5898562eb1f1c809637f7", "type": "electric_scooter", "is_disabled": 0, "lat": 38.897203, "rental_uris": {"ios": "https://dc.lft.to/lastmile_qr_scan", "android": "https://dc.lft.to/lastmile_qr_scan"}, "is_reserved": 0, "fusion_lon": 0.0, "fusion_lat": 0.0, "lon": -77.0270615, "name": "e6b6a94775b5898562eb1f1c809637f7"}, {"bike_id": "bb688787a612e4992acfe6934edc6356", "type": "electric_scooter", "is_disabled": 0, "lat": 38.90125966666667, "rental_uris": {"ios": "https://dc.lft.to/lastmile_qr_scan", "android": "https://dc.lft.to/lastmile_qr_scan"}, "is_reserved": 0, "fusion_lon": 0.0, "fusion_lat": 0.0, "lon": -77.04058416666666, "name": "bb688787a612e4992acfe6934edc6356"}, {"bike_id": "07274828b00bc0dd6a4d5f5bcf3b9aa5", "type": "electric_scooter", "is_disabled": 0, "lat": 38.866844, "rental_uris": {"ios": "https://dc.lft.to/lastmile_qr_scan", "android": "https://dc.lft.to/lastmile_qr_scan"}, "is_reserved": 0, "fusion_lon": 0.0, "fusion_lat": 0.0, "lon": -76.9857835, "name": "07274828b00bc0dd6a4d5f5bcf3b9aa5"}, {"bike_id": "11494f56585cc2972489df47556419ef", "type": "electric_scooter", "is_disabled": 0, "lat": 38.9337365, "rental_uris": {"ios": "https://dc.lft.to/lastmile_qr_scan", "android": "https://dc.lft.to/lastmile_qr_scan"}, "is_reserved": 0, "fusion_lon": 0.0, "fusion_lat": 0.0, "lon": -77.0573035, "name": "11494f56585cc2972489df47556419ef"}, {"bike_id": "d3258e877d5b23aa92879c79b70e4dc2", "type": "electric_scooter", "is_disabled": 0, "lat": 38.933527166666664, "rental_uris": {"ios": "https://dc.lft.to/lastmile_qr_scan", "android": "https://dc.lft.to/lastmile_qr_scan"}, "is_reserved": 0, "fusion_lon": 0.0, "fusion_lat": 0.0, "lon": -76.99255633333334, "name": "d3258e877d5b23aa92879c79b70e4dc2"}, {"bike_id": "d151512ff4aa209e6bb844c5d87a1831", "type": "electric_bike", "is_disabled": 0, "lat": 38.948929, "rental_uris": {"ios": "https://dc.lft.to/lastmile_qr_scan", "android": "https://dc.lft.to/lastmile_qr_scan"}, "is_reserved": 0, "fusion_lon": 0.0, "fusion_lat": 0.0, "lon": -76.963738, "name": "d151512ff4aa209e6bb844c5d87a1831"}, {"bike_id": "f31144992c3a821778436855cb0b1b25", "type": "electric_scooter", "is_disabled": 0, "lat": 38.917665666666664, "rental_uris": {"ios": "https://dc.lft.to/lastmile_qr_scan", "android": "https://dc.lft.to/lastmile_qr_scan"}, "is_reserved": 0, "fusion_lon": 0.0, "fusion_lat": 0.0, "lon": -77.04588416666667, "name": "f31144992c3a821778436855cb0b1b25"}, {"bike_id": "42291be11310d6ebbbd17ae00e6d8a09", "type": "electric_scooter", "is_disabled": 0, "lat": 38.90799233333333, "rental_uris": {"ios": "https://dc.lft.to/lastmile_qr_scan", "android": "https://dc.lft.to/lastmile_qr_scan"}, "is_reserved": 0, "fusion_lon": 0.0, "fusion_lat": 0.0, "lon": -77.064033, "name": "42291be11310d6ebbbd17ae00e6d8a09"}, {"bike_id": "3f9fac6cdf64d540cba68b2b38bdbc8a", "type": "electric_scooter", "is_disabled": 0, "lat": 38.92158833333333, "rental_uris": {"ios": "https://dc.lft.to/lastmile_qr_scan", "android": "https://dc.lft.to/lastmile_qr_scan"}, "is_reserved": 0, "fusion_lon": 0.0, "fusion_lat": 0.0, "lon": -77.033801, "name": "3f9fac6cdf64d540cba68b2b38bdbc8a"}, {"bike_id": "51176bf12410f31f8534f0929b6c966f", "type": "electric_scooter", "is_disabled": 0, "lat": 38.910260666666666, "rental_uris": {"ios": "https://dc.lft.to/lastmile_qr_scan", "android": "https://dc.lft.to/lastmile_qr_scan"}, "is_reserved": 0, "fusion_lon": 0.0, "fusion_lat": 0.0, "lon": -77.03312566666666, "name": "51176bf12410f31f8534f0929b6c966f"}, {"bike_id": "036124a36a67b5e91498afc3ca361bbc", "type": "electric_scooter", "is_disabled": 0, "lat": 38.866820833333335, "rental_uris": {"ios": "https://dc.lft.to/lastmile_qr_scan", "android": "https://dc.lft.to/lastmile_qr_scan"}, "is_reserved": 0, "fusion_lon": 0.0, "fusion_lat": 0.0, "lon": -76.9858835, "name": "036124a36a67b5e91498afc3ca361bbc"}, {"bike_id": "52e12e9ef11a58b8cb3bee1a85157a97", "type": "electric_scooter", "is_disabled": 0, "lat": 38.90531466666667, "rental_uris": {"ios": "https://dc.lft.to/lastmile_qr_scan", "android": "https://dc.lft.to/lastmile_qr_scan"}, "is_reserved": 0, "fusion_lon": 0.0, "fusion_lat": 0.0, "lon": -77.05999916666667, "name": "52e12e9ef11a58b8cb3bee1a85157a97"}, {"bike_id": "e10db03193988968849a02b9183aa321", "type": "electric_scooter", "is_disabled": 0, "lat": 38.904740333333336, "rental_uris": {"ios": "https://dc.lft.to/lastmile_qr_scan", "android": "https://dc.lft.to/lastmile_qr_scan"}, "is_reserved": 0, "fusion_lon": 0.0, "fusion_lat": 0.0, "lon": -77.02961316666666, "name": "e10db03193988968849a02b9183aa321"}, {"bike_id": "fb0e6db3b2c5f96a05024c4075ebda12", "type": "electric_scooter", "is_disabled": 0, "lat": 38.90029933333334, "rental_uris": {"ios": "https://dc.lft.to/lastmile_qr_scan", "android": "https://dc.lft.to/lastmile_qr_scan"}, "is_reserved": 0, "fusion_lon": 0.0, "fusion_lat": 0.0, "lon": -77.000397, "name": "fb0e6db3b2c5f96a05024c4075ebda12"}, {"bike_id": "c47d94b01a842cb13a5cba249c9d1051", "type": "electric_scooter", "is_disabled": 0, "lat": 38.92221266666667, "rental_uris": {"ios": "https://dc.lft.to/lastmile_qr_scan", "android": "https://dc.lft.to/lastmile_qr_scan"}, "is_reserved": 0, "fusion_lon": 0.0, "fusion_lat": 0.0, "lon": -77.022155, "name": "c47d94b01a842cb13a5cba249c9d1051"}, {"bike_id": "3885d8028d42b1d504490b3388f76927", "type": "electric_scooter", "is_disabled": 0, "lat": 38.89298516666667, "rental_uris": {"ios": "https://dc.lft.to/lastmile_qr_scan", "android": "https://dc.lft.to/lastmile_qr_scan"}, "is_reserved": 0, "fusion_lon": 0.0, "fusion_lat": 0.0, "lon": -77.04165516666667, "name": "3885d8028d42b1d504490b3388f76927"}, {"bike_id": "977910225659f5fa23b315fbcc2d0941", "type": "electric_scooter", "is_disabled": 0, "lat": 38.911559833333335, "rental_uris": {"ios": "https://dc.lft.to/lastmile_qr_scan", "android": "https://dc.lft.to/lastmile_qr_scan"}, "is_reserved": 0, "fusion_lon": 0.0, "fusion_lat": 0.0, "lon": -77.02951733333333, "name": "977910225659f5fa23b315fbcc2d0941"}, {"bike_id": "d54a35b44a259bbfb28d57fe5b196cb9", "type": "electric_scooter", "is_disabled": 0, "lat": 38.917747, "rental_uris": {"ios": "https://dc.lft.to/lastmile_qr_scan", "android": "https://dc.lft.to/lastmile_qr_scan"}, "is_reserved": 0, "fusion_lon": 0.0, "fusion_lat": 0.0, "lon": -77.02950633333333, "name": "d54a35b44a259bbfb28d57fe5b196cb9"}, {"bike_id": "cdf30bb28860d362683c97dee05f5134", "type": "electric_scooter", "is_disabled": 0, "lat": 38.89237133333334, "rental_uris": {"ios": "https://dc.lft.to/lastmile_qr_scan", "android": "https://dc.lft.to/lastmile_qr_scan"}, "is_reserved": 0, "fusion_lon": 0.0, "fusion_lat": 0.0, "lon": -76.953257, "name": "cdf30bb28860d362683c97dee05f5134"}, {"bike_id": "ddfd6b2049eec1f61a454cdeb6b35037", "type": "electric_scooter", "is_disabled": 0, "lat": 38.865060166666666, "rental_uris": {"ios": "https://dc.lft.to/lastmile_qr_scan", "android": "https://dc.lft.to/lastmile_qr_scan"}, "is_reserved": 0, "fusion_lon": 0.0, "fusion_lat": 0.0, "lon": -76.99004116666667, "name": "ddfd6b2049eec1f61a454cdeb6b35037"}, {"bike_id": "54f0b372aad6a6a297c0380d007b9e25", "type": "electric_scooter", "is_disabled": 0, "lat": 38.938817666666665, "rental_uris": {"ios": "https://dc.lft.to/lastmile_qr_scan", "android": "https://dc.lft.to/lastmile_qr_scan"}, "is_reserved": 0, "fusion_lon": 0.0, "fusion_lat": 0.0, "lon": -77.03278916666666, "name": "54f0b372aad6a6a297c0380d007b9e25"}, {"bike_id": "fefef48cd942d60db6826f6d220baf80", "type": "electric_scooter", "is_disabled": 0, "lat": 38.93369083333333, "rental_uris": {"ios": "https://dc.lft.to/lastmile_qr_scan", "android": "https://dc.lft.to/lastmile_qr_scan"}, "is_reserved": 0, "fusion_lon": 0.0, "fusion_lat": 0.0, "lon": -77.05727666666667, "name": "fefef48cd942d60db6826f6d220baf80"}, {"bike_id": "5ed753b129498a3d084d6e872cf09275", "type": "electric_scooter", "is_disabled": 0, "lat": 38.91137533333333, "rental_uris": {"ios": "https://dc.lft.to/lastmile_qr_scan", "android": "https://dc.lft.to/lastmile_qr_scan"}, "is_reserved": 0, "fusion_lon": 0.0, "fusion_lat": 0.0, "lon": -77.0219395, "name": "5ed753b129498a3d084d6e872cf09275"}, {"bike_id": "fc992fb553efa891a6b9c79dc09a1b4f", "type": "electric_scooter", "is_disabled": 0, "lat": 38.92640016666667, "rental_uris": {"ios": "https://dc.lft.to/lastmile_qr_scan", "android": "https://dc.lft.to/lastmile_qr_scan"}, "is_reserved": 0, "fusion_lon": 0.0, "fusion_lat": 0.0, "lon": -77.01382866666667, "name": "fc992fb553efa891a6b9c79dc09a1b4f"}, {"bike_id": "6c4658b41b8e835f39e2334f22ae4c8f", "type": "electric_bike", "is_disabled": 0, "lat": 38.80914533333333, "rental_uris": {"ios": "https://dc.lft.to/lastmile_qr_scan", "android": "https://dc.lft.to/lastmile_qr_scan"}, "is_reserved": 0, "fusion_lon": 0.0, "fusion_lat": 0.0, "lon": -77.08664633333333, "name": "6c4658b41b8e835f39e2334f22ae4c8f"}, {"bike_id": "4ff1577840a9dc9bbf30223222a1efcb", "type": "electric_scooter", "is_disabled": 0, "lat": 38.878411666666665, "rental_uris": {"ios": "https://dc.lft.to/lastmile_qr_scan", "android": "https://dc.lft.to/lastmile_qr_scan"}, "is_reserved": 0, "fusion_lon": 0.0, "fusion_lat": 0.0, "lon": -77.00859383333334, "name": "4ff1577840a9dc9bbf30223222a1efcb"}, {"bike_id": "e7e1a8bb45888a0d69b2870869b8c64b", "type": "electric_scooter", "is_disabled": 0, "lat": 38.924763166666665, "rental_uris": {"ios": "https://dc.lft.to/lastmile_qr_scan", "android": "https://dc.lft.to/lastmile_qr_scan"}, "is_reserved": 0, "fusion_lon": 0.0, "fusion_lat": 0.0, "lon": -77.02833, "name": "e7e1a8bb45888a0d69b2870869b8c64b"}, {"bike_id": "4a64d692c5e30b61d2953a1aa4cc0448", "type": "electric_scooter", "is_disabled": 0, "lat": 38.929143, "rental_uris": {"ios": "https://dc.lft.to/lastmile_qr_scan", "android": "https://dc.lft.to/lastmile_qr_scan"}, "is_reserved": 0, "fusion_lon": 0.0, "fusion_lat": 0.0, "lon": -77.02089283333333, "name": "4a64d692c5e30b61d2953a1aa4cc0448"}, {"bike_id": "50540e9835a5f5380ea2929cbd3b84ea", "type": "electric_scooter", "is_disabled": 0, "lat": 38.907516, "rental_uris": {"ios": "https://dc.lft.to/lastmile_qr_scan", "android": "https://dc.lft.to/lastmile_qr_scan"}, "is_reserved": 0, "fusion_lon": 0.0, "fusion_lat": 0.0, "lon": -77.02391733333333, "name": "50540e9835a5f5380ea2929cbd3b84ea"}, {"bike_id": "6b88b8318e73e48db31207a7a2a431ca", "type": "electric_scooter", "is_disabled": 0, "lat": 38.90656833333333, "rental_uris": {"ios": "https://dc.lft.to/lastmile_qr_scan", "android": "https://dc.lft.to/lastmile_qr_scan"}, "is_reserved": 0, "fusion_lon": 0.0, "fusion_lat": 0.0, "lon": -77.01461583333334, "name": "6b88b8318e73e48db31207a7a2a431ca"}, {"bike_id": "932ec599677b531d23481d12ec3b8737", "type": "electric_scooter", "is_disabled": 0, "lat": 38.8988105, "rental_uris": {"ios": "https://dc.lft.to/lastmile_qr_scan", "android": "https://dc.lft.to/lastmile_qr_scan"}, "is_reserved": 0, "fusion_lon": 0.0, "fusion_lat": 0.0, "lon": -77.0268415, "name": "932ec599677b531d23481d12ec3b8737"}, {"bike_id": "04b4eb0e83242d108a9571c29cb45930", "type": "electric_scooter", "is_disabled": 0, "lat": 38.8668475, "rental_uris": {"ios": "https://dc.lft.to/lastmile_qr_scan", "android": "https://dc.lft.to/lastmile_qr_scan"}, "is_reserved": 0, "fusion_lon": 0.0, "fusion_lat": 0.0, "lon": -76.9857435, "name": "04b4eb0e83242d108a9571c29cb45930"}, {"bike_id": "55cd7b821e4982500f9d9be13a0e94ed", "type": "electric_scooter", "is_disabled": 0, "lat": 38.90606, "rental_uris": {"ios": "https://dc.lft.to/lastmile_qr_scan", "android": "https://dc.lft.to/lastmile_qr_scan"}, "is_reserved": 0, "fusion_lon": 0.0, "fusion_lat": 0.0, "lon": -77.0472695, "name": "55cd7b821e4982500f9d9be13a0e94ed"}, {"bike_id": "130e4f17452de31b0352ccc8f9ba4daa", "type": "electric_scooter", "is_disabled": 0, "lat": 38.91864616666667, "rental_uris": {"ios": "https://dc.lft.to/lastmile_qr_scan", "android": "https://dc.lft.to/lastmile_qr_scan"}, "is_reserved": 0, "fusion_lon": 0.0, "fusion_lat": 0.0, "lon": -77.04177416666667, "name": "130e4f17452de31b0352ccc8f9ba4daa"}, {"bike_id": "e2d048f37d8dd57c2d4cbf87cc9edaca", "type": "electric_scooter", "is_disabled": 0, "lat": 38.90250433333333, "rental_uris": {"ios": "https://dc.lft.to/lastmile_qr_scan", "android": "https://dc.lft.to/lastmile_qr_scan"}, "is_reserved": 0, "fusion_lon": 0.0, "fusion_lat": 0.0, "lon": -77.043257, "name": "e2d048f37d8dd57c2d4cbf87cc9edaca"}, {"bike_id": "48dc78ca6972d103001480120c6bb14d", "type": "electric_scooter", "is_disabled": 0, "lat": 38.8971915, "rental_uris": {"ios": "https://dc.lft.to/lastmile_qr_scan", "android": "https://dc.lft.to/lastmile_qr_scan"}, "is_reserved": 0, "fusion_lon": 0.0, "fusion_lat": 0.0, "lon": -77.02504183333333, "name": "48dc78ca6972d103001480120c6bb14d"}, {"bike_id": "ae2ae443dffc03d35354ec0fef958879", "type": "electric_scooter", "is_disabled": 0, "lat": 38.8884885, "rental_uris": {"ios": "https://dc.lft.to/lastmile_qr_scan", "android": "https://dc.lft.to/lastmile_qr_scan"}, "is_reserved": 0, "fusion_lon": 0.0, "fusion_lat": 0.0, "lon": -76.926788, "name": "ae2ae443dffc03d35354ec0fef958879"}, {"bike_id": "4e8ffdae34d51c9683bb4582d4cb7ab8", "type": "electric_scooter", "is_disabled": 0, "lat": 38.878679166666664, "rental_uris": {"ios": "https://dc.lft.to/lastmile_qr_scan", "android": "https://dc.lft.to/lastmile_qr_scan"}, "is_reserved": 0, "fusion_lon": 0.0, "fusion_lat": 0.0, "lon": -76.96985516666666, "name": "4e8ffdae34d51c9683bb4582d4cb7ab8"}, {"bike_id": "ec21b71ec7e08d4d080f18dc0be243af", "type": "electric_scooter", "is_disabled": 0, "lat": 38.94271166666667, "rental_uris": {"ios": "https://dc.lft.to/lastmile_qr_scan", "android": "https://dc.lft.to/lastmile_qr_scan"}, "is_reserved": 0, "fusion_lon": 0.0, "fusion_lat": 0.0, "lon": -77.03259383333334, "name": "ec21b71ec7e08d4d080f18dc0be243af"}, {"bike_id": "4838bcbdc4a44488e2f5d9f765d15891", "type": "electric_scooter", "is_disabled": 0, "lat": 38.874204, "rental_uris": {"ios": "https://dc.lft.to/lastmile_qr_scan", "android": "https://dc.lft.to/lastmile_qr_scan"}, "is_reserved": 0, "fusion_lon": 0.0, "fusion_lat": 0.0, "lon": -76.96907816666666, "name": "4838bcbdc4a44488e2f5d9f765d15891"}, {"bike_id": "3e816e50f9a512193d3e8728c06c6774", "type": "electric_scooter", "is_disabled": 0, "lat": 38.919804666666664, "rental_uris": {"ios": "https://dc.lft.to/lastmile_qr_scan", "android": "https://dc.lft.to/lastmile_qr_scan"}, "is_reserved": 0, "fusion_lon": 0.0, "fusion_lat": 0.0, "lon": -77.03967116666666, "name": "3e816e50f9a512193d3e8728c06c6774"}, {"bike_id": "f98f5f6ae781e5c7b2688694dd1f5d00", "type": "electric_scooter", "is_disabled": 0, "lat": 38.924709166666666, "rental_uris": {"ios": "https://dc.lft.to/lastmile_qr_scan", "android": "https://dc.lft.to/lastmile_qr_scan"}, "is_reserved": 0, "fusion_lon": 0.0, "fusion_lat": 0.0, "lon": -77.02831683333334, "name": "f98f5f6ae781e5c7b2688694dd1f5d00"}, {"bike_id": "eb715cc64d0a0fa37d599c2e57735bca", "type": "electric_scooter", "is_disabled": 0, "lat": 38.85468766666666, "rental_uris": {"ios": "https://dc.lft.to/lastmile_qr_scan", "android": "https://dc.lft.to/lastmile_qr_scan"}, "is_reserved": 0, "fusion_lon": 0.0, "fusion_lat": 0.0, "lon": -76.97232033333333, "name": "eb715cc64d0a0fa37d599c2e57735bca"}, {"bike_id": "f309aefb8a08899ec05f277f099d0f13", "type": "electric_scooter", "is_disabled": 0, "lat": 38.92240433333333, "rental_uris": {"ios": "https://dc.lft.to/lastmile_qr_scan", "android": "https://dc.lft.to/lastmile_qr_scan"}, "is_reserved": 0, "fusion_lon": 0.0, "fusion_lat": 0.0, "lon": -77.01809883333334, "name": "f309aefb8a08899ec05f277f099d0f13"}, {"bike_id": "3cbbc20766dae49f2ab49ba2127121e9", "type": "electric_scooter", "is_disabled": 0, "lat": 38.91598783333333, "rental_uris": {"ios": "https://dc.lft.to/lastmile_qr_scan", "android": "https://dc.lft.to/lastmile_qr_scan"}, "is_reserved": 0, "fusion_lon": 0.0, "fusion_lat": 0.0, "lon": -77.00198833333333, "name": "3cbbc20766dae49f2ab49ba2127121e9"}, {"bike_id": "753a65174da677625ba26779539785a9", "type": "electric_scooter", "is_disabled": 0, "lat": 38.923324, "rental_uris": {"ios": "https://dc.lft.to/lastmile_qr_scan", "android": "https://dc.lft.to/lastmile_qr_scan"}, "is_reserved": 0, "fusion_lon": 0.0, "fusion_lat": 0.0, "lon": -77.02963866666667, "name": "753a65174da677625ba26779539785a9"}, {"bike_id": "a85994e4b6b25c5654feb2711e268756", "type": "electric_scooter", "is_disabled": 0, "lat": 38.9214895, "rental_uris": {"ios": "https://dc.lft.to/lastmile_qr_scan", "android": "https://dc.lft.to/lastmile_qr_scan"}, "is_reserved": 0, "fusion_lon": 0.0, "fusion_lat": 0.0, "lon": -77.0344365, "name": "a85994e4b6b25c5654feb2711e268756"}, {"bike_id": "81f26187a8ad63eac45081116a80d44e", "type": "electric_scooter", "is_disabled": 0, "lat": 38.91554816666667, "rental_uris": {"ios": "https://dc.lft.to/lastmile_qr_scan", "android": "https://dc.lft.to/lastmile_qr_scan"}, "is_reserved": 0, "fusion_lon": 0.0, "fusion_lat": 0.0, "lon": -77.03319183333333, "name": "81f26187a8ad63eac45081116a80d44e"}, {"bike_id": "0d5ff5e3e9c5916143aed8848e75ffc1", "type": "electric_scooter", "is_disabled": 0, "lat": 38.912175166666664, "rental_uris": {"ios": "https://dc.lft.to/lastmile_qr_scan", "android": "https://dc.lft.to/lastmile_qr_scan"}, "is_reserved": 0, "fusion_lon": 0.0, "fusion_lat": 0.0, "lon": -77.02711416666666, "name": "0d5ff5e3e9c5916143aed8848e75ffc1"}, {"bike_id": "2954329ea2895b67fa0724182cd3dd3a", "type": "electric_scooter", "is_disabled": 0, "lat": 38.91917183333333, "rental_uris": {"ios": "https://dc.lft.to/lastmile_qr_scan", "android": "https://dc.lft.to/lastmile_qr_scan"}, "is_reserved": 0, "fusion_lon": 0.0, "fusion_lat": 0.0, "lon": -77.030254, "name": "2954329ea2895b67fa0724182cd3dd3a"}, {"bike_id": "d14ce1f3c070f3cb483fc8c4be5c1c6a", "type": "electric_scooter", "is_disabled": 0, "lat": 38.91415766666667, "rental_uris": {"ios": "https://dc.lft.to/lastmile_qr_scan", "android": "https://dc.lft.to/lastmile_qr_scan"}, "is_reserved": 0, "fusion_lon": 0.0, "fusion_lat": 0.0, "lon": -77.03993666666666, "name": "d14ce1f3c070f3cb483fc8c4be5c1c6a"}, {"bike_id": "b160e88319db1eb469942ca207139548", "type": "electric_scooter", "is_disabled": 0, "lat": 38.92861633333333, "rental_uris": {"ios": "https://dc.lft.to/lastmile_qr_scan", "android": "https://dc.lft.to/lastmile_qr_scan"}, "is_reserved": 0, "fusion_lon": 0.0, "fusion_lat": 0.0, "lon": -77.03295483333333, "name": "b160e88319db1eb469942ca207139548"}, {"bike_id": "04eca4324c6c70e681dca7d8702a454e", "type": "electric_scooter", "is_disabled": 0, "lat": 38.926998833333336, "rental_uris": {"ios": "https://dc.lft.to/lastmile_qr_scan", "android": "https://dc.lft.to/lastmile_qr_scan"}, "is_reserved": 0, "fusion_lon": 0.0, "fusion_lat": 0.0, "lon": -77.02068733333333, "name": "04eca4324c6c70e681dca7d8702a454e"}, {"bike_id": "6f48b474d19e5168cca32adbb92b152b", "type": "electric_scooter", "is_disabled": 0, "lat": 38.923578, "rental_uris": {"ios": "https://dc.lft.to/lastmile_qr_scan", "android": "https://dc.lft.to/lastmile_qr_scan"}, "is_reserved": 0, "fusion_lon": 0.0, "fusion_lat": 0.0, "lon": -77.07644816666667, "name": "6f48b474d19e5168cca32adbb92b152b"}, {"bike_id": "b84ec7d492e7a738c78375066a1ec77e", "type": "electric_bike", "is_disabled": 0, "lat": 38.969587833333335, "rental_uris": {"ios": "https://dc.lft.to/lastmile_qr_scan", "android": "https://dc.lft.to/lastmile_qr_scan"}, "is_reserved": 0, "fusion_lon": 0.0, "fusion_lat": 0.0, "lon": -76.957507, "name": "b84ec7d492e7a738c78375066a1ec77e"}, {"bike_id": "b91c842f835f3801212083cf9807019b", "type": "electric_scooter", "is_disabled": 0, "lat": 38.88303483333333, "rental_uris": {"ios": "https://dc.lft.to/lastmile_qr_scan", "android": "https://dc.lft.to/lastmile_qr_scan"}, "is_reserved": 0, "fusion_lon": 0.0, "fusion_lat": 0.0, "lon": -76.94211483333333, "name": "b91c842f835f3801212083cf9807019b"}, {"bike_id": "792a28def43015bb0a8741cf66afe215", "type": "electric_scooter", "is_disabled": 0, "lat": 38.903484666666664, "rental_uris": {"ios": "https://dc.lft.to/lastmile_qr_scan", "android": "https://dc.lft.to/lastmile_qr_scan"}, "is_reserved": 0, "fusion_lon": 0.0, "fusion_lat": 0.0, "lon": -77.01642016666666, "name": "792a28def43015bb0a8741cf66afe215"}, {"bike_id": "75367d20bd211d7c63267cbd8d8667f8", "type": "electric_scooter", "is_disabled": 0, "lat": 38.8520655, "rental_uris": {"ios": "https://dc.lft.to/lastmile_qr_scan", "android": "https://dc.lft.to/lastmile_qr_scan"}, "is_reserved": 0, "fusion_lon": 0.0, "fusion_lat": 0.0, "lon": -76.98560633333334, "name": "75367d20bd211d7c63267cbd8d8667f8"}, {"bike_id": "0776c5d5cb0586bf775ac99ba839c340", "type": "electric_scooter", "is_disabled": 0, "lat": 38.87120183333333, "rental_uris": {"ios": "https://dc.lft.to/lastmile_qr_scan", "android": "https://dc.lft.to/lastmile_qr_scan"}, "is_reserved": 0, "fusion_lon": 0.0, "fusion_lat": 0.0, "lon": -76.98241216666666, "name": "0776c5d5cb0586bf775ac99ba839c340"}, {"bike_id": "7850afa7688f03745ac4bca78399d349", "type": "electric_scooter", "is_disabled": 0, "lat": 38.907191833333336, "rental_uris": {"ios": "https://dc.lft.to/lastmile_qr_scan", "android": "https://dc.lft.to/lastmile_qr_scan"}, "is_reserved": 0, "fusion_lon": 0.0, "fusion_lat": 0.0, "lon": -77.04346766666667, "name": "7850afa7688f03745ac4bca78399d349"}, {"bike_id": "733ed8b59e75048b2790576b189b6e00", "type": "electric_bike", "is_disabled": 0, "lat": 38.819915333333334, "rental_uris": {"ios": "https://dc.lft.to/lastmile_qr_scan", "android": "https://dc.lft.to/lastmile_qr_scan"}, "is_reserved": 0, "fusion_lon": 0.0, "fusion_lat": 0.0, "lon": -76.998144, "name": "733ed8b59e75048b2790576b189b6e00"}, {"bike_id": "7750f0f043143c55113155dd66b4995b", "type": "electric_scooter", "is_disabled": 0, "lat": 38.9030425, "rental_uris": {"ios": "https://dc.lft.to/lastmile_qr_scan", "android": "https://dc.lft.to/lastmile_qr_scan"}, "is_reserved": 0, "fusion_lon": 0.0, "fusion_lat": 0.0, "lon": -77.048782, "name": "7750f0f043143c55113155dd66b4995b"}, {"bike_id": "a88cbd18e83ab3de0be0a7bdbf5e8b98", "type": "electric_scooter", "is_disabled": 0, "lat": 38.91655183333334, "rental_uris": {"ios": "https://dc.lft.to/lastmile_qr_scan", "android": "https://dc.lft.to/lastmile_qr_scan"}, "is_reserved": 0, "fusion_lon": 0.0, "fusion_lat": 0.0, "lon": -77.0242005, "name": "a88cbd18e83ab3de0be0a7bdbf5e8b98"}, {"bike_id": "9f4c9bdc61dd3fa226551079f7173330", "type": "electric_bike", "is_disabled": 0, "lat": 39.05789983333333, "rental_uris": {"ios": "https://dc.lft.to/lastmile_qr_scan", "android": "https://dc.lft.to/lastmile_qr_scan"}, "is_reserved": 0, "fusion_lon": 0.0, "fusion_lat": 0.0, "lon": -77.150281, "name": "9f4c9bdc61dd3fa226551079f7173330"}, {"bike_id": "22dba76bfe1b99f655e07752caa196ce", "type": "electric_scooter", "is_disabled": 0, "lat": 38.917088, "rental_uris": {"ios": "https://dc.lft.to/lastmile_qr_scan", "android": "https://dc.lft.to/lastmile_qr_scan"}, "is_reserved": 0, "fusion_lon": 0.0, "fusion_lat": 0.0, "lon": -77.0348745, "name": "22dba76bfe1b99f655e07752caa196ce"}, {"bike_id": "058a2740cc84b10db9ac2ed201694765", "type": "electric_scooter", "is_disabled": 0, "lat": 38.922635666666665, "rental_uris": {"ios": "https://dc.lft.to/lastmile_qr_scan", "android": "https://dc.lft.to/lastmile_qr_scan"}, "is_reserved": 0, "fusion_lon": 0.0, "fusion_lat": 0.0, "lon": -77.03660733333334, "name": "058a2740cc84b10db9ac2ed201694765"}, {"bike_id": "64f3889be018ab59612c336c4ec29fb5", "type": "electric_scooter", "is_disabled": 0, "lat": 38.856986166666665, "rental_uris": {"ios": "https://dc.lft.to/lastmile_qr_scan", "android": "https://dc.lft.to/lastmile_qr_scan"}, "is_reserved": 0, "fusion_lon": 0.0, "fusion_lat": 0.0, "lon": -76.98968066666667, "name": "64f3889be018ab59612c336c4ec29fb5"}, {"bike_id": "3bc3ba024fbb30f9edb81266f1c23220", "type": "electric_scooter", "is_disabled": 0, "lat": 38.9013775, "rental_uris": {"ios": "https://dc.lft.to/lastmile_qr_scan", "android": "https://dc.lft.to/lastmile_qr_scan"}, "is_reserved": 0, "fusion_lon": 0.0, "fusion_lat": 0.0, "lon": -77.02788766666667, "name": "3bc3ba024fbb30f9edb81266f1c23220"}, {"bike_id": "c058db6f684eda113a56b08bfa96bf12", "type": "electric_scooter", "is_disabled": 0, "lat": 38.9053265, "rental_uris": {"ios": "https://dc.lft.to/lastmile_qr_scan", "android": "https://dc.lft.to/lastmile_qr_scan"}, "is_reserved": 0, "fusion_lon": 0.0, "fusion_lat": 0.0, "lon": -77.0501855, "name": "c058db6f684eda113a56b08bfa96bf12"}, {"bike_id": "5d967ccddf327c881b8aa1ce454e3257", "type": "electric_scooter", "is_disabled": 0, "lat": 38.90255033333333, "rental_uris": {"ios": "https://dc.lft.to/lastmile_qr_scan", "android": "https://dc.lft.to/lastmile_qr_scan"}, "is_reserved": 0, "fusion_lon": 0.0, "fusion_lat": 0.0, "lon": -77.03005533333334, "name": "5d967ccddf327c881b8aa1ce454e3257"}, {"bike_id": "8643eebdce56b831c2f52bdfe9528144", "type": "electric_scooter", "is_disabled": 0, "lat": 38.902049166666664, "rental_uris": {"ios": "https://dc.lft.to/lastmile_qr_scan", "android": "https://dc.lft.to/lastmile_qr_scan"}, "is_reserved": 0, "fusion_lon": 0.0, "fusion_lat": 0.0, "lon": -77.01890333333333, "name": "8643eebdce56b831c2f52bdfe9528144"}, {"bike_id": "d2e7ec40a5a477d97717d45dd00bd133", "type": "electric_bike", "is_disabled": 0, "lat": 38.85725, "rental_uris": {"ios": "https://dc.lft.to/lastmile_qr_scan", "android": "https://dc.lft.to/lastmile_qr_scan"}, "is_reserved": 0, "fusion_lon": 0.0, "fusion_lat": 0.0, "lon": -77.0797445, "name": "d2e7ec40a5a477d97717d45dd00bd133"}, {"bike_id": "dc0b754b6dd5bc0c80ffe5b0e2f3e400", "type": "electric_scooter", "is_disabled": 0, "lat": 38.8991735, "rental_uris": {"ios": "https://dc.lft.to/lastmile_qr_scan", "android": "https://dc.lft.to/lastmile_qr_scan"}, "is_reserved": 0, "fusion_lon": 0.0, "fusion_lat": 0.0, "lon": -76.93367116666667, "name": "dc0b754b6dd5bc0c80ffe5b0e2f3e400"}, {"bike_id": "1cedeefe438f348646adffbc54fc9cb4", "type": "electric_scooter", "is_disabled": 0, "lat": 38.87940483333333, "rental_uris": {"ios": "https://dc.lft.to/lastmile_qr_scan", "android": "https://dc.lft.to/lastmile_qr_scan"}, "is_reserved": 0, "fusion_lon": 0.0, "fusion_lat": 0.0, "lon": -77.00402333333334, "name": "1cedeefe438f348646adffbc54fc9cb4"}, {"bike_id": "149aabf68c85e0fb27c1b78f2f634ce3", "type": "electric_scooter", "is_disabled": 0, "lat": 38.91690366666667, "rental_uris": {"ios": "https://dc.lft.to/lastmile_qr_scan", "android": "https://dc.lft.to/lastmile_qr_scan"}, "is_reserved": 0, "fusion_lon": 0.0, "fusion_lat": 0.0, "lon": -77.03127066666667, "name": "149aabf68c85e0fb27c1b78f2f634ce3"}, {"bike_id": "455b0c72c1ecef516ec717733199872f", "type": "electric_scooter", "is_disabled": 0, "lat": 38.88063533333333, "rental_uris": {"ios": "https://dc.lft.to/lastmile_qr_scan", "android": "https://dc.lft.to/lastmile_qr_scan"}, "is_reserved": 0, "fusion_lon": 0.0, "fusion_lat": 0.0, "lon": -77.02554583333334, "name": "455b0c72c1ecef516ec717733199872f"}, {"bike_id": "cb12150e20a126f3c7a28f4bf1d4a34d", "type": "electric_scooter", "is_disabled": 0, "lat": 38.93461933333333, "rental_uris": {"ios": "https://dc.lft.to/lastmile_qr_scan", "android": "https://dc.lft.to/lastmile_qr_scan"}, "is_reserved": 0, "fusion_lon": 0.0, "fusion_lat": 0.0, "lon": -77.04536366666666, "name": "cb12150e20a126f3c7a28f4bf1d4a34d"}, {"bike_id": "cae85823c2cec142f7d27cde8ea4c5cb", "type": "electric_bike", "is_disabled": 0, "lat": 38.93691366666667, "rental_uris": {"ios": "https://dc.lft.to/lastmile_qr_scan", "android": "https://dc.lft.to/lastmile_qr_scan"}, "is_reserved": 0, "fusion_lon": 0.0, "fusion_lat": 0.0, "lon": -77.05643516666666, "name": "cae85823c2cec142f7d27cde8ea4c5cb"}, {"bike_id": "5ea39bb2d21f3d1a720eee6e8ba270f0", "type": "electric_scooter", "is_disabled": 0, "lat": 38.913300666666665, "rental_uris": {"ios": "https://dc.lft.to/lastmile_qr_scan", "android": "https://dc.lft.to/lastmile_qr_scan"}, "is_reserved": 0, "fusion_lon": 0.0, "fusion_lat": 0.0, "lon": -77.0318545, "name": "5ea39bb2d21f3d1a720eee6e8ba270f0"}, {"bike_id": "4d01dd0518df10331f4043d5cf2a1ba5", "type": "electric_scooter", "is_disabled": 0, "lat": 38.922509166666664, "rental_uris": {"ios": "https://dc.lft.to/lastmile_qr_scan", "android": "https://dc.lft.to/lastmile_qr_scan"}, "is_reserved": 0, "fusion_lon": 0.0, "fusion_lat": 0.0, "lon": -77.04214616666667, "name": "4d01dd0518df10331f4043d5cf2a1ba5"}, {"bike_id": "4de19853ef6edef5a9fa22987872fe10", "type": "electric_scooter", "is_disabled": 0, "lat": 38.91554766666667, "rental_uris": {"ios": "https://dc.lft.to/lastmile_qr_scan", "android": "https://dc.lft.to/lastmile_qr_scan"}, "is_reserved": 0, "fusion_lon": 0.0, "fusion_lat": 0.0, "lon": -77.02638016666667, "name": "4de19853ef6edef5a9fa22987872fe10"}, {"bike_id": "499b8dfe5d3b9854432c3fb6900de3bf", "type": "electric_scooter", "is_disabled": 0, "lat": 38.844304, "rental_uris": {"ios": "https://dc.lft.to/lastmile_qr_scan", "android": "https://dc.lft.to/lastmile_qr_scan"}, "is_reserved": 0, "fusion_lon": 0.0, "fusion_lat": 0.0, "lon": -76.998737, "name": "499b8dfe5d3b9854432c3fb6900de3bf"}, {"bike_id": "f2924b1f670b8c8f6aef306b75a66943", "type": "electric_scooter", "is_disabled": 0, "lat": 38.90535466666667, "rental_uris": {"ios": "https://dc.lft.to/lastmile_qr_scan", "android": "https://dc.lft.to/lastmile_qr_scan"}, "is_reserved": 0, "fusion_lon": 0.0, "fusion_lat": 0.0, "lon": -77.047528, "name": "f2924b1f670b8c8f6aef306b75a66943"}, {"bike_id": "e5f4970487f187daa6392827e8a0e81f", "type": "electric_scooter", "is_disabled": 0, "lat": 38.91807766666667, "rental_uris": {"ios": "https://dc.lft.to/lastmile_qr_scan", "android": "https://dc.lft.to/lastmile_qr_scan"}, "is_reserved": 0, "fusion_lon": 0.0, "fusion_lat": 0.0, "lon": -77.03208316666667, "name": "e5f4970487f187daa6392827e8a0e81f"}, {"bike_id": "2f5d9ba48ab8352811f31984e8f82066", "type": "electric_scooter", "is_disabled": 0, "lat": 38.9097205, "rental_uris": {"ios": "https://dc.lft.to/lastmile_qr_scan", "android": "https://dc.lft.to/lastmile_qr_scan"}, "is_reserved": 0, "fusion_lon": 0.0, "fusion_lat": 0.0, "lon": -77.03373, "name": "2f5d9ba48ab8352811f31984e8f82066"}, {"bike_id": "54943075ed7a57277848247d532698df", "type": "electric_scooter", "is_disabled": 0, "lat": 38.89196, "rental_uris": {"ios": "https://dc.lft.to/lastmile_qr_scan", "android": "https://dc.lft.to/lastmile_qr_scan"}, "is_reserved": 0, "fusion_lon": 0.0, "fusion_lat": 0.0, "lon": -77.02501416666667, "name": "54943075ed7a57277848247d532698df"}, {"bike_id": "f0c252e39794eea8c25e651d4b4fad90", "type": "electric_scooter", "is_disabled": 0, "lat": 38.91420333333333, "rental_uris": {"ios": "https://dc.lft.to/lastmile_qr_scan", "android": "https://dc.lft.to/lastmile_qr_scan"}, "is_reserved": 0, "fusion_lon": 0.0, "fusion_lat": 0.0, "lon": -77.02202416666667, "name": "f0c252e39794eea8c25e651d4b4fad90"}, {"bike_id": "91f71ce5860684eb72e9bdf1440fd662", "type": "electric_scooter", "is_disabled": 0, "lat": 38.928459833333335, "rental_uris": {"ios": "https://dc.lft.to/lastmile_qr_scan", "android": "https://dc.lft.to/lastmile_qr_scan"}, "is_reserved": 0, "fusion_lon": 0.0, "fusion_lat": 0.0, "lon": -77.032953, "name": "91f71ce5860684eb72e9bdf1440fd662"}, {"bike_id": "fd4761161e2e8164c85be43554514f0b", "type": "electric_scooter", "is_disabled": 0, "lat": 38.918192166666664, "rental_uris": {"ios": "https://dc.lft.to/lastmile_qr_scan", "android": "https://dc.lft.to/lastmile_qr_scan"}, "is_reserved": 0, "fusion_lon": 0.0, "fusion_lat": 0.0, "lon": -77.04947366666667, "name": "fd4761161e2e8164c85be43554514f0b"}, {"bike_id": "19375c9678466bbe80fb673f8d6893a4", "type": "electric_scooter", "is_disabled": 0, "lat": 38.908727999999996, "rental_uris": {"ios": "https://dc.lft.to/lastmile_qr_scan", "android": "https://dc.lft.to/lastmile_qr_scan"}, "is_reserved": 0, "fusion_lon": 0.0, "fusion_lat": 0.0, "lon": -76.9979445, "name": "19375c9678466bbe80fb673f8d6893a4"}, {"bike_id": "147a6688aa2e106c88af59b7502f6e63", "type": "electric_scooter", "is_disabled": 0, "lat": 38.909586, "rental_uris": {"ios": "https://dc.lft.to/lastmile_qr_scan", "android": "https://dc.lft.to/lastmile_qr_scan"}, "is_reserved": 0, "fusion_lon": 0.0, "fusion_lat": 0.0, "lon": -77.03467183333333, "name": "147a6688aa2e106c88af59b7502f6e63"}, {"bike_id": "1fdf646923a252c43e1fe6c17c77ba3b", "type": "electric_scooter", "is_disabled": 0, "lat": 38.94312216666667, "rental_uris": {"ios": "https://dc.lft.to/lastmile_qr_scan", "android": "https://dc.lft.to/lastmile_qr_scan"}, "is_reserved": 0, "fusion_lon": 0.0, "fusion_lat": 0.0, "lon": -77.06205516666667, "name": "1fdf646923a252c43e1fe6c17c77ba3b"}, {"bike_id": "017947b94b6275538eb73cf4c8ca29ce", "type": "electric_scooter", "is_disabled": 0, "lat": 38.8922595, "rental_uris": {"ios": "https://dc.lft.to/lastmile_qr_scan", "android": "https://dc.lft.to/lastmile_qr_scan"}, "is_reserved": 0, "fusion_lon": 0.0, "fusion_lat": 0.0, "lon": -77.0436425, "name": "017947b94b6275538eb73cf4c8ca29ce"}, {"bike_id": "c68edbd2f6e330739e76d7f05c1079a4", "type": "electric_scooter", "is_disabled": 0, "lat": 38.92192283333333, "rental_uris": {"ios": "https://dc.lft.to/lastmile_qr_scan", "android": "https://dc.lft.to/lastmile_qr_scan"}, "is_reserved": 0, "fusion_lon": 0.0, "fusion_lat": 0.0, "lon": -77.01976366666666, "name": "c68edbd2f6e330739e76d7f05c1079a4"}, {"bike_id": "82e339e92e82ec9c060bd78c820a75a8", "type": "electric_scooter", "is_disabled": 0, "lat": 38.9184565, "rental_uris": {"ios": "https://dc.lft.to/lastmile_qr_scan", "android": "https://dc.lft.to/lastmile_qr_scan"}, "is_reserved": 0, "fusion_lon": 0.0, "fusion_lat": 0.0, "lon": -76.96562466666667, "name": "82e339e92e82ec9c060bd78c820a75a8"}, {"bike_id": "4b9bab3384f98663f2ab9cbd29b51102", "type": "electric_scooter", "is_disabled": 0, "lat": 38.92213116666667, "rental_uris": {"ios": "https://dc.lft.to/lastmile_qr_scan", "android": "https://dc.lft.to/lastmile_qr_scan"}, "is_reserved": 0, "fusion_lon": 0.0, "fusion_lat": 0.0, "lon": -77.03287983333334, "name": "4b9bab3384f98663f2ab9cbd29b51102"}, {"bike_id": "8b606c17701646f79bef7b294e1e5671", "type": "electric_scooter", "is_disabled": 0, "lat": 38.928199666666664, "rental_uris": {"ios": "https://dc.lft.to/lastmile_qr_scan", "android": "https://dc.lft.to/lastmile_qr_scan"}, "is_reserved": 0, "fusion_lon": 0.0, "fusion_lat": 0.0, "lon": -77.055139, "name": "8b606c17701646f79bef7b294e1e5671"}, {"bike_id": "6a742a0ba93c7837194e332be7a013c5", "type": "electric_scooter", "is_disabled": 0, "lat": 38.897140666666665, "rental_uris": {"ios": "https://dc.lft.to/lastmile_qr_scan", "android": "https://dc.lft.to/lastmile_qr_scan"}, "is_reserved": 0, "fusion_lon": 0.0, "fusion_lat": 0.0, "lon": -77.024448, "name": "6a742a0ba93c7837194e332be7a013c5"}, {"bike_id": "af3f486f95c8d05d6d1868a25d0a5295", "type": "electric_scooter", "is_disabled": 0, "lat": 38.903036166666666, "rental_uris": {"ios": "https://dc.lft.to/lastmile_qr_scan", "android": "https://dc.lft.to/lastmile_qr_scan"}, "is_reserved": 0, "fusion_lon": 0.0, "fusion_lat": 0.0, "lon": -77.05192583333333, "name": "af3f486f95c8d05d6d1868a25d0a5295"}, {"bike_id": "aeb159c2f60f2770e1e0c895ceed40f2", "type": "electric_scooter", "is_disabled": 0, "lat": 38.91122883333333, "rental_uris": {"ios": "https://dc.lft.to/lastmile_qr_scan", "android": "https://dc.lft.to/lastmile_qr_scan"}, "is_reserved": 0, "fusion_lon": 0.0, "fusion_lat": 0.0, "lon": -77.03770216666666, "name": "aeb159c2f60f2770e1e0c895ceed40f2"}, {"bike_id": "91d19e887ff7da8b255b9ff04ef20f16", "type": "electric_scooter", "is_disabled": 0, "lat": 38.917543, "rental_uris": {"ios": "https://dc.lft.to/lastmile_qr_scan", "android": "https://dc.lft.to/lastmile_qr_scan"}, "is_reserved": 0, "fusion_lon": 0.0, "fusion_lat": 0.0, "lon": -77.03855483333334, "name": "91d19e887ff7da8b255b9ff04ef20f16"}, {"bike_id": "8cc318a86224d4d9d43db155c1e152e6", "type": "electric_bike", "is_disabled": 0, "lat": 38.89740466666667, "rental_uris": {"ios": "https://dc.lft.to/lastmile_qr_scan", "android": "https://dc.lft.to/lastmile_qr_scan"}, "is_reserved": 0, "fusion_lon": 0.0, "fusion_lat": 0.0, "lon": -76.92045966666667, "name": "8cc318a86224d4d9d43db155c1e152e6"}, {"bike_id": "3091a46083a811071f717f733f099f52", "type": "electric_scooter", "is_disabled": 0, "lat": 38.9117645, "rental_uris": {"ios": "https://dc.lft.to/lastmile_qr_scan", "android": "https://dc.lft.to/lastmile_qr_scan"}, "is_reserved": 0, "fusion_lon": 0.0, "fusion_lat": 0.0, "lon": -77.0318755, "name": "3091a46083a811071f717f733f099f52"}, {"bike_id": "19a2c2710b2e6fb794964be94a361eea", "type": "electric_scooter", "is_disabled": 0, "lat": 38.92791666666667, "rental_uris": {"ios": "https://dc.lft.to/lastmile_qr_scan", "android": "https://dc.lft.to/lastmile_qr_scan"}, "is_reserved": 0, "fusion_lon": 0.0, "fusion_lat": 0.0, "lon": -77.04329983333334, "name": "19a2c2710b2e6fb794964be94a361eea"}, {"bike_id": "e6a4d22a7a353de54372ee677fd70206", "type": "electric_bike", "is_disabled": 0, "lat": 38.938877166666664, "rental_uris": {"ios": "https://dc.lft.to/lastmile_qr_scan", "android": "https://dc.lft.to/lastmile_qr_scan"}, "is_reserved": 0, "fusion_lon": 0.0, "fusion_lat": 0.0, "lon": -77.06356583333333, "name": "e6a4d22a7a353de54372ee677fd70206"}, {"bike_id": "085e1579f8157e3dbff429fabdeff878", "type": "electric_scooter", "is_disabled": 0, "lat": 38.930680833333334, "rental_uris": {"ios": "https://dc.lft.to/lastmile_qr_scan", "android": "https://dc.lft.to/lastmile_qr_scan"}, "is_reserved": 0, "fusion_lon": 0.0, "fusion_lat": 0.0, "lon": -77.038049, "name": "085e1579f8157e3dbff429fabdeff878"}, {"bike_id": "cf52517ab416f9e8308d85021dff3d55", "type": "electric_scooter", "is_disabled": 0, "lat": 38.93848666666667, "rental_uris": {"ios": "https://dc.lft.to/lastmile_qr_scan", "android": "https://dc.lft.to/lastmile_qr_scan"}, "is_reserved": 0, "fusion_lon": 0.0, "fusion_lat": 0.0, "lon": -77.07230783333333, "name": "cf52517ab416f9e8308d85021dff3d55"}, {"bike_id": "40df42056d7a716cc77c44dcf3edec5f", "type": "electric_scooter", "is_disabled": 0, "lat": 38.9094735, "rental_uris": {"ios": "https://dc.lft.to/lastmile_qr_scan", "android": "https://dc.lft.to/lastmile_qr_scan"}, "is_reserved": 0, "fusion_lon": 0.0, "fusion_lat": 0.0, "lon": -77.055685, "name": "40df42056d7a716cc77c44dcf3edec5f"}, {"bike_id": "d43271f6313c3ec2807182dca8df9148", "type": "electric_scooter", "is_disabled": 0, "lat": 38.965015, "rental_uris": {"ios": "https://dc.lft.to/lastmile_qr_scan", "android": "https://dc.lft.to/lastmile_qr_scan"}, "is_reserved": 0, "fusion_lon": 0.0, "fusion_lat": 0.0, "lon": -77.00198433333334, "name": "d43271f6313c3ec2807182dca8df9148"}, {"bike_id": "094c52882afbfe13bbc3470e375374d1", "type": "electric_scooter", "is_disabled": 0, "lat": 38.91146066666667, "rental_uris": {"ios": "https://dc.lft.to/lastmile_qr_scan", "android": "https://dc.lft.to/lastmile_qr_scan"}, "is_reserved": 0, "fusion_lon": 0.0, "fusion_lat": 0.0, "lon": -77.0442175, "name": "094c52882afbfe13bbc3470e375374d1"}, {"bike_id": "23547f836b13a55fc8cff40662c4c54a", "type": "electric_scooter", "is_disabled": 0, "lat": 38.913386333333335, "rental_uris": {"ios": "https://dc.lft.to/lastmile_qr_scan", "android": "https://dc.lft.to/lastmile_qr_scan"}, "is_reserved": 0, "fusion_lon": 0.0, "fusion_lat": 0.0, "lon": -77.03189966666666, "name": "23547f836b13a55fc8cff40662c4c54a"}, {"bike_id": "e731b0ae76ac3b35fa5fdb4f047222eb", "type": "electric_scooter", "is_disabled": 0, "lat": 38.90700666666667, "rental_uris": {"ios": "https://dc.lft.to/lastmile_qr_scan", "android": "https://dc.lft.to/lastmile_qr_scan"}, "is_reserved": 0, "fusion_lon": 0.0, "fusion_lat": 0.0, "lon": -77.04176016666666, "name": "e731b0ae76ac3b35fa5fdb4f047222eb"}, {"bike_id": "c3d2f609d839210244d15cae368e14d7", "type": "electric_scooter", "is_disabled": 0, "lat": 38.90979766666667, "rental_uris": {"ios": "https://dc.lft.to/lastmile_qr_scan", "android": "https://dc.lft.to/lastmile_qr_scan"}, "is_reserved": 0, "fusion_lon": 0.0, "fusion_lat": 0.0, "lon": -77.01513616666666, "name": "c3d2f609d839210244d15cae368e14d7"}, {"bike_id": "cc49ffdef862b419093968d755abf325", "type": "electric_scooter", "is_disabled": 0, "lat": 38.89959316666667, "rental_uris": {"ios": "https://dc.lft.to/lastmile_qr_scan", "android": "https://dc.lft.to/lastmile_qr_scan"}, "is_reserved": 0, "fusion_lon": 0.0, "fusion_lat": 0.0, "lon": -77.016167, "name": "cc49ffdef862b419093968d755abf325"}, {"bike_id": "27206d4d30d37842a0b97c20d361ad81", "type": "electric_scooter", "is_disabled": 0, "lat": 38.90786933333333, "rental_uris": {"ios": "https://dc.lft.to/lastmile_qr_scan", "android": "https://dc.lft.to/lastmile_qr_scan"}, "is_reserved": 0, "fusion_lon": 0.0, "fusion_lat": 0.0, "lon": -77.03184483333334, "name": "27206d4d30d37842a0b97c20d361ad81"}, {"bike_id": "32ba2d56fc4a63902ac662d6a1d6afd6", "type": "electric_scooter", "is_disabled": 0, "lat": 38.904839333333335, "rental_uris": {"ios": "https://dc.lft.to/lastmile_qr_scan", "android": "https://dc.lft.to/lastmile_qr_scan"}, "is_reserved": 0, "fusion_lon": 0.0, "fusion_lat": 0.0, "lon": -77.04331583333334, "name": "32ba2d56fc4a63902ac662d6a1d6afd6"}, {"bike_id": "7091c1a21235b9a518920ec5afddc235", "type": "electric_scooter", "is_disabled": 0, "lat": 38.84432233333333, "rental_uris": {"ios": "https://dc.lft.to/lastmile_qr_scan", "android": "https://dc.lft.to/lastmile_qr_scan"}, "is_reserved": 0, "fusion_lon": 0.0, "fusion_lat": 0.0, "lon": -76.99871783333333, "name": "7091c1a21235b9a518920ec5afddc235"}, {"bike_id": "e2b562a022c9897f7422bbc432b0abdd", "type": "electric_scooter", "is_disabled": 0, "lat": 38.934026, "rental_uris": {"ios": "https://dc.lft.to/lastmile_qr_scan", "android": "https://dc.lft.to/lastmile_qr_scan"}, "is_reserved": 0, "fusion_lon": 0.0, "fusion_lat": 0.0, "lon": -77.03516633333334, "name": "e2b562a022c9897f7422bbc432b0abdd"}, {"bike_id": "56d58089a449e013aa6d9fcb501df988", "type": "electric_bike", "is_disabled": 0, "lat": 38.842728, "rental_uris": {"ios": "https://dc.lft.to/lastmile_qr_scan", "android": "https://dc.lft.to/lastmile_qr_scan"}, "is_reserved": 0, "fusion_lon": 0.0, "fusion_lat": 0.0, "lon": -76.9883975, "name": "56d58089a449e013aa6d9fcb501df988"}, {"bike_id": "44de26c39d487128931d7c4481732532", "type": "electric_scooter", "is_disabled": 0, "lat": 38.928559666666665, "rental_uris": {"ios": "https://dc.lft.to/lastmile_qr_scan", "android": "https://dc.lft.to/lastmile_qr_scan"}, "is_reserved": 0, "fusion_lon": 0.0, "fusion_lat": 0.0, "lon": -77.03190266666667, "name": "44de26c39d487128931d7c4481732532"}, {"bike_id": "78863b54c5451d6ba8985858c5f1d4f5", "type": "electric_scooter", "is_disabled": 0, "lat": 38.92365066666667, "rental_uris": {"ios": "https://dc.lft.to/lastmile_qr_scan", "android": "https://dc.lft.to/lastmile_qr_scan"}, "is_reserved": 0, "fusion_lon": 0.0, "fusion_lat": 0.0, "lon": -77.05131016666667, "name": "78863b54c5451d6ba8985858c5f1d4f5"}, {"bike_id": "dba418b375edff409a540374c60905cd", "type": "electric_bike", "is_disabled": 0, "lat": 38.920667333333334, "rental_uris": {"ios": "https://dc.lft.to/lastmile_qr_scan", "android": "https://dc.lft.to/lastmile_qr_scan"}, "is_reserved": 0, "fusion_lon": 0.0, "fusion_lat": 0.0, "lon": -76.89071633333333, "name": "dba418b375edff409a540374c60905cd"}, {"bike_id": "fd98b2e4428846a3c442592e591c6611", "type": "electric_scooter", "is_disabled": 0, "lat": 38.916177166666664, "rental_uris": {"ios": "https://dc.lft.to/lastmile_qr_scan", "android": "https://dc.lft.to/lastmile_qr_scan"}, "is_reserved": 0, "fusion_lon": 0.0, "fusion_lat": 0.0, "lon": -77.02394416666667, "name": "fd98b2e4428846a3c442592e591c6611"}, {"bike_id": "1438ffe7111889f12d8f6161d5dd53da", "type": "electric_scooter", "is_disabled": 0, "lat": 38.910678833333336, "rental_uris": {"ios": "https://dc.lft.to/lastmile_qr_scan", "android": "https://dc.lft.to/lastmile_qr_scan"}, "is_reserved": 0, "fusion_lon": 0.0, "fusion_lat": 0.0, "lon": -77.02185216666666, "name": "1438ffe7111889f12d8f6161d5dd53da"}, {"bike_id": "145c61a10186ac692475d26cb3094982", "type": "electric_scooter", "is_disabled": 0, "lat": 38.91321266666667, "rental_uris": {"ios": "https://dc.lft.to/lastmile_qr_scan", "android": "https://dc.lft.to/lastmile_qr_scan"}, "is_reserved": 0, "fusion_lon": 0.0, "fusion_lat": 0.0, "lon": -77.04485733333334, "name": "145c61a10186ac692475d26cb3094982"}, {"bike_id": "58ee608225fef9a6be710e9c2042952c", "type": "electric_scooter", "is_disabled": 0, "lat": 38.911833666666666, "rental_uris": {"ios": "https://dc.lft.to/lastmile_qr_scan", "android": "https://dc.lft.to/lastmile_qr_scan"}, "is_reserved": 0, "fusion_lon": 0.0, "fusion_lat": 0.0, "lon": -77.03188516666667, "name": "58ee608225fef9a6be710e9c2042952c"}, {"bike_id": "8e5f925c9aa0d2e39d0a9f1cde4674ae", "type": "electric_bike", "is_disabled": 0, "lat": 38.878868833333335, "rental_uris": {"ios": "https://dc.lft.to/lastmile_qr_scan", "android": "https://dc.lft.to/lastmile_qr_scan"}, "is_reserved": 0, "fusion_lon": 0.0, "fusion_lat": 0.0, "lon": -77.00698633333333, "name": "8e5f925c9aa0d2e39d0a9f1cde4674ae"}, {"bike_id": "bc019f22aca5e19948fcbefffb486551", "type": "electric_scooter", "is_disabled": 0, "lat": 38.904287833333335, "rental_uris": {"ios": "https://dc.lft.to/lastmile_qr_scan", "android": "https://dc.lft.to/lastmile_qr_scan"}, "is_reserved": 0, "fusion_lon": 0.0, "fusion_lat": 0.0, "lon": -77.02637833333333, "name": "bc019f22aca5e19948fcbefffb486551"}, {"bike_id": "c166b72a1c0c0007c0da39a944be2603", "type": "electric_scooter", "is_disabled": 0, "lat": 38.900719333333335, "rental_uris": {"ios": "https://dc.lft.to/lastmile_qr_scan", "android": "https://dc.lft.to/lastmile_qr_scan"}, "is_reserved": 0, "fusion_lon": 0.0, "fusion_lat": 0.0, "lon": -77.03643166666667, "name": "c166b72a1c0c0007c0da39a944be2603"}, {"bike_id": "be70ef0904f20b438442dea1c67651f1", "type": "electric_scooter", "is_disabled": 0, "lat": 38.843175333333335, "rental_uris": {"ios": "https://dc.lft.to/lastmile_qr_scan", "android": "https://dc.lft.to/lastmile_qr_scan"}, "is_reserved": 0, "fusion_lon": 0.0, "fusion_lat": 0.0, "lon": -76.9991155, "name": "be70ef0904f20b438442dea1c67651f1"}, {"bike_id": "73838a213708c01853db357bb765c360", "type": "electric_scooter", "is_disabled": 0, "lat": 38.871783, "rental_uris": {"ios": "https://dc.lft.to/lastmile_qr_scan", "android": "https://dc.lft.to/lastmile_qr_scan"}, "is_reserved": 0, "fusion_lon": 0.0, "fusion_lat": 0.0, "lon": -77.00615083333334, "name": "73838a213708c01853db357bb765c360"}, {"bike_id": "9c3f76ede93be389a3084b2193c19156", "type": "electric_scooter", "is_disabled": 0, "lat": 38.91403566666666, "rental_uris": {"ios": "https://dc.lft.to/lastmile_qr_scan", "android": "https://dc.lft.to/lastmile_qr_scan"}, "is_reserved": 0, "fusion_lon": 0.0, "fusion_lat": 0.0, "lon": -77.0210955, "name": "9c3f76ede93be389a3084b2193c19156"}, {"bike_id": "b57356e4cc4f398fb8ba71f9356cd48e", "type": "electric_scooter", "is_disabled": 0, "lat": 38.91412566666666, "rental_uris": {"ios": "https://dc.lft.to/lastmile_qr_scan", "android": "https://dc.lft.to/lastmile_qr_scan"}, "is_reserved": 0, "fusion_lon": 0.0, "fusion_lat": 0.0, "lon": -77.03586483333333, "name": "b57356e4cc4f398fb8ba71f9356cd48e"}, {"bike_id": "d4712c8dcfacecaf85b7de58283fe051", "type": "electric_scooter", "is_disabled": 0, "lat": 38.91280116666667, "rental_uris": {"ios": "https://dc.lft.to/lastmile_qr_scan", "android": "https://dc.lft.to/lastmile_qr_scan"}, "is_reserved": 0, "fusion_lon": 0.0, "fusion_lat": 0.0, "lon": -77.06107883333334, "name": "d4712c8dcfacecaf85b7de58283fe051"}, {"bike_id": "83fc62b4343c83a59ecc97335e8c4c88", "type": "electric_scooter", "is_disabled": 0, "lat": 38.898405333333336, "rental_uris": {"ios": "https://dc.lft.to/lastmile_qr_scan", "android": "https://dc.lft.to/lastmile_qr_scan"}, "is_reserved": 0, "fusion_lon": 0.0, "fusion_lat": 0.0, "lon": -76.9463535, "name": "83fc62b4343c83a59ecc97335e8c4c88"}, {"bike_id": "b7f56eed5f69d2ac8fe4ffb23b98c2b0", "type": "electric_scooter", "is_disabled": 0, "lat": 38.90561966666667, "rental_uris": {"ios": "https://dc.lft.to/lastmile_qr_scan", "android": "https://dc.lft.to/lastmile_qr_scan"}, "is_reserved": 0, "fusion_lon": 0.0, "fusion_lat": 0.0, "lon": -77.065199, "name": "b7f56eed5f69d2ac8fe4ffb23b98c2b0"}, {"bike_id": "d3866d300c9d1f5929e2949f6dba05eb", "type": "electric_scooter", "is_disabled": 0, "lat": 38.89975116666667, "rental_uris": {"ios": "https://dc.lft.to/lastmile_qr_scan", "android": "https://dc.lft.to/lastmile_qr_scan"}, "is_reserved": 0, "fusion_lon": 0.0, "fusion_lat": 0.0, "lon": -77.0239175, "name": "d3866d300c9d1f5929e2949f6dba05eb"},