{"data": {"bikes": [{"is_reserved": 0, "fusion_lon": 0.0, "fusion_lat": 0.0, "name": "e262d923b8f72c8cd183e5e32d899292", "type": "electric_scooter", "is_disabled": 0, "lat": 38.921221, "rental_uris": {"android": "https://dc.lft.to/lastmile_qr_scan", "ios": "https://dc.lft.to/lastmile_qr_scan"}, "bike_id": "e262d923b8f72c8cd183e5e32d899292", "lon": -77.012108}, {"is_reserved": 0, "fusion_lon": 0.0, "fusion_lat": 0.0, "name": "b86d5dad746debb12f5c337f35f71eba", "type": "electric_scooter", "is_disabled": 0, "lat": 38.96782816666666, "rental_uris": {"android": "https://dc.lft.to/lastmile_qr_scan", "ios": "https://dc.lft.to/lastmile_qr_scan"}, "bike_id": "b86d5dad746debb12f5c337f35f71eba", "lon": -77.015114}, {"is_reserved": 0, "fusion_lon": 0.0, "fusion_lat": 0.0, "name": "c05981ece0438bc6ce5bf09e8024106b", "type": "electric_scooter", "is_disabled": 0, "lat": 38.90232183333333, "rental_uris": {"android": "https://dc.lft.to/lastmile_qr_scan", "ios": "https://dc.lft.to/lastmile_qr_scan"}, "bike_id": "c05981ece0438bc6ce5bf09e8024106b", "lon": -76.99273233333334}, {"is_reserved": 0, "fusion_lon": 0.0, "fusion_lat": 0.0, "name": "c9fe3e41be3de0cff49a98e85a747ea4", "type": "electric_bike", "is_disabled": 0, "lat": 38.9223865, "rental_uris": {"android": "https://dc.lft.to/lastmile_qr_scan", "ios": "https://dc.lft.to/lastmile_qr_scan"}, "bike_id": "c9fe3e41be3de0cff49a98e85a747ea4", "lon": -77.04248816666667}, {"is_reserved": 0, "fusion_lon": 0.0, "fusion_lat": 0.0, "name": "ae97faf32901b5e7b1b0a33cd0aa30ab", "type": "electric_bike", "is_disabled": 0, "lat": 38.913138833333335, "rental_uris": {"android": "https://dc.lft.to/lastmile_qr_scan", "ios": "https://dc.lft.to/lastmile_qr_scan"}, "bike_id": "ae97faf32901b5e7b1b0a33cd0aa30ab", "lon": -77.038511}, {"is_reserved": 0, "fusion_lon": 0.0, "fusion_lat": 0.0, "name": "65870e254a3096d453a31ecf009dc06a", "type": "electric_bike", "is_disabled": 0, "lat": 38.953572333333334, "rental_uris": {"android": "https://dc.lft.to/lastmile_qr_scan", "ios": "https://dc.lft.to/lastmile_qr_scan"}, "bike_id": "65870e254a3096d453a31ecf009dc06a", "lon": -76.98096833333334}, {"is_reserved": 0, "fusion_lon": 0.0, "fusion_lat": 0.0, "name": "4ec3c4722507d8340bd81f7988dfeacf", "type": "electric_scooter", "is_disabled": 0, "lat": 38.92041116666667, "rental_uris": {"android": "https://dc.lft.to/lastmile_qr_scan", "ios": "https://dc.lft.to/lastmile_qr_scan"}, "bike_id": "4ec3c4722507d8340bd81f7988dfeacf", "lon": -77.02199533333334}, {"is_reserved": 0, "fusion_lon": 0.0, "fusion_lat": 0.0, "name": "00e1d08590877eb2774601a5a3fd9deb", "type": "electric_scooter", "is_disabled": 0, "lat": 38.89240233333334, "rental_uris": {"android": "https://dc.lft.to/lastmile_qr_scan", "ios": "https://dc.lft.to/lastmile_qr_scan"}, "bike_id": "00e1d08590877eb2774601a5a3fd9deb", "lon": -77.03212383333333}, {"is_reserved": 0, "fusion_lon": 0.0, "fusion_lat": 0.0, "name": "43938ded8656dc217bf540bbd42922e0", "type": "electric_scooter", "is_disabled": 0, "lat": 38.91821783333333, "rental_uris": {"android": "https://dc.lft.to/lastmile_qr_scan", "ios": "https://dc.lft.to/lastmile_qr_scan"}, "bike_id": "43938ded8656dc217bf540bbd42922e0", "lon": -77.0453635}, {"is_reserved": 0, "fusion_lon": 0.0, "fusion_lat": 0.0, "name": "5112bab453858e956c66e6aa11409017", "type": "electric_scooter", "is_disabled": 0, "lat": 38.9002975, "rental_uris": {"android": "https://dc.lft.to/lastmile_qr_scan", "ios": "https://dc.lft.to/lastmile_qr_scan"}, "bike_id": "5112bab453858e956c66e6aa11409017", "lon": -76.98861466666666}, {"is_reserved": 0, "fusion_lon": 0.0, "fusion_lat": 0.0, "name": "0025c9b59f633167c1b5807886474331", "type": "electric_scooter", "is_disabled": 0, "lat": 38.89494166666667, "rental_uris": {"android": "https://dc.lft.to/lastmile_qr_scan", "ios": "https://dc.lft.to/lastmile_qr_scan"}, "bike_id": "0025c9b59f633167c1b5807886474331", "lon": -77.02747366666667}, {"is_reserved": 0, "fusion_lon": 0.0, "fusion_lat": 0.0, "name": "5f0606c55cf0d1a16621066efdcfa79b", "type": "electric_scooter", "is_disabled": 0, "lat": 38.91888, "rental_uris": {"android": "https://dc.lft.to/lastmile_qr_scan", "ios": "https://dc.lft.to/lastmile_qr_scan"}, "bike_id": "5f0606c55cf0d1a16621066efdcfa79b", "lon": -77.048266}, {"is_reserved": 0, "fusion_lon": 0.0, "fusion_lat": 0.0, "name": "d3bc5a93ca0d8f2334834de162205d9d", "type": "electric_scooter", "is_disabled": 0, "lat": 38.886812166666665, "rental_uris": {"android": "https://dc.lft.to/lastmile_qr_scan", "ios": "https://dc.lft.to/lastmile_qr_scan"}, "bike_id": "d3bc5a93ca0d8f2334834de162205d9d", "lon": -76.95462833333333}, {"is_reserved": 0, "fusion_lon": 0.0, "fusion_lat": 0.0, "name": "bf7c969f6dcdd04dc079cdf5b0afa09c", "type": "electric_scooter", "is_disabled": 0, "lat": 38.90732833333333, "rental_uris": {"android": "https://dc.lft.to/lastmile_qr_scan", "ios": "https://dc.lft.to/lastmile_qr_scan"}, "bike_id": "bf7c969f6dcdd04dc079cdf5b0afa09c", "lon": -77.04998233333333}, {"is_reserved": 0, "fusion_lon": 0.0, "fusion_lat": 0.0, "name": "6e37c91118ac9a82e75ed80fc4297a08", "type": "electric_scooter", "is_disabled": 0, "lat": 38.8924265, "rental_uris": {"android": "https://dc.lft.to/lastmile_qr_scan", "ios": "https://dc.lft.to/lastmile_qr_scan"}, "bike_id": "6e37c91118ac9a82e75ed80fc4297a08", "lon": -77.03147833333334}, {"is_reserved": 0, "fusion_lon": 0.0, "fusion_lat": 0.0, "name": "90f70862278caf5d02a30246a1c8e66e", "type": "electric_scooter", "is_disabled": 0, "lat": 38.8632565, "rental_uris": {"android": "https://dc.lft.to/lastmile_qr_scan", "ios": "https://dc.lft.to/lastmile_qr_scan"}, "bike_id": "90f70862278caf5d02a30246a1c8e66e", "lon": -76.987248}, {"is_reserved": 0, "fusion_lon": 0.0, "fusion_lat": 0.0, "name": "b99053e83fb5176beebdb7dadac8bbbf", "type": "electric_scooter", "is_disabled": 0, "lat": 38.887449333333336, "rental_uris": {"android": "https://dc.lft.to/lastmile_qr_scan", "ios": "https://dc.lft.to/lastmile_qr_scan"}, "bike_id": "b99053e83fb5176beebdb7dadac8bbbf", "lon": -77.02732416666667}, {"is_reserved": 0, "fusion_lon": 0.0, "fusion_lat": 0.0, "name": "96164326d6a3c248e22592e2729148f1", "type": "electric_scooter", "is_disabled": 0, "lat": 38.90888233333333, "rental_uris": {"android": "https://dc.lft.to/lastmile_qr_scan", "ios": "https://dc.lft.to/lastmile_qr_scan"}, "bike_id": "96164326d6a3c248e22592e2729148f1", "lon": -76.9854245}, {"is_reserved": 0, "fusion_lon": 0.0, "fusion_lat": 0.0, "name": "2bd7d9751c2e7bac1850ec8b2c1b8d97", "type": "electric_scooter", "is_disabled": 0, "lat": 38.926599333333336, "rental_uris": {"android": "https://dc.lft.to/lastmile_qr_scan", "ios": "https://dc.lft.to/lastmile_qr_scan"}, "bike_id": "2bd7d9751c2e7bac1850ec8b2c1b8d97", "lon": -77.0227715}, {"is_reserved": 0, "fusion_lon": 0.0, "fusion_lat": 0.0, "name": "2f616ac46ad4d08061c409d93e41f855", "type": "electric_scooter", "is_disabled": 0, "lat": 38.907705, "rental_uris": {"android": "https://dc.lft.to/lastmile_qr_scan", "ios": "https://dc.lft.to/lastmile_qr_scan"}, "bike_id": "2f616ac46ad4d08061c409d93e41f855", "lon": -77.03472066666667}, {"is_reserved": 0, "fusion_lon": 0.0, "fusion_lat": 0.0, "name": "772d5230615d75bbd79fdf899f43814b", "type": "electric_scooter", "is_disabled": 0, "lat": 38.8961475, "rental_uris": {"android": "https://dc.lft.to/lastmile_qr_scan", "ios": "https://dc.lft.to/lastmile_qr_scan"}, "bike_id": "772d5230615d75bbd79fdf899f43814b", "lon": -76.98160333333334}, {"is_reserved": 0, "fusion_lon": 0.0, "fusion_lat": 0.0, "name": "edfb24bdff54680896cd381210089db3", "type": "electric_bike", "is_disabled": 0, "lat": 38.96188166666666, "rental_uris": {"android": "https://dc.lft.to/lastmile_qr_scan", "ios": "https://dc.lft.to/lastmile_qr_scan"}, "bike_id": "edfb24bdff54680896cd381210089db3", "lon": -77.0737675}, {"is_reserved": 0, "fusion_lon": 0.0, "fusion_lat": 0.0, "name": "1b58da380cfbe77bd1751bc04159b58f", "type": "electric_scooter", "is_disabled": 0, "lat": 38.89366283333333, "rental_uris": {"android": "https://dc.lft.to/lastmile_qr_scan", "ios": "https://dc.lft.to/lastmile_qr_scan"}, "bike_id": "1b58da380cfbe77bd1751bc04159b58f", "lon": -77.05492566666666}, {"is_reserved": 0, "fusion_lon": 0.0, "fusion_lat": 0.0, "name": "1de3515204276ff27a32c7fa7c3ae6cc", "type": "electric_scooter", "is_disabled": 0, "lat": 38.951902833333335, "rental_uris": {"android": "https://dc.lft.to/lastmile_qr_scan", "ios": "https://dc.lft.to/lastmile_qr_scan"}, "bike_id": "1de3515204276ff27a32c7fa7c3ae6cc", "lon": -77.0261825}, {"is_reserved": 0, "fusion_lon": 0.0, "fusion_lat": 0.0, "name": "5ab4c6619ddf3efe97eebedb29920977", "type": "electric_scooter", "is_disabled": 0, "lat": 38.9182345, "rental_uris": {"android": "https://dc.lft.to/lastmile_qr_scan", "ios": "https://dc.lft.to/lastmile_qr_scan"}, "bike_id": "5ab4c6619ddf3efe97eebedb29920977", "lon": -77.03263666666666}, {"is_reserved": 0, "fusion_lon": 0.0, "fusion_lat": 0.0, "name": "70cdb1f0fbc8959f66c43568c0f672ef", "type": "electric_scooter", "is_disabled": 0, "lat": 38.927071833333336, "rental_uris": {"android": "https://dc.lft.to/lastmile_qr_scan", "ios": "https://dc.lft.to/lastmile_qr_scan"}, "bike_id": "70cdb1f0fbc8959f66c43568c0f672ef", "lon": -77.0239085}, {"is_reserved": 0, "fusion_lon": 0.0, "fusion_lat": 0.0, "name": "53ebfd88bae9054a69234e384cc45d56", "type": "electric_scooter", "is_disabled": 0, "lat": 38.88391033333333, "rental_uris": {"android": "https://dc.lft.to/lastmile_qr_scan", "ios": "https://dc.lft.to/lastmile_qr_scan"}, "bike_id": "53ebfd88bae9054a69234e384cc45d56", "lon": -76.95446816666667}, {"is_reserved": 0, "fusion_lon": 0.0, "fusion_lat": 0.0, "name": "3ae419b34683aa740c01cfd83a7f6dab", "type": "electric_scooter", "is_disabled": 0, "lat": 38.9277565, "rental_uris": {"android": "https://dc.lft.to/lastmile_qr_scan", "ios": "https://dc.lft.to/lastmile_qr_scan"}, "bike_id": "3ae419b34683aa740c01cfd83a7f6dab", "lon": -77.05266216666666}, {"is_reserved": 0, "fusion_lon": 0.0, "fusion_lat": 0.0, "name": "be48fb11e6e7abd1336831e3027958da", "type": "electric_scooter", "is_disabled": 0, "lat": 38.9080195, "rental_uris": {"android": "https://dc.lft.to/lastmile_qr_scan", "ios": "https://dc.lft.to/lastmile_qr_scan"}, "bike_id": "be48fb11e6e7abd1336831e3027958da", "lon": -77.03184833333333}, {"is_reserved": 0, "fusion_lon": 0.0, "fusion_lat": 0.0, "name": "2012daa1391251753ba444a63afaa596", "type": "electric_scooter", "is_disabled": 0, "lat": 38.9229915, "rental_uris": {"android": "https://dc.lft.to/lastmile_qr_scan", "ios": "https://dc.lft.to/lastmile_qr_scan"}, "bike_id": "2012daa1391251753ba444a63afaa596", "lon": -77.04266716666666}, {"is_reserved": 0, "fusion_lon": 0.0, "fusion_lat": 0.0, "name": "17371ea3fcfc3ec1903c6aa7140ceb84", "type": "electric_scooter", "is_disabled": 0, "lat": 38.884828666666664, "rental_uris": {"android": "https://dc.lft.to/lastmile_qr_scan", "ios": "https://dc.lft.to/lastmile_qr_scan"}, "bike_id": "17371ea3fcfc3ec1903c6aa7140ceb84", "lon": -77.02658066666666}, {"is_reserved": 0, "fusion_lon": 0.0, "fusion_lat": 0.0, "name": "c397e8b7998143a88fcb14fe38546346", "type": "electric_scooter", "is_disabled": 0, "lat": 38.8965585, "rental_uris": {"android": "https://dc.lft.to/lastmile_qr_scan", "ios": "https://dc.lft.to/lastmile_qr_scan"}, "bike_id": "c397e8b7998143a88fcb14fe38546346", "lon": -77.05027483333333}, {"is_reserved": 0, "fusion_lon": 0.0, "fusion_lat": 0.0, "name": "8068cf7ec432798079819c0aeba7e20d", "type": "electric_scooter", "is_disabled": 0, "lat": 38.9207495, "rental_uris": {"android": "https://dc.lft.to/lastmile_qr_scan", "ios": "https://dc.lft.to/lastmile_qr_scan"}, "bike_id": "8068cf7ec432798079819c0aeba7e20d", "lon": -77.02417383333334}, {"is_reserved": 0, "fusion_lon": 0.0, "fusion_lat": 0.0, "name": "9deec52793a29ca276625a03bff03984", "type": "electric_scooter", "is_disabled": 0, "lat": 38.94443666666667, "rental_uris": {"android": "https://dc.lft.to/lastmile_qr_scan", "ios": "https://dc.lft.to/lastmile_qr_scan"}, "bike_id": "9deec52793a29ca276625a03bff03984", "lon": -77.06027816666666}, {"is_reserved": 0, "fusion_lon": 0.0, "fusion_lat": 0.0, "name": "db3293f838e52ae09cef7895b818b411", "type": "electric_scooter", "is_disabled": 0, "lat": 38.89300016666667, "rental_uris": {"android": "https://dc.lft.to/lastmile_qr_scan", "ios": "https://dc.lft.to/lastmile_qr_scan"}, "bike_id": "db3293f838e52ae09cef7895b818b411", "lon": -76.99823983333333}, {"is_reserved": 0, "fusion_lon": 0.0, "fusion_lat": 0.0, "name": "ae19b76f1f9c1bd92f9bfe383aa347c2", "type": "electric_scooter", "is_disabled": 0, "lat": 38.90376216666667, "rental_uris": {"android": "https://dc.lft.to/lastmile_qr_scan", "ios": "https://dc.lft.to/lastmile_qr_scan"}, "bike_id": "ae19b76f1f9c1bd92f9bfe383aa347c2", "lon": -77.0402125}, {"is_reserved": 0, "fusion_lon": 0.0, "fusion_lat": 0.0, "name": "420bb5976a371d67fe91627aee10503b", "type": "electric_scooter", "is_disabled": 0, "lat": 38.894271, "rental_uris": {"android": "https://dc.lft.to/lastmile_qr_scan", "ios": "https://dc.lft.to/lastmile_qr_scan"}, "bike_id": "420bb5976a371d67fe91627aee10503b", "lon": -76.94880683333334}, {"is_reserved": 0, "fusion_lon": 0.0, "fusion_lat": 0.0, "name": "5b0a176cdd8ca9b404df4449d92779f1", "type": "electric_scooter", "is_disabled": 0, "lat": 38.898002, "rental_uris": {"android": "https://dc.lft.to/lastmile_qr_scan", "ios": "https://dc.lft.to/lastmile_qr_scan"}, "bike_id": "5b0a176cdd8ca9b404df4449d92779f1", "lon": -77.02491633333334}, {"is_reserved": 0, "fusion_lon": 0.0, "fusion_lat": 0.0, "name": "1d205216a0fea41f96d93eb01a15da09", "type": "electric_scooter", "is_disabled": 0, "lat": 38.888564333333335, "rental_uris": {"android": "https://dc.lft.to/lastmile_qr_scan", "ios": "https://dc.lft.to/lastmile_qr_scan"}, "bike_id": "1d205216a0fea41f96d93eb01a15da09", "lon": -77.03106233333334}, {"is_reserved": 0, "fusion_lon": 0.0, "fusion_lat": 0.0, "name": "dda57d8dc87b4d7e37b533955018977e", "type": "electric_scooter", "is_disabled": 0, "lat": 38.925709499999996, "rental_uris": {"android": "https://dc.lft.to/lastmile_qr_scan", "ios": "https://dc.lft.to/lastmile_qr_scan"}, "bike_id": "dda57d8dc87b4d7e37b533955018977e", "lon": -77.037902}, {"is_reserved": 0, "fusion_lon": 0.0, "fusion_lat": 0.0, "name": "823734856cf0063e35b7b6b0c127620b", "type": "electric_scooter", "is_disabled": 0, "lat": 38.91926133333333, "rental_uris": {"android": "https://dc.lft.to/lastmile_qr_scan", "ios": "https://dc.lft.to/lastmile_qr_scan"}, "bike_id": "823734856cf0063e35b7b6b0c127620b", "lon": -77.03187516666667}, {"is_reserved": 0, "fusion_lon": 0.0, "fusion_lat": 0.0, "name": "8a02bf18e6bf7eb539f205acfcca48c7", "type": "electric_scooter", "is_disabled": 0, "lat": 38.9159405, "rental_uris": {"android": "https://dc.lft.to/lastmile_qr_scan", "ios": "https://dc.lft.to/lastmile_qr_scan"}, "bike_id": "8a02bf18e6bf7eb539f205acfcca48c7", "lon": -77.02303416666666}, {"is_reserved": 0, "fusion_lon": 0.0, "fusion_lat": 0.0, "name": "b49de639bffdeaf4d57c662737a9e892", "type": "electric_scooter", "is_disabled": 0, "lat": 38.95183216666667, "rental_uris": {"android": "https://dc.lft.to/lastmile_qr_scan", "ios": "https://dc.lft.to/lastmile_qr_scan"}, "bike_id": "b49de639bffdeaf4d57c662737a9e892", "lon": -77.0272935}, {"is_reserved": 0, "fusion_lon": 0.0, "fusion_lat": 0.0, "name": "793fd9cbd3976b0d5d14fe56d3a906d0", "type": "electric_scooter", "is_disabled": 0, "lat": 38.9051445, "rental_uris": {"android": "https://dc.lft.to/lastmile_qr_scan", "ios": "https://dc.lft.to/lastmile_qr_scan"}, "bike_id": "793fd9cbd3976b0d5d14fe56d3a906d0", "lon": -77.0464905}, {"is_reserved": 0, "fusion_lon": 0.0, "fusion_lat": 0.0, "name": "829526bcb2eb785f9a3f4466cea06a86", "type": "electric_scooter", "is_disabled": 0, "lat": 38.89183766666667, "rental_uris": {"android": "https://dc.lft.to/lastmile_qr_scan", "ios": "https://dc.lft.to/lastmile_qr_scan"}, "bike_id": "829526bcb2eb785f9a3f4466cea06a86", "lon": -77.036342}, {"is_reserved": 0, "fusion_lon": 0.0, "fusion_lat": 0.0, "name": "b0fa39a1a5dfa7d344485f1e18fd8b0f", "type": "electric_scooter", "is_disabled": 0, "lat": 38.90087916666667, "rental_uris": {"android": "https://dc.lft.to/lastmile_qr_scan", "ios": "https://dc.lft.to/lastmile_qr_scan"}, "bike_id": "b0fa39a1a5dfa7d344485f1e18fd8b0f", "lon": -76.93864483333333}, {"is_reserved": 0, "fusion_lon": 0.0, "fusion_lat": 0.0, "name": "c40259886bda918f9aa35342261f6fe4", "type": "electric_bike", "is_disabled": 0, "lat": 38.99640266666667, "rental_uris": {"android": "https://dc.lft.to/lastmile_qr_scan", "ios": "https://dc.lft.to/lastmile_qr_scan"}, "bike_id": "c40259886bda918f9aa35342261f6fe4", "lon": -77.04002216666666}, {"is_reserved": 0, "fusion_lon": 0.0, "fusion_lat": 0.0, "name": "5c2f90ef9121f4a6743067435392821f", "type": "electric_scooter", "is_disabled": 0, "lat": 38.9190225, "rental_uris": {"android": "https://dc.lft.to/lastmile_qr_scan", "ios": "https://dc.lft.to/lastmile_qr_scan"}, "bike_id": "5c2f90ef9121f4a6743067435392821f", "lon": -76.98742783333333}, {"is_reserved": 0, "fusion_lon": 0.0, "fusion_lat": 0.0, "name": "6cb68e46243d0dca47f2213eae59e78b", "type": "electric_scooter", "is_disabled": 0, "lat": 38.90776783333333, "rental_uris": {"android": "https://dc.lft.to/lastmile_qr_scan", "ios": "https://dc.lft.to/lastmile_qr_scan"}, "bike_id": "6cb68e46243d0dca47f2213eae59e78b", "lon": -76.97830833333333}, {"is_reserved": 0, "fusion_lon": 0.0, "fusion_lat": 0.0, "name": "9e2f1503296bd9774f794b3ca64969c8", "type": "electric_scooter", "is_disabled": 0, "lat": 38.948671833333336, "rental_uris": {"android": "https://dc.lft.to/lastmile_qr_scan", "ios": "https://dc.lft.to/lastmile_qr_scan"}, "bike_id": "9e2f1503296bd9774f794b3ca64969c8", "lon": -77.03883816666666}, {"is_reserved": 0, "fusion_lon": 0.0, "fusion_lat": 0.0, "name": "30fb4ad80b539764a5fa74bbe9b180ef", "type": "electric_bike", "is_disabled": 0, "lat": 38.94154433333333, "rental_uris": {"android": "https://dc.lft.to/lastmile_qr_scan", "ios": "https://dc.lft.to/lastmile_qr_scan"}, "bike_id": "30fb4ad80b539764a5fa74bbe9b180ef", "lon": -77.002005}, {"is_reserved": 0, "fusion_lon": 0.0, "fusion_lat": 0.0, "name": "61fbded3f5071d926328c5ef3ff9d8b4", "type": "electric_scooter", "is_disabled": 0, "lat": 38.91471633333333, "rental_uris": {"android": "https://dc.lft.to/lastmile_qr_scan", "ios": "https://dc.lft.to/lastmile_qr_scan"}, "bike_id": "61fbded3f5071d926328c5ef3ff9d8b4", "lon": -77.03212733333334}, {"is_reserved": 0, "fusion_lon": 0.0, "fusion_lat": 0.0, "name": "e627545649e1bdfa16c7116afb5e6ee3", "type": "electric_scooter", "is_disabled": 0, "lat": 38.912665, "rental_uris": {"android": "https://dc.lft.to/lastmile_qr_scan", "ios": "https://dc.lft.to/lastmile_qr_scan"}, "bike_id": "e627545649e1bdfa16c7116afb5e6ee3", "lon": -77.03868933333334}, {"is_reserved": 0, "fusion_lon": 0.0, "fusion_lat": 0.0, "name": "ae208a3c36f3e550b610310827dcdc61", "type": "electric_scooter", "is_disabled": 0, "lat": 38.91570466666667, "rental_uris": {"android": "https://dc.lft.to/lastmile_qr_scan", "ios": "https://dc.lft.to/lastmile_qr_scan"}, "bike_id": "ae208a3c36f3e550b610310827dcdc61", "lon": -77.01247083333334}, {"is_reserved": 0, "fusion_lon": 0.0, "fusion_lat": 0.0, "name": "0b553e9baa227d5121fe2ce5cab7f4e6", "type": "electric_scooter", "is_disabled": 0, "lat": 38.87850866666667, "rental_uris": {"android": "https://dc.lft.to/lastmile_qr_scan", "ios": "https://dc.lft.to/lastmile_qr_scan"}, "bike_id": "0b553e9baa227d5121fe2ce5cab7f4e6", "lon": -77.03019933333333}, {"is_reserved": 0, "fusion_lon": 0.0, "fusion_lat": 0.0, "name": "e8f2bad5b129bc15b6fafcfa4645ffae", "type": "electric_scooter", "is_disabled": 0, "lat": 38.935644, "rental_uris": {"android": "https://dc.lft.to/lastmile_qr_scan", "ios": "https://dc.lft.to/lastmile_qr_scan"}, "bike_id": "e8f2bad5b129bc15b6fafcfa4645ffae", "lon": -77.07320966666667}, {"is_reserved": 0, "fusion_lon": 0.0, "fusion_lat": 0.0, "name": "c0df654324fbbd0aa9357d03b5863300", "type": "electric_scooter", "is_disabled": 0, "lat": 38.89538016666667, "rental_uris": {"android": "https://dc.lft.to/lastmile_qr_scan", "ios": "https://dc.lft.to/lastmile_qr_scan"}, "bike_id": "c0df654324fbbd0aa9357d03b5863300", "lon": -77.0287215}, {"is_reserved": 0, "fusion_lon": 0.0, "fusion_lat": 0.0, "name": "fa7f3820a282000c9caa0b43e78e534e", "type": "electric_scooter", "is_disabled": 0, "lat": 38.9193305, "rental_uris": {"android": "https://dc.lft.to/lastmile_qr_scan", "ios": "https://dc.lft.to/lastmile_qr_scan"}, "bike_id": "fa7f3820a282000c9caa0b43e78e534e", "lon": -77.0252485}, {"is_reserved": 0, "fusion_lon": 0.0, "fusion_lat": 0.0, "name": "ac8762091309689b498beca166e5f12f", "type": "electric_scooter", "is_disabled": 0, "lat": 38.91119916666667, "rental_uris": {"android": "https://dc.lft.to/lastmile_qr_scan", "ios": "https://dc.lft.to/lastmile_qr_scan"}, "bike_id": "ac8762091309689b498beca166e5f12f", "lon": -77.0384025}, {"is_reserved": 0, "fusion_lon": 0.0, "fusion_lat": 0.0, "name": "8ec3531643aff6ffda295a73ed683b28", "type": "electric_scooter", "is_disabled": 0, "lat": 38.92009633333333, "rental_uris": {"android": "https://dc.lft.to/lastmile_qr_scan", "ios": "https://dc.lft.to/lastmile_qr_scan"}, "bike_id": "8ec3531643aff6ffda295a73ed683b28", "lon": -77.03884333333333}, {"is_reserved": 0, "fusion_lon": 0.0, "fusion_lat": 0.0, "name": "9df5ea3ae7fef9f333dd25970a899b8a", "type": "electric_scooter", "is_disabled": 0, "lat": 38.912652333333334, "rental_uris": {"android": "https://dc.lft.to/lastmile_qr_scan", "ios": "https://dc.lft.to/lastmile_qr_scan"}, "bike_id": "9df5ea3ae7fef9f333dd25970a899b8a", "lon": -77.03867916666667}, {"is_reserved": 0, "fusion_lon": 0.0, "fusion_lat": 0.0, "name": "5dedc6dc3b408f0a33192b2044ad85c8", "type": "electric_scooter", "is_disabled": 0, "lat": 38.916854, "rental_uris": {"android": "https://dc.lft.to/lastmile_qr_scan", "ios": "https://dc.lft.to/lastmile_qr_scan"}, "bike_id": "5dedc6dc3b408f0a33192b2044ad85c8", "lon": -77.0295645}, {"is_reserved": 0, "fusion_lon": 0.0, "fusion_lat": 0.0, "name": "b1a63df80e465f3ab4e2e164cf777757", "type": "electric_scooter", "is_disabled": 0, "lat": 38.8872655, "rental_uris": {"android": "https://dc.lft.to/lastmile_qr_scan", "ios": "https://dc.lft.to/lastmile_qr_scan"}, "bike_id": "b1a63df80e465f3ab4e2e164cf777757", "lon": -77.02184183333334}, {"is_reserved": 0, "fusion_lon": 0.0, "fusion_lat": 0.0, "name": "5b7e1878be1da490b8d1a55cd4415c0a", "type": "electric_scooter", "is_disabled": 0, "lat": 38.92950583333333, "rental_uris": {"android": "https://dc.lft.to/lastmile_qr_scan", "ios": "https://dc.lft.to/lastmile_qr_scan"}, "bike_id": "5b7e1878be1da490b8d1a55cd4415c0a", "lon": -77.0164565}, {"is_reserved": 0, "fusion_lon": 0.0, "fusion_lat": 0.0, "name": "5e3616f73c68fd2af6d3f41c5fc178e3", "type": "electric_scooter", "is_disabled": 0, "lat": 38.90272516666667, "rental_uris": {"android": "https://dc.lft.to/lastmile_qr_scan", "ios": "https://dc.lft.to/lastmile_qr_scan"}, "bike_id": "5e3616f73c68fd2af6d3f41c5fc178e3", "lon": -77.01785016666666}, {"is_reserved": 0, "fusion_lon": 0.0, "fusion_lat": 0.0, "name": "005481947486b4ff2a2c88baa3363e26", "type": "electric_scooter", "is_disabled": 0, "lat": 38.95731283333333, "rental_uris": {"android": "https://dc.lft.to/lastmile_qr_scan", "ios": "https://dc.lft.to/lastmile_qr_scan"}, "bike_id": "005481947486b4ff2a2c88baa3363e26", "lon": -77.02404683333333}, {"is_reserved": 0, "fusion_lon": 0.0, "fusion_lat": 0.0, "name": "ea199e4d1fa90144632adc9a0a1967c5", "type": "electric_bike", "is_disabled": 0, "lat": 38.879874666666666, "rental_uris": {"android": "https://dc.lft.to/lastmile_qr_scan", "ios": "https://dc.lft.to/lastmile_qr_scan"}, "bike_id": "ea199e4d1fa90144632adc9a0a1967c5", "lon": -76.91596966666667}, {"is_reserved": 0, "fusion_lon": 0.0, "fusion_lat": 0.0, "name": "476c85a7f5a80197ae9663be2813197a", "type": "electric_bike", "is_disabled": 0, "lat": 38.80016416666667, "rental_uris": {"android": "https://dc.lft.to/lastmile_qr_scan", "ios": "https://dc.lft.to/lastmile_qr_scan"}, "bike_id": "476c85a7f5a80197ae9663be2813197a", "lon": -77.0548595}, {"is_reserved": 0, "fusion_lon": 0.0, "fusion_lat": 0.0, "name": "e5e8b2b89fddff48f18ad83f02f8798c", "type": "electric_bike", "is_disabled": 0, "lat": 38.87637483333334, "rental_uris": {"android": "https://dc.lft.to/lastmile_qr_scan", "ios": "https://dc.lft.to/lastmile_qr_scan"}, "bike_id": "e5e8b2b89fddff48f18ad83f02f8798c", "lon": -76.98871766666667}, {"is_reserved": 0, "fusion_lon": 0.0, "fusion_lat": 0.0, "name": "a2061d10013d6c0c6ebbe5d4ac3ac78c", "type": "electric_scooter", "is_disabled": 0, "lat": 38.900119833333335, "rental_uris": {"android": "https://dc.lft.to/lastmile_qr_scan", "ios": "https://dc.lft.to/lastmile_qr_scan"}, "bike_id": "a2061d10013d6c0c6ebbe5d4ac3ac78c", "lon": -76.98868916666666}, {"is_reserved": 0, "fusion_lon": 0.0, "fusion_lat": 0.0, "name": "2c3998e3317239892904e7963bd0c65c", "type": "electric_scooter", "is_disabled": 0, "lat": 38.873634, "rental_uris": {"android": "https://dc.lft.to/lastmile_qr_scan", "ios": "https://dc.lft.to/lastmile_qr_scan"}, "bike_id": "2c3998e3317239892904e7963bd0c65c", "lon": -77.005971}, {"is_reserved": 0, "fusion_lon": 0.0, "fusion_lat": 0.0, "name": "69d46701f1177a758d07e279822e0188", "type": "electric_scooter", "is_disabled": 0, "lat": 38.92767216666667, "rental_uris": {"android": "https://dc.lft.to/lastmile_qr_scan", "ios": "https://dc.lft.to/lastmile_qr_scan"}, "bike_id": "69d46701f1177a758d07e279822e0188", "lon": -77.02791633333334}, {"is_reserved": 0, "fusion_lon": 0.0, "fusion_lat": 0.0, "name": "a303aa1ef7daef438b19591ab58a44c4", "type": "electric_scooter", "is_disabled": 0, "lat": 38.91742566666667, "rental_uris": {"android": "https://dc.lft.to/lastmile_qr_scan", "ios": "https://dc.lft.to/lastmile_qr_scan"}, "bike_id": "a303aa1ef7daef438b19591ab58a44c4", "lon": -77.01085733333333}, {"is_reserved": 0, "fusion_lon": 0.0, "fusion_lat": 0.0, "name": "24d076efca18c55c7917c3194cde03e2", "type": "electric_scooter", "is_disabled": 0, "lat": 38.86416533333333, "rental_uris": {"android": "https://dc.lft.to/lastmile_qr_scan", "ios": "https://dc.lft.to/lastmile_qr_scan"}, "bike_id": "24d076efca18c55c7917c3194cde03e2", "lon": -77.01204416666667}, {"is_reserved": 0, "fusion_lon": 0.0, "fusion_lat": 0.0, "name": "82227598604da5d946078820177f30f5", "type": "electric_scooter", "is_disabled": 0, "lat": 38.885890333333336, "rental_uris": {"android": "https://dc.lft.to/lastmile_qr_scan", "ios": "https://dc.lft.to/lastmile_qr_scan"}, "bike_id": "82227598604da5d946078820177f30f5", "lon": -76.92989716666666}, {"is_reserved": 0, "fusion_lon": 0.0, "fusion_lat": 0.0, "name": "f0f3e9eb581dfec28629e88af41372ee", "type": "electric_scooter", "is_disabled": 0, "lat": 38.911190833333336, "rental_uris": {"android": "https://dc.lft.to/lastmile_qr_scan", "ios": "https://dc.lft.to/lastmile_qr_scan"}, "bike_id": "f0f3e9eb581dfec28629e88af41372ee", "lon": -77.0383965}, {"is_reserved": 0, "fusion_lon": 0.0, "fusion_lat": 0.0, "name": "e85c7c83baeadb1ad1b9a9dbd33fb44e", "type": "electric_scooter", "is_disabled": 0, "lat": 38.89869916666667, "rental_uris": {"android": "https://dc.lft.to/lastmile_qr_scan", "ios": "https://dc.lft.to/lastmile_qr_scan"}, "bike_id": "e85c7c83baeadb1ad1b9a9dbd33fb44e", "lon": -76.94662216666667}, {"is_reserved": 0, "fusion_lon": 0.0, "fusion_lat": 0.0, "name": "a413d592f5d78dba58ba1e4b54d0d38b", "type": "electric_bike", "is_disabled": 0, "lat": 38.8787655, "rental_uris": {"android": "https://dc.lft.to/lastmile_qr_scan", "ios": "https://dc.lft.to/lastmile_qr_scan"}, "bike_id": "a413d592f5d78dba58ba1e4b54d0d38b", "lon": -76.990207}, {"is_reserved": 0, "fusion_lon": 0.0, "fusion_lat": 0.0, "name": "9b3019ac6afbbec3f961bd27560f78bc", "type": "electric_bike", "is_disabled": 0, "lat": 38.854878, "rental_uris": {"android": "https://dc.lft.to/lastmile_qr_scan", "ios": "https://dc.lft.to/lastmile_qr_scan"}, "bike_id": "9b3019ac6afbbec3f961bd27560f78bc", "lon": -77.116037}, {"is_reserved": 0, "fusion_lon": 0.0, "fusion_lat": 0.0, "name": "0eeb97e9807e68eb302c605844a99dc5", "type": "electric_scooter", "is_disabled": 0, "lat": 38.893496999999996, "rental_uris": {"android": "https://dc.lft.to/lastmile_qr_scan", "ios": "https://dc.lft.to/lastmile_qr_scan"}, "bike_id": "0eeb97e9807e68eb302c605844a99dc5", "lon": -77.01726333333333}, {"is_reserved": 0, "fusion_lon": 0.0, "fusion_lat": 0.0, "name": "9d844d4ea039460efde6e76b621883df", "type": "electric_scooter", "is_disabled": 0, "lat": 38.91121666666667, "rental_uris": {"android": "https://dc.lft.to/lastmile_qr_scan", "ios": "https://dc.lft.to/lastmile_qr_scan"}, "bike_id": "9d844d4ea039460efde6e76b621883df", "lon": -77.03150766666667}, {"is_reserved": 0, "fusion_lon": 0.0, "fusion_lat": 0.0, "name": "9a2d351ec54ff73eb623401beb4fa12f", "type": "electric_scooter", "is_disabled": 0, "lat": 38.9063355, "rental_uris": {"android": "https://dc.lft.to/lastmile_qr_scan", "ios": "https://dc.lft.to/lastmile_qr_scan"}, "bike_id": "9a2d351ec54ff73eb623401beb4fa12f", "lon": -77.0465855}, {"is_reserved": 0, "fusion_lon": 0.0, "fusion_lat": 0.0, "name": "8c972cf3ea08d2f578c1259d6ee3b2a3", "type": "electric_scooter", "is_disabled": 0, "lat": 38.8699695, "rental_uris": {"android": "https://dc.lft.to/lastmile_qr_scan", "ios": "https://dc.lft.to/lastmile_qr_scan"}, "bike_id": "8c972cf3ea08d2f578c1259d6ee3b2a3", "lon": -76.97589233333333}, {"is_reserved": 0, "fusion_lon": 0.0, "fusion_lat": 0.0, "name": "f2a40faffa764de2a628a9dda75ef2fa", "type": "electric_bike", "is_disabled": 0, "lat": 39.052812833333334, "rental_uris": {"android": "https://dc.lft.to/lastmile_qr_scan", "ios": "https://dc.lft.to/lastmile_qr_scan"}, "bike_id": "f2a40faffa764de2a628a9dda75ef2fa", "lon": -77.08074166666667}, {"is_reserved": 0, "fusion_lon": 0.0, "fusion_lat": 0.0, "name": "536c39274ecd8c6c79b9ce913a9773a2", "type": "electric_scooter", "is_disabled": 0, "lat": 38.905535666666665, "rental_uris": {"android": "https://dc.lft.to/lastmile_qr_scan", "ios": "https://dc.lft.to/lastmile_qr_scan"}, "bike_id": "536c39274ecd8c6c79b9ce913a9773a2", "lon": -77.0058565}, {"is_reserved": 0, "fusion_lon": 0.0, "fusion_lat": 0.0, "name": "ee933b798594ca929a60833a9f94bc22", "type": "electric_scooter", "is_disabled": 0, "lat": 38.984592166666665, "rental_uris": {"android": "https://dc.lft.to/lastmile_qr_scan", "ios": "https://dc.lft.to/lastmile_qr_scan"}, "bike_id": "ee933b798594ca929a60833a9f94bc22", "lon": -77.02639616666667}, {"is_reserved": 0, "fusion_lon": 0.0, "fusion_lat": 0.0, "name": "b524b8a2c5f2d9befd8e5a52879db73c", "type": "electric_scooter", "is_disabled": 0, "lat": 38.90259733333333, "rental_uris": {"android": "https://dc.lft.to/lastmile_qr_scan", "ios": "https://dc.lft.to/lastmile_qr_scan"}, "bike_id": "b524b8a2c5f2d9befd8e5a52879db73c", "lon": -76.99553616666667}, {"is_reserved": 0, "fusion_lon": 0.0, "fusion_lat": 0.0, "name": "c864ac13c99ab7e53b70f14315544388", "type": "electric_scooter", "is_disabled": 0, "lat": 38.9209485, "rental_uris": {"android": "https://dc.lft.to/lastmile_qr_scan", "ios": "https://dc.lft.to/lastmile_qr_scan"}, "bike_id": "c864ac13c99ab7e53b70f14315544388", "lon": -77.02204366666666}, {"is_reserved": 0, "fusion_lon": 0.0, "fusion_lat": 0.0, "name": "a20c16acc1819c9ff6930289175d0980", "type": "electric_scooter", "is_disabled": 0, "lat": 38.9155275, "rental_uris": {"android": "https://dc.lft.to/lastmile_qr_scan", "ios": "https://dc.lft.to/lastmile_qr_scan"}, "bike_id": "a20c16acc1819c9ff6930289175d0980", "lon": -77.02049516666666}, {"is_reserved": 0, "fusion_lon": 0.0, "fusion_lat": 0.0, "name": "b75628424738910bfb98f2bc2b618c19", "type": "electric_scooter", "is_disabled": 0, "lat": 38.9322975, "rental_uris": {"android": "https://dc.lft.to/lastmile_qr_scan", "ios": "https://dc.lft.to/lastmile_qr_scan"}, "bike_id": "b75628424738910bfb98f2bc2b618c19", "lon": -77.03866016666667}, {"is_reserved": 0, "fusion_lon": 0.0, "fusion_lat": 0.0, "name": "fe0fe0d0447006ec5673e8e85f61d4a2", "type": "electric_scooter", "is_disabled": 0, "lat": 38.92106783333333, "rental_uris": {"android": "https://dc.lft.to/lastmile_qr_scan", "ios": "https://dc.lft.to/lastmile_qr_scan"}, "bike_id": "fe0fe0d0447006ec5673e8e85f61d4a2", "lon": -77.04118283333334}, {"is_reserved": 0, "fusion_lon": 0.0, "fusion_lat": 0.0, "name": "9280364cda11e6cac9e97b599e85afec", "type": "electric_scooter", "is_disabled": 0, "lat": 38.887190333333336, "rental_uris": {"android": "https://dc.lft.to/lastmile_qr_scan", "ios": "https://dc.lft.to/lastmile_qr_scan"}, "bike_id": "9280364cda11e6cac9e97b599e85afec", "lon": -77.02831733333333}, {"is_reserved": 0, "fusion_lon": 0.0, "fusion_lat": 0.0, "name": "7c785aad0ae4b2a1faa6aa6cd3e93e2c", "type": "electric_scooter", "is_disabled": 0, "lat": 38.878299166666665, "rental_uris": {"android": "https://dc.lft.to/lastmile_qr_scan", "ios": "https://dc.lft.to/lastmile_qr_scan"}, "bike_id": "7c785aad0ae4b2a1faa6aa6cd3e93e2c", "lon": -76.96304816666667}, {"is_reserved": 0, "fusion_lon": 0.0, "fusion_lat": 0.0, "name": "5d1453d2a90e58db4995718ee366d6b2", "type": "electric_scooter", "is_disabled": 0, "lat": 38.86660633333334, "rental_uris": {"android": "https://dc.lft.to/lastmile_qr_scan", "ios": "https://dc.lft.to/lastmile_qr_scan"}, "bike_id": "5d1453d2a90e58db4995718ee366d6b2", "lon": -76.988903}, {"is_reserved": 0, "fusion_lon": 0.0, "fusion_lat": 0.0, "name": "4553d9df5f42bf207c728c2eee6f6d5c", "type": "electric_scooter", "is_disabled": 0, "lat": 38.91416666666667, "rental_uris": {"android": "https://dc.lft.to/lastmile_qr_scan", "ios": "https://dc.lft.to/lastmile_qr_scan"}, "bike_id": "4553d9df5f42bf207c728c2eee6f6d5c", "lon": -77.03814766666666}, {"is_reserved": 0, "fusion_lon": 0.0, "fusion_lat": 0.0, "name": "bf19b12fdb49865651e0bfd0bb3831f7", "type": "electric_scooter", "is_disabled": 0, "lat": 38.9141805, "rental_uris": {"android": "https://dc.lft.to/lastmile_qr_scan", "ios": "https://dc.lft.to/lastmile_qr_scan"}, "bike_id": "bf19b12fdb49865651e0bfd0bb3831f7", "lon": -77.049189}, {"is_reserved": 0, "fusion_lon": 0.0, "fusion_lat": 0.0, "name": "dced5e4d43c048ea6b0eae86b02d93a6", "type": "electric_scooter", "is_disabled": 0, "lat": 38.88089216666667, "rental_uris": {"android": "https://dc.lft.to/lastmile_qr_scan", "ios": "https://dc.lft.to/lastmile_qr_scan"}, "bike_id": "dced5e4d43c048ea6b0eae86b02d93a6", "lon": -76.99839316666667}, {"is_reserved": 0, "fusion_lon": 0.0, "fusion_lat": 0.0, "name": "8ecd2c0bdf0dae3a800f6b5576a76ef2", "type": "electric_scooter", "is_disabled": 0, "lat": 38.876311, "rental_uris": {"android": "https://dc.lft.to/lastmile_qr_scan", "ios": "https://dc.lft.to/lastmile_qr_scan"}, "bike_id": "8ecd2c0bdf0dae3a800f6b5576a76ef2", "lon": -77.01258216666666}, {"is_reserved": 0, "fusion_lon": 0.0, "fusion_lat": 0.0, "name": "861cf559d968a904c1c9b2a598264531", "type": "electric_scooter", "is_disabled": 0, "lat": 38.88384883333333, "rental_uris": {"android": "https://dc.lft.to/lastmile_qr_scan", "ios": "https://dc.lft.to/lastmile_qr_scan"}, "bike_id": "861cf559d968a904c1c9b2a598264531", "lon": -77.030323}, {"is_reserved": 0, "fusion_lon": 0.0, "fusion_lat": 0.0, "name": "f6e4f97eab0e79cd2c07375d745310bf", "type": "electric_bike", "is_disabled": 0, "lat": 38.81838783333333, "rental_uris": {"android": "https://dc.lft.to/lastmile_qr_scan", "ios": "https://dc.lft.to/lastmile_qr_scan"}, "bike_id": "f6e4f97eab0e79cd2c07375d745310bf", "lon": -77.105736}, {"is_reserved": 0, "fusion_lon": 0.0, "fusion_lat": 0.0, "name": "b530eb9335759bcc87b051b26a17f60a", "type": "electric_scooter", "is_disabled": 0, "lat": 38.92487716666667, "rental_uris": {"android": "https://dc.lft.to/lastmile_qr_scan", "ios": "https://dc.lft.to/lastmile_qr_scan"}, "bike_id": "b530eb9335759bcc87b051b26a17f60a", "lon": -77.03185}, {"is_reserved": 0, "fusion_lon": 0.0, "fusion_lat": 0.0, "name": "ba693be1f9072d7b80ac54045a6a7c67", "type": "electric_scooter", "is_disabled": 0, "lat": 38.917574, "rental_uris": {"android": "https://dc.lft.to/lastmile_qr_scan", "ios": "https://dc.lft.to/lastmile_qr_scan"}, "bike_id": "ba693be1f9072d7b80ac54045a6a7c67", "lon": -77.01215916666666}, {"is_reserved": 0, "fusion_lon": 0.0, "fusion_lat": 0.0, "name": "987e6b6b03898b6b5890f9b496f8b587", "type": "electric_scooter", "is_disabled": 0, "lat": 38.8600775, "rental_uris": {"android": "https://dc.lft.to/lastmile_qr_scan", "ios": "https://dc.lft.to/lastmile_qr_scan"}, "bike_id": "987e6b6b03898b6b5890f9b496f8b587", "lon": -76.985257}, {"is_reserved": 0, "fusion_lon": 0.0, "fusion_lat": 0.0, "name": "615f17f3371ec6940ca9155cbca55fe9", "type": "electric_scooter", "is_disabled": 0, "lat": 38.90615716666667, "rental_uris": {"android": "https://dc.lft.to/lastmile_qr_scan", "ios": "https://dc.lft.to/lastmile_qr_scan"}, "bike_id": "615f17f3371ec6940ca9155cbca55fe9", "lon": -76.98688283333334}, {"is_reserved": 0, "fusion_lon": 0.0, "fusion_lat": 0.0, "name": "51c3d7e539d3e68b0d7f3c9ecc67b4bc", "type": "electric_bike", "is_disabled": 0, "lat": 38.866222, "rental_uris": {"android": "https://dc.lft.to/lastmile_qr_scan", "ios": "https://dc.lft.to/lastmile_qr_scan"}, "bike_id": "51c3d7e539d3e68b0d7f3c9ecc67b4bc", "lon": -76.94574616666667}, {"is_reserved": 0, "fusion_lon": 0.0, "fusion_lat": 0.0, "name": "87b925071b3452a6eabcafe58d0c1b83", "type": "electric_scooter", "is_disabled": 0, "lat": 38.898760833333334, "rental_uris": {"android": "https://dc.lft.to/lastmile_qr_scan", "ios": "https://dc.lft.to/lastmile_qr_scan"}, "bike_id": "87b925071b3452a6eabcafe58d0c1b83", "lon": -76.93183933333333}, {"is_reserved": 0, "fusion_lon": 0.0, "fusion_lat": 0.0, "name": "59e2658d9cec328fd0669548370f514e", "type": "electric_scooter", "is_disabled": 0, "lat": 38.90416033333333, "rental_uris": {"android": "https://dc.lft.to/lastmile_qr_scan", "ios": "https://dc.lft.to/lastmile_qr_scan"}, "bike_id": "59e2658d9cec328fd0669548370f514e", "lon": -76.99834966666667}, {"is_reserved": 0, "fusion_lon": 0.0, "fusion_lat": 0.0, "name": "0c4e5d64ee30932e3b8035cb6440e29d", "type": "electric_scooter", "is_disabled": 0, "lat": 38.874707, "rental_uris": {"android": "https://dc.lft.to/lastmile_qr_scan", "ios": "https://dc.lft.to/lastmile_qr_scan"}, "bike_id": "0c4e5d64ee30932e3b8035cb6440e29d", "lon": -77.00557466666666}, {"is_reserved": 0, "fusion_lon": 0.0, "fusion_lat": 0.0, "name": "74ad4682e3b834873d3557cb521f9488", "type": "electric_scooter", "is_disabled": 0, "lat": 38.92614283333333, "rental_uris": {"android": "https://dc.lft.to/lastmile_qr_scan", "ios": "https://dc.lft.to/lastmile_qr_scan"}, "bike_id": "74ad4682e3b834873d3557cb521f9488", "lon": -77.0395675}, {"is_reserved": 0, "fusion_lon": 0.0, "fusion_lat": 0.0, "name": "24c75ccbf1107b6aeb656ebf1ae56f1d", "type": "electric_scooter", "is_disabled": 0, "lat": 38.8874135, "rental_uris": {"android": "https://dc.lft.to/lastmile_qr_scan", "ios": "https://dc.lft.to/lastmile_qr_scan"}, "bike_id": "24c75ccbf1107b6aeb656ebf1ae56f1d", "lon": -77.022136}, {"is_reserved": 0, "fusion_lon": 0.0, "fusion_lat": 0.0, "name": "f727b2412f82b14f6451c8f9bef2550a", "type": "electric_scooter", "is_disabled": 0, "lat": 38.8931035, "rental_uris": {"android": "https://dc.lft.to/lastmile_qr_scan", "ios": "https://dc.lft.to/lastmile_qr_scan"}, "bike_id": "f727b2412f82b14f6451c8f9bef2550a", "lon": -77.0178975}, {"is_reserved": 0, "fusion_lon": 0.0, "fusion_lat": 0.0, "name": "1bcecce5f6fb59352d49f0cc7b036cba", "type": "electric_bike", "is_disabled": 0, "lat": 38.806570666666666, "rental_uris": {"android": "https://dc.lft.to/lastmile_qr_scan", "ios": "https://dc.lft.to/lastmile_qr_scan"}, "bike_id": "1bcecce5f6fb59352d49f0cc7b036cba", "lon": -77.0876105}, {"is_reserved": 0, "fusion_lon": 0.0, "fusion_lat": 0.0, "name": "f0c96b8f30fc258c641e7ec91d38109b", "type": "electric_scooter", "is_disabled": 0, "lat": 38.903650999999996, "rental_uris": {"android": "https://dc.lft.to/lastmile_qr_scan", "ios": "https://dc.lft.to/lastmile_qr_scan"}, "bike_id": "f0c96b8f30fc258c641e7ec91d38109b", "lon": -77.04194533333333}, {"is_reserved": 0, "fusion_lon": 0.0, "fusion_lat": 0.0, "name": "1ed2ebe22e77a8bb77c7938db910e100", "type": "electric_bike", "is_disabled": 0, "lat": 38.956386333333334, "rental_uris": {"android": "https://dc.lft.to/lastmile_qr_scan", "ios": "https://dc.lft.to/lastmile_qr_scan"}, "bike_id": "1ed2ebe22e77a8bb77c7938db910e100", "lon": -77.0225935}, {"is_reserved": 0, "fusion_lon": 0.0, "fusion_lat": 0.0, "name": "c1beece1b741cfa1d2c92a716ec124d2", "type": "electric_scooter", "is_disabled": 0, "lat": 38.89166083333333, "rental_uris": {"android": "https://dc.lft.to/lastmile_qr_scan", "ios": "https://dc.lft.to/lastmile_qr_scan"}, "bike_id": "c1beece1b741cfa1d2c92a716ec124d2", "lon": -76.95181366666667}, {"is_reserved": 0, "fusion_lon": 0.0, "fusion_lat": 0.0, "name": "e7be14fe1656c9b3469ebbd166596570", "type": "electric_scooter", "is_disabled": 0, "lat": 38.90234816666667, "rental_uris": {"android": "https://dc.lft.to/lastmile_qr_scan", "ios": "https://dc.lft.to/lastmile_qr_scan"}, "bike_id": "e7be14fe1656c9b3469ebbd166596570", "lon": -77.05342383333333}, {"is_reserved": 0, "fusion_lon": 0.0, "fusion_lat": 0.0, "name": "f2795a7deae8f55201883ae8acc1ea27", "type": "electric_bike", "is_disabled": 0, "lat": 38.796778, "rental_uris": {"android": "https://dc.lft.to/lastmile_qr_scan", "ios": "https://dc.lft.to/lastmile_qr_scan"}, "bike_id": "f2795a7deae8f55201883ae8acc1ea27", "lon": -76.993335}, {"is_reserved": 0, "fusion_lon": 0.0, "fusion_lat": 0.0, "name": "a16b580b772da086f3b6cd0133756c6e", "type": "electric_scooter", "is_disabled": 0, "lat": 38.907374, "rental_uris": {"android": "https://dc.lft.to/lastmile_qr_scan", "ios": "https://dc.lft.to/lastmile_qr_scan"}, "bike_id": "a16b580b772da086f3b6cd0133756c6e", "lon": -77.0297335}, {"is_reserved": 0, "fusion_lon": 0.0, "fusion_lat": 0.0, "name": "b0833d253bc8c8ec217ad68f91f084d2", "type": "electric_bike", "is_disabled": 0, "lat": 38.95690316666666, "rental_uris": {"android": "https://dc.lft.to/lastmile_qr_scan", "ios": "https://dc.lft.to/lastmile_qr_scan"}, "bike_id": "b0833d253bc8c8ec217ad68f91f084d2", "lon": -77.02226516666667}, {"is_reserved": 0, "fusion_lon": 0.0, "fusion_lat": 0.0, "name": "73bc2eecd82ed2405a344b64c9a459af", "type": "electric_scooter", "is_disabled": 0, "lat": 38.943039, "rental_uris": {"android": "https://dc.lft.to/lastmile_qr_scan", "ios": "https://dc.lft.to/lastmile_qr_scan"}, "bike_id": "73bc2eecd82ed2405a344b64c9a459af", "lon": -77.06296916666666}, {"is_reserved": 0, "fusion_lon": 0.0, "fusion_lat": 0.0, "name": "402479ca40cbba7c12575ce3c6d78cca", "type": "electric_scooter", "is_disabled": 0, "lat": 38.91479416666667, "rental_uris": {"android": "https://dc.lft.to/lastmile_qr_scan", "ios": "https://dc.lft.to/lastmile_qr_scan"}, "bike_id": "402479ca40cbba7c12575ce3c6d78cca", "lon": -77.03865233333333}, {"is_reserved": 0, "fusion_lon": 0.0, "fusion_lat": 0.0, "name": "d4949b7821cce517b910b6a0f886eb1e", "type": "electric_scooter", "is_disabled": 0, "lat": 38.910513333333334, "rental_uris": {"android": "https://dc.lft.to/lastmile_qr_scan", "ios": "https://dc.lft.to/lastmile_qr_scan"}, "bike_id": "d4949b7821cce517b910b6a0f886eb1e", "lon": -77.06485233333333}, {"is_reserved": 0, "fusion_lon": 0.0, "fusion_lat": 0.0, "name": "5ff0ce93e177014ce1f671fdacb6158a", "type": "electric_scooter", "is_disabled": 0, "lat": 38.95072966666667, "rental_uris": {"android": "https://dc.lft.to/lastmile_qr_scan", "ios": "https://dc.lft.to/lastmile_qr_scan"}, "bike_id": "5ff0ce93e177014ce1f671fdacb6158a", "lon": -76.99565983333333}, {"is_reserved": 0, "fusion_lon": 0.0, "fusion_lat": 0.0, "name": "57f5a43eaf1fbb07ba59d6ae6d68bb69", "type": "electric_scooter", "is_disabled": 0, "lat": 38.90832133333333, "rental_uris": {"android": "https://dc.lft.to/lastmile_qr_scan", "ios": "https://dc.lft.to/lastmile_qr_scan"}, "bike_id": "57f5a43eaf1fbb07ba59d6ae6d68bb69", "lon": -77.0331505}, {"is_reserved": 0, "fusion_lon": 0.0, "fusion_lat": 0.0, "name": "f52dfe0f4eac1789e27ef432f890c904", "type": "electric_scooter", "is_disabled": 0, "lat": 38.91549416666667, "rental_uris": {"android": "https://dc.lft.to/lastmile_qr_scan", "ios": "https://dc.lft.to/lastmile_qr_scan"}, "bike_id": "f52dfe0f4eac1789e27ef432f890c904", "lon": -77.0385755}, {"is_reserved": 0, "fusion_lon": 0.0, "fusion_lat": 0.0, "name": "436e9265e54e45bd2c2a8ccd9d3e1cce", "type": "electric_scooter", "is_disabled": 0, "lat": 38.908290666666666, "rental_uris": {"android": "https://dc.lft.to/lastmile_qr_scan", "ios": "https://dc.lft.to/lastmile_qr_scan"}, "bike_id": "436e9265e54e45bd2c2a8ccd9d3e1cce", "lon": -77.07417433333333}, {"is_reserved": 0, "fusion_lon": 0.0, "fusion_lat": 0.0, "name": "0e2c618b124d4b8b024f4bd9b7d54155", "type": "electric_scooter", "is_disabled": 0, "lat": 38.920979, "rental_uris": {"android": "https://dc.lft.to/lastmile_qr_scan", "ios": "https://dc.lft.to/lastmile_qr_scan"}, "bike_id": "0e2c618b124d4b8b024f4bd9b7d54155", "lon": -77.004385}, {"is_reserved": 0, "fusion_lon": 0.0, "fusion_lat": 0.0, "name": "4e685fe1371e31c7b89a6ef2a2c53071", "type": "electric_scooter", "is_disabled": 0, "lat": 38.911824, "rental_uris": {"android": "https://dc.lft.to/lastmile_qr_scan", "ios": "https://dc.lft.to/lastmile_qr_scan"}, "bike_id": "4e685fe1371e31c7b89a6ef2a2c53071", "lon": -77.00966133333333}, {"is_reserved": 0, "fusion_lon": 0.0, "fusion_lat": 0.0, "name": "930ec5fafe805eeb6f6f1d6d3a425240", "type": "electric_scooter", "is_disabled": 0, "lat": 38.887320333333335, "rental_uris": {"android": "https://dc.lft.to/lastmile_qr_scan", "ios": "https://dc.lft.to/lastmile_qr_scan"}, "bike_id": "930ec5fafe805eeb6f6f1d6d3a425240", "lon": -77.02828683333334}, {"is_reserved": 0, "fusion_lon": 0.0, "fusion_lat": 0.0, "name": "7ae478eb94187c11520dbfc8251de33c", "type": "electric_scooter", "is_disabled": 0, "lat": 38.909633666666664, "rental_uris": {"android": "https://dc.lft.to/lastmile_qr_scan", "ios": "https://dc.lft.to/lastmile_qr_scan"}, "bike_id": "7ae478eb94187c11520dbfc8251de33c", "lon": -77.03864533333333}, {"is_reserved": 0, "fusion_lon": 0.0, "fusion_lat": 0.0, "name": "83e80ecb23caa32ee214000667b504b0", "type": "electric_scooter", "is_disabled": 0, "lat": 38.90760066666667, "rental_uris": {"android": "https://dc.lft.to/lastmile_qr_scan", "ios": "https://dc.lft.to/lastmile_qr_scan"}, "bike_id": "83e80ecb23caa32ee214000667b504b0", "lon": -77.00093516666666}, {"is_reserved": 0, "fusion_lon": 0.0, "fusion_lat": 0.0, "name": "d6a49fe1b8d0b230729ebe71da1e6939", "type": "electric_scooter", "is_disabled": 0, "lat": 38.91549916666666, "rental_uris": {"android": "https://dc.lft.to/lastmile_qr_scan", "ios": "https://dc.lft.to/lastmile_qr_scan"}, "bike_id": "d6a49fe1b8d0b230729ebe71da1e6939", "lon": -77.03858566666666}, {"is_reserved": 0, "fusion_lon": 0.0, "fusion_lat": 0.0, "name": "53da2f2c0ee010fe884df6c2e9b4f4f9", "type": "electric_scooter", "is_disabled": 0, "lat": 38.888139333333335, "rental_uris": {"android": "https://dc.lft.to/lastmile_qr_scan", "ios": "https://dc.lft.to/lastmile_qr_scan"}, "bike_id": "53da2f2c0ee010fe884df6c2e9b4f4f9", "lon": -76.93345866666667}, {"is_reserved": 0, "fusion_lon": 0.0, "fusion_lat": 0.0, "name": "392189cd77f9fa7ef5c57a3c61a3dab9", "type": "electric_scooter", "is_disabled": 0, "lat": 38.873707, "rental_uris": {"android": "https://dc.lft.to/lastmile_qr_scan", "ios": "https://dc.lft.to/lastmile_qr_scan"}, "bike_id": "392189cd77f9fa7ef5c57a3c61a3dab9", "lon": -76.97016733333334}, {"is_reserved": 0, "fusion_lon": 0.0, "fusion_lat": 0.0, "name": "4c8cdb2611e30afc3f6ffa5ccccbe11d", "type": "electric_scooter", "is_disabled": 0, "lat": 38.92708183333333, "rental_uris": {"android": "https://dc.lft.to/lastmile_qr_scan", "ios": "https://dc.lft.to/lastmile_qr_scan"}, "bike_id": "4c8cdb2611e30afc3f6ffa5ccccbe11d", "lon": -77.0241305}, {"is_reserved": 0, "fusion_lon": 0.0, "fusion_lat": 0.0, "name": "bee751d6a536ce1e9c36191d74941c82", "type": "electric_scooter", "is_disabled": 0, "lat": 38.942931333333334, "rental_uris": {"android": "https://dc.lft.to/lastmile_qr_scan", "ios": "https://dc.lft.to/lastmile_qr_scan"}, "bike_id": "bee751d6a536ce1e9c36191d74941c82", "lon": -77.02173316666666}, {"is_reserved": 0, "fusion_lon": 0.0, "fusion_lat": 0.0, "name": "cf76dde41f9c04d5f5a83b2d388d0f06", "type": "electric_scooter", "is_disabled": 0, "lat": 38.905583, "rental_uris": {"android": "https://dc.lft.to/lastmile_qr_scan", "ios": "https://dc.lft.to/lastmile_qr_scan"}, "bike_id": "cf76dde41f9c04d5f5a83b2d388d0f06", "lon": -77.03943366666667}, {"is_reserved": 0, "fusion_lon": 0.0, "fusion_lat": 0.0, "name": "37b80dd7c102bff8f8ae88d493053f11", "type": "electric_scooter", "is_disabled": 0, "lat": 38.90405366666667, "rental_uris": {"android": "https://dc.lft.to/lastmile_qr_scan", "ios": "https://dc.lft.to/lastmile_qr_scan"}, "bike_id": "37b80dd7c102bff8f8ae88d493053f11", "lon": -77.0177425}, {"is_reserved": 0, "fusion_lon": 0.0, "fusion_lat": 0.0, "name": "ec10933855594214cf6d049d1a99ddd1", "type": "electric_scooter", "is_disabled": 0, "lat": 38.894971, "rental_uris": {"android": "https://dc.lft.to/lastmile_qr_scan", "ios": "https://dc.lft.to/lastmile_qr_scan"}, "bike_id": "ec10933855594214cf6d049d1a99ddd1", "lon": -77.00215083333333}, {"is_reserved": 0, "fusion_lon": 0.0, "fusion_lat": 0.0, "name": "e143e4d1f1548e9e94e3542af8dbffe5", "type": "electric_scooter", "is_disabled": 0, "lat": 38.89901416666667, "rental_uris": {"android": "https://dc.lft.to/lastmile_qr_scan", "ios": "https://dc.lft.to/lastmile_qr_scan"}, "bike_id": "e143e4d1f1548e9e94e3542af8dbffe5", "lon": -77.031898}, {"is_reserved": 0, "fusion_lon": 0.0, "fusion_lat": 0.0, "name": "3da5bb46f8fd69c98962b17d0e152db7", "type": "electric_scooter", "is_disabled": 0, "lat": 38.934519, "rental_uris": {"android": "https://dc.lft.to/lastmile_qr_scan", "ios": "https://dc.lft.to/lastmile_qr_scan"}, "bike_id": "3da5bb46f8fd69c98962b17d0e152db7", "lon": -77.0308065}, {"is_reserved": 0, "fusion_lon": 0.0, "fusion_lat": 0.0, "name": "8de02397785a6690c14ecd297767edea", "type": "electric_scooter", "is_disabled": 0, "lat": 38.959343, "rental_uris": {"android": "https://dc.lft.to/lastmile_qr_scan", "ios": "https://dc.lft.to/lastmile_qr_scan"}, "bike_id": "8de02397785a6690c14ecd297767edea", "lon": -77.03131416666666}, {"is_reserved": 0, "fusion_lon": 0.0, "fusion_lat": 0.0, "name": "a99fc329d16fb29627381e1944952f9d", "type": "electric_scooter", "is_disabled": 0, "lat": 38.89554783333333, "rental_uris": {"android": "https://dc.lft.to/lastmile_qr_scan", "ios": "https://dc.lft.to/lastmile_qr_scan"}, "bike_id": "a99fc329d16fb29627381e1944952f9d", "lon": -76.9984415}, {"is_reserved": 0, "fusion_lon": 0.0, "fusion_lat": 0.0, "name": "f4d454bc1154412f9cbdde1264f816d6", "type": "electric_bike", "is_disabled": 0, "lat": 38.912701166666665, "rental_uris": {"android": "https://dc.lft.to/lastmile_qr_scan", "ios": "https://dc.lft.to/lastmile_qr_scan"}, "bike_id": "f4d454bc1154412f9cbdde1264f816d6", "lon": -77.01227233333333}, {"is_reserved": 0, "fusion_lon": 0.0, "fusion_lat": 0.0, "name": "8513a1a7da2962202840b1a8066ff262", "type": "electric_scooter", "is_disabled": 0, "lat": 38.918347833333335, "rental_uris": {"android": "https://dc.lft.to/lastmile_qr_scan", "ios": "https://dc.lft.to/lastmile_qr_scan"}, "bike_id": "8513a1a7da2962202840b1a8066ff262", "lon": -77.02465866666667}, {"is_reserved": 0, "fusion_lon": 0.0, "fusion_lat": 0.0, "name": "8139b2ca320375a512536ecbfea2c5ab", "type": "electric_scooter", "is_disabled": 0, "lat": 38.92425733333334, "rental_uris": {"android": "https://dc.lft.to/lastmile_qr_scan", "ios": "https://dc.lft.to/lastmile_qr_scan"}, "bike_id": "8139b2ca320375a512536ecbfea2c5ab", "lon": -77.035315}, {"is_reserved": 0, "fusion_lon": 0.0, "fusion_lat": 0.0, "name": "5b2a42a58ef436d5889b2275e0b38113", "type": "electric_scooter", "is_disabled": 0, "lat": 38.91419883333333, "rental_uris": {"android": "https://dc.lft.to/lastmile_qr_scan", "ios": "https://dc.lft.to/lastmile_qr_scan"}, "bike_id": "5b2a42a58ef436d5889b2275e0b38113", "lon": -77.02156}, {"is_reserved": 0, "fusion_lon": 0.0, "fusion_lat": 0.0, "name": "8e045df1872529814db19c996d1dddaf", "type": "electric_scooter", "is_disabled": 0, "lat": 38.90009233333333, "rental_uris": {"android": "https://dc.lft.to/lastmile_qr_scan", "ios": "https://dc.lft.to/lastmile_qr_scan"}, "bike_id": "8e045df1872529814db19c996d1dddaf", "lon": -76.998401}, {"is_reserved": 0, "fusion_lon": 0.0, "fusion_lat": 0.0, "name": "aff9ebc5fdddf5bbb8e820f2c1b65560", "type": "electric_bike", "is_disabled": 0, "lat": 38.936549166666666, "rental_uris": {"android": "https://dc.lft.to/lastmile_qr_scan", "ios": "https://dc.lft.to/lastmile_qr_scan"}, "bike_id": "aff9ebc5fdddf5bbb8e820f2c1b65560", "lon": -77.03660933333333}, {"is_reserved": 0, "fusion_lon": 0.0, "fusion_lat": 0.0, "name": "5ed4d3a6ccb63228b72b0b6c12fab178", "type": "electric_scooter", "is_disabled": 0, "lat": 38.89567433333333, "rental_uris": {"android": "https://dc.lft.to/lastmile_qr_scan", "ios": "https://dc.lft.to/lastmile_qr_scan"}, "bike_id": "5ed4d3a6ccb63228b72b0b6c12fab178", "lon": -77.02804266666666}, {"is_reserved": 0, "fusion_lon": 0.0, "fusion_lat": 0.0, "name": "09230625e5db525b0f9d49ff82753aa4", "type": "electric_scooter", "is_disabled": 0, "lat": 38.92574966666667, "rental_uris": {"android": "https://dc.lft.to/lastmile_qr_scan", "ios": "https://dc.lft.to/lastmile_qr_scan"}, "bike_id": "09230625e5db525b0f9d49ff82753aa4", "lon": -77.05268916666667}, {"is_reserved": 0, "fusion_lon": 0.0, "fusion_lat": 0.0, "name": "8308b640fd543b230cd181deb479da33", "type": "electric_scooter", "is_disabled": 0, "lat": 38.90786833333333, "rental_uris": {"android": "https://dc.lft.to/lastmile_qr_scan", "ios": "https://dc.lft.to/lastmile_qr_scan"}, "bike_id": "8308b640fd543b230cd181deb479da33", "lon": -77.03448633333333}, {"is_reserved": 0, "fusion_lon": 0.0, "fusion_lat": 0.0, "name": "1e97bbc34517025c1f496d7989ab81eb", "type": "electric_scooter", "is_disabled": 0, "lat": 38.900270666666664, "rental_uris": {"android": "https://dc.lft.to/lastmile_qr_scan", "ios": "https://dc.lft.to/lastmile_qr_scan"}, "bike_id": "1e97bbc34517025c1f496d7989ab81eb", "lon": -76.98862766666667}, {"is_reserved": 0, "fusion_lon": 0.0, "fusion_lat": 0.0, "name": "6a2842f3c6834947d1bb0a73e31862a4", "type": "electric_scooter", "is_disabled": 0, "lat": 38.904512, "rental_uris": {"android": "https://dc.lft.to/lastmile_qr_scan", "ios": "https://dc.lft.to/lastmile_qr_scan"}, "bike_id": "6a2842f3c6834947d1bb0a73e31862a4", "lon": -76.99616533333334}, {"is_reserved": 0, "fusion_lon": 0.0, "fusion_lat": 0.0, "name": "feec7bcada323a18b43b227e156f2040", "type": "electric_scooter", "is_disabled": 0, "lat": 38.9102245, "rental_uris": {"android": "https://dc.lft.to/lastmile_qr_scan", "ios": "https://dc.lft.to/lastmile_qr_scan"}, "bike_id": "feec7bcada323a18b43b227e156f2040", "lon": -77.06492416666667}, {"is_reserved": 0, "fusion_lon": 0.0, "fusion_lat": 0.0, "name": "e1e4e939ca41bb3d6f45c86463d39a41", "type": "electric_scooter", "is_disabled": 0, "lat": 38.911040666666665, "rental_uris": {"android": "https://dc.lft.to/lastmile_qr_scan", "ios": "https://dc.lft.to/lastmile_qr_scan"}, "bike_id": "e1e4e939ca41bb3d6f45c86463d39a41", "lon": -77.0448235}, {"is_reserved": 0, "fusion_lon": 0.0, "fusion_lat": 0.0, "name": "b1eccceeef5d822fb2f1331f7e3f528a", "type": "electric_scooter", "is_disabled": 0, "lat": 38.936169166666666, "rental_uris": {"android": "https://dc.lft.to/lastmile_qr_scan", "ios": "https://dc.lft.to/lastmile_qr_scan"}, "bike_id": "b1eccceeef5d822fb2f1331f7e3f528a", "lon": -77.0675725}, {"is_reserved": 0, "fusion_lon": 0.0, "fusion_lat": 0.0, "name": "ca7d2524fc951ab7cabff291cfb978ec", "type": "electric_bike", "is_disabled": 0, "lat": 38.853741666666664, "rental_uris": {"android": "https://dc.lft.to/lastmile_qr_scan", "ios": "https://dc.lft.to/lastmile_qr_scan"}, "bike_id": "ca7d2524fc951ab7cabff291cfb978ec", "lon": -77.124641}, {"is_reserved": 0, "fusion_lon": 0.0, "fusion_lat": 0.0, "name": "743cb4183eb2021ac0a35e70c769c650", "type": "electric_scooter", "is_disabled": 0, "lat": 38.950163833333335, "rental_uris": {"android": "https://dc.lft.to/lastmile_qr_scan", "ios": "https://dc.lft.to/lastmile_qr_scan"}, "bike_id": "743cb4183eb2021ac0a35e70c769c650", "lon": -77.066988}, {"is_reserved": 0, "fusion_lon": 0.0, "fusion_lat": 0.0, "name": "15e3862e3f562f1d2ffdc1396aa67017", "type": "electric_scooter", "is_disabled": 0, "lat": 38.917078833333335, "rental_uris": {"android": "https://dc.lft.to/lastmile_qr_scan", "ios": "https://dc.lft.to/lastmile_qr_scan"}, "bike_id": "15e3862e3f562f1d2ffdc1396aa67017", "lon": -77.02900683333333}, {"is_reserved": 0, "fusion_lon": 0.0, "fusion_lat": 0.0, "name": "08f03ab1fe5a0776f9deb914c9a2a925", "type": "electric_scooter", "is_disabled": 0, "lat": 38.89745083333333, "rental_uris": {"android": "https://dc.lft.to/lastmile_qr_scan", "ios": "https://dc.lft.to/lastmile_qr_scan"}, "bike_id": "08f03ab1fe5a0776f9deb914c9a2a925", "lon": -77.04413383333333}, {"is_reserved": 0, "fusion_lon": 0.0, "fusion_lat": 0.0, "name": "40f3a946ae740e4b3e01c0404145a502", "type": "electric_scooter", "is_disabled": 0, "lat": 38.896151, "rental_uris": {"android": "https://dc.lft.to/lastmile_qr_scan", "ios": "https://dc.lft.to/lastmile_qr_scan"}, "bike_id": "40f3a946ae740e4b3e01c0404145a502", "lon": -77.03201683333333}, {"is_reserved": 0, "fusion_lon": 0.0, "fusion_lat": 0.0, "name": "eb779098ba1ac4ca70e8471e6e0e7735", "type": "electric_scooter", "is_disabled": 0, "lat": 38.923376, "rental_uris": {"android": "https://dc.lft.to/lastmile_qr_scan", "ios": "https://dc.lft.to/lastmile_qr_scan"}, "bike_id": "eb779098ba1ac4ca70e8471e6e0e7735", "lon": -77.03495583333333}, {"is_reserved": 0, "fusion_lon": 0.0, "fusion_lat": 0.0, "name": "247691171c5e8aa3418b637c9c7d0659", "type": "electric_scooter", "is_disabled": 0, "lat": 38.904822333333335, "rental_uris": {"android": "https://dc.lft.to/lastmile_qr_scan", "ios": "https://dc.lft.to/lastmile_qr_scan"}, "bike_id": "247691171c5e8aa3418b637c9c7d0659", "lon": -77.03572966666667}, {"is_reserved": 0, "fusion_lon": 0.0, "fusion_lat": 0.0, "name": "5b0c7d2a70929bbe8b5fddc055ed42d3", "type": "electric_bike", "is_disabled": 0, "lat": 38.87297066666667, "rental_uris": {"android": "https://dc.lft.to/lastmile_qr_scan", "ios": "https://dc.lft.to/lastmile_qr_scan"}, "bike_id": "5b0c7d2a70929bbe8b5fddc055ed42d3", "lon": -77.1391955}, {"is_reserved": 0, "fusion_lon": 0.0, "fusion_lat": 0.0, "name": "39560e085c33e7535327f8a61114eb0f", "type": "electric_scooter", "is_disabled": 0, "lat": 38.904092166666665, "rental_uris": {"android": "https://dc.lft.to/lastmile_qr_scan", "ios": "https://dc.lft.to/lastmile_qr_scan"}, "bike_id": "39560e085c33e7535327f8a61114eb0f", "lon": -77.031144}, {"is_reserved": 0, "fusion_lon": 0.0, "fusion_lat": 0.0, "name": "62d24ff5d2843ebd15f47506715eefd3", "type": "electric_scooter", "is_disabled": 0, "lat": 38.882805833333336, "rental_uris": {"android": "https://dc.lft.to/lastmile_qr_scan", "ios": "https://dc.lft.to/lastmile_qr_scan"}, "bike_id": "62d24ff5d2843ebd15f47506715eefd3", "lon": -76.9877935}, {"is_reserved": 0, "fusion_lon": 0.0, "fusion_lat": 0.0, "name": "44cd7ce30eddd543bc95a2e109d4e786", "type": "electric_scooter", "is_disabled": 0, "lat": 38.951540666666666, "rental_uris": {"android": "https://dc.lft.to/lastmile_qr_scan", "ios": "https://dc.lft.to/lastmile_qr_scan"}, "bike_id": "44cd7ce30eddd543bc95a2e109d4e786", "lon": -77.0186555}, {"is_reserved": 0, "fusion_lon": 0.0, "fusion_lat": 0.0, "name": "e6d030ee3c032c73e1bdc1e421da417b", "type": "electric_scooter", "is_disabled": 0, "lat": 38.89750033333333, "rental_uris": {"android": "https://dc.lft.to/lastmile_qr_scan", "ios": "https://dc.lft.to/lastmile_qr_scan"}, "bike_id": "e6d030ee3c032c73e1bdc1e421da417b", "lon": -77.0394695}, {"is_reserved": 0, "fusion_lon": 0.0, "fusion_lat": 0.0, "name": "42a7c952720582151e864579efbe12f1", "type": "electric_scooter", "is_disabled": 0, "lat": 38.922296, "rental_uris": {"android": "https://dc.lft.to/lastmile_qr_scan", "ios": "https://dc.lft.to/lastmile_qr_scan"}, "bike_id": "42a7c952720582151e864579efbe12f1", "lon": -77.037481}, {"is_reserved": 0, "fusion_lon": 0.0, "fusion_lat": 0.0, "name": "a3411aa1db652d4a44868015a1672b9c", "type": "electric_scooter", "is_disabled": 0, "lat": 38.93533333333333, "rental_uris": {"android": "https://dc.lft.to/lastmile_qr_scan", "ios": "https://dc.lft.to/lastmile_qr_scan"}, "bike_id": "a3411aa1db652d4a44868015a1672b9c", "lon": -77.02352416666666}, {"is_reserved": 0, "fusion_lon": 0.0, "fusion_lat": 0.0, "name": "7f0fb78583bfee2d94c6168989cdccc4", "type": "electric_scooter", "is_disabled": 0, "lat": 38.92317716666667, "rental_uris": {"android": "https://dc.lft.to/lastmile_qr_scan", "ios": "https://dc.lft.to/lastmile_qr_scan"}, "bike_id": "7f0fb78583bfee2d94c6168989cdccc4", "lon": -77.04351366666667}, {"is_reserved": 0, "fusion_lon": 0.0, "fusion_lat": 0.0, "name": "0535c5b43e94cd5a301052f3ebc56ac2", "type": "electric_scooter", "is_disabled": 0, "lat": 38.90975233333333, "rental_uris": {"android": "https://dc.lft.to/lastmile_qr_scan", "ios": "https://dc.lft.to/lastmile_qr_scan"}, "bike_id": "0535c5b43e94cd5a301052f3ebc56ac2", "lon": -77.03219516666667}, {"is_reserved": 0, "fusion_lon": 0.0, "fusion_lat": 0.0, "name": "351a319b3f5bcbaf917e6195d3fc3ca3", "type": "electric_scooter", "is_disabled": 0, "lat": 38.91336916666667, "rental_uris": {"android": "https://dc.lft.to/lastmile_qr_scan", "ios": "https://dc.lft.to/lastmile_qr_scan"}, "bike_id": "351a319b3f5bcbaf917e6195d3fc3ca3", "lon": -77.0102965}, {"is_reserved": 0, "fusion_lon": 0.0, "fusion_lat": 0.0, "name": "c155bb0efc1511f82dcdcb8f43cf1bd7", "type": "electric_scooter", "is_disabled": 0, "lat": 38.921466833333334, "rental_uris": {"android": "https://dc.lft.to/lastmile_qr_scan", "ios": "https://dc.lft.to/lastmile_qr_scan"}, "bike_id": "c155bb0efc1511f82dcdcb8f43cf1bd7", "lon": -77.02061}, {"is_reserved": 0, "fusion_lon": 0.0, "fusion_lat": 0.0, "name": "ac63faf546b85f53620c0000f8bcc74d", "type": "electric_scooter", "is_disabled": 0, "lat": 38.916882, "rental_uris": {"android": "https://dc.lft.to/lastmile_qr_scan", "ios": "https://dc.lft.to/lastmile_qr_scan"}, "bike_id": "ac63faf546b85f53620c0000f8bcc74d", "lon": -77.02946766666666}, {"is_reserved": 0, "fusion_lon": 0.0, "fusion_lat": 0.0, "name": "4d29e9aa73c833a348c091295c1202e5", "type": "electric_bike", "is_disabled": 0, "lat": 38.945542333333336, "rental_uris": {"android": "https://dc.lft.to/lastmile_qr_scan", "ios": "https://dc.lft.to/lastmile_qr_scan"}, "bike_id": "4d29e9aa73c833a348c091295c1202e5", "lon": -76.8953875}, {"is_reserved": 0, "fusion_lon": 0.0, "fusion_lat": 0.0, "name": "7113c6ebae09bdc2e1d762f7ad897310", "type": "electric_scooter", "is_disabled": 0, "lat": 38.918727833333335, "rental_uris": {"android": "https://dc.lft.to/lastmile_qr_scan", "ios": "https://dc.lft.to/lastmile_qr_scan"}, "bike_id": "7113c6ebae09bdc2e1d762f7ad897310", "lon": -77.02553}, {"is_reserved": 0, "fusion_lon": 0.0, "fusion_lat": 0.0, "name": "cc7d50f69352e1a0f834f0ce6884e0a7", "type": "electric_scooter", "is_disabled": 0, "lat": 38.9349205, "rental_uris": {"android": "https://dc.lft.to/lastmile_qr_scan", "ios": "https://dc.lft.to/lastmile_qr_scan"}, "bike_id": "cc7d50f69352e1a0f834f0ce6884e0a7", "lon": -77.03656}, {"is_reserved": 0, "fusion_lon": 0.0, "fusion_lat": 0.0, "name": "d31a12c89313e8e8027fb2713ddb2d88", "type": "electric_scooter", "is_disabled": 0, "lat": 38.94262766666667, "rental_uris": {"android": "https://dc.lft.to/lastmile_qr_scan", "ios": "https://dc.lft.to/lastmile_qr_scan"}, "bike_id": "d31a12c89313e8e8027fb2713ddb2d88", "lon": -77.02843433333334}, {"is_reserved": 0, "fusion_lon": 0.0, "fusion_lat": 0.0, "name": "d510ea480e588d7a9732e2395e9fa152", "type": "electric_scooter", "is_disabled": 0, "lat": 38.88616433333333, "rental_uris": {"android": "https://dc.lft.to/lastmile_qr_scan", "ios": "https://dc.lft.to/lastmile_qr_scan"}, "bike_id": "d510ea480e588d7a9732e2395e9fa152", "lon": -76.99655383333334}, {"is_reserved": 0, "fusion_lon": 0.0, "fusion_lat": 0.0, "name": "e4967b44e52c9e0d5dd592bd07a0b1dc", "type": "electric_bike", "is_disabled": 0, "lat": 38.9358465, "rental_uris": {"android": "https://dc.lft.to/lastmile_qr_scan", "ios": "https://dc.lft.to/lastmile_qr_scan"}, "bike_id": "e4967b44e52c9e0d5dd592bd07a0b1dc", "lon": -77.03735983333333}, {"is_reserved": 0, "fusion_lon": 0.0, "fusion_lat": 0.0, "name": "4ea9f7eba219cdaeacf37c3b36736651", "type": "electric_scooter", "is_disabled": 0, "lat": 38.84997516666667, "rental_uris": {"android": "https://dc.lft.to/lastmile_qr_scan", "ios": "https://dc.lft.to/lastmile_qr_scan"}, "bike_id": "4ea9f7eba219cdaeacf37c3b36736651", "lon": -76.98348483333334}, {"is_reserved": 0, "fusion_lon": 0.0, "fusion_lat": 0.0, "name": "838233a6d1b1f31c03aa9dee4ef82e93", "type": "electric_bike", "is_disabled": 0, "lat": 38.83608983333333, "rental_uris": {"android": "https://dc.lft.to/lastmile_qr_scan", "ios": "https://dc.lft.to/lastmile_qr_scan"}, "bike_id": "838233a6d1b1f31c03aa9dee4ef82e93", "lon": -77.0037895}, {"is_reserved": 0, "fusion_lon": 0.0, "fusion_lat": 0.0, "name": "9da4f461ac0b40b36ecc0b97ad55601f", "type": "electric_scooter", "is_disabled": 0, "lat": 38.90179966666667, "rental_uris": {"android": "https://dc.lft.to/lastmile_qr_scan", "ios": "https://dc.lft.to/lastmile_qr_scan"}, "bike_id": "9da4f461ac0b40b36ecc0b97ad55601f", "lon": -76.9286415}, {"is_reserved": 0, "fusion_lon": 0.0, "fusion_lat": 0.0, "name": "585cbef61371f094939446598d5ef184", "type": "electric_scooter", "is_disabled": 0, "lat": 38.858545, "rental_uris": {"android": "https://dc.lft.to/lastmile_qr_scan", "ios": "https://dc.lft.to/lastmile_qr_scan"}, "bike_id": "585cbef61371f094939446598d5ef184", "lon": -76.98569683333334}, {"is_reserved": 0, "fusion_lon": 0.0, "fusion_lat": 0.0, "name": "630c272454ad06fc29f0b7c172e19063", "type": "electric_scooter", "is_disabled": 0, "lat": 38.908923, "rental_uris": {"android": "https://dc.lft.to/lastmile_qr_scan", "ios": "https://dc.lft.to/lastmile_qr_scan"}, "bike_id": "630c272454ad06fc29f0b7c172e19063", "lon": -76.99851016666666}, {"is_reserved": 0, "fusion_lon": 0.0, "fusion_lat": 0.0, "name": "81a23ef5df30f04471097467ee687833", "type": "electric_scooter", "is_disabled": 0, "lat": 38.922872166666664, "rental_uris": {"android": "https://dc.lft.to/lastmile_qr_scan", "ios": "https://dc.lft.to/lastmile_qr_scan"}, "bike_id": "81a23ef5df30f04471097467ee687833", "lon": -77.07296283333334}, {"is_reserved": 0, "fusion_lon": 0.0, "fusion_lat": 0.0, "name": "4fe92cc9fe392288746fa5eba390442d", "type": "electric_scooter", "is_disabled": 0, "lat": 38.902344666666664, "rental_uris": {"android": "https://dc.lft.to/lastmile_qr_scan", "ios": "https://dc.lft.to/lastmile_qr_scan"}, "bike_id": "4fe92cc9fe392288746fa5eba390442d", "lon": -77.03920083333334}, {"is_reserved": 0, "fusion_lon": 0.0, "fusion_lat": 0.0, "name": "58495e52f329fa266f06ec98954fa919", "type": "electric_scooter", "is_disabled": 0, "lat": 38.921621, "rental_uris": {"android": "https://dc.lft.to/lastmile_qr_scan", "ios": "https://dc.lft.to/lastmile_qr_scan"}, "bike_id": "58495e52f329fa266f06ec98954fa919", "lon": -77.04222033333333}, {"is_reserved": 0, "fusion_lon": 0.0, "fusion_lat": 0.0, "name": "abbca27f0e0991d4cccefe4e9a069f52", "type": "electric_scooter", "is_disabled": 0, "lat": 38.90277316666667, "rental_uris": {"android": "https://dc.lft.to/lastmile_qr_scan", "ios": "https://dc.lft.to/lastmile_qr_scan"}, "bike_id": "abbca27f0e0991d4cccefe4e9a069f52", "lon": -77.03651783333333}, {"is_reserved": 0, "fusion_lon": 0.0, "fusion_lat": 0.0, "name": "cfb58cb9dab166e3b2e2cae51e77142e", "type": "electric_scooter", "is_disabled": 0, "lat": 38.90591533333333, "rental_uris": {"android": "https://dc.lft.to/lastmile_qr_scan", "ios": "https://dc.lft.to/lastmile_qr_scan"}, "bike_id": "cfb58cb9dab166e3b2e2cae51e77142e", "lon": -77.02229216666667}, {"is_reserved": 0, "fusion_lon": 0.0, "fusion_lat": 0.0, "name": "8c5b11ba258b4ff8808eda1ea3db9beb", "type": "electric_scooter", "is_disabled": 0, "lat": 38.947035166666666, "rental_uris": {"android": "https://dc.lft.to/lastmile_qr_scan", "ios": "https://dc.lft.to/lastmile_qr_scan"}, "bike_id": "8c5b11ba258b4ff8808eda1ea3db9beb", "lon": -77.0193845}, {"is_reserved": 0, "fusion_lon": 0.0, "fusion_lat": 0.0, "name": "79f8e49846f717a68e0298e6fc4ea012", "type": "electric_bike", "is_disabled": 0, "lat": 38.9504595, "rental_uris": {"android": "https://dc.lft.to/lastmile_qr_scan", "ios": "https://dc.lft.to/lastmile_qr_scan"}, "bike_id": "79f8e49846f717a68e0298e6fc4ea012", "lon": -77.019727}, {"is_reserved": 0, "fusion_lon": 0.0, "fusion_lat": 0.0, "name": "140ddb270f7c02aa62a033a18873e580", "type": "electric_scooter", "is_disabled": 0, "lat": 38.9170085, "rental_uris": {"android": "https://dc.lft.to/lastmile_qr_scan", "ios": "https://dc.lft.to/lastmile_qr_scan"}, "bike_id": "140ddb270f7c02aa62a033a18873e580", "lon": -77.011674}, {"is_reserved": 0, "fusion_lon": 0.0, "fusion_lat": 0.0, "name": "c6310a8c8401d9bf420206f9099d1c6c", "type": "electric_scooter", "is_disabled": 0, "lat": 38.8892045, "rental_uris": {"android": "https://dc.lft.to/lastmile_qr_scan", "ios": "https://dc.lft.to/lastmile_qr_scan"}, "bike_id": "c6310a8c8401d9bf420206f9099d1c6c", "lon": -76.99188716666667}, {"is_reserved": 0, "fusion_lon": 0.0, "fusion_lat": 0.0, "name": "2d8f881943e93297fd5048f846e3b309", "type": "electric_scooter", "is_disabled": 0, "lat": 38.900410666666666, "rental_uris": {"android": "https://dc.lft.to/lastmile_qr_scan", "ios": "https://dc.lft.to/lastmile_qr_scan"}, "bike_id": "2d8f881943e93297fd5048f846e3b309", "lon": -77.04352333333334}, {"is_reserved": 0, "fusion_lon": 0.0, "fusion_lat": 0.0, "name": "b2d0d0a3cb552d611c9bdd445d045ac2", "type": "electric_scooter", "is_disabled": 0, "lat": 38.88571266666667, "rental_uris": {"android": "https://dc.lft.to/lastmile_qr_scan", "ios": "https://dc.lft.to/lastmile_qr_scan"}, "bike_id": "b2d0d0a3cb552d611c9bdd445d045ac2", "lon": -77.01995683333334}, {"is_reserved": 0, "fusion_lon": 0.0, "fusion_lat": 0.0, "name": "22d716e982ebf5bb84bdc79157130f8f", "type": "electric_scooter", "is_disabled": 0, "lat": 38.89868283333333, "rental_uris": {"android": "https://dc.lft.to/lastmile_qr_scan", "ios": "https://dc.lft.to/lastmile_qr_scan"}, "bike_id": "22d716e982ebf5bb84bdc79157130f8f", "lon": -76.94661383333333}, {"is_reserved": 0, "fusion_lon": 0.0, "fusion_lat": 0.0, "name": "d875c28053a29d118e3cff268ab33b6a", "type": "electric_scooter", "is_disabled": 0, "lat": 38.9171605, "rental_uris": {"android": "https://dc.lft.to/lastmile_qr_scan", "ios": "https://dc.lft.to/lastmile_qr_scan"}, "bike_id": "d875c28053a29d118e3cff268ab33b6a", "lon": -77.03858783333334}, {"is_reserved": 0, "fusion_lon": 0.0, "fusion_lat": 0.0, "name": "b4745ac2ea846f71af0d00c51f0646e2", "type": "electric_bike", "is_disabled": 0, "lat": 38.876783, "rental_uris": {"android": "https://dc.lft.to/lastmile_qr_scan", "ios": "https://dc.lft.to/lastmile_qr_scan"}, "bike_id": "b4745ac2ea846f71af0d00c51f0646e2", "lon": -77.01449066666666}, {"is_reserved": 0, "fusion_lon": 0.0, "fusion_lat": 0.0, "name": "21f9e94f30a5192c972cdc31a938e42c", "type": "electric_scooter", "is_disabled": 0, "lat": 38.92516633333334, "rental_uris": {"android": "https://dc.lft.to/lastmile_qr_scan", "ios": "https://dc.lft.to/lastmile_qr_scan"}, "bike_id": "21f9e94f30a5192c972cdc31a938e42c", "lon": -77.02712266666667}, {"is_reserved": 0, "fusion_lon": 0.0, "fusion_lat": 0.0, "name": "d7970a6362dffd332931f55fcd233953", "type": "electric_scooter", "is_disabled": 0, "lat": 38.907726, "rental_uris": {"android": "https://dc.lft.to/lastmile_qr_scan", "ios": "https://dc.lft.to/lastmile_qr_scan"}, "bike_id": "d7970a6362dffd332931f55fcd233953", "lon": -77.0346425}, {"is_reserved": 0, "fusion_lon": 0.0, "fusion_lat": 0.0, "name": "2580905ab72c28199bc263fbc299b49c", "type": "electric_scooter", "is_disabled": 0, "lat": 38.900831, "rental_uris": {"android": "https://dc.lft.to/lastmile_qr_scan", "ios": "https://dc.lft.to/lastmile_qr_scan"}, "bike_id": "2580905ab72c28199bc263fbc299b49c", "lon": -76.9936635}, {"is_reserved": 0, "fusion_lon": 0.0, "fusion_lat": 0.0, "name": "4f6ae9c8d45cf866a9a8e1406722c05e", "type": "electric_scooter", "is_disabled": 0, "lat": 38.919579666666664, "rental_uris": {"android": "https://dc.lft.to/lastmile_qr_scan", "ios": "https://dc.lft.to/lastmile_qr_scan"}, "bike_id": "4f6ae9c8d45cf866a9a8e1406722c05e", "lon": -77.0415865}, {"is_reserved": 0, "fusion_lon": 0.0, "fusion_lat": 0.0, "name": "cb3edc79ff448b12d162f8f72929ce1b", "type": "electric_scooter", "is_disabled": 0, "lat": 38.920672, "rental_uris": {"android": "https://dc.lft.to/lastmile_qr_scan", "ios": "https://dc.lft.to/lastmile_qr_scan"}, "bike_id": "cb3edc79ff448b12d162f8f72929ce1b", "lon": -77.0224825}, {"is_reserved": 0, "fusion_lon": 0.0, "fusion_lat": 0.0, "name": "ada5b75474b90d52a20ff85f80c357dc", "type": "electric_scooter", "is_disabled": 0, "lat": 38.89519666666666, "rental_uris": {"android": "https://dc.lft.to/lastmile_qr_scan", "ios": "https://dc.lft.to/lastmile_qr_scan"}, "bike_id": "ada5b75474b90d52a20ff85f80c357dc", "lon": -77.03956716666667}, {"is_reserved": 0, "fusion_lon": 0.0, "fusion_lat": 0.0, "name": "95515633458fdaa1397896e013786353", "type": "electric_scooter", "is_disabled": 0, "lat": 38.924515166666666, "rental_uris": {"android": "https://dc.lft.to/lastmile_qr_scan", "ios": "https://dc.lft.to/lastmile_qr_scan"}, "bike_id": "95515633458fdaa1397896e013786353", "lon": -77.05757016666666}, {"is_reserved": 0, "fusion_lon": 0.0, "fusion_lat": 0.0, "name": "df9a840f8ea3b785ae0ffe6054e5cc3c", "type": "electric_scooter", "is_disabled": 0, "lat": 38.903533, "rental_uris": {"android": "https://dc.lft.to/lastmile_qr_scan", "ios": "https://dc.lft.to/lastmile_qr_scan"}, "bike_id": "df9a840f8ea3b785ae0ffe6054e5cc3c", "lon": -77.05348816666667}, {"is_reserved": 0, "fusion_lon": 0.0, "fusion_lat": 0.0, "name": "d124c18ac07f45ae2f0a5c0d73750cfc", "type": "electric_scooter", "is_disabled": 0, "lat": 38.92326466666667, "rental_uris": {"android": "https://dc.lft.to/lastmile_qr_scan", "ios": "https://dc.lft.to/lastmile_qr_scan"}, "bike_id": "d124c18ac07f45ae2f0a5c0d73750cfc", "lon": -77.035454}, {"is_reserved": 0, "fusion_lon": 0.0, "fusion_lat": 0.0, "name": "626b73ae781c849225c43a92ea4df337", "type": "electric_scooter", "is_disabled": 0, "lat": 38.938651166666666, "rental_uris": {"android": "https://dc.lft.to/lastmile_qr_scan", "ios": "https://dc.lft.to/lastmile_qr_scan"}, "bike_id": "626b73ae781c849225c43a92ea4df337", "lon": -77.02652366666666}, {"is_reserved": 0, "fusion_lon": 0.0, "fusion_lat": 0.0, "name": "957f6766d0e95f7b43c3bb5a5263b69b", "type": "electric_scooter", "is_disabled": 0, "lat": 38.9103745, "rental_uris": {"android": "https://dc.lft.to/lastmile_qr_scan", "ios": "https://dc.lft.to/lastmile_qr_scan"}, "bike_id": "957f6766d0e95f7b43c3bb5a5263b69b", "lon": -77.04112783333333}, {"is_reserved": 0, "fusion_lon": 0.0, "fusion_lat": 0.0, "name": "5332e8ec9b775c35169fef247c92b44b", "type": "electric_scooter", "is_disabled": 0, "lat": 38.93046066666667, "rental_uris": {"android": "https://dc.lft.to/lastmile_qr_scan", "ios": "https://dc.lft.to/lastmile_qr_scan"}, "bike_id": "5332e8ec9b775c35169fef247c92b44b", "lon": -77.0379875}, {"is_reserved": 0, "fusion_lon": 0.0, "fusion_lat": 0.0, "name": "6a7650960d9c302b343005b85e36a4f8", "type": "electric_scooter", "is_disabled": 0, "lat": 38.92197983333333, "rental_uris": {"android": "https://dc.lft.to/lastmile_qr_scan", "ios": "https://dc.lft.to/lastmile_qr_scan"}, "bike_id": "6a7650960d9c302b343005b85e36a4f8", "lon": -77.042245}, {"is_reserved": 0, "fusion_lon": 0.0, "fusion_lat": 0.0, "name": "da2476990e2b90749fcffd51ba89b9d2", "type": "electric_scooter", "is_disabled": 0, "lat": 38.897323, "rental_uris": {"android": "https://dc.lft.to/lastmile_qr_scan", "ios": "https://dc.lft.to/lastmile_qr_scan"}, "bike_id": "da2476990e2b90749fcffd51ba89b9d2", "lon": -77.054751}, {"is_reserved": 0, "fusion_lon": 0.0, "fusion_lat": 0.0, "name": "0ff3d0a2bde47b242bf826236d8f6008", "type": "electric_scooter", "is_disabled": 0, "lat": 38.95327966666667, "rental_uris": {"android": "https://dc.lft.to/lastmile_qr_scan", "ios": "https://dc.lft.to/lastmile_qr_scan"}, "bike_id": "0ff3d0a2bde47b242bf826236d8f6008", "lon": -77.07071166666667}, {"is_reserved": 0, "fusion_lon": 0.0, "fusion_lat": 0.0, "name": "b88ecf462897a98f66580f958836b785", "type": "electric_bike", "is_disabled": 0, "lat": 39.05789016666667, "rental_uris": {"android": "https://dc.lft.to/lastmile_qr_scan", "ios": "https://dc.lft.to/lastmile_qr_scan"}, "bike_id": "b88ecf462897a98f66580f958836b785", "lon": -77.15019366666667}, {"is_reserved": 0, "fusion_lon": 0.0, "fusion_lat": 0.0, "name": "272718b9d03be3d433b5c70dfaa87b8a", "type": "electric_scooter", "is_disabled": 0, "lat": 38.92585066666667, "rental_uris": {"android": "https://dc.lft.to/lastmile_qr_scan", "ios": "https://dc.lft.to/lastmile_qr_scan"}, "bike_id": "272718b9d03be3d433b5c70dfaa87b8a", "lon": -77.0268325}, {"is_reserved": 0, "fusion_lon": 0.0, "fusion_lat": 0.0, "name": "091de64f89c32c3278539b3da5e240b3", "type": "electric_scooter", "is_disabled": 0, "lat": 38.89905816666667, "rental_uris": {"android": "https://dc.lft.to/lastmile_qr_scan", "ios": "https://dc.lft.to/lastmile_qr_scan"}, "bike_id": "091de64f89c32c3278539b3da5e240b3", "lon": -77.03237366666667}, {"is_reserved": 0, "fusion_lon": 0.0, "fusion_lat": 0.0, "name": "3cb26ffb2446ca4f6b9b13ab7de68b4b", "type": "electric_scooter", "is_disabled": 0, "lat": 38.906053, "rental_uris": {"android": "https://dc.lft.to/lastmile_qr_scan", "ios": "https://dc.lft.to/lastmile_qr_scan"}, "bike_id": "3cb26ffb2446ca4f6b9b13ab7de68b4b", "lon": -77.040463}, {"is_reserved": 0, "fusion_lon": 0.0, "fusion_lat": 0.0, "name": "6de95fcaa566dc87ece3bd10523b6392", "type": "electric_scooter", "is_disabled": 0, "lat": 38.911719, "rental_uris": {"android": "https://dc.lft.to/lastmile_qr_scan", "ios": "https://dc.lft.to/lastmile_qr_scan"}, "bike_id": "6de95fcaa566dc87ece3bd10523b6392", "lon": -77.003221}, {"is_reserved": 0, "fusion_lon": 0.0, "fusion_lat": 0.0, "name": "c693e749d424bcf1cee4a0826b18c878", "type": "electric_scooter", "is_disabled": 0, "lat": 38.92104766666667, "rental_uris": {"android": "https://dc.lft.to/lastmile_qr_scan", "ios": "https://dc.lft.to/lastmile_qr_scan"}, "bike_id": "c693e749d424bcf1cee4a0826b18c878", "lon": -76.993953}, {"is_reserved": 0, "fusion_lon": 0.0, "fusion_lat": 0.0, "name": "7339fc084b8e0a722bdeff3c0166cbb1", "type": "electric_scooter", "is_disabled": 0, "lat": 38.89958716666667, "rental_uris": {"android": "https://dc.lft.to/lastmile_qr_scan", "ios": "https://dc.lft.to/lastmile_qr_scan"}, "bike_id": "7339fc084b8e0a722bdeff3c0166cbb1", "lon": -77.04527983333334}, {"is_reserved": 0, "fusion_lon": 0.0, "fusion_lat": 0.0, "name": "1c521e3493ec440446830771ad9bda0b", "type": "electric_scooter", "is_disabled": 0, "lat": 38.90398716666667, "rental_uris": {"android": "https://dc.lft.to/lastmile_qr_scan", "ios": "https://dc.lft.to/lastmile_qr_scan"}, "bike_id": "1c521e3493ec440446830771ad9bda0b", "lon": -77.06770366666667}, {"is_reserved": 0, "fusion_lon": 0.0, "fusion_lat": 0.0, "name": "d6ce3f27041abb89095e3471164713cf", "type": "electric_scooter", "is_disabled": 0, "lat": 38.90012883333333, "rental_uris": {"android": "https://dc.lft.to/lastmile_qr_scan", "ios": "https://dc.lft.to/lastmile_qr_scan"}, "bike_id": "d6ce3f27041abb89095e3471164713cf", "lon": -77.0439645}, {"is_reserved": 0, "fusion_lon": 0.0, "fusion_lat": 0.0, "name": "2b9f7512fc9c8bb1be98c75308ef2108", "type": "electric_scooter", "is_disabled": 0, "lat": 38.9483995, "rental_uris": {"android": "https://dc.lft.to/lastmile_qr_scan", "ios": "https://dc.lft.to/lastmile_qr_scan"}, "bike_id": "2b9f7512fc9c8bb1be98c75308ef2108", "lon": -77.02548983333334}, {"is_reserved": 0, "fusion_lon": 0.0, "fusion_lat": 0.0, "name": "ea284fc48967fa49efd59d494fb57d64", "type": "electric_scooter", "is_disabled": 0, "lat": 38.925345166666666, "rental_uris": {"android": "https://dc.lft.to/lastmile_qr_scan", "ios": "https://dc.lft.to/lastmile_qr_scan"}, "bike_id": "ea284fc48967fa49efd59d494fb57d64", "lon": -77.044221}, {"is_reserved": 0, "fusion_lon": 0.0, "fusion_lat": 0.0, "name": "4f11a118045e6351b8c4654da0173357", "type": "electric_scooter", "is_disabled": 0, "lat": 38.932823166666665, "rental_uris": {"android": "https://dc.lft.to/lastmile_qr_scan", "ios": "https://dc.lft.to/lastmile_qr_scan"}, "bike_id": "4f11a118045e6351b8c4654da0173357", "lon": -77.025488}, {"is_reserved": 0, "fusion_lon": 0.0, "fusion_lat": 0.0, "name": "ea7d14949de9dd57a174465df1f895e6", "type": "electric_bike", "is_disabled": 0, "lat": 38.911853666666666, "rental_uris": {"android": "https://dc.lft.to/lastmile_qr_scan", "ios": "https://dc.lft.to/lastmile_qr_scan"}, "bike_id": "ea7d14949de9dd57a174465df1f895e6", "lon": -77.0114675}, {"is_reserved": 0, "fusion_lon": 0.0, "fusion_lat": 0.0, "name": "0dd63e0b8831a98343f27f782297ed1c", "type": "electric_scooter", "is_disabled": 0, "lat": 38.90658083333334, "rental_uris": {"android": "https://dc.lft.to/lastmile_qr_scan", "ios": "https://dc.lft.to/lastmile_qr_scan"}, "bike_id": "0dd63e0b8831a98343f27f782297ed1c", "lon": -77.00205216666667}, {"is_reserved": 0, "fusion_lon": 0.0, "fusion_lat": 0.0, "name": "7296bdb0c5d1cdf909d6ebc138d3eef8", "type": "electric_bike", "is_disabled": 0, "lat": 38.829143, "rental_uris": {"android": "https://dc.lft.to/lastmile_qr_scan", "ios": "https://dc.lft.to/lastmile_qr_scan"}, "bike_id": "7296bdb0c5d1cdf909d6ebc138d3eef8", "lon": -76.99783716666667}, {"is_reserved": 0, "fusion_lon": 0.0, "fusion_lat": 0.0, "name": "9967d1d25b9b1404ed304b92be4f9b7d", "type": "electric_scooter", "is_disabled": 0, "lat": 38.93039316666667, "rental_uris": {"android": "https://dc.lft.to/lastmile_qr_scan", "ios": "https://dc.lft.to/lastmile_qr_scan"}, "bike_id": "9967d1d25b9b1404ed304b92be4f9b7d", "lon": -77.02784383333334}, {"is_reserved": 0, "fusion_lon": 0.0, "fusion_lat": 0.0, "name": "da0d303bd85db9ac82771b1f6a7ae53d", "type": "electric_scooter", "is_disabled": 0, "lat": 38.90722783333333, "rental_uris": {"android": "https://dc.lft.to/lastmile_qr_scan", "ios": "https://dc.lft.to/lastmile_qr_scan"}, "bike_id": "da0d303bd85db9ac82771b1f6a7ae53d", "lon": -77.02954483333333}, {"is_reserved": 0, "fusion_lon": 0.0, "fusion_lat": 0.0, "name": "d02a2490a80af006383d9fb9fe5499f9", "type": "electric_scooter", "is_disabled": 0, "lat": 38.9055205, "rental_uris": {"android": "https://dc.lft.to/lastmile_qr_scan", "ios": "https://dc.lft.to/lastmile_qr_scan"}, "bike_id": "d02a2490a80af006383d9fb9fe5499f9", "lon": -77.005752}, {"is_reserved": 0, "fusion_lon": 0.0, "fusion_lat": 0.0, "name": "aca921ff11a4613a641bb982dd72a8bd", "type": "electric_scooter", "is_disabled": 0, "lat": 38.883376166666665, "rental_uris": {"android": "https://dc.lft.to/lastmile_qr_scan", "ios": "https://dc.lft.to/lastmile_qr_scan"}, "bike_id": "aca921ff11a4613a641bb982dd72a8bd", "lon": -77.020238}, {"is_reserved": 0, "fusion_lon": 0.0, "fusion_lat": 0.0, "name": "9087c99f834ce8171b9d98910177f5de", "type": "electric_scooter", "is_disabled": 0, "lat": 38.90577116666667, "rental_uris": {"android": "https://dc.lft.to/lastmile_qr_scan", "ios": "https://dc.lft.to/lastmile_qr_scan"}, "bike_id": "9087c99f834ce8171b9d98910177f5de", "lon": -77.04469316666666}, {"is_reserved": 0, "fusion_lon": 0.0, "fusion_lat": 0.0, "name": "573a55876e6ba8e97f0f190910e44bbe", "type": "electric_scooter", "is_disabled": 0, "lat": 38.89226633333333, "rental_uris": {"android": "https://dc.lft.to/lastmile_qr_scan", "ios": "https://dc.lft.to/lastmile_qr_scan"}, "bike_id": "573a55876e6ba8e97f0f190910e44bbe", "lon": -77.04507683333334}, {"is_reserved": 0, "fusion_lon": 0.0, "fusion_lat": 0.0, "name": "c06e23a4c5fc7bd1cbf05a15ccaf4405", "type": "electric_scooter", "is_disabled": 0, "lat": 38.92234633333333, "rental_uris": {"android": "https://dc.lft.to/lastmile_qr_scan", "ios": "https://dc.lft.to/lastmile_qr_scan"}, "bike_id": "c06e23a4c5fc7bd1cbf05a15ccaf4405", "lon": -77.02334866666666}, {"is_reserved": 0, "fusion_lon": 0.0, "fusion_lat": 0.0, "name": "979f2840267b652ded95a80b7ea6481c", "type": "electric_scooter", "is_disabled": 0, "lat": 38.864134666666665, "rental_uris": {"android": "https://dc.lft.to/lastmile_qr_scan", "ios": "https://dc.lft.to/lastmile_qr_scan"}, "bike_id": "979f2840267b652ded95a80b7ea6481c", "lon": -76.97442116666667}, {"is_reserved": 0, "fusion_lon": 0.0, "fusion_lat": 0.0, "name": "43afea80c9087a8a166384ee58d6a899", "type": "electric_scooter", "is_disabled": 0, "lat": 38.8606975, "rental_uris": {"android": "https://dc.lft.to/lastmile_qr_scan", "ios": "https://dc.lft.to/lastmile_qr_scan"}, "bike_id": "43afea80c9087a8a166384ee58d6a899", "lon": -76.96892616666666}, {"is_reserved": 0, "fusion_lon": 0.0, "fusion_lat": 0.0, "name": "6200aa1a6fbbce9aabc02fc405098184", "type": "electric_bike", "is_disabled": 0, "lat": 38.94785266666667, "rental_uris": {"android": "https://dc.lft.to/lastmile_qr_scan", "ios": "https://dc.lft.to/lastmile_qr_scan"}, "bike_id": "6200aa1a6fbbce9aabc02fc405098184", "lon": -76.97211066666667}, {"is_reserved": 0, "fusion_lon": 0.0, "fusion_lat": 0.0, "name": "d7c0993141797b82156f45265b46751e", "type": "electric_scooter", "is_disabled": 0, "lat": 38.8872845, "rental_uris": {"android": "https://dc.lft.to/lastmile_qr_scan", "ios": "https://dc.lft.to/lastmile_qr_scan"}, "bike_id": "d7c0993141797b82156f45265b46751e", "lon": -77.01389583333334}, {"is_reserved": 0, "fusion_lon": 0.0, "fusion_lat": 0.0, "name": "26abf9120ac249dfe7ec61f91c056049", "type": "electric_scooter", "is_disabled": 0, "lat": 38.906432333333335, "rental_uris": {"android": "https://dc.lft.to/lastmile_qr_scan", "ios": "https://dc.lft.to/lastmile_qr_scan"}, "bike_id": "26abf9120ac249dfe7ec61f91c056049", "lon": -77.04775566666666}, {"is_reserved": 0, "fusion_lon": 0.0, "fusion_lat": 0.0, "name": "e465ba6aef94332fcd92b642cb0b4b5a", "type": "electric_bike", "is_disabled": 0, "lat": 39.02436733333333, "rental_uris": {"android": "https://dc.lft.to/lastmile_qr_scan", "ios": "https://dc.lft.to/lastmile_qr_scan"}, "bike_id": "e465ba6aef94332fcd92b642cb0b4b5a", "lon": -77.13103716666667}, {"is_reserved": 0, "fusion_lon": 0.0, "fusion_lat": 0.0, "name": "2c7f9315914865df60beeaa6fb03929f", "type": "electric_scooter", "is_disabled": 0, "lat": 38.89876683333333, "rental_uris": {"android": "https://dc.lft.to/lastmile_qr_scan", "ios": "https://dc.lft.to/lastmile_qr_scan"}, "bike_id": "2c7f9315914865df60beeaa6fb03929f", "lon": -76.93186166666666}, {"is_reserved": 0, "fusion_lon": 0.0, "fusion_lat": 0.0, "name": "65f8fc7b7b2afd366c8107705fea3c7f", "type": "electric_scooter", "is_disabled": 0, "lat": 38.92996816666667, "rental_uris": {"android": "https://dc.lft.to/lastmile_qr_scan", "ios": "https://dc.lft.to/lastmile_qr_scan"}, "bike_id": "65f8fc7b7b2afd366c8107705fea3c7f", "lon": -77.04421833333333}, {"is_reserved": 0, "fusion_lon": 0.0, "fusion_lat": 0.0, "name": "ebd0f043b5d80c27f6ce1bdeab04b52d", "type": "electric_bike", "is_disabled": 0, "lat": 38.8811355, "rental_uris": {"android": "https://dc.lft.to/lastmile_qr_scan", "ios": "https://dc.lft.to/lastmile_qr_scan"}, "bike_id": "ebd0f043b5d80c27f6ce1bdeab04b52d", "lon": -77.016337}, {"is_reserved": 0, "fusion_lon": 0.0, "fusion_lat": 0.0, "name": "1796981e690fc5bb67443481fb1a3b91", "type": "electric_scooter", "is_disabled": 0, "lat": 38.91784883333333, "rental_uris": {"android": "https://dc.lft.to/lastmile_qr_scan", "ios": "https://dc.lft.to/lastmile_qr_scan"}, "bike_id": "1796981e690fc5bb67443481fb1a3b91", "lon": -77.02590016666667}, {"is_reserved": 0, "fusion_lon": 0.0, "fusion_lat": 0.0, "name": "e1e1ac2a42c657f99fd48ba12dd70d6d", "type": "electric_scooter", "is_disabled": 0, "lat": 38.902633333333334, "rental_uris": {"android": "https://dc.lft.to/lastmile_qr_scan", "ios": "https://dc.lft.to/lastmile_qr_scan"}, "bike_id": "e1e1ac2a42c657f99fd48ba12dd70d6d", "lon": -77.03148716666666}, {"is_reserved": 0, "fusion_lon": 0.0, "fusion_lat": 0.0, "name": "599e1d32fba5a8116032ea407282271b", "type": "electric_scooter", "is_disabled": 0, "lat": 38.890179, "rental_uris": {"android": "https://dc.lft.to/lastmile_qr_scan", "ios": "https://dc.lft.to/lastmile_qr_scan"}, "bike_id": "599e1d32fba5a8116032ea407282271b", "lon": -76.9373595}, {"is_reserved": 0, "fusion_lon": 0.0, "fusion_lat": 0.0, "name": "bdf54dcbd5626cfa5b28617a356bc189", "type": "electric_scooter", "is_disabled": 0, "lat": 38.9225205, "rental_uris": {"android": "https://dc.lft.to/lastmile_qr_scan", "ios": "https://dc.lft.to/lastmile_qr_scan"}, "bike_id": "bdf54dcbd5626cfa5b28617a356bc189", "lon": -77.02954133333333}, {"is_reserved": 0, "fusion_lon": 0.0, "fusion_lat": 0.0, "name": "c4d0b0a12c92a1462992cf32b7a1ec9f", "type": "electric_scooter", "is_disabled": 0, "lat": 38.896054166666666, "rental_uris": {"android": "https://dc.lft.to/lastmile_qr_scan", "ios": "https://dc.lft.to/lastmile_qr_scan"}, "bike_id": "c4d0b0a12c92a1462992cf32b7a1ec9f", "lon": -77.013136}, {"is_reserved": 0, "fusion_lon": 0.0, "fusion_lat": 0.0, "name": "32dab5d65bca856e72ac4e82876554f4", "type": "electric_scooter", "is_disabled": 0, "lat": 38.934541, "rental_uris": {"android": "https://dc.lft.to/lastmile_qr_scan", "ios": "https://dc.lft.to/lastmile_qr_scan"}, "bike_id": "32dab5d65bca856e72ac4e82876554f4", "lon": -77.03757416666667}, {"is_reserved": 0, "fusion_lon": 0.0, "fusion_lat": 0.0, "name": "aa457f6393ed1207a9fdc5d39a52bd26", "type": "electric_scooter", "is_disabled": 0, "lat": 38.907430166666664, "rental_uris": {"android": "https://dc.lft.to/lastmile_qr_scan", "ios": "https://dc.lft.to/lastmile_qr_scan"}, "bike_id": "aa457f6393ed1207a9fdc5d39a52bd26", "lon": -77.04145316666667}, {"is_reserved": 0, "fusion_lon": 0.0, "fusion_lat": 0.0, "name": "ee20d0e6aeef4c1ca6b16f128dbff958", "type": "electric_scooter", "is_disabled": 0, "lat": 38.93626583333333, "rental_uris": {"android": "https://dc.lft.to/lastmile_qr_scan", "ios": "https://dc.lft.to/lastmile_qr_scan"}, "bike_id": "ee20d0e6aeef4c1ca6b16f128dbff958", "lon": -77.059054}, {"is_reserved": 0, "fusion_lon": 0.0, "fusion_lat": 0.0, "name": "d12bb765c4fea4cfe2e1c8739e9054c2", "type": "electric_scooter", "is_disabled": 0, "lat": 38.90634416666666, "rental_uris": {"android": "https://dc.lft.to/lastmile_qr_scan", "ios": "https://dc.lft.to/lastmile_qr_scan"}, "bike_id": "d12bb765c4fea4cfe2e1c8739e9054c2", "lon": -77.00680333333334}, {"is_reserved": 0, "fusion_lon": 0.0, "fusion_lat": 0.0, "name": "5640b7a8232cccb02161eb302c24e3c0", "type": "electric_scooter", "is_disabled": 0, "lat": 38.92824816666667, "rental_uris": {"android": "https://dc.lft.to/lastmile_qr_scan", "ios": "https://dc.lft.to/lastmile_qr_scan"}, "bike_id": "5640b7a8232cccb02161eb302c24e3c0", "lon": -77.02256133333333}, {"is_reserved": 0, "fusion_lon": 0.0, "fusion_lat": 0.0, "name": "c84ee6396ccfd6a15404bdbbf28599a1", "type": "electric_scooter", "is_disabled": 0, "lat": 38.89621183333333, "rental_uris": {"android": "https://dc.lft.to/lastmile_qr_scan", "ios": "https://dc.lft.to/lastmile_qr_scan"}, "bike_id": "c84ee6396ccfd6a15404bdbbf28599a1", "lon": -77.03192083333333}, {"is_reserved": 0, "fusion_lon": 0.0, "fusion_lat": 0.0, "name": "57185efe7db02f296e01575c90a6ac3b", "type": "electric_scooter", "is_disabled": 0, "lat": 38.90000233333333, "rental_uris": {"android": "https://dc.lft.to/lastmile_qr_scan", "ios": "https://dc.lft.to/lastmile_qr_scan"}, "bike_id": "57185efe7db02f296e01575c90a6ac3b", "lon": -76.95195966666667}, {"is_reserved": 0, "fusion_lon": 0.0, "fusion_lat": 0.0, "name": "4102cf8e5d6d08364df513fbcb4859c7", "type": "electric_scooter", "is_disabled": 0, "lat": 38.90815766666667, "rental_uris": {"android": "https://dc.lft.to/lastmile_qr_scan", "ios": "https://dc.lft.to/lastmile_qr_scan"}, "bike_id": "4102cf8e5d6d08364df513fbcb4859c7", "lon": -77.03450616666667}, {"is_reserved": 0, "fusion_lon": 0.0, "fusion_lat": 0.0, "name": "1b3ed05aaeaf66186b5869e14869261f", "type": "electric_scooter", "is_disabled": 0, "lat": 38.90817066666666, "rental_uris": {"android": "https://dc.lft.to/lastmile_qr_scan", "ios": "https://dc.lft.to/lastmile_qr_scan"}, "bike_id": "1b3ed05aaeaf66186b5869e14869261f", "lon": -77.03450383333333}, {"is_reserved": 0, "fusion_lon": 0.0, "fusion_lat": 0.0, "name": "1dc6a1de51f1dd6941977c03ae51c089", "type": "electric_scooter", "is_disabled": 0, "lat": 38.9180705, "rental_uris": {"android": "https://dc.lft.to/lastmile_qr_scan", "ios": "https://dc.lft.to/lastmile_qr_scan"}, "bike_id": "1dc6a1de51f1dd6941977c03ae51c089", "lon": -77.033223}, {"is_reserved": 0, "fusion_lon": 0.0, "fusion_lat": 0.0, "name": "5243e88042f79e7053db281ccc3c1b70", "type": "electric_scooter", "is_disabled": 0, "lat": 38.914072166666664, "rental_uris": {"android": "https://dc.lft.to/lastmile_qr_scan", "ios": "https://dc.lft.to/lastmile_qr_scan"}, "bike_id": "5243e88042f79e7053db281ccc3c1b70", "lon": -77.03952433333333}, {"is_reserved": 0, "fusion_lon": 0.0, "fusion_lat": 0.0, "name": "fb33798373c35b74a582b00a5d673c88", "type": "electric_scooter", "is_disabled": 0, "lat": 38.917622333333334, "rental_uris": {"android": "https://dc.lft.to/lastmile_qr_scan", "ios": "https://dc.lft.to/lastmile_qr_scan"}, "bike_id": "fb33798373c35b74a582b00a5d673c88", "lon": -77.01920266666667}, {"is_reserved": 0, "fusion_lon": 0.0, "fusion_lat": 0.0, "name": "b62935096bd98ea309b63d9b661c0255", "type": "electric_scooter", "is_disabled": 0, "lat": 38.92920316666667, "rental_uris": {"android": "https://dc.lft.to/lastmile_qr_scan", "ios": "https://dc.lft.to/lastmile_qr_scan"}, "bike_id": "b62935096bd98ea309b63d9b661c0255", "lon": -77.0347475}, {"is_reserved": 0, "fusion_lon": 0.0, "fusion_lat": 0.0, "name": "ce81bab4f2479e009019bdc1e5fa279b", "type": "electric_scooter", "is_disabled": 0, "lat": 38.90412716666667, "rental_uris": {"android": "https://dc.lft.to/lastmile_qr_scan", "ios": "https://dc.lft.to/lastmile_qr_scan"}, "bike_id": "ce81bab4f2479e009019bdc1e5fa279b", "lon": -76.973294}, {"is_reserved": 0, "fusion_lon": 0.0, "fusion_lat": 0.0, "name": "c5301c753ec51543029762beeb3ee314", "type": "electric_scooter", "is_disabled": 0, "lat": 38.88962716666666, "rental_uris": {"android": "https://dc.lft.to/lastmile_qr_scan", "ios": "https://dc.lft.to/lastmile_qr_scan"}, "bike_id": "c5301c753ec51543029762beeb3ee314", "lon": -76.937101}, {"is_reserved": 0, "fusion_lon": 0.0, "fusion_lat": 0.0, "name": "970ce8937e0817a68655ebe91a886f54", "type": "electric_scooter", "is_disabled": 0, "lat": 38.884061833333334, "rental_uris": {"android": "https://dc.lft.to/lastmile_qr_scan", "ios": "https://dc.lft.to/lastmile_qr_scan"}, "bike_id": "970ce8937e0817a68655ebe91a886f54", "lon": -77.026137}, {"is_reserved": 0, "fusion_lon": 0.0, "fusion_lat": 0.0, "name": "bec281087c628aabda1dd55a9bca502f", "type": "electric_scooter", "is_disabled": 0, "lat": 38.923256, "rental_uris": {"android": "https://dc.lft.to/lastmile_qr_scan", "ios": "https://dc.lft.to/lastmile_qr_scan"}, "bike_id": "bec281087c628aabda1dd55a9bca502f", "lon": -77.03545783333334}, {"is_reserved": 0, "fusion_lon": 0.0, "fusion_lat": 0.0, "name": "284d563bfa6969806110c2a796bb9989", "type": "electric_scooter", "is_disabled": 0, "lat": 38.89222216666667, "rental_uris": {"android": "https://dc.lft.to/lastmile_qr_scan", "ios": "https://dc.lft.to/lastmile_qr_scan"}, "bike_id": "284d563bfa6969806110c2a796bb9989", "lon": -77.031683}, {"is_reserved": 0, "fusion_lon": 0.0, "fusion_lat": 0.0, "name": "2e8ccfd6e4a191beb72fcf370f9f8945", "type": "electric_bike", "is_disabled": 0, "lat": 38.937004333333334, "rental_uris": {"android": "https://dc.lft.to/lastmile_qr_scan", "ios": "https://dc.lft.to/lastmile_qr_scan"}, "bike_id": "2e8ccfd6e4a191beb72fcf370f9f8945", "lon": -77.02980333333333}, {"is_reserved": 0, "fusion_lon": 0.0, "fusion_lat": 0.0, "name": "a5f4281508b9d5ae4fd64a51e48c1d85", "type": "electric_scooter", "is_disabled": 0, "lat": 38.894946833333336, "rental_uris": {"android": "https://dc.lft.to/lastmile_qr_scan", "ios": "https://dc.lft.to/lastmile_qr_scan"}, "bike_id": "a5f4281508b9d5ae4fd64a51e48c1d85", "lon": -77.02300133333334}, {"is_reserved": 0, "fusion_lon": 0.0, "fusion_lat": 0.0, "name": "bd16a379d8ee7eca7d0a62b7d277b818", "type": "electric_scooter", "is_disabled": 0, "lat": 38.915272333333334, "rental_uris": {"android": "https://dc.lft.to/lastmile_qr_scan", "ios": "https://dc.lft.to/lastmile_qr_scan"}, "bike_id": "bd16a379d8ee7eca7d0a62b7d277b818", "lon": -77.0446645}, {"is_reserved": 0, "fusion_lon": 0.0, "fusion_lat": 0.0, "name": "56a9ef03084f283f6490657daf7af1fb", "type": "electric_scooter", "is_disabled": 0, "lat": 38.97223533333333, "rental_uris": {"android": "https://dc.lft.to/lastmile_qr_scan", "ios": "https://dc.lft.to/lastmile_qr_scan"}, "bike_id": "56a9ef03084f283f6490657daf7af1fb", "lon": -77.02647566666667}, {"is_reserved": 0, "fusion_lon": 0.0, "fusion_lat": 0.0, "name": "279baf5f4820cd851c8f1dd4febb5d55", "type": "electric_scooter", "is_disabled": 0, "lat": 38.907945166666664, "rental_uris": {"android": "https://dc.lft.to/lastmile_qr_scan", "ios": "https://dc.lft.to/lastmile_qr_scan"}, "bike_id": "279baf5f4820cd851c8f1dd4febb5d55", "lon": -77.0110835}, {"is_reserved": 0, "fusion_lon": 0.0, "fusion_lat": 0.0, "name": "6d1d8ab3eb10120e7e7760600b06647b", "type": "electric_bike", "is_disabled": 0, "lat": 38.95958983333333, "rental_uris": {"android": "https://dc.lft.to/lastmile_qr_scan", "ios": "https://dc.lft.to/lastmile_qr_scan"}, "bike_id": "6d1d8ab3eb10120e7e7760600b06647b", "lon": -77.03056083333334}, {"is_reserved": 0, "fusion_lon": 0.0, "fusion_lat": 0.0, "name": "193c8e40c2b4b2fee4a030c3ffd5bdbf", "type": "electric_bike", "is_disabled": 0, "lat": 38.88245516666667, "rental_uris": {"android": "https://dc.lft.to/lastmile_qr_scan", "ios": "https://dc.lft.to/lastmile_qr_scan"}, "bike_id": "193c8e40c2b4b2fee4a030c3ffd5bdbf", "lon": -76.96262716666666}, {"is_reserved": 0, "fusion_lon": 0.0, "fusion_lat": 0.0, "name": "79be68fc6688ab339f600117a1d40ed4", "type": "electric_scooter", "is_disabled": 0, "lat": 38.91284266666667, "rental_uris": {"android": "https://dc.lft.to/lastmile_qr_scan", "ios": "https://dc.lft.to/lastmile_qr_scan"}, "bike_id": "79be68fc6688ab339f600117a1d40ed4", "lon": -77.0321565}, {"is_reserved": 0, "fusion_lon": 0.0, "fusion_lat": 0.0, "name": "0e36d903ea993f5fd14ddaf36f63f515", "type": "electric_scooter", "is_disabled": 0, "lat": 38.91843083333333, "rental_uris": {"android": "https://dc.lft.to/lastmile_qr_scan", "ios": "https://dc.lft.to/lastmile_qr_scan"}, "bike_id": "0e36d903ea993f5fd14ddaf36f63f515", "lon": -77.05951216666666}, {"is_reserved": 0, "fusion_lon": 0.0, "fusion_lat": 0.0, "name": "4c2d95f855fbd81fd88cba6a759fdf7c", "type": "electric_scooter", "is_disabled": 0, "lat": 38.901411, "rental_uris": {"android": "https://dc.lft.to/lastmile_qr_scan", "ios": "https://dc.lft.to/lastmile_qr_scan"}, "bike_id": "4c2d95f855fbd81fd88cba6a759fdf7c", "lon": -77.01310283333333}, {"is_reserved": 0, "fusion_lon": 0.0, "fusion_lat": 0.0, "name": "3bc75d35a54fecd9a9e37a17ece772b6", "type": "electric_scooter", "is_disabled": 0, "lat": 38.927327, "rental_uris": {"android": "https://dc.lft.to/lastmile_qr_scan", "ios": "https://dc.lft.to/lastmile_qr_scan"}, "bike_id": "3bc75d35a54fecd9a9e37a17ece772b6", "lon": -77.03523316666667}, {"is_reserved": 0, "fusion_lon": 0.0, "fusion_lat": 0.0, "name": "c8d9272f00042bb56fc2d8f0fdf8349e", "type": "electric_scooter", "is_disabled": 0, "lat": 38.92154983333333, "rental_uris": {"android": "https://dc.lft.to/lastmile_qr_scan", "ios": "https://dc.lft.to/lastmile_qr_scan"}, "bike_id": "c8d9272f00042bb56fc2d8f0fdf8349e", "lon": -77.02094766666667},