{"data": {"bikes": [{"fusion_lat": 0.0, "name": "fcd7c970f6bb48f9df483035cbfa3f81", "is_disabled": 0, "rental_uris": {"android": "https://dc.lft.to/lastmile_qr_scan", "ios": "https://dc.lft.to/lastmile_qr_scan"}, "fusion_lon": 0.0, "lat": 38.903346, "bike_id": "fcd7c970f6bb48f9df483035cbfa3f81", "type": "electric_scooter", "is_reserved": 0, "lon": -77.062815}, {"fusion_lat": 0.0, "name": "533e6374c909a8ad5d4dc744531d9193", "is_disabled": 0, "rental_uris": {"android": "https://dc.lft.to/lastmile_qr_scan", "ios": "https://dc.lft.to/lastmile_qr_scan"}, "fusion_lon": 0.0, "lat": 38.84755366666667, "bike_id": "533e6374c909a8ad5d4dc744531d9193", "type": "electric_scooter", "is_reserved": 0, "lon": -76.99497916666667}, {"fusion_lat": 0.0, "name": "3db526ac255d01dbd842b4d6dae42596", "is_disabled": 0, "rental_uris": {"android": "https://dc.lft.to/lastmile_qr_scan", "ios": "https://dc.lft.to/lastmile_qr_scan"}, "fusion_lon": 0.0, "lat": 38.898762166666664, "bike_id": "3db526ac255d01dbd842b4d6dae42596", "type": "electric_scooter", "is_reserved": 0, "lon": -76.93185333333334}, {"fusion_lat": 0.0, "name": "e12bae03f9ecf8ac400eb5fb15afa4f4", "is_disabled": 0, "rental_uris": {"android": "https://dc.lft.to/lastmile_qr_scan", "ios": "https://dc.lft.to/lastmile_qr_scan"}, "fusion_lon": 0.0, "lat": 38.900668, "bike_id": "e12bae03f9ecf8ac400eb5fb15afa4f4", "type": "electric_scooter", "is_reserved": 0, "lon": -77.0383015}, {"fusion_lat": 0.0, "name": "8ea5161b18638e8c3d53ce00aeac2cda", "is_disabled": 0, "rental_uris": {"android": "https://dc.lft.to/lastmile_qr_scan", "ios": "https://dc.lft.to/lastmile_qr_scan"}, "fusion_lon": 0.0, "lat": 38.9013345, "bike_id": "8ea5161b18638e8c3d53ce00aeac2cda", "type": "electric_scooter", "is_reserved": 0, "lon": -77.02602633333333}, {"fusion_lat": 0.0, "name": "acb36dcfe27523bcf7e4aec10a45523d", "is_disabled": 0, "rental_uris": {"android": "https://dc.lft.to/lastmile_qr_scan", "ios": "https://dc.lft.to/lastmile_qr_scan"}, "fusion_lon": 0.0, "lat": 38.923410833333335, "bike_id": "acb36dcfe27523bcf7e4aec10a45523d", "type": "electric_scooter", "is_reserved": 0, "lon": -77.0517905}, {"fusion_lat": 0.0, "name": "fa741aab5aa444c334adf8a3adc94d4b", "is_disabled": 0, "rental_uris": {"android": "https://dc.lft.to/lastmile_qr_scan", "ios": "https://dc.lft.to/lastmile_qr_scan"}, "fusion_lon": 0.0, "lat": 38.910059833333335, "bike_id": "fa741aab5aa444c334adf8a3adc94d4b", "type": "electric_scooter", "is_reserved": 0, "lon": -77.04910033333333}, {"fusion_lat": 0.0, "name": "8a30108d788da59226399352da1ee73c", "is_disabled": 0, "rental_uris": {"android": "https://dc.lft.to/lastmile_qr_scan", "ios": "https://dc.lft.to/lastmile_qr_scan"}, "fusion_lon": 0.0, "lat": 38.92147633333333, "bike_id": "8a30108d788da59226399352da1ee73c", "type": "electric_scooter", "is_reserved": 0, "lon": -77.042221}, {"fusion_lat": 0.0, "name": "e5ba795f50d135ac21afb9e4e89e82b6", "is_disabled": 0, "rental_uris": {"android": "https://dc.lft.to/lastmile_qr_scan", "ios": "https://dc.lft.to/lastmile_qr_scan"}, "fusion_lon": 0.0, "lat": 38.8874645, "bike_id": "e5ba795f50d135ac21afb9e4e89e82b6", "type": "electric_scooter", "is_reserved": 0, "lon": -77.027806}, {"fusion_lat": 0.0, "name": "025b610a51354f011c1d6aae55f4cd5e", "is_disabled": 0, "rental_uris": {"android": "https://dc.lft.to/lastmile_qr_scan", "ios": "https://dc.lft.to/lastmile_qr_scan"}, "fusion_lon": 0.0, "lat": 39.052529166666666, "bike_id": "025b610a51354f011c1d6aae55f4cd5e", "type": "electric_bike", "is_reserved": 0, "lon": -77.0806605}, {"fusion_lat": 0.0, "name": "28e735c08db2a89cd08bc3da636143c3", "is_disabled": 0, "rental_uris": {"android": "https://dc.lft.to/lastmile_qr_scan", "ios": "https://dc.lft.to/lastmile_qr_scan"}, "fusion_lon": 0.0, "lat": 38.88441783333333, "bike_id": "28e735c08db2a89cd08bc3da636143c3", "type": "electric_scooter", "is_reserved": 0, "lon": -76.99614616666666}, {"fusion_lat": 0.0, "name": "b98ee72b56a254c0882bff64d65742a6", "is_disabled": 0, "rental_uris": {"android": "https://dc.lft.to/lastmile_qr_scan", "ios": "https://dc.lft.to/lastmile_qr_scan"}, "fusion_lon": 0.0, "lat": 38.895425, "bike_id": "b98ee72b56a254c0882bff64d65742a6", "type": "electric_scooter", "is_reserved": 0, "lon": -76.9809335}, {"fusion_lat": 0.0, "name": "737f00db21d1b7be054aa2ff3b95cbec", "is_disabled": 0, "rental_uris": {"android": "https://dc.lft.to/lastmile_qr_scan", "ios": "https://dc.lft.to/lastmile_qr_scan"}, "fusion_lon": 0.0, "lat": 38.90138433333333, "bike_id": "737f00db21d1b7be054aa2ff3b95cbec", "type": "electric_scooter", "is_reserved": 0, "lon": -77.03924883333333}, {"fusion_lat": 0.0, "name": "3458da08d8316011e31de80659239125", "is_disabled": 0, "rental_uris": {"android": "https://dc.lft.to/lastmile_qr_scan", "ios": "https://dc.lft.to/lastmile_qr_scan"}, "fusion_lon": 0.0, "lat": 38.92497616666667, "bike_id": "3458da08d8316011e31de80659239125", "type": "electric_scooter", "is_reserved": 0, "lon": -77.02163583333333}, {"fusion_lat": 0.0, "name": "db2a7d99415f477edb1559d2c44fa293", "is_disabled": 0, "rental_uris": {"android": "https://dc.lft.to/lastmile_qr_scan", "ios": "https://dc.lft.to/lastmile_qr_scan"}, "fusion_lon": 0.0, "lat": 38.902102166666666, "bike_id": "db2a7d99415f477edb1559d2c44fa293", "type": "electric_scooter", "is_reserved": 0, "lon": -76.9861245}, {"fusion_lat": 0.0, "name": "da136e78232c4fa5d94a37320901de25", "is_disabled": 0, "rental_uris": {"android": "https://dc.lft.to/lastmile_qr_scan", "ios": "https://dc.lft.to/lastmile_qr_scan"}, "fusion_lon": 0.0, "lat": 38.87409666666667, "bike_id": "da136e78232c4fa5d94a37320901de25", "type": "electric_scooter", "is_reserved": 0, "lon": -77.00206616666667}, {"fusion_lat": 0.0, "name": "ea50cb0c074151a50682e5e0893abc96", "is_disabled": 0, "rental_uris": {"android": "https://dc.lft.to/lastmile_qr_scan", "ios": "https://dc.lft.to/lastmile_qr_scan"}, "fusion_lon": 0.0, "lat": 38.831578666666665, "bike_id": "ea50cb0c074151a50682e5e0893abc96", "type": "electric_bike", "is_reserved": 0, "lon": -76.99570283333334}, {"fusion_lat": 0.0, "name": "153325a5284b9849b075160ca45be816", "is_disabled": 0, "rental_uris": {"android": "https://dc.lft.to/lastmile_qr_scan", "ios": "https://dc.lft.to/lastmile_qr_scan"}, "fusion_lon": 0.0, "lat": 38.90898, "bike_id": "153325a5284b9849b075160ca45be816", "type": "electric_scooter", "is_reserved": 0, "lon": -77.04411}, {"fusion_lat": 0.0, "name": "762d6d7e5e1ef21fe48a36a285f3be72", "is_disabled": 0, "rental_uris": {"android": "https://dc.lft.to/lastmile_qr_scan", "ios": "https://dc.lft.to/lastmile_qr_scan"}, "fusion_lon": 0.0, "lat": 38.9003465, "bike_id": "762d6d7e5e1ef21fe48a36a285f3be72", "type": "electric_scooter", "is_reserved": 0, "lon": -76.9925795}, {"fusion_lat": 0.0, "name": "ef49629fe30f6c830885ece1960e178e", "is_disabled": 0, "rental_uris": {"android": "https://dc.lft.to/lastmile_qr_scan", "ios": "https://dc.lft.to/lastmile_qr_scan"}, "fusion_lon": 0.0, "lat": 38.9263635, "bike_id": "ef49629fe30f6c830885ece1960e178e", "type": "electric_bike", "is_reserved": 0, "lon": -77.036009}, {"fusion_lat": 0.0, "name": "8a6c9bb0f5c50f1dcc509187f6e9e766", "is_disabled": 0, "rental_uris": {"android": "https://dc.lft.to/lastmile_qr_scan", "ios": "https://dc.lft.to/lastmile_qr_scan"}, "fusion_lon": 0.0, "lat": 38.91561683333333, "bike_id": "8a6c9bb0f5c50f1dcc509187f6e9e766", "type": "electric_scooter", "is_reserved": 0, "lon": -77.0227475}, {"fusion_lat": 0.0, "name": "8644493995eafcbf3fa9f2804e24047d", "is_disabled": 0, "rental_uris": {"android": "https://dc.lft.to/lastmile_qr_scan", "ios": "https://dc.lft.to/lastmile_qr_scan"}, "fusion_lon": 0.0, "lat": 38.95743733333333, "bike_id": "8644493995eafcbf3fa9f2804e24047d", "type": "electric_scooter", "is_reserved": 0, "lon": -77.02337533333333}, {"fusion_lat": 0.0, "name": "019ad488796f739b0b7e6ae5d3676fb8", "is_disabled": 0, "rental_uris": {"android": "https://dc.lft.to/lastmile_qr_scan", "ios": "https://dc.lft.to/lastmile_qr_scan"}, "fusion_lon": 0.0, "lat": 38.92390233333333, "bike_id": "019ad488796f739b0b7e6ae5d3676fb8", "type": "electric_scooter", "is_reserved": 0, "lon": -77.02452766666667}, {"fusion_lat": 0.0, "name": "bc60825faa3066d875b2856a8557674a", "is_disabled": 0, "rental_uris": {"android": "https://dc.lft.to/lastmile_qr_scan", "ios": "https://dc.lft.to/lastmile_qr_scan"}, "fusion_lon": 0.0, "lat": 38.93958966666667, "bike_id": "bc60825faa3066d875b2856a8557674a", "type": "electric_scooter", "is_reserved": 0, "lon": -77.03283783333333}, {"fusion_lat": 0.0, "name": "fdee077226f369a2be0328183e34b945", "is_disabled": 0, "rental_uris": {"android": "https://dc.lft.to/lastmile_qr_scan", "ios": "https://dc.lft.to/lastmile_qr_scan"}, "fusion_lon": 0.0, "lat": 38.928568, "bike_id": "fdee077226f369a2be0328183e34b945", "type": "electric_scooter", "is_reserved": 0, "lon": -77.0351515}, {"fusion_lat": 0.0, "name": "8ccfb784581a348b07a88dcb8888e15b", "is_disabled": 0, "rental_uris": {"android": "https://dc.lft.to/lastmile_qr_scan", "ios": "https://dc.lft.to/lastmile_qr_scan"}, "fusion_lon": 0.0, "lat": 38.92078633333333, "bike_id": "8ccfb784581a348b07a88dcb8888e15b", "type": "electric_bike", "is_reserved": 0, "lon": -76.989512}, {"fusion_lat": 0.0, "name": "6d7f45c5cddf29cb0f421c2f79f294a0", "is_disabled": 0, "rental_uris": {"android": "https://dc.lft.to/lastmile_qr_scan", "ios": "https://dc.lft.to/lastmile_qr_scan"}, "fusion_lon": 0.0, "lat": 38.892273, "bike_id": "6d7f45c5cddf29cb0f421c2f79f294a0", "type": "electric_scooter", "is_reserved": 0, "lon": -77.00292983333334}, {"fusion_lat": 0.0, "name": "41b5eb064c35e80bf0b74e469a2c18a9", "is_disabled": 0, "rental_uris": {"android": "https://dc.lft.to/lastmile_qr_scan", "ios": "https://dc.lft.to/lastmile_qr_scan"}, "fusion_lon": 0.0, "lat": 38.920786666666665, "bike_id": "41b5eb064c35e80bf0b74e469a2c18a9", "type": "electric_scooter", "is_reserved": 0, "lon": -77.02537883333333}, {"fusion_lat": 0.0, "name": "171a8b03b8d17431b83b952f77286067", "is_disabled": 0, "rental_uris": {"android": "https://dc.lft.to/lastmile_qr_scan", "ios": "https://dc.lft.to/lastmile_qr_scan"}, "fusion_lon": 0.0, "lat": 38.887248166666666, "bike_id": "171a8b03b8d17431b83b952f77286067", "type": "electric_scooter", "is_reserved": 0, "lon": -76.98360433333333}, {"fusion_lat": 0.0, "name": "b23f066d2f0fa745ea90c72520d4d7bb", "is_disabled": 0, "rental_uris": {"android": "https://dc.lft.to/lastmile_qr_scan", "ios": "https://dc.lft.to/lastmile_qr_scan"}, "fusion_lon": 0.0, "lat": 38.918427666666666, "bike_id": "b23f066d2f0fa745ea90c72520d4d7bb", "type": "electric_scooter", "is_reserved": 0, "lon": -76.96556066666666}, {"fusion_lat": 0.0, "name": "4971ec22693046c20bd52a80c9f0efc4", "is_disabled": 0, "rental_uris": {"android": "https://dc.lft.to/lastmile_qr_scan", "ios": "https://dc.lft.to/lastmile_qr_scan"}, "fusion_lon": 0.0, "lat": 38.9199585, "bike_id": "4971ec22693046c20bd52a80c9f0efc4", "type": "electric_scooter", "is_reserved": 0, "lon": -77.03284633333334}, {"fusion_lat": 0.0, "name": "0f78f98f3e6b456c027b29de41629aec", "is_disabled": 0, "rental_uris": {"android": "https://dc.lft.to/lastmile_qr_scan", "ios": "https://dc.lft.to/lastmile_qr_scan"}, "fusion_lon": 0.0, "lat": 38.91562066666667, "bike_id": "0f78f98f3e6b456c027b29de41629aec", "type": "electric_scooter", "is_reserved": 0, "lon": -77.01056666666666}, {"fusion_lat": 0.0, "name": "ff252648d0f330ecee5113f7312e870d", "is_disabled": 0, "rental_uris": {"android": "https://dc.lft.to/lastmile_qr_scan", "ios": "https://dc.lft.to/lastmile_qr_scan"}, "fusion_lon": 0.0, "lat": 38.887369, "bike_id": "ff252648d0f330ecee5113f7312e870d", "type": "electric_scooter", "is_reserved": 0, "lon": -77.00321383333333}, {"fusion_lat": 0.0, "name": "248cfed72f3d69eb22c5088b2570cd83", "is_disabled": 0, "rental_uris": {"android": "https://dc.lft.to/lastmile_qr_scan", "ios": "https://dc.lft.to/lastmile_qr_scan"}, "fusion_lon": 0.0, "lat": 38.900214, "bike_id": "248cfed72f3d69eb22c5088b2570cd83", "type": "electric_scooter", "is_reserved": 0, "lon": -77.01191216666666}, {"fusion_lat": 0.0, "name": "37d8f996f75c65a035cf4133635d84af", "is_disabled": 0, "rental_uris": {"android": "https://dc.lft.to/lastmile_qr_scan", "ios": "https://dc.lft.to/lastmile_qr_scan"}, "fusion_lon": 0.0, "lat": 38.9037635, "bike_id": "37d8f996f75c65a035cf4133635d84af", "type": "electric_scooter", "is_reserved": 0, "lon": -77.016326}, {"fusion_lat": 0.0, "name": "679842eca77ec528bee33a862e784c1d", "is_disabled": 0, "rental_uris": {"android": "https://dc.lft.to/lastmile_qr_scan", "ios": "https://dc.lft.to/lastmile_qr_scan"}, "fusion_lon": 0.0, "lat": 38.87087483333333, "bike_id": "679842eca77ec528bee33a862e784c1d", "type": "electric_scooter", "is_reserved": 0, "lon": -77.013672}, {"fusion_lat": 0.0, "name": "e8e5a5698f1a737763e7798b30e5baf0", "is_disabled": 0, "rental_uris": {"android": "https://dc.lft.to/lastmile_qr_scan", "ios": "https://dc.lft.to/lastmile_qr_scan"}, "fusion_lon": 0.0, "lat": 38.915801, "bike_id": "e8e5a5698f1a737763e7798b30e5baf0", "type": "electric_scooter", "is_reserved": 0, "lon": -76.98395516666666}, {"fusion_lat": 0.0, "name": "c7e3180e3ada748b91690b863bdb3b8c", "is_disabled": 0, "rental_uris": {"android": "https://dc.lft.to/lastmile_qr_scan", "ios": "https://dc.lft.to/lastmile_qr_scan"}, "fusion_lon": 0.0, "lat": 38.88743233333334, "bike_id": "c7e3180e3ada748b91690b863bdb3b8c", "type": "electric_scooter", "is_reserved": 0, "lon": -77.017848}, {"fusion_lat": 0.0, "name": "5e2a49f9a6ea77aab582546e1c064194", "is_disabled": 0, "rental_uris": {"android": "https://dc.lft.to/lastmile_qr_scan", "ios": "https://dc.lft.to/lastmile_qr_scan"}, "fusion_lon": 0.0, "lat": 38.897214, "bike_id": "5e2a49f9a6ea77aab582546e1c064194", "type": "electric_scooter", "is_reserved": 0, "lon": -77.02753016666666}, {"fusion_lat": 0.0, "name": "60db6d1d76a8717eb25b9cfb17d0f919", "is_disabled": 0, "rental_uris": {"android": "https://dc.lft.to/lastmile_qr_scan", "ios": "https://dc.lft.to/lastmile_qr_scan"}, "fusion_lon": 0.0, "lat": 38.9025765, "bike_id": "60db6d1d76a8717eb25b9cfb17d0f919", "type": "electric_scooter", "is_reserved": 0, "lon": -77.04154833333334}, {"fusion_lat": 0.0, "name": "79c9b4747f2844edf1fa0ce5cfa6f57c", "is_disabled": 0, "rental_uris": {"android": "https://dc.lft.to/lastmile_qr_scan", "ios": "https://dc.lft.to/lastmile_qr_scan"}, "fusion_lon": 0.0, "lat": 38.8996715, "bike_id": "79c9b4747f2844edf1fa0ce5cfa6f57c", "type": "electric_scooter", "is_reserved": 0, "lon": -76.9870985}, {"fusion_lat": 0.0, "name": "7e2782e4fcd1d03bc5ea2663d42ccf8f", "is_disabled": 0, "rental_uris": {"android": "https://dc.lft.to/lastmile_qr_scan", "ios": "https://dc.lft.to/lastmile_qr_scan"}, "fusion_lon": 0.0, "lat": 38.90295733333333, "bike_id": "7e2782e4fcd1d03bc5ea2663d42ccf8f", "type": "electric_scooter", "is_reserved": 0, "lon": -77.00599333333334}, {"fusion_lat": 0.0, "name": "49533aa992212e5dc5ceba1c4a93e266", "is_disabled": 0, "rental_uris": {"android": "https://dc.lft.to/lastmile_qr_scan", "ios": "https://dc.lft.to/lastmile_qr_scan"}, "fusion_lon": 0.0, "lat": 38.94229516666667, "bike_id": "49533aa992212e5dc5ceba1c4a93e266", "type": "electric_scooter", "is_reserved": 0, "lon": -77.01385516666667}, {"fusion_lat": 0.0, "name": "b883f06cee74f6b0eb8c91a09b24820e", "is_disabled": 0, "rental_uris": {"android": "https://dc.lft.to/lastmile_qr_scan", "ios": "https://dc.lft.to/lastmile_qr_scan"}, "fusion_lon": 0.0, "lat": 38.9058225, "bike_id": "b883f06cee74f6b0eb8c91a09b24820e", "type": "electric_scooter", "is_reserved": 0, "lon": -77.0445555}, {"fusion_lat": 0.0, "name": "810bab8ff177d1bbb69781a11a5506bb", "is_disabled": 0, "rental_uris": {"android": "https://dc.lft.to/lastmile_qr_scan", "ios": "https://dc.lft.to/lastmile_qr_scan"}, "fusion_lon": 0.0, "lat": 38.909458, "bike_id": "810bab8ff177d1bbb69781a11a5506bb", "type": "electric_scooter", "is_reserved": 0, "lon": -77.048674}, {"fusion_lat": 0.0, "name": "5167fc3ab55ff6c932e8142f9ce7de5d", "is_disabled": 0, "rental_uris": {"android": "https://dc.lft.to/lastmile_qr_scan", "ios": "https://dc.lft.to/lastmile_qr_scan"}, "fusion_lon": 0.0, "lat": 38.897319333333336, "bike_id": "5167fc3ab55ff6c932e8142f9ce7de5d", "type": "electric_scooter", "is_reserved": 0, "lon": -77.04684533333334}, {"fusion_lat": 0.0, "name": "12c993aece2c595659e949b94461e850", "is_disabled": 0, "rental_uris": {"android": "https://dc.lft.to/lastmile_qr_scan", "ios": "https://dc.lft.to/lastmile_qr_scan"}, "fusion_lon": 0.0, "lat": 38.91192516666667, "bike_id": "12c993aece2c595659e949b94461e850", "type": "electric_scooter", "is_reserved": 0, "lon": -77.0375935}, {"fusion_lat": 0.0, "name": "06fd1a60014f6f4074833c8f3a0840b8", "is_disabled": 0, "rental_uris": {"android": "https://dc.lft.to/lastmile_qr_scan", "ios": "https://dc.lft.to/lastmile_qr_scan"}, "fusion_lon": 0.0, "lat": 38.90954, "bike_id": "06fd1a60014f6f4074833c8f3a0840b8", "type": "electric_scooter", "is_reserved": 0, "lon": -77.04605883333333}, {"fusion_lat": 0.0, "name": "74ea653f4137eafecb27b4472e6757f3", "is_disabled": 0, "rental_uris": {"android": "https://dc.lft.to/lastmile_qr_scan", "ios": "https://dc.lft.to/lastmile_qr_scan"}, "fusion_lon": 0.0, "lat": 38.911210833333335, "bike_id": "74ea653f4137eafecb27b4472e6757f3", "type": "electric_scooter", "is_reserved": 0, "lon": -77.0116265}, {"fusion_lat": 0.0, "name": "2d79355ff9016a7be0f183fb9a1bf01d", "is_disabled": 0, "rental_uris": {"android": "https://dc.lft.to/lastmile_qr_scan", "ios": "https://dc.lft.to/lastmile_qr_scan"}, "fusion_lon": 0.0, "lat": 38.956022833333336, "bike_id": "2d79355ff9016a7be0f183fb9a1bf01d", "type": "electric_scooter", "is_reserved": 0, "lon": -77.03358333333334}, {"fusion_lat": 0.0, "name": "6a78c8515f7e608bda9021fcc01bca9e", "is_disabled": 0, "rental_uris": {"android": "https://dc.lft.to/lastmile_qr_scan", "ios": "https://dc.lft.to/lastmile_qr_scan"}, "fusion_lon": 0.0, "lat": 38.9382315, "bike_id": "6a78c8515f7e608bda9021fcc01bca9e", "type": "electric_scooter", "is_reserved": 0, "lon": -77.03282333333334}, {"fusion_lat": 0.0, "name": "b10c4a70e6673d4a37c57bc55f2c3953", "is_disabled": 0, "rental_uris": {"android": "https://dc.lft.to/lastmile_qr_scan", "ios": "https://dc.lft.to/lastmile_qr_scan"}, "fusion_lon": 0.0, "lat": 38.90423366666667, "bike_id": "b10c4a70e6673d4a37c57bc55f2c3953", "type": "electric_scooter", "is_reserved": 0, "lon": -77.02596016666666}, {"fusion_lat": 0.0, "name": "e8128af367f6f423d40406e8c954d997", "is_disabled": 0, "rental_uris": {"android": "https://dc.lft.to/lastmile_qr_scan", "ios": "https://dc.lft.to/lastmile_qr_scan"}, "fusion_lon": 0.0, "lat": 38.9311025, "bike_id": "e8128af367f6f423d40406e8c954d997", "type": "electric_scooter", "is_reserved": 0, "lon": -77.02369316666666}, {"fusion_lat": 0.0, "name": "a671f4894a5a3be51e360c12d0724219", "is_disabled": 0, "rental_uris": {"android": "https://dc.lft.to/lastmile_qr_scan", "ios": "https://dc.lft.to/lastmile_qr_scan"}, "fusion_lon": 0.0, "lat": 38.919147333333335, "bike_id": "a671f4894a5a3be51e360c12d0724219", "type": "electric_scooter", "is_reserved": 0, "lon": -77.02416333333333}, {"fusion_lat": 0.0, "name": "a6939938e642b78836d145d0733082da", "is_disabled": 0, "rental_uris": {"android": "https://dc.lft.to/lastmile_qr_scan", "ios": "https://dc.lft.to/lastmile_qr_scan"}, "fusion_lon": 0.0, "lat": 38.919138, "bike_id": "a6939938e642b78836d145d0733082da", "type": "electric_scooter", "is_reserved": 0, "lon": -77.0281915}, {"fusion_lat": 0.0, "name": "4c2641c299682bd2045ba7a3fdce824c", "is_disabled": 0, "rental_uris": {"android": "https://dc.lft.to/lastmile_qr_scan", "ios": "https://dc.lft.to/lastmile_qr_scan"}, "fusion_lon": 0.0, "lat": 38.895394833333334, "bike_id": "4c2641c299682bd2045ba7a3fdce824c", "type": "electric_scooter", "is_reserved": 0, "lon": -76.9495995}, {"fusion_lat": 0.0, "name": "1b9bc005219c381d6f75d4076dc572ee", "is_disabled": 0, "rental_uris": {"android": "https://dc.lft.to/lastmile_qr_scan", "ios": "https://dc.lft.to/lastmile_qr_scan"}, "fusion_lon": 0.0, "lat": 38.961196, "bike_id": "1b9bc005219c381d6f75d4076dc572ee", "type": "electric_scooter", "is_reserved": 0, "lon": -77.02791416666666}, {"fusion_lat": 0.0, "name": "0bb627ec6caf8a008d3f55241ea54c23", "is_disabled": 0, "rental_uris": {"android": "https://dc.lft.to/lastmile_qr_scan", "ios": "https://dc.lft.to/lastmile_qr_scan"}, "fusion_lon": 0.0, "lat": 38.90121383333334, "bike_id": "0bb627ec6caf8a008d3f55241ea54c23", "type": "electric_scooter", "is_reserved": 0, "lon": -77.00216583333334}, {"fusion_lat": 0.0, "name": "e865b9dad3966168202206d76bb86c9d", "is_disabled": 0, "rental_uris": {"android": "https://dc.lft.to/lastmile_qr_scan", "ios": "https://dc.lft.to/lastmile_qr_scan"}, "fusion_lon": 0.0, "lat": 38.918050666666666, "bike_id": "e865b9dad3966168202206d76bb86c9d", "type": "electric_scooter", "is_reserved": 0, "lon": -77.02878683333333}, {"fusion_lat": 0.0, "name": "94eb4c007e20e46152166101ed9ccec9", "is_disabled": 0, "rental_uris": {"android": "https://dc.lft.to/lastmile_qr_scan", "ios": "https://dc.lft.to/lastmile_qr_scan"}, "fusion_lon": 0.0, "lat": 38.920368, "bike_id": "94eb4c007e20e46152166101ed9ccec9", "type": "electric_bike", "is_reserved": 0, "lon": -76.97956683333334}, {"fusion_lat": 0.0, "name": "73f2ed945c0672ad3fd45e5c8fbc059d", "is_disabled": 0, "rental_uris": {"android": "https://dc.lft.to/lastmile_qr_scan", "ios": "https://dc.lft.to/lastmile_qr_scan"}, "fusion_lon": 0.0, "lat": 38.896723, "bike_id": "73f2ed945c0672ad3fd45e5c8fbc059d", "type": "electric_scooter", "is_reserved": 0, "lon": -77.0509825}, {"fusion_lat": 0.0, "name": "5e883c5f5187c9dc4db4292c1257fecf", "is_disabled": 0, "rental_uris": {"android": "https://dc.lft.to/lastmile_qr_scan", "ios": "https://dc.lft.to/lastmile_qr_scan"}, "fusion_lon": 0.0, "lat": 38.88733366666666, "bike_id": "5e883c5f5187c9dc4db4292c1257fecf", "type": "electric_scooter", "is_reserved": 0, "lon": -77.015173}, {"fusion_lat": 0.0, "name": "dc6cd46108349586f1677e6cfe10bd19", "is_disabled": 0, "rental_uris": {"android": "https://dc.lft.to/lastmile_qr_scan", "ios": "https://dc.lft.to/lastmile_qr_scan"}, "fusion_lon": 0.0, "lat": 38.875359, "bike_id": "dc6cd46108349586f1677e6cfe10bd19", "type": "electric_scooter", "is_reserved": 0, "lon": -77.005065}, {"fusion_lat": 0.0, "name": "7a988b0044d4f31e454fdb7fbb2d26df", "is_disabled": 0, "rental_uris": {"android": "https://dc.lft.to/lastmile_qr_scan", "ios": "https://dc.lft.to/lastmile_qr_scan"}, "fusion_lon": 0.0, "lat": 38.911747, "bike_id": "7a988b0044d4f31e454fdb7fbb2d26df", "type": "electric_bike", "is_reserved": 0, "lon": -77.01149966666667}, {"fusion_lat": 0.0, "name": "f8b42aa2344868b8f103fdd9238736dd", "is_disabled": 0, "rental_uris": {"android": "https://dc.lft.to/lastmile_qr_scan", "ios": "https://dc.lft.to/lastmile_qr_scan"}, "fusion_lon": 0.0, "lat": 38.923048333333334, "bike_id": "f8b42aa2344868b8f103fdd9238736dd", "type": "electric_scooter", "is_reserved": 0, "lon": -77.04228183333333}, {"fusion_lat": 0.0, "name": "a1d4cbc2e7645ed0a8c03af307539adb", "is_disabled": 0, "rental_uris": {"android": "https://dc.lft.to/lastmile_qr_scan", "ios": "https://dc.lft.to/lastmile_qr_scan"}, "fusion_lon": 0.0, "lat": 38.927552, "bike_id": "a1d4cbc2e7645ed0a8c03af307539adb", "type": "electric_scooter", "is_reserved": 0, "lon": -77.024236}, {"fusion_lat": 0.0, "name": "e8cb632b777d8d23c9a2e2daf828f25f", "is_disabled": 0, "rental_uris": {"android": "https://dc.lft.to/lastmile_qr_scan", "ios": "https://dc.lft.to/lastmile_qr_scan"}, "fusion_lon": 0.0, "lat": 38.87177883333333, "bike_id": "e8cb632b777d8d23c9a2e2daf828f25f", "type": "electric_scooter", "is_reserved": 0, "lon": -77.00611483333333}, {"fusion_lat": 0.0, "name": "d8ea8fea4a74cf49aaf513a132099ccb", "is_disabled": 0, "rental_uris": {"android": "https://dc.lft.to/lastmile_qr_scan", "ios": "https://dc.lft.to/lastmile_qr_scan"}, "fusion_lon": 0.0, "lat": 38.92117733333333, "bike_id": "d8ea8fea4a74cf49aaf513a132099ccb", "type": "electric_scooter", "is_reserved": 0, "lon": -77.0469165}, {"fusion_lat": 0.0, "name": "7e7c9aa8642a2c58337e75620ccc3bbb", "is_disabled": 0, "rental_uris": {"android": "https://dc.lft.to/lastmile_qr_scan", "ios": "https://dc.lft.to/lastmile_qr_scan"}, "fusion_lon": 0.0, "lat": 38.957580166666666, "bike_id": "7e7c9aa8642a2c58337e75620ccc3bbb", "type": "electric_scooter", "is_reserved": 0, "lon": -77.020591}, {"fusion_lat": 0.0, "name": "45a03c4c48b35541ee2ee668a0e3650a", "is_disabled": 0, "rental_uris": {"android": "https://dc.lft.to/lastmile_qr_scan", "ios": "https://dc.lft.to/lastmile_qr_scan"}, "fusion_lon": 0.0, "lat": 38.881982, "bike_id": "45a03c4c48b35541ee2ee668a0e3650a", "type": "electric_scooter", "is_reserved": 0, "lon": -76.9948595}, {"fusion_lat": 0.0, "name": "41b6c3767243b751d09c7a47370df721", "is_disabled": 0, "rental_uris": {"android": "https://dc.lft.to/lastmile_qr_scan", "ios": "https://dc.lft.to/lastmile_qr_scan"}, "fusion_lon": 0.0, "lat": 38.80764283333333, "bike_id": "41b6c3767243b751d09c7a47370df721", "type": "electric_bike", "is_reserved": 0, "lon": -77.1298715}, {"fusion_lat": 0.0, "name": "3965660c5ca61a151feb5fbc52cba2ca", "is_disabled": 0, "rental_uris": {"android": "https://dc.lft.to/lastmile_qr_scan", "ios": "https://dc.lft.to/lastmile_qr_scan"}, "fusion_lon": 0.0, "lat": 38.896580166666666, "bike_id": "3965660c5ca61a151feb5fbc52cba2ca", "type": "electric_scooter", "is_reserved": 0, "lon": -77.033535}, {"fusion_lat": 0.0, "name": "97f51faa89d06979f6a9d0ffe4869012", "is_disabled": 0, "rental_uris": {"android": "https://dc.lft.to/lastmile_qr_scan", "ios": "https://dc.lft.to/lastmile_qr_scan"}, "fusion_lon": 0.0, "lat": 38.91094016666667, "bike_id": "97f51faa89d06979f6a9d0ffe4869012", "type": "electric_scooter", "is_reserved": 0, "lon": -77.04484466666666}, {"fusion_lat": 0.0, "name": "6f8000211ed2c05102b5a325fffe44f0", "is_disabled": 0, "rental_uris": {"android": "https://dc.lft.to/lastmile_qr_scan", "ios": "https://dc.lft.to/lastmile_qr_scan"}, "fusion_lon": 0.0, "lat": 38.9006385, "bike_id": "6f8000211ed2c05102b5a325fffe44f0", "type": "electric_scooter", "is_reserved": 0, "lon": -76.92746416666667}, {"fusion_lat": 0.0, "name": "8b80de32db6ca87614f8f548d8bd7f64", "is_disabled": 0, "rental_uris": {"android": "https://dc.lft.to/lastmile_qr_scan", "ios": "https://dc.lft.to/lastmile_qr_scan"}, "fusion_lon": 0.0, "lat": 38.909320666666666, "bike_id": "8b80de32db6ca87614f8f548d8bd7f64", "type": "electric_scooter", "is_reserved": 0, "lon": -77.02810033333333}, {"fusion_lat": 0.0, "name": "f04bef8945458b165fc0cbcd8daa688f", "is_disabled": 0, "rental_uris": {"android": "https://dc.lft.to/lastmile_qr_scan", "ios": "https://dc.lft.to/lastmile_qr_scan"}, "fusion_lon": 0.0, "lat": 38.8972685, "bike_id": "f04bef8945458b165fc0cbcd8daa688f", "type": "electric_scooter", "is_reserved": 0, "lon": -77.01916833333334}, {"fusion_lat": 0.0, "name": "e1aff0d24a2099b27129e2cd54b727e6", "is_disabled": 0, "rental_uris": {"android": "https://dc.lft.to/lastmile_qr_scan", "ios": "https://dc.lft.to/lastmile_qr_scan"}, "fusion_lon": 0.0, "lat": 38.877479, "bike_id": "e1aff0d24a2099b27129e2cd54b727e6", "type": "electric_scooter", "is_reserved": 0, "lon": -77.0034155}, {"fusion_lat": 0.0, "name": "f854482fb172bfe63c80bfacac0b0087", "is_disabled": 0, "rental_uris": {"android": "https://dc.lft.to/lastmile_qr_scan", "ios": "https://dc.lft.to/lastmile_qr_scan"}, "fusion_lon": 0.0, "lat": 38.930589499999996, "bike_id": "f854482fb172bfe63c80bfacac0b0087", "type": "electric_scooter", "is_reserved": 0, "lon": -77.03800983333333}, {"fusion_lat": 0.0, "name": "d79f1488f8688e6a58d5cda5d0c81f90", "is_disabled": 0, "rental_uris": {"android": "https://dc.lft.to/lastmile_qr_scan", "ios": "https://dc.lft.to/lastmile_qr_scan"}, "fusion_lon": 0.0, "lat": 38.897292166666666, "bike_id": "d79f1488f8688e6a58d5cda5d0c81f90", "type": "electric_scooter", "is_reserved": 0, "lon": -77.02381633333333}, {"fusion_lat": 0.0, "name": "35bdf03e1b9e5c8f21062ec0919bf189", "is_disabled": 0, "rental_uris": {"android": "https://dc.lft.to/lastmile_qr_scan", "ios": "https://dc.lft.to/lastmile_qr_scan"}, "fusion_lon": 0.0, "lat": 38.90344316666667, "bike_id": "35bdf03e1b9e5c8f21062ec0919bf189", "type": "electric_scooter", "is_reserved": 0, "lon": -77.04492966666666}, {"fusion_lat": 0.0, "name": "36944cb8b8ef37c21038be3a7080f9d7", "is_disabled": 0, "rental_uris": {"android": "https://dc.lft.to/lastmile_qr_scan", "ios": "https://dc.lft.to/lastmile_qr_scan"}, "fusion_lon": 0.0, "lat": 38.922471333333334, "bike_id": "36944cb8b8ef37c21038be3a7080f9d7", "type": "electric_scooter", "is_reserved": 0, "lon": -77.0308595}, {"fusion_lat": 0.0, "name": "49ccdce80973551c1e3b03cb65214272", "is_disabled": 0, "rental_uris": {"android": "https://dc.lft.to/lastmile_qr_scan", "ios": "https://dc.lft.to/lastmile_qr_scan"}, "fusion_lon": 0.0, "lat": 38.92319466666667, "bike_id": "49ccdce80973551c1e3b03cb65214272", "type": "electric_scooter", "is_reserved": 0, "lon": -77.0402645}, {"fusion_lat": 0.0, "name": "ca3217507d1e511fad487d6c8c17f425", "is_disabled": 0, "rental_uris": {"android": "https://dc.lft.to/lastmile_qr_scan", "ios": "https://dc.lft.to/lastmile_qr_scan"}, "fusion_lon": 0.0, "lat": 38.905302666666664, "bike_id": "ca3217507d1e511fad487d6c8c17f425", "type": "electric_bike", "is_reserved": 0, "lon": -76.998059}, {"fusion_lat": 0.0, "name": "3f9ac78f9b8fb0a3c93324d413c451d4", "is_disabled": 0, "rental_uris": {"android": "https://dc.lft.to/lastmile_qr_scan", "ios": "https://dc.lft.to/lastmile_qr_scan"}, "fusion_lon": 0.0, "lat": 38.89567616666667, "bike_id": "3f9ac78f9b8fb0a3c93324d413c451d4", "type": "electric_scooter", "is_reserved": 0, "lon": -76.94908183333334}, {"fusion_lat": 0.0, "name": "aa74712d517e572a308fe48c894525d9", "is_disabled": 0, "rental_uris": {"android": "https://dc.lft.to/lastmile_qr_scan", "ios": "https://dc.lft.to/lastmile_qr_scan"}, "fusion_lon": 0.0, "lat": 38.93145033333333, "bike_id": "aa74712d517e572a308fe48c894525d9", "type": "electric_bike", "is_reserved": 0, "lon": -77.000708}, {"fusion_lat": 0.0, "name": "146570e27f449de9d6ea64368d57387e", "is_disabled": 0, "rental_uris": {"android": "https://dc.lft.to/lastmile_qr_scan", "ios": "https://dc.lft.to/lastmile_qr_scan"}, "fusion_lon": 0.0, "lat": 38.90572383333333, "bike_id": "146570e27f449de9d6ea64368d57387e", "type": "electric_scooter", "is_reserved": 0, "lon": -77.03431333333333}, {"fusion_lat": 0.0, "name": "d2946b090bfbb109e565b5366054421c", "is_disabled": 0, "rental_uris": {"android": "https://dc.lft.to/lastmile_qr_scan", "ios": "https://dc.lft.to/lastmile_qr_scan"}, "fusion_lon": 0.0, "lat": 38.88343783333333, "bike_id": "d2946b090bfbb109e565b5366054421c", "type": "electric_scooter", "is_reserved": 0, "lon": -76.9350015}, {"fusion_lat": 0.0, "name": "fe0cda27f0c01e1212eb881ee5378068", "is_disabled": 0, "rental_uris": {"android": "https://dc.lft.to/lastmile_qr_scan", "ios": "https://dc.lft.to/lastmile_qr_scan"}, "fusion_lon": 0.0, "lat": 38.920987833333335, "bike_id": "fe0cda27f0c01e1212eb881ee5378068", "type": "electric_scooter", "is_reserved": 0, "lon": -77.02521533333334}, {"fusion_lat": 0.0, "name": "40e050cae241b4f3bbd107c70423af1e", "is_disabled": 0, "rental_uris": {"android": "https://dc.lft.to/lastmile_qr_scan", "ios": "https://dc.lft.to/lastmile_qr_scan"}, "fusion_lon": 0.0, "lat": 38.92329816666667, "bike_id": "40e050cae241b4f3bbd107c70423af1e", "type": "electric_scooter", "is_reserved": 0, "lon": -77.05684583333333}, {"fusion_lat": 0.0, "name": "d58c2d0e7e9484a8edc525501bfac45c", "is_disabled": 0, "rental_uris": {"android": "https://dc.lft.to/lastmile_qr_scan", "ios": "https://dc.lft.to/lastmile_qr_scan"}, "fusion_lon": 0.0, "lat": 38.91545966666666, "bike_id": "d58c2d0e7e9484a8edc525501bfac45c", "type": "electric_scooter", "is_reserved": 0, "lon": -77.0675425}, {"fusion_lat": 0.0, "name": "24cb7d69072224c5a47c369607230108", "is_disabled": 0, "rental_uris": {"android": "https://dc.lft.to/lastmile_qr_scan", "ios": "https://dc.lft.to/lastmile_qr_scan"}, "fusion_lon": 0.0, "lat": 38.89730466666666, "bike_id": "24cb7d69072224c5a47c369607230108", "type": "electric_scooter", "is_reserved": 0, "lon": -77.04742916666666}, {"fusion_lat": 0.0, "name": "1e7e3f38031caf722b449b2436c8a8a1", "is_disabled": 0, "rental_uris": {"android": "https://dc.lft.to/lastmile_qr_scan", "ios": "https://dc.lft.to/lastmile_qr_scan"}, "fusion_lon": 0.0, "lat": 38.94718616666667, "bike_id": "1e7e3f38031caf722b449b2436c8a8a1", "type": "electric_scooter", "is_reserved": 0, "lon": -77.06533733333333}, {"fusion_lat": 0.0, "name": "724f6f3dafa8e9660f6a89cfb438d13a", "is_disabled": 0, "rental_uris": {"android": "https://dc.lft.to/lastmile_qr_scan", "ios": "https://dc.lft.to/lastmile_qr_scan"}, "fusion_lon": 0.0, "lat": 38.94386866666667, "bike_id": "724f6f3dafa8e9660f6a89cfb438d13a", "type": "electric_scooter", "is_reserved": 0, "lon": -77.09506233333333}, {"fusion_lat": 0.0, "name": "82500b25a781599b43e124e10ed1a164", "is_disabled": 0, "rental_uris": {"android": "https://dc.lft.to/lastmile_qr_scan", "ios": "https://dc.lft.to/lastmile_qr_scan"}, "fusion_lon": 0.0, "lat": 38.92432683333333, "bike_id": "82500b25a781599b43e124e10ed1a164", "type": "electric_scooter", "is_reserved": 0, "lon": -77.0521105}, {"fusion_lat": 0.0, "name": "74d8511540069ec29b1ff0ef64166378", "is_disabled": 0, "rental_uris": {"android": "https://dc.lft.to/lastmile_qr_scan", "ios": "https://dc.lft.to/lastmile_qr_scan"}, "fusion_lon": 0.0, "lat": 38.903721833333336, "bike_id": "74d8511540069ec29b1ff0ef64166378", "type": "electric_scooter", "is_reserved": 0, "lon": -77.050224}, {"fusion_lat": 0.0, "name": "8d636403b648bd5d5583b526721a0cff", "is_disabled": 0, "rental_uris": {"android": "https://dc.lft.to/lastmile_qr_scan", "ios": "https://dc.lft.to/lastmile_qr_scan"}, "fusion_lon": 0.0, "lat": 38.9347975, "bike_id": "8d636403b648bd5d5583b526721a0cff", "type": "electric_scooter", "is_reserved": 0, "lon": -77.03397366666667}, {"fusion_lat": 0.0, "name": "f8467464a5efba5f74210e5a22e2514d", "is_disabled": 0, "rental_uris": {"android": "https://dc.lft.to/lastmile_qr_scan", "ios": "https://dc.lft.to/lastmile_qr_scan"}, "fusion_lon": 0.0, "lat": 38.906015833333335, "bike_id": "f8467464a5efba5f74210e5a22e2514d", "type": "electric_scooter", "is_reserved": 0, "lon": -77.06294816666667}, {"fusion_lat": 0.0, "name": "d3db2c598c9ce15e49bd9f6af3f393cc", "is_disabled": 0, "rental_uris": {"android": "https://dc.lft.to/lastmile_qr_scan", "ios": "https://dc.lft.to/lastmile_qr_scan"}, "fusion_lon": 0.0, "lat": 38.844269833333335, "bike_id": "d3db2c598c9ce15e49bd9f6af3f393cc", "type": "electric_scooter", "is_reserved": 0, "lon": -76.99779816666667}, {"fusion_lat": 0.0, "name": "185eb6bad8be152679c408451912b352", "is_disabled": 0, "rental_uris": {"android": "https://dc.lft.to/lastmile_qr_scan", "ios": "https://dc.lft.to/lastmile_qr_scan"}, "fusion_lon": 0.0, "lat": 38.907809, "bike_id": "185eb6bad8be152679c408451912b352", "type": "electric_scooter", "is_reserved": 0, "lon": -77.035611}, {"fusion_lat": 0.0, "name": "2661cabfaa62fec695fc696794fa7b26", "is_disabled": 0, "rental_uris": {"android": "https://dc.lft.to/lastmile_qr_scan", "ios": "https://dc.lft.to/lastmile_qr_scan"}, "fusion_lon": 0.0, "lat": 38.91668083333333, "bike_id": "2661cabfaa62fec695fc696794fa7b26", "type": "electric_scooter", "is_reserved": 0, "lon": -77.02705666666667}, {"fusion_lat": 0.0, "name": "5c5ca6a8b79b1809d733d43b10d2c791", "is_disabled": 0, "rental_uris": {"android": "https://dc.lft.to/lastmile_qr_scan", "ios": "https://dc.lft.to/lastmile_qr_scan"}, "fusion_lon": 0.0, "lat": 38.8957205, "bike_id": "5c5ca6a8b79b1809d733d43b10d2c791", "type": "electric_scooter", "is_reserved": 0, "lon": -77.0219105}, {"fusion_lat": 0.0, "name": "496afb47b841d88d7226ee5be80a4862", "is_disabled": 0, "rental_uris": {"android": "https://dc.lft.to/lastmile_qr_scan", "ios": "https://dc.lft.to/lastmile_qr_scan"}, "fusion_lon": 0.0, "lat": 38.886777333333335, "bike_id": "496afb47b841d88d7226ee5be80a4862", "type": "electric_scooter", "is_reserved": 0, "lon": -77.0019655}, {"fusion_lat": 0.0, "name": "bf9ea1a9e2f0bcc9de37f135c4aa8941", "is_disabled": 0, "rental_uris": {"android": "https://dc.lft.to/lastmile_qr_scan", "ios": "https://dc.lft.to/lastmile_qr_scan"}, "fusion_lon": 0.0, "lat": 38.899520833333334, "bike_id": "bf9ea1a9e2f0bcc9de37f135c4aa8941", "type": "electric_scooter", "is_reserved": 0, "lon": -77.050985}, {"fusion_lat": 0.0, "name": "d85766438f9b429794e7c6a22e9dc0be", "is_disabled": 0, "rental_uris": {"android": "https://dc.lft.to/lastmile_qr_scan", "ios": "https://dc.lft.to/lastmile_qr_scan"}, "fusion_lon": 0.0, "lat": 38.9248175, "bike_id": "d85766438f9b429794e7c6a22e9dc0be", "type": "electric_scooter", "is_reserved": 0, "lon": -77.05212833333333}, {"fusion_lat": 0.0, "name": "832c2cfb028e9a77160458206357be50", "is_disabled": 0, "rental_uris": {"android": "https://dc.lft.to/lastmile_qr_scan", "ios": "https://dc.lft.to/lastmile_qr_scan"}, "fusion_lon": 0.0, "lat": 38.916972, "bike_id": "832c2cfb028e9a77160458206357be50", "type": "electric_scooter", "is_reserved": 0, "lon": -77.028886}, {"fusion_lat": 0.0, "name": "f4a4e98a4439a6fc20d4ab3c3739a7e8", "is_disabled": 0, "rental_uris": {"android": "https://dc.lft.to/lastmile_qr_scan", "ios": "https://dc.lft.to/lastmile_qr_scan"}, "fusion_lon": 0.0, "lat": 38.9244155, "bike_id": "f4a4e98a4439a6fc20d4ab3c3739a7e8", "type": "electric_scooter", "is_reserved": 0, "lon": -77.0187035}, {"fusion_lat": 0.0, "name": "a6bdf4f49a4c00700a71abffa69dbfe8", "is_disabled": 0, "rental_uris": {"android": "https://dc.lft.to/lastmile_qr_scan", "ios": "https://dc.lft.to/lastmile_qr_scan"}, "fusion_lon": 0.0, "lat": 38.88379416666667, "bike_id": "a6bdf4f49a4c00700a71abffa69dbfe8", "type": "electric_scooter", "is_reserved": 0, "lon": -77.00522066666667}, {"fusion_lat": 0.0, "name": "e1f06c0c80c84e50bc92a4fd9cd07feb", "is_disabled": 0, "rental_uris": {"android": "https://dc.lft.to/lastmile_qr_scan", "ios": "https://dc.lft.to/lastmile_qr_scan"}, "fusion_lon": 0.0, "lat": 38.847594, "bike_id": "e1f06c0c80c84e50bc92a4fd9cd07feb", "type": "electric_bike", "is_reserved": 0, "lon": -76.966351}, {"fusion_lat": 0.0, "name": "c244fce695e90efc30feebda538c754f", "is_disabled": 0, "rental_uris": {"android": "https://dc.lft.to/lastmile_qr_scan", "ios": "https://dc.lft.to/lastmile_qr_scan"}, "fusion_lon": 0.0, "lat": 38.91435716666667, "bike_id": "c244fce695e90efc30feebda538c754f", "type": "electric_scooter", "is_reserved": 0, "lon": -77.02178183333334}, {"fusion_lat": 0.0, "name": "d08a69b7943cc32c0593c4bd9eefa0a8", "is_disabled": 0, "rental_uris": {"android": "https://dc.lft.to/lastmile_qr_scan", "ios": "https://dc.lft.to/lastmile_qr_scan"}, "fusion_lon": 0.0, "lat": 38.94084016666667, "bike_id": "d08a69b7943cc32c0593c4bd9eefa0a8", "type": "electric_scooter", "is_reserved": 0, "lon": -77.06180316666666}, {"fusion_lat": 0.0, "name": "8cce075f092e3cbba484e668a925dbb6", "is_disabled": 0, "rental_uris": {"android": "https://dc.lft.to/lastmile_qr_scan", "ios": "https://dc.lft.to/lastmile_qr_scan"}, "fusion_lon": 0.0, "lat": 38.89726816666666, "bike_id": "8cce075f092e3cbba484e668a925dbb6", "type": "electric_scooter", "is_reserved": 0, "lon": -77.0552235}, {"fusion_lat": 0.0, "name": "d3c99900e91ca406b6ff2003ab164b8f", "is_disabled": 0, "rental_uris": {"android": "https://dc.lft.to/lastmile_qr_scan", "ios": "https://dc.lft.to/lastmile_qr_scan"}, "fusion_lon": 0.0, "lat": 38.91166183333333, "bike_id": "d3c99900e91ca406b6ff2003ab164b8f", "type": "electric_scooter", "is_reserved": 0, "lon": -77.011291}, {"fusion_lat": 0.0, "name": "059b2e302d1f698d907a4a5e562c1b62", "is_disabled": 0, "rental_uris": {"android": "https://dc.lft.to/lastmile_qr_scan", "ios": "https://dc.lft.to/lastmile_qr_scan"}, "fusion_lon": 0.0, "lat": 38.85768633333333, "bike_id": "059b2e302d1f698d907a4a5e562c1b62", "type": "electric_bike", "is_reserved": 0, "lon": -76.98767216666667}, {"fusion_lat": 0.0, "name": "29303baabb996fc468f189a88324c570", "is_disabled": 0, "rental_uris": {"android": "https://dc.lft.to/lastmile_qr_scan", "ios": "https://dc.lft.to/lastmile_qr_scan"}, "fusion_lon": 0.0, "lat": 38.9026105, "bike_id": "29303baabb996fc468f189a88324c570", "type": "electric_scooter", "is_reserved": 0, "lon": -77.0054}, {"fusion_lat": 0.0, "name": "0550fe29d3471678f295bd5ceadbffd3", "is_disabled": 0, "rental_uris": {"android": "https://dc.lft.to/lastmile_qr_scan", "ios": "https://dc.lft.to/lastmile_qr_scan"}, "fusion_lon": 0.0, "lat": 38.897583166666664, "bike_id": "0550fe29d3471678f295bd5ceadbffd3", "type": "electric_scooter", "is_reserved": 0, "lon": -77.02760933333333}, {"fusion_lat": 0.0, "name": "8ac0021315c1297bc21e295783f3f0ea", "is_disabled": 0, "rental_uris": {"android": "https://dc.lft.to/lastmile_qr_scan", "ios": "https://dc.lft.to/lastmile_qr_scan"}, "fusion_lon": 0.0, "lat": 38.917224833333336, "bike_id": "8ac0021315c1297bc21e295783f3f0ea", "type": "electric_scooter", "is_reserved": 0, "lon": -77.02699633333333}, {"fusion_lat": 0.0, "name": "56b8aae28d0574c7336dccecaf6f186e", "is_disabled": 0, "rental_uris": {"android": "https://dc.lft.to/lastmile_qr_scan", "ios": "https://dc.lft.to/lastmile_qr_scan"}, "fusion_lon": 0.0, "lat": 38.88007866666667, "bike_id": "56b8aae28d0574c7336dccecaf6f186e", "type": "electric_scooter", "is_reserved": 0, "lon": -76.983592}, {"fusion_lat": 0.0, "name": "778f06309c5f7fe568f4f663a047ea8c", "is_disabled": 0, "rental_uris": {"android": "https://dc.lft.to/lastmile_qr_scan", "ios": "https://dc.lft.to/lastmile_qr_scan"}, "fusion_lon": 0.0, "lat": 38.898536666666665, "bike_id": "778f06309c5f7fe568f4f663a047ea8c", "type": "electric_bike", "is_reserved": 0, "lon": -76.93190166666666}, {"fusion_lat": 0.0, "name": "afe68ec2ff1b2e28e48d143344b7f9ff", "is_disabled": 0, "rental_uris": {"android": "https://dc.lft.to/lastmile_qr_scan", "ios": "https://dc.lft.to/lastmile_qr_scan"}, "fusion_lon": 0.0, "lat": 38.909698666666664, "bike_id": "afe68ec2ff1b2e28e48d143344b7f9ff", "type": "electric_scooter", "is_reserved": 0, "lon": -77.0207725}, {"fusion_lat": 0.0, "name": "7fd2e7305269b0087a15ed88245a4728", "is_disabled": 0, "rental_uris": {"android": "https://dc.lft.to/lastmile_qr_scan", "ios": "https://dc.lft.to/lastmile_qr_scan"}, "fusion_lon": 0.0, "lat": 38.91707683333333, "bike_id": "7fd2e7305269b0087a15ed88245a4728", "type": "electric_scooter", "is_reserved": 0, "lon": -77.0242765}, {"fusion_lat": 0.0, "name": "99c8b7df7041bda54f07ff10f12525cd", "is_disabled": 0, "rental_uris": {"android": "https://dc.lft.to/lastmile_qr_scan", "ios": "https://dc.lft.to/lastmile_qr_scan"}, "fusion_lon": 0.0, "lat": 38.91837366666667, "bike_id": "99c8b7df7041bda54f07ff10f12525cd", "type": "electric_scooter", "is_reserved": 0, "lon": -77.01612266666666}, {"fusion_lat": 0.0, "name": "378ab1784ecc233a9662fb18375f5791", "is_disabled": 0, "rental_uris": {"android": "https://dc.lft.to/lastmile_qr_scan", "ios": "https://dc.lft.to/lastmile_qr_scan"}, "fusion_lon": 0.0, "lat": 38.92017583333333, "bike_id": "378ab1784ecc233a9662fb18375f5791", "type": "electric_scooter", "is_reserved": 0, "lon": -77.0819105}, {"fusion_lat": 0.0, "name": "e5a318fb80c5ef70d42075760edc2b00", "is_disabled": 0, "rental_uris": {"android": "https://dc.lft.to/lastmile_qr_scan", "ios": "https://dc.lft.to/lastmile_qr_scan"}, "fusion_lon": 0.0, "lat": 38.90526766666667, "bike_id": "e5a318fb80c5ef70d42075760edc2b00", "type": "electric_scooter", "is_reserved": 0, "lon": -77.061348}, {"fusion_lat": 0.0, "name": "68125b6bfd98c1ea84dd4f44c9bf61fc", "is_disabled": 0, "rental_uris": {"android": "https://dc.lft.to/lastmile_qr_scan", "ios": "https://dc.lft.to/lastmile_qr_scan"}, "fusion_lon": 0.0, "lat": 38.918451, "bike_id": "68125b6bfd98c1ea84dd4f44c9bf61fc", "type": "electric_scooter", "is_reserved": 0, "lon": -76.9655715}, {"fusion_lat": 0.0, "name": "f9963bb2a20991108668d06f37adb9f2", "is_disabled": 0, "rental_uris": {"android": "https://dc.lft.to/lastmile_qr_scan", "ios": "https://dc.lft.to/lastmile_qr_scan"}, "fusion_lon": 0.0, "lat": 38.91812683333333, "bike_id": "f9963bb2a20991108668d06f37adb9f2", "type": "electric_scooter", "is_reserved": 0, "lon": -77.02680666666667}, {"fusion_lat": 0.0, "name": "dc6a70fbd5925eceb95bd9f81ef84f1a", "is_disabled": 0, "rental_uris": {"android": "https://dc.lft.to/lastmile_qr_scan", "ios": "https://dc.lft.to/lastmile_qr_scan"}, "fusion_lon": 0.0, "lat": 38.918502333333336, "bike_id": "dc6a70fbd5925eceb95bd9f81ef84f1a", "type": "electric_scooter", "is_reserved": 0, "lon": -76.96554766666667}, {"fusion_lat": 0.0, "name": "4590a17cfe706a4448cc15934b648fda", "is_disabled": 0, "rental_uris": {"android": "https://dc.lft.to/lastmile_qr_scan", "ios": "https://dc.lft.to/lastmile_qr_scan"}, "fusion_lon": 0.0, "lat": 38.964398833333334, "bike_id": "4590a17cfe706a4448cc15934b648fda", "type": "electric_bike", "is_reserved": 0, "lon": -77.02073166666666}, {"fusion_lat": 0.0, "name": "3370e0f412857c8ec753625dc8b3172e", "is_disabled": 0, "rental_uris": {"android": "https://dc.lft.to/lastmile_qr_scan", "ios": "https://dc.lft.to/lastmile_qr_scan"}, "fusion_lon": 0.0, "lat": 38.91707266666667, "bike_id": "3370e0f412857c8ec753625dc8b3172e", "type": "electric_scooter", "is_reserved": 0, "lon": -77.02614616666666}, {"fusion_lat": 0.0, "name": "7ff8781f2b87b9cbe16477fa296b032d", "is_disabled": 0, "rental_uris": {"android": "https://dc.lft.to/lastmile_qr_scan", "ios": "https://dc.lft.to/lastmile_qr_scan"}, "fusion_lon": 0.0, "lat": 38.9335715, "bike_id": "7ff8781f2b87b9cbe16477fa296b032d", "type": "electric_scooter", "is_reserved": 0, "lon": -77.07214033333334}, {"fusion_lat": 0.0, "name": "3c728ae87ce09d5e56a07e4d3acc5e02", "is_disabled": 0, "rental_uris": {"android": "https://dc.lft.to/lastmile_qr_scan", "ios": "https://dc.lft.to/lastmile_qr_scan"}, "fusion_lon": 0.0, "lat": 38.9184845, "bike_id": "3c728ae87ce09d5e56a07e4d3acc5e02", "type": "electric_scooter", "is_reserved": 0, "lon": -76.96551366666667}, {"fusion_lat": 0.0, "name": "221e795360249590f9c22805b63a9f58", "is_disabled": 0, "rental_uris": {"android": "https://dc.lft.to/lastmile_qr_scan", "ios": "https://dc.lft.to/lastmile_qr_scan"}, "fusion_lon": 0.0, "lat": 38.93102616666667, "bike_id": "221e795360249590f9c22805b63a9f58", "type": "electric_scooter", "is_reserved": 0, "lon": -77.0381065}, {"fusion_lat": 0.0, "name": "f56aae07d86b64ecb1bebab98ef71ceb", "is_disabled": 0, "rental_uris": {"android": "https://dc.lft.to/lastmile_qr_scan", "ios": "https://dc.lft.to/lastmile_qr_scan"}, "fusion_lon": 0.0, "lat": 38.84933933333333, "bike_id": "f56aae07d86b64ecb1bebab98ef71ceb", "type": "electric_bike", "is_reserved": 0, "lon": -77.07781616666666}, {"fusion_lat": 0.0, "name": "27f8dc5c03e6a40d145694ab80a09f8d", "is_disabled": 0, "rental_uris": {"android": "https://dc.lft.to/lastmile_qr_scan", "ios": "https://dc.lft.to/lastmile_qr_scan"}, "fusion_lon": 0.0, "lat": 38.90509466666666, "bike_id": "27f8dc5c03e6a40d145694ab80a09f8d", "type": "electric_scooter", "is_reserved": 0, "lon": -77.00598316666667}, {"fusion_lat": 0.0, "name": "fe7d0e3a42569d0b190c7960ff1d29ea", "is_disabled": 0, "rental_uris": {"android": "https://dc.lft.to/lastmile_qr_scan", "ios": "https://dc.lft.to/lastmile_qr_scan"}, "fusion_lon": 0.0, "lat": 38.91959883333333, "bike_id": "fe7d0e3a42569d0b190c7960ff1d29ea", "type": "electric_scooter", "is_reserved": 0, "lon": -77.02385283333334}, {"fusion_lat": 0.0, "name": "3e6bde75688142f5706193227dc22df3", "is_disabled": 0, "rental_uris": {"android": "https://dc.lft.to/lastmile_qr_scan", "ios": "https://dc.lft.to/lastmile_qr_scan"}, "fusion_lon": 0.0, "lat": 38.92234933333334, "bike_id": "3e6bde75688142f5706193227dc22df3", "type": "electric_scooter", "is_reserved": 0, "lon": -77.04243933333333}, {"fusion_lat": 0.0, "name": "2879d30d997c8399655a1b2cf76c56ae", "is_disabled": 0, "rental_uris": {"android": "https://dc.lft.to/lastmile_qr_scan", "ios": "https://dc.lft.to/lastmile_qr_scan"}, "fusion_lon": 0.0, "lat": 38.92867433333333, "bike_id": "2879d30d997c8399655a1b2cf76c56ae", "type": "electric_scooter", "is_reserved": 0, "lon": -77.03446816666667}, {"fusion_lat": 0.0, "name": "89f9872c0505c2ecf03145cb99e1917e", "is_disabled": 0, "rental_uris": {"android": "https://dc.lft.to/lastmile_qr_scan", "ios": "https://dc.lft.to/lastmile_qr_scan"}, "fusion_lon": 0.0, "lat": 38.91343116666667, "bike_id": "89f9872c0505c2ecf03145cb99e1917e", "type": "electric_bike", "is_reserved": 0, "lon": -77.02758616666667}, {"fusion_lat": 0.0, "name": "1256d9d6e66318798a24da1cb78c24ac", "is_disabled": 0, "rental_uris": {"android": "https://dc.lft.to/lastmile_qr_scan", "ios": "https://dc.lft.to/lastmile_qr_scan"}, "fusion_lon": 0.0, "lat": 38.90683583333333, "bike_id": "1256d9d6e66318798a24da1cb78c24ac", "type": "electric_bike", "is_reserved": 0, "lon": -76.94494}, {"fusion_lat": 0.0, "name": "7145145d491a909b4ba6b8cad63ec5ea", "is_disabled": 0, "rental_uris": {"android": "https://dc.lft.to/lastmile_qr_scan", "ios": "https://dc.lft.to/lastmile_qr_scan"}, "fusion_lon": 0.0, "lat": 38.923211333333334, "bike_id": "7145145d491a909b4ba6b8cad63ec5ea", "type": "electric_scooter", "is_reserved": 0, "lon": -77.0412505}, {"fusion_lat": 0.0, "name": "dcd6321b30d12e553716430cfd6ccf49", "is_disabled": 0, "rental_uris": {"android": "https://dc.lft.to/lastmile_qr_scan", "ios": "https://dc.lft.to/lastmile_qr_scan"}, "fusion_lon": 0.0, "lat": 38.91707983333333, "bike_id": "dcd6321b30d12e553716430cfd6ccf49", "type": "electric_scooter", "is_reserved": 0, "lon": -77.02432616666667}, {"fusion_lat": 0.0, "name": "ce2166986d1d2a8a7207ee05974b9210", "is_disabled": 0, "rental_uris": {"android": "https://dc.lft.to/lastmile_qr_scan", "ios": "https://dc.lft.to/lastmile_qr_scan"}, "fusion_lon": 0.0, "lat": 38.91707533333334, "bike_id": "ce2166986d1d2a8a7207ee05974b9210", "type": "electric_scooter", "is_reserved": 0, "lon": -77.040707}, {"fusion_lat": 0.0, "name": "477aa50dd699bbc287f9dbe849b080cc", "is_disabled": 0, "rental_uris": {"android": "https://dc.lft.to/lastmile_qr_scan", "ios": "https://dc.lft.to/lastmile_qr_scan"}, "fusion_lon": 0.0, "lat": 38.914197, "bike_id": "477aa50dd699bbc287f9dbe849b080cc", "type": "electric_scooter", "is_reserved": 0, "lon": -77.02813533333334}, {"fusion_lat": 0.0, "name": "655f0e110306beaf2a2781ff989403e2", "is_disabled": 0, "rental_uris": {"android": "https://dc.lft.to/lastmile_qr_scan", "ios": "https://dc.lft.to/lastmile_qr_scan"}, "fusion_lon": 0.0, "lat": 38.901522666666665, "bike_id": "655f0e110306beaf2a2781ff989403e2", "type": "electric_scooter", "is_reserved": 0, "lon": -76.930633}, {"fusion_lat": 0.0, "name": "d7c2eb4344ae6cc1af5f87b7ed84929f", "is_disabled": 0, "rental_uris": {"android": "https://dc.lft.to/lastmile_qr_scan", "ios": "https://dc.lft.to/lastmile_qr_scan"}, "fusion_lon": 0.0, "lat": 38.945095, "bike_id": "d7c2eb4344ae6cc1af5f87b7ed84929f", "type": "electric_bike", "is_reserved": 0, "lon": -77.00677916666666}, {"fusion_lat": 0.0, "name": "598fcfc174a374ab4b55d414e5ffd0a5", "is_disabled": 0, "rental_uris": {"android": "https://dc.lft.to/lastmile_qr_scan", "ios": "https://dc.lft.to/lastmile_qr_scan"}, "fusion_lon": 0.0, "lat": 38.906974, "bike_id": "598fcfc174a374ab4b55d414e5ffd0a5", "type": "electric_scooter", "is_reserved": 0, "lon": -77.035967}, {"fusion_lat": 0.0, "name": "c8fd8853ea4cd2140d7539d5b92c453c", "is_disabled": 0, "rental_uris": {"android": "https://dc.lft.to/lastmile_qr_scan", "ios": "https://dc.lft.to/lastmile_qr_scan"}, "fusion_lon": 0.0, "lat": 38.88508983333333, "bike_id": "c8fd8853ea4cd2140d7539d5b92c453c", "type": "electric_scooter", "is_reserved": 0, "lon": -77.0148295}, {"fusion_lat": 0.0, "name": "66f72c50133b64c72cf269cc0cd083f5", "is_disabled": 0, "rental_uris": {"android": "https://dc.lft.to/lastmile_qr_scan", "ios": "https://dc.lft.to/lastmile_qr_scan"}, "fusion_lon": 0.0, "lat": 38.921686666666666, "bike_id": "66f72c50133b64c72cf269cc0cd083f5", "type": "electric_scooter", "is_reserved": 0, "lon": -77.03848783333333}, {"fusion_lat": 0.0, "name": "ffe4134ecbe0dc5d6320a13d60a377e3", "is_disabled": 0, "rental_uris": {"android": "https://dc.lft.to/lastmile_qr_scan", "ios": "https://dc.lft.to/lastmile_qr_scan"}, "fusion_lon": 0.0, "lat": 38.928949333333335, "bike_id": "ffe4134ecbe0dc5d6320a13d60a377e3", "type": "electric_scooter", "is_reserved": 0, "lon": -77.0326695}, {"fusion_lat": 0.0, "name": "fc3ed19dbf2217d402aaa87832f7f750", "is_disabled": 0, "rental_uris": {"android": "https://dc.lft.to/lastmile_qr_scan", "ios": "https://dc.lft.to/lastmile_qr_scan"}, "fusion_lon": 0.0, "lat": 38.89817033333333, "bike_id": "fc3ed19dbf2217d402aaa87832f7f750", "type": "electric_scooter", "is_reserved": 0, "lon": -77.0333705}, {"fusion_lat": 0.0, "name": "2df636a52f9e90a85ef766f15fa8904d", "is_disabled": 0, "rental_uris": {"android": "https://dc.lft.to/lastmile_qr_scan", "ios": "https://dc.lft.to/lastmile_qr_scan"}, "fusion_lon": 0.0, "lat": 38.8988515, "bike_id": "2df636a52f9e90a85ef766f15fa8904d", "type": "electric_scooter", "is_reserved": 0, "lon": -76.99360283333333}, {"fusion_lat": 0.0, "name": "b4f12d43164c974e2df3d60f8be7393c", "is_disabled": 0, "rental_uris": {"android": "https://dc.lft.to/lastmile_qr_scan", "ios": "https://dc.lft.to/lastmile_qr_scan"}, "fusion_lon": 0.0, "lat": 38.89736516666667, "bike_id": "b4f12d43164c974e2df3d60f8be7393c", "type": "electric_scooter", "is_reserved": 0, "lon": -77.00776216666667}, {"fusion_lat": 0.0, "name": "4af5bf3d37485628df89dfd5ea8bee66", "is_disabled": 0, "rental_uris": {"android": "https://dc.lft.to/lastmile_qr_scan", "ios": "https://dc.lft.to/lastmile_qr_scan"}, "fusion_lon": 0.0, "lat": 38.92375366666667, "bike_id": "4af5bf3d37485628df89dfd5ea8bee66", "type": "electric_scooter", "is_reserved": 0, "lon": -77.05155216666667}, {"fusion_lat": 0.0, "name": "59ef8c9fb78388ea25455f5adf2d2d3b", "is_disabled": 0, "rental_uris": {"android": "https://dc.lft.to/lastmile_qr_scan", "ios": "https://dc.lft.to/lastmile_qr_scan"}, "fusion_lon": 0.0, "lat": 38.95549916666667, "bike_id": "59ef8c9fb78388ea25455f5adf2d2d3b", "type": "electric_bike", "is_reserved": 0, "lon": -77.06933383333333}, {"fusion_lat": 0.0, "name": "21431c90cf4d948086c2702f32baab67", "is_disabled": 0, "rental_uris": {"android": "https://dc.lft.to/lastmile_qr_scan", "ios": "https://dc.lft.to/lastmile_qr_scan"}, "fusion_lon": 0.0, "lat": 38.91940483333333, "bike_id": "21431c90cf4d948086c2702f32baab67", "type": "electric_scooter", "is_reserved": 0, "lon": -77.04921033333333}, {"fusion_lat": 0.0, "name": "c917dea647cf3401da69d24588c2a471", "is_disabled": 0, "rental_uris": {"android": "https://dc.lft.to/lastmile_qr_scan", "ios": "https://dc.lft.to/lastmile_qr_scan"}, "fusion_lon": 0.0, "lat": 38.89567533333334, "bike_id": "c917dea647cf3401da69d24588c2a471", "type": "electric_scooter", "is_reserved": 0, "lon": -77.02172366666667}, {"fusion_lat": 0.0, "name": "6a72900bfa2488c58ad6cdc2f91e9175", "is_disabled": 0, "rental_uris": {"android": "https://dc.lft.to/lastmile_qr_scan", "ios": "https://dc.lft.to/lastmile_qr_scan"}, "fusion_lon": 0.0, "lat": 38.952911666666665, "bike_id": "6a72900bfa2488c58ad6cdc2f91e9175", "type": "electric_scooter", "is_reserved": 0, "lon": -77.0685825}, {"fusion_lat": 0.0, "name": "5193ab1b36e1debacd0aba998f61ae7e", "is_disabled": 0, "rental_uris": {"android": "https://dc.lft.to/lastmile_qr_scan", "ios": "https://dc.lft.to/lastmile_qr_scan"}, "fusion_lon": 0.0, "lat": 38.900839166666664, "bike_id": "5193ab1b36e1debacd0aba998f61ae7e", "type": "electric_scooter", "is_reserved": 0, "lon": -77.01357716666666}, {"fusion_lat": 0.0, "name": "2e4a23bf4d8e1776d0117b198aeb9694", "is_disabled": 0, "rental_uris": {"android": "https://dc.lft.to/lastmile_qr_scan", "ios": "https://dc.lft.to/lastmile_qr_scan"}, "fusion_lon": 0.0, "lat": 38.925230666666664, "bike_id": "2e4a23bf4d8e1776d0117b198aeb9694", "type": "electric_scooter", "is_reserved": 0, "lon": -77.07707533333334}, {"fusion_lat": 0.0, "name": "add8c9875c495231661d0826655767a0", "is_disabled": 0, "rental_uris": {"android": "https://dc.lft.to/lastmile_qr_scan", "ios": "https://dc.lft.to/lastmile_qr_scan"}, "fusion_lon": 0.0, "lat": 38.916517166666665, "bike_id": "add8c9875c495231661d0826655767a0", "type": "electric_scooter", "is_reserved": 0, "lon": -77.047814}, {"fusion_lat": 0.0, "name": "4906ce6b3503ad234920ef4231973200", "is_disabled": 0, "rental_uris": {"android": "https://dc.lft.to/lastmile_qr_scan", "ios": "https://dc.lft.to/lastmile_qr_scan"}, "fusion_lon": 0.0, "lat": 38.92606816666667, "bike_id": "4906ce6b3503ad234920ef4231973200", "type": "electric_scooter", "is_reserved": 0, "lon": -77.03959}, {"fusion_lat": 0.0, "name": "24d165b2c04588e22d94c3a9358b8005", "is_disabled": 0, "rental_uris": {"android": "https://dc.lft.to/lastmile_qr_scan", "ios": "https://dc.lft.to/lastmile_qr_scan"}, "fusion_lon": 0.0, "lat": 38.904623666666666, "bike_id": "24d165b2c04588e22d94c3a9358b8005", "type": "electric_scooter", "is_reserved": 0, "lon": -77.053213}, {"fusion_lat": 0.0, "name": "0bfc7946f9b24ea321c4bc448fe6faee", "is_disabled": 0, "rental_uris": {"android": "https://dc.lft.to/lastmile_qr_scan", "ios": "https://dc.lft.to/lastmile_qr_scan"}, "fusion_lon": 0.0, "lat": 38.84425483333333, "bike_id": "0bfc7946f9b24ea321c4bc448fe6faee", "type": "electric_scooter", "is_reserved": 0, "lon": -76.99779066666666}, {"fusion_lat": 0.0, "name": "4d785d6eb9caf0397d52cad1e64a9b4d", "is_disabled": 0, "rental_uris": {"android": "https://dc.lft.to/lastmile_qr_scan", "ios": "https://dc.lft.to/lastmile_qr_scan"}, "fusion_lon": 0.0, "lat": 38.911339, "bike_id": "4d785d6eb9caf0397d52cad1e64a9b4d", "type": "electric_scooter", "is_reserved": 0, "lon": -77.06533183333333}, {"fusion_lat": 0.0, "name": "06e0a63ccf8f243aa8868bd1296ce578", "is_disabled": 0, "rental_uris": {"android": "https://dc.lft.to/lastmile_qr_scan", "ios": "https://dc.lft.to/lastmile_qr_scan"}, "fusion_lon": 0.0, "lat": 38.91159616666667, "bike_id": "06e0a63ccf8f243aa8868bd1296ce578", "type": "electric_scooter", "is_reserved": 0, "lon": -77.03207816666666}, {"fusion_lat": 0.0, "name": "f0c14a23f52f6b5dff179cce8484ae5d", "is_disabled": 0, "rental_uris": {"android": "https://dc.lft.to/lastmile_qr_scan", "ios": "https://dc.lft.to/lastmile_qr_scan"}, "fusion_lon": 0.0, "lat": 38.924826833333334, "bike_id": "f0c14a23f52f6b5dff179cce8484ae5d", "type": "electric_scooter", "is_reserved": 0, "lon": -77.02596616666666}, {"fusion_lat": 0.0, "name": "5ec890bf580de9bb4702b780c3c6d0b3", "is_disabled": 0, "rental_uris": {"android": "https://dc.lft.to/lastmile_qr_scan", "ios": "https://dc.lft.to/lastmile_qr_scan"}, "fusion_lon": 0.0, "lat": 38.874495, "bike_id": "5ec890bf580de9bb4702b780c3c6d0b3", "type": "electric_scooter", "is_reserved": 0, "lon": -77.00893166666667}, {"fusion_lat": 0.0, "name": "e8fce17c3957fcac7b5e0d3e3aebe338", "is_disabled": 0, "rental_uris": {"android": "https://dc.lft.to/lastmile_qr_scan", "ios": "https://dc.lft.to/lastmile_qr_scan"}, "fusion_lon": 0.0, "lat": 38.928706166666665, "bike_id": "e8fce17c3957fcac7b5e0d3e3aebe338", "type": "electric_scooter", "is_reserved": 0, "lon": -77.03420033333333}, {"fusion_lat": 0.0, "name": "a0912c457ea291913a766044563bbed3", "is_disabled": 0, "rental_uris": {"android": "https://dc.lft.to/lastmile_qr_scan", "ios": "https://dc.lft.to/lastmile_qr_scan"}, "fusion_lon": 0.0, "lat": 38.936943, "bike_id": "a0912c457ea291913a766044563bbed3", "type": "electric_bike", "is_reserved": 0, "lon": -76.99057833333333}, {"fusion_lat": 0.0, "name": "0c45fb7fc2d7f12b83ed6abad5854a32", "is_disabled": 0, "rental_uris": {"android": "https://dc.lft.to/lastmile_qr_scan", "ios": "https://dc.lft.to/lastmile_qr_scan"}, "fusion_lon": 0.0, "lat": 38.939879166666664, "bike_id": "0c45fb7fc2d7f12b83ed6abad5854a32", "type": "electric_scooter", "is_reserved": 0, "lon": -77.01647266666667}, {"fusion_lat": 0.0, "name": "9509a5679956d36438e8d183f3c2f914", "is_disabled": 0, "rental_uris": {"android": "https://dc.lft.to/lastmile_qr_scan", "ios": "https://dc.lft.to/lastmile_qr_scan"}, "fusion_lon": 0.0, "lat": 38.8802835, "bike_id": "9509a5679956d36438e8d183f3c2f914", "type": "electric_scooter", "is_reserved": 0, "lon": -77.02501183333334}, {"fusion_lat": 0.0, "name": "c58ddbf5d0d39709d1793466aa4ccbad", "is_disabled": 0, "rental_uris": {"android": "https://dc.lft.to/lastmile_qr_scan", "ios": "https://dc.lft.to/lastmile_qr_scan"}, "fusion_lon": 0.0, "lat": 38.93482316666667, "bike_id": "c58ddbf5d0d39709d1793466aa4ccbad", "type": "electric_scooter", "is_reserved": 0, "lon": -77.07267733333333}, {"fusion_lat": 0.0, "name": "9e8f663f5aaf4b43168b9d926e3bd3a4", "is_disabled": 0, "rental_uris": {"android": "https://dc.lft.to/lastmile_qr_scan", "ios": "https://dc.lft.to/lastmile_qr_scan"}, "fusion_lon": 0.0, "lat": 38.902751333333335, "bike_id": "9e8f663f5aaf4b43168b9d926e3bd3a4", "type": "electric_scooter", "is_reserved": 0, "lon": -77.03664633333334}, {"fusion_lat": 0.0, "name": "7e857d6fbf97fff1a7f078f571829e3a", "is_disabled": 0, "rental_uris": {"android": "https://dc.lft.to/lastmile_qr_scan", "ios": "https://dc.lft.to/lastmile_qr_scan"}, "fusion_lon": 0.0, "lat": 38.877026, "bike_id": "7e857d6fbf97fff1a7f078f571829e3a", "type": "electric_scooter", "is_reserved": 0, "lon": -77.00676566666667}, {"fusion_lat": 0.0, "name": "9a79aaca550a35acb5b9ef06fef01db0", "is_disabled": 0, "rental_uris": {"android": "https://dc.lft.to/lastmile_qr_scan", "ios": "https://dc.lft.to/lastmile_qr_scan"}, "fusion_lon": 0.0, "lat": 38.917846833333336, "bike_id": "9a79aaca550a35acb5b9ef06fef01db0", "type": "electric_scooter", "is_reserved": 0, "lon": -77.04044266666666}, {"fusion_lat": 0.0, "name": "743ddee4c86fcb0b6fe078f09b57ea57", "is_disabled": 0, "rental_uris": {"android": "https://dc.lft.to/lastmile_qr_scan", "ios": "https://dc.lft.to/lastmile_qr_scan"}, "fusion_lon": 0.0, "lat": 38.93200216666666, "bike_id": "743ddee4c86fcb0b6fe078f09b57ea57", "type": "electric_scooter", "is_reserved": 0, "lon": -77.03852933333333}, {"fusion_lat": 0.0, "name": "7936086202237fcd7e125c7eb258cf82", "is_disabled": 0, "rental_uris": {"android": "https://dc.lft.to/lastmile_qr_scan", "ios": "https://dc.lft.to/lastmile_qr_scan"}, "fusion_lon": 0.0, "lat": 38.925298, "bike_id": "7936086202237fcd7e125c7eb258cf82", "type": "electric_bike", "is_reserved": 0, "lon": -77.05096133333333}, {"fusion_lat": 0.0, "name": "01b93df63ca3693574c2ed24af1bf7ec", "is_disabled": 0, "rental_uris": {"android": "https://dc.lft.to/lastmile_qr_scan", "ios": "https://dc.lft.to/lastmile_qr_scan"}, "fusion_lon": 0.0, "lat": 38.9056845, "bike_id": "01b93df63ca3693574c2ed24af1bf7ec", "type": "electric_scooter", "is_reserved": 0, "lon": -77.04194466666667}, {"fusion_lat": 0.0, "name": "09d76c8ee8fa88d4c9f468e7bbe05d16", "is_disabled": 0, "rental_uris": {"android": "https://dc.lft.to/lastmile_qr_scan", "ios": "https://dc.lft.to/lastmile_qr_scan"}, "fusion_lon": 0.0, "lat": 38.898788, "bike_id": "09d76c8ee8fa88d4c9f468e7bbe05d16", "type": "electric_scooter", "is_reserved": 0, "lon": -77.0091845}, {"fusion_lat": 0.0, "name": "598b3f8bc7ba2af894b222e34c882744", "is_disabled": 0, "rental_uris": {"android": "https://dc.lft.to/lastmile_qr_scan", "ios": "https://dc.lft.to/lastmile_qr_scan"}, "fusion_lon": 0.0, "lat": 38.8715555, "bike_id": "598b3f8bc7ba2af894b222e34c882744", "type": "electric_bike", "is_reserved": 0, "lon": -77.13142416666666}, {"fusion_lat": 0.0, "name": "b879f8398d8921ee10beca00c55dcbf5", "is_disabled": 0, "rental_uris": {"android": "https://dc.lft.to/lastmile_qr_scan", "ios": "https://dc.lft.to/lastmile_qr_scan"}, "fusion_lon": 0.0, "lat": 38.932413833333335, "bike_id": "b879f8398d8921ee10beca00c55dcbf5", "type": "electric_scooter", "is_reserved": 0, "lon": -77.03409383333333}, {"fusion_lat": 0.0, "name": "1a35e2f0e672da9aab47c5107e999fc1", "is_disabled": 0, "rental_uris": {"android": "https://dc.lft.to/lastmile_qr_scan", "ios": "https://dc.lft.to/lastmile_qr_scan"}, "fusion_lon": 0.0, "lat": 38.8961325, "bike_id": "1a35e2f0e672da9aab47c5107e999fc1", "type": "electric_scooter", "is_reserved": 0, "lon": -76.94771733333333}, {"fusion_lat": 0.0, "name": "e5e95dae1cf6c4b3f2e7a38fd14b8093", "is_disabled": 0, "rental_uris": {"android": "https://dc.lft.to/lastmile_qr_scan", "ios": "https://dc.lft.to/lastmile_qr_scan"}, "fusion_lon": 0.0, "lat": 38.897397166666664, "bike_id": "e5e95dae1cf6c4b3f2e7a38fd14b8093", "type": "electric_scooter", "is_reserved": 0, "lon": -77.0085785}, {"fusion_lat": 0.0, "name": "6bc56669247b1a1a24fc91a9c4242d51", "is_disabled": 0, "rental_uris": {"android": "https://dc.lft.to/lastmile_qr_scan", "ios": "https://dc.lft.to/lastmile_qr_scan"}, "fusion_lon": 0.0, "lat": 38.90562216666667, "bike_id": "6bc56669247b1a1a24fc91a9c4242d51", "type": "electric_scooter", "is_reserved": 0, "lon": -77.0466165}, {"fusion_lat": 0.0, "name": "b721395832ef270371636dbad473f27d", "is_disabled": 0, "rental_uris": {"android": "https://dc.lft.to/lastmile_qr_scan", "ios": "https://dc.lft.to/lastmile_qr_scan"}, "fusion_lon": 0.0, "lat": 38.95485333333333, "bike_id": "b721395832ef270371636dbad473f27d", "type": "electric_bike", "is_reserved": 0, "lon": -77.02667016666666}, {"fusion_lat": 0.0, "name": "bf17d93741c7b461d573cc7d94e7800c", "is_disabled": 0, "rental_uris": {"android": "https://dc.lft.to/lastmile_qr_scan", "ios": "https://dc.lft.to/lastmile_qr_scan"}, "fusion_lon": 0.0, "lat": 38.92196416666667, "bike_id": "bf17d93741c7b461d573cc7d94e7800c", "type": "electric_scooter", "is_reserved": 0, "lon": -77.08080616666666}, {"fusion_lat": 0.0, "name": "a2a0b58bcc34b334f8067b00bb9992cf", "is_disabled": 0, "rental_uris": {"android": "https://dc.lft.to/lastmile_qr_scan", "ios": "https://dc.lft.to/lastmile_qr_scan"}, "fusion_lon": 0.0, "lat": 38.958001833333334, "bike_id": "a2a0b58bcc34b334f8067b00bb9992cf", "type": "electric_bike", "is_reserved": 0, "lon": -76.96044433333333}, {"fusion_lat": 0.0, "name": "31be3bca0bb0e29ab47978f7a7057dc1", "is_disabled": 0, "rental_uris": {"android": "https://dc.lft.to/lastmile_qr_scan", "ios": "https://dc.lft.to/lastmile_qr_scan"}, "fusion_lon": 0.0, "lat": 38.914442666666666, "bike_id": "31be3bca0bb0e29ab47978f7a7057dc1", "type": "electric_scooter", "is_reserved": 0, "lon": -77.044962}, {"fusion_lat": 0.0, "name": "607b2d661ed52d348dd6e080eadc3bf0", "is_disabled": 0, "rental_uris": {"android": "https://dc.lft.to/lastmile_qr_scan", "ios": "https://dc.lft.to/lastmile_qr_scan"}, "fusion_lon": 0.0, "lat": 38.9073325, "bike_id": "607b2d661ed52d348dd6e080eadc3bf0", "type": "electric_scooter", "is_reserved": 0, "lon": -77.0253215}, {"fusion_lat": 0.0, "name": "ca8cfd4d9bd431abe8bb1cf2f2cb5fe9", "is_disabled": 0, "rental_uris": {"android": "https://dc.lft.to/lastmile_qr_scan", "ios": "https://dc.lft.to/lastmile_qr_scan"}, "fusion_lon": 0.0, "lat": 38.9244605, "bike_id": "ca8cfd4d9bd431abe8bb1cf2f2cb5fe9", "type": "electric_scooter", "is_reserved": 0, "lon": -77.05227683333334}, {"fusion_lat": 0.0, "name": "d825a090e237710d85c8198c5201a356", "is_disabled": 0, "rental_uris": {"android": "https://dc.lft.to/lastmile_qr_scan", "ios": "https://dc.lft.to/lastmile_qr_scan"}, "fusion_lon": 0.0, "lat": 38.91254566666667, "bike_id": "d825a090e237710d85c8198c5201a356", "type": "electric_scooter", "is_reserved": 0, "lon": -77.00801733333333}, {"fusion_lat": 0.0, "name": "bee6b7e154f8d2e17c6936d2c65eaa23", "is_disabled": 0, "rental_uris": {"android": "https://dc.lft.to/lastmile_qr_scan", "ios": "https://dc.lft.to/lastmile_qr_scan"}, "fusion_lon": 0.0, "lat": 38.889910666666665, "bike_id": "bee6b7e154f8d2e17c6936d2c65eaa23", "type": "electric_scooter", "is_reserved": 0, "lon": -76.914202}, {"fusion_lat": 0.0, "name": "41978de6a126d97a00aa3eb9843ac947", "is_disabled": 0, "rental_uris": {"android": "https://dc.lft.to/lastmile_qr_scan", "ios": "https://dc.lft.to/lastmile_qr_scan"}, "fusion_lon": 0.0, "lat": 38.892460666666665, "bike_id": "41978de6a126d97a00aa3eb9843ac947", "type": "electric_scooter", "is_reserved": 0, "lon": -77.03957866666667}, {"fusion_lat": 0.0, "name": "7cd23f2b6f705d500c8c4f72573a1160", "is_disabled": 0, "rental_uris": {"android": "https://dc.lft.to/lastmile_qr_scan", "ios": "https://dc.lft.to/lastmile_qr_scan"}, "fusion_lon": 0.0, "lat": 38.91103483333333, "bike_id": "7cd23f2b6f705d500c8c4f72573a1160", "type": "electric_scooter", "is_reserved": 0, "lon": -77.0420195}, {"fusion_lat": 0.0, "name": "a1f2733f9b8b936b8bbf7efac81080c4", "is_disabled": 0, "rental_uris": {"android": "https://dc.lft.to/lastmile_qr_scan", "ios": "https://dc.lft.to/lastmile_qr_scan"}, "fusion_lon": 0.0, "lat": 38.906228166666665, "bike_id": "a1f2733f9b8b936b8bbf7efac81080c4", "type": "electric_scooter", "is_reserved": 0, "lon": -77.00591666666666}, {"fusion_lat": 0.0, "name": "a6966af28918254ea539fe6667ddc5ae", "is_disabled": 0, "rental_uris": {"android": "https://dc.lft.to/lastmile_qr_scan", "ios": "https://dc.lft.to/lastmile_qr_scan"}, "fusion_lon": 0.0, "lat": 38.915561, "bike_id": "a6966af28918254ea539fe6667ddc5ae", "type": "electric_scooter", "is_reserved": 0, "lon": -77.021456}, {"fusion_lat": 0.0, "name": "8c40832d9bc0debe061f4fb355dca4e2", "is_disabled": 0, "rental_uris": {"android": "https://dc.lft.to/lastmile_qr_scan", "ios": "https://dc.lft.to/lastmile_qr_scan"}, "fusion_lon": 0.0, "lat": 38.900349166666665, "bike_id": "8c40832d9bc0debe061f4fb355dca4e2", "type": "electric_scooter", "is_reserved": 0, "lon": -77.011652}, {"fusion_lat": 0.0, "name": "090257bc268f6fc52f001a09b63b5717", "is_disabled": 0, "rental_uris": {"android": "https://dc.lft.to/lastmile_qr_scan", "ios": "https://dc.lft.to/lastmile_qr_scan"}, "fusion_lon": 0.0, "lat": 39.00483966666667, "bike_id": "090257bc268f6fc52f001a09b63b5717", "type": "electric_bike", "is_reserved": 0, "lon": -77.02185516666667}, {"fusion_lat": 0.0, "name": "4f268e8283f991e709f53a125cd94b25", "is_disabled": 0, "rental_uris": {"android": "https://dc.lft.to/lastmile_qr_scan", "ios": "https://dc.lft.to/lastmile_qr_scan"}, "fusion_lon": 0.0, "lat": 38.9185155, "bike_id": "4f268e8283f991e709f53a125cd94b25", "type": "electric_scooter", "is_reserved": 0, "lon": -76.965503}, {"fusion_lat": 0.0, "name": "ee35ce4b7a389249f1686140493a9cf3", "is_disabled": 0, "rental_uris": {"android": "https://dc.lft.to/lastmile_qr_scan", "ios": "https://dc.lft.to/lastmile_qr_scan"}, "fusion_lon": 0.0, "lat": 38.8985175, "bike_id": "ee35ce4b7a389249f1686140493a9cf3", "type": "electric_scooter", "is_reserved": 0, "lon": -76.981664}, {"fusion_lat": 0.0, "name": "3af8c8ad2df4e6e3c87de4e47e5a5af4", "is_disabled": 0, "rental_uris": {"android": "https://dc.lft.to/lastmile_qr_scan", "ios": "https://dc.lft.to/lastmile_qr_scan"}, "fusion_lon": 0.0, "lat": 38.907592666666666, "bike_id": "3af8c8ad2df4e6e3c87de4e47e5a5af4", "type": "electric_scooter", "is_reserved": 0, "lon": -77.038374}, {"fusion_lat": 0.0, "name": "7ee445851d25e522c39d6d4f717228bb", "is_disabled": 0, "rental_uris": {"android": "https://dc.lft.to/lastmile_qr_scan", "ios": "https://dc.lft.to/lastmile_qr_scan"}, "fusion_lon": 0.0, "lat": 38.892225833333335, "bike_id": "7ee445851d25e522c39d6d4f717228bb", "type": "electric_scooter", "is_reserved": 0, "lon": -77.0433635}, {"fusion_lat": 0.0, "name": "a57dbee12bf8c1970c0a6f8dd737aee3", "is_disabled": 0, "rental_uris": {"android": "https://dc.lft.to/lastmile_qr_scan", "ios": "https://dc.lft.to/lastmile_qr_scan"}, "fusion_lon": 0.0, "lat": 38.835821333333335, "bike_id": "a57dbee12bf8c1970c0a6f8dd737aee3", "type": "electric_bike", "is_reserved": 0, "lon": -76.99014166666667}, {"fusion_lat": 0.0, "name": "4b72f0fdd1538028fc1cf391d4ae2ecd", "is_disabled": 0, "rental_uris": {"android": "https://dc.lft.to/lastmile_qr_scan", "ios": "https://dc.lft.to/lastmile_qr_scan"}, "fusion_lon": 0.0, "lat": 38.93984283333333, "bike_id": "4b72f0fdd1538028fc1cf391d4ae2ecd", "type": "electric_scooter", "is_reserved": 0, "lon": -77.01917516666667}, {"fusion_lat": 0.0, "name": "b81f3974db71e83fde714c615d20c7ca", "is_disabled": 0, "rental_uris": {"android": "https://dc.lft.to/lastmile_qr_scan", "ios": "https://dc.lft.to/lastmile_qr_scan"}, "fusion_lon": 0.0, "lat": 38.910135833333335, "bike_id": "b81f3974db71e83fde714c615d20c7ca", "type": "electric_scooter", "is_reserved": 0, "lon": -77.034311}, {"fusion_lat": 0.0, "name": "4c0bb9c48e72fba53fd4c79ba15abae2", "is_disabled": 0, "rental_uris": {"android": "https://dc.lft.to/lastmile_qr_scan", "ios": "https://dc.lft.to/lastmile_qr_scan"}, "fusion_lon": 0.0, "lat": 38.9058695, "bike_id": "4c0bb9c48e72fba53fd4c79ba15abae2", "type": "electric_scooter", "is_reserved": 0, "lon": -77.00299266666667}, {"fusion_lat": 0.0, "name": "794c90e83cecf8b34d47907e219b6a09", "is_disabled": 0, "rental_uris": {"android": "https://dc.lft.to/lastmile_qr_scan", "ios": "https://dc.lft.to/lastmile_qr_scan"}, "fusion_lon": 0.0, "lat": 38.88753466666667, "bike_id": "794c90e83cecf8b34d47907e219b6a09", "type": "electric_scooter", "is_reserved": 0, "lon": -77.02134266666667}, {"fusion_lat": 0.0, "name": "0dea94268d54f51979e253c91e28dd44", "is_disabled": 0, "rental_uris": {"android": "https://dc.lft.to/lastmile_qr_scan", "ios": "https://dc.lft.to/lastmile_qr_scan"}, "fusion_lon": 0.0, "lat": 38.909573333333334, "bike_id": "0dea94268d54f51979e253c91e28dd44", "type": "electric_scooter", "is_reserved": 0, "lon": -77.02381566666666}, {"fusion_lat": 0.0, "name": "e19ba3260c0a07268a7485f05ae32d96", "is_disabled": 0, "rental_uris": {"android": "https://dc.lft.to/lastmile_qr_scan", "ios": "https://dc.lft.to/lastmile_qr_scan"}, "fusion_lon": 0.0, "lat": 38.9155595, "bike_id": "e19ba3260c0a07268a7485f05ae32d96", "type": "electric_bike", "is_reserved": 0, "lon": -77.00583566666667}, {"fusion_lat": 0.0, "name": "35d8efe2cc12448e170588963d4cc27f", "is_disabled": 0, "rental_uris": {"android": "https://dc.lft.to/lastmile_qr_scan", "ios": "https://dc.lft.to/lastmile_qr_scan"}, "fusion_lon": 0.0, "lat": 38.92127516666667, "bike_id": "35d8efe2cc12448e170588963d4cc27f", "type": "electric_scooter", "is_reserved": 0, "lon": -77.0442}, {"fusion_lat": 0.0, "name": "f6dfe1f9ffe8f1fa94f9d00596d43379", "is_disabled": 0, "rental_uris": {"android": "https://dc.lft.to/lastmile_qr_scan", "ios": "https://dc.lft.to/lastmile_qr_scan"}, "fusion_lon": 0.0, "lat": 38.899379833333334, "bike_id": "f6dfe1f9ffe8f1fa94f9d00596d43379", "type": "electric_scooter", "is_reserved": 0, "lon": -77.0219725}, {"fusion_lat": 0.0, "name": "f178ea0950f744eae34e41b2aa75cd0e", "is_disabled": 0, "rental_uris": {"android": "https://dc.lft.to/lastmile_qr_scan", "ios": "https://dc.lft.to/lastmile_qr_scan"}, "fusion_lon": 0.0, "lat": 38.83630383333333, "bike_id": "f178ea0950f744eae34e41b2aa75cd0e", "type": "electric_bike", "is_reserved": 0, "lon": -77.06947016666666}, {"fusion_lat": 0.0, "name": "6bb4b6cce489bc09efbc9ceb19bd7294", "is_disabled": 0, "rental_uris": {"android": "https://dc.lft.to/lastmile_qr_scan", "ios": "https://dc.lft.to/lastmile_qr_scan"}, "fusion_lon": 0.0, "lat": 38.90558133333333, "bike_id": "6bb4b6cce489bc09efbc9ceb19bd7294", "type": "electric_scooter", "is_reserved": 0, "lon": -77.020986}, {"fusion_lat": 0.0, "name": "9a27a4433e71fecb523e5d23a9d9573d", "is_disabled": 0, "rental_uris": {"android": "https://dc.lft.to/lastmile_qr_scan", "ios": "https://dc.lft.to/lastmile_qr_scan"}, "fusion_lon": 0.0, "lat": 38.90685666666667, "bike_id": "9a27a4433e71fecb523e5d23a9d9573d", "type": "electric_scooter", "is_reserved": 0, "lon": -76.9519095}, {"fusion_lat": 0.0, "name": "d84f1f685042c1b11ae8f7ab5253fa52", "is_disabled": 0, "rental_uris": {"android": "https://dc.lft.to/lastmile_qr_scan", "ios": "https://dc.lft.to/lastmile_qr_scan"}, "fusion_lon": 0.0, "lat": 38.91988583333333, "bike_id": "d84f1f685042c1b11ae8f7ab5253fa52", "type": "electric_scooter", "is_reserved": 0, "lon": -77.03960616666667}, {"fusion_lat": 0.0, "name": "33109b31d647ac477754e835585f3e64", "is_disabled": 0, "rental_uris": {"android": "https://dc.lft.to/lastmile_qr_scan", "ios": "https://dc.lft.to/lastmile_qr_scan"}, "fusion_lon": 0.0, "lat": 38.91858516666667, "bike_id": "33109b31d647ac477754e835585f3e64", "type": "electric_bike", "is_reserved": 0, "lon": -76.96088766666666}, {"fusion_lat": 0.0, "name": "2e8c436ba539f5362e05f0f50fedba3f", "is_disabled": 0, "rental_uris": {"android": "https://dc.lft.to/lastmile_qr_scan", "ios": "https://dc.lft.to/lastmile_qr_scan"}, "fusion_lon": 0.0, "lat": 38.9070925, "bike_id": "2e8c436ba539f5362e05f0f50fedba3f", "type": "electric_scooter", "is_reserved": 0, "lon": -77.02393183333334}, {"fusion_lat": 0.0, "name": "dc5b9a7da3f6eff26799dcd952bf45a0", "is_disabled": 0, "rental_uris": {"android": "https://dc.lft.to/lastmile_qr_scan", "ios": "https://dc.lft.to/lastmile_qr_scan"}, "fusion_lon": 0.0, "lat": 38.91111766666667, "bike_id": "dc5b9a7da3f6eff26799dcd952bf45a0", "type": "electric_scooter", "is_reserved": 0, "lon": -77.01192216666666}, {"fusion_lat": 0.0, "name": "ba88e929b1318a2fc88fb7be27fb91e5", "is_disabled": 0, "rental_uris": {"android": "https://dc.lft.to/lastmile_qr_scan", "ios": "https://dc.lft.to/lastmile_qr_scan"}, "fusion_lon": 0.0, "lat": 38.918413, "bike_id": "ba88e929b1318a2fc88fb7be27fb91e5", "type": "electric_scooter", "is_reserved": 0, "lon": -76.965536}, {"fusion_lat": 0.0, "name": "65f41990066900672a27ba59921b572d", "is_disabled": 0, "rental_uris": {"android": "https://dc.lft.to/lastmile_qr_scan", "ios": "https://dc.lft.to/lastmile_qr_scan"}, "fusion_lon": 0.0, "lat": 38.902717333333335, "bike_id": "65f41990066900672a27ba59921b572d", "type": "electric_scooter", "is_reserved": 0, "lon": -77.046114}, {"fusion_lat": 0.0, "name": "255bb28393766ea4494c55b6932286a6", "is_disabled": 0, "rental_uris": {"android": "https://dc.lft.to/lastmile_qr_scan", "ios": "https://dc.lft.to/lastmile_qr_scan"}, "fusion_lon": 0.0, "lat": 38.90655683333333, "bike_id": "255bb28393766ea4494c55b6932286a6", "type": "electric_scooter", "is_reserved": 0, "lon": -77.00964833333333}, {"fusion_lat": 0.0, "name": "5c608ac806300a5102bc6edd0f413e47", "is_disabled": 0, "rental_uris": {"android": "https://dc.lft.to/lastmile_qr_scan", "ios": "https://dc.lft.to/lastmile_qr_scan"}, "fusion_lon": 0.0, "lat": 38.917624, "bike_id": "5c608ac806300a5102bc6edd0f413e47", "type": "electric_scooter", "is_reserved": 0, "lon": -77.06951516666666}, {"fusion_lat": 0.0, "name": "b6830fe7927ed5f483c7c43a03c9dd9b", "is_disabled": 0, "rental_uris": {"android": "https://dc.lft.to/lastmile_qr_scan", "ios": "https://dc.lft.to/lastmile_qr_scan"}, "fusion_lon": 0.0, "lat": 38.93487983333333, "bike_id": "b6830fe7927ed5f483c7c43a03c9dd9b", "type": "electric_scooter", "is_reserved": 0, "lon": -77.0727245}, {"fusion_lat": 0.0, "name": "bf57c06210cf7a4f4822c5a14a7e2221", "is_disabled": 0, "rental_uris": {"android": "https://dc.lft.to/lastmile_qr_scan", "ios": "https://dc.lft.to/lastmile_qr_scan"}, "fusion_lon": 0.0, "lat": 38.90097933333333, "bike_id": "bf57c06210cf7a4f4822c5a14a7e2221", "type": "electric_scooter", "is_reserved": 0, "lon": -77.01973333333333}, {"fusion_lat": 0.0, "name": "d75f3a2627835d2926475048c8387f33", "is_disabled": 0, "rental_uris": {"android": "https://dc.lft.to/lastmile_qr_scan", "ios": "https://dc.lft.to/lastmile_qr_scan"}, "fusion_lon": 0.0, "lat": 38.9217965, "bike_id": "d75f3a2627835d2926475048c8387f33", "type": "electric_scooter", "is_reserved": 0, "lon": -76.99681416666667}, {"fusion_lat": 0.0, "name": "3b16c5524e22eef1c0a2a9e337dc0326", "is_disabled": 0, "rental_uris": {"android": "https://dc.lft.to/lastmile_qr_scan", "ios": "https://dc.lft.to/lastmile_qr_scan"}, "fusion_lon": 0.0, "lat": 38.9417445, "bike_id": "3b16c5524e22eef1c0a2a9e337dc0326", "type": "electric_scooter", "is_reserved": 0, "lon": -77.03655}, {"fusion_lat": 0.0, "name": "3df316e73b492d3b4537ec0c85e9c8a3", "is_disabled": 0, "rental_uris": {"android": "https://dc.lft.to/lastmile_qr_scan", "ios": "https://dc.lft.to/lastmile_qr_scan"}, "fusion_lon": 0.0, "lat": 38.918147, "bike_id": "3df316e73b492d3b4537ec0c85e9c8a3", "type": "electric_scooter", "is_reserved": 0, "lon": -77.04004683333334}, {"fusion_lat": 0.0, "name": "f56f4723928382af42ecd9fe1ddb1b16", "is_disabled": 0, "rental_uris": {"android": "https://dc.lft.to/lastmile_qr_scan", "ios": "https://dc.lft.to/lastmile_qr_scan"}, "fusion_lon": 0.0, "lat": 38.917169, "bike_id": "f56f4723928382af42ecd9fe1ddb1b16", "type": "electric_scooter", "is_reserved": 0, "lon": -77.0083865}, {"fusion_lat": 0.0, "name": "c8cc8559064c4dea568d764f8dbe9d70", "is_disabled": 0, "rental_uris": {"android": "https://dc.lft.to/lastmile_qr_scan", "ios": "https://dc.lft.to/lastmile_qr_scan"}, "fusion_lon": 0.0, "lat": 38.89945433333333, "bike_id": "c8cc8559064c4dea568d764f8dbe9d70", "type": "electric_scooter", "is_reserved": 0, "lon": -77.02406466666666}, {"fusion_lat": 0.0, "name": "367ed005c4d7083afcaaaa7a466e761d", "is_disabled": 0, "rental_uris": {"android": "https://dc.lft.to/lastmile_qr_scan", "ios": "https://dc.lft.to/lastmile_qr_scan"}, "fusion_lon": 0.0, "lat": 38.92318366666667, "bike_id": "367ed005c4d7083afcaaaa7a466e761d", "type": "electric_scooter", "is_reserved": 0, "lon": -77.03749216666667}, {"fusion_lat": 0.0, "name": "88a88bd1dd88114edae344ac583fd40f", "is_disabled": 0, "rental_uris": {"android": "https://dc.lft.to/lastmile_qr_scan", "ios": "https://dc.lft.to/lastmile_qr_scan"}, "fusion_lon": 0.0, "lat": 38.88390666666667, "bike_id": "88a88bd1dd88114edae344ac583fd40f", "type": "electric_scooter", "is_reserved": 0, "lon": -77.019809}, {"fusion_lat": 0.0, "name": "39b32398518dbb47cba48ff3d8df58ab", "is_disabled": 0, "rental_uris": {"android": "https://dc.lft.to/lastmile_qr_scan", "ios": "https://dc.lft.to/lastmile_qr_scan"}, "fusion_lon": 0.0, "lat": 38.9057585, "bike_id": "39b32398518dbb47cba48ff3d8df58ab", "type": "electric_scooter", "is_reserved": 0, "lon": -77.03421266666666}, {"fusion_lat": 0.0, "name": "ed0e88ef32f49ac2051d28b0c2db7c66", "is_disabled": 0, "rental_uris": {"android": "https://dc.lft.to/lastmile_qr_scan", "ios": "https://dc.lft.to/lastmile_qr_scan"}, "fusion_lon": 0.0, "lat": 38.8625135, "bike_id": "ed0e88ef32f49ac2051d28b0c2db7c66", "type": "electric_bike", "is_reserved": 0, "lon": -76.98333}, {"fusion_lat": 0.0, "name": "677e093f30df7a86d0bcdcbe2942e648", "is_disabled": 0, "rental_uris": {"android": "https://dc.lft.to/lastmile_qr_scan", "ios": "https://dc.lft.to/lastmile_qr_scan"}, "fusion_lon": 0.0, "lat": 38.9214225, "bike_id": "677e093f30df7a86d0bcdcbe2942e648", "type": "electric_scooter", "is_reserved": 0, "lon": -77.040058}, {"fusion_lat": 0.0, "name": "e5185b987be47fc31c01d7a4b412f012", "is_disabled": 0, "rental_uris": {"android": "https://dc.lft.to/lastmile_qr_scan", "ios": "https://dc.lft.to/lastmile_qr_scan"}, "fusion_lon": 0.0, "lat": 38.8580025, "bike_id": "e5185b987be47fc31c01d7a4b412f012", "type": "electric_bike", "is_reserved": 0, "lon": -76.98730116666667}, {"fusion_lat": 0.0, "name": "e527769d21517a5419fed7de027aa37c", "is_disabled": 0, "rental_uris": {"android": "https://dc.lft.to/lastmile_qr_scan", "ios": "https://dc.lft.to/lastmile_qr_scan"}, "fusion_lon": 0.0, "lat": 38.89222733333333, "bike_id": "e527769d21517a5419fed7de027aa37c", "type": "electric_scooter", "is_reserved": 0, "lon": -77.02632316666667}, {"fusion_lat": 0.0, "name": "62e3201f40d823c9de72c50fea92021f", "is_disabled": 0, "rental_uris": {"android": "https://dc.lft.to/lastmile_qr_scan", "ios": "https://dc.lft.to/lastmile_qr_scan"}, "fusion_lon": 0.0, "lat": 38.89609016666667, "bike_id": "62e3201f40d823c9de72c50fea92021f", "type": "electric_scooter", "is_reserved": 0, "lon": -77.00926666666666}, {"fusion_lat": 0.0, "name": "61d3a93228f2f138b8bd76c28083928e", "is_disabled": 0, "rental_uris": {"android": "https://dc.lft.to/lastmile_qr_scan", "ios": "https://dc.lft.to/lastmile_qr_scan"}, "fusion_lon": 0.0, "lat": 38.906884833333336, "bike_id": "61d3a93228f2f138b8bd76c28083928e", "type": "electric_scooter", "is_reserved": 0, "lon": -77.0689635}, {"fusion_lat": 0.0, "name": "1d9f06c52e4d202687c07bdad63dbe05", "is_disabled": 0, "rental_uris": {"android": "https://dc.lft.to/lastmile_qr_scan", "ios": "https://dc.lft.to/lastmile_qr_scan"}, "fusion_lon": 0.0, "lat": 38.83513333333333, "bike_id": "1d9f06c52e4d202687c07bdad63dbe05", "type": "electric_bike", "is_reserved": 0, "lon": -76.98674516666667}, {"fusion_lat": 0.0, "name": "096de95018a113c73ab38af8f856599f", "is_disabled": 0, "rental_uris": {"android": "https://dc.lft.to/lastmile_qr_scan", "ios": "https://dc.lft.to/lastmile_qr_scan"}, "fusion_lon": 0.0, "lat": 38.94271366666667, "bike_id": "096de95018a113c73ab38af8f856599f", "type": "electric_scooter", "is_reserved": 0, "lon": -77.03259333333334}, {"fusion_lat": 0.0, "name": "d1fafd81e25b672ca697194dc79d3e7c", "is_disabled": 0, "rental_uris": {"android": "https://dc.lft.to/lastmile_qr_scan", "ios": "https://dc.lft.to/lastmile_qr_scan"}, "fusion_lon": 0.0, "lat": 38.90791183333333, "bike_id": "d1fafd81e25b672ca697194dc79d3e7c", "type": "electric_scooter", "is_reserved": 0, "lon": -77.03194216666667}, {"fusion_lat": 0.0, "name": "9f896938ec468ff05c0f363ab3dea0e0", "is_disabled": 0, "rental_uris": {"android": "https://dc.lft.to/lastmile_qr_scan", "ios": "https://dc.lft.to/lastmile_qr_scan"}, "fusion_lon": 0.0, "lat": 38.900381333333335, "bike_id": "9f896938ec468ff05c0f363ab3dea0e0", "type": "electric_scooter", "is_reserved": 0, "lon": -76.99155933333333}, {"fusion_lat": 0.0, "name": "19dc9bd1888f2f35d532e7552be1ce11", "is_disabled": 0, "rental_uris": {"android": "https://dc.lft.to/lastmile_qr_scan", "ios": "https://dc.lft.to/lastmile_qr_scan"}, "fusion_lon": 0.0, "lat": 38.901338333333335, "bike_id": "19dc9bd1888f2f35d532e7552be1ce11", "type": "electric_scooter", "is_reserved": 0, "lon": -77.04607333333334}, {"fusion_lat": 0.0, "name": "f35df9fa2b2506afb4d9027ea17ed973", "is_disabled": 0, "rental_uris": {"android": "https://dc.lft.to/lastmile_qr_scan", "ios": "https://dc.lft.to/lastmile_qr_scan"}, "fusion_lon": 0.0, "lat": 38.890442666666665, "bike_id": "f35df9fa2b2506afb4d9027ea17ed973", "type": "electric_scooter", "is_reserved": 0, "lon": -77.01510083333334}, {"fusion_lat": 0.0, "name": "2b5afa3a94cbb85d180c99f520c83f39", "is_disabled": 0, "rental_uris": {"android": "https://dc.lft.to/lastmile_qr_scan", "ios": "https://dc.lft.to/lastmile_qr_scan"}, "fusion_lon": 0.0, "lat": 38.90060883333334, "bike_id": "2b5afa3a94cbb85d180c99f520c83f39", "type": "electric_scooter", "is_reserved": 0, "lon": -76.93392683333333}, {"fusion_lat": 0.0, "name": "cc8afa38913e6d20bbf2dd9acda4b94e", "is_disabled": 0, "rental_uris": {"android": "https://dc.lft.to/lastmile_qr_scan", "ios": "https://dc.lft.to/lastmile_qr_scan"}, "fusion_lon": 0.0, "lat": 38.91405533333333, "bike_id": "cc8afa38913e6d20bbf2dd9acda4b94e", "type": "electric_scooter", "is_reserved": 0, "lon": -77.02985}, {"fusion_lat": 0.0, "name": "427c66de378a8b401692e0eb7a16d530", "is_disabled": 0, "rental_uris": {"android": "https://dc.lft.to/lastmile_qr_scan", "ios": "https://dc.lft.to/lastmile_qr_scan"}, "fusion_lon": 0.0, "lat": 38.89223633333334, "bike_id": "427c66de378a8b401692e0eb7a16d530", "type": "electric_scooter", "is_reserved": 0, "lon": -77.04323133333334}, {"fusion_lat": 0.0, "name": "e88bd429c16b2125b80d575600f34a07", "is_disabled": 0, "rental_uris": {"android": "https://dc.lft.to/lastmile_qr_scan", "ios": "https://dc.lft.to/lastmile_qr_scan"}, "fusion_lon": 0.0, "lat": 38.9468945, "bike_id": "e88bd429c16b2125b80d575600f34a07", "type": "electric_scooter", "is_reserved": 0, "lon": -77.07924716666666}, {"fusion_lat": 0.0, "name": "adb919a9999040f6e7c1f7f19b3c167c", "is_disabled": 0, "rental_uris": {"android": "https://dc.lft.to/lastmile_qr_scan", "ios": "https://dc.lft.to/lastmile_qr_scan"}, "fusion_lon": 0.0, "lat": 38.91487033333333, "bike_id": "adb919a9999040f6e7c1f7f19b3c167c", "type": "electric_scooter", "is_reserved": 0, "lon": -77.0423365}, {"fusion_lat": 0.0, "name": "a27bf1d310af53f4329cf7ab52d8f68b", "is_disabled": 0, "rental_uris": {"android": "https://dc.lft.to/lastmile_qr_scan", "ios": "https://dc.lft.to/lastmile_qr_scan"}, "fusion_lon": 0.0, "lat": 38.902565833333334, "bike_id": "a27bf1d310af53f4329cf7ab52d8f68b", "type": "electric_scooter", "is_reserved": 0, "lon": -77.03638966666666}, {"fusion_lat": 0.0, "name": "5645dbda531c59841bdd8812dad9684f", "is_disabled": 0, "rental_uris": {"android": "https://dc.lft.to/lastmile_qr_scan", "ios": "https://dc.lft.to/lastmile_qr_scan"}, "fusion_lon": 0.0, "lat": 38.923467333333335, "bike_id": "5645dbda531c59841bdd8812dad9684f", "type": "electric_scooter", "is_reserved": 0, "lon": -77.03905666666667}, {"fusion_lat": 0.0, "name": "0cd61558644889e76d84425363663d4f", "is_disabled": 0, "rental_uris": {"android": "https://dc.lft.to/lastmile_qr_scan", "ios": "https://dc.lft.to/lastmile_qr_scan"}, "fusion_lon": 0.0, "lat": 38.902496166666666, "bike_id": "0cd61558644889e76d84425363663d4f", "type": "electric_scooter", "is_reserved": 0, "lon": -77.01819433333333}, {"fusion_lat": 0.0, "name": "21c3f97e0a3758f6810e08d646e0400d", "is_disabled": 0, "rental_uris": {"android": "https://dc.lft.to/lastmile_qr_scan", "ios": "https://dc.lft.to/lastmile_qr_scan"}, "fusion_lon": 0.0, "lat": 38.942730166666664, "bike_id": "21c3f97e0a3758f6810e08d646e0400d", "type": "electric_scooter", "is_reserved": 0, "lon": -77.03258366666667}, {"fusion_lat": 0.0, "name": "f91c1eb149e838908d962e23e3c36e81", "is_disabled": 0, "rental_uris": {"android": "https://dc.lft.to/lastmile_qr_scan", "ios": "https://dc.lft.to/lastmile_qr_scan"}, "fusion_lon": 0.0, "lat": 38.93486983333333, "bike_id": "f91c1eb149e838908d962e23e3c36e81", "type": "electric_scooter", "is_reserved": 0, "lon": -77.072758}, {"fusion_lat": 0.0, "name": "896571bb4123f96a22c854bbf4fb5eab", "is_disabled": 0, "rental_uris": {"android": "https://dc.lft.to/lastmile_qr_scan", "ios": "https://dc.lft.to/lastmile_qr_scan"}, "fusion_lon": 0.0, "lat": 38.8979335, "bike_id": "896571bb4123f96a22c854bbf4fb5eab", "type": "electric_scooter", "is_reserved": 0, "lon": -76.94734283333334}, {"fusion_lat": 0.0, "name": "5c7022af2e102ec5b21b7ce9a258797f", "is_disabled": 0, "rental_uris": {"android": "https://dc.lft.to/lastmile_qr_scan", "ios": "https://dc.lft.to/lastmile_qr_scan"}, "fusion_lon": 0.0, "lat": 38.916098166666664, "bike_id": "5c7022af2e102ec5b21b7ce9a258797f", "type": "electric_scooter", "is_reserved": 0, "lon": -77.0238835}, {"fusion_lat": 0.0, "name": "efc4c7aa7cde22666caa636f70c8a8da", "is_disabled": 0, "rental_uris": {"android": "https://dc.lft.to/lastmile_qr_scan", "ios": "https://dc.lft.to/lastmile_qr_scan"}, "fusion_lon": 0.0, "lat": 38.9232745, "bike_id": "efc4c7aa7cde22666caa636f70c8a8da", "type": "electric_bike", "is_reserved": 0, "lon": -77.03896783333333}, {"fusion_lat": 0.0, "name": "7b5df7300066d24dbcbeac0eec077fe7", "is_disabled": 0, "rental_uris": {"android": "https://dc.lft.to/lastmile_qr_scan", "ios": "https://dc.lft.to/lastmile_qr_scan"}, "fusion_lon": 0.0, "lat": 38.93828333333333, "bike_id": "7b5df7300066d24dbcbeac0eec077fe7", "type": "electric_scooter", "is_reserved": 0, "lon": -76.9918825}, {"fusion_lat": 0.0, "name": "e542b9010ab27118d70d257dede40e4f", "is_disabled": 0, "rental_uris": {"android": "https://dc.lft.to/lastmile_qr_scan", "ios": "https://dc.lft.to/lastmile_qr_scan"}, "fusion_lon": 0.0, "lat": 38.90383466666667, "bike_id": "e542b9010ab27118d70d257dede40e4f", "type": "electric_scooter", "is_reserved": 0, "lon": -77.03837666666666}, {"fusion_lat": 0.0, "name": "4ed872f568a96a71e7769f28d41265ce", "is_disabled": 0, "rental_uris": {"android": "https://dc.lft.to/lastmile_qr_scan", "ios": "https://dc.lft.to/lastmile_qr_scan"}, "fusion_lon": 0.0, "lat": 38.917241, "bike_id": "4ed872f568a96a71e7769f28d41265ce", "type": "electric_scooter", "is_reserved": 0, "lon": -77.02696033333334}, {"fusion_lat": 0.0, "name": "88a807ee7fade44cb76ae9f635f9ccbb", "is_disabled": 0, "rental_uris": {"android": "https://dc.lft.to/lastmile_qr_scan", "ios": "https://dc.lft.to/lastmile_qr_scan"}, "fusion_lon": 0.0, "lat": 38.870830166666664, "bike_id": "88a807ee7fade44cb76ae9f635f9ccbb", "type": "electric_scooter", "is_reserved": 0, "lon": -77.010802}, {"fusion_lat": 0.0, "name": "906b6c3f2ac925ff9538b2054e73e72c", "is_disabled": 0, "rental_uris": {"android": "https://dc.lft.to/lastmile_qr_scan", "ios": "https://dc.lft.to/lastmile_qr_scan"}, "fusion_lon": 0.0, "lat": 38.907796833333336, "bike_id": "906b6c3f2ac925ff9538b2054e73e72c", "type": "electric_scooter", "is_reserved": 0, "lon": -77.035161}, {"fusion_lat": 0.0, "name": "f3e867c801555489747c9ec87f65955a", "is_disabled": 0, "rental_uris": {"android": "https://dc.lft.to/lastmile_qr_scan", "ios": "https://dc.lft.to/lastmile_qr_scan"}, "fusion_lon": 0.0, "lat": 38.904750166666666, "bike_id": "f3e867c801555489747c9ec87f65955a", "type": "electric_scooter", "is_reserved": 0, "lon": -77.02599883333333}, {"fusion_lat": 0.0, "name": "084a68055841e8f2c323fdf9ddf786fe", "is_disabled": 0, "rental_uris": {"android": "https://dc.lft.to/lastmile_qr_scan", "ios": "https://dc.lft.to/lastmile_qr_scan"}, "fusion_lon": 0.0, "lat": 38.906802, "bike_id": "084a68055841e8f2c323fdf9ddf786fe", "type": "electric_scooter", "is_reserved": 0, "lon": -77.03649083333333}, {"fusion_lat": 0.0, "name": "3f189c3311b359ecd4ce50a7e13b3469", "is_disabled": 0, "rental_uris": {"android": "https://dc.lft.to/lastmile_qr_scan", "ios": "https://dc.lft.to/lastmile_qr_scan"}, "fusion_lon": 0.0, "lat": 38.91946333333333, "bike_id": "3f189c3311b359ecd4ce50a7e13b3469", "type": "electric_bike", "is_reserved": 0, "lon": -77.22126083333333}, {"fusion_lat": 0.0, "name": "e8e95384af37e88644ab0a42dee63aec", "is_disabled": 0, "rental_uris": {"android": "https://dc.lft.to/lastmile_qr_scan", "ios": "https://dc.lft.to/lastmile_qr_scan"}, "fusion_lon": 0.0, "lat": 38.911041166666664, "bike_id": "e8e95384af37e88644ab0a42dee63aec", "type": "electric_scooter", "is_reserved": 0, "lon": -77.0021305}, {"fusion_lat": 0.0, "name": "0ca66d8a6af50ca9776cbd62ba4dba3f", "is_disabled": 0, "rental_uris": {"android": "https://dc.lft.to/lastmile_qr_scan", "ios": "https://dc.lft.to/lastmile_qr_scan"}, "fusion_lon": 0.0, "lat": 38.889914, "bike_id": "0ca66d8a6af50ca9776cbd62ba4dba3f", "type": "electric_bike", "is_reserved": 0, "lon": -77.07130333333333}, {"fusion_lat": 0.0, "name": "e8c856bc5138298dd4562b0b55560a22", "is_disabled": 0, "rental_uris": {"android": "https://dc.lft.to/lastmile_qr_scan", "ios": "https://dc.lft.to/lastmile_qr_scan"}, "fusion_lon": 0.0, "lat": 38.917551833333334, "bike_id": "e8c856bc5138298dd4562b0b55560a22", "type": "electric_scooter", "is_reserved": 0, "lon": -77.06933716666667}, {"fusion_lat": 0.0, "name": "8b0b5c60f49b879d2d3ac47e09424477", "is_disabled": 0, "rental_uris": {"android": "https://dc.lft.to/lastmile_qr_scan", "ios": "https://dc.lft.to/lastmile_qr_scan"}, "fusion_lon": 0.0, "lat": 38.88049916666667, "bike_id": "8b0b5c60f49b879d2d3ac47e09424477", "type": "electric_bike", "is_reserved": 0, "lon": -77.004732}, {"fusion_lat": 0.0, "name": "c4ce30916b8fd9e057078489ed82b0fa", "is_disabled": 0, "rental_uris": {"android": "https://dc.lft.to/lastmile_qr_scan", "ios": "https://dc.lft.to/lastmile_qr_scan"}, "fusion_lon": 0.0, "lat": 38.9091155, "bike_id": "c4ce30916b8fd9e057078489ed82b0fa", "type": "electric_scooter", "is_reserved": 0, "lon": -77.04213183333333}, {"fusion_lat": 0.0, "name": "1a8f5b563f123c7bd476dde9eb96cc7d", "is_disabled": 0, "rental_uris": {"android": "https://dc.lft.to/lastmile_qr_scan", "ios": "https://dc.lft.to/lastmile_qr_scan"}, "fusion_lon": 0.0, "lat": 38.92070733333333, "bike_id": "1a8f5b563f123c7bd476dde9eb96cc7d", "type": "electric_scooter", "is_reserved": 0, "lon": -77.0437735}, {"fusion_lat": 0.0, "name": "ec307e46de7a815530cdfc0b432b8822", "is_disabled": 0, "rental_uris": {"android": "https://dc.lft.to/lastmile_qr_scan", "ios": "https://dc.lft.to/lastmile_qr_scan"}, "fusion_lon": 0.0, "lat": 38.92535, "bike_id": "ec307e46de7a815530cdfc0b432b8822", "type": "electric_scooter", "is_reserved": 0, "lon": -77.05240233333333}, {"fusion_lat": 0.0, "name": "f4df6eb901ba36bf2a3d95f3c1117892", "is_disabled": 0, "rental_uris": {"android": "https://dc.lft.to/lastmile_qr_scan", "ios": "https://dc.lft.to/lastmile_qr_scan"}, "fusion_lon": 0.0, "lat": 38.895751, "bike_id": "f4df6eb901ba36bf2a3d95f3c1117892", "type": "electric_scooter", "is_reserved": 0, "lon": -76.9832375}, {"fusion_lat": 0.0, "name": "fd9d9ef26c9d7d152ad6a935cab7f684", "is_disabled": 0, "rental_uris": {"android": "https://dc.lft.to/lastmile_qr_scan", "ios": "https://dc.lft.to/lastmile_qr_scan"}, "fusion_lon": 0.0, "lat": 38.963876, "bike_id": "fd9d9ef26c9d7d152ad6a935cab7f684", "type": "electric_bike", "is_reserved": 0, "lon": -76.95037733333334}, {"fusion_lat": 0.0, "name": "6dee33698d232c88e94c8c1922df1c5a", "is_disabled": 0, "rental_uris": {"android": "https://dc.lft.to/lastmile_qr_scan", "ios": "https://dc.lft.to/lastmile_qr_scan"}, "fusion_lon": 0.0, "lat": 38.91836583333333, "bike_id": "6dee33698d232c88e94c8c1922df1c5a", "type": "electric_scooter", "is_reserved": 0, "lon": -77.03530733333334}, {"fusion_lat": 0.0, "name": "426b9468c86f36df9987e8a128036f0e", "is_disabled": 0, "rental_uris": {"android": "https://dc.lft.to/lastmile_qr_scan", "ios": "https://dc.lft.to/lastmile_qr_scan"}, "fusion_lon": 0.0, "lat": 38.89219116666666, "bike_id": "426b9468c86f36df9987e8a128036f0e", "type": "electric_scooter", "is_reserved": 0, "lon": -76.957418}, {"fusion_lat": 0.0, "name": "667fd4b149f2ac8ffbc4f81dfb32e3e5", "is_disabled": 0, "rental_uris": {"android": "https://dc.lft.to/lastmile_qr_scan", "ios": "https://dc.lft.to/lastmile_qr_scan"}, "fusion_lon": 0.0, "lat": 38.93355733333333, "bike_id": "667fd4b149f2ac8ffbc4f81dfb32e3e5", "type": "electric_scooter", "is_reserved": 0, "lon": -77.07310683333333}, {"fusion_lat": 0.0, "name": "d005a33ef16bde0f4d51c966b53f25ad", "is_disabled": 0, "rental_uris": {"android": "https://dc.lft.to/lastmile_qr_scan", "ios": "https://dc.lft.to/lastmile_qr_scan"}, "fusion_lon": 0.0, "lat": 38.917046666666664, "bike_id": "d005a33ef16bde0f4d51c966b53f25ad", "type": "electric_scooter", "is_reserved": 0, "lon": -77.02404633333333}, {"fusion_lat": 0.0, "name": "226e13f3b40a91e6d3dec27439dc14b5", "is_disabled": 0, "rental_uris": {"android": "https://dc.lft.to/lastmile_qr_scan", "ios": "https://dc.lft.to/lastmile_qr_scan"}, "fusion_lon": 0.0, "lat": 38.91236333333333, "bike_id": "226e13f3b40a91e6d3dec27439dc14b5", "type": "electric_scooter", "is_reserved": 0, "lon": -77.04515183333334}, {"fusion_lat": 0.0, "name": "cc0bd274a72c7b99ea1a8bb508cc840f", "is_disabled": 0, "rental_uris": {"android": "https://dc.lft.to/lastmile_qr_scan", "ios": "https://dc.lft.to/lastmile_qr_scan"}, "fusion_lon": 0.0, "lat": 38.892999833333334, "bike_id": "cc0bd274a72c7b99ea1a8bb508cc840f", "type": "electric_scooter", "is_reserved": 0, "lon": -77.012307}, {"fusion_lat": 0.0, "name": "ba172c38f55f1712a11b9dad4102040a", "is_disabled": 0, "rental_uris": {"android": "https://dc.lft.to/lastmile_qr_scan", "ios": "https://dc.lft.to/lastmile_qr_scan"}, "fusion_lon": 0.0, "lat": 38.933789166666664, "bike_id": "ba172c38f55f1712a11b9dad4102040a", "type": "electric_scooter", "is_reserved": 0, "lon": -77.03884066666667}, {"fusion_lat": 0.0, "name": "4fb2947567c55d0bd798b1d624946119", "is_disabled": 0, "rental_uris": {"android": "https://dc.lft.to/lastmile_qr_scan", "ios": "https://dc.lft.to/lastmile_qr_scan"}, "fusion_lon": 0.0, "lat": 38.9262635, "bike_id": "4fb2947567c55d0bd798b1d624946119", "type": "electric_scooter", "is_reserved": 0, "lon": -77.03510683333333}, {"fusion_lat": 0.0, "name": "7ac4f8b004eb63b1b791d95e594af6b3", "is_disabled": 0, "rental_uris": {"android": "https://dc.lft.to/lastmile_qr_scan", "ios": "https://dc.lft.to/lastmile_qr_scan"}, "fusion_lon": 0.0, "lat": 38.910064, "bike_id": "7ac4f8b004eb63b1b791d95e594af6b3", "type": "electric_scooter", "is_reserved": 0, "lon": -77.04912633333333}, {"fusion_lat": 0.0, "name": "856a2b64894220dcd363f0274b09352f", "is_disabled": 0, "rental_uris": {"android": "https://dc.lft.to/lastmile_qr_scan", "ios": "https://dc.lft.to/lastmile_qr_scan"},