{"data": {"bikes": [{"lat": 38.8995285, "is_disabled": 0, "type": "electric_scooter", "lon": -77.05200016666667, "bike_id": "4803cccdb7654a841a3884c31fdfff8b", "fusion_lat": 0.0, "name": "4803cccdb7654a841a3884c31fdfff8b", "is_reserved": 0, "rental_uris": {"android": "https://dc.lft.to/lastmile_qr_scan", "ios": "https://dc.lft.to/lastmile_qr_scan"}, "fusion_lon": 0.0}, {"lat": 38.921052833333334, "is_disabled": 0, "type": "electric_scooter", "lon": -77.04688166666666, "bike_id": "93f4192edf30a468414a627a1891d692", "fusion_lat": 0.0, "name": "93f4192edf30a468414a627a1891d692", "is_reserved": 0, "rental_uris": {"android": "https://dc.lft.to/lastmile_qr_scan", "ios": "https://dc.lft.to/lastmile_qr_scan"}, "fusion_lon": 0.0}, {"lat": 38.90192833333333, "is_disabled": 0, "type": "electric_scooter", "lon": -77.02391233333333, "bike_id": "03e7ad0f8d77867c9747099dd5ccfc64", "fusion_lat": 0.0, "name": "03e7ad0f8d77867c9747099dd5ccfc64", "is_reserved": 0, "rental_uris": {"android": "https://dc.lft.to/lastmile_qr_scan", "ios": "https://dc.lft.to/lastmile_qr_scan"}, "fusion_lon": 0.0}, {"lat": 38.9197205, "is_disabled": 0, "type": "electric_scooter", "lon": -77.03337583333334, "bike_id": "5d38b5e386269ad82659182c0bab94be", "fusion_lat": 0.0, "name": "5d38b5e386269ad82659182c0bab94be", "is_reserved": 0, "rental_uris": {"android": "https://dc.lft.to/lastmile_qr_scan", "ios": "https://dc.lft.to/lastmile_qr_scan"}, "fusion_lon": 0.0}, {"lat": 38.863643833333334, "is_disabled": 0, "type": "electric_scooter", "lon": -76.9903395, "bike_id": "3f537afd695b2a5b9180cbc964368eed", "fusion_lat": 0.0, "name": "3f537afd695b2a5b9180cbc964368eed", "is_reserved": 0, "rental_uris": {"android": "https://dc.lft.to/lastmile_qr_scan", "ios": "https://dc.lft.to/lastmile_qr_scan"}, "fusion_lon": 0.0}, {"lat": 38.93385116666666, "is_disabled": 0, "type": "electric_scooter", "lon": -76.99516, "bike_id": "a2b375ec76e6e8b9ecc16ec042943e9e", "fusion_lat": 0.0, "name": "a2b375ec76e6e8b9ecc16ec042943e9e", "is_reserved": 0, "rental_uris": {"android": "https://dc.lft.to/lastmile_qr_scan", "ios": "https://dc.lft.to/lastmile_qr_scan"}, "fusion_lon": 0.0}, {"lat": 38.920725166666664, "is_disabled": 0, "type": "electric_scooter", "lon": -77.023788, "bike_id": "bfd1f2f8c632d9ddd6df176b274e36f2", "fusion_lat": 0.0, "name": "bfd1f2f8c632d9ddd6df176b274e36f2", "is_reserved": 0, "rental_uris": {"android": "https://dc.lft.to/lastmile_qr_scan", "ios": "https://dc.lft.to/lastmile_qr_scan"}, "fusion_lon": 0.0}, {"lat": 38.802271, "is_disabled": 0, "type": "electric_bike", "lon": -77.07914916666667, "bike_id": "57b0e35db32543d615605496ee029efb", "fusion_lat": 0.0, "name": "57b0e35db32543d615605496ee029efb", "is_reserved": 0, "rental_uris": {"android": "https://dc.lft.to/lastmile_qr_scan", "ios": "https://dc.lft.to/lastmile_qr_scan"}, "fusion_lon": 0.0}, {"lat": 38.8823435, "is_disabled": 0, "type": "electric_scooter", "lon": -76.9908515, "bike_id": "ad2a32aeb8c47d01460572dad1f0983e", "fusion_lat": 0.0, "name": "ad2a32aeb8c47d01460572dad1f0983e", "is_reserved": 0, "rental_uris": {"android": "https://dc.lft.to/lastmile_qr_scan", "ios": "https://dc.lft.to/lastmile_qr_scan"}, "fusion_lon": 0.0}, {"lat": 38.919115, "is_disabled": 0, "type": "electric_scooter", "lon": -77.04465033333334, "bike_id": "b0648c07d44bc0100c98b6d1a83792b6", "fusion_lat": 0.0, "name": "b0648c07d44bc0100c98b6d1a83792b6", "is_reserved": 0, "rental_uris": {"android": "https://dc.lft.to/lastmile_qr_scan", "ios": "https://dc.lft.to/lastmile_qr_scan"}, "fusion_lon": 0.0}, {"lat": 38.89705383333333, "is_disabled": 0, "type": "electric_scooter", "lon": -77.02246483333333, "bike_id": "99f310b69d3335147c5ad6075ffa50ef", "fusion_lat": 0.0, "name": "99f310b69d3335147c5ad6075ffa50ef", "is_reserved": 0, "rental_uris": {"android": "https://dc.lft.to/lastmile_qr_scan", "ios": "https://dc.lft.to/lastmile_qr_scan"}, "fusion_lon": 0.0}, {"lat": 38.92807033333333, "is_disabled": 0, "type": "electric_scooter", "lon": -77.05429966666667, "bike_id": "a466512b2520b3c0c0e0e22aabb2b1de", "fusion_lat": 0.0, "name": "a466512b2520b3c0c0e0e22aabb2b1de", "is_reserved": 0, "rental_uris": {"android": "https://dc.lft.to/lastmile_qr_scan", "ios": "https://dc.lft.to/lastmile_qr_scan"}, "fusion_lon": 0.0}, {"lat": 38.86290833333334, "is_disabled": 0, "type": "electric_scooter", "lon": -76.992278, "bike_id": "56c686bd90e1930ddb63ee0a505a447a", "fusion_lat": 0.0, "name": "56c686bd90e1930ddb63ee0a505a447a", "is_reserved": 0, "rental_uris": {"android": "https://dc.lft.to/lastmile_qr_scan", "ios": "https://dc.lft.to/lastmile_qr_scan"}, "fusion_lon": 0.0}, {"lat": 38.92100766666667, "is_disabled": 0, "type": "electric_scooter", "lon": -77.04571766666666, "bike_id": "c375b5102005f24e9854a0dc353a3fd6", "fusion_lat": 0.0, "name": "c375b5102005f24e9854a0dc353a3fd6", "is_reserved": 0, "rental_uris": {"android": "https://dc.lft.to/lastmile_qr_scan", "ios": "https://dc.lft.to/lastmile_qr_scan"}, "fusion_lon": 0.0}, {"lat": 39.07502366666667, "is_disabled": 0, "type": "electric_bike", "lon": -77.1189925, "bike_id": "2a47326062c29d7ecd4ad4ac2de97d50", "fusion_lat": 0.0, "name": "2a47326062c29d7ecd4ad4ac2de97d50", "is_reserved": 0, "rental_uris": {"android": "https://dc.lft.to/lastmile_qr_scan", "ios": "https://dc.lft.to/lastmile_qr_scan"}, "fusion_lon": 0.0}, {"lat": 38.90568066666667, "is_disabled": 0, "type": "electric_bike", "lon": -77.0048865, "bike_id": "0de98107133aefb0bc1bb9f0db19ed19", "fusion_lat": 0.0, "name": "0de98107133aefb0bc1bb9f0db19ed19", "is_reserved": 0, "rental_uris": {"android": "https://dc.lft.to/lastmile_qr_scan", "ios": "https://dc.lft.to/lastmile_qr_scan"}, "fusion_lon": 0.0}, {"lat": 38.91467816666667, "is_disabled": 0, "type": "electric_scooter", "lon": -77.00217533333333, "bike_id": "d99f2399a43be7bac282f32c87de23e9", "fusion_lat": 0.0, "name": "d99f2399a43be7bac282f32c87de23e9", "is_reserved": 0, "rental_uris": {"android": "https://dc.lft.to/lastmile_qr_scan", "ios": "https://dc.lft.to/lastmile_qr_scan"}, "fusion_lon": 0.0}, {"lat": 38.9258465, "is_disabled": 0, "type": "electric_scooter", "lon": -77.05283416666667, "bike_id": "b9aab0892f4a49ae95d8f76e94478168", "fusion_lat": 0.0, "name": "b9aab0892f4a49ae95d8f76e94478168", "is_reserved": 0, "rental_uris": {"android": "https://dc.lft.to/lastmile_qr_scan", "ios": "https://dc.lft.to/lastmile_qr_scan"}, "fusion_lon": 0.0}, {"lat": 38.89846933333333, "is_disabled": 0, "type": "electric_scooter", "lon": -76.9446315, "bike_id": "d14835c332e82b5d250f044f26d1124b", "fusion_lat": 0.0, "name": "d14835c332e82b5d250f044f26d1124b", "is_reserved": 0, "rental_uris": {"android": "https://dc.lft.to/lastmile_qr_scan", "ios": "https://dc.lft.to/lastmile_qr_scan"}, "fusion_lon": 0.0}, {"lat": 38.910463166666666, "is_disabled": 0, "type": "electric_scooter", "lon": -77.0457015, "bike_id": "0b3dd2b995db2f3cc9a3b3df428181cb", "fusion_lat": 0.0, "name": "0b3dd2b995db2f3cc9a3b3df428181cb", "is_reserved": 0, "rental_uris": {"android": "https://dc.lft.to/lastmile_qr_scan", "ios": "https://dc.lft.to/lastmile_qr_scan"}, "fusion_lon": 0.0}, {"lat": 38.89508466666667, "is_disabled": 0, "type": "electric_scooter", "lon": -77.01614416666666, "bike_id": "81d38465a9b07f61538c08eed6690f2b", "fusion_lat": 0.0, "name": "81d38465a9b07f61538c08eed6690f2b", "is_reserved": 0, "rental_uris": {"android": "https://dc.lft.to/lastmile_qr_scan", "ios": "https://dc.lft.to/lastmile_qr_scan"}, "fusion_lon": 0.0}, {"lat": 38.893552666666665, "is_disabled": 0, "type": "electric_scooter", "lon": -76.98474233333333, "bike_id": "78700c147fa1c536f9f8930effd6ca17", "fusion_lat": 0.0, "name": "78700c147fa1c536f9f8930effd6ca17", "is_reserved": 0, "rental_uris": {"android": "https://dc.lft.to/lastmile_qr_scan", "ios": "https://dc.lft.to/lastmile_qr_scan"}, "fusion_lon": 0.0}, {"lat": 38.921138666666664, "is_disabled": 0, "type": "electric_scooter", "lon": -77.041839, "bike_id": "fac43e2a1c3b421093ee9d91b9d67539", "fusion_lat": 0.0, "name": "fac43e2a1c3b421093ee9d91b9d67539", "is_reserved": 0, "rental_uris": {"android": "https://dc.lft.to/lastmile_qr_scan", "ios": "https://dc.lft.to/lastmile_qr_scan"}, "fusion_lon": 0.0}, {"lat": 38.90487066666667, "is_disabled": 0, "type": "electric_scooter", "lon": -76.97333533333334, "bike_id": "f7986c3dcdc03a77c8acf77873a4bfb6", "fusion_lat": 0.0, "name": "f7986c3dcdc03a77c8acf77873a4bfb6", "is_reserved": 0, "rental_uris": {"android": "https://dc.lft.to/lastmile_qr_scan", "ios": "https://dc.lft.to/lastmile_qr_scan"}, "fusion_lon": 0.0}, {"lat": 38.904182666666664, "is_disabled": 0, "type": "electric_scooter", "lon": -77.024774, "bike_id": "3d205e5b34dd3b3e9d7c98e616c8ea09", "fusion_lat": 0.0, "name": "3d205e5b34dd3b3e9d7c98e616c8ea09", "is_reserved": 0, "rental_uris": {"android": "https://dc.lft.to/lastmile_qr_scan", "ios": "https://dc.lft.to/lastmile_qr_scan"}, "fusion_lon": 0.0}, {"lat": 38.921640333333336, "is_disabled": 0, "type": "electric_scooter", "lon": -77.04026633333334, "bike_id": "aa1bf31c432e3a7cb0344f07fc28633d", "fusion_lat": 0.0, "name": "aa1bf31c432e3a7cb0344f07fc28633d", "is_reserved": 0, "rental_uris": {"android": "https://dc.lft.to/lastmile_qr_scan", "ios": "https://dc.lft.to/lastmile_qr_scan"}, "fusion_lon": 0.0}, {"lat": 38.94320166666667, "is_disabled": 0, "type": "electric_scooter", "lon": -77.0613505, "bike_id": "720a98f246b3f06433f59a41161ffa80", "fusion_lat": 0.0, "name": "720a98f246b3f06433f59a41161ffa80", "is_reserved": 0, "rental_uris": {"android": "https://dc.lft.to/lastmile_qr_scan", "ios": "https://dc.lft.to/lastmile_qr_scan"}, "fusion_lon": 0.0}, {"lat": 38.92476833333333, "is_disabled": 0, "type": "electric_scooter", "lon": -77.034822, "bike_id": "87ac8eb8e4a89a89e14dbdcfb20f77d2", "fusion_lat": 0.0, "name": "87ac8eb8e4a89a89e14dbdcfb20f77d2", "is_reserved": 0, "rental_uris": {"android": "https://dc.lft.to/lastmile_qr_scan", "ios": "https://dc.lft.to/lastmile_qr_scan"}, "fusion_lon": 0.0}, {"lat": 38.89488766666667, "is_disabled": 0, "type": "electric_scooter", "lon": -77.002498, "bike_id": "61b57552d968f4f9fc5957d413d974c0", "fusion_lat": 0.0, "name": "61b57552d968f4f9fc5957d413d974c0", "is_reserved": 0, "rental_uris": {"android": "https://dc.lft.to/lastmile_qr_scan", "ios": "https://dc.lft.to/lastmile_qr_scan"}, "fusion_lon": 0.0}, {"lat": 38.886307, "is_disabled": 0, "type": "electric_scooter", "lon": -76.95480866666666, "bike_id": "063bc4f1635fe3ed6c27b398f8398a49", "fusion_lat": 0.0, "name": "063bc4f1635fe3ed6c27b398f8398a49", "is_reserved": 0, "rental_uris": {"android": "https://dc.lft.to/lastmile_qr_scan", "ios": "https://dc.lft.to/lastmile_qr_scan"}, "fusion_lon": 0.0}, {"lat": 38.896649, "is_disabled": 0, "type": "electric_scooter", "lon": -77.0466695, "bike_id": "550649ee89ae0dac2b5fb4570d18d393", "fusion_lat": 0.0, "name": "550649ee89ae0dac2b5fb4570d18d393", "is_reserved": 0, "rental_uris": {"android": "https://dc.lft.to/lastmile_qr_scan", "ios": "https://dc.lft.to/lastmile_qr_scan"}, "fusion_lon": 0.0}, {"lat": 38.915782666666665, "is_disabled": 0, "type": "electric_scooter", "lon": -77.05024183333333, "bike_id": "bfcc2be158f2445338baf5bcc5299157", "fusion_lat": 0.0, "name": "bfcc2be158f2445338baf5bcc5299157", "is_reserved": 0, "rental_uris": {"android": "https://dc.lft.to/lastmile_qr_scan", "ios": "https://dc.lft.to/lastmile_qr_scan"}, "fusion_lon": 0.0}, {"lat": 38.92673216666667, "is_disabled": 0, "type": "electric_scooter", "lon": -77.01523966666667, "bike_id": "3c82a002266d8a7101b72181802d6097", "fusion_lat": 0.0, "name": "3c82a002266d8a7101b72181802d6097", "is_reserved": 0, "rental_uris": {"android": "https://dc.lft.to/lastmile_qr_scan", "ios": "https://dc.lft.to/lastmile_qr_scan"}, "fusion_lon": 0.0}, {"lat": 38.89218616666667, "is_disabled": 0, "type": "electric_scooter", "lon": -77.02113316666667, "bike_id": "322a118d04e50eafda6d3fec444cdd97", "fusion_lat": 0.0, "name": "322a118d04e50eafda6d3fec444cdd97", "is_reserved": 0, "rental_uris": {"android": "https://dc.lft.to/lastmile_qr_scan", "ios": "https://dc.lft.to/lastmile_qr_scan"}, "fusion_lon": 0.0}, {"lat": 38.90684683333333, "is_disabled": 0, "type": "electric_scooter", "lon": -77.06073, "bike_id": "5d7dd0e174fb7ed32b32285db014a761", "fusion_lat": 0.0, "name": "5d7dd0e174fb7ed32b32285db014a761", "is_reserved": 0, "rental_uris": {"android": "https://dc.lft.to/lastmile_qr_scan", "ios": "https://dc.lft.to/lastmile_qr_scan"}, "fusion_lon": 0.0}, {"lat": 38.925770666666665, "is_disabled": 0, "type": "electric_scooter", "lon": -77.05755066666667, "bike_id": "0f494b66f5e29a23515f5bd63975214d", "fusion_lat": 0.0, "name": "0f494b66f5e29a23515f5bd63975214d", "is_reserved": 0, "rental_uris": {"android": "https://dc.lft.to/lastmile_qr_scan", "ios": "https://dc.lft.to/lastmile_qr_scan"}, "fusion_lon": 0.0}, {"lat": 38.902515666666666, "is_disabled": 0, "type": "electric_scooter", "lon": -77.017547, "bike_id": "c8c6b4401305404a02adcd91d4175719", "fusion_lat": 0.0, "name": "c8c6b4401305404a02adcd91d4175719", "is_reserved": 0, "rental_uris": {"android": "https://dc.lft.to/lastmile_qr_scan", "ios": "https://dc.lft.to/lastmile_qr_scan"}, "fusion_lon": 0.0}, {"lat": 38.92912033333333, "is_disabled": 0, "type": "electric_scooter", "lon": -77.02189366666667, "bike_id": "4aafc12f86a111af2bcef1cffb4b5cdb", "fusion_lat": 0.0, "name": "4aafc12f86a111af2bcef1cffb4b5cdb", "is_reserved": 0, "rental_uris": {"android": "https://dc.lft.to/lastmile_qr_scan", "ios": "https://dc.lft.to/lastmile_qr_scan"}, "fusion_lon": 0.0}, {"lat": 38.90571033333333, "is_disabled": 0, "type": "electric_scooter", "lon": -77.01788466666666, "bike_id": "a5ea20536355eece4e0a2cb6dcfd0aee", "fusion_lat": 0.0, "name": "a5ea20536355eece4e0a2cb6dcfd0aee", "is_reserved": 0, "rental_uris": {"android": "https://dc.lft.to/lastmile_qr_scan", "ios": "https://dc.lft.to/lastmile_qr_scan"}, "fusion_lon": 0.0}, {"lat": 38.93116633333333, "is_disabled": 0, "type": "electric_scooter", "lon": -77.0209265, "bike_id": "c12fce6fe960dbbc23f08e370707aaf8", "fusion_lat": 0.0, "name": "c12fce6fe960dbbc23f08e370707aaf8", "is_reserved": 0, "rental_uris": {"android": "https://dc.lft.to/lastmile_qr_scan", "ios": "https://dc.lft.to/lastmile_qr_scan"}, "fusion_lon": 0.0}, {"lat": 38.96115566666667, "is_disabled": 0, "type": "electric_scooter", "lon": -77.02812316666666, "bike_id": "b1b9a4fe3293b0340cafd2657e344609", "fusion_lat": 0.0, "name": "b1b9a4fe3293b0340cafd2657e344609", "is_reserved": 0, "rental_uris": {"android": "https://dc.lft.to/lastmile_qr_scan", "ios": "https://dc.lft.to/lastmile_qr_scan"}, "fusion_lon": 0.0}, {"lat": 38.90404933333333, "is_disabled": 0, "type": "electric_scooter", "lon": -77.04347683333333, "bike_id": "3223338ec2bc32096b5beac5a598c9ec", "fusion_lat": 0.0, "name": "3223338ec2bc32096b5beac5a598c9ec", "is_reserved": 0, "rental_uris": {"android": "https://dc.lft.to/lastmile_qr_scan", "ios": "https://dc.lft.to/lastmile_qr_scan"}, "fusion_lon": 0.0}, {"lat": 38.917996333333335, "is_disabled": 0, "type": "electric_bike", "lon": -77.22334783333334, "bike_id": "7d2138d1e28252087db1b676b1ad28ff", "fusion_lat": 0.0, "name": "7d2138d1e28252087db1b676b1ad28ff", "is_reserved": 0, "rental_uris": {"android": "https://dc.lft.to/lastmile_qr_scan", "ios": "https://dc.lft.to/lastmile_qr_scan"}, "fusion_lon": 0.0}, {"lat": 38.9085465, "is_disabled": 0, "type": "electric_scooter", "lon": -77.00623883333333, "bike_id": "5bc7952c623beeb43d2288cd3a4a6e75", "fusion_lat": 0.0, "name": "5bc7952c623beeb43d2288cd3a4a6e75", "is_reserved": 0, "rental_uris": {"android": "https://dc.lft.to/lastmile_qr_scan", "ios": "https://dc.lft.to/lastmile_qr_scan"}, "fusion_lon": 0.0}, {"lat": 38.905776333333336, "is_disabled": 0, "type": "electric_scooter", "lon": -77.03466166666666, "bike_id": "4bdf7c7dfe7a0993eb1eba86e6aab901", "fusion_lat": 0.0, "name": "4bdf7c7dfe7a0993eb1eba86e6aab901", "is_reserved": 0, "rental_uris": {"android": "https://dc.lft.to/lastmile_qr_scan", "ios": "https://dc.lft.to/lastmile_qr_scan"}, "fusion_lon": 0.0}, {"lat": 38.926330166666666, "is_disabled": 0, "type": "electric_scooter", "lon": -77.04298483333334, "bike_id": "289baa30c01043d23f08ab2ac028110e", "fusion_lat": 0.0, "name": "289baa30c01043d23f08ab2ac028110e", "is_reserved": 0, "rental_uris": {"android": "https://dc.lft.to/lastmile_qr_scan", "ios": "https://dc.lft.to/lastmile_qr_scan"}, "fusion_lon": 0.0}, {"lat": 38.928973166666665, "is_disabled": 0, "type": "electric_bike", "lon": -77.05778783333334, "bike_id": "ca99f58eb302c92b537d60069932f519", "fusion_lat": 0.0, "name": "ca99f58eb302c92b537d60069932f519", "is_reserved": 0, "rental_uris": {"android": "https://dc.lft.to/lastmile_qr_scan", "ios": "https://dc.lft.to/lastmile_qr_scan"}, "fusion_lon": 0.0}, {"lat": 38.916808833333334, "is_disabled": 0, "type": "electric_scooter", "lon": -77.02969633333333, "bike_id": "a1da94e957481cf9cc0ad32a3e14c3a2", "fusion_lat": 0.0, "name": "a1da94e957481cf9cc0ad32a3e14c3a2", "is_reserved": 0, "rental_uris": {"android": "https://dc.lft.to/lastmile_qr_scan", "ios": "https://dc.lft.to/lastmile_qr_scan"}, "fusion_lon": 0.0}, {"lat": 38.904223, "is_disabled": 0, "type": "electric_scooter", "lon": -76.990715, "bike_id": "a37364d5150ae0e7a7d286b2aa56b50a", "fusion_lat": 0.0, "name": "a37364d5150ae0e7a7d286b2aa56b50a", "is_reserved": 0, "rental_uris": {"android": "https://dc.lft.to/lastmile_qr_scan", "ios": "https://dc.lft.to/lastmile_qr_scan"}, "fusion_lon": 0.0}, {"lat": 38.898209666666666, "is_disabled": 0, "type": "electric_scooter", "lon": -76.97424066666666, "bike_id": "1c8630f230f007df0920d0b56013a9d4", "fusion_lat": 0.0, "name": "1c8630f230f007df0920d0b56013a9d4", "is_reserved": 0, "rental_uris": {"android": "https://dc.lft.to/lastmile_qr_scan", "ios": "https://dc.lft.to/lastmile_qr_scan"}, "fusion_lon": 0.0}, {"lat": 38.916219166666664, "is_disabled": 0, "type": "electric_scooter", "lon": -77.0240325, "bike_id": "14e2c8dd0d989e96a58fd8607fc81d3d", "fusion_lat": 0.0, "name": "14e2c8dd0d989e96a58fd8607fc81d3d", "is_reserved": 0, "rental_uris": {"android": "https://dc.lft.to/lastmile_qr_scan", "ios": "https://dc.lft.to/lastmile_qr_scan"}, "fusion_lon": 0.0}, {"lat": 38.93121383333333, "is_disabled": 0, "type": "electric_scooter", "lon": -77.03036383333334, "bike_id": "d9f9f2614a17510396675667e76f7369", "fusion_lat": 0.0, "name": "d9f9f2614a17510396675667e76f7369", "is_reserved": 0, "rental_uris": {"android": "https://dc.lft.to/lastmile_qr_scan", "ios": "https://dc.lft.to/lastmile_qr_scan"}, "fusion_lon": 0.0}, {"lat": 38.901847333333336, "is_disabled": 0, "type": "electric_scooter", "lon": -77.02489616666666, "bike_id": "43ff2dd12f17c861e2ccc75d46d6d59a", "fusion_lat": 0.0, "name": "43ff2dd12f17c861e2ccc75d46d6d59a", "is_reserved": 0, "rental_uris": {"android": "https://dc.lft.to/lastmile_qr_scan", "ios": "https://dc.lft.to/lastmile_qr_scan"}, "fusion_lon": 0.0}, {"lat": 38.9080705, "is_disabled": 0, "type": "electric_scooter", "lon": -76.98281133333333, "bike_id": "ec7820b5478013734e8a75a16034aadd", "fusion_lat": 0.0, "name": "ec7820b5478013734e8a75a16034aadd", "is_reserved": 0, "rental_uris": {"android": "https://dc.lft.to/lastmile_qr_scan", "ios": "https://dc.lft.to/lastmile_qr_scan"}, "fusion_lon": 0.0}, {"lat": 38.93876016666667, "is_disabled": 0, "type": "electric_scooter", "lon": -77.02445983333334, "bike_id": "c12d10475b50e8ddfd7a18f6f23f85c6", "fusion_lat": 0.0, "name": "c12d10475b50e8ddfd7a18f6f23f85c6", "is_reserved": 0, "rental_uris": {"android": "https://dc.lft.to/lastmile_qr_scan", "ios": "https://dc.lft.to/lastmile_qr_scan"}, "fusion_lon": 0.0}, {"lat": 38.86560866666667, "is_disabled": 0, "type": "electric_scooter", "lon": -76.98953766666666, "bike_id": "525bfe08eb61f5b6e2e66214713aee8b", "fusion_lat": 0.0, "name": "525bfe08eb61f5b6e2e66214713aee8b", "is_reserved": 0, "rental_uris": {"android": "https://dc.lft.to/lastmile_qr_scan", "ios": "https://dc.lft.to/lastmile_qr_scan"}, "fusion_lon": 0.0}, {"lat": 38.955625833333336, "is_disabled": 0, "type": "electric_scooter", "lon": -77.02235666666667, "bike_id": "5147a0e1066b88149d0a67be0e4bb747", "fusion_lat": 0.0, "name": "5147a0e1066b88149d0a67be0e4bb747", "is_reserved": 0, "rental_uris": {"android": "https://dc.lft.to/lastmile_qr_scan", "ios": "https://dc.lft.to/lastmile_qr_scan"}, "fusion_lon": 0.0}, {"lat": 38.90916716666667, "is_disabled": 0, "type": "electric_scooter", "lon": -77.0364555, "bike_id": "9305d6dad612bc14257fee64b2eee8db", "fusion_lat": 0.0, "name": "9305d6dad612bc14257fee64b2eee8db", "is_reserved": 0, "rental_uris": {"android": "https://dc.lft.to/lastmile_qr_scan", "ios": "https://dc.lft.to/lastmile_qr_scan"}, "fusion_lon": 0.0}, {"lat": 38.9355535, "is_disabled": 0, "type": "electric_scooter", "lon": -77.05867533333333, "bike_id": "85bf430d7110009d1911243ad7124ed0", "fusion_lat": 0.0, "name": "85bf430d7110009d1911243ad7124ed0", "is_reserved": 0, "rental_uris": {"android": "https://dc.lft.to/lastmile_qr_scan", "ios": "https://dc.lft.to/lastmile_qr_scan"}, "fusion_lon": 0.0}, {"lat": 38.91184966666667, "is_disabled": 0, "type": "electric_scooter", "lon": -77.03219033333333, "bike_id": "367de33152acaa8b3b625fb2a9a80ab7", "fusion_lat": 0.0, "name": "367de33152acaa8b3b625fb2a9a80ab7", "is_reserved": 0, "rental_uris": {"android": "https://dc.lft.to/lastmile_qr_scan", "ios": "https://dc.lft.to/lastmile_qr_scan"}, "fusion_lon": 0.0}, {"lat": 38.91970233333333, "is_disabled": 0, "type": "electric_scooter", "lon": -77.04316, "bike_id": "02e591c39ddc9124880882d894b11e59", "fusion_lat": 0.0, "name": "02e591c39ddc9124880882d894b11e59", "is_reserved": 0, "rental_uris": {"android": "https://dc.lft.to/lastmile_qr_scan", "ios": "https://dc.lft.to/lastmile_qr_scan"}, "fusion_lon": 0.0}, {"lat": 38.905225, "is_disabled": 0, "type": "electric_scooter", "lon": -77.027121, "bike_id": "de42e4643b372659ed902725dc74bcbd", "fusion_lat": 0.0, "name": "de42e4643b372659ed902725dc74bcbd", "is_reserved": 0, "rental_uris": {"android": "https://dc.lft.to/lastmile_qr_scan", "ios": "https://dc.lft.to/lastmile_qr_scan"}, "fusion_lon": 0.0}, {"lat": 38.960948, "is_disabled": 0, "type": "electric_scooter", "lon": -77.0828545, "bike_id": "2f04e0ead7aa37ebfad6499c403c56d4", "fusion_lat": 0.0, "name": "2f04e0ead7aa37ebfad6499c403c56d4", "is_reserved": 0, "rental_uris": {"android": "https://dc.lft.to/lastmile_qr_scan", "ios": "https://dc.lft.to/lastmile_qr_scan"}, "fusion_lon": 0.0}, {"lat": 39.0159275, "is_disabled": 0, "type": "electric_bike", "lon": -77.04431566666666, "bike_id": "fa7a4e8714ca08fdddc2ecc2766160d3", "fusion_lat": 0.0, "name": "fa7a4e8714ca08fdddc2ecc2766160d3", "is_reserved": 0, "rental_uris": {"android": "https://dc.lft.to/lastmile_qr_scan", "ios": "https://dc.lft.to/lastmile_qr_scan"}, "fusion_lon": 0.0}, {"lat": 38.90007216666667, "is_disabled": 0, "type": "electric_scooter", "lon": -76.99848266666666, "bike_id": "5194e353658c370c0af4bc23559e503d", "fusion_lat": 0.0, "name": "5194e353658c370c0af4bc23559e503d", "is_reserved": 0, "rental_uris": {"android": "https://dc.lft.to/lastmile_qr_scan", "ios": "https://dc.lft.to/lastmile_qr_scan"}, "fusion_lon": 0.0}, {"lat": 38.922223, "is_disabled": 0, "type": "electric_scooter", "lon": -77.0329565, "bike_id": "d310a9fa9056383786f82534aeff988b", "fusion_lat": 0.0, "name": "d310a9fa9056383786f82534aeff988b", "is_reserved": 0, "rental_uris": {"android": "https://dc.lft.to/lastmile_qr_scan", "ios": "https://dc.lft.to/lastmile_qr_scan"}, "fusion_lon": 0.0}, {"lat": 38.8912155, "is_disabled": 0, "type": "electric_scooter", "lon": -76.94090883333334, "bike_id": "7b8febd70ebaa96087e0be0c2e2cd1d5", "fusion_lat": 0.0, "name": "7b8febd70ebaa96087e0be0c2e2cd1d5", "is_reserved": 0, "rental_uris": {"android": "https://dc.lft.to/lastmile_qr_scan", "ios": "https://dc.lft.to/lastmile_qr_scan"}, "fusion_lon": 0.0}, {"lat": 38.9024045, "is_disabled": 0, "type": "electric_scooter", "lon": -77.0192575, "bike_id": "78d9f7149b05a5add05825e8d5da01b1", "fusion_lat": 0.0, "name": "78d9f7149b05a5add05825e8d5da01b1", "is_reserved": 0, "rental_uris": {"android": "https://dc.lft.to/lastmile_qr_scan", "ios": "https://dc.lft.to/lastmile_qr_scan"}, "fusion_lon": 0.0}, {"lat": 38.939874, "is_disabled": 0, "type": "electric_scooter", "lon": -77.02893516666667, "bike_id": "aaf87e7ba330919c35b5c4db940f3720", "fusion_lat": 0.0, "name": "aaf87e7ba330919c35b5c4db940f3720", "is_reserved": 0, "rental_uris": {"android": "https://dc.lft.to/lastmile_qr_scan", "ios": "https://dc.lft.to/lastmile_qr_scan"}, "fusion_lon": 0.0}, {"lat": 38.911056333333335, "is_disabled": 0, "type": "electric_scooter", "lon": -77.027219, "bike_id": "4f4b07b314879e311ca13b998a113faa", "fusion_lat": 0.0, "name": "4f4b07b314879e311ca13b998a113faa", "is_reserved": 0, "rental_uris": {"android": "https://dc.lft.to/lastmile_qr_scan", "ios": "https://dc.lft.to/lastmile_qr_scan"}, "fusion_lon": 0.0}, {"lat": 38.929651666666665, "is_disabled": 0, "type": "electric_scooter", "lon": -77.03076866666666, "bike_id": "3fb58ac03aaab5b36592d19a65747649", "fusion_lat": 0.0, "name": "3fb58ac03aaab5b36592d19a65747649", "is_reserved": 0, "rental_uris": {"android": "https://dc.lft.to/lastmile_qr_scan", "ios": "https://dc.lft.to/lastmile_qr_scan"}, "fusion_lon": 0.0}, {"lat": 38.915566, "is_disabled": 0, "type": "electric_scooter", "lon": -77.03862166666667, "bike_id": "f9a5329a07b1dc2cc3719e08d7ffa3f2", "fusion_lat": 0.0, "name": "f9a5329a07b1dc2cc3719e08d7ffa3f2", "is_reserved": 0, "rental_uris": {"android": "https://dc.lft.to/lastmile_qr_scan", "ios": "https://dc.lft.to/lastmile_qr_scan"}, "fusion_lon": 0.0}, {"lat": 38.898096, "is_disabled": 0, "type": "electric_scooter", "lon": -77.05024233333333, "bike_id": "7a4bf32b8ce32f7ed29c9773683a410d", "fusion_lat": 0.0, "name": "7a4bf32b8ce32f7ed29c9773683a410d", "is_reserved": 0, "rental_uris": {"android": "https://dc.lft.to/lastmile_qr_scan", "ios": "https://dc.lft.to/lastmile_qr_scan"}, "fusion_lon": 0.0}, {"lat": 38.91540966666667, "is_disabled": 0, "type": "electric_scooter", "lon": -77.00348316666667, "bike_id": "4714178fa588ba831e430550c95af274", "fusion_lat": 0.0, "name": "4714178fa588ba831e430550c95af274", "is_reserved": 0, "rental_uris": {"android": "https://dc.lft.to/lastmile_qr_scan", "ios": "https://dc.lft.to/lastmile_qr_scan"}, "fusion_lon": 0.0}, {"lat": 38.940887833333335, "is_disabled": 0, "type": "electric_scooter", "lon": -77.06134766666666, "bike_id": "34d8ec206d065a996a81a302d3698f27", "fusion_lat": 0.0, "name": "34d8ec206d065a996a81a302d3698f27", "is_reserved": 0, "rental_uris": {"android": "https://dc.lft.to/lastmile_qr_scan", "ios": "https://dc.lft.to/lastmile_qr_scan"}, "fusion_lon": 0.0}, {"lat": 38.92185766666667, "is_disabled": 0, "type": "electric_scooter", "lon": -77.04348816666666, "bike_id": "96a31fc77eaae40bc7f502d7d50886c5", "fusion_lat": 0.0, "name": "96a31fc77eaae40bc7f502d7d50886c5", "is_reserved": 0, "rental_uris": {"android": "https://dc.lft.to/lastmile_qr_scan", "ios": "https://dc.lft.to/lastmile_qr_scan"}, "fusion_lon": 0.0}, {"lat": 38.90735516666667, "is_disabled": 0, "type": "electric_scooter", "lon": -77.03449233333333, "bike_id": "97ff33d8b8ee351afff12748daf6f021", "fusion_lat": 0.0, "name": "97ff33d8b8ee351afff12748daf6f021", "is_reserved": 0, "rental_uris": {"android": "https://dc.lft.to/lastmile_qr_scan", "ios": "https://dc.lft.to/lastmile_qr_scan"}, "fusion_lon": 0.0}, {"lat": 38.949046833333334, "is_disabled": 0, "type": "electric_bike", "lon": -76.97237133333333, "bike_id": "da5aca49348510c04abe9502afad1c02", "fusion_lat": 0.0, "name": "da5aca49348510c04abe9502afad1c02", "is_reserved": 0, "rental_uris": {"android": "https://dc.lft.to/lastmile_qr_scan", "ios": "https://dc.lft.to/lastmile_qr_scan"}, "fusion_lon": 0.0}, {"lat": 38.8580805, "is_disabled": 0, "type": "electric_scooter", "lon": -76.9864925, "bike_id": "1805eb0d8c5b20a985c2906ee63e85f9", "fusion_lat": 0.0, "name": "1805eb0d8c5b20a985c2906ee63e85f9", "is_reserved": 0, "rental_uris": {"android": "https://dc.lft.to/lastmile_qr_scan", "ios": "https://dc.lft.to/lastmile_qr_scan"}, "fusion_lon": 0.0}, {"lat": 38.91566683333333, "is_disabled": 0, "type": "electric_scooter", "lon": -77.02246133333334, "bike_id": "114594e331ef45fde1c66dc77e6f35ea", "fusion_lat": 0.0, "name": "114594e331ef45fde1c66dc77e6f35ea", "is_reserved": 0, "rental_uris": {"android": "https://dc.lft.to/lastmile_qr_scan", "ios": "https://dc.lft.to/lastmile_qr_scan"}, "fusion_lon": 0.0}, {"lat": 38.91258416666667, "is_disabled": 0, "type": "electric_scooter", "lon": -76.98355333333333, "bike_id": "cfd38e5c8b105925e112ae3cffdefa0c", "fusion_lat": 0.0, "name": "cfd38e5c8b105925e112ae3cffdefa0c", "is_reserved": 0, "rental_uris": {"android": "https://dc.lft.to/lastmile_qr_scan", "ios": "https://dc.lft.to/lastmile_qr_scan"}, "fusion_lon": 0.0}, {"lat": 38.915632333333335, "is_disabled": 0, "type": "electric_scooter", "lon": -77.03841083333333, "bike_id": "345e8c2c481762930459caa6c22913d4", "fusion_lat": 0.0, "name": "345e8c2c481762930459caa6c22913d4", "is_reserved": 0, "rental_uris": {"android": "https://dc.lft.to/lastmile_qr_scan", "ios": "https://dc.lft.to/lastmile_qr_scan"}, "fusion_lon": 0.0}, {"lat": 38.91030133333334, "is_disabled": 0, "type": "electric_scooter", "lon": -77.04876166666666, "bike_id": "a8b7a7766c7517fbd0cc4fa6c990da79", "fusion_lat": 0.0, "name": "a8b7a7766c7517fbd0cc4fa6c990da79", "is_reserved": 0, "rental_uris": {"android": "https://dc.lft.to/lastmile_qr_scan", "ios": "https://dc.lft.to/lastmile_qr_scan"}, "fusion_lon": 0.0}, {"lat": 38.96612983333333, "is_disabled": 0, "type": "electric_scooter", "lon": -77.02053833333333, "bike_id": "07b395782387835d8fc22691971336e2", "fusion_lat": 0.0, "name": "07b395782387835d8fc22691971336e2", "is_reserved": 0, "rental_uris": {"android": "https://dc.lft.to/lastmile_qr_scan", "ios": "https://dc.lft.to/lastmile_qr_scan"}, "fusion_lon": 0.0}, {"lat": 38.8849095, "is_disabled": 0, "type": "electric_scooter", "lon": -77.00708183333333, "bike_id": "46246021ee13a035d35b3f205f0e5175", "fusion_lat": 0.0, "name": "46246021ee13a035d35b3f205f0e5175", "is_reserved": 0, "rental_uris": {"android": "https://dc.lft.to/lastmile_qr_scan", "ios": "https://dc.lft.to/lastmile_qr_scan"}, "fusion_lon": 0.0}, {"lat": 38.993815833333336, "is_disabled": 0, "type": "electric_bike", "lon": -77.03132233333334, "bike_id": "8880b86df9c8cb59ffec5142c22a64f8", "fusion_lat": 0.0, "name": "8880b86df9c8cb59ffec5142c22a64f8", "is_reserved": 0, "rental_uris": {"android": "https://dc.lft.to/lastmile_qr_scan", "ios": "https://dc.lft.to/lastmile_qr_scan"}, "fusion_lon": 0.0}, {"lat": 38.90017666666667, "is_disabled": 0, "type": "electric_scooter", "lon": -77.01206433333333, "bike_id": "9305a987411c45161ddedbd28b82948a", "fusion_lat": 0.0, "name": "9305a987411c45161ddedbd28b82948a", "is_reserved": 0, "rental_uris": {"android": "https://dc.lft.to/lastmile_qr_scan", "ios": "https://dc.lft.to/lastmile_qr_scan"}, "fusion_lon": 0.0}, {"lat": 38.925768166666664, "is_disabled": 0, "type": "electric_scooter", "lon": -76.986107, "bike_id": "80c41f369e8118cc5cf875f33d1e98b6", "fusion_lat": 0.0, "name": "80c41f369e8118cc5cf875f33d1e98b6", "is_reserved": 0, "rental_uris": {"android": "https://dc.lft.to/lastmile_qr_scan", "ios": "https://dc.lft.to/lastmile_qr_scan"}, "fusion_lon": 0.0}, {"lat": 38.842919, "is_disabled": 0, "type": "electric_scooter", "lon": -76.999467, "bike_id": "a7dcbf1f7e56b38d2660cf0dd2f99ed1", "fusion_lat": 0.0, "name": "a7dcbf1f7e56b38d2660cf0dd2f99ed1", "is_reserved": 0, "rental_uris": {"android": "https://dc.lft.to/lastmile_qr_scan", "ios": "https://dc.lft.to/lastmile_qr_scan"}, "fusion_lon": 0.0}, {"lat": 38.901422833333335, "is_disabled": 0, "type": "electric_scooter", "lon": -77.03333183333334, "bike_id": "eff39eb1e009e557f7364948337d7d90", "fusion_lat": 0.0, "name": "eff39eb1e009e557f7364948337d7d90", "is_reserved": 0, "rental_uris": {"android": "https://dc.lft.to/lastmile_qr_scan", "ios": "https://dc.lft.to/lastmile_qr_scan"}, "fusion_lon": 0.0}, {"lat": 38.92315266666667, "is_disabled": 0, "type": "electric_scooter", "lon": -77.0352545, "bike_id": "37e8306dab5aa39fc2cd890fa9e1fb33", "fusion_lat": 0.0, "name": "37e8306dab5aa39fc2cd890fa9e1fb33", "is_reserved": 0, "rental_uris": {"android": "https://dc.lft.to/lastmile_qr_scan", "ios": "https://dc.lft.to/lastmile_qr_scan"}, "fusion_lon": 0.0}, {"lat": 38.923691833333336, "is_disabled": 0, "type": "electric_scooter", "lon": -77.02917533333333, "bike_id": "c1fd84a24aad9790f72864928d5b7277", "fusion_lat": 0.0, "name": "c1fd84a24aad9790f72864928d5b7277", "is_reserved": 0, "rental_uris": {"android": "https://dc.lft.to/lastmile_qr_scan", "ios": "https://dc.lft.to/lastmile_qr_scan"}, "fusion_lon": 0.0}, {"lat": 38.877812, "is_disabled": 0, "type": "electric_scooter", "lon": -76.99512883333334, "bike_id": "1a949a6146bb02ca28e66bd1136c7660", "fusion_lat": 0.0, "name": "1a949a6146bb02ca28e66bd1136c7660", "is_reserved": 0, "rental_uris": {"android": "https://dc.lft.to/lastmile_qr_scan", "ios": "https://dc.lft.to/lastmile_qr_scan"}, "fusion_lon": 0.0}, {"lat": 38.89731066666667, "is_disabled": 0, "type": "electric_scooter", "lon": -77.04990383333333, "bike_id": "2f59923381dd3885f7657acdc6b1a38f", "fusion_lat": 0.0, "name": "2f59923381dd3885f7657acdc6b1a38f", "is_reserved": 0, "rental_uris": {"android": "https://dc.lft.to/lastmile_qr_scan", "ios": "https://dc.lft.to/lastmile_qr_scan"}, "fusion_lon": 0.0}, {"lat": 38.884456, "is_disabled": 0, "type": "electric_scooter", "lon": -76.92957, "bike_id": "836a9cb6313a8341d562eab2d5a486f7", "fusion_lat": 0.0, "name": "836a9cb6313a8341d562eab2d5a486f7", "is_reserved": 0, "rental_uris": {"android": "https://dc.lft.to/lastmile_qr_scan", "ios": "https://dc.lft.to/lastmile_qr_scan"}, "fusion_lon": 0.0}, {"lat": 38.8868495, "is_disabled": 0, "type": "electric_bike", "lon": -77.16238733333333, "bike_id": "7fd3ebe756c7afdf57b9a9fa817d17ae", "fusion_lat": 0.0, "name": "7fd3ebe756c7afdf57b9a9fa817d17ae", "is_reserved": 0, "rental_uris": {"android": "https://dc.lft.to/lastmile_qr_scan", "ios": "https://dc.lft.to/lastmile_qr_scan"}, "fusion_lon": 0.0}, {"lat": 38.906614, "is_disabled": 0, "type": "electric_scooter", "lon": -77.00831433333333, "bike_id": "f612bdec7e78364be8dcafe3108d7640", "fusion_lat": 0.0, "name": "f612bdec7e78364be8dcafe3108d7640", "is_reserved": 0, "rental_uris": {"android": "https://dc.lft.to/lastmile_qr_scan", "ios": "https://dc.lft.to/lastmile_qr_scan"}, "fusion_lon": 0.0}, {"lat": 38.933786, "is_disabled": 0, "type": "electric_scooter", "lon": -77.03554916666667, "bike_id": "4c8a0c7ccd2c4170481767d64c315212", "fusion_lat": 0.0, "name": "4c8a0c7ccd2c4170481767d64c315212", "is_reserved": 0, "rental_uris": {"android": "https://dc.lft.to/lastmile_qr_scan", "ios": "https://dc.lft.to/lastmile_qr_scan"}, "fusion_lon": 0.0}, {"lat": 38.9153675, "is_disabled": 0, "type": "electric_scooter", "lon": -77.03198716666667, "bike_id": "3ef1877c974dee27f842d2d8225ddaaa", "fusion_lat": 0.0, "name": "3ef1877c974dee27f842d2d8225ddaaa", "is_reserved": 0, "rental_uris": {"android": "https://dc.lft.to/lastmile_qr_scan", "ios": "https://dc.lft.to/lastmile_qr_scan"}, "fusion_lon": 0.0}, {"lat": 38.903918166666664, "is_disabled": 0, "type": "electric_scooter", "lon": -76.99001833333334, "bike_id": "ad404a687aa71cae2513a0ebb9eed5f5", "fusion_lat": 0.0, "name": "ad404a687aa71cae2513a0ebb9eed5f5", "is_reserved": 0, "rental_uris": {"android": "https://dc.lft.to/lastmile_qr_scan", "ios": "https://dc.lft.to/lastmile_qr_scan"}, "fusion_lon": 0.0}, {"lat": 38.886015666666665, "is_disabled": 0, "type": "electric_scooter", "lon": -77.01889416666667, "bike_id": "07af9feebc1fede6aee033cf6f816c47", "fusion_lat": 0.0, "name": "07af9feebc1fede6aee033cf6f816c47", "is_reserved": 0, "rental_uris": {"android": "https://dc.lft.to/lastmile_qr_scan", "ios": "https://dc.lft.to/lastmile_qr_scan"}, "fusion_lon": 0.0}, {"lat": 38.9196355, "is_disabled": 0, "type": "electric_scooter", "lon": -77.01441116666666, "bike_id": "2f5c1975319a3382fbe578bffad985cd", "fusion_lat": 0.0, "name": "2f5c1975319a3382fbe578bffad985cd", "is_reserved": 0, "rental_uris": {"android": "https://dc.lft.to/lastmile_qr_scan", "ios": "https://dc.lft.to/lastmile_qr_scan"}, "fusion_lon": 0.0}, {"lat": 38.9571005, "is_disabled": 0, "type": "electric_scooter", "lon": -77.02400166666666, "bike_id": "aa59295405f88e304ff37527642f82cd", "fusion_lat": 0.0, "name": "aa59295405f88e304ff37527642f82cd", "is_reserved": 0, "rental_uris": {"android": "https://dc.lft.to/lastmile_qr_scan", "ios": "https://dc.lft.to/lastmile_qr_scan"}, "fusion_lon": 0.0}, {"lat": 38.88550133333333, "is_disabled": 0, "type": "electric_bike", "lon": -77.11790033333334, "bike_id": "bc042d878221055eb4e1baea50c8fcad", "fusion_lat": 0.0, "name": "bc042d878221055eb4e1baea50c8fcad", "is_reserved": 0, "rental_uris": {"android": "https://dc.lft.to/lastmile_qr_scan", "ios": "https://dc.lft.to/lastmile_qr_scan"}, "fusion_lon": 0.0}, {"lat": 38.934318166666664, "is_disabled": 0, "type": "electric_scooter", "lon": -76.96508, "bike_id": "9874df410dd1807562c561eb015d4093", "fusion_lat": 0.0, "name": "9874df410dd1807562c561eb015d4093", "is_reserved": 0, "rental_uris": {"android": "https://dc.lft.to/lastmile_qr_scan", "ios": "https://dc.lft.to/lastmile_qr_scan"}, "fusion_lon": 0.0}, {"lat": 38.89988566666667, "is_disabled": 0, "type": "electric_scooter", "lon": -77.04227183333333, "bike_id": "15f352d58a11a1cfd5c5cddfd3817dbd", "fusion_lat": 0.0, "name": "15f352d58a11a1cfd5c5cddfd3817dbd", "is_reserved": 0, "rental_uris": {"android": "https://dc.lft.to/lastmile_qr_scan", "ios": "https://dc.lft.to/lastmile_qr_scan"}, "fusion_lon": 0.0}, {"lat": 38.905773333333336, "is_disabled": 0, "type": "electric_scooter", "lon": -77.0050215, "bike_id": "d6a045fd92d954f549a08f021700ab5b", "fusion_lat": 0.0, "name": "d6a045fd92d954f549a08f021700ab5b", "is_reserved": 0, "rental_uris": {"android": "https://dc.lft.to/lastmile_qr_scan", "ios": "https://dc.lft.to/lastmile_qr_scan"}, "fusion_lon": 0.0}, {"lat": 38.91533883333334, "is_disabled": 0, "type": "electric_scooter", "lon": -77.03204583333333, "bike_id": "817de0e14e2b92dc6fc0cc91aff0dff1", "fusion_lat": 0.0, "name": "817de0e14e2b92dc6fc0cc91aff0dff1", "is_reserved": 0, "rental_uris": {"android": "https://dc.lft.to/lastmile_qr_scan", "ios": "https://dc.lft.to/lastmile_qr_scan"}, "fusion_lon": 0.0}, {"lat": 38.948209, "is_disabled": 0, "type": "electric_scooter", "lon": -76.99903283333333, "bike_id": "5781f5ea5dbd0f7a96115ad4c24a5d07", "fusion_lat": 0.0, "name": "5781f5ea5dbd0f7a96115ad4c24a5d07", "is_reserved": 0, "rental_uris": {"android": "https://dc.lft.to/lastmile_qr_scan", "ios": "https://dc.lft.to/lastmile_qr_scan"}, "fusion_lon": 0.0}, {"lat": 38.916421, "is_disabled": 0, "type": "electric_scooter", "lon": -77.02695066666666, "bike_id": "1ab9326ccd6f615731aeec546405eef5", "fusion_lat": 0.0, "name": "1ab9326ccd6f615731aeec546405eef5", "is_reserved": 0, "rental_uris": {"android": "https://dc.lft.to/lastmile_qr_scan", "ios": "https://dc.lft.to/lastmile_qr_scan"}, "fusion_lon": 0.0}, {"lat": 38.895300166666665, "is_disabled": 0, "type": "electric_scooter", "lon": -77.00066116666666, "bike_id": "45cd0fdff71fbe87672cfcd8230687d6", "fusion_lat": 0.0, "name": "45cd0fdff71fbe87672cfcd8230687d6", "is_reserved": 0, "rental_uris": {"android": "https://dc.lft.to/lastmile_qr_scan", "ios": "https://dc.lft.to/lastmile_qr_scan"}, "fusion_lon": 0.0}, {"lat": 38.944969, "is_disabled": 0, "type": "electric_bike", "lon": -77.00682816666666, "bike_id": "744955a638b445dfbfdb75b6ef4757dd", "fusion_lat": 0.0, "name": "744955a638b445dfbfdb75b6ef4757dd", "is_reserved": 0, "rental_uris": {"android": "https://dc.lft.to/lastmile_qr_scan", "ios": "https://dc.lft.to/lastmile_qr_scan"}, "fusion_lon": 0.0}, {"lat": 38.96622633333333, "is_disabled": 0, "type": "electric_bike", "lon": -76.97667783333333, "bike_id": "37a3a4f9d8cb52300efb15444aa8c823", "fusion_lat": 0.0, "name": "37a3a4f9d8cb52300efb15444aa8c823", "is_reserved": 0, "rental_uris": {"android": "https://dc.lft.to/lastmile_qr_scan", "ios": "https://dc.lft.to/lastmile_qr_scan"}, "fusion_lon": 0.0}, {"lat": 38.950554833333335, "is_disabled": 0, "type": "electric_scooter", "lon": -77.0072235, "bike_id": "274f9d551defa26b896649a51e04f3a0", "fusion_lat": 0.0, "name": "274f9d551defa26b896649a51e04f3a0", "is_reserved": 0, "rental_uris": {"android": "https://dc.lft.to/lastmile_qr_scan", "ios": "https://dc.lft.to/lastmile_qr_scan"}, "fusion_lon": 0.0}, {"lat": 38.94838033333333, "is_disabled": 0, "type": "electric_scooter", "lon": -77.0257745, "bike_id": "5e09fb80ffcbb952faf7ca5a06d9a308", "fusion_lat": 0.0, "name": "5e09fb80ffcbb952faf7ca5a06d9a308", "is_reserved": 0, "rental_uris": {"android": "https://dc.lft.to/lastmile_qr_scan", "ios": "https://dc.lft.to/lastmile_qr_scan"}, "fusion_lon": 0.0}, {"lat": 38.863645166666664, "is_disabled": 0, "type": "electric_scooter", "lon": -76.99031116666667, "bike_id": "aada3535c07305ab903ffbb80b9f1644", "fusion_lat": 0.0, "name": "aada3535c07305ab903ffbb80b9f1644", "is_reserved": 0, "rental_uris": {"android": "https://dc.lft.to/lastmile_qr_scan", "ios": "https://dc.lft.to/lastmile_qr_scan"}, "fusion_lon": 0.0}, {"lat": 38.929149833333334, "is_disabled": 0, "type": "electric_scooter", "lon": -77.03740433333333, "bike_id": "1bd126564e11e3fdc9fad4549a2765b0", "fusion_lat": 0.0, "name": "1bd126564e11e3fdc9fad4549a2765b0", "is_reserved": 0, "rental_uris": {"android": "https://dc.lft.to/lastmile_qr_scan", "ios": "https://dc.lft.to/lastmile_qr_scan"}, "fusion_lon": 0.0}, {"lat": 38.90836816666667, "is_disabled": 0, "type": "electric_scooter", "lon": -77.000821, "bike_id": "270b6a87e43df04e4a36b8eceaa5d908", "fusion_lat": 0.0, "name": "270b6a87e43df04e4a36b8eceaa5d908", "is_reserved": 0, "rental_uris": {"android": "https://dc.lft.to/lastmile_qr_scan", "ios": "https://dc.lft.to/lastmile_qr_scan"}, "fusion_lon": 0.0}, {"lat": 38.87143016666667, "is_disabled": 0, "type": "electric_bike", "lon": -76.93669833333334, "bike_id": "5d0466c0994c637a047be8cf22ec7b89", "fusion_lat": 0.0, "name": "5d0466c0994c637a047be8cf22ec7b89", "is_reserved": 0, "rental_uris": {"android": "https://dc.lft.to/lastmile_qr_scan", "ios": "https://dc.lft.to/lastmile_qr_scan"}, "fusion_lon": 0.0}, {"lat": 38.91567333333333, "is_disabled": 0, "type": "electric_scooter", "lon": -77.0385175, "bike_id": "261d3f3d8a8c9ac63797875cbbcfc57b", "fusion_lat": 0.0, "name": "261d3f3d8a8c9ac63797875cbbcfc57b", "is_reserved": 0, "rental_uris": {"android": "https://dc.lft.to/lastmile_qr_scan", "ios": "https://dc.lft.to/lastmile_qr_scan"}, "fusion_lon": 0.0}, {"lat": 38.91004233333334, "is_disabled": 0, "type": "electric_scooter", "lon": -77.04006716666666, "bike_id": "eee152a46405d977b9cc795cb41a8aa6", "fusion_lat": 0.0, "name": "eee152a46405d977b9cc795cb41a8aa6", "is_reserved": 0, "rental_uris": {"android": "https://dc.lft.to/lastmile_qr_scan", "ios": "https://dc.lft.to/lastmile_qr_scan"}, "fusion_lon": 0.0}, {"lat": 38.90275333333334, "is_disabled": 0, "type": "electric_scooter", "lon": -77.01155133333333, "bike_id": "cd7f3e2d1bfb565eea9375edd08a0bb5", "fusion_lat": 0.0, "name": "cd7f3e2d1bfb565eea9375edd08a0bb5", "is_reserved": 0, "rental_uris": {"android": "https://dc.lft.to/lastmile_qr_scan", "ios": "https://dc.lft.to/lastmile_qr_scan"}, "fusion_lon": 0.0}, {"lat": 38.9056, "is_disabled": 0, "type": "electric_scooter", "lon": -77.04317366666666, "bike_id": "54fd34aed082cf852435005f876c3ebc", "fusion_lat": 0.0, "name": "54fd34aed082cf852435005f876c3ebc", "is_reserved": 0, "rental_uris": {"android": "https://dc.lft.to/lastmile_qr_scan", "ios": "https://dc.lft.to/lastmile_qr_scan"}, "fusion_lon": 0.0}, {"lat": 38.9234995, "is_disabled": 0, "type": "electric_scooter", "lon": -77.03498716666667, "bike_id": "da9562e94c127d334dcea21e89656d5b", "fusion_lat": 0.0, "name": "da9562e94c127d334dcea21e89656d5b", "is_reserved": 0, "rental_uris": {"android": "https://dc.lft.to/lastmile_qr_scan", "ios": "https://dc.lft.to/lastmile_qr_scan"}, "fusion_lon": 0.0}, {"lat": 38.9358695, "is_disabled": 0, "type": "electric_bike", "lon": -77.10688483333334, "bike_id": "b18be23bfba6fb590ea5ce0aad6bedd2", "fusion_lat": 0.0, "name": "b18be23bfba6fb590ea5ce0aad6bedd2", "is_reserved": 0, "rental_uris": {"android": "https://dc.lft.to/lastmile_qr_scan", "ios": "https://dc.lft.to/lastmile_qr_scan"}, "fusion_lon": 0.0}, {"lat": 38.91687266666667, "is_disabled": 0, "type": "electric_scooter", "lon": -77.02692766666667, "bike_id": "6441b00ca2e96cc3ddb02e1e41dc664e", "fusion_lat": 0.0, "name": "6441b00ca2e96cc3ddb02e1e41dc664e", "is_reserved": 0, "rental_uris": {"android": "https://dc.lft.to/lastmile_qr_scan", "ios": "https://dc.lft.to/lastmile_qr_scan"}, "fusion_lon": 0.0}, {"lat": 38.9038005, "is_disabled": 0, "type": "electric_scooter", "lon": -77.0088095, "bike_id": "8b9c7b5ea208506f7d3501c5c69b373e", "fusion_lat": 0.0, "name": "8b9c7b5ea208506f7d3501c5c69b373e", "is_reserved": 0, "rental_uris": {"android": "https://dc.lft.to/lastmile_qr_scan", "ios": "https://dc.lft.to/lastmile_qr_scan"}, "fusion_lon": 0.0}, {"lat": 38.94138266666667, "is_disabled": 0, "type": "electric_scooter", "lon": -77.076163, "bike_id": "45ed383276e1dffcac60bbec2fc2628d", "fusion_lat": 0.0, "name": "45ed383276e1dffcac60bbec2fc2628d", "is_reserved": 0, "rental_uris": {"android": "https://dc.lft.to/lastmile_qr_scan", "ios": "https://dc.lft.to/lastmile_qr_scan"}, "fusion_lon": 0.0}, {"lat": 38.92050066666667, "is_disabled": 0, "type": "electric_scooter", "lon": -77.02372183333334, "bike_id": "d8d45c737168e904f51f64cd4cee3229", "fusion_lat": 0.0, "name": "d8d45c737168e904f51f64cd4cee3229", "is_reserved": 0, "rental_uris": {"android": "https://dc.lft.to/lastmile_qr_scan", "ios": "https://dc.lft.to/lastmile_qr_scan"}, "fusion_lon": 0.0}, {"lat": 38.90025216666667, "is_disabled": 0, "type": "electric_scooter", "lon": -77.0330805, "bike_id": "a9c66e496f73736c3136cf516c7a38b9", "fusion_lat": 0.0, "name": "a9c66e496f73736c3136cf516c7a38b9", "is_reserved": 0, "rental_uris": {"android": "https://dc.lft.to/lastmile_qr_scan", "ios": "https://dc.lft.to/lastmile_qr_scan"}, "fusion_lon": 0.0}, {"lat": 38.9002915, "is_disabled": 0, "type": "electric_scooter", "lon": -77.03337633333334, "bike_id": "df0abc0301be33752174fa833421a03d", "fusion_lat": 0.0, "name": "df0abc0301be33752174fa833421a03d", "is_reserved": 0, "rental_uris": {"android": "https://dc.lft.to/lastmile_qr_scan", "ios": "https://dc.lft.to/lastmile_qr_scan"}, "fusion_lon": 0.0}, {"lat": 38.909518, "is_disabled": 0, "type": "electric_scooter", "lon": -77.04658766666667, "bike_id": "8ddad1b88f457b79ae4cc5dccc42d512", "fusion_lat": 0.0, "name": "8ddad1b88f457b79ae4cc5dccc42d512", "is_reserved": 0, "rental_uris": {"android": "https://dc.lft.to/lastmile_qr_scan", "ios": "https://dc.lft.to/lastmile_qr_scan"}, "fusion_lon": 0.0}, {"lat": 38.9253365, "is_disabled": 0, "type": "electric_scooter", "lon": -77.04428833333333, "bike_id": "03ea700fbfdd1ec6e3dff4c4a66cacd7", "fusion_lat": 0.0, "name": "03ea700fbfdd1ec6e3dff4c4a66cacd7", "is_reserved": 0, "rental_uris": {"android": "https://dc.lft.to/lastmile_qr_scan", "ios": "https://dc.lft.to/lastmile_qr_scan"}, "fusion_lon": 0.0}, {"lat": 38.807474666666664, "is_disabled": 0, "type": "electric_bike", "lon": -77.09430383333333, "bike_id": "8dec8bb33af30234b66b1300c2e1a841", "fusion_lat": 0.0, "name": "8dec8bb33af30234b66b1300c2e1a841", "is_reserved": 0, "rental_uris": {"android": "https://dc.lft.to/lastmile_qr_scan", "ios": "https://dc.lft.to/lastmile_qr_scan"}, "fusion_lon": 0.0}, {"lat": 38.90033533333333, "is_disabled": 0, "type": "electric_scooter", "lon": -76.99372733333334, "bike_id": "119b44ebcc46f4827f5d7d0c8b2b1c80", "fusion_lat": 0.0, "name": "119b44ebcc46f4827f5d7d0c8b2b1c80", "is_reserved": 0, "rental_uris": {"android": "https://dc.lft.to/lastmile_qr_scan", "ios": "https://dc.lft.to/lastmile_qr_scan"}, "fusion_lon": 0.0}, {"lat": 38.93759, "is_disabled": 0, "type": "electric_scooter", "lon": -77.03141566666666, "bike_id": "b2797d21f70283e17285cdc05d286207", "fusion_lat": 0.0, "name": "b2797d21f70283e17285cdc05d286207", "is_reserved": 0, "rental_uris": {"android": "https://dc.lft.to/lastmile_qr_scan", "ios": "https://dc.lft.to/lastmile_qr_scan"}, "fusion_lon": 0.0}, {"lat": 38.91484066666666, "is_disabled": 0, "type": "electric_scooter", "lon": -77.0326305, "bike_id": "ecb9a64ddf9cec721e6b081a7a079a8a", "fusion_lat": 0.0, "name": "ecb9a64ddf9cec721e6b081a7a079a8a", "is_reserved": 0, "rental_uris": {"android": "https://dc.lft.to/lastmile_qr_scan", "ios": "https://dc.lft.to/lastmile_qr_scan"}, "fusion_lon": 0.0}, {"lat": 38.92188266666667, "is_disabled": 0, "type": "electric_scooter", "lon": -77.04132516666667, "bike_id": "610c16d8433c6df02a03904d358dc2f3", "fusion_lat": 0.0, "name": "610c16d8433c6df02a03904d358dc2f3", "is_reserved": 0, "rental_uris": {"android": "https://dc.lft.to/lastmile_qr_scan", "ios": "https://dc.lft.to/lastmile_qr_scan"}, "fusion_lon": 0.0}, {"lat": 38.935355333333334, "is_disabled": 0, "type": "electric_scooter", "lon": -77.03424633333333, "bike_id": "0ccac10ff81f39e42cfb2f6584e39b9f", "fusion_lat": 0.0, "name": "0ccac10ff81f39e42cfb2f6584e39b9f", "is_reserved": 0, "rental_uris": {"android": "https://dc.lft.to/lastmile_qr_scan", "ios": "https://dc.lft.to/lastmile_qr_scan"}, "fusion_lon": 0.0}, {"lat": 38.9470615, "is_disabled": 0, "type": "electric_scooter", "lon": -77.0194025, "bike_id": "46be92849e6a001a13a34a662f7978b8", "fusion_lat": 0.0, "name": "46be92849e6a001a13a34a662f7978b8", "is_reserved": 0, "rental_uris": {"android": "https://dc.lft.to/lastmile_qr_scan", "ios": "https://dc.lft.to/lastmile_qr_scan"}, "fusion_lon": 0.0}, {"lat": 38.9079675, "is_disabled": 0, "type": "electric_scooter", "lon": -77.06378566666666, "bike_id": "22025c0a77ca707c27df5f9a682118da", "fusion_lat": 0.0, "name": "22025c0a77ca707c27df5f9a682118da", "is_reserved": 0, "rental_uris": {"android": "https://dc.lft.to/lastmile_qr_scan", "ios": "https://dc.lft.to/lastmile_qr_scan"}, "fusion_lon": 0.0}, {"lat": 38.884879166666664, "is_disabled": 0, "type": "electric_scooter", "lon": -77.03474483333333, "bike_id": "624af0b410496469a09fae44f579d3b2", "fusion_lat": 0.0, "name": "624af0b410496469a09fae44f579d3b2", "is_reserved": 0, "rental_uris": {"android": "https://dc.lft.to/lastmile_qr_scan", "ios": "https://dc.lft.to/lastmile_qr_scan"}, "fusion_lon": 0.0}, {"lat": 38.928504833333335, "is_disabled": 0, "type": "electric_bike", "lon": -77.10676866666667, "bike_id": "d3829304c0c6f5f5266c69a844d333b2", "fusion_lat": 0.0, "name": "d3829304c0c6f5f5266c69a844d333b2", "is_reserved": 0, "rental_uris": {"android": "https://dc.lft.to/lastmile_qr_scan", "ios": "https://dc.lft.to/lastmile_qr_scan"}, "fusion_lon": 0.0}, {"lat": 38.920556, "is_disabled": 0, "type": "electric_scooter", "lon": -76.97610016666667, "bike_id": "92e40ca1b9017f046aab9c69739ba0d0", "fusion_lat": 0.0, "name": "92e40ca1b9017f046aab9c69739ba0d0", "is_reserved": 0, "rental_uris": {"android": "https://dc.lft.to/lastmile_qr_scan", "ios": "https://dc.lft.to/lastmile_qr_scan"}, "fusion_lon": 0.0}, {"lat": 38.9014345, "is_disabled": 0, "type": "electric_scooter", "lon": -77.03331783333333, "bike_id": "8cb1d6dceda0e590589f97554378ff88", "fusion_lat": 0.0, "name": "8cb1d6dceda0e590589f97554378ff88", "is_reserved": 0, "rental_uris": {"android": "https://dc.lft.to/lastmile_qr_scan", "ios": "https://dc.lft.to/lastmile_qr_scan"}, "fusion_lon": 0.0}, {"lat": 38.90108133333333, "is_disabled": 0, "type": "electric_scooter", "lon": -77.05899983333333, "bike_id": "711fde66ec46809428eabc08be17bb47", "fusion_lat": 0.0, "name": "711fde66ec46809428eabc08be17bb47", "is_reserved": 0, "rental_uris": {"android": "https://dc.lft.to/lastmile_qr_scan", "ios": "https://dc.lft.to/lastmile_qr_scan"}, "fusion_lon": 0.0}, {"lat": 38.91693216666667, "is_disabled": 0, "type": "electric_scooter", "lon": -77.0459605, "bike_id": "409cdff9e7cfe077b727db4d5d3a32e8", "fusion_lat": 0.0, "name": "409cdff9e7cfe077b727db4d5d3a32e8", "is_reserved": 0, "rental_uris": {"android": "https://dc.lft.to/lastmile_qr_scan", "ios": "https://dc.lft.to/lastmile_qr_scan"}, "fusion_lon": 0.0}, {"lat": 38.923020333333334, "is_disabled": 0, "type": "electric_scooter", "lon": -77.02334233333333, "bike_id": "18a3abf251738e7cb92e122147434157", "fusion_lat": 0.0, "name": "18a3abf251738e7cb92e122147434157", "is_reserved": 0, "rental_uris": {"android": "https://dc.lft.to/lastmile_qr_scan", "ios": "https://dc.lft.to/lastmile_qr_scan"}, "fusion_lon": 0.0}, {"lat": 38.939786833333336, "is_disabled": 0, "type": "electric_scooter", "lon": -77.02627316666667, "bike_id": "9c6130cde1c336a6fedb11f950621ce3", "fusion_lat": 0.0, "name": "9c6130cde1c336a6fedb11f950621ce3", "is_reserved": 0, "rental_uris": {"android": "https://dc.lft.to/lastmile_qr_scan", "ios": "https://dc.lft.to/lastmile_qr_scan"}, "fusion_lon": 0.0}, {"lat": 38.90737416666666, "is_disabled": 0, "type": "electric_scooter", "lon": -77.0295325, "bike_id": "41691288d88d36ca3339f97b451f7441", "fusion_lat": 0.0, "name": "41691288d88d36ca3339f97b451f7441", "is_reserved": 0, "rental_uris": {"android": "https://dc.lft.to/lastmile_qr_scan", "ios": "https://dc.lft.to/lastmile_qr_scan"}, "fusion_lon": 0.0}, {"lat": 38.898939166666665, "is_disabled": 0, "type": "electric_scooter", "lon": -77.072366, "bike_id": "6ae710ea0547e322686c3c2965b4fe54", "fusion_lat": 0.0, "name": "6ae710ea0547e322686c3c2965b4fe54", "is_reserved": 0, "rental_uris": {"android": "https://dc.lft.to/lastmile_qr_scan", "ios": "https://dc.lft.to/lastmile_qr_scan"}, "fusion_lon": 0.0}, {"lat": 38.93297416666667, "is_disabled": 0, "type": "electric_scooter", "lon": -77.02197133333334, "bike_id": "8d4c94fdf476afb7b2f15acdb3a2bab9", "fusion_lat": 0.0, "name": "8d4c94fdf476afb7b2f15acdb3a2bab9", "is_reserved": 0, "rental_uris": {"android": "https://dc.lft.to/lastmile_qr_scan", "ios": "https://dc.lft.to/lastmile_qr_scan"}, "fusion_lon": 0.0}, {"lat": 38.872918166666665, "is_disabled": 0, "type": "electric_scooter", "lon": -77.00930683333333, "bike_id": "92c50c1d00e318266f8dc1bf60f9c378", "fusion_lat": 0.0, "name": "92c50c1d00e318266f8dc1bf60f9c378", "is_reserved": 0, "rental_uris": {"android": "https://dc.lft.to/lastmile_qr_scan", "ios": "https://dc.lft.to/lastmile_qr_scan"}, "fusion_lon": 0.0}, {"lat": 38.912401833333334, "is_disabled": 0, "type": "electric_scooter", "lon": -77.0466645, "bike_id": "c2a318ea2116a0be6038530cc640446e", "fusion_lat": 0.0, "name": "c2a318ea2116a0be6038530cc640446e", "is_reserved": 0, "rental_uris": {"android": "https://dc.lft.to/lastmile_qr_scan", "ios": "https://dc.lft.to/lastmile_qr_scan"}, "fusion_lon": 0.0}, {"lat": 38.904938, "is_disabled": 0, "type": "electric_scooter", "lon": -76.995425, "bike_id": "a9f2f2584968e88bb9ce81d5215f4a6b", "fusion_lat": 0.0, "name": "a9f2f2584968e88bb9ce81d5215f4a6b", "is_reserved": 0, "rental_uris": {"android": "https://dc.lft.to/lastmile_qr_scan", "ios": "https://dc.lft.to/lastmile_qr_scan"}, "fusion_lon": 0.0}, {"lat": 38.91262016666667, "is_disabled": 0, "type": "electric_scooter", "lon": -77.03026716666666, "bike_id": "7d0f62007ff789e05d957e4fb53e94cb", "fusion_lat": 0.0, "name": "7d0f62007ff789e05d957e4fb53e94cb", "is_reserved": 0, "rental_uris": {"android": "https://dc.lft.to/lastmile_qr_scan", "ios": "https://dc.lft.to/lastmile_qr_scan"}, "fusion_lon": 0.0}, {"lat": 38.93868466666667, "is_disabled": 0, "type": "electric_scooter", "lon": -77.02592233333333, "bike_id": "08784ab6e5517f7ee93f5757af15ef08", "fusion_lat": 0.0, "name": "08784ab6e5517f7ee93f5757af15ef08", "is_reserved": 0, "rental_uris": {"android": "https://dc.lft.to/lastmile_qr_scan", "ios": "https://dc.lft.to/lastmile_qr_scan"}, "fusion_lon": 0.0}, {"lat": 38.9072725, "is_disabled": 0, "type": "electric_scooter", "lon": -77.02503416666667, "bike_id": "15bd5e91d1e4de0201b36925596024ed", "fusion_lat": 0.0, "name": "15bd5e91d1e4de0201b36925596024ed", "is_reserved": 0, "rental_uris": {"android": "https://dc.lft.to/lastmile_qr_scan", "ios": "https://dc.lft.to/lastmile_qr_scan"}, "fusion_lon": 0.0}, {"lat": 38.90387116666667, "is_disabled": 0, "type": "electric_scooter", "lon": -76.98491, "bike_id": "577b42d53faf3a9a601b249d9342e970", "fusion_lat": 0.0, "name": "577b42d53faf3a9a601b249d9342e970", "is_reserved": 0, "rental_uris": {"android": "https://dc.lft.to/lastmile_qr_scan", "ios": "https://dc.lft.to/lastmile_qr_scan"}, "fusion_lon": 0.0}, {"lat": 38.91784766666667, "is_disabled": 0, "type": "electric_scooter", "lon": -77.02276883333333, "bike_id": "e0c9094743e8d7135f2562408d52c9db", "fusion_lat": 0.0, "name": "e0c9094743e8d7135f2562408d52c9db", "is_reserved": 0, "rental_uris": {"android": "https://dc.lft.to/lastmile_qr_scan", "ios": "https://dc.lft.to/lastmile_qr_scan"}, "fusion_lon": 0.0}, {"lat": 38.915563166666665, "is_disabled": 0, "type": "electric_scooter", "lon": -77.00976033333333, "bike_id": "bd02e21dff930ba936c1c55ea2f3fb58", "fusion_lat": 0.0, "name": "bd02e21dff930ba936c1c55ea2f3fb58", "is_reserved": 0, "rental_uris": {"android": "https://dc.lft.to/lastmile_qr_scan", "ios": "https://dc.lft.to/lastmile_qr_scan"}, "fusion_lon": 0.0}, {"lat": 38.9460555, "is_disabled": 0, "type": "electric_scooter", "lon": -77.07037016666666, "bike_id": "5054e40fd3926abbf37f09d2191a65de", "fusion_lat": 0.0, "name": "5054e40fd3926abbf37f09d2191a65de", "is_reserved": 0, "rental_uris": {"android": "https://dc.lft.to/lastmile_qr_scan", "ios": "https://dc.lft.to/lastmile_qr_scan"}, "fusion_lon": 0.0}, {"lat": 38.9238595, "is_disabled": 0, "type": "electric_scooter", "lon": -77.02762866666667, "bike_id": "9b269d782d9658f8d5c20e6a07972628", "fusion_lat": 0.0, "name": "9b269d782d9658f8d5c20e6a07972628", "is_reserved": 0, "rental_uris": {"android": "https://dc.lft.to/lastmile_qr_scan", "ios": "https://dc.lft.to/lastmile_qr_scan"}, "fusion_lon": 0.0}, {"lat": 38.844329, "is_disabled": 0, "type": "electric_scooter", "lon": -76.99812716666666, "bike_id": "4b7fdc1affc5e89100f93294f5661d65", "fusion_lat": 0.0, "name": "4b7fdc1affc5e89100f93294f5661d65", "is_reserved": 0, "rental_uris": {"android": "https://dc.lft.to/lastmile_qr_scan", "ios": "https://dc.lft.to/lastmile_qr_scan"}, "fusion_lon": 0.0}, {"lat": 38.854335166666665, "is_disabled": 0, "type": "electric_bike", "lon": -76.90974016666667, "bike_id": "51957002fe19262bc7bc8b08e554905e", "fusion_lat": 0.0, "name": "51957002fe19262bc7bc8b08e554905e", "is_reserved": 0, "rental_uris": {"android": "https://dc.lft.to/lastmile_qr_scan", "ios": "https://dc.lft.to/lastmile_qr_scan"}, "fusion_lon": 0.0}, {"lat": 38.81051516666667, "is_disabled": 0, "type": "electric_bike", "lon": -77.08507383333334, "bike_id": "733f2ba196c42cd35da844b9f8f6fe06", "fusion_lat": 0.0, "name": "733f2ba196c42cd35da844b9f8f6fe06", "is_reserved": 0, "rental_uris": {"android": "https://dc.lft.to/lastmile_qr_scan", "ios": "https://dc.lft.to/lastmile_qr_scan"}, "fusion_lon": 0.0}, {"lat": 38.917805, "is_disabled": 0, "type": "electric_scooter", "lon": -77.0226205, "bike_id": "6b8aa8849f54a913bbb84886fb57b34c", "fusion_lat": 0.0, "name": "6b8aa8849f54a913bbb84886fb57b34c", "is_reserved": 0, "rental_uris": {"android": "https://dc.lft.to/lastmile_qr_scan", "ios": "https://dc.lft.to/lastmile_qr_scan"}, "fusion_lon": 0.0}, {"lat": 38.917895666666666, "is_disabled": 0, "type": "electric_scooter", "lon": -77.02299566666667, "bike_id": "28f9334fc030b45c97e2538b8540e61c", "fusion_lat": 0.0, "name": "28f9334fc030b45c97e2538b8540e61c", "is_reserved": 0, "rental_uris": {"android": "https://dc.lft.to/lastmile_qr_scan", "ios": "https://dc.lft.to/lastmile_qr_scan"}, "fusion_lon": 0.0}, {"lat": 38.9210405, "is_disabled": 0, "type": "electric_scooter", "lon": -77.04218283333333, "bike_id": "45ab05cd975cbce7bdf8a1169c6b4878", "fusion_lat": 0.0, "name": "45ab05cd975cbce7bdf8a1169c6b4878", "is_reserved": 0, "rental_uris": {"android": "https://dc.lft.to/lastmile_qr_scan", "ios": "https://dc.lft.to/lastmile_qr_scan"}, "fusion_lon": 0.0}, {"lat": 38.960226666666664, "is_disabled": 0, "type": "electric_bike", "lon": -77.017254, "bike_id": "578a63632798eb35baaf06f4b9faa2ef", "fusion_lat": 0.0, "name": "578a63632798eb35baaf06f4b9faa2ef", "is_reserved": 0, "rental_uris": {"android": "https://dc.lft.to/lastmile_qr_scan", "ios": "https://dc.lft.to/lastmile_qr_scan"}, "fusion_lon": 0.0}, {"lat": 38.921510833333336, "is_disabled": 0, "type": "electric_scooter", "lon": -77.03506366666667, "bike_id": "0e14ce8cbbd5869d3917438250f7f994", "fusion_lat": 0.0, "name": "0e14ce8cbbd5869d3917438250f7f994", "is_reserved": 0, "rental_uris": {"android": "https://dc.lft.to/lastmile_qr_scan", "ios": "https://dc.lft.to/lastmile_qr_scan"}, "fusion_lon": 0.0}, {"lat": 39.0293155, "is_disabled": 0, "type": "electric_bike", "lon": -77.0492555, "bike_id": "628d472f25b021f65b3b450eee45845d", "fusion_lat": 0.0, "name": "628d472f25b021f65b3b450eee45845d", "is_reserved": 0, "rental_uris": {"android": "https://dc.lft.to/lastmile_qr_scan", "ios": "https://dc.lft.to/lastmile_qr_scan"}, "fusion_lon": 0.0}, {"lat": 38.935329333333335, "is_disabled": 0, "type": "electric_bike", "lon": -77.0569375, "bike_id": "df9b8ca2c2a965cacf3ce6ca34cdfa70", "fusion_lat": 0.0, "name": "df9b8ca2c2a965cacf3ce6ca34cdfa70", "is_reserved": 0, "rental_uris": {"android": "https://dc.lft.to/lastmile_qr_scan", "ios": "https://dc.lft.to/lastmile_qr_scan"}, "fusion_lon": 0.0}, {"lat": 38.884698666666665, "is_disabled": 0, "type": "electric_scooter", "lon": -76.99261333333334, "bike_id": "ceb5ab7e6ca2bcc281e091fa4b036f34", "fusion_lat": 0.0, "name": "ceb5ab7e6ca2bcc281e091fa4b036f34", "is_reserved": 0, "rental_uris": {"android": "https://dc.lft.to/lastmile_qr_scan", "ios": "https://dc.lft.to/lastmile_qr_scan"}, "fusion_lon": 0.0}, {"lat": 38.90973983333333, "is_disabled": 0, "type": "electric_scooter", "lon": -77.0343765, "bike_id": "19566ed9c3db271f623def71b35d2eec", "fusion_lat": 0.0, "name": "19566ed9c3db271f623def71b35d2eec", "is_reserved": 0, "rental_uris": {"android": "https://dc.lft.to/lastmile_qr_scan", "ios": "https://dc.lft.to/lastmile_qr_scan"}, "fusion_lon": 0.0}, {"lat": 38.91198266666667, "is_disabled": 0, "type": "electric_bike", "lon": -77.04499716666666, "bike_id": "473248a72e47424d2f4e023d4ae7f04c", "fusion_lat": 0.0, "name": "473248a72e47424d2f4e023d4ae7f04c", "is_reserved": 0, "rental_uris": {"android": "https://dc.lft.to/lastmile_qr_scan", "ios": "https://dc.lft.to/lastmile_qr_scan"}, "fusion_lon": 0.0}, {"lat": 38.884904, "is_disabled": 0, "type": "electric_scooter", "lon": -77.00711483333333, "bike_id": "04920526601ea91490de670395c936ec", "fusion_lat": 0.0, "name": "04920526601ea91490de670395c936ec", "is_reserved": 0, "rental_uris": {"android": "https://dc.lft.to/lastmile_qr_scan", "ios": "https://dc.lft.to/lastmile_qr_scan"}, "fusion_lon": 0.0}, {"lat": 38.9031525, "is_disabled": 0, "type": "electric_scooter", "lon": -76.99362183333334, "bike_id": "6469ebca3ed7cd3cdb6ece5819a1caea", "fusion_lat": 0.0, "name": "6469ebca3ed7cd3cdb6ece5819a1caea", "is_reserved": 0, "rental_uris": {"android": "https://dc.lft.to/lastmile_qr_scan", "ios": "https://dc.lft.to/lastmile_qr_scan"}, "fusion_lon": 0.0}, {"lat": 38.8730105, "is_disabled": 0, "type": "electric_scooter", "lon": -77.00930783333334, "bike_id": "7600bb30b265e731f28b784896dfb835", "fusion_lat": 0.0, "name": "7600bb30b265e731f28b784896dfb835", "is_reserved": 0, "rental_uris": {"android": "https://dc.lft.to/lastmile_qr_scan", "ios": "https://dc.lft.to/lastmile_qr_scan"}, "fusion_lon": 0.0}, {"lat": 38.953294166666666, "is_disabled": 0, "type": "electric_scooter", "lon": -77.02757016666666, "bike_id": "c72725622e1c33742f08367d224a46fc", "fusion_lat": 0.0, "name": "c72725622e1c33742f08367d224a46fc", "is_reserved": 0, "rental_uris": {"android": "https://dc.lft.to/lastmile_qr_scan", "ios": "https://dc.lft.to/lastmile_qr_scan"}, "fusion_lon": 0.0}, {"lat": 38.91423983333333, "is_disabled": 0, "type": "electric_scooter", "lon": -77.02185183333333, "bike_id": "fa60716bced0937229d735979fc72b38", "fusion_lat": 0.0, "name": "fa60716bced0937229d735979fc72b38", "is_reserved": 0, "rental_uris": {"android": "https://dc.lft.to/lastmile_qr_scan", "ios": "https://dc.lft.to/lastmile_qr_scan"}, "fusion_lon": 0.0}, {"lat": 38.807530666666665, "is_disabled": 0, "type": "electric_bike", "lon": -77.0947955, "bike_id": "fe83364e104a0faec34fea1965d8d211", "fusion_lat": 0.0, "name": "fe83364e104a0faec34fea1965d8d211", "is_reserved": 0, "rental_uris": {"android": "https://dc.lft.to/lastmile_qr_scan", "ios": "https://dc.lft.to/lastmile_qr_scan"}, "fusion_lon": 0.0}, {"lat": 38.922991333333336, "is_disabled": 0, "type": "electric_scooter", "lon": -77.04146666666666, "bike_id": "937b487fadcc48f20bf3ca5814720153", "fusion_lat": 0.0, "name": "937b487fadcc48f20bf3ca5814720153", "is_reserved": 0, "rental_uris": {"android": "https://dc.lft.to/lastmile_qr_scan", "ios": "https://dc.lft.to/lastmile_qr_scan"}, "fusion_lon": 0.0}, {"lat": 38.958209833333335, "is_disabled": 0, "type": "electric_bike", "lon": -76.94094016666666, "bike_id": "6c40447f5374527e2a7ce2cb706fb234", "fusion_lat": 0.0, "name": "6c40447f5374527e2a7ce2cb706fb234", "is_reserved": 0, "rental_uris": {"android": "https://dc.lft.to/lastmile_qr_scan", "ios": "https://dc.lft.to/lastmile_qr_scan"}, "fusion_lon": 0.0}, {"lat": 38.92708833333333, "is_disabled": 0, "type": "electric_scooter", "lon": -77.020974, "bike_id": "bab658ec08170329de2cfc9fed1ea960", "fusion_lat": 0.0, "name": "bab658ec08170329de2cfc9fed1ea960", "is_reserved": 0, "rental_uris": {"android": "https://dc.lft.to/lastmile_qr_scan", "ios": "https://dc.lft.to/lastmile_qr_scan"}, "fusion_lon": 0.0}, {"lat": 38.92838066666667, "is_disabled": 0, "type": "electric_scooter", "lon": -77.0138885, "bike_id": "c90c90da4aaedda6573a804fa2f6104a", "fusion_lat": 0.0, "name": "c90c90da4aaedda6573a804fa2f6104a", "is_reserved": 0, "rental_uris": {"android": "https://dc.lft.to/lastmile_qr_scan", "ios": "https://dc.lft.to/lastmile_qr_scan"}, "fusion_lon": 0.0}, {"lat": 38.91840766666667, "is_disabled": 0, "type": "electric_scooter", "lon": -77.032187, "bike_id": "3100b6ccd21646be3ec1a5938dd8c7dc", "fusion_lat": 0.0, "name": "3100b6ccd21646be3ec1a5938dd8c7dc", "is_reserved": 0, "rental_uris": {"android": "https://dc.lft.to/lastmile_qr_scan", "ios": "https://dc.lft.to/lastmile_qr_scan"}, "fusion_lon": 0.0}, {"lat": 38.90088083333333, "is_disabled": 0, "type": "electric_scooter", "lon": -77.00218316666667, "bike_id": "e1159e2cb14c8cceecfb4a2a862e8d8e", "fusion_lat": 0.0, "name": "e1159e2cb14c8cceecfb4a2a862e8d8e", "is_reserved": 0, "rental_uris": {"android": "https://dc.lft.to/lastmile_qr_scan", "ios": "https://dc.lft.to/lastmile_qr_scan"}, "fusion_lon": 0.0}, {"lat": 38.9181685, "is_disabled": 0, "type": "electric_scooter", "lon": -77.00051133333334, "bike_id": "2b7dadf408de340ffcd4583e26680448", "fusion_lat": 0.0, "name": "2b7dadf408de340ffcd4583e26680448", "is_reserved": 0, "rental_uris": {"android": "https://dc.lft.to/lastmile_qr_scan", "ios": "https://dc.lft.to/lastmile_qr_scan"}, "fusion_lon": 0.0}, {"lat": 38.90259966666667, "is_disabled": 0, "type": "electric_scooter", "lon": -77.03962333333334, "bike_id": "247043bef0d011e672b6c377a6b8e803", "fusion_lat": 0.0, "name": "247043bef0d011e672b6c377a6b8e803", "is_reserved": 0, "rental_uris": {"android": "https://dc.lft.to/lastmile_qr_scan", "ios": "https://dc.lft.to/lastmile_qr_scan"}, "fusion_lon": 0.0}, {"lat": 38.89200866666667, "is_disabled": 0, "type": "electric_bike", "lon": -76.97050433333334, "bike_id": "c3930d4e42df52966b1ee8d32fdb3813", "fusion_lat": 0.0, "name": "c3930d4e42df52966b1ee8d32fdb3813", "is_reserved": 0, "rental_uris": {"android": "https://dc.lft.to/lastmile_qr_scan", "ios": "https://dc.lft.to/lastmile_qr_scan"}, "fusion_lon": 0.0}, {"lat": 38.91042783333333, "is_disabled": 0, "type": "electric_scooter", "lon": -77.0151005, "bike_id": "7bae8dd4480f7fe35c43a5d0abb0eaa0", "fusion_lat": 0.0, "name": "7bae8dd4480f7fe35c43a5d0abb0eaa0", "is_reserved": 0, "rental_uris": {"android": "https://dc.lft.to/lastmile_qr_scan", "ios": "https://dc.lft.to/lastmile_qr_scan"}, "fusion_lon": 0.0}, {"lat": 38.933591166666666, "is_disabled": 0, "type": "electric_bike", "lon": -77.09964866666667, "bike_id": "a84ecac910c9fb35059f0a56dcdc7ec2", "fusion_lat": 0.0, "name": "a84ecac910c9fb35059f0a56dcdc7ec2", "is_reserved": 0, "rental_uris": {"android": "https://dc.lft.to/lastmile_qr_scan", "ios": "https://dc.lft.to/lastmile_qr_scan"}, "fusion_lon": 0.0}, {"lat": 38.918098666666666, "is_disabled": 0, "type": "electric_scooter", "lon": -76.99991066666666, "bike_id": "3495491134d32bfd497755fd8292e5f0", "fusion_lat": 0.0, "name": "3495491134d32bfd497755fd8292e5f0", "is_reserved": 0, "rental_uris": {"android": "https://dc.lft.to/lastmile_qr_scan", "ios": "https://dc.lft.to/lastmile_qr_scan"}, "fusion_lon": 0.0}, {"lat": 38.84296883333333, "is_disabled": 0, "type": "electric_scooter", "lon": -76.9993725, "bike_id": "aea25a746f2c12f80263b5a193dde813", "fusion_lat": 0.0, "name": "aea25a746f2c12f80263b5a193dde813", "is_reserved": 0, "rental_uris": {"android": "https://dc.lft.to/lastmile_qr_scan", "ios": "https://dc.lft.to/lastmile_qr_scan"}, "fusion_lon": 0.0}, {"lat": 38.917106833333335, "is_disabled": 0, "type": "electric_scooter", "lon": -77.03868516666667, "bike_id": "82c7856767d6fa095f2c9d7ab102e4b2", "fusion_lat": 0.0, "name": "82c7856767d6fa095f2c9d7ab102e4b2", "is_reserved": 0, "rental_uris": {"android": "https://dc.lft.to/lastmile_qr_scan", "ios": "https://dc.lft.to/lastmile_qr_scan"}, "fusion_lon": 0.0}, {"lat": 38.942884, "is_disabled": 0, "type": "electric_scooter", "lon": -77.02177633333334, "bike_id": "e963b759a0991a3b5114e1bcbfa73369", "fusion_lat": 0.0, "name": "e963b759a0991a3b5114e1bcbfa73369", "is_reserved": 0, "rental_uris": {"android": "https://dc.lft.to/lastmile_qr_scan", "ios": "https://dc.lft.to/lastmile_qr_scan"}, "fusion_lon": 0.0}, {"lat": 38.84271583333334, "is_disabled": 0, "type": "electric_bike", "lon": -76.98842533333334, "bike_id": "765a84f4eb192d721ff9935c7817014e", "fusion_lat": 0.0, "name": "765a84f4eb192d721ff9935c7817014e", "is_reserved": 0, "rental_uris": {"android": "https://dc.lft.to/lastmile_qr_scan", "ios": "https://dc.lft.to/lastmile_qr_scan"}, "fusion_lon": 0.0}, {"lat": 38.93231216666667, "is_disabled": 0, "type": "electric_scooter", "lon": -76.9960085, "bike_id": "0d2f6957e973b72478202409c5ee0c86", "fusion_lat": 0.0, "name": "0d2f6957e973b72478202409c5ee0c86", "is_reserved": 0, "rental_uris": {"android": "https://dc.lft.to/lastmile_qr_scan", "ios": "https://dc.lft.to/lastmile_qr_scan"}, "fusion_lon": 0.0}, {"lat": 38.91197016666667, "is_disabled": 0, "type": "electric_scooter", "lon": -77.00224516666667, "bike_id": "5cd935bc513734a39a02a32793655355", "fusion_lat": 0.0, "name": "5cd935bc513734a39a02a32793655355", "is_reserved": 0, "rental_uris": {"android": "https://dc.lft.to/lastmile_qr_scan", "ios": "https://dc.lft.to/lastmile_qr_scan"}, "fusion_lon": 0.0}, {"lat": 38.875749166666665, "is_disabled": 0, "type": "electric_bike", "lon": -77.105709, "bike_id": "a434ae06bda7e1e153ee44e74795b45c", "fusion_lat": 0.0, "name": "a434ae06bda7e1e153ee44e74795b45c", "is_reserved": 0, "rental_uris": {"android": "https://dc.lft.to/lastmile_qr_scan", "ios": "https://dc.lft.to/lastmile_qr_scan"}, "fusion_lon": 0.0}, {"lat": 38.86626783333333, "is_disabled": 0, "type": "electric_scooter", "lon": -76.98699016666667, "bike_id": "09806f240aad7424352ddc6006dcd1f1", "fusion_lat": 0.0, "name": "09806f240aad7424352ddc6006dcd1f1", "is_reserved": 0, "rental_uris": {"android": "https://dc.lft.to/lastmile_qr_scan", "ios": "https://dc.lft.to/lastmile_qr_scan"}, "fusion_lon": 0.0}, {"lat": 38.88490816666667, "is_disabled": 0, "type": "electric_scooter", "lon": -77.00709233333333, "bike_id": "f2e4843235eab4a202abac38371190fa", "fusion_lat": 0.0, "name": "f2e4843235eab4a202abac38371190fa", "is_reserved": 0, "rental_uris": {"android": "https://dc.lft.to/lastmile_qr_scan", "ios": "https://dc.lft.to/lastmile_qr_scan"}, "fusion_lon": 0.0}, {"lat": 38.88766183333333, "is_disabled": 0, "type": "electric_scooter", "lon": -76.95598383333333, "bike_id": "c23063d4d44f1ff6f24d4bbaf6c1a5ef", "fusion_lat": 0.0, "name": "c23063d4d44f1ff6f24d4bbaf6c1a5ef", "is_reserved": 0, "rental_uris": {"android": "https://dc.lft.to/lastmile_qr_scan", "ios": "https://dc.lft.to/lastmile_qr_scan"}, "fusion_lon": 0.0}, {"lat": 38.90960183333333, "is_disabled": 0, "type": "electric_scooter", "lon": -77.0227975, "bike_id": "359966a11e9f2fc8186bb2df2fd1a2f3", "fusion_lat": 0.0, "name": "359966a11e9f2fc8186bb2df2fd1a2f3", "is_reserved": 0, "rental_uris": {"android": "https://dc.lft.to/lastmile_qr_scan", "ios": "https://dc.lft.to/lastmile_qr_scan"}, "fusion_lon": 0.0}, {"lat": 38.915509, "is_disabled": 0, "type": "electric_scooter", "lon": -77.01235466666667, "bike_id": "e629bd0aa0998d8910c32f8885e67142", "fusion_lat": 0.0, "name": "e629bd0aa0998d8910c32f8885e67142", "is_reserved": 0, "rental_uris": {"android": "https://dc.lft.to/lastmile_qr_scan", "ios": "https://dc.lft.to/lastmile_qr_scan"}, "fusion_lon": 0.0}, {"lat": 38.906854833333334, "is_disabled": 0, "type": "electric_scooter", "lon": -77.06271533333333, "bike_id": "9bb371152162528887870d0df5bd9bc4", "fusion_lat": 0.0, "name": "9bb371152162528887870d0df5bd9bc4", "is_reserved": 0, "rental_uris": {"android": "https://dc.lft.to/lastmile_qr_scan", "ios": "https://dc.lft.to/lastmile_qr_scan"}, "fusion_lon": 0.0}, {"lat": 38.950330666666666, "is_disabled": 0, "type": "electric_bike", "lon": -77.02962966666666, "bike_id": "0d6ca017440d6bb100a1a366945d40bc", "fusion_lat": 0.0, "name": "0d6ca017440d6bb100a1a366945d40bc", "is_reserved": 0, "rental_uris": {"android": "https://dc.lft.to/lastmile_qr_scan", "ios": "https://dc.lft.to/lastmile_qr_scan"}, "fusion_lon": 0.0}, {"lat": 38.914772166666665, "is_disabled": 0, "type": "electric_scooter", "lon": -77.0034855, "bike_id": "9b80fe17b4043f1cefd586a1c2355920", "fusion_lat": 0.0, "name": "9b80fe17b4043f1cefd586a1c2355920", "is_reserved": 0, "rental_uris": {"android": "https://dc.lft.to/lastmile_qr_scan", "ios": "https://dc.lft.to/lastmile_qr_scan"}, "fusion_lon": 0.0}, {"lat": 38.924156333333336, "is_disabled": 0, "type": "electric_scooter", "lon": -77.03543883333333, "bike_id": "3995aba9148a3a1cc40b0835774e4b42", "fusion_lat": 0.0, "name": "3995aba9148a3a1cc40b0835774e4b42", "is_reserved": 0, "rental_uris": {"android": "https://dc.lft.to/lastmile_qr_scan", "ios": "https://dc.lft.to/lastmile_qr_scan"}, "fusion_lon": 0.0}, {"lat": 38.90775683333333, "is_disabled": 0, "type": "electric_scooter", "lon": -77.03862233333334, "bike_id": "3a289332ef33ec280ce302da11e05565", "fusion_lat": 0.0, "name": "3a289332ef33ec280ce302da11e05565", "is_reserved": 0, "rental_uris": {"android": "https://dc.lft.to/lastmile_qr_scan", "ios": "https://dc.lft.to/lastmile_qr_scan"}, "fusion_lon": 0.0}, {"lat": 38.844270333333334, "is_disabled": 0, "type": "electric_scooter", "lon": -76.997805, "bike_id": "70febf68129b529794f923d9abd73265", "fusion_lat": 0.0, "name": "70febf68129b529794f923d9abd73265", "is_reserved": 0, "rental_uris": {"android": "https://dc.lft.to/lastmile_qr_scan", "ios": "https://dc.lft.to/lastmile_qr_scan"}, "fusion_lon": 0.0}, {"lat": 38.90297, "is_disabled": 0, "type": "electric_scooter", "lon": -77.00043283333333, "bike_id": "20ac1481b9a3c69b46423a40db4e3b76", "fusion_lat": 0.0, "name": "20ac1481b9a3c69b46423a40db4e3b76", "is_reserved": 0, "rental_uris": {"android": "https://dc.lft.to/lastmile_qr_scan", "ios": "https://dc.lft.to/lastmile_qr_scan"}, "fusion_lon": 0.0}, {"lat": 38.92197183333333, "is_disabled": 0, "type": "electric_scooter", "lon": -77.03983033333333, "bike_id": "c693334373ca3257f8be8b612d380d6d", "fusion_lat": 0.0, "name": "c693334373ca3257f8be8b612d380d6d", "is_reserved": 0, "rental_uris": {"android": "https://dc.lft.to/lastmile_qr_scan", "ios": "https://dc.lft.to/lastmile_qr_scan"}, "fusion_lon": 0.0}, {"lat": 38.98659416666667, "is_disabled": 0, "type": "electric_bike", "lon": -77.05637333333334, "bike_id": "122187fdc11362e680b748449b8c722d", "fusion_lat": 0.0, "name": "122187fdc11362e680b748449b8c722d", "is_reserved": 0, "rental_uris": {"android": "https://dc.lft.to/lastmile_qr_scan", "ios": "https://dc.lft.to/lastmile_qr_scan"}, "fusion_lon": 0.0}, {"lat": 38.92478066666666, "is_disabled": 0, "type": "electric_scooter", "lon": -77.0283195, "bike_id": "a27c9edc75083f1157f2e0f63446e49e", "fusion_lat": 0.0, "name": "a27c9edc75083f1157f2e0f63446e49e", "is_reserved": 0, "rental_uris": {"android": "https://dc.lft.to/lastmile_qr_scan", "ios": "https://dc.lft.to/lastmile_qr_scan"}, "fusion_lon": 0.0}, {"lat": 38.94437883333333, "is_disabled": 0, "type": "electric_scooter", "lon": -77.02341333333334, "bike_id": "f7fa692287692c83c4a078b0094516ff", "fusion_lat": 0.0, "name": "f7fa692287692c83c4a078b0094516ff", "is_reserved": 0, "rental_uris": {"android": "https://dc.lft.to/lastmile_qr_scan", "ios": "https://dc.lft.to/lastmile_qr_scan"}, "fusion_lon": 0.0}, {"lat": 38.920691833333336, "is_disabled": 0, "type": "electric_scooter", "lon": -77.04238466666666, "bike_id": "19b1c9918a13d7d2d7297e1535c85d09", "fusion_lat": 0.0, "name": "19b1c9918a13d7d2d7297e1535c85d09", "is_reserved": 0, "rental_uris": {"android": "https://dc.lft.to/lastmile_qr_scan", "ios": "https://dc.lft.to/lastmile_qr_scan"}, "fusion_lon": 0.0}, {"lat": 38.909713833333335, "is_disabled": 0, "type": "electric_scooter", "lon": -77.04611483333333, "bike_id": "aa3a03761c36bc723cc5dac290a8f2a4", "fusion_lat": 0.0, "name": "aa3a03761c36bc723cc5dac290a8f2a4", "is_reserved": 0, "rental_uris": {"android": "https://dc.lft.to/lastmile_qr_scan", "ios": "https://dc.lft.to/lastmile_qr_scan"}, "fusion_lon": 0.0}, {"lat": 38.908820166666665, "is_disabled": 0, "type": "electric_bike", "lon": -77.0024545, "bike_id": "8d9162b0625a7fb60840360d6e368879", "fusion_lat": 0.0, "name": "8d9162b0625a7fb60840360d6e368879", "is_reserved": 0, "rental_uris": {"android": "https://dc.lft.to/lastmile_qr_scan", "ios": "https://dc.lft.to/lastmile_qr_scan"}, "fusion_lon": 0.0}, {"lat": 38.901769, "is_disabled": 0, "type": "electric_scooter", "lon": -77.02476616666667, "bike_id": "43ee20277abe5097c79421f27ba2a114", "fusion_lat": 0.0, "name": "43ee20277abe5097c79421f27ba2a114", "is_reserved": 0, "rental_uris": {"android": "https://dc.lft.to/lastmile_qr_scan", "ios": "https://dc.lft.to/lastmile_qr_scan"}, "fusion_lon": 0.0}, {"lat": 38.9015225, "is_disabled": 0, "type": "electric_scooter", "lon": -77.04143133333334, "bike_id": "1c15ca15f003b1a8069f2321cba5c369", "fusion_lat": 0.0, "name": "1c15ca15f003b1a8069f2321cba5c369", "is_reserved": 0, "rental_uris": {"android": "https://dc.lft.to/lastmile_qr_scan", "ios": "https://dc.lft.to/lastmile_qr_scan"}, "fusion_lon": 0.0}, {"lat": 38.85737133333333, "is_disabled": 0, "type": "electric_scooter", "lon": -76.99435483333333, "bike_id": "46cba291f02da3f8ed95005d5a8f9ded", "fusion_lat": 0.0, "name": "46cba291f02da3f8ed95005d5a8f9ded", "is_reserved": 0, "rental_uris": {"android": "https://dc.lft.to/lastmile_qr_scan", "ios": "https://dc.lft.to/lastmile_qr_scan"}, "fusion_lon": 0.0}, {"lat": 38.92433166666667, "is_disabled": 0, "type": "electric_scooter", "lon": -77.029755, "bike_id": "99c6af96167fec0b2e5fdef4753d39c2", "fusion_lat": 0.0, "name": "99c6af96167fec0b2e5fdef4753d39c2", "is_reserved": 0, "rental_uris": {"android": "https://dc.lft.to/lastmile_qr_scan", "ios": "https://dc.lft.to/lastmile_qr_scan"}, "fusion_lon": 0.0}, {"lat": 38.90085716666667, "is_disabled": 0, "type": "electric_scooter", "lon": -77.04926483333334, "bike_id": "8139a22de3f68eebc4a47df4cf4589e0", "fusion_lat": 0.0, "name": "8139a22de3f68eebc4a47df4cf4589e0", "is_reserved": 0, "rental_uris": {"android": "https://dc.lft.to/lastmile_qr_scan", "ios": "https://dc.lft.to/lastmile_qr_scan"}, "fusion_lon": 0.0}, {"lat": 38.920236333333335, "is_disabled": 0, "type": "electric_scooter", "lon": -77.03731833333333, "bike_id": "ec46d8d569a706a0e36453524f0a20bb", "fusion_lat": 0.0, "name": "ec46d8d569a706a0e36453524f0a20bb", "is_reserved": 0, "rental_uris": {"android": "https://dc.lft.to/lastmile_qr_scan", "ios": "https://dc.lft.to/lastmile_qr_scan"}, "fusion_lon": 0.0}, {"lat": 38.93974083333333, "is_disabled": 0, "type": "electric_scooter", "lon": -77.03588166666667, "bike_id": "0f11fe0d960dea1bd9a4b1075ede6d78", "fusion_lat": 0.0, "name": "0f11fe0d960dea1bd9a4b1075ede6d78", "is_reserved": 0, "rental_uris": {"android": "https://dc.lft.to/lastmile_qr_scan", "ios": "https://dc.lft.to/lastmile_qr_scan"}, "fusion_lon": 0.0}, {"lat": 38.907751, "is_disabled": 0, "type": "electric_scooter", "lon": -77.03857083333334, "bike_id": "4a309c748b29fad857fce9dbf939de1b", "fusion_lat": 0.0, "name": "4a309c748b29fad857fce9dbf939de1b", "is_reserved": 0, "rental_uris": {"android": "https://dc.lft.to/lastmile_qr_scan", "ios": "https://dc.lft.to/lastmile_qr_scan"}, "fusion_lon": 0.0}, {"lat": 38.93289766666667, "is_disabled": 0, "type": "electric_scooter", "lon": -77.0355415, "bike_id": "54a93f6392e00d4429deeb9d937cbf65", "fusion_lat": 0.0, "name": "54a93f6392e00d4429deeb9d937cbf65", "is_reserved": 0, "rental_uris": {"android": "https://dc.lft.to/lastmile_qr_scan", "ios": "https://dc.lft.to/lastmile_qr_scan"}, "fusion_lon": 0.0}, {"lat": 38.957781833333335, "is_disabled": 0, "type": "electric_scooter", "lon": -77.02761333333333, "bike_id": "0196c2d8aa5d9fd4e65837a98d75200b", "fusion_lat": 0.0, "name": "0196c2d8aa5d9fd4e65837a98d75200b", "is_reserved": 0, "rental_uris": {"android": "https://dc.lft.to/lastmile_qr_scan", "ios": "https://dc.lft.to/lastmile_qr_scan"}, "fusion_lon": 0.0}, {"lat": 38.9087565, "is_disabled": 0, "type": "electric_scooter", "lon": -77.03671033333333, "bike_id": "f7e603bafb17b811e2cc072ba2f22f9d", "fusion_lat": 0.0, "name": "f7e603bafb17b811e2cc072ba2f22f9d", "is_reserved": 0, "rental_uris": {"android": "https://dc.lft.to/lastmile_qr_scan", "ios": "https://dc.lft.to/lastmile_qr_scan"}, "fusion_lon": 0.0}, {"lat": 38.91643783333333, "is_disabled": 0, "type": "electric_scooter", "lon": -77.02411633333334, "bike_id": "ba6569f06bc805f78c917715e1833c46", "fusion_lat": 0.0, "name": "ba6569f06bc805f78c917715e1833c46", "is_reserved": 0, "rental_uris": {"android": "https://dc.lft.to/lastmile_qr_scan", "ios": "https://dc.lft.to/lastmile_qr_scan"}, "fusion_lon": 0.0}, {"lat": 38.9259145, "is_disabled": 0, "type": "electric_scooter", "lon": -77.02269766666667, "bike_id": "deee02bbf03e08a3b1f8112eef6b820a", "fusion_lat": 0.0, "name": "deee02bbf03e08a3b1f8112eef6b820a", "is_reserved": 0, "rental_uris": {"android": "https://dc.lft.to/lastmile_qr_scan", "ios": "https://dc.lft.to/lastmile_qr_scan"}, "fusion_lon": 0.0}, {"lat": 38.876762, "is_disabled": 0, "type": "electric_bike", "lon": -77.0145205, "bike_id": "f085885599e91f36fa2308806c1f2af6", "fusion_lat": 0.0, "name": "f085885599e91f36fa2308806c1f2af6", "is_reserved": 0, "rental_uris": {"android": "https://dc.lft.to/lastmile_qr_scan", "ios": "https://dc.lft.to/lastmile_qr_scan"}, "fusion_lon": 0.0}, {"lat": 38.86210583333333, "is_disabled": 0, "type": "electric_bike", "lon": -76.99777733333333, "bike_id": "da0222a42dc53e148fcf9df6b4eabeaa", "fusion_lat": 0.0, "name": "da0222a42dc53e148fcf9df6b4eabeaa", "is_reserved": 0, "rental_uris": {"android": "https://dc.lft.to/lastmile_qr_scan", "ios": "https://dc.lft.to/lastmile_qr_scan"}, "fusion_lon": 0.0}, {"lat": 38.87064683333333, "is_disabled": 0, "type": "electric_scooter", "lon": -77.00838933333333, "bike_id": "24a19315d96008a0dd6e18dcc950d23b", "fusion_lat": 0.0, "name": "24a19315d96008a0dd6e18dcc950d23b", "is_reserved": 0, "rental_uris": {"android": "https://dc.lft.to/lastmile_qr_scan", "ios": "https://dc.lft.to/lastmile_qr_scan"}, "fusion_lon": 0.0}, {"lat": 38.866801333333335, "is_disabled": 0, "type": "electric_scooter", "lon": -76.98544683333333, "bike_id": "cd17d6edfee5ae914d066bc024d2be9f", "fusion_lat": 0.0, "name": "cd17d6edfee5ae914d066bc024d2be9f", "is_reserved": 0, "rental_uris": {"android": "https://dc.lft.to/lastmile_qr_scan", "ios": "https://dc.lft.to/lastmile_qr_scan"}, "fusion_lon": 0.0}, {"lat": 38.934343, "is_disabled": 0, "type": "electric_scooter", "lon": -77.03458916666666, "bike_id": "4c376bb9273cae49be0cb4f7e937be39", "fusion_lat": 0.0, "name": "4c376bb9273cae49be0cb4f7e937be39", "is_reserved": 0, "rental_uris": {"android": "https://dc.lft.to/lastmile_qr_scan", "ios": "https://dc.lft.to/lastmile_qr_scan"}, "fusion_lon": 0.0}, {"lat": 38.91708083333333, "is_disabled": 0, "type": "electric_scooter", "lon": -77.00114116666667, "bike_id": "f185da934c3c0eeb86f2c7ab597deecf", "fusion_lat": 0.0, "name": "f185da934c3c0eeb86f2c7ab597deecf", "is_reserved": 0, "rental_uris": {"android": "https://dc.lft.to/lastmile_qr_scan", "ios": "https://dc.lft.to/lastmile_qr_scan"}, "fusion_lon": 0.0}, {"lat": 38.930999666666665, "is_disabled": 0, "type": "electric_scooter", "lon": -77.02419283333333, "bike_id": "8d7db2cab9f9bf774cd4c6ffb80bab5e", "fusion_lat": 0.0, "name": "8d7db2cab9f9bf774cd4c6ffb80bab5e", "is_reserved": 0, "rental_uris": {"android": "https://dc.lft.to/lastmile_qr_scan", "ios": "https://dc.lft.to/lastmile_qr_scan"}, "fusion_lon": 0.0}, {"lat": 38.908975, "is_disabled": 0, "type": "electric_scooter", "lon": -77.03460533333333, "bike_id": "def53b9562cf2fdc4a272f2554409d61", "fusion_lat": 0.0, "name": "def53b9562cf2fdc4a272f2554409d61", "is_reserved": 0, "rental_uris": {"android": "https://dc.lft.to/lastmile_qr_scan", "ios": "https://dc.lft.to/lastmile_qr_scan"}, "fusion_lon": 0.0}, {"lat": 38.876447166666665, "is_disabled": 0, "type": "electric_scooter", "lon": -77.00559866666667, "bike_id": "cba4dfc14a6886df92ee9eec4c83d952", "fusion_lat": 0.0, "name": "cba4dfc14a6886df92ee9eec4c83d952", "is_reserved": 0, "rental_uris": {"android": "https://dc.lft.to/lastmile_qr_scan", "ios": "https://dc.lft.to/lastmile_qr_scan"}, "fusion_lon": 0.0}, {"lat": 38.90566233333333, "is_disabled": 0, "type": "electric_scooter", "lon": -77.037789, "bike_id": "815b4ba277b0834bc4d936b2542f8643", "fusion_lat": 0.0, "name": "815b4ba277b0834bc4d936b2542f8643", "is_reserved": 0, "rental_uris": {"android": "https://dc.lft.to/lastmile_qr_scan", "ios": "https://dc.lft.to/lastmile_qr_scan"}, "fusion_lon": 0.0}, {"lat": 38.878565333333334, "is_disabled": 0, "type": "electric_bike", "lon": -77.01761816666667, "bike_id": "fa343ec76bfd3a7879c69fc626767554", "fusion_lat": 0.0, "name": "fa343ec76bfd3a7879c69fc626767554", "is_reserved": 0, "rental_uris": {"android": "https://dc.lft.to/lastmile_qr_scan", "ios": "https://dc.lft.to/lastmile_qr_scan"}, "fusion_lon": 0.0}, {"lat": 38.90494966666667, "is_disabled": 0, "type": "electric_scooter", "lon": -77.028142, "bike_id": "1ce29341130d71c2f18b5c9fd49f0134", "fusion_lat": 0.0, "name": "1ce29341130d71c2f18b5c9fd49f0134", "is_reserved": 0, "rental_uris": {"android": "https://dc.lft.to/lastmile_qr_scan", "ios": "https://dc.lft.to/lastmile_qr_scan"}, "fusion_lon": 0.0}, {"lat": 38.94823066666667, "is_disabled": 0, "type": "electric_scooter", "lon": -76.99907, "bike_id": "8e2faaf63722d4f8522ad70730ccdd20", "fusion_lat": 0.0, "name": "8e2faaf63722d4f8522ad70730ccdd20", "is_reserved": 0, "rental_uris": {"android": "https://dc.lft.to/lastmile_qr_scan", "ios": "https://dc.lft.to/lastmile_qr_scan"}, "fusion_lon": 0.0}, {"lat": 38.8973895, "is_disabled": 0, "type": "electric_scooter", "lon": -76.94723383333333, "bike_id": "8d2e3c1f004d4f2f44385a2e2f9cc059", "fusion_lat": 0.0, "name": "8d2e3c1f004d4f2f44385a2e2f9cc059", "is_reserved": 0, "rental_uris": {"android": "https://dc.lft.to/lastmile_qr_scan", "ios": "https://dc.lft.to/lastmile_qr_scan"}, "fusion_lon": 0.0}, {"lat": 38.911904666666665, "is_disabled": 0, "type": "electric_scooter", "lon": -77.00444333333333, "bike_id": "8cadf22c36b04439b0dfc55dfcd3b28e", "fusion_lat": 0.0, "name": "8cadf22c36b04439b0dfc55dfcd3b28e", "is_reserved": 0, "rental_uris": {"android": "https://dc.lft.to/lastmile_qr_scan", "ios": "https://dc.lft.to/lastmile_qr_scan"}, "fusion_lon": 0.0}, {"lat": 38.86510533333333, "is_disabled": 0, "type": "electric_scooter", "lon": -76.99006716666666, "bike_id": "441ff4065d4c52dbd42ae586034ea7d4", "fusion_lat": 0.0, "name": "441ff4065d4c52dbd42ae586034ea7d4", "is_reserved": 0, "rental_uris": {"android": "https://dc.lft.to/lastmile_qr_scan", "ios": "https://dc.lft.to/lastmile_qr_scan"}, "fusion_lon": 0.0}, {"lat": 38.9621925, "is_disabled": 0, "type": "electric_bike", "lon": -77.026251, "bike_id": "5c8108ddefd586898cb7c6c3ad8a8c7d", "fusion_lat": 0.0, "name": "5c8108ddefd586898cb7c6c3ad8a8c7d", "is_reserved": 0, "rental_uris": {"android": "https://dc.lft.to/lastmile_qr_scan", "ios": "https://dc.lft.to/lastmile_qr_scan"}, "fusion_lon": 0.0}, {"lat": 38.91326133333333, "is_disabled": 0, "type": "electric_scooter", "lon": -77.03181383333333, "bike_id": "ac58691f8c06919ccfbc0ab5706b1d1d", "fusion_lat": 0.0, "name": "ac58691f8c06919ccfbc0ab5706b1d1d", "is_reserved": 0, "rental_uris": {"android": "https://dc.lft.to/lastmile_qr_scan", "ios": "https://dc.lft.to/lastmile_qr_scan"}, "fusion_lon": 0.0}, {"lat": 38.929631, "is_disabled": 0, "type": "electric_scooter", "lon": -77.027934, "bike_id": "1150fa46293e7e9f9f53eb4ce30c0669", "fusion_lat": 0.0, "name": "1150fa46293e7e9f9f53eb4ce30c0669", "is_reserved": 0, "rental_uris": {"android": "https://dc.lft.to/lastmile_qr_scan", "ios": "https://dc.lft.to/lastmile_qr_scan"}, "fusion_lon": 0.0}, {"lat": 38.91682983333333, "is_disabled": 0, "type": "electric_scooter", "lon": -77.03211216666666, "bike_id": "cf35cb90d55641e4d235021f32024d64", "fusion_lat": 0.0, "name": "cf35cb90d55641e4d235021f32024d64", "is_reserved": 0, "rental_uris": {"android": "https://dc.lft.to/lastmile_qr_scan", "ios": "https://dc.lft.to/lastmile_qr_scan"}, "fusion_lon": 0.0}, {"lat": 38.91620316666667, "is_disabled": 0, "type": "electric_scooter", "lon": -77.03740433333333, "bike_id": "c9aa775d007876beb1e605de384cb7dd", "fusion_lat": 0.0, "name": "c9aa775d007876beb1e605de384cb7dd", "is_reserved": 0, "rental_uris": {"android": "https://dc.lft.to/lastmile_qr_scan", "ios": "https://dc.lft.to/lastmile_qr_scan"}, "fusion_lon": 0.0}, {"lat": 38.896759833333334, "is_disabled": 0, "type": "electric_scooter", "lon": -77.0051505, "bike_id": "8dccd00652c00dc347680c8ccb0e4822", "fusion_lat": 0.0, "name": "8dccd00652c00dc347680c8ccb0e4822", "is_reserved": 0, "rental_uris": {"android": "https://dc.lft.to/lastmile_qr_scan", "ios": "https://dc.lft.to/lastmile_qr_scan"}, "fusion_lon": 0.0}, {"lat": 38.903329, "is_disabled": 0, "type": "electric_scooter", "lon": -76.9759485, "bike_id": "41b1e133b9a93ec1f37895652ac38598", "fusion_lat": 0.0, "name": "41b1e133b9a93ec1f37895652ac38598", "is_reserved": 0, "rental_uris": {"android": "https://dc.lft.to/lastmile_qr_scan", "ios": "https://dc.lft.to/lastmile_qr_scan"}, "fusion_lon": 0.0}, {"lat": 38.897499833333335, "is_disabled": 0, "type": "electric_scooter", "lon": -77.04539416666667, "bike_id": "c39d361ed7266b5d59f588b411770468", "fusion_lat": 0.0, "name": "c39d361ed7266b5d59f588b411770468", "is_reserved": 0, "rental_uris": {"android": "https://dc.lft.to/lastmile_qr_scan", "ios": "https://dc.lft.to/lastmile_qr_scan"}, "fusion_lon": 0.0}, {"lat": 38.92154433333333, "is_disabled": 0, "type": "electric_scooter", "lon": -77.03667233333333, "bike_id": "f4bfa55ace447e186bf12a19f676cfce", "fusion_lat": 0.0, "name": "f4bfa55ace447e186bf12a19f676cfce", "is_reserved": 0, "rental_uris": {"android": "https://dc.lft.to/lastmile_qr_scan", "ios": "https://dc.lft.to/lastmile_qr_scan"}, "fusion_lon": 0.0}, {"lat": 38.892612, "is_disabled": 0, "type": "electric_scooter", "lon": -76.94159283333333, "bike_id": "698d30073e05fd64115cfc0068b2780e", "fusion_lat": 0.0, "name": "698d30073e05fd64115cfc0068b2780e", "is_reserved": 0, "rental_uris": {"android": "https://dc.lft.to/lastmile_qr_scan", "ios": "https://dc.lft.to/lastmile_qr_scan"}, "fusion_lon": 0.0}, {"lat": 38.9342485, "is_disabled": 0, "type": "electric_scooter", "lon": -77.03272033333333, "bike_id": "5ec11f075d10e647ed32fe253b2f27fe", "fusion_lat": 0.0, "name": "5ec11f075d10e647ed32fe253b2f27fe", "is_reserved": 0, "rental_uris": {"android": "https://dc.lft.to/lastmile_qr_scan", "ios": "https://dc.lft.to/lastmile_qr_scan"}, "fusion_lon": 0.0}, {"lat": 38.874164666666665, "is_disabled": 0, "type": "electric_scooter", "lon": -76.97308516666666, "bike_id": "1551a80c70e88be51d4bd74b1eca038a", "fusion_lat": 0.0, "name": "1551a80c70e88be51d4bd74b1eca038a", "is_reserved": 0, "rental_uris": {"android": "https://dc.lft.to/lastmile_qr_scan", "ios": "https://dc.lft.to/lastmile_qr_scan"}, "fusion_lon": 0.0}, {"lat": 38.932022333333336, "is_disabled": 0, "type": "electric_scooter", "lon": -77.03749716666667, "bike_id": "4739e1ccd376274b79882e073d5a26a2", "fusion_lat": 0.0, "name": "4739e1ccd376274b79882e073d5a26a2", "is_reserved": 0, "rental_uris": {"android": "https://dc.lft.to/lastmile_qr_scan", "ios": "https://dc.lft.to/lastmile_qr_scan"}, "fusion_lon": 0.0}, {"lat": 38.939919, "is_disabled": 0, "type": "electric_scooter", "lon": -77.07176833333334, "bike_id": "59d25d7894266ff033c37d86f345c107", "fusion_lat": 0.0, "name": "59d25d7894266ff033c37d86f345c107", "is_reserved": 0, "rental_uris": {"android": "https://dc.lft.to/lastmile_qr_scan", "ios": "https://dc.lft.to/lastmile_qr_scan"}, "fusion_lon": 0.0}, {"lat": 38.8665905, "is_disabled": 0, "type": "electric_scooter", "lon": -76.98887166666667, "bike_id": "af0b5f549cddb29990ca34fdca41c98f", "fusion_lat": 0.0, "name": "af0b5f549cddb29990ca34fdca41c98f", "is_reserved": 0, "rental_uris": {"android": "https://dc.lft.to/lastmile_qr_scan", "ios": "https://dc.lft.to/lastmile_qr_scan"}, "fusion_lon": 0.0}, {"lat": 38.89905383333333, "is_disabled": 0, "type": "electric_scooter", "lon": -76.933522, "bike_id": "e289bd1c81a1956f5a81a7ea97700b39", "fusion_lat": 0.0, "name": "e289bd1c81a1956f5a81a7ea97700b39", "is_reserved": 0, "rental_uris": {"android": "https://dc.lft.to/lastmile_qr_scan", "ios": "https://dc.lft.to/lastmile_qr_scan"}, "fusion_lon": 0.0}, {"lat": 38.90392833333333, "is_disabled": 0, "type": "electric_scooter", "lon": -77.01764883333334, "bike_id": "db5babc2a5293db5bcd9664bacce5797", "fusion_lat": 0.0, "name": "db5babc2a5293db5bcd9664bacce5797", "is_reserved": 0, "rental_uris": {"android": "https://dc.lft.to/lastmile_qr_scan", "ios": "https://dc.lft.to/lastmile_qr_scan"}, "fusion_lon": 0.0}, {"lat": 38.92571566666667, "is_disabled": 0, "type": "electric_scooter", "lon": -77.05757183333333, "bike_id": "b0568a32fc34241c2f4cf05b163aabc9", "fusion_lat": 0.0, "name": "b0568a32fc34241c2f4cf05b163aabc9", "is_reserved": 0, "rental_uris": {"android": "https://dc.lft.to/lastmile_qr_scan", "ios": "https://dc.lft.to/lastmile_qr_scan"}, "fusion_lon": 0.0}, {"lat": 38.90971783333333, "is_disabled": 0, "type": "electric_scooter", "lon": -77.017169, "bike_id": "2e8a4e5c8938eeac6f2209f51a54f746", "fusion_lat": 0.0, "name": "2e8a4e5c8938eeac6f2209f51a54f746", "is_reserved": 0, "rental_uris": {"android": "https://dc.lft.to/lastmile_qr_scan", "ios": "https://dc.lft.to/lastmile_qr_scan"}, "fusion_lon": 0.0}, {"lat": 38.806818166666666, "is_disabled": 0, "type": "electric_bike", "lon": -77.08117983333334, "bike_id": "f7c4a4916d4cc9e246197552fd37c8a7", "fusion_lat": 0.0, "name": "f7c4a4916d4cc9e246197552fd37c8a7", "is_reserved": 0, "rental_uris": {"android": "https://dc.lft.to/lastmile_qr_scan", "ios": "https://dc.lft.to/lastmile_qr_scan"}, "fusion_lon": 0.0}, {"lat": 38.91784466666667, "is_disabled": 0, "type": "electric_scooter", "lon": -77.04333433333333, "bike_id": "c1268d969ca58c610cde06124d319dbf", "fusion_lat": 0.0, "name": "c1268d969ca58c610cde06124d319dbf", "is_reserved": 0, "rental_uris": {"android": "https://dc.lft.to/lastmile_qr_scan", "ios": "https://dc.lft.to/lastmile_qr_scan"}, "fusion_lon": 0.0}, {"lat": 38.91273366666667, "is_disabled": 0, "type": "electric_bike", "lon": -77.01219683333333, "bike_id": "f34ba0193503a303d51e721ae72e20c8", "fusion_lat": 0.0, "name": "f34ba0193503a303d51e721ae72e20c8", "is_reserved": 0, "rental_uris": {"android": "https://dc.lft.to/lastmile_qr_scan", "ios": "https://dc.lft.to/lastmile_qr_scan"}, "fusion_lon": 0.0}, {"lat": 38.92142316666666, "is_disabled": 0, "type": "electric_scooter", "lon": -77.04346116666666, "bike_id": "f179e178e4a4ba62c8e05daaea4c5a0b", "fusion_lat": 0.0, "name": "f179e178e4a4ba62c8e05daaea4c5a0b", "is_reserved": 0, "rental_uris": {"android": "https://dc.lft.to/lastmile_qr_scan", "ios": "https://dc.lft.to/lastmile_qr_scan"}, "fusion_lon": 0.0}, {"lat": 38.925028166666664, "is_disabled": 0, "type": "electric_bike", "lon": -77.03764916666667, "bike_id": "3f7769a75993a9d0f459ae3714ecdefc", "fusion_lat": 0.0, "name": "3f7769a75993a9d0f459ae3714ecdefc", "is_reserved": 0, "rental_uris": {"android": "https://dc.lft.to/lastmile_qr_scan", "ios": "https://dc.lft.to/lastmile_qr_scan"}, "fusion_lon": 0.0}, {"lat": 38.858023, "is_disabled": 0, "type": "electric_scooter", "lon": -76.9870815, "bike_id": "d6405dc8c0fda3c81e94571a3c00d13b", "fusion_lat": 0.0, "name": "d6405dc8c0fda3c81e94571a3c00d13b", "is_reserved": 0, "rental_uris": {"android": "https://dc.lft.to/lastmile_qr_scan", "ios": "https://dc.lft.to/lastmile_qr_scan"}, "fusion_lon": 0.0}, {"lat": 38.8833815, "is_disabled": 0, "type": "electric_scooter", "lon": -77.03142066666666, "bike_id": "4915256bc3a61cf57f16b490194bc40f", "fusion_lat": 0.0, "name": "4915256bc3a61cf57f16b490194bc40f", "is_reserved": 0, "rental_uris": {"android": "https://dc.lft.to/lastmile_qr_scan", "ios": "https://dc.lft.to/lastmile_qr_scan"}, "fusion_lon": 0.0}, {"lat": 38.923938, "is_disabled": 0, "type": "electric_scooter", "lon": -77.0006785, "bike_id": "b38240c57a8311f63efa1851bdfdc09f", "fusion_lat": 0.0, "name": "b38240c57a8311f63efa1851bdfdc09f", "is_reserved": 0, "rental_uris": {"android": "https://dc.lft.to/lastmile_qr_scan", "ios": "https://dc.lft.to/lastmile_qr_scan"}, "fusion_lon": 0.0}, {"lat": 38.918057, "is_disabled": 0, "type": "electric_scooter", "lon": -77.0343555, "bike_id": "f03797381f61f8848f5a9dd9a2ce59a3", "fusion_lat": 0.0, "name": "f03797381f61f8848f5a9dd9a2ce59a3", "is_reserved": 0, "rental_uris": {"android": "https://dc.lft.to/lastmile_qr_scan", "ios": "https://dc.lft.to/lastmile_qr_scan"}, "fusion_lon": 0.0}, {"lat": 38.89894283333334, "is_disabled": 0, "type": "electric_scooter", "lon": -77.02204616666667, "bike_id": "170643438589fd8725809a337b4f7705", "fusion_lat": 0.0, "name": "170643438589fd8725809a337b4f7705", "is_reserved": 0, "rental_uris": {"android": "https://dc.lft.to/lastmile_qr_scan", "ios": "https://dc.lft.to/lastmile_qr_scan"}, "fusion_lon": 0.0}, {"lat": 38.861097, "is_disabled": 0, "type": "electric_scooter", "lon": -76.96774966666666, "bike_id": "c3237969e3866cca804b42346c27febd", "fusion_lat": 0.0, "name": "c3237969e3866cca804b42346c27febd", "is_reserved": 0, "rental_uris": {"android": "https://dc.lft.to/lastmile_qr_scan", "ios": "https://dc.lft.to/lastmile_qr_scan"}, "fusion_lon": 0.0}, {"lat": 38.92415783333333, "is_disabled": 0, "type": "electric_scooter", "lon": -77.03535466666666, "bike_id": "a971de0ea2e79445932599a359fa48bb", "fusion_lat": 0.0, "name": "a971de0ea2e79445932599a359fa48bb", "is_reserved": 0, "rental_uris": {"android": "https://dc.lft.to/lastmile_qr_scan", "ios": "https://dc.lft.to/lastmile_qr_scan"}, "fusion_lon": 0.0}, {"lat": 38.879377166666664, "is_disabled": 0, "type": "electric_scooter", "lon": -77.007187, "bike_id": "f0b4206b81d10cc9ab04d2af010f19a8", "fusion_lat": 0.0, "name": "f0b4206b81d10cc9ab04d2af010f19a8", "is_reserved": 0, "rental_uris": {"android": "https://dc.lft.to/lastmile_qr_scan", "ios": "https://dc.lft.to/lastmile_qr_scan"}, "fusion_lon": 0.0}, {"lat": 38.91338066666667, "is_disabled": 0, "type": "electric_scooter", "lon": -77.00223766666667, "bike_id": "7684e4f5c1d650d73aadb90248281a64", "fusion_lat": 0.0, "name": "7684e4f5c1d650d73aadb90248281a64", "is_reserved": 0, "rental_uris": {"android": "https://dc.lft.to/lastmile_qr_scan", "ios": "https://dc.lft.to/lastmile_qr_scan"}, "fusion_lon": 0.0},