{"data": {"bikes": [{"lat": 38.9276055, "lon": -77.05268283333334, "is_disabled": 0, "fusion_lon": 0.0, "is_reserved": 0, "name": "bf5c761c7ee1c78415de1bc1d856c913", "type": "electric_scooter", "bike_id": "bf5c761c7ee1c78415de1bc1d856c913", "rental_uris": {"ios": "https://dc.lft.to/lastmile_qr_scan", "android": "https://dc.lft.to/lastmile_qr_scan"}, "fusion_lat": 0.0}, {"lat": 38.91126283333333, "lon": -77.032887, "is_disabled": 0, "fusion_lon": 0.0, "is_reserved": 0, "name": "2de950ddc56828f409f5772dce9d0dd4", "type": "electric_scooter", "bike_id": "2de950ddc56828f409f5772dce9d0dd4", "rental_uris": {"ios": "https://dc.lft.to/lastmile_qr_scan", "android": "https://dc.lft.to/lastmile_qr_scan"}, "fusion_lat": 0.0}, {"lat": 38.93228716666667, "lon": -76.99503933333334, "is_disabled": 0, "fusion_lon": 0.0, "is_reserved": 0, "name": "59f8824d8b9d84c50119ede3cb6b0b0e", "type": "electric_scooter", "bike_id": "59f8824d8b9d84c50119ede3cb6b0b0e", "rental_uris": {"ios": "https://dc.lft.to/lastmile_qr_scan", "android": "https://dc.lft.to/lastmile_qr_scan"}, "fusion_lat": 0.0}, {"lat": 38.9142055, "lon": -77.01803816666667, "is_disabled": 0, "fusion_lon": 0.0, "is_reserved": 0, "name": "413f844c93d269aeda88ee3603e640e3", "type": "electric_scooter", "bike_id": "413f844c93d269aeda88ee3603e640e3", "rental_uris": {"ios": "https://dc.lft.to/lastmile_qr_scan", "android": "https://dc.lft.to/lastmile_qr_scan"}, "fusion_lat": 0.0}, {"lat": 38.91549466666667, "lon": -77.010178, "is_disabled": 0, "fusion_lon": 0.0, "is_reserved": 0, "name": "71769a904becc073c13653a7db73752b", "type": "electric_scooter", "bike_id": "71769a904becc073c13653a7db73752b", "rental_uris": {"ios": "https://dc.lft.to/lastmile_qr_scan", "android": "https://dc.lft.to/lastmile_qr_scan"}, "fusion_lat": 0.0}, {"lat": 38.898862, "lon": -76.9317605, "is_disabled": 0, "fusion_lon": 0.0, "is_reserved": 0, "name": "be1a5a488a8e3811e1479d0cb69c5750", "type": "electric_scooter", "bike_id": "be1a5a488a8e3811e1479d0cb69c5750", "rental_uris": {"ios": "https://dc.lft.to/lastmile_qr_scan", "android": "https://dc.lft.to/lastmile_qr_scan"}, "fusion_lat": 0.0}, {"lat": 38.919836, "lon": -77.02355266666666, "is_disabled": 0, "fusion_lon": 0.0, "is_reserved": 0, "name": "f813f83938ef2ff937679a3025a903a3", "type": "electric_scooter", "bike_id": "f813f83938ef2ff937679a3025a903a3", "rental_uris": {"ios": "https://dc.lft.to/lastmile_qr_scan", "android": "https://dc.lft.to/lastmile_qr_scan"}, "fusion_lat": 0.0}, {"lat": 38.90851466666667, "lon": -77.04526233333333, "is_disabled": 0, "fusion_lon": 0.0, "is_reserved": 0, "name": "61b43291f5cff5df186c55015c29a13d", "type": "electric_scooter", "bike_id": "61b43291f5cff5df186c55015c29a13d", "rental_uris": {"ios": "https://dc.lft.to/lastmile_qr_scan", "android": "https://dc.lft.to/lastmile_qr_scan"}, "fusion_lat": 0.0}, {"lat": 38.92453583333333, "lon": -76.9710355, "is_disabled": 0, "fusion_lon": 0.0, "is_reserved": 0, "name": "9042c310dc297f8f8be0f5778da95ed8", "type": "electric_scooter", "bike_id": "9042c310dc297f8f8be0f5778da95ed8", "rental_uris": {"ios": "https://dc.lft.to/lastmile_qr_scan", "android": "https://dc.lft.to/lastmile_qr_scan"}, "fusion_lat": 0.0}, {"lat": 38.91226483333333, "lon": -77.03178133333333, "is_disabled": 0, "fusion_lon": 0.0, "is_reserved": 0, "name": "4e07af625f39e44a252bb2b4adebcf00", "type": "electric_scooter", "bike_id": "4e07af625f39e44a252bb2b4adebcf00", "rental_uris": {"ios": "https://dc.lft.to/lastmile_qr_scan", "android": "https://dc.lft.to/lastmile_qr_scan"}, "fusion_lat": 0.0}, {"lat": 38.93278883333333, "lon": -76.98433233333333, "is_disabled": 0, "fusion_lon": 0.0, "is_reserved": 0, "name": "8430e685a9b989aeaca8bf20407d7aa1", "type": "electric_scooter", "bike_id": "8430e685a9b989aeaca8bf20407d7aa1", "rental_uris": {"ios": "https://dc.lft.to/lastmile_qr_scan", "android": "https://dc.lft.to/lastmile_qr_scan"}, "fusion_lat": 0.0}, {"lat": 38.899255833333335, "lon": -76.98527916666667, "is_disabled": 0, "fusion_lon": 0.0, "is_reserved": 0, "name": "4f84a617191885ba3b60a4fdada2b056", "type": "electric_scooter", "bike_id": "4f84a617191885ba3b60a4fdada2b056", "rental_uris": {"ios": "https://dc.lft.to/lastmile_qr_scan", "android": "https://dc.lft.to/lastmile_qr_scan"}, "fusion_lat": 0.0}, {"lat": 38.90285766666667, "lon": -77.0346795, "is_disabled": 0, "fusion_lon": 0.0, "is_reserved": 0, "name": "60465ba0538f01b13fc2a2cf9ed7e00b", "type": "electric_scooter", "bike_id": "60465ba0538f01b13fc2a2cf9ed7e00b", "rental_uris": {"ios": "https://dc.lft.to/lastmile_qr_scan", "android": "https://dc.lft.to/lastmile_qr_scan"}, "fusion_lat": 0.0}, {"lat": 38.934460333333334, "lon": -77.05774733333334, "is_disabled": 0, "fusion_lon": 0.0, "is_reserved": 0, "name": "2f8c27f423fc6d8477e9a203118af516", "type": "electric_scooter", "bike_id": "2f8c27f423fc6d8477e9a203118af516", "rental_uris": {"ios": "https://dc.lft.to/lastmile_qr_scan", "android": "https://dc.lft.to/lastmile_qr_scan"}, "fusion_lat": 0.0}, {"lat": 38.9072785, "lon": -77.0109745, "is_disabled": 0, "fusion_lon": 0.0, "is_reserved": 0, "name": "b932ce1739eb0c22d625b481b9c674ff", "type": "electric_scooter", "bike_id": "b932ce1739eb0c22d625b481b9c674ff", "rental_uris": {"ios": "https://dc.lft.to/lastmile_qr_scan", "android": "https://dc.lft.to/lastmile_qr_scan"}, "fusion_lat": 0.0}, {"lat": 38.902441333333336, "lon": -77.0355995, "is_disabled": 0, "fusion_lon": 0.0, "is_reserved": 0, "name": "97587ca140e839a487c103c6271a6125", "type": "electric_scooter", "bike_id": "97587ca140e839a487c103c6271a6125", "rental_uris": {"ios": "https://dc.lft.to/lastmile_qr_scan", "android": "https://dc.lft.to/lastmile_qr_scan"}, "fusion_lat": 0.0}, {"lat": 38.88491833333333, "lon": -77.02960516666667, "is_disabled": 0, "fusion_lon": 0.0, "is_reserved": 0, "name": "3aade71ef6a6e5d62f647d5e876f46cb", "type": "electric_scooter", "bike_id": "3aade71ef6a6e5d62f647d5e876f46cb", "rental_uris": {"ios": "https://dc.lft.to/lastmile_qr_scan", "android": "https://dc.lft.to/lastmile_qr_scan"}, "fusion_lat": 0.0}, {"lat": 38.91292, "lon": -76.98696166666667, "is_disabled": 0, "fusion_lon": 0.0, "is_reserved": 0, "name": "d2ed6c2d469f79b59e6dd99eb69fe063", "type": "electric_scooter", "bike_id": "d2ed6c2d469f79b59e6dd99eb69fe063", "rental_uris": {"ios": "https://dc.lft.to/lastmile_qr_scan", "android": "https://dc.lft.to/lastmile_qr_scan"}, "fusion_lat": 0.0}, {"lat": 38.9562675, "lon": -76.93895483333333, "is_disabled": 0, "fusion_lon": 0.0, "is_reserved": 0, "name": "2a4ffc0f0fbae24ff720cba371902366", "type": "electric_bike", "bike_id": "2a4ffc0f0fbae24ff720cba371902366", "rental_uris": {"ios": "https://dc.lft.to/lastmile_qr_scan", "android": "https://dc.lft.to/lastmile_qr_scan"}, "fusion_lat": 0.0}, {"lat": 38.90868416666667, "lon": -77.04369583333333, "is_disabled": 0, "fusion_lon": 0.0, "is_reserved": 0, "name": "07803d81f3e652a919d76b96e384b5ed", "type": "electric_scooter", "bike_id": "07803d81f3e652a919d76b96e384b5ed", "rental_uris": {"ios": "https://dc.lft.to/lastmile_qr_scan", "android": "https://dc.lft.to/lastmile_qr_scan"}, "fusion_lat": 0.0}, {"lat": 38.92777383333333, "lon": -77.01566783333334, "is_disabled": 0, "fusion_lon": 0.0, "is_reserved": 0, "name": "cbc268ef290d503139e28a363a30da3f", "type": "electric_scooter", "bike_id": "cbc268ef290d503139e28a363a30da3f", "rental_uris": {"ios": "https://dc.lft.to/lastmile_qr_scan", "android": "https://dc.lft.to/lastmile_qr_scan"}, "fusion_lat": 0.0}, {"lat": 38.9049615, "lon": -77.06468083333333, "is_disabled": 0, "fusion_lon": 0.0, "is_reserved": 0, "name": "0a9d0022e7c373e17e71f784ce390151", "type": "electric_scooter", "bike_id": "0a9d0022e7c373e17e71f784ce390151", "rental_uris": {"ios": "https://dc.lft.to/lastmile_qr_scan", "android": "https://dc.lft.to/lastmile_qr_scan"}, "fusion_lat": 0.0}, {"lat": 38.90830183333333, "lon": -77.0259255, "is_disabled": 0, "fusion_lon": 0.0, "is_reserved": 0, "name": "c547c1680dbe972ff7327037402d8e7a", "type": "electric_scooter", "bike_id": "c547c1680dbe972ff7327037402d8e7a", "rental_uris": {"ios": "https://dc.lft.to/lastmile_qr_scan", "android": "https://dc.lft.to/lastmile_qr_scan"}, "fusion_lat": 0.0}, {"lat": 38.90728466666667, "lon": -77.03437783333334, "is_disabled": 0, "fusion_lon": 0.0, "is_reserved": 0, "name": "c259bc60d8f5dc57ad02a24b90b72038", "type": "electric_scooter", "bike_id": "c259bc60d8f5dc57ad02a24b90b72038", "rental_uris": {"ios": "https://dc.lft.to/lastmile_qr_scan", "android": "https://dc.lft.to/lastmile_qr_scan"}, "fusion_lat": 0.0}, {"lat": 38.89856183333333, "lon": -77.0258255, "is_disabled": 0, "fusion_lon": 0.0, "is_reserved": 0, "name": "b8cc6297b48f78506c82af3e22bafa8f", "type": "electric_scooter", "bike_id": "b8cc6297b48f78506c82af3e22bafa8f", "rental_uris": {"ios": "https://dc.lft.to/lastmile_qr_scan", "android": "https://dc.lft.to/lastmile_qr_scan"}, "fusion_lat": 0.0}, {"lat": 38.943279, "lon": -77.01473633333333, "is_disabled": 0, "fusion_lon": 0.0, "is_reserved": 0, "name": "a7daee65e2b9cc5647e06e89131dd3c6", "type": "electric_scooter", "bike_id": "a7daee65e2b9cc5647e06e89131dd3c6", "rental_uris": {"ios": "https://dc.lft.to/lastmile_qr_scan", "android": "https://dc.lft.to/lastmile_qr_scan"}, "fusion_lat": 0.0}, {"lat": 38.901832666666664, "lon": -76.934745, "is_disabled": 0, "fusion_lon": 0.0, "is_reserved": 0, "name": "b0501d1e3ad443a434cc06befd749443", "type": "electric_scooter", "bike_id": "b0501d1e3ad443a434cc06befd749443", "rental_uris": {"ios": "https://dc.lft.to/lastmile_qr_scan", "android": "https://dc.lft.to/lastmile_qr_scan"}, "fusion_lat": 0.0}, {"lat": 38.91101716666667, "lon": -76.9974345, "is_disabled": 0, "fusion_lon": 0.0, "is_reserved": 0, "name": "c3bdb6f69cb5f932984dbf07ff0e4500", "type": "electric_scooter", "bike_id": "c3bdb6f69cb5f932984dbf07ff0e4500", "rental_uris": {"ios": "https://dc.lft.to/lastmile_qr_scan", "android": "https://dc.lft.to/lastmile_qr_scan"}, "fusion_lat": 0.0}, {"lat": 38.881129, "lon": -77.01655783333334, "is_disabled": 0, "fusion_lon": 0.0, "is_reserved": 0, "name": "43a980bbb134362f5fd3c7f4df782542", "type": "electric_scooter", "bike_id": "43a980bbb134362f5fd3c7f4df782542", "rental_uris": {"ios": "https://dc.lft.to/lastmile_qr_scan", "android": "https://dc.lft.to/lastmile_qr_scan"}, "fusion_lat": 0.0}, {"lat": 38.9110585, "lon": -77.03759216666667, "is_disabled": 0, "fusion_lon": 0.0, "is_reserved": 0, "name": "4bd5c2cb02b9360d5fe6402484b965e8", "type": "electric_scooter", "bike_id": "4bd5c2cb02b9360d5fe6402484b965e8", "rental_uris": {"ios": "https://dc.lft.to/lastmile_qr_scan", "android": "https://dc.lft.to/lastmile_qr_scan"}, "fusion_lat": 0.0}, {"lat": 38.922984666666665, "lon": -77.0232695, "is_disabled": 0, "fusion_lon": 0.0, "is_reserved": 0, "name": "33b6c989cd2b96d0135109e096a1fe2e", "type": "electric_scooter", "bike_id": "33b6c989cd2b96d0135109e096a1fe2e", "rental_uris": {"ios": "https://dc.lft.to/lastmile_qr_scan", "android": "https://dc.lft.to/lastmile_qr_scan"}, "fusion_lat": 0.0}, {"lat": 38.9025505, "lon": -77.0345855, "is_disabled": 0, "fusion_lon": 0.0, "is_reserved": 0, "name": "3fec1290fce8f7ddd3186546c38e9744", "type": "electric_scooter", "bike_id": "3fec1290fce8f7ddd3186546c38e9744", "rental_uris": {"ios": "https://dc.lft.to/lastmile_qr_scan", "android": "https://dc.lft.to/lastmile_qr_scan"}, "fusion_lat": 0.0}, {"lat": 38.903807, "lon": -77.02882466666667, "is_disabled": 0, "fusion_lon": 0.0, "is_reserved": 0, "name": "bfc99c38c939b0103eba2b151b2a37d3", "type": "electric_scooter", "bike_id": "bfc99c38c939b0103eba2b151b2a37d3", "rental_uris": {"ios": "https://dc.lft.to/lastmile_qr_scan", "android": "https://dc.lft.to/lastmile_qr_scan"}, "fusion_lat": 0.0}, {"lat": 38.908131833333336, "lon": -77.03447216666666, "is_disabled": 0, "fusion_lon": 0.0, "is_reserved": 0, "name": "dd08ade6ea8e9d36e69d24e3387ec6e5", "type": "electric_scooter", "bike_id": "dd08ade6ea8e9d36e69d24e3387ec6e5", "rental_uris": {"ios": "https://dc.lft.to/lastmile_qr_scan", "android": "https://dc.lft.to/lastmile_qr_scan"}, "fusion_lat": 0.0}, {"lat": 38.926796, "lon": -77.02261933333334, "is_disabled": 0, "fusion_lon": 0.0, "is_reserved": 0, "name": "af3cc3fe88aeaad21d65816b51634578", "type": "electric_scooter", "bike_id": "af3cc3fe88aeaad21d65816b51634578", "rental_uris": {"ios": "https://dc.lft.to/lastmile_qr_scan", "android": "https://dc.lft.to/lastmile_qr_scan"}, "fusion_lat": 0.0}, {"lat": 38.919211833333335, "lon": -77.03186916666667, "is_disabled": 0, "fusion_lon": 0.0, "is_reserved": 0, "name": "92af9026ed868ea8e0fffed477a8f635", "type": "electric_scooter", "bike_id": "92af9026ed868ea8e0fffed477a8f635", "rental_uris": {"ios": "https://dc.lft.to/lastmile_qr_scan", "android": "https://dc.lft.to/lastmile_qr_scan"}, "fusion_lat": 0.0}, {"lat": 38.89721483333334, "lon": -77.02552033333333, "is_disabled": 0, "fusion_lon": 0.0, "is_reserved": 0, "name": "f0f3b8b8f5ae07de4fb5bba1bc415f2f", "type": "electric_scooter", "bike_id": "f0f3b8b8f5ae07de4fb5bba1bc415f2f", "rental_uris": {"ios": "https://dc.lft.to/lastmile_qr_scan", "android": "https://dc.lft.to/lastmile_qr_scan"}, "fusion_lat": 0.0}, {"lat": 38.92614366666667, "lon": -77.0757115, "is_disabled": 0, "fusion_lon": 0.0, "is_reserved": 0, "name": "f4a0d2c0f1ec47b35f4f6c2d31da0a2a", "type": "electric_scooter", "bike_id": "f4a0d2c0f1ec47b35f4f6c2d31da0a2a", "rental_uris": {"ios": "https://dc.lft.to/lastmile_qr_scan", "android": "https://dc.lft.to/lastmile_qr_scan"}, "fusion_lat": 0.0}, {"lat": 38.900232, "lon": -76.9740215, "is_disabled": 0, "fusion_lon": 0.0, "is_reserved": 0, "name": "2023dfccdafd485f00432a2e5a46afb8", "type": "electric_scooter", "bike_id": "2023dfccdafd485f00432a2e5a46afb8", "rental_uris": {"ios": "https://dc.lft.to/lastmile_qr_scan", "android": "https://dc.lft.to/lastmile_qr_scan"}, "fusion_lat": 0.0}, {"lat": 38.9193395, "lon": -77.01909783333333, "is_disabled": 0, "fusion_lon": 0.0, "is_reserved": 0, "name": "e0ed86d2c5d2305bdaad7d759aeb5e4d", "type": "electric_scooter", "bike_id": "e0ed86d2c5d2305bdaad7d759aeb5e4d", "rental_uris": {"ios": "https://dc.lft.to/lastmile_qr_scan", "android": "https://dc.lft.to/lastmile_qr_scan"}, "fusion_lat": 0.0}, {"lat": 38.92297766666667, "lon": -77.04298816666666, "is_disabled": 0, "fusion_lon": 0.0, "is_reserved": 0, "name": "4bb6e0eb90421b5dff3ad2b49197e150", "type": "electric_scooter", "bike_id": "4bb6e0eb90421b5dff3ad2b49197e150", "rental_uris": {"ios": "https://dc.lft.to/lastmile_qr_scan", "android": "https://dc.lft.to/lastmile_qr_scan"}, "fusion_lat": 0.0}, {"lat": 38.91787333333333, "lon": -77.02295083333334, "is_disabled": 0, "fusion_lon": 0.0, "is_reserved": 0, "name": "cc2ced07e00701f9d1e7b5385473b595", "type": "electric_scooter", "bike_id": "cc2ced07e00701f9d1e7b5385473b595", "rental_uris": {"ios": "https://dc.lft.to/lastmile_qr_scan", "android": "https://dc.lft.to/lastmile_qr_scan"}, "fusion_lat": 0.0}, {"lat": 38.91628383333333, "lon": -77.02396283333333, "is_disabled": 0, "fusion_lon": 0.0, "is_reserved": 0, "name": "f35d5a4e58e6a9b492955d92a7ec162a", "type": "electric_scooter", "bike_id": "f35d5a4e58e6a9b492955d92a7ec162a", "rental_uris": {"ios": "https://dc.lft.to/lastmile_qr_scan", "android": "https://dc.lft.to/lastmile_qr_scan"}, "fusion_lat": 0.0}, {"lat": 38.899294833333336, "lon": -77.04999533333333, "is_disabled": 0, "fusion_lon": 0.0, "is_reserved": 0, "name": "738de375a5e74fd7642dbca0c2c7ac76", "type": "electric_scooter", "bike_id": "738de375a5e74fd7642dbca0c2c7ac76", "rental_uris": {"ios": "https://dc.lft.to/lastmile_qr_scan", "android": "https://dc.lft.to/lastmile_qr_scan"}, "fusion_lat": 0.0}, {"lat": 38.91280366666667, "lon": -77.04509266666666, "is_disabled": 0, "fusion_lon": 0.0, "is_reserved": 0, "name": "04e48125de37f7fdce56b457f9212d49", "type": "electric_scooter", "bike_id": "04e48125de37f7fdce56b457f9212d49", "rental_uris": {"ios": "https://dc.lft.to/lastmile_qr_scan", "android": "https://dc.lft.to/lastmile_qr_scan"}, "fusion_lat": 0.0}, {"lat": 38.902634166666665, "lon": -77.003259, "is_disabled": 0, "fusion_lon": 0.0, "is_reserved": 0, "name": "6afa4f041731789e2e2035bdc39f5f2f", "type": "electric_scooter", "bike_id": "6afa4f041731789e2e2035bdc39f5f2f", "rental_uris": {"ios": "https://dc.lft.to/lastmile_qr_scan", "android": "https://dc.lft.to/lastmile_qr_scan"}, "fusion_lat": 0.0}, {"lat": 38.88712616666667, "lon": -77.02842416666667, "is_disabled": 0, "fusion_lon": 0.0, "is_reserved": 0, "name": "88e51f0968de4d5347777202c8b63ad4", "type": "electric_scooter", "bike_id": "88e51f0968de4d5347777202c8b63ad4", "rental_uris": {"ios": "https://dc.lft.to/lastmile_qr_scan", "android": "https://dc.lft.to/lastmile_qr_scan"}, "fusion_lat": 0.0}, {"lat": 38.905559, "lon": -77.04176183333334, "is_disabled": 0, "fusion_lon": 0.0, "is_reserved": 0, "name": "171e75b5c4c8955592cd6db4364b7f4d", "type": "electric_scooter", "bike_id": "171e75b5c4c8955592cd6db4364b7f4d", "rental_uris": {"ios": "https://dc.lft.to/lastmile_qr_scan", "android": "https://dc.lft.to/lastmile_qr_scan"}, "fusion_lat": 0.0}, {"lat": 38.88629866666667, "lon": -76.92583716666667, "is_disabled": 0, "fusion_lon": 0.0, "is_reserved": 0, "name": "f1aee641c0bf0eab20a03b3a1fb8ae61", "type": "electric_scooter", "bike_id": "f1aee641c0bf0eab20a03b3a1fb8ae61", "rental_uris": {"ios": "https://dc.lft.to/lastmile_qr_scan", "android": "https://dc.lft.to/lastmile_qr_scan"}, "fusion_lat": 0.0}, {"lat": 38.87864916666667, "lon": -76.96257533333333, "is_disabled": 0, "fusion_lon": 0.0, "is_reserved": 0, "name": "6867e36ffb7640caa1d7481d8489011b", "type": "electric_scooter", "bike_id": "6867e36ffb7640caa1d7481d8489011b", "rental_uris": {"ios": "https://dc.lft.to/lastmile_qr_scan", "android": "https://dc.lft.to/lastmile_qr_scan"}, "fusion_lat": 0.0}, {"lat": 38.9069315, "lon": -77.0358745, "is_disabled": 0, "fusion_lon": 0.0, "is_reserved": 0, "name": "654c48bfcee903a7732b2763df951449", "type": "electric_scooter", "bike_id": "654c48bfcee903a7732b2763df951449", "rental_uris": {"ios": "https://dc.lft.to/lastmile_qr_scan", "android": "https://dc.lft.to/lastmile_qr_scan"}, "fusion_lat": 0.0}, {"lat": 38.9269695, "lon": -76.99765533333333, "is_disabled": 0, "fusion_lon": 0.0, "is_reserved": 0, "name": "e748d56dd60f663da96b74fd48583161", "type": "electric_scooter", "bike_id": "e748d56dd60f663da96b74fd48583161", "rental_uris": {"ios": "https://dc.lft.to/lastmile_qr_scan", "android": "https://dc.lft.to/lastmile_qr_scan"}, "fusion_lat": 0.0}, {"lat": 38.91420816666667, "lon": -77.02178316666667, "is_disabled": 0, "fusion_lon": 0.0, "is_reserved": 0, "name": "5eeed4352dfe7df401524b45ed8c7d6b", "type": "electric_scooter", "bike_id": "5eeed4352dfe7df401524b45ed8c7d6b", "rental_uris": {"ios": "https://dc.lft.to/lastmile_qr_scan", "android": "https://dc.lft.to/lastmile_qr_scan"}, "fusion_lat": 0.0}, {"lat": 38.946504833333336, "lon": -77.0295965, "is_disabled": 0, "fusion_lon": 0.0, "is_reserved": 0, "name": "9a1f1a083c6d261627353641b30bf73f", "type": "electric_scooter", "bike_id": "9a1f1a083c6d261627353641b30bf73f", "rental_uris": {"ios": "https://dc.lft.to/lastmile_qr_scan", "android": "https://dc.lft.to/lastmile_qr_scan"}, "fusion_lat": 0.0}, {"lat": 38.93140983333333, "lon": -77.04269866666667, "is_disabled": 0, "fusion_lon": 0.0, "is_reserved": 0, "name": "dff9748377c22b7a1a99384d9df6146a", "type": "electric_scooter", "bike_id": "dff9748377c22b7a1a99384d9df6146a", "rental_uris": {"ios": "https://dc.lft.to/lastmile_qr_scan", "android": "https://dc.lft.to/lastmile_qr_scan"}, "fusion_lat": 0.0}, {"lat": 38.9323775, "lon": -76.9742515, "is_disabled": 0, "fusion_lon": 0.0, "is_reserved": 0, "name": "11181764ff2f03bf440af64d9b59b7b9", "type": "electric_bike", "bike_id": "11181764ff2f03bf440af64d9b59b7b9", "rental_uris": {"ios": "https://dc.lft.to/lastmile_qr_scan", "android": "https://dc.lft.to/lastmile_qr_scan"}, "fusion_lat": 0.0}, {"lat": 38.93583366666667, "lon": -77.0365395, "is_disabled": 0, "fusion_lon": 0.0, "is_reserved": 0, "name": "95f87d29dc3f3bd3212df77266d509e8", "type": "electric_bike", "bike_id": "95f87d29dc3f3bd3212df77266d509e8", "rental_uris": {"ios": "https://dc.lft.to/lastmile_qr_scan", "android": "https://dc.lft.to/lastmile_qr_scan"}, "fusion_lat": 0.0}, {"lat": 38.923246666666664, "lon": -77.02901766666666, "is_disabled": 0, "fusion_lon": 0.0, "is_reserved": 0, "name": "2013adc52ecabff77ae1fcef6c6bf8da", "type": "electric_scooter", "bike_id": "2013adc52ecabff77ae1fcef6c6bf8da", "rental_uris": {"ios": "https://dc.lft.to/lastmile_qr_scan", "android": "https://dc.lft.to/lastmile_qr_scan"}, "fusion_lat": 0.0}, {"lat": 38.877392, "lon": -76.9703115, "is_disabled": 0, "fusion_lon": 0.0, "is_reserved": 0, "name": "ebd66f9458e22c69c6f330fd6e22fcd5", "type": "electric_scooter", "bike_id": "ebd66f9458e22c69c6f330fd6e22fcd5", "rental_uris": {"ios": "https://dc.lft.to/lastmile_qr_scan", "android": "https://dc.lft.to/lastmile_qr_scan"}, "fusion_lat": 0.0}, {"lat": 38.9261295, "lon": -77.06413516666667, "is_disabled": 0, "fusion_lon": 0.0, "is_reserved": 0, "name": "71c5bbdc9dd9ee9e9d9d5a9109bf0e58", "type": "electric_bike", "bike_id": "71c5bbdc9dd9ee9e9d9d5a9109bf0e58", "rental_uris": {"ios": "https://dc.lft.to/lastmile_qr_scan", "android": "https://dc.lft.to/lastmile_qr_scan"}, "fusion_lat": 0.0}, {"lat": 38.927440833333335, "lon": -77.03345616666667, "is_disabled": 0, "fusion_lon": 0.0, "is_reserved": 0, "name": "885927f79cc0065857e566b2f290b61c", "type": "electric_scooter", "bike_id": "885927f79cc0065857e566b2f290b61c", "rental_uris": {"ios": "https://dc.lft.to/lastmile_qr_scan", "android": "https://dc.lft.to/lastmile_qr_scan"}, "fusion_lat": 0.0}, {"lat": 38.923652, "lon": -77.02914483333333, "is_disabled": 0, "fusion_lon": 0.0, "is_reserved": 0, "name": "aa7d3215fa5aaee8f976aeb5544e0602", "type": "electric_scooter", "bike_id": "aa7d3215fa5aaee8f976aeb5544e0602", "rental_uris": {"ios": "https://dc.lft.to/lastmile_qr_scan", "android": "https://dc.lft.to/lastmile_qr_scan"}, "fusion_lat": 0.0}, {"lat": 38.8923575, "lon": -77.048731, "is_disabled": 0, "fusion_lon": 0.0, "is_reserved": 0, "name": "6c2e7afd9b5361a398ee23c9dd04115a", "type": "electric_scooter", "bike_id": "6c2e7afd9b5361a398ee23c9dd04115a", "rental_uris": {"ios": "https://dc.lft.to/lastmile_qr_scan", "android": "https://dc.lft.to/lastmile_qr_scan"}, "fusion_lat": 0.0}, {"lat": 38.910265833333334, "lon": -77.04246133333334, "is_disabled": 0, "fusion_lon": 0.0, "is_reserved": 0, "name": "3e0d442cd1ca388479c1128bae889f2f", "type": "electric_scooter", "bike_id": "3e0d442cd1ca388479c1128bae889f2f", "rental_uris": {"ios": "https://dc.lft.to/lastmile_qr_scan", "android": "https://dc.lft.to/lastmile_qr_scan"}, "fusion_lat": 0.0}, {"lat": 38.92068966666667, "lon": -77.04200583333333, "is_disabled": 0, "fusion_lon": 0.0, "is_reserved": 0, "name": "2816a1f3763894008a7e5dbcd81ce970", "type": "electric_scooter", "bike_id": "2816a1f3763894008a7e5dbcd81ce970", "rental_uris": {"ios": "https://dc.lft.to/lastmile_qr_scan", "android": "https://dc.lft.to/lastmile_qr_scan"}, "fusion_lat": 0.0}, {"lat": 38.91130366666667, "lon": -77.02190566666667, "is_disabled": 0, "fusion_lon": 0.0, "is_reserved": 0, "name": "4619836226793ccbabc28d055bd2a52b", "type": "electric_scooter", "bike_id": "4619836226793ccbabc28d055bd2a52b", "rental_uris": {"ios": "https://dc.lft.to/lastmile_qr_scan", "android": "https://dc.lft.to/lastmile_qr_scan"}, "fusion_lat": 0.0}, {"lat": 38.92466483333333, "lon": -77.02217566666667, "is_disabled": 0, "fusion_lon": 0.0, "is_reserved": 0, "name": "8ae6a51d7151f7129a2889c32f23005c", "type": "electric_scooter", "bike_id": "8ae6a51d7151f7129a2889c32f23005c", "rental_uris": {"ios": "https://dc.lft.to/lastmile_qr_scan", "android": "https://dc.lft.to/lastmile_qr_scan"}, "fusion_lat": 0.0}, {"lat": 38.91579316666667, "lon": -77.01229383333333, "is_disabled": 0, "fusion_lon": 0.0, "is_reserved": 0, "name": "cbc4a9e1e3fd0ac2b073c3820a685cd3", "type": "electric_scooter", "bike_id": "cbc4a9e1e3fd0ac2b073c3820a685cd3", "rental_uris": {"ios": "https://dc.lft.to/lastmile_qr_scan", "android": "https://dc.lft.to/lastmile_qr_scan"}, "fusion_lat": 0.0}, {"lat": 38.917032166666665, "lon": -77.0323965, "is_disabled": 0, "fusion_lon": 0.0, "is_reserved": 0, "name": "55ae22de9a5f7375760addf03089ec79", "type": "electric_scooter", "bike_id": "55ae22de9a5f7375760addf03089ec79", "rental_uris": {"ios": "https://dc.lft.to/lastmile_qr_scan", "android": "https://dc.lft.to/lastmile_qr_scan"}, "fusion_lat": 0.0}, {"lat": 38.89892, "lon": -76.9807045, "is_disabled": 0, "fusion_lon": 0.0, "is_reserved": 0, "name": "07769010b21c2e158eff07daa535a81d", "type": "electric_scooter", "bike_id": "07769010b21c2e158eff07daa535a81d", "rental_uris": {"ios": "https://dc.lft.to/lastmile_qr_scan", "android": "https://dc.lft.to/lastmile_qr_scan"}, "fusion_lat": 0.0}, {"lat": 38.94697033333333, "lon": -77.01940933333333, "is_disabled": 0, "fusion_lon": 0.0, "is_reserved": 0, "name": "2ac217de519f11ef089145d279fef006", "type": "electric_scooter", "bike_id": "2ac217de519f11ef089145d279fef006", "rental_uris": {"ios": "https://dc.lft.to/lastmile_qr_scan", "android": "https://dc.lft.to/lastmile_qr_scan"}, "fusion_lat": 0.0}, {"lat": 38.914787, "lon": -77.04244633333333, "is_disabled": 0, "fusion_lon": 0.0, "is_reserved": 0, "name": "52db375e1775159fed57198af613df5f", "type": "electric_scooter", "bike_id": "52db375e1775159fed57198af613df5f", "rental_uris": {"ios": "https://dc.lft.to/lastmile_qr_scan", "android": "https://dc.lft.to/lastmile_qr_scan"}, "fusion_lat": 0.0}, {"lat": 38.90042233333333, "lon": -77.007313, "is_disabled": 0, "fusion_lon": 0.0, "is_reserved": 0, "name": "ec5d6d4f56a7bbc5303f928f399b857a", "type": "electric_scooter", "bike_id": "ec5d6d4f56a7bbc5303f928f399b857a", "rental_uris": {"ios": "https://dc.lft.to/lastmile_qr_scan", "android": "https://dc.lft.to/lastmile_qr_scan"}, "fusion_lat": 0.0}, {"lat": 39.070534, "lon": -77.11513966666666, "is_disabled": 0, "fusion_lon": 0.0, "is_reserved": 0, "name": "c47dce984267c1e225da96f298d4991a", "type": "electric_bike", "bike_id": "c47dce984267c1e225da96f298d4991a", "rental_uris": {"ios": "https://dc.lft.to/lastmile_qr_scan", "android": "https://dc.lft.to/lastmile_qr_scan"}, "fusion_lat": 0.0}, {"lat": 38.900165333333334, "lon": -77.00200366666667, "is_disabled": 0, "fusion_lon": 0.0, "is_reserved": 0, "name": "90c76f3e9dcf5992005fd655f116475a", "type": "electric_scooter", "bike_id": "90c76f3e9dcf5992005fd655f116475a", "rental_uris": {"ios": "https://dc.lft.to/lastmile_qr_scan", "android": "https://dc.lft.to/lastmile_qr_scan"}, "fusion_lat": 0.0}, {"lat": 38.912290166666665, "lon": -77.04865083333334, "is_disabled": 0, "fusion_lon": 0.0, "is_reserved": 0, "name": "fde8bd16f3a471e52e12a76d8cfe69ae", "type": "electric_scooter", "bike_id": "fde8bd16f3a471e52e12a76d8cfe69ae", "rental_uris": {"ios": "https://dc.lft.to/lastmile_qr_scan", "android": "https://dc.lft.to/lastmile_qr_scan"}, "fusion_lat": 0.0}, {"lat": 38.91455166666667, "lon": -77.04156533333334, "is_disabled": 0, "fusion_lon": 0.0, "is_reserved": 0, "name": "4d2b010e690218e049cb3bef177e3ef8", "type": "electric_scooter", "bike_id": "4d2b010e690218e049cb3bef177e3ef8", "rental_uris": {"ios": "https://dc.lft.to/lastmile_qr_scan", "android": "https://dc.lft.to/lastmile_qr_scan"}, "fusion_lat": 0.0}, {"lat": 38.947335333333335, "lon": -77.01614533333333, "is_disabled": 0, "fusion_lon": 0.0, "is_reserved": 0, "name": "ab180f273d0bbd7c440d42a4002a0281", "type": "electric_scooter", "bike_id": "ab180f273d0bbd7c440d42a4002a0281", "rental_uris": {"ios": "https://dc.lft.to/lastmile_qr_scan", "android": "https://dc.lft.to/lastmile_qr_scan"}, "fusion_lat": 0.0}, {"lat": 38.9126365, "lon": -77.015615, "is_disabled": 0, "fusion_lon": 0.0, "is_reserved": 0, "name": "a5bc4c99253c25fda399634be14ae6a9", "type": "electric_scooter", "bike_id": "a5bc4c99253c25fda399634be14ae6a9", "rental_uris": {"ios": "https://dc.lft.to/lastmile_qr_scan", "android": "https://dc.lft.to/lastmile_qr_scan"}, "fusion_lat": 0.0}, {"lat": 38.90573766666667, "lon": -77.0220635, "is_disabled": 0, "fusion_lon": 0.0, "is_reserved": 0, "name": "7a85d024bf48e389b31e02d5fa7efb43", "type": "electric_scooter", "bike_id": "7a85d024bf48e389b31e02d5fa7efb43", "rental_uris": {"ios": "https://dc.lft.to/lastmile_qr_scan", "android": "https://dc.lft.to/lastmile_qr_scan"}, "fusion_lat": 0.0}, {"lat": 38.922946833333334, "lon": -77.03655883333333, "is_disabled": 0, "fusion_lon": 0.0, "is_reserved": 0, "name": "f9457d6e7c8e7378fc527f6ea1fd8a2f", "type": "electric_scooter", "bike_id": "f9457d6e7c8e7378fc527f6ea1fd8a2f", "rental_uris": {"ios": "https://dc.lft.to/lastmile_qr_scan", "android": "https://dc.lft.to/lastmile_qr_scan"}, "fusion_lat": 0.0}, {"lat": 38.8990365, "lon": -76.945508, "is_disabled": 0, "fusion_lon": 0.0, "is_reserved": 0, "name": "7ebf102f12b17f019c1e45097001be0e", "type": "electric_scooter", "bike_id": "7ebf102f12b17f019c1e45097001be0e", "rental_uris": {"ios": "https://dc.lft.to/lastmile_qr_scan", "android": "https://dc.lft.to/lastmile_qr_scan"}, "fusion_lat": 0.0}, {"lat": 38.90474183333333, "lon": -77.00742216666667, "is_disabled": 0, "fusion_lon": 0.0, "is_reserved": 0, "name": "446db0efe7ec0a52d69ae1c6230970bf", "type": "electric_scooter", "bike_id": "446db0efe7ec0a52d69ae1c6230970bf", "rental_uris": {"ios": "https://dc.lft.to/lastmile_qr_scan", "android": "https://dc.lft.to/lastmile_qr_scan"}, "fusion_lat": 0.0}, {"lat": 38.91348466666667, "lon": -77.0466285, "is_disabled": 0, "fusion_lon": 0.0, "is_reserved": 0, "name": "e99df8964aa0071636e7e26242d8441a", "type": "electric_scooter", "bike_id": "e99df8964aa0071636e7e26242d8441a", "rental_uris": {"ios": "https://dc.lft.to/lastmile_qr_scan", "android": "https://dc.lft.to/lastmile_qr_scan"}, "fusion_lat": 0.0}, {"lat": 38.903909, "lon": -77.01808166666666, "is_disabled": 0, "fusion_lon": 0.0, "is_reserved": 0, "name": "b12b778684a98729c8ca68ca89f2416e", "type": "electric_scooter", "bike_id": "b12b778684a98729c8ca68ca89f2416e", "rental_uris": {"ios": "https://dc.lft.to/lastmile_qr_scan", "android": "https://dc.lft.to/lastmile_qr_scan"}, "fusion_lat": 0.0}, {"lat": 38.9176515, "lon": -77.0236935, "is_disabled": 0, "fusion_lon": 0.0, "is_reserved": 0, "name": "84c00fe66ecdad9d91ca40a774b74cc3", "type": "electric_scooter", "bike_id": "84c00fe66ecdad9d91ca40a774b74cc3", "rental_uris": {"ios": "https://dc.lft.to/lastmile_qr_scan", "android": "https://dc.lft.to/lastmile_qr_scan"}, "fusion_lat": 0.0}, {"lat": 38.91656366666667, "lon": -77.04381866666667, "is_disabled": 0, "fusion_lon": 0.0, "is_reserved": 0, "name": "c583e050af6dd8cde4838a90a0ba4f6b", "type": "electric_scooter", "bike_id": "c583e050af6dd8cde4838a90a0ba4f6b", "rental_uris": {"ios": "https://dc.lft.to/lastmile_qr_scan", "android": "https://dc.lft.to/lastmile_qr_scan"}, "fusion_lat": 0.0}, {"lat": 38.911537333333335, "lon": -77.03454183333334, "is_disabled": 0, "fusion_lon": 0.0, "is_reserved": 0, "name": "b3ebf2b6aa89d5b8085c72ac1ea5a782", "type": "electric_scooter", "bike_id": "b3ebf2b6aa89d5b8085c72ac1ea5a782", "rental_uris": {"ios": "https://dc.lft.to/lastmile_qr_scan", "android": "https://dc.lft.to/lastmile_qr_scan"}, "fusion_lat": 0.0}, {"lat": 38.90088866666667, "lon": -77.03354633333333, "is_disabled": 0, "fusion_lon": 0.0, "is_reserved": 0, "name": "dc33f1894193d927c4034be66eb167be", "type": "electric_scooter", "bike_id": "dc33f1894193d927c4034be66eb167be", "rental_uris": {"ios": "https://dc.lft.to/lastmile_qr_scan", "android": "https://dc.lft.to/lastmile_qr_scan"}, "fusion_lat": 0.0}, {"lat": 38.923144666666666, "lon": -77.03409383333333, "is_disabled": 0, "fusion_lon": 0.0, "is_reserved": 0, "name": "ae4853864e4fc2e94892428d7d357894", "type": "electric_scooter", "bike_id": "ae4853864e4fc2e94892428d7d357894", "rental_uris": {"ios": "https://dc.lft.to/lastmile_qr_scan", "android": "https://dc.lft.to/lastmile_qr_scan"}, "fusion_lat": 0.0}, {"lat": 38.83249433333334, "lon": -77.0072595, "is_disabled": 0, "fusion_lon": 0.0, "is_reserved": 0, "name": "fbb1e978c81217942b763bcf02d79e69", "type": "electric_bike", "bike_id": "fbb1e978c81217942b763bcf02d79e69", "rental_uris": {"ios": "https://dc.lft.to/lastmile_qr_scan", "android": "https://dc.lft.to/lastmile_qr_scan"}, "fusion_lat": 0.0}, {"lat": 38.91931133333333, "lon": -77.0342105, "is_disabled": 0, "fusion_lon": 0.0, "is_reserved": 0, "name": "42d17bad2cb025337beee9050e7aa4c1", "type": "electric_scooter", "bike_id": "42d17bad2cb025337beee9050e7aa4c1", "rental_uris": {"ios": "https://dc.lft.to/lastmile_qr_scan", "android": "https://dc.lft.to/lastmile_qr_scan"}, "fusion_lat": 0.0}, {"lat": 38.912961833333334, "lon": -77.02231716666667, "is_disabled": 0, "fusion_lon": 0.0, "is_reserved": 0, "name": "14a57aa43ae9203e559fd8fa6c049236", "type": "electric_scooter", "bike_id": "14a57aa43ae9203e559fd8fa6c049236", "rental_uris": {"ios": "https://dc.lft.to/lastmile_qr_scan", "android": "https://dc.lft.to/lastmile_qr_scan"}, "fusion_lat": 0.0}, {"lat": 38.9563475, "lon": -77.03305066666667, "is_disabled": 0, "fusion_lon": 0.0, "is_reserved": 0, "name": "40d77a47c4ccce03a771f9c2910b5bdf", "type": "electric_scooter", "bike_id": "40d77a47c4ccce03a771f9c2910b5bdf", "rental_uris": {"ios": "https://dc.lft.to/lastmile_qr_scan", "android": "https://dc.lft.to/lastmile_qr_scan"}, "fusion_lat": 0.0}, {"lat": 38.905915, "lon": -77.04335366666666, "is_disabled": 0, "fusion_lon": 0.0, "is_reserved": 0, "name": "82fad9cb46142373d8f603c1ff946076", "type": "electric_scooter", "bike_id": "82fad9cb46142373d8f603c1ff946076", "rental_uris": {"ios": "https://dc.lft.to/lastmile_qr_scan", "android": "https://dc.lft.to/lastmile_qr_scan"}, "fusion_lat": 0.0}, {"lat": 38.9573095, "lon": -77.02405833333333, "is_disabled": 0, "fusion_lon": 0.0, "is_reserved": 0, "name": "b4386b66ba90eb7b80a48d93d4a7d5d9", "type": "electric_scooter", "bike_id": "b4386b66ba90eb7b80a48d93d4a7d5d9", "rental_uris": {"ios": "https://dc.lft.to/lastmile_qr_scan", "android": "https://dc.lft.to/lastmile_qr_scan"}, "fusion_lat": 0.0}, {"lat": 38.9318585, "lon": -77.03463316666667, "is_disabled": 0, "fusion_lon": 0.0, "is_reserved": 0, "name": "1610401056d227bc52b19060126e70be", "type": "electric_scooter", "bike_id": "1610401056d227bc52b19060126e70be", "rental_uris": {"ios": "https://dc.lft.to/lastmile_qr_scan", "android": "https://dc.lft.to/lastmile_qr_scan"}, "fusion_lat": 0.0}, {"lat": 38.9360955, "lon": -77.0318115, "is_disabled": 0, "fusion_lon": 0.0, "is_reserved": 0, "name": "091816332397abf8099551cce2660c88", "type": "electric_scooter", "bike_id": "091816332397abf8099551cce2660c88", "rental_uris": {"ios": "https://dc.lft.to/lastmile_qr_scan", "android": "https://dc.lft.to/lastmile_qr_scan"}, "fusion_lat": 0.0}, {"lat": 38.91697716666667, "lon": -77.02875533333334, "is_disabled": 0, "fusion_lon": 0.0, "is_reserved": 0, "name": "50051c413bca1e7983ef4c6c54706f9a", "type": "electric_scooter", "bike_id": "50051c413bca1e7983ef4c6c54706f9a", "rental_uris": {"ios": "https://dc.lft.to/lastmile_qr_scan", "android": "https://dc.lft.to/lastmile_qr_scan"}, "fusion_lat": 0.0}, {"lat": 38.9125415, "lon": -76.972036, "is_disabled": 0, "fusion_lon": 0.0, "is_reserved": 0, "name": "172121fcf11c6e8fb0449e86b636976d", "type": "electric_scooter", "bike_id": "172121fcf11c6e8fb0449e86b636976d", "rental_uris": {"ios": "https://dc.lft.to/lastmile_qr_scan", "android": "https://dc.lft.to/lastmile_qr_scan"}, "fusion_lat": 0.0}, {"lat": 38.938806166666666, "lon": -77.02481866666666, "is_disabled": 0, "fusion_lon": 0.0, "is_reserved": 0, "name": "6a1f5131198b5295103106c45a84352d", "type": "electric_scooter", "bike_id": "6a1f5131198b5295103106c45a84352d", "rental_uris": {"ios": "https://dc.lft.to/lastmile_qr_scan", "android": "https://dc.lft.to/lastmile_qr_scan"}, "fusion_lat": 0.0}, {"lat": 38.9370815, "lon": -77.0328155, "is_disabled": 0, "fusion_lon": 0.0, "is_reserved": 0, "name": "a251e1f8fc55ed7fe249a5bc3da735b8", "type": "electric_scooter", "bike_id": "a251e1f8fc55ed7fe249a5bc3da735b8", "rental_uris": {"ios": "https://dc.lft.to/lastmile_qr_scan", "android": "https://dc.lft.to/lastmile_qr_scan"}, "fusion_lat": 0.0}, {"lat": 38.8973395, "lon": -77.0434765, "is_disabled": 0, "fusion_lon": 0.0, "is_reserved": 0, "name": "a9e0e80f6f1574a52fc8a58a60b385ea", "type": "electric_scooter", "bike_id": "a9e0e80f6f1574a52fc8a58a60b385ea", "rental_uris": {"ios": "https://dc.lft.to/lastmile_qr_scan", "android": "https://dc.lft.to/lastmile_qr_scan"}, "fusion_lat": 0.0}, {"lat": 38.909517, "lon": -77.03943066666666, "is_disabled": 0, "fusion_lon": 0.0, "is_reserved": 0, "name": "46641932cfd6e0fa7e389b545aef16c6", "type": "electric_scooter", "bike_id": "46641932cfd6e0fa7e389b545aef16c6", "rental_uris": {"ios": "https://dc.lft.to/lastmile_qr_scan", "android": "https://dc.lft.to/lastmile_qr_scan"}, "fusion_lat": 0.0}, {"lat": 38.92282433333333, "lon": -76.99780633333333, "is_disabled": 0, "fusion_lon": 0.0, "is_reserved": 0, "name": "370289a2e78d9221e0deac435a3ec1ac", "type": "electric_scooter", "bike_id": "370289a2e78d9221e0deac435a3ec1ac", "rental_uris": {"ios": "https://dc.lft.to/lastmile_qr_scan", "android": "https://dc.lft.to/lastmile_qr_scan"}, "fusion_lat": 0.0}, {"lat": 38.92121433333333, "lon": -77.03657016666666, "is_disabled": 0, "fusion_lon": 0.0, "is_reserved": 0, "name": "64108c2090e56cc2777b11a1433831dc", "type": "electric_scooter", "bike_id": "64108c2090e56cc2777b11a1433831dc", "rental_uris": {"ios": "https://dc.lft.to/lastmile_qr_scan", "android": "https://dc.lft.to/lastmile_qr_scan"}, "fusion_lat": 0.0}, {"lat": 38.90358066666667, "lon": -77.00566883333333, "is_disabled": 0, "fusion_lon": 0.0, "is_reserved": 0, "name": "2d58413b2f734775458686d1c4b430f1", "type": "electric_scooter", "bike_id": "2d58413b2f734775458686d1c4b430f1", "rental_uris": {"ios": "https://dc.lft.to/lastmile_qr_scan", "android": "https://dc.lft.to/lastmile_qr_scan"}, "fusion_lat": 0.0}, {"lat": 38.901331166666665, "lon": -77.016624, "is_disabled": 0, "fusion_lon": 0.0, "is_reserved": 0, "name": "0db8a3e284be58e384a5d67f53395c3a", "type": "electric_scooter", "bike_id": "0db8a3e284be58e384a5d67f53395c3a", "rental_uris": {"ios": "https://dc.lft.to/lastmile_qr_scan", "android": "https://dc.lft.to/lastmile_qr_scan"}, "fusion_lat": 0.0}, {"lat": 38.9342525, "lon": -77.03997916666667, "is_disabled": 0, "fusion_lon": 0.0, "is_reserved": 0, "name": "86997a66ea4bca03805bdaa1cf44260e", "type": "electric_scooter", "bike_id": "86997a66ea4bca03805bdaa1cf44260e", "rental_uris": {"ios": "https://dc.lft.to/lastmile_qr_scan", "android": "https://dc.lft.to/lastmile_qr_scan"}, "fusion_lat": 0.0}, {"lat": 38.91345583333333, "lon": -77.01221333333334, "is_disabled": 0, "fusion_lon": 0.0, "is_reserved": 0, "name": "d4bda919e1d2e3ea96b57656bc04edd8", "type": "electric_scooter", "bike_id": "d4bda919e1d2e3ea96b57656bc04edd8", "rental_uris": {"ios": "https://dc.lft.to/lastmile_qr_scan", "android": "https://dc.lft.to/lastmile_qr_scan"}, "fusion_lat": 0.0}, {"lat": 38.922576666666664, "lon": -77.02045566666666, "is_disabled": 0, "fusion_lon": 0.0, "is_reserved": 0, "name": "4a21fbab0cdf1d7b2ef683c256add2e3", "type": "electric_scooter", "bike_id": "4a21fbab0cdf1d7b2ef683c256add2e3", "rental_uris": {"ios": "https://dc.lft.to/lastmile_qr_scan", "android": "https://dc.lft.to/lastmile_qr_scan"}, "fusion_lat": 0.0}, {"lat": 38.900998333333334, "lon": -76.99384066666667, "is_disabled": 0, "fusion_lon": 0.0, "is_reserved": 0, "name": "966f8ce0e0322044aac121ea21269910", "type": "electric_scooter", "bike_id": "966f8ce0e0322044aac121ea21269910", "rental_uris": {"ios": "https://dc.lft.to/lastmile_qr_scan", "android": "https://dc.lft.to/lastmile_qr_scan"}, "fusion_lat": 0.0}, {"lat": 38.906911666666666, "lon": -77.063375, "is_disabled": 0, "fusion_lon": 0.0, "is_reserved": 0, "name": "4e9927af34e51619bd4a6a3179a32054", "type": "electric_scooter", "bike_id": "4e9927af34e51619bd4a6a3179a32054", "rental_uris": {"ios": "https://dc.lft.to/lastmile_qr_scan", "android": "https://dc.lft.to/lastmile_qr_scan"}, "fusion_lat": 0.0}, {"lat": 38.91425066666667, "lon": -77.0318095, "is_disabled": 0, "fusion_lon": 0.0, "is_reserved": 0, "name": "bdba9780bda017fb0f9bf06506335dd6", "type": "electric_scooter", "bike_id": "bdba9780bda017fb0f9bf06506335dd6", "rental_uris": {"ios": "https://dc.lft.to/lastmile_qr_scan", "android": "https://dc.lft.to/lastmile_qr_scan"}, "fusion_lat": 0.0}, {"lat": 38.89220616666667, "lon": -77.02644566666666, "is_disabled": 0, "fusion_lon": 0.0, "is_reserved": 0, "name": "c0e572faf34ad2e0580c1b042538071f", "type": "electric_scooter", "bike_id": "c0e572faf34ad2e0580c1b042538071f", "rental_uris": {"ios": "https://dc.lft.to/lastmile_qr_scan", "android": "https://dc.lft.to/lastmile_qr_scan"}, "fusion_lat": 0.0}, {"lat": 38.916540166666664, "lon": -77.00938333333333, "is_disabled": 0, "fusion_lon": 0.0, "is_reserved": 0, "name": "43fab548c85d20ae9b558f3cb0513e71", "type": "electric_scooter", "bike_id": "43fab548c85d20ae9b558f3cb0513e71", "rental_uris": {"ios": "https://dc.lft.to/lastmile_qr_scan", "android": "https://dc.lft.to/lastmile_qr_scan"}, "fusion_lat": 0.0}, {"lat": 38.89211783333333, "lon": -76.99569533333333, "is_disabled": 0, "fusion_lon": 0.0, "is_reserved": 0, "name": "8e48680ab121a5e24a2997472f6ffc5d", "type": "electric_bike", "bike_id": "8e48680ab121a5e24a2997472f6ffc5d", "rental_uris": {"ios": "https://dc.lft.to/lastmile_qr_scan", "android": "https://dc.lft.to/lastmile_qr_scan"}, "fusion_lat": 0.0}, {"lat": 38.9247775, "lon": -77.02659966666667, "is_disabled": 0, "fusion_lon": 0.0, "is_reserved": 0, "name": "ec0e3ddb83b2e5a6c03a19ddd8eee241", "type": "electric_scooter", "bike_id": "ec0e3ddb83b2e5a6c03a19ddd8eee241", "rental_uris": {"ios": "https://dc.lft.to/lastmile_qr_scan", "android": "https://dc.lft.to/lastmile_qr_scan"}, "fusion_lat": 0.0}, {"lat": 38.8921285, "lon": -77.02764733333333, "is_disabled": 0, "fusion_lon": 0.0, "is_reserved": 0, "name": "dbf3fe9125bf3a6bf1da5be066274a90", "type": "electric_scooter", "bike_id": "dbf3fe9125bf3a6bf1da5be066274a90", "rental_uris": {"ios": "https://dc.lft.to/lastmile_qr_scan", "android": "https://dc.lft.to/lastmile_qr_scan"}, "fusion_lat": 0.0}, {"lat": 38.901513666666666, "lon": -77.04428766666666, "is_disabled": 0, "fusion_lon": 0.0, "is_reserved": 0, "name": "e36363827b5dec774cbe37f3c37e5def", "type": "electric_scooter", "bike_id": "e36363827b5dec774cbe37f3c37e5def", "rental_uris": {"ios": "https://dc.lft.to/lastmile_qr_scan", "android": "https://dc.lft.to/lastmile_qr_scan"}, "fusion_lat": 0.0}, {"lat": 38.92341316666667, "lon": -77.0517735, "is_disabled": 0, "fusion_lon": 0.0, "is_reserved": 0, "name": "673e8cd60aa63a754b68cc3ce48af38f", "type": "electric_scooter", "bike_id": "673e8cd60aa63a754b68cc3ce48af38f", "rental_uris": {"ios": "https://dc.lft.to/lastmile_qr_scan", "android": "https://dc.lft.to/lastmile_qr_scan"}, "fusion_lat": 0.0}, {"lat": 38.9192585, "lon": -77.03421733333333, "is_disabled": 0, "fusion_lon": 0.0, "is_reserved": 0, "name": "ecb910a99efbe43c5efc5bcb6c16dd69", "type": "electric_scooter", "bike_id": "ecb910a99efbe43c5efc5bcb6c16dd69", "rental_uris": {"ios": "https://dc.lft.to/lastmile_qr_scan", "android": "https://dc.lft.to/lastmile_qr_scan"}, "fusion_lat": 0.0}, {"lat": 38.930955833333336, "lon": -77.0247645, "is_disabled": 0, "fusion_lon": 0.0, "is_reserved": 0, "name": "15cbe4031da43253d067a3b974b51640", "type": "electric_scooter", "bike_id": "15cbe4031da43253d067a3b974b51640", "rental_uris": {"ios": "https://dc.lft.to/lastmile_qr_scan", "android": "https://dc.lft.to/lastmile_qr_scan"}, "fusion_lat": 0.0}, {"lat": 38.91404683333333, "lon": -77.039539, "is_disabled": 0, "fusion_lon": 0.0, "is_reserved": 0, "name": "28bacbc7de51415e53ad20cb80ed1b86", "type": "electric_scooter", "bike_id": "28bacbc7de51415e53ad20cb80ed1b86", "rental_uris": {"ios": "https://dc.lft.to/lastmile_qr_scan", "android": "https://dc.lft.to/lastmile_qr_scan"}, "fusion_lat": 0.0}, {"lat": 38.9147575, "lon": -77.0461025, "is_disabled": 0, "fusion_lon": 0.0, "is_reserved": 0, "name": "93ef1f5c4861ad6ef8f0bba7f3414b99", "type": "electric_scooter", "bike_id": "93ef1f5c4861ad6ef8f0bba7f3414b99", "rental_uris": {"ios": "https://dc.lft.to/lastmile_qr_scan", "android": "https://dc.lft.to/lastmile_qr_scan"}, "fusion_lat": 0.0}, {"lat": 38.874785, "lon": -77.00599833333334, "is_disabled": 0, "fusion_lon": 0.0, "is_reserved": 0, "name": "922ec181687c5a94e352acf17b569aed", "type": "electric_scooter", "bike_id": "922ec181687c5a94e352acf17b569aed", "rental_uris": {"ios": "https://dc.lft.to/lastmile_qr_scan", "android": "https://dc.lft.to/lastmile_qr_scan"}, "fusion_lat": 0.0}, {"lat": 38.920849833333335, "lon": -77.02564466666666, "is_disabled": 0, "fusion_lon": 0.0, "is_reserved": 0, "name": "f8b9484b7f5321dee3e6c40e4e222fff", "type": "electric_scooter", "bike_id": "f8b9484b7f5321dee3e6c40e4e222fff", "rental_uris": {"ios": "https://dc.lft.to/lastmile_qr_scan", "android": "https://dc.lft.to/lastmile_qr_scan"}, "fusion_lat": 0.0}, {"lat": 38.895446166666666, "lon": -77.010887, "is_disabled": 0, "fusion_lon": 0.0, "is_reserved": 0, "name": "7ac0fb682ec7eb96f58f9486d52adee9", "type": "electric_scooter", "bike_id": "7ac0fb682ec7eb96f58f9486d52adee9", "rental_uris": {"ios": "https://dc.lft.to/lastmile_qr_scan", "android": "https://dc.lft.to/lastmile_qr_scan"}, "fusion_lat": 0.0}, {"lat": 38.96180416666667, "lon": -77.014302, "is_disabled": 0, "fusion_lon": 0.0, "is_reserved": 0, "name": "2d28c9a4f8612b173ac5f50341a60b45", "type": "electric_scooter", "bike_id": "2d28c9a4f8612b173ac5f50341a60b45", "rental_uris": {"ios": "https://dc.lft.to/lastmile_qr_scan", "android": "https://dc.lft.to/lastmile_qr_scan"}, "fusion_lat": 0.0}, {"lat": 38.916606333333334, "lon": -77.02472183333333, "is_disabled": 0, "fusion_lon": 0.0, "is_reserved": 0, "name": "d83aa5c85e4843c318affd0b82fe5dc6", "type": "electric_scooter", "bike_id": "d83aa5c85e4843c318affd0b82fe5dc6", "rental_uris": {"ios": "https://dc.lft.to/lastmile_qr_scan", "android": "https://dc.lft.to/lastmile_qr_scan"}, "fusion_lat": 0.0}, {"lat": 38.90029766666667, "lon": -76.98937466666666, "is_disabled": 0, "fusion_lon": 0.0, "is_reserved": 0, "name": "def2409aa0f6da4258fa57532a055bde", "type": "electric_scooter", "bike_id": "def2409aa0f6da4258fa57532a055bde", "rental_uris": {"ios": "https://dc.lft.to/lastmile_qr_scan", "android": "https://dc.lft.to/lastmile_qr_scan"}, "fusion_lat": 0.0}, {"lat": 38.84131416666666, "lon": -77.063092, "is_disabled": 0, "fusion_lon": 0.0, "is_reserved": 0, "name": "4b28166b0dbd8b7be16a6a7243a7aeb7", "type": "electric_bike", "bike_id": "4b28166b0dbd8b7be16a6a7243a7aeb7", "rental_uris": {"ios": "https://dc.lft.to/lastmile_qr_scan", "android": "https://dc.lft.to/lastmile_qr_scan"}, "fusion_lat": 0.0}, {"lat": 38.906758833333335, "lon": -77.02702666666667, "is_disabled": 0, "fusion_lon": 0.0, "is_reserved": 0, "name": "edb381be1ca9b6aa58fae7a638c2bb83", "type": "electric_scooter", "bike_id": "edb381be1ca9b6aa58fae7a638c2bb83", "rental_uris": {"ios": "https://dc.lft.to/lastmile_qr_scan", "android": "https://dc.lft.to/lastmile_qr_scan"}, "fusion_lat": 0.0}, {"lat": 38.90049916666667, "lon": -77.00066433333333, "is_disabled": 0, "fusion_lon": 0.0, "is_reserved": 0, "name": "48707259ad3a61b2a864c66e86e3ddd4", "type": "electric_scooter", "bike_id": "48707259ad3a61b2a864c66e86e3ddd4", "rental_uris": {"ios": "https://dc.lft.to/lastmile_qr_scan", "android": "https://dc.lft.to/lastmile_qr_scan"}, "fusion_lat": 0.0}, {"lat": 38.80975883333333, "lon": -77.07663216666667, "is_disabled": 0, "fusion_lon": 0.0, "is_reserved": 0, "name": "45aa9845607a7b9ec58fd22665f77352", "type": "electric_bike", "bike_id": "45aa9845607a7b9ec58fd22665f77352", "rental_uris": {"ios": "https://dc.lft.to/lastmile_qr_scan", "android": "https://dc.lft.to/lastmile_qr_scan"}, "fusion_lat": 0.0}, {"lat": 38.949518, "lon": -77.0667115, "is_disabled": 0, "fusion_lon": 0.0, "is_reserved": 0, "name": "176ea0acef33dcbbcc1916005374a28a", "type": "electric_scooter", "bike_id": "176ea0acef33dcbbcc1916005374a28a", "rental_uris": {"ios": "https://dc.lft.to/lastmile_qr_scan", "android": "https://dc.lft.to/lastmile_qr_scan"}, "fusion_lat": 0.0}, {"lat": 38.932547166666666, "lon": -77.032645, "is_disabled": 0, "fusion_lon": 0.0, "is_reserved": 0, "name": "496e5bc0262199e8fd5e5d04fad706a3", "type": "electric_scooter", "bike_id": "496e5bc0262199e8fd5e5d04fad706a3", "rental_uris": {"ios": "https://dc.lft.to/lastmile_qr_scan", "android": "https://dc.lft.to/lastmile_qr_scan"}, "fusion_lat": 0.0}, {"lat": 38.9016895, "lon": -77.01502583333334, "is_disabled": 0, "fusion_lon": 0.0, "is_reserved": 0, "name": "638329ecb63351ffebf467fb8c085cc7", "type": "electric_scooter", "bike_id": "638329ecb63351ffebf467fb8c085cc7", "rental_uris": {"ios": "https://dc.lft.to/lastmile_qr_scan", "android": "https://dc.lft.to/lastmile_qr_scan"}, "fusion_lat": 0.0}, {"lat": 38.909515166666665, "lon": -77.0356735, "is_disabled": 0, "fusion_lon": 0.0, "is_reserved": 0, "name": "5b1e3b0ff569817f6e5e40affaec4c57", "type": "electric_scooter", "bike_id": "5b1e3b0ff569817f6e5e40affaec4c57", "rental_uris": {"ios": "https://dc.lft.to/lastmile_qr_scan", "android": "https://dc.lft.to/lastmile_qr_scan"}, "fusion_lat": 0.0}, {"lat": 38.910898333333336, "lon": -76.98475066666667, "is_disabled": 0, "fusion_lon": 0.0, "is_reserved": 0, "name": "2c2c3248043a1da425e2a91b07dae44e", "type": "electric_bike", "bike_id": "2c2c3248043a1da425e2a91b07dae44e", "rental_uris": {"ios": "https://dc.lft.to/lastmile_qr_scan", "android": "https://dc.lft.to/lastmile_qr_scan"}, "fusion_lat": 0.0}, {"lat": 38.91537966666667, "lon": -77.0445745, "is_disabled": 0, "fusion_lon": 0.0, "is_reserved": 0, "name": "09067485b955dfd676c66a8cb189ea38", "type": "electric_scooter", "bike_id": "09067485b955dfd676c66a8cb189ea38", "rental_uris": {"ios": "https://dc.lft.to/lastmile_qr_scan", "android": "https://dc.lft.to/lastmile_qr_scan"}, "fusion_lat": 0.0}, {"lat": 38.89590916666667, "lon": -76.9830865, "is_disabled": 0, "fusion_lon": 0.0, "is_reserved": 0, "name": "9c4d4755ae154b7c68300101e65216d9", "type": "electric_scooter", "bike_id": "9c4d4755ae154b7c68300101e65216d9", "rental_uris": {"ios": "https://dc.lft.to/lastmile_qr_scan", "android": "https://dc.lft.to/lastmile_qr_scan"}, "fusion_lat": 0.0}, {"lat": 38.926141, "lon": -77.03226166666667, "is_disabled": 0, "fusion_lon": 0.0, "is_reserved": 0, "name": "9d6f2ff6bb00fb0c4100c1a1abd81d55", "type": "electric_scooter", "bike_id": "9d6f2ff6bb00fb0c4100c1a1abd81d55", "rental_uris": {"ios": "https://dc.lft.to/lastmile_qr_scan", "android": "https://dc.lft.to/lastmile_qr_scan"}, "fusion_lat": 0.0}, {"lat": 38.91122433333334, "lon": -77.0219865, "is_disabled": 0, "fusion_lon": 0.0, "is_reserved": 0, "name": "35b9f319c983e059918594c835ed342c", "type": "electric_scooter", "bike_id": "35b9f319c983e059918594c835ed342c", "rental_uris": {"ios": "https://dc.lft.to/lastmile_qr_scan", "android": "https://dc.lft.to/lastmile_qr_scan"}, "fusion_lat": 0.0}, {"lat": 38.89987383333333, "lon": -77.01637166666667, "is_disabled": 0, "fusion_lon": 0.0, "is_reserved": 0, "name": "14cd6e07dd0ffa80c8d41628189c9e41", "type": "electric_scooter", "bike_id": "14cd6e07dd0ffa80c8d41628189c9e41", "rental_uris": {"ios": "https://dc.lft.to/lastmile_qr_scan", "android": "https://dc.lft.to/lastmile_qr_scan"}, "fusion_lat": 0.0}, {"lat": 38.91823083333333, "lon": -77.02420116666667, "is_disabled": 0, "fusion_lon": 0.0, "is_reserved": 0, "name": "d3ed2b978154c16d39376c427f724898", "type": "electric_scooter", "bike_id": "d3ed2b978154c16d39376c427f724898", "rental_uris": {"ios": "https://dc.lft.to/lastmile_qr_scan", "android": "https://dc.lft.to/lastmile_qr_scan"}, "fusion_lat": 0.0}, {"lat": 38.9084505, "lon": -77.02230833333333, "is_disabled": 0, "fusion_lon": 0.0, "is_reserved": 0, "name": "34e672aa23a7179260bae027b74b13d9", "type": "electric_scooter", "bike_id": "34e672aa23a7179260bae027b74b13d9", "rental_uris": {"ios": "https://dc.lft.to/lastmile_qr_scan", "android": "https://dc.lft.to/lastmile_qr_scan"}, "fusion_lat": 0.0}, {"lat": 38.9082675, "lon": -77.03394516666667, "is_disabled": 0, "fusion_lon": 0.0, "is_reserved": 0, "name": "1f2f0624532d7b885ffa32317494f53a", "type": "electric_scooter", "bike_id": "1f2f0624532d7b885ffa32317494f53a", "rental_uris": {"ios": "https://dc.lft.to/lastmile_qr_scan", "android": "https://dc.lft.to/lastmile_qr_scan"}, "fusion_lat": 0.0}, {"lat": 38.900984333333334, "lon": -76.930492, "is_disabled": 0, "fusion_lon": 0.0, "is_reserved": 0, "name": "719d108032d857a1827b4db978844881", "type": "electric_scooter", "bike_id": "719d108032d857a1827b4db978844881", "rental_uris": {"ios": "https://dc.lft.to/lastmile_qr_scan", "android": "https://dc.lft.to/lastmile_qr_scan"}, "fusion_lat": 0.0}, {"lat": 38.86012566666667, "lon": -76.96705383333334, "is_disabled": 0, "fusion_lon": 0.0, "is_reserved": 0, "name": "d65189d5ac5d630dc59fb58bcd76060d", "type": "electric_scooter", "bike_id": "d65189d5ac5d630dc59fb58bcd76060d", "rental_uris": {"ios": "https://dc.lft.to/lastmile_qr_scan", "android": "https://dc.lft.to/lastmile_qr_scan"}, "fusion_lat": 0.0}, {"lat": 38.927202, "lon": -77.02272216666667, "is_disabled": 0, "fusion_lon": 0.0, "is_reserved": 0, "name": "6c4885d2303e69b04b56a9fd8e2d5a01", "type": "electric_scooter", "bike_id": "6c4885d2303e69b04b56a9fd8e2d5a01", "rental_uris": {"ios": "https://dc.lft.to/lastmile_qr_scan", "android": "https://dc.lft.to/lastmile_qr_scan"}, "fusion_lat": 0.0}, {"lat": 38.907821166666665, "lon": -77.042651, "is_disabled": 0, "fusion_lon": 0.0, "is_reserved": 0, "name": "3a8faa6ba9c4da7c3a9618348ed058f1", "type": "electric_scooter", "bike_id": "3a8faa6ba9c4da7c3a9618348ed058f1", "rental_uris": {"ios": "https://dc.lft.to/lastmile_qr_scan", "android": "https://dc.lft.to/lastmile_qr_scan"}, "fusion_lat": 0.0}, {"lat": 38.91217566666667, "lon": -77.03842283333333, "is_disabled": 0, "fusion_lon": 0.0, "is_reserved": 0, "name": "0692a8d3c4a4f91c540cd2e5d38779af", "type": "electric_scooter", "bike_id": "0692a8d3c4a4f91c540cd2e5d38779af", "rental_uris": {"ios": "https://dc.lft.to/lastmile_qr_scan", "android": "https://dc.lft.to/lastmile_qr_scan"}, "fusion_lat": 0.0}, {"lat": 38.916833833333335, "lon": -77.03193633333333, "is_disabled": 0, "fusion_lon": 0.0, "is_reserved": 0, "name": "441877e81c188629b4f50ce88ecb8bb5", "type": "electric_scooter", "bike_id": "441877e81c188629b4f50ce88ecb8bb5", "rental_uris": {"ios": "https://dc.lft.to/lastmile_qr_scan", "android": "https://dc.lft.to/lastmile_qr_scan"}, "fusion_lat": 0.0}, {"lat": 38.91051733333333, "lon": -77.021841, "is_disabled": 0, "fusion_lon": 0.0, "is_reserved": 0, "name": "9c4fa9ce66d74b28155e7d0c659fa049", "type": "electric_scooter", "bike_id": "9c4fa9ce66d74b28155e7d0c659fa049", "rental_uris": {"ios": "https://dc.lft.to/lastmile_qr_scan", "android": "https://dc.lft.to/lastmile_qr_scan"}, "fusion_lat": 0.0}, {"lat": 38.91205, "lon": -77.01184716666667, "is_disabled": 0, "fusion_lon": 0.0, "is_reserved": 0, "name": "b4ed191e1aaf8f4257285802ed1c3cda", "type": "electric_scooter", "bike_id": "b4ed191e1aaf8f4257285802ed1c3cda", "rental_uris": {"ios": "https://dc.lft.to/lastmile_qr_scan", "android": "https://dc.lft.to/lastmile_qr_scan"}, "fusion_lat": 0.0}, {"lat": 38.914884666666666, "lon": -77.03756533333333, "is_disabled": 0, "fusion_lon": 0.0, "is_reserved": 0, "name": "cf03c160b8021a3086e2d540d31d349b", "type": "electric_scooter", "bike_id": "cf03c160b8021a3086e2d540d31d349b", "rental_uris": {"ios": "https://dc.lft.to/lastmile_qr_scan", "android": "https://dc.lft.to/lastmile_qr_scan"}, "fusion_lat": 0.0}, {"lat": 38.898179666666664, "lon": -77.01545733333333, "is_disabled": 0, "fusion_lon": 0.0, "is_reserved": 0, "name": "37344b02736e2524c881909a12bcdf91", "type": "electric_scooter", "bike_id": "37344b02736e2524c881909a12bcdf91", "rental_uris": {"ios": "https://dc.lft.to/lastmile_qr_scan", "android": "https://dc.lft.to/lastmile_qr_scan"}, "fusion_lat": 0.0}, {"lat": 38.9878965, "lon": -77.14096166666667, "is_disabled": 0, "fusion_lon": 0.0, "is_reserved": 0, "name": "cc3d52d2df8a4882f44df145cfd6b77c", "type": "electric_bike", "bike_id": "cc3d52d2df8a4882f44df145cfd6b77c", "rental_uris": {"ios": "https://dc.lft.to/lastmile_qr_scan", "android": "https://dc.lft.to/lastmile_qr_scan"}, "fusion_lat": 0.0}, {"lat": 38.89543716666667, "lon": -76.983365, "is_disabled": 0, "fusion_lon": 0.0, "is_reserved": 0, "name": "bc370bb79a2f7f716aba8db1c9228c8b", "type": "electric_scooter", "bike_id": "bc370bb79a2f7f716aba8db1c9228c8b", "rental_uris": {"ios": "https://dc.lft.to/lastmile_qr_scan", "android": "https://dc.lft.to/lastmile_qr_scan"}, "fusion_lat": 0.0}, {"lat": 38.8632865, "lon": -76.987182, "is_disabled": 0, "fusion_lon": 0.0, "is_reserved": 0, "name": "f4baffc46303ad9cea1f653168ce30a9", "type": "electric_bike", "bike_id": "f4baffc46303ad9cea1f653168ce30a9", "rental_uris": {"ios": "https://dc.lft.to/lastmile_qr_scan", "android": "https://dc.lft.to/lastmile_qr_scan"}, "fusion_lat": 0.0}, {"lat": 38.87621733333334, "lon": -77.01559216666666, "is_disabled": 0, "fusion_lon": 0.0, "is_reserved": 0, "name": "d77d2db276c306522cf8e51228b70560", "type": "electric_scooter", "bike_id": "d77d2db276c306522cf8e51228b70560", "rental_uris": {"ios": "https://dc.lft.to/lastmile_qr_scan", "android": "https://dc.lft.to/lastmile_qr_scan"}, "fusion_lat": 0.0}, {"lat": 38.90470966666667, "lon": -77.0660165, "is_disabled": 0, "fusion_lon": 0.0, "is_reserved": 0, "name": "996b72bf982bd9f9b016cffb12643fb2", "type": "electric_scooter", "bike_id": "996b72bf982bd9f9b016cffb12643fb2", "rental_uris": {"ios": "https://dc.lft.to/lastmile_qr_scan", "android": "https://dc.lft.to/lastmile_qr_scan"}, "fusion_lat": 0.0}, {"lat": 38.91545166666667, "lon": -77.02373033333333, "is_disabled": 0, "fusion_lon": 0.0, "is_reserved": 0, "name": "8acbb4dbf72f9ea19f7f4949acee7483", "type": "electric_scooter", "bike_id": "8acbb4dbf72f9ea19f7f4949acee7483", "rental_uris": {"ios": "https://dc.lft.to/lastmile_qr_scan", "android": "https://dc.lft.to/lastmile_qr_scan"}, "fusion_lat": 0.0}, {"lat": 38.838652, "lon": -76.997095, "is_disabled": 0, "fusion_lon": 0.0, "is_reserved": 0, "name": "4a1e6544fa215b237655780620a3c632", "type": "electric_bike", "bike_id": "4a1e6544fa215b237655780620a3c632", "rental_uris": {"ios": "https://dc.lft.to/lastmile_qr_scan", "android": "https://dc.lft.to/lastmile_qr_scan"}, "fusion_lat": 0.0}, {"lat": 38.919087833333336, "lon": -77.02375416666666, "is_disabled": 0, "fusion_lon": 0.0, "is_reserved": 0, "name": "c6b4627216d0d80d10c7f98f29af4665", "type": "electric_scooter", "bike_id": "c6b4627216d0d80d10c7f98f29af4665", "rental_uris": {"ios": "https://dc.lft.to/lastmile_qr_scan", "android": "https://dc.lft.to/lastmile_qr_scan"}, "fusion_lat": 0.0}, {"lat": 38.873831, "lon": -77.00125566666667, "is_disabled": 0, "fusion_lon": 0.0, "is_reserved": 0, "name": "60efaf064a67983eb8b3c1ce1ae5ae3c", "type": "electric_scooter", "bike_id": "60efaf064a67983eb8b3c1ce1ae5ae3c", "rental_uris": {"ios": "https://dc.lft.to/lastmile_qr_scan", "android": "https://dc.lft.to/lastmile_qr_scan"}, "fusion_lat": 0.0}, {"lat": 38.90853466666667, "lon": -77.02724583333334, "is_disabled": 0, "fusion_lon": 0.0, "is_reserved": 0, "name": "780f16b00d9b0724fdfec229589c4004", "type": "electric_scooter", "bike_id": "780f16b00d9b0724fdfec229589c4004", "rental_uris": {"ios": "https://dc.lft.to/lastmile_qr_scan", "android": "https://dc.lft.to/lastmile_qr_scan"}, "fusion_lat": 0.0}, {"lat": 38.91587283333333, "lon": -77.01719316666667, "is_disabled": 0, "fusion_lon": 0.0, "is_reserved": 0, "name": "353cd45a2118bc55da38aba52512f885", "type": "electric_scooter", "bike_id": "353cd45a2118bc55da38aba52512f885", "rental_uris": {"ios": "https://dc.lft.to/lastmile_qr_scan", "android": "https://dc.lft.to/lastmile_qr_scan"}, "fusion_lat": 0.0}, {"lat": 38.90633616666667, "lon": -77.02503066666667, "is_disabled": 0, "fusion_lon": 0.0, "is_reserved": 0, "name": "552b8275179c2998aa2d4634eceff63e", "type": "electric_scooter", "bike_id": "552b8275179c2998aa2d4634eceff63e", "rental_uris": {"ios": "https://dc.lft.to/lastmile_qr_scan", "android": "https://dc.lft.to/lastmile_qr_scan"}, "fusion_lat": 0.0}, {"lat": 38.90061933333333, "lon": -77.04175233333333, "is_disabled": 0, "fusion_lon": 0.0, "is_reserved": 0, "name": "e320f24ba129a3b2b607a4ed5e906368", "type": "electric_scooter", "bike_id": "e320f24ba129a3b2b607a4ed5e906368", "rental_uris": {"ios": "https://dc.lft.to/lastmile_qr_scan", "android": "https://dc.lft.to/lastmile_qr_scan"}, "fusion_lat": 0.0}, {"lat": 38.9541895, "lon": -77.02771983333334, "is_disabled": 0, "fusion_lon": 0.0, "is_reserved": 0, "name": "7687d0b614ec1942722d250b1974cc55", "type": "electric_scooter", "bike_id": "7687d0b614ec1942722d250b1974cc55", "rental_uris": {"ios": "https://dc.lft.to/lastmile_qr_scan", "android": "https://dc.lft.to/lastmile_qr_scan"}, "fusion_lat": 0.0}, {"lat": 38.89198, "lon": -77.0265935, "is_disabled": 0, "fusion_lon": 0.0, "is_reserved": 0, "name": "1d07b63920bcbc9144508684e7544c4c", "type": "electric_scooter", "bike_id": "1d07b63920bcbc9144508684e7544c4c", "rental_uris": {"ios": "https://dc.lft.to/lastmile_qr_scan", "android": "https://dc.lft.to/lastmile_qr_scan"}, "fusion_lat": 0.0}, {"lat": 38.8852595, "lon": -76.9821095, "is_disabled": 0, "fusion_lon": 0.0, "is_reserved": 0, "name": "15343e1455a63ec2d1c058e987fb7bcf", "type": "electric_scooter", "bike_id": "15343e1455a63ec2d1c058e987fb7bcf", "rental_uris": {"ios": "https://dc.lft.to/lastmile_qr_scan", "android": "https://dc.lft.to/lastmile_qr_scan"}, "fusion_lat": 0.0}, {"lat": 38.8430355, "lon": -76.99532733333334, "is_disabled": 0, "fusion_lon": 0.0, "is_reserved": 0, "name": "dbde2c58c49e3b715c710f560849c405", "type": "electric_scooter", "bike_id": "dbde2c58c49e3b715c710f560849c405", "rental_uris": {"ios": "https://dc.lft.to/lastmile_qr_scan", "android": "https://dc.lft.to/lastmile_qr_scan"}, "fusion_lat": 0.0}, {"lat": 38.92595416666666, "lon": -77.210097, "is_disabled": 0, "fusion_lon": 0.0, "is_reserved": 0, "name": "3d689fd1a9d1fa0f62bf2b0e93230512", "type": "electric_bike", "bike_id": "3d689fd1a9d1fa0f62bf2b0e93230512", "rental_uris": {"ios": "https://dc.lft.to/lastmile_qr_scan", "android": "https://dc.lft.to/lastmile_qr_scan"}, "fusion_lat": 0.0}, {"lat": 38.907348166666665, "lon": -77.0415385, "is_disabled": 0, "fusion_lon": 0.0, "is_reserved": 0, "name": "9327d499aec108f64c06c8d48d26d4de", "type": "electric_scooter", "bike_id": "9327d499aec108f64c06c8d48d26d4de", "rental_uris": {"ios": "https://dc.lft.to/lastmile_qr_scan", "android": "https://dc.lft.to/lastmile_qr_scan"}, "fusion_lat": 0.0}, {"lat": 38.92331016666667, "lon": -77.05681833333334, "is_disabled": 0, "fusion_lon": 0.0, "is_reserved": 0, "name": "4cb9c1d1d224794482ac03414f0abcbd", "type": "electric_scooter", "bike_id": "4cb9c1d1d224794482ac03414f0abcbd", "rental_uris": {"ios": "https://dc.lft.to/lastmile_qr_scan", "android": "https://dc.lft.to/lastmile_qr_scan"}, "fusion_lat": 0.0}, {"lat": 38.9002365, "lon": -76.99973766666666, "is_disabled": 0, "fusion_lon": 0.0, "is_reserved": 0, "name": "c0d54866b6a163611ec7030ad8cf217c", "type": "electric_scooter", "bike_id": "c0d54866b6a163611ec7030ad8cf217c", "rental_uris": {"ios": "https://dc.lft.to/lastmile_qr_scan", "android": "https://dc.lft.to/lastmile_qr_scan"}, "fusion_lat": 0.0}, {"lat": 38.915086333333335, "lon": -77.01565266666667, "is_disabled": 0, "fusion_lon": 0.0, "is_reserved": 0, "name": "a15ba544bc1efdbca1f35c895bce27b2", "type": "electric_scooter", "bike_id": "a15ba544bc1efdbca1f35c895bce27b2", "rental_uris": {"ios": "https://dc.lft.to/lastmile_qr_scan", "android": "https://dc.lft.to/lastmile_qr_scan"}, "fusion_lat": 0.0}, {"lat": 38.937400833333335, "lon": -77.036225, "is_disabled": 0, "fusion_lon": 0.0, "is_reserved": 0, "name": "81b279b1b9a5aef9b3c914baf8685356", "type": "electric_scooter", "bike_id": "81b279b1b9a5aef9b3c914baf8685356", "rental_uris": {"ios": "https://dc.lft.to/lastmile_qr_scan", "android": "https://dc.lft.to/lastmile_qr_scan"}, "fusion_lat": 0.0}, {"lat": 38.827774, "lon": -77.1248405, "is_disabled": 0, "fusion_lon": 0.0, "is_reserved": 0, "name": "e559049316d90fece3477eb90cb3fc2f", "type": "electric_bike", "bike_id": "e559049316d90fece3477eb90cb3fc2f", "rental_uris": {"ios": "https://dc.lft.to/lastmile_qr_scan", "android": "https://dc.lft.to/lastmile_qr_scan"}, "fusion_lat": 0.0}, {"lat": 38.917676166666666, "lon": -77.02272616666667, "is_disabled": 0, "fusion_lon": 0.0, "is_reserved": 0, "name": "50f22ddd9c9df4ea7cccc3f7f3dc507a", "type": "electric_scooter", "bike_id": "50f22ddd9c9df4ea7cccc3f7f3dc507a", "rental_uris": {"ios": "https://dc.lft.to/lastmile_qr_scan", "android": "https://dc.lft.to/lastmile_qr_scan"}, "fusion_lat": 0.0}, {"lat": 38.874632, "lon": -77.014454, "is_disabled": 0, "fusion_lon": 0.0, "is_reserved": 0, "name": "4643e5439b46516ae13ef38cb6a089b7", "type": "electric_scooter", "bike_id": "4643e5439b46516ae13ef38cb6a089b7", "rental_uris": {"ios": "https://dc.lft.to/lastmile_qr_scan", "android": "https://dc.lft.to/lastmile_qr_scan"}, "fusion_lat": 0.0}, {"lat": 38.93180433333333, "lon": -77.04300966666666, "is_disabled": 0, "fusion_lon": 0.0, "is_reserved": 0, "name": "5e8d404b8db3e08b0a055aece2f45bb5", "type": "electric_scooter", "bike_id": "5e8d404b8db3e08b0a055aece2f45bb5", "rental_uris": {"ios": "https://dc.lft.to/lastmile_qr_scan", "android": "https://dc.lft.to/lastmile_qr_scan"}, "fusion_lat": 0.0}, {"lat": 38.91112066666667, "lon": -77.04537, "is_disabled": 0, "fusion_lon": 0.0, "is_reserved": 0, "name": "dcc409108f9deeab76afc84895b71a4d", "type": "electric_scooter", "bike_id": "dcc409108f9deeab76afc84895b71a4d", "rental_uris": {"ios": "https://dc.lft.to/lastmile_qr_scan", "android": "https://dc.lft.to/lastmile_qr_scan"}, "fusion_lat": 0.0}, {"lat": 38.9170665, "lon": -77.04175233333333, "is_disabled": 0, "fusion_lon": 0.0, "is_reserved": 0, "name": "f9d92ba4279063f4da055acd1f328dec", "type": "electric_scooter", "bike_id": "f9d92ba4279063f4da055acd1f328dec", "rental_uris": {"ios": "https://dc.lft.to/lastmile_qr_scan", "android": "https://dc.lft.to/lastmile_qr_scan"}, "fusion_lat": 0.0}, {"lat": 38.88766916666667, "lon": -77.01302066666666, "is_disabled": 0, "fusion_lon": 0.0, "is_reserved": 0, "name": "cabbcd794170a9e57e6a0c0833b8f748", "type": "electric_scooter", "bike_id": "cabbcd794170a9e57e6a0c0833b8f748", "rental_uris": {"ios": "https://dc.lft.to/lastmile_qr_scan", "android": "https://dc.lft.to/lastmile_qr_scan"}, "fusion_lat": 0.0}, {"lat": 38.917111, "lon": -76.9764765, "is_disabled": 0, "fusion_lon": 0.0, "is_reserved": 0, "name": "382a01f47124c0501a26b2b7fbff599c", "type": "electric_scooter", "bike_id": "382a01f47124c0501a26b2b7fbff599c", "rental_uris": {"ios": "https://dc.lft.to/lastmile_qr_scan", "android": "https://dc.lft.to/lastmile_qr_scan"}, "fusion_lat": 0.0}, {"lat": 38.88725483333333, "lon": -77.02840066666667, "is_disabled": 0, "fusion_lon": 0.0, "is_reserved": 0, "name": "55a6f8fa5c421a9beb076274d45dc2d8", "type": "electric_scooter", "bike_id": "55a6f8fa5c421a9beb076274d45dc2d8", "rental_uris": {"ios": "https://dc.lft.to/lastmile_qr_scan", "android": "https://dc.lft.to/lastmile_qr_scan"}, "fusion_lat": 0.0}, {"lat": 38.88009616666667, "lon": -77.00574516666667, "is_disabled": 0, "fusion_lon": 0.0, "is_reserved": 0, "name": "bae47ca70aa3a9b5bf2e0c4f3a80903a", "type": "electric_scooter", "bike_id": "bae47ca70aa3a9b5bf2e0c4f3a80903a", "rental_uris": {"ios": "https://dc.lft.to/lastmile_qr_scan", "android": "https://dc.lft.to/lastmile_qr_scan"}, "fusion_lat": 0.0}, {"lat": 38.903917666666665, "lon": -77.06012633333333, "is_disabled": 0, "fusion_lon": 0.0, "is_reserved": 0, "name": "04eca66a793ba244d38fa3fbf1fadeab", "type": "electric_scooter", "bike_id": "04eca66a793ba244d38fa3fbf1fadeab", "rental_uris": {"ios": "https://dc.lft.to/lastmile_qr_scan", "android": "https://dc.lft.to/lastmile_qr_scan"}, "fusion_lat": 0.0}, {"lat": 38.91823333333333, "lon": -77.02418166666666, "is_disabled": 0, "fusion_lon": 0.0, "is_reserved": 0, "name": "642b1a2cbdabaa48aa0d78ae7c9f092c", "type": "electric_scooter", "bike_id": "642b1a2cbdabaa48aa0d78ae7c9f092c", "rental_uris": {"ios": "https://dc.lft.to/lastmile_qr_scan", "android": "https://dc.lft.to/lastmile_qr_scan"}, "fusion_lat": 0.0}, {"lat": 38.909448833333336, "lon": -77.048279, "is_disabled": 0, "fusion_lon": 0.0, "is_reserved": 0, "name": "c3763be4891786682586b294108dbe8a", "type": "electric_scooter", "bike_id": "c3763be4891786682586b294108dbe8a", "rental_uris": {"ios": "https://dc.lft.to/lastmile_qr_scan", "android": "https://dc.lft.to/lastmile_qr_scan"}, "fusion_lat": 0.0}, {"lat": 38.928316, "lon": -76.9959145, "is_disabled": 0, "fusion_lon": 0.0, "is_reserved": 0, "name": "bd182edd231261871227ae1bb33641f5", "type": "electric_scooter", "bike_id": "bd182edd231261871227ae1bb33641f5", "rental_uris": {"ios": "https://dc.lft.to/lastmile_qr_scan", "android": "https://dc.lft.to/lastmile_qr_scan"}, "fusion_lat": 0.0}, {"lat": 38.92162916666667, "lon": -77.03835333333333, "is_disabled": 0, "fusion_lon": 0.0, "is_reserved": 0, "name": "00edc5f7743fc200082530e12251202c", "type": "electric_scooter", "bike_id": "00edc5f7743fc200082530e12251202c", "rental_uris": {"ios": "https://dc.lft.to/lastmile_qr_scan", "android": "https://dc.lft.to/lastmile_qr_scan"}, "fusion_lat": 0.0}, {"lat": 38.910417333333335, "lon": -77.03412516666667, "is_disabled": 0, "fusion_lon": 0.0, "is_reserved": 0, "name": "6770409278cba7033d15e257c9625033", "type": "electric_scooter", "bike_id": "6770409278cba7033d15e257c9625033", "rental_uris": {"ios": "https://dc.lft.to/lastmile_qr_scan", "android": "https://dc.lft.to/lastmile_qr_scan"}, "fusion_lat": 0.0}, {"lat": 38.90036116666667, "lon": -77.001936, "is_disabled": 0, "fusion_lon": 0.0, "is_reserved": 0, "name": "b9d1bc73b29bac89de7916443da4f324", "type": "electric_scooter", "bike_id": "b9d1bc73b29bac89de7916443da4f324", "rental_uris": {"ios": "https://dc.lft.to/lastmile_qr_scan", "android": "https://dc.lft.to/lastmile_qr_scan"}, "fusion_lat": 0.0}, {"lat": 38.92389216666667, "lon": -77.02160216666667, "is_disabled": 0, "fusion_lon": 0.0, "is_reserved": 0, "name": "85b04e963e9dc4ee566d254caa084f5a", "type": "electric_scooter", "bike_id": "85b04e963e9dc4ee566d254caa084f5a", "rental_uris": {"ios": "https://dc.lft.to/lastmile_qr_scan", "android": "https://dc.lft.to/lastmile_qr_scan"}, "fusion_lat": 0.0}, {"lat": 38.902282666666665, "lon": -77.02345583333333, "is_disabled": 0, "fusion_lon": 0.0, "is_reserved": 0, "name": "840909723e593e044dc23fdf72ce11bf", "type": "electric_scooter", "bike_id": "840909723e593e044dc23fdf72ce11bf", "rental_uris": {"ios": "https://dc.lft.to/lastmile_qr_scan", "android": "https://dc.lft.to/lastmile_qr_scan"}, "fusion_lat": 0.0}, {"lat": 38.90196366666667, "lon": -77.01617966666667, "is_disabled": 0, "fusion_lon": 0.0, "is_reserved": 0, "name": "4f6e9dad1f1b7175681f7ac6c271ac1c", "type": "electric_scooter", "bike_id": "4f6e9dad1f1b7175681f7ac6c271ac1c", "rental_uris": {"ios": "https://dc.lft.to/lastmile_qr_scan", "android": "https://dc.lft.to/lastmile_qr_scan"}, "fusion_lat": 0.0}, {"lat": 38.924885833333335, "lon": -77.0350845, "is_disabled": 0, "fusion_lon": 0.0, "is_reserved": 0, "name": "9a9095d48c15de76d522d13a2e93210a", "type": "electric_scooter", "bike_id": "9a9095d48c15de76d522d13a2e93210a", "rental_uris": {"ios": "https://dc.lft.to/lastmile_qr_scan", "android": "https://dc.lft.to/lastmile_qr_scan"}, "fusion_lat": 0.0}, {"lat": 38.904948166666664, "lon": -77.02961616666667, "is_disabled": 0, "fusion_lon": 0.0, "is_reserved": 0, "name": "c8ca74b07a62765c0f15b6af1c6b3828", "type": "electric_scooter", "bike_id": "c8ca74b07a62765c0f15b6af1c6b3828", "rental_uris": {"ios": "https://dc.lft.to/lastmile_qr_scan", "android": "https://dc.lft.to/lastmile_qr_scan"}, "fusion_lat": 0.0}, {"lat": 38.90274633333333, "lon": -76.92883633333334, "is_disabled": 0, "fusion_lon": 0.0, "is_reserved": 0, "name": "c7cff7a7ead0b94f81f0956fdb189c6d", "type": "electric_scooter", "bike_id": "c7cff7a7ead0b94f81f0956fdb189c6d", "rental_uris": {"ios": "https://dc.lft.to/lastmile_qr_scan", "android": "https://dc.lft.to/lastmile_qr_scan"}, "fusion_lat": 0.0}, {"lat": 38.918856, "lon": -77.04310666666667, "is_disabled": 0, "fusion_lon": 0.0, "is_reserved": 0, "name": "d2331824703ddc0f5618b0150d852cf1", "type": "electric_scooter", "bike_id": "d2331824703ddc0f5618b0150d852cf1", "rental_uris": {"ios": "https://dc.lft.to/lastmile_qr_scan", "android": "https://dc.lft.to/lastmile_qr_scan"}, "fusion_lat": 0.0}, {"lat": 38.87106933333333, "lon": -76.9657615, "is_disabled": 0, "fusion_lon": 0.0, "is_reserved": 0, "name": "b21c380112ef3ec07f3afd9b16c2c935", "type": "electric_scooter", "bike_id": "b21c380112ef3ec07f3afd9b16c2c935", "rental_uris": {"ios": "https://dc.lft.to/lastmile_qr_scan", "android": "https://dc.lft.to/lastmile_qr_scan"}, "fusion_lat": 0.0}, {"lat": 38.934177166666665, "lon": -77.03292983333333, "is_disabled": 0, "fusion_lon": 0.0, "is_reserved": 0, "name": "7f98d6608f85476228f52e9a76bedff6", "type": "electric_scooter", "bike_id": "7f98d6608f85476228f52e9a76bedff6", "rental_uris": {"ios": "https://dc.lft.to/lastmile_qr_scan", "android": "https://dc.lft.to/lastmile_qr_scan"}, "fusion_lat": 0.0}, {"lat": 38.87731316666667, "lon": -77.11850216666667, "is_disabled": 0, "fusion_lon": 0.0, "is_reserved": 0, "name": "242064b90cfcb0ecc170848d41b65548", "type": "electric_bike", "bike_id": "242064b90cfcb0ecc170848d41b65548", "rental_uris": {"ios": "https://dc.lft.to/lastmile_qr_scan", "android": "https://dc.lft.to/lastmile_qr_scan"}, "fusion_lat": 0.0}, {"lat": 38.91923366666666, "lon": -77.02478033333334, "is_disabled": 0, "fusion_lon": 0.0, "is_reserved": 0, "name": "895cec0fcb50b919c54d18f210df48a8", "type": "electric_scooter", "bike_id": "895cec0fcb50b919c54d18f210df48a8", "rental_uris": {"ios": "https://dc.lft.to/lastmile_qr_scan", "android": "https://dc.lft.to/lastmile_qr_scan"}, "fusion_lat": 0.0}, {"lat": 38.9136015, "lon": -77.0204895, "is_disabled": 0, "fusion_lon": 0.0, "is_reserved": 0, "name": "28181d0cda461af5c179865b0d9c800e", "type": "electric_scooter", "bike_id": "28181d0cda461af5c179865b0d9c800e", "rental_uris": {"ios": "https://dc.lft.to/lastmile_qr_scan", "android": "https://dc.lft.to/lastmile_qr_scan"}, "fusion_lat": 0.0}, {"lat": 38.90338966666667, "lon": -77.03989816666666, "is_disabled": 0, "fusion_lon": 0.0, "is_reserved": 0, "name": "202b4ef5759df7b650e420805ed99d9e", "type": "electric_scooter", "bike_id": "202b4ef5759df7b650e420805ed99d9e", "rental_uris": {"ios": "https://dc.lft.to/lastmile_qr_scan", "android": "https://dc.lft.to/lastmile_qr_scan"}, "fusion_lat": 0.0}, {"lat": 38.9273865, "lon": -76.99557866666666, "is_disabled": 0, "fusion_lon": 0.0, "is_reserved": 0, "name": "8a71784d7d2e148f5baae8a3479112ea", "type": "electric_scooter", "bike_id": "8a71784d7d2e148f5baae8a3479112ea", "rental_uris": {"ios": "https://dc.lft.to/lastmile_qr_scan", "android": "https://dc.lft.to/lastmile_qr_scan"}, "fusion_lat": 0.0}, {"lat": 38.917861333333335, "lon": -77.04430566666667, "is_disabled": 0, "fusion_lon": 0.0, "is_reserved": 0, "name": "931a8f3c14c402ee8ccaced167b4359c", "type": "electric_scooter", "bike_id": "931a8f3c14c402ee8ccaced167b4359c", "rental_uris": {"ios": "https://dc.lft.to/lastmile_qr_scan", "android": "https://dc.lft.to/lastmile_qr_scan"}, "fusion_lat": 0.0}, {"lat": 38.8989795, "lon": -76.984984, "is_disabled": 0, "fusion_lon": 0.0, "is_reserved": 0, "name": "68e162bc2033e2804f9f801601e4bbeb", "type": "electric_scooter", "bike_id": "68e162bc2033e2804f9f801601e4bbeb", "rental_uris": {"ios": "https://dc.lft.to/lastmile_qr_scan", "android": "https://dc.lft.to/lastmile_qr_scan"}, "fusion_lat": 0.0}, {"lat": 38.9056875, "lon": -77.008851, "is_disabled": 0, "fusion_lon": 0.0, "is_reserved": 0, "name": "3c7c64c82318405db2f6b6ebe49e3885", "type": "electric_scooter", "bike_id": "3c7c64c82318405db2f6b6ebe49e3885", "rental_uris": {"ios": "https://dc.lft.to/lastmile_qr_scan", "android": "https://dc.lft.to/lastmile_qr_scan"}, "fusion_lat": 0.0}, {"lat": 38.89251816666667, "lon": -76.98844783333334, "is_disabled": 0, "fusion_lon": 0.0, "is_reserved": 0, "name": "bdfe2901c96d652a0f379cad27479867", "type": "electric_scooter", "bike_id": "bdfe2901c96d652a0f379cad27479867", "rental_uris": {"ios": "https://dc.lft.to/lastmile_qr_scan", "android": "https://dc.lft.to/lastmile_qr_scan"}, "fusion_lat": 0.0}, {"lat": 39.00482616666667, "lon": -77.02186116666667, "is_disabled": 0, "fusion_lon": 0.0, "is_reserved": 0, "name": "776615a060c8e445eb43fe3fac810484", "type": "electric_bike", "bike_id": "776615a060c8e445eb43fe3fac810484", "rental_uris": {"ios": "https://dc.lft.to/lastmile_qr_scan", "android": "https://dc.lft.to/lastmile_qr_scan"}, "fusion_lat": 0.0}, {"lat": 38.90119716666667, "lon": -77.00217766666667, "is_disabled": 0, "fusion_lon": 0.0, "is_reserved": 0, "name": "709feb3d7ae2ba4d6c0ba51d303b75bb", "type": "electric_scooter", "bike_id": "709feb3d7ae2ba4d6c0ba51d303b75bb", "rental_uris": {"ios": "https://dc.lft.to/lastmile_qr_scan", "android": "https://dc.lft.to/lastmile_qr_scan"}, "fusion_lat": 0.0}, {"lat": 38.88403866666667, "lon": -76.960597, "is_disabled": 0, "fusion_lon": 0.0, "is_reserved": 0, "name": "460c5ab273773a3cc66f26d5eb33e6c7", "type": "electric_bike", "bike_id": "460c5ab273773a3cc66f26d5eb33e6c7", "rental_uris": {"ios": "https://dc.lft.to/lastmile_qr_scan", "android": "https://dc.lft.to/lastmile_qr_scan"}, "fusion_lat": 0.0}, {"lat": 38.901826, "lon": -77.0160415, "is_disabled": 0, "fusion_lon": 0.0, "is_reserved": 0, "name": "be1c37087b00c9ef7704d7252fcb8402", "type": "electric_scooter", "bike_id": "be1c37087b00c9ef7704d7252fcb8402", "rental_uris": {"ios": "https://dc.lft.to/lastmile_qr_scan", "android": "https://dc.lft.to/lastmile_qr_scan"}, "fusion_lat": 0.0}, {"lat": 38.870979166666665, "lon": -76.94203066666667, "is_disabled": 0, "fusion_lon": 0.0, "is_reserved": 0, "name": "64bf42f522c282976899a4673f4d33a0", "type": "electric_scooter", "bike_id": "64bf42f522c282976899a4673f4d33a0", "rental_uris": {"ios": "https://dc.lft.to/lastmile_qr_scan", "android": "https://dc.lft.to/lastmile_qr_scan"}, "fusion_lat": 0.0}, {"lat": 38.83582783333333, "lon": -76.99011833333333, "is_disabled": 0, "fusion_lon": 0.0, "is_reserved": 0, "name": "6bd5c1e1fbe75473f7f479aee753043c", "type": "electric_bike", "bike_id": "6bd5c1e1fbe75473f7f479aee753043c", "rental_uris": {"ios": "https://dc.lft.to/lastmile_qr_scan", "android": "https://dc.lft.to/lastmile_qr_scan"}, "fusion_lat": 0.0}, {"lat": 38.92192133333333, "lon": -77.0401235, "is_disabled": 0, "fusion_lon": 0.0, "is_reserved": 0, "name": "ad7d855f3a4f3b311b72e3e8a95538e3", "type": "electric_scooter", "bike_id": "ad7d855f3a4f3b311b72e3e8a95538e3", "rental_uris": {"ios": "https://dc.lft.to/lastmile_qr_scan", "android": "https://dc.lft.to/lastmile_qr_scan"}, "fusion_lat": 0.0}, {"lat": 38.916369, "lon": -77.0423075, "is_disabled": 0, "fusion_lon": 0.0, "is_reserved": 0, "name": "0554f48e4d342c74b319bc5c3819234b", "type": "electric_scooter", "bike_id": "0554f48e4d342c74b319bc5c3819234b", "rental_uris": {"ios": "https://dc.lft.to/lastmile_qr_scan", "android": "https://dc.lft.to/lastmile_qr_scan"}, "fusion_lat": 0.0}, {"lat": 38.8972965, "lon": -77.0496585, "is_disabled": 0, "fusion_lon": 0.0, "is_reserved": 0, "name": "be59933a4536b4f2acb973d38f96caf4", "type": "electric_scooter", "bike_id": "be59933a4536b4f2acb973d38f96caf4", "rental_uris": {"ios": "https://dc.lft.to/lastmile_qr_scan", "android": "https://dc.lft.to/lastmile_qr_scan"}, "fusion_lat": 0.0}, {"lat": 38.90503116666667, "lon": -77.05921716666667, "is_disabled": 0, "fusion_lon": 0.0, "is_reserved": 0, "name": "8c17a75f3a3a50fa32fdc6f2f7d8bfcc", "type": "electric_scooter", "bike_id": "8c17a75f3a3a50fa32fdc6f2f7d8bfcc", "rental_uris": {"ios": "https://dc.lft.to/lastmile_qr_scan", "android": "https://dc.lft.to/lastmile_qr_scan"}, "fusion_lat": 0.0}, {"lat": 38.91694716666667, "lon": -77.0303895, "is_disabled": 0, "fusion_lon": 0.0, "is_reserved": 0, "name": "0fa9d3633297e4f94dc55d3b359442d4", "type": "electric_scooter", "bike_id": "0fa9d3633297e4f94dc55d3b359442d4", "rental_uris": {"ios": "https://dc.lft.to/lastmile_qr_scan", "android": "https://dc.lft.to/lastmile_qr_scan"}, "fusion_lat": 0.0}, {"lat": 38.91759916666667, "lon": -77.03994516666667, "is_disabled": 0, "fusion_lon": 0.0, "is_reserved": 0, "name": "d4bc15dd425f26e4fce6a6d0a2296786", "type": "electric_scooter", "bike_id": "d4bc15dd425f26e4fce6a6d0a2296786", "rental_uris": {"ios": "https://dc.lft.to/lastmile_qr_scan", "android": "https://dc.lft.to/lastmile_qr_scan"}, "fusion_lat": 0.0}, {"lat": 38.92154216666667, "lon": -77.033811, "is_disabled": 0, "fusion_lon": 0.0, "is_reserved": 0, "name": "0a823a026d6c51be4147aa790a9f4e88", "type": "electric_scooter", "bike_id": "0a823a026d6c51be4147aa790a9f4e88", "rental_uris": {"ios": "https://dc.lft.to/lastmile_qr_scan", "android": "https://dc.lft.to/lastmile_qr_scan"}, "fusion_lat": 0.0}, {"lat": 38.916241666666664, "lon": -77.026954, "is_disabled": 0, "fusion_lon": 0.0, "is_reserved": 0, "name": "c01a1ca3342fc206f65e91798815a291", "type": "electric_scooter", "bike_id": "c01a1ca3342fc206f65e91798815a291", "rental_uris": {"ios": "https://dc.lft.to/lastmile_qr_scan", "android": "https://dc.lft.to/lastmile_qr_scan"}, "fusion_lat": 0.0}, {"lat": 38.898497666666664, "lon": -76.94247433333334, "is_disabled": 0, "fusion_lon": 0.0, "is_reserved": 0, "name": "2cb047a09184f2b432e60262da185193", "type": "electric_scooter", "bike_id": "2cb047a09184f2b432e60262da185193", "rental_uris": {"ios": "https://dc.lft.to/lastmile_qr_scan", "android": "https://dc.lft.to/lastmile_qr_scan"}, "fusion_lat": 0.0}, {"lat": 38.922939, "lon": -76.99773433333333, "is_disabled": 0, "fusion_lon": 0.0, "is_reserved": 0, "name": "dc56e268a8ffeb4014b1c3d0c2df7d20", "type": "electric_scooter", "bike_id": "dc56e268a8ffeb4014b1c3d0c2df7d20", "rental_uris": {"ios": "https://dc.lft.to/lastmile_qr_scan", "android": "https://dc.lft.to/lastmile_qr_scan"}, "fusion_lat": 0.0}, {"lat": 38.87456233333333, "lon": -77.00544016666667, "is_disabled": 0, "fusion_lon": 0.0, "is_reserved": 0, "name": "4dabc66f8e4fedbaaf305c6c292bf1ef", "type": "electric_scooter", "bike_id": "4dabc66f8e4fedbaaf305c6c292bf1ef", "rental_uris": {"ios": "https://dc.lft.to/lastmile_qr_scan", "android": "https://dc.lft.to/lastmile_qr_scan"}, "fusion_lat": 0.0}, {"lat": 38.938955166666666, "lon": -76.98608566666667, "is_disabled": 0, "fusion_lon": 0.0, "is_reserved": 0, "name": "1fad441d3486c587d5a5210cbc92ba5b", "type": "electric_scooter", "bike_id": "1fad441d3486c587d5a5210cbc92ba5b", "rental_uris": {"ios": "https://dc.lft.to/lastmile_qr_scan", "android": "https://dc.lft.to/lastmile_qr_scan"}, "fusion_lat": 0.0}, {"lat": 38.88116516666667, "lon": -77.016525, "is_disabled": 0, "fusion_lon": 0.0, "is_reserved": 0, "name": "9756346b1a4c9464b93f4e29064777bb", "type": "electric_scooter", "bike_id": "9756346b1a4c9464b93f4e29064777bb", "rental_uris": {"ios": "https://dc.lft.to/lastmile_qr_scan", "android": "https://dc.lft.to/lastmile_qr_scan"}, "fusion_lat": 0.0}, {"lat": 38.92379066666667, "lon": -77.03545716666666, "is_disabled": 0, "fusion_lon": 0.0, "is_reserved": 0, "name": "0644ca2af7a575e2a53a32a390701496", "type": "electric_scooter", "bike_id": "0644ca2af7a575e2a53a32a390701496", "rental_uris": {"ios": "https://dc.lft.to/lastmile_qr_scan", "android": "https://dc.lft.to/lastmile_qr_scan"}, "fusion_lat": 0.0}, {"lat": 38.91816466666667, "lon": -77.01207933333333, "is_disabled": 0, "fusion_lon": 0.0, "is_reserved": 0, "name": "8ef6974d71848cb52f24d00583686e14", "type": "electric_scooter", "bike_id": "8ef6974d71848cb52f24d00583686e14", "rental_uris": {"ios": "https://dc.lft.to/lastmile_qr_scan", "android": "https://dc.lft.to/lastmile_qr_scan"}, "fusion_lat": 0.0}, {"lat": 38.92602266666667, "lon": -77.035407, "is_disabled": 0, "fusion_lon": 0.0, "is_reserved": 0, "name": "623360bca21a6033faff8fb650a22919", "type": "electric_scooter", "bike_id": "623360bca21a6033faff8fb650a22919", "rental_uris": {"ios": "https://dc.lft.to/lastmile_qr_scan", "android": "https://dc.lft.to/lastmile_qr_scan"}, "fusion_lat": 0.0}, {"lat": 38.89740666666667, "lon": -76.99224183333334, "is_disabled": 0, "fusion_lon": 0.0, "is_reserved": 0, "name": "54646fa682fe69f0b9e9f9a591c6f2ac", "type": "electric_bike", "bike_id": "54646fa682fe69f0b9e9f9a591c6f2ac", "rental_uris": {"ios": "https://dc.lft.to/lastmile_qr_scan", "android": "https://dc.lft.to/lastmile_qr_scan"}, "fusion_lat": 0.0}, {"lat": 38.90010383333333, "lon": -76.9973875, "is_disabled": 0, "fusion_lon": 0.0, "is_reserved": 0, "name": "721cd90c9e7647fdfa3fa91a5db0dd66", "type": "electric_scooter", "bike_id": "721cd90c9e7647fdfa3fa91a5db0dd66", "rental_uris": {"ios": "https://dc.lft.to/lastmile_qr_scan", "android": "https://dc.lft.to/lastmile_qr_scan"}, "fusion_lat": 0.0}, {"lat": 38.917157, "lon": -77.01225316666667, "is_disabled": 0, "fusion_lon": 0.0, "is_reserved": 0, "name": "b00a23d44a5752c46cbbca93f39641d2", "type": "electric_scooter", "bike_id": "b00a23d44a5752c46cbbca93f39641d2", "rental_uris": {"ios": "https://dc.lft.to/lastmile_qr_scan", "android": "https://dc.lft.to/lastmile_qr_scan"}, "fusion_lat": 0.0}, {"lat": 38.914809, "lon": -77.04609633333334, "is_disabled": 0, "fusion_lon": 0.0, "is_reserved": 0, "name": "3b9d083825f419c8f68e7062c8407025", "type": "electric_scooter", "bike_id": "3b9d083825f419c8f68e7062c8407025", "rental_uris": {"ios": "https://dc.lft.to/lastmile_qr_scan", "android": "https://dc.lft.to/lastmile_qr_scan"}, "fusion_lat": 0.0}, {"lat": 38.921471833333335, "lon": -77.01803666666666, "is_disabled": 0, "fusion_lon": 0.0, "is_reserved": 0, "name": "1b92fc921cdf46fa6725312a4535a9d9", "type": "electric_scooter", "bike_id": "1b92fc921cdf46fa6725312a4535a9d9", "rental_uris": {"ios": "https://dc.lft.to/lastmile_qr_scan", "android": "https://dc.lft.to/lastmile_qr_scan"}, "fusion_lat": 0.0}, {"lat": 38.93607683333333, "lon": -77.03544933333333, "is_disabled": 0, "fusion_lon": 0.0, "is_reserved": 0, "name": "c82ce72c0ac5d967afbab883595c8f51", "type": "electric_bike", "bike_id": "c82ce72c0ac5d967afbab883595c8f51", "rental_uris": {"ios": "https://dc.lft.to/lastmile_qr_scan", "android": "https://dc.lft.to/lastmile_qr_scan"}, "fusion_lat": 0.0}, {"lat": 38.9155155, "lon": -77.038531, "is_disabled": 0, "fusion_lon": 0.0, "is_reserved": 0, "name": "e5cb80176ce6f7e9646097216c5621e1", "type": "electric_scooter", "bike_id": "e5cb80176ce6f7e9646097216c5621e1", "rental_uris": {"ios": "https://dc.lft.to/lastmile_qr_scan", "android": "https://dc.lft.to/lastmile_qr_scan"}, "fusion_lat": 0.0}, {"lat": 38.922084166666664, "lon": -77.04190383333334, "is_disabled": 0, "fusion_lon": 0.0, "is_reserved": 0, "name": "b6f4124860a356a4f295a673b19b6c85", "type": "electric_scooter", "bike_id": "b6f4124860a356a4f295a673b19b6c85", "rental_uris": {"ios": "https://dc.lft.to/lastmile_qr_scan", "android": "https://dc.lft.to/lastmile_qr_scan"}, "fusion_lat": 0.0}, {"lat": 38.93081466666667, "lon": -77.02799533333334, "is_disabled": 0, "fusion_lon": 0.0, "is_reserved": 0, "name": "60986208d17a0c40229e5017f464e652", "type": "electric_scooter", "bike_id": "60986208d17a0c40229e5017f464e652", "rental_uris": {"ios": "https://dc.lft.to/lastmile_qr_scan", "android": "https://dc.lft.to/lastmile_qr_scan"}, "fusion_lat": 0.0}, {"lat": 38.89159133333333, "lon": -76.99488333333333, "is_disabled": 0, "fusion_lon": 0.0, "is_reserved": 0, "name": "b98f19ab4822dcde663f1601dbc38f9e", "type": "electric_scooter", "bike_id": "b98f19ab4822dcde663f1601dbc38f9e", "rental_uris": {"ios": "https://dc.lft.to/lastmile_qr_scan", "android": "https://dc.lft.to/lastmile_qr_scan"}, "fusion_lat": 0.0}, {"lat": 38.91046866666667, "lon": -77.0343965, "is_disabled": 0, "fusion_lon": 0.0, "is_reserved": 0, "name": "9bb70036ebc59320db4a8e306f0a4fa4", "type": "electric_scooter", "bike_id": "9bb70036ebc59320db4a8e306f0a4fa4", "rental_uris": {"ios": "https://dc.lft.to/lastmile_qr_scan", "android": "https://dc.lft.to/lastmile_qr_scan"}, "fusion_lat": 0.0}, {"lat": 38.87305083333333, "lon": -77.00142916666667, "is_disabled": 0, "fusion_lon": 0.0, "is_reserved": 0, "name": "1a6a46bd9ca4553b4ec5013b7795ac62", "type": "electric_scooter", "bike_id": "1a6a46bd9ca4553b4ec5013b7795ac62", "rental_uris": {"ios": "https://dc.lft.to/lastmile_qr_scan", "android": "https://dc.lft.to/lastmile_qr_scan"}, "fusion_lat": 0.0}, {"lat": 38.93346616666667, "lon": -77.06194066666667, "is_disabled": 0, "fusion_lon": 0.0, "is_reserved": 0, "name": "221e5503b57a6c5ec85f68036fbeef3c", "type": "electric_scooter", "bike_id": "221e5503b57a6c5ec85f68036fbeef3c", "rental_uris": {"ios": "https://dc.lft.to/lastmile_qr_scan", "android": "https://dc.lft.to/lastmile_qr_scan"}, "fusion_lat": 0.0}, {"lat": 38.916689, "lon": -77.02423016666667, "is_disabled": 0, "fusion_lon": 0.0, "is_reserved": 0, "name": "c58da1d5b06c5f0ab58f620d9226fc63", "type": "electric_scooter", "bike_id": "c58da1d5b06c5f0ab58f620d9226fc63", "rental_uris": {"ios": "https://dc.lft.to/lastmile_qr_scan", "android": "https://dc.lft.to/lastmile_qr_scan"}, "fusion_lat": 0.0}, {"lat": 38.8920685, "lon": -77.026447, "is_disabled": 0, "fusion_lon": 0.0, "is_reserved": 0, "name": "b6c4bc294d68a933c7fe9d8d413bb7e8", "type": "electric_scooter", "bike_id": "b6c4bc294d68a933c7fe9d8d413bb7e8", "rental_uris": {"ios": "https://dc.lft.to/lastmile_qr_scan", "android": "https://dc.lft.to/lastmile_qr_scan"}, "fusion_lat": 0.0}, {"lat": 38.914110666666666, "lon": -77.02094016666666, "is_disabled": 0, "fusion_lon": 0.0, "is_reserved": 0, "name": "059b22479d8083a0cfc8413d9733aced", "type": "electric_scooter", "bike_id": "059b22479d8083a0cfc8413d9733aced", "rental_uris": {"ios": "https://dc.lft.to/lastmile_qr_scan", "android": "https://dc.lft.to/lastmile_qr_scan"}, "fusion_lat": 0.0}, {"lat": 38.92473566666666, "lon": -77.03557916666666, "is_disabled": 0, "fusion_lon": 0.0, "is_reserved": 0, "name": "8ad96de7d0ad5cb05d7a0e69ca94b5f9", "type": "electric_scooter", "bike_id": "8ad96de7d0ad5cb05d7a0e69ca94b5f9", "rental_uris": {"ios": "https://dc.lft.to/lastmile_qr_scan", "android": "https://dc.lft.to/lastmile_qr_scan"}, "fusion_lat": 0.0}, {"lat": 38.907854666666665, "lon": -77.03866683333334, "is_disabled": 0, "fusion_lon": 0.0, "is_reserved": 0, "name": "e5895aef828d86212efafb82304ab8b0", "type": "electric_scooter", "bike_id": "e5895aef828d86212efafb82304ab8b0", "rental_uris": {"ios": "https://dc.lft.to/lastmile_qr_scan", "android": "https://dc.lft.to/lastmile_qr_scan"}, "fusion_lat": 0.0}, {"lat": 38.84765183333333, "lon": -76.96633383333334, "is_disabled": 0, "fusion_lon": 0.0, "is_reserved": 0, "name": "d1fd2d1d2675593ada2ec6b9141eb774", "type": "electric_bike", "bike_id": "d1fd2d1d2675593ada2ec6b9141eb774", "rental_uris": {"ios": "https://dc.lft.to/lastmile_qr_scan", "android": "https://dc.lft.to/lastmile_qr_scan"}, "fusion_lat": 0.0}, {"lat": 38.8873735, "lon": -77.02130616666666, "is_disabled": 0, "fusion_lon": 0.0, "is_reserved": 0, "name": "2d42d5b2841ad5afe0220506a056c57e", "type": "electric_scooter", "bike_id": "2d42d5b2841ad5afe0220506a056c57e", "rental_uris": {"ios": "https://dc.lft.to/lastmile_qr_scan", "android": "https://dc.lft.to/lastmile_qr_scan"}, "fusion_lat": 0.0}, {"lat": 38.89720033333333, "lon": -77.0498985, "is_disabled": 0, "fusion_lon": 0.0, "is_reserved": 0, "name": "65f4fde9a1fe7dbdd6fdfc6e310cf7d4", "type": "electric_scooter", "bike_id": "65f4fde9a1fe7dbdd6fdfc6e310cf7d4", "rental_uris": {"ios": "https://dc.lft.to/lastmile_qr_scan", "android": "https://dc.lft.to/lastmile_qr_scan"}, "fusion_lat": 0.0}, {"lat": 38.90902833333333, "lon": -76.999637, "is_disabled": 0, "fusion_lon": 0.0, "is_reserved": 0, "name": "c292ea698d4491a7fff55d3dfb90faf1", "type": "electric_scooter", "bike_id": "c292ea698d4491a7fff55d3dfb90faf1", "rental_uris": {"ios": "https://dc.lft.to/lastmile_qr_scan", "android": "https://dc.lft.to/lastmile_qr_scan"}, "fusion_lat": 0.0}, {"lat": 38.904711166666665, "lon": -77.034532, "is_disabled": 0, "fusion_lon": 0.0, "is_reserved": 0, "name": "e05b26b6854a7bbbe25e0368eeb96195", "type": "electric_scooter", "bike_id": "e05b26b6854a7bbbe25e0368eeb96195", "rental_uris": {"ios": "https://dc.lft.to/lastmile_qr_scan", "android": "https://dc.lft.to/lastmile_qr_scan"}, "fusion_lat": 0.0}, {"lat": 38.909948166666666, "lon": -77.0228485, "is_disabled": 0, "fusion_lon": 0.0, "is_reserved": 0, "name": "a4503adeddf0d7cd43a8a22a257df2e7", "type": "electric_scooter", "bike_id": "a4503adeddf0d7cd43a8a22a257df2e7", "rental_uris": {"ios": "https://dc.lft.to/lastmile_qr_scan", "android": "https://dc.lft.to/lastmile_qr_scan"}, "fusion_lat": 0.0}, {"lat": 38.916744333333334, "lon": -77.02712833333334, "is_disabled": 0, "fusion_lon": 0.0, "is_reserved": 0, "name": "995645b0141ebf28948dede9e9e4963f", "type": "electric_scooter", "bike_id": "995645b0141ebf28948dede9e9e4963f", "rental_uris": {"ios": "https://dc.lft.to/lastmile_qr_scan", "android": "https://dc.lft.to/lastmile_qr_scan"}, "fusion_lat": 0.0}, {"lat": 38.902728333333336, "lon": -77.01736033333333, "is_disabled": 0, "fusion_lon": 0.0, "is_reserved": 0, "name": "ac10ee64e2af728f0929b82618fd0af8", "type": "electric_scooter", "bike_id": "ac10ee64e2af728f0929b82618fd0af8", "rental_uris": {"ios": "https://dc.lft.to/lastmile_qr_scan", "android": "https://dc.lft.to/lastmile_qr_scan"}, "fusion_lat": 0.0}, {"lat": 38.87694783333333, "lon": -77.00749966666666, "is_disabled": 0, "fusion_lon": 0.0, "is_reserved": 0, "name": "f55c87d4516a4ac7865e40c37e757ea8", "type": "electric_scooter", "bike_id": "f55c87d4516a4ac7865e40c37e757ea8", "rental_uris": {"ios": "https://dc.lft.to/lastmile_qr_scan", "android": "https://dc.lft.to/lastmile_qr_scan"}, "fusion_lat": 0.0}, {"lat": 38.90728683333333, "lon": -77.03438483333333, "is_disabled": 0, "fusion_lon": 0.0, "is_reserved": 0, "name": "bf77e8f358b8b9e88b9d406fd4075329", "type": "electric_scooter", "bike_id": "bf77e8f358b8b9e88b9d406fd4075329", "rental_uris": {"ios": "https://dc.lft.to/lastmile_qr_scan", "android": "https://dc.lft.to/lastmile_qr_scan"}, "fusion_lat": 0.0}, {"lat": 38.90514116666667, "lon": -77.0657845, "is_disabled": 0, "fusion_lon": 0.0, "is_reserved": 0, "name": "2e398ebea18df87a113a9676ba8b512c", "type": "electric_scooter", "bike_id": "2e398ebea18df87a113a9676ba8b512c", "rental_uris": {"ios": "https://dc.lft.to/lastmile_qr_scan", "android": "https://dc.lft.to/lastmile_qr_scan"}, "fusion_lat": 0.0}, {"lat": 38.84426416666667, "lon": -76.99779166666667, "is_disabled": 0, "fusion_lon": 0.0, "is_reserved": 0, "name": "cc695c62b639e134dd4ccbfeddd8b4e2", "type": "electric_scooter", "bike_id": "cc695c62b639e134dd4ccbfeddd8b4e2", "rental_uris": {"ios": "https://dc.lft.to/lastmile_qr_scan", "android": "https://dc.lft.to/lastmile_qr_scan"}, "fusion_lat": 0.0}, {"lat": 38.852016666666664, "lon": -76.96297, "is_disabled": 0, "fusion_lon": 0.0, "is_reserved": 0, "name": "9737be2c833a79dea14fed660f5ded5d", "type": "electric_bike", "bike_id": "9737be2c833a79dea14fed660f5ded5d", "rental_uris": {"ios": "https://dc.lft.to/lastmile_qr_scan", "android": "https://dc.lft.to/lastmile_qr_scan"}, "fusion_lat": 0.0}, {"lat": 38.899651, "lon": -77.05110866666666, "is_disabled": 0, "fusion_lon": 0.0, "is_reserved": 0, "name": "073d1d83432be3978ae6369892c497b4", "type": "electric_scooter", "bike_id": "073d1d83432be3978ae6369892c497b4", "rental_uris": {"ios": "https://dc.lft.to/lastmile_qr_scan", "android": "https://dc.lft.to/lastmile_qr_scan"}, "fusion_lat": 0.0}, {"lat": 38.91719, "lon": -77.02891966666667, "is_disabled": 0, "fusion_lon": 0.0, "is_reserved": 0, "name": "cf29bda5cf25f196d4fb1db238b5622f", "type": "electric_scooter", "bike_id": "cf29bda5cf25f196d4fb1db238b5622f", "rental_uris": {"ios": "https://dc.lft.to/lastmile_qr_scan", "android": "https://dc.lft.to/lastmile_qr_scan"}, "fusion_lat": 0.0}, {"lat": 38.918430666666666, "lon": -77.04826483333333, "is_disabled": 0, "fusion_lon": 0.0, "is_reserved": 0, "name": "a80ecd0ff127da74cf7b8b79bb6d07c0", "type": "electric_scooter", "bike_id": "a80ecd0ff127da74cf7b8b79bb6d07c0", "rental_uris": {"ios": "https://dc.lft.to/lastmile_qr_scan", "android": "https://dc.lft.to/lastmile_qr_scan"}, "fusion_lat": 0.0}, {"lat": 38.876531, "lon": -77.00114133333334, "is_disabled": 0, "fusion_lon": 0.0, "is_reserved": 0, "name": "3c3bbfed7382ede0b7eaaff1d7236046", "type": "electric_scooter", "bike_id": "3c3bbfed7382ede0b7eaaff1d7236046", "rental_uris": {"ios": "https://dc.lft.to/lastmile_qr_scan", "android": "https://dc.lft.to/lastmile_qr_scan"}, "fusion_lat": 0.0}, {"lat": 38.92337083333334, "lon": -77.03617183333333, "is_disabled": 0, "fusion_lon": 0.0, "is_reserved": 0, "name": "4ac7949a75781b0680d5e462e884b816", "type": "electric_scooter", "bike_id": "4ac7949a75781b0680d5e462e884b816", "rental_uris": {"ios": "https://dc.lft.to/lastmile_qr_scan", "android": "https://dc.lft.to/lastmile_qr_scan"}, "fusion_lat": 0.0}, {"lat": 38.9068595, "lon": -76.9850655, "is_disabled": 0, "fusion_lon": 0.0, "is_reserved": 0, "name": "45cdb91606b26b8d29bd7a600642ad5b", "type": "electric_scooter", "bike_id": "45cdb91606b26b8d29bd7a600642ad5b", "rental_uris": {"ios": "https://dc.lft.to/lastmile_qr_scan", "android": "https://dc.lft.to/lastmile_qr_scan"}, "fusion_lat": 0.0}, {"lat": 38.9195455, "lon": -77.01225566666666, "is_disabled": 0, "fusion_lon": 0.0, "is_reserved": 0, "name": "c74c0edf82bd664d1b5d8418f02ec9c6", "type": "electric_scooter", "bike_id": "c74c0edf82bd664d1b5d8418f02ec9c6", "rental_uris": {"ios": "https://dc.lft.to/lastmile_qr_scan", "android": "https://dc.lft.to/lastmile_qr_scan"}, "fusion_lat": 0.0}, {"lat": 38.929755, "lon": -77.02794166666666, "is_disabled": 0, "fusion_lon": 0.0, "is_reserved": 0, "name": "1557726bdc507cee521458c669600e71", "type": "electric_scooter", "bike_id": "1557726bdc507cee521458c669600e71", "rental_uris": {"ios": "https://dc.lft.to/lastmile_qr_scan", "android": "https://dc.lft.to/lastmile_qr_scan"}, "fusion_lat": 0.0}, {"lat": 38.90705333333333, "lon": -77.03208283333333, "is_disabled": 0, "fusion_lon": 0.0, "is_reserved": 0, "name": "392e564ae7135c6cd05915cca2cfa786", "type": "electric_scooter", "bike_id": "392e564ae7135c6cd05915cca2cfa786", "rental_uris": {"ios": "https://dc.lft.to/lastmile_qr_scan", "android": "https://dc.lft.to/lastmile_qr_scan"}, "fusion_lat": 0.0}, {"lat": 38.9119395, "lon": -77.03213733333334, "is_disabled": 0, "fusion_lon": 0.0, "is_reserved": 0, "name": "d27d292720c765c718788d4cc70344a0", "type": "electric_scooter", "bike_id": "d27d292720c765c718788d4cc70344a0", "rental_uris": {"ios": "https://dc.lft.to/lastmile_qr_scan", "android": "https://dc.lft.to/lastmile_qr_scan"}, "fusion_lat": 0.0}, {"lat": 38.911798833333336, "lon": -77.048136, "is_disabled": 0, "fusion_lon": 0.0, "is_reserved": 0, "name": "508baf6f1ee3519ce7dbd0e558d2b2dd", "type": "electric_scooter", "bike_id": "508baf6f1ee3519ce7dbd0e558d2b2dd", "rental_uris": {"ios": "https://dc.lft.to/lastmile_qr_scan", "android": "https://dc.lft.to/lastmile_qr_scan"}, "fusion_lat": 0.0}, {"lat": 38.9057245, "lon": -77.04705266666667, "is_disabled": 0, "fusion_lon": 0.0, "is_reserved": 0, "name": "ad223a7579ba6d9a47bca151ad6e355c", "type": "electric_bike", "bike_id": "ad223a7579ba6d9a47bca151ad6e355c", "rental_uris": {"ios": "https://dc.lft.to/lastmile_qr_scan", "android": "https://dc.lft.to/lastmile_qr_scan"}, "fusion_lat": 0.0}, {"lat": 38.83225733333333, "lon": -76.9461085, "is_disabled": 0, "fusion_lon": 0.0, "is_reserved": 0, "name": "02e6362b274897afd09a11c363b6360a", "type": "electric_bike", "bike_id": "02e6362b274897afd09a11c363b6360a", "rental_uris": {"ios": "https://dc.lft.to/lastmile_qr_scan", "android": "https://dc.lft.to/lastmile_qr_scan"}, "fusion_lat": 0.0},