{"data": {"bikes": [{"lon": -77.00255583333333, "bike_id": "7d607bfab63b4fcab8994e1878ad38e1", "lat": 38.911841333333335, "fusion_lon": 0.0, "fusion_lat": 0.0, "type": "electric_scooter", "name": "7d607bfab63b4fcab8994e1878ad38e1", "is_disabled": 0, "rental_uris": {"ios": "https://dc.lft.to/lastmile_qr_scan", "android": "https://dc.lft.to/lastmile_qr_scan"}, "is_reserved": 0}, {"lon": -77.10090583333333, "bike_id": "a0efc3441aa12184255ab17bf323906d", "lat": 38.959598, "fusion_lon": 0.0, "fusion_lat": 0.0, "type": "electric_bike", "name": "a0efc3441aa12184255ab17bf323906d", "is_disabled": 0, "rental_uris": {"ios": "https://dc.lft.to/lastmile_qr_scan", "android": "https://dc.lft.to/lastmile_qr_scan"}, "is_reserved": 0}, {"lon": -76.94291983333333, "bike_id": "ed877cffc0d648fb06598d6a53e5464b", "lat": 38.938685166666666, "fusion_lon": 0.0, "fusion_lat": 0.0, "type": "electric_bike", "name": "ed877cffc0d648fb06598d6a53e5464b", "is_disabled": 0, "rental_uris": {"ios": "https://dc.lft.to/lastmile_qr_scan", "android": "https://dc.lft.to/lastmile_qr_scan"}, "is_reserved": 0}, {"lon": -76.99546766666667, "bike_id": "b0f078a939cba1889099d8bd38ff2f12", "lat": 38.83161233333333, "fusion_lon": 0.0, "fusion_lat": 0.0, "type": "electric_bike", "name": "b0f078a939cba1889099d8bd38ff2f12", "is_disabled": 0, "rental_uris": {"ios": "https://dc.lft.to/lastmile_qr_scan", "android": "https://dc.lft.to/lastmile_qr_scan"}, "is_reserved": 0}, {"lon": -77.0229225, "bike_id": "13681e466febb8e25efb4d61c160116f", "lat": 38.910801166666666, "fusion_lon": 0.0, "fusion_lat": 0.0, "type": "electric_scooter", "name": "13681e466febb8e25efb4d61c160116f", "is_disabled": 0, "rental_uris": {"ios": "https://dc.lft.to/lastmile_qr_scan", "android": "https://dc.lft.to/lastmile_qr_scan"}, "is_reserved": 0}, {"lon": -76.9552615, "bike_id": "31e1a22b1e54c27a50c375d65933d8c7", "lat": 38.88463266666667, "fusion_lon": 0.0, "fusion_lat": 0.0, "type": "electric_scooter", "name": "31e1a22b1e54c27a50c375d65933d8c7", "is_disabled": 0, "rental_uris": {"ios": "https://dc.lft.to/lastmile_qr_scan", "android": "https://dc.lft.to/lastmile_qr_scan"}, "is_reserved": 0}, {"lon": -77.02868716666667, "bike_id": "ed141ed78919ce8db6a498ac8d127bfa", "lat": 38.9327645, "fusion_lon": 0.0, "fusion_lat": 0.0, "type": "electric_scooter", "name": "ed141ed78919ce8db6a498ac8d127bfa", "is_disabled": 0, "rental_uris": {"ios": "https://dc.lft.to/lastmile_qr_scan", "android": "https://dc.lft.to/lastmile_qr_scan"}, "is_reserved": 0}, {"lon": -77.02392266666666, "bike_id": "a9a2cf7b062d86f971a6b3ab2cbb175f", "lat": 38.909536, "fusion_lon": 0.0, "fusion_lat": 0.0, "type": "electric_scooter", "name": "a9a2cf7b062d86f971a6b3ab2cbb175f", "is_disabled": 0, "rental_uris": {"ios": "https://dc.lft.to/lastmile_qr_scan", "android": "https://dc.lft.to/lastmile_qr_scan"}, "is_reserved": 0}, {"lon": -76.98264816666666, "bike_id": "ea37eab81af90ca4f3b8ba20c5cc0407", "lat": 38.908546666666666, "fusion_lon": 0.0, "fusion_lat": 0.0, "type": "electric_scooter", "name": "ea37eab81af90ca4f3b8ba20c5cc0407", "is_disabled": 0, "rental_uris": {"ios": "https://dc.lft.to/lastmile_qr_scan", "android": "https://dc.lft.to/lastmile_qr_scan"}, "is_reserved": 0}, {"lon": -77.062651, "bike_id": "4861749934c3c1c269bf06eec0ea5858", "lat": 38.94419383333333, "fusion_lon": 0.0, "fusion_lat": 0.0, "type": "electric_scooter", "name": "4861749934c3c1c269bf06eec0ea5858", "is_disabled": 0, "rental_uris": {"ios": "https://dc.lft.to/lastmile_qr_scan", "android": "https://dc.lft.to/lastmile_qr_scan"}, "is_reserved": 0}, {"lon": -77.0353385, "bike_id": "d39fae868c3dea89d2b53c759e96fb3c", "lat": 38.9263015, "fusion_lon": 0.0, "fusion_lat": 0.0, "type": "electric_scooter", "name": "d39fae868c3dea89d2b53c759e96fb3c", "is_disabled": 0, "rental_uris": {"ios": "https://dc.lft.to/lastmile_qr_scan", "android": "https://dc.lft.to/lastmile_qr_scan"}, "is_reserved": 0}, {"lon": -77.02625466666667, "bike_id": "910dce26f4c54bc9f58f5c1b78008e41", "lat": 38.96219416666667, "fusion_lon": 0.0, "fusion_lat": 0.0, "type": "electric_bike", "name": "910dce26f4c54bc9f58f5c1b78008e41", "is_disabled": 0, "rental_uris": {"ios": "https://dc.lft.to/lastmile_qr_scan", "android": "https://dc.lft.to/lastmile_qr_scan"}, "is_reserved": 0}, {"lon": -76.98901933333333, "bike_id": "686884c91bd1630693c307fa0ecc3e58", "lat": 38.913470333333336, "fusion_lon": 0.0, "fusion_lat": 0.0, "type": "electric_scooter", "name": "686884c91bd1630693c307fa0ecc3e58", "is_disabled": 0, "rental_uris": {"ios": "https://dc.lft.to/lastmile_qr_scan", "android": "https://dc.lft.to/lastmile_qr_scan"}, "is_reserved": 0}, {"lon": -77.03443916666667, "bike_id": "b2ba42f746ea2171831cac3dee0e156f", "lat": 38.908143833333334, "fusion_lon": 0.0, "fusion_lat": 0.0, "type": "electric_scooter", "name": "b2ba42f746ea2171831cac3dee0e156f", "is_disabled": 0, "rental_uris": {"ios": "https://dc.lft.to/lastmile_qr_scan", "android": "https://dc.lft.to/lastmile_qr_scan"}, "is_reserved": 0}, {"lon": -76.99030716666667, "bike_id": "212649ca862386a067c898bc0033cbf0", "lat": 38.891736, "fusion_lon": 0.0, "fusion_lat": 0.0, "type": "electric_scooter", "name": "212649ca862386a067c898bc0033cbf0", "is_disabled": 0, "rental_uris": {"ios": "https://dc.lft.to/lastmile_qr_scan", "android": "https://dc.lft.to/lastmile_qr_scan"}, "is_reserved": 0}, {"lon": -77.04192683333333, "bike_id": "90664f4c3c993dfc480071b673231658", "lat": 38.89976633333333, "fusion_lon": 0.0, "fusion_lat": 0.0, "type": "electric_scooter", "name": "90664f4c3c993dfc480071b673231658", "is_disabled": 0, "rental_uris": {"ios": "https://dc.lft.to/lastmile_qr_scan", "android": "https://dc.lft.to/lastmile_qr_scan"}, "is_reserved": 0}, {"lon": -76.9892905, "bike_id": "16165a48755f4775a0fc665fdb6907bb", "lat": 38.865751333333336, "fusion_lon": 0.0, "fusion_lat": 0.0, "type": "electric_scooter", "name": "16165a48755f4775a0fc665fdb6907bb", "is_disabled": 0, "rental_uris": {"ios": "https://dc.lft.to/lastmile_qr_scan", "android": "https://dc.lft.to/lastmile_qr_scan"}, "is_reserved": 0}, {"lon": -77.02181866666666, "bike_id": "bb4ab4b68bec7a7716b3407c20043003", "lat": 38.887277833333336, "fusion_lon": 0.0, "fusion_lat": 0.0, "type": "electric_scooter", "name": "bb4ab4b68bec7a7716b3407c20043003", "is_disabled": 0, "rental_uris": {"ios": "https://dc.lft.to/lastmile_qr_scan", "android": "https://dc.lft.to/lastmile_qr_scan"}, "is_reserved": 0}, {"lon": -77.02543233333333, "bike_id": "d062542a222f773a625144abe365832e", "lat": 38.992960833333335, "fusion_lon": 0.0, "fusion_lat": 0.0, "type": "electric_bike", "name": "d062542a222f773a625144abe365832e", "is_disabled": 0, "rental_uris": {"ios": "https://dc.lft.to/lastmile_qr_scan", "android": "https://dc.lft.to/lastmile_qr_scan"}, "is_reserved": 0}, {"lon": -77.01941416666666, "bike_id": "4147109578f99e89a032f2032a664640", "lat": 38.936858, "fusion_lon": 0.0, "fusion_lat": 0.0, "type": "electric_scooter", "name": "4147109578f99e89a032f2032a664640", "is_disabled": 0, "rental_uris": {"ios": "https://dc.lft.to/lastmile_qr_scan", "android": "https://dc.lft.to/lastmile_qr_scan"}, "is_reserved": 0}, {"lon": -77.02117033333333, "bike_id": "55a9f48dcd16f23f0ea628b0ce0fd1b2", "lat": 38.915859166666664, "fusion_lon": 0.0, "fusion_lat": 0.0, "type": "electric_scooter", "name": "55a9f48dcd16f23f0ea628b0ce0fd1b2", "is_disabled": 0, "rental_uris": {"ios": "https://dc.lft.to/lastmile_qr_scan", "android": "https://dc.lft.to/lastmile_qr_scan"}, "is_reserved": 0}, {"lon": -77.02465583333333, "bike_id": "fee53b2f5d48402d8abdb7e853ae23da", "lat": 38.94198433333333, "fusion_lon": 0.0, "fusion_lat": 0.0, "type": "electric_scooter", "name": "fee53b2f5d48402d8abdb7e853ae23da", "is_disabled": 0, "rental_uris": {"ios": "https://dc.lft.to/lastmile_qr_scan", "android": "https://dc.lft.to/lastmile_qr_scan"}, "is_reserved": 0}, {"lon": -76.97626516666666, "bike_id": "e97b04016d2e6aa1ee7c8c639854eabe", "lat": 38.9057035, "fusion_lon": 0.0, "fusion_lat": 0.0, "type": "electric_scooter", "name": "e97b04016d2e6aa1ee7c8c639854eabe", "is_disabled": 0, "rental_uris": {"ios": "https://dc.lft.to/lastmile_qr_scan", "android": "https://dc.lft.to/lastmile_qr_scan"}, "is_reserved": 0}, {"lon": -77.03827916666667, "bike_id": "9edbf1a2eea05379a5f5d92d069907f5", "lat": 38.91033483333333, "fusion_lon": 0.0, "fusion_lat": 0.0, "type": "electric_scooter", "name": "9edbf1a2eea05379a5f5d92d069907f5", "is_disabled": 0, "rental_uris": {"ios": "https://dc.lft.to/lastmile_qr_scan", "android": "https://dc.lft.to/lastmile_qr_scan"}, "is_reserved": 0}, {"lon": -76.99501483333333, "bike_id": "6de8d9ecd4aebe59a545a8c81ef7bfde", "lat": 38.862429166666665, "fusion_lon": 0.0, "fusion_lat": 0.0, "type": "electric_scooter", "name": "6de8d9ecd4aebe59a545a8c81ef7bfde", "is_disabled": 0, "rental_uris": {"ios": "https://dc.lft.to/lastmile_qr_scan", "android": "https://dc.lft.to/lastmile_qr_scan"}, "is_reserved": 0}, {"lon": -76.93062066666667, "bike_id": "39cb751e1f2b98169ae6d249d9c1e781", "lat": 38.9015475, "fusion_lon": 0.0, "fusion_lat": 0.0, "type": "electric_scooter", "name": "39cb751e1f2b98169ae6d249d9c1e781", "is_disabled": 0, "rental_uris": {"ios": "https://dc.lft.to/lastmile_qr_scan", "android": "https://dc.lft.to/lastmile_qr_scan"}, "is_reserved": 0}, {"lon": -77.029682, "bike_id": "e72b697634868ff8470bec9a72870312", "lat": 38.916778666666666, "fusion_lon": 0.0, "fusion_lat": 0.0, "type": "electric_scooter", "name": "e72b697634868ff8470bec9a72870312", "is_disabled": 0, "rental_uris": {"ios": "https://dc.lft.to/lastmile_qr_scan", "android": "https://dc.lft.to/lastmile_qr_scan"}, "is_reserved": 0}, {"lon": -77.0502335, "bike_id": "43b4e71dd2155c0400e7e751972572cc", "lat": 38.90367333333333, "fusion_lon": 0.0, "fusion_lat": 0.0, "type": "electric_scooter", "name": "43b4e71dd2155c0400e7e751972572cc", "is_disabled": 0, "rental_uris": {"ios": "https://dc.lft.to/lastmile_qr_scan", "android": "https://dc.lft.to/lastmile_qr_scan"}, "is_reserved": 0}, {"lon": -77.0328995, "bike_id": "9ff99492445c5c0f38e394675d6a8154", "lat": 38.92547616666667, "fusion_lon": 0.0, "fusion_lat": 0.0, "type": "electric_scooter", "name": "9ff99492445c5c0f38e394675d6a8154", "is_disabled": 0, "rental_uris": {"ios": "https://dc.lft.to/lastmile_qr_scan", "android": "https://dc.lft.to/lastmile_qr_scan"}, "is_reserved": 0}, {"lon": -77.04772833333334, "bike_id": "da8d96fc2f1d892884ec29ae0150eab5", "lat": 38.92136166666667, "fusion_lon": 0.0, "fusion_lat": 0.0, "type": "electric_scooter", "name": "da8d96fc2f1d892884ec29ae0150eab5", "is_disabled": 0, "rental_uris": {"ios": "https://dc.lft.to/lastmile_qr_scan", "android": "https://dc.lft.to/lastmile_qr_scan"}, "is_reserved": 0}, {"lon": -77.00924416666666, "bike_id": "fbbad482b3ca15796a9481347fba7278", "lat": 38.89970683333333, "fusion_lon": 0.0, "fusion_lat": 0.0, "type": "electric_scooter", "name": "fbbad482b3ca15796a9481347fba7278", "is_disabled": 0, "rental_uris": {"ios": "https://dc.lft.to/lastmile_qr_scan", "android": "https://dc.lft.to/lastmile_qr_scan"}, "is_reserved": 0}, {"lon": -77.002569, "bike_id": "6db9c168e157d1dbc48bf003d3542cda", "lat": 38.894713, "fusion_lon": 0.0, "fusion_lat": 0.0, "type": "electric_scooter", "name": "6db9c168e157d1dbc48bf003d3542cda", "is_disabled": 0, "rental_uris": {"ios": "https://dc.lft.to/lastmile_qr_scan", "android": "https://dc.lft.to/lastmile_qr_scan"}, "is_reserved": 0}, {"lon": -77.02224016666666, "bike_id": "f8533a1f6a5d6d220139693ad7c8b94a", "lat": 38.89223633333334, "fusion_lon": 0.0, "fusion_lat": 0.0, "type": "electric_scooter", "name": "f8533a1f6a5d6d220139693ad7c8b94a", "is_disabled": 0, "rental_uris": {"ios": "https://dc.lft.to/lastmile_qr_scan", "android": "https://dc.lft.to/lastmile_qr_scan"}, "is_reserved": 0}, {"lon": -77.03184583333334, "bike_id": "2550a74c6bb9960603c9a040af2de6a5", "lat": 38.892201, "fusion_lon": 0.0, "fusion_lat": 0.0, "type": "electric_scooter", "name": "2550a74c6bb9960603c9a040af2de6a5", "is_disabled": 0, "rental_uris": {"ios": "https://dc.lft.to/lastmile_qr_scan", "android": "https://dc.lft.to/lastmile_qr_scan"}, "is_reserved": 0}, {"lon": -77.04899, "bike_id": "39afa93a161138f3886f29f6c3aa5921", "lat": 38.892272, "fusion_lon": 0.0, "fusion_lat": 0.0, "type": "electric_scooter", "name": "39afa93a161138f3886f29f6c3aa5921", "is_disabled": 0, "rental_uris": {"ios": "https://dc.lft.to/lastmile_qr_scan", "android": "https://dc.lft.to/lastmile_qr_scan"}, "is_reserved": 0}, {"lon": -77.03188283333333, "bike_id": "283dbc1db07fdd93ab19ef58a54e4c1c", "lat": 38.892135333333336, "fusion_lon": 0.0, "fusion_lat": 0.0, "type": "electric_scooter", "name": "283dbc1db07fdd93ab19ef58a54e4c1c", "is_disabled": 0, "rental_uris": {"ios": "https://dc.lft.to/lastmile_qr_scan", "android": "https://dc.lft.to/lastmile_qr_scan"}, "is_reserved": 0}, {"lon": -77.0318135, "bike_id": "c2708c34a03026f923bf1ad4317479e5", "lat": 38.896224, "fusion_lon": 0.0, "fusion_lat": 0.0, "type": "electric_scooter", "name": "c2708c34a03026f923bf1ad4317479e5", "is_disabled": 0, "rental_uris": {"ios": "https://dc.lft.to/lastmile_qr_scan", "android": "https://dc.lft.to/lastmile_qr_scan"}, "is_reserved": 0}, {"lon": -77.02531366666666, "bike_id": "bc0963233c95834d0ed012a618215d4c", "lat": 38.90105066666667, "fusion_lon": 0.0, "fusion_lat": 0.0, "type": "electric_scooter", "name": "bc0963233c95834d0ed012a618215d4c", "is_disabled": 0, "rental_uris": {"ios": "https://dc.lft.to/lastmile_qr_scan", "android": "https://dc.lft.to/lastmile_qr_scan"}, "is_reserved": 0}, {"lon": -77.02624166666666, "bike_id": "780aa423603848c1d8cf6bdfde6a24b9", "lat": 38.899654166666664, "fusion_lon": 0.0, "fusion_lat": 0.0, "type": "electric_scooter", "name": "780aa423603848c1d8cf6bdfde6a24b9", "is_disabled": 0, "rental_uris": {"ios": "https://dc.lft.to/lastmile_qr_scan", "android": "https://dc.lft.to/lastmile_qr_scan"}, "is_reserved": 0}, {"lon": -77.02623016666666, "bike_id": "16aef23b8a8c4676709c2fe8c801c9b8", "lat": 38.8921485, "fusion_lon": 0.0, "fusion_lat": 0.0, "type": "electric_scooter", "name": "16aef23b8a8c4676709c2fe8c801c9b8", "is_disabled": 0, "rental_uris": {"ios": "https://dc.lft.to/lastmile_qr_scan", "android": "https://dc.lft.to/lastmile_qr_scan"}, "is_reserved": 0}, {"lon": -76.98940533333334, "bike_id": "c23de18c5fe351c0bb825ea88ef5aa49", "lat": 38.8670835, "fusion_lon": 0.0, "fusion_lat": 0.0, "type": "electric_bike", "name": "c23de18c5fe351c0bb825ea88ef5aa49", "is_disabled": 0, "rental_uris": {"ios": "https://dc.lft.to/lastmile_qr_scan", "android": "https://dc.lft.to/lastmile_qr_scan"}, "is_reserved": 0}, {"lon": -77.03209316666667, "bike_id": "135e2834ce27c85270dfde9156a4fcad", "lat": 38.916359666666665, "fusion_lon": 0.0, "fusion_lat": 0.0, "type": "electric_scooter", "name": "135e2834ce27c85270dfde9156a4fcad", "is_disabled": 0, "rental_uris": {"ios": "https://dc.lft.to/lastmile_qr_scan", "android": "https://dc.lft.to/lastmile_qr_scan"}, "is_reserved": 0}, {"lon": -76.96528066666667, "bike_id": "10bae437b3d14de12f81a7b24e5452ed", "lat": 38.8748065, "fusion_lon": 0.0, "fusion_lat": 0.0, "type": "electric_scooter", "name": "10bae437b3d14de12f81a7b24e5452ed", "is_disabled": 0, "rental_uris": {"ios": "https://dc.lft.to/lastmile_qr_scan", "android": "https://dc.lft.to/lastmile_qr_scan"}, "is_reserved": 0}, {"lon": -77.0215475, "bike_id": "9fb3cc385bcda2293e8dd44766f766bf", "lat": 38.894769, "fusion_lon": 0.0, "fusion_lat": 0.0, "type": "electric_scooter", "name": "9fb3cc385bcda2293e8dd44766f766bf", "is_disabled": 0, "rental_uris": {"ios": "https://dc.lft.to/lastmile_qr_scan", "android": "https://dc.lft.to/lastmile_qr_scan"}, "is_reserved": 0}, {"lon": -77.049156, "bike_id": "2abe7ed6df66ccda9b53019a3e4d69e1", "lat": 38.905134333333336, "fusion_lon": 0.0, "fusion_lat": 0.0, "type": "electric_scooter", "name": "2abe7ed6df66ccda9b53019a3e4d69e1", "is_disabled": 0, "rental_uris": {"ios": "https://dc.lft.to/lastmile_qr_scan", "android": "https://dc.lft.to/lastmile_qr_scan"}, "is_reserved": 0}, {"lon": -77.02379583333334, "bike_id": "aae60c5973e5ffe22b8049a42bd5334c", "lat": 38.91704283333333, "fusion_lon": 0.0, "fusion_lat": 0.0, "type": "electric_scooter", "name": "aae60c5973e5ffe22b8049a42bd5334c", "is_disabled": 0, "rental_uris": {"ios": "https://dc.lft.to/lastmile_qr_scan", "android": "https://dc.lft.to/lastmile_qr_scan"}, "is_reserved": 0}, {"lon": -77.0487705, "bike_id": "1651de87bb12c0b27be90d388a8a6674", "lat": 38.900890833333335, "fusion_lon": 0.0, "fusion_lat": 0.0, "type": "electric_scooter", "name": "1651de87bb12c0b27be90d388a8a6674", "is_disabled": 0, "rental_uris": {"ios": "https://dc.lft.to/lastmile_qr_scan", "android": "https://dc.lft.to/lastmile_qr_scan"}, "is_reserved": 0}, {"lon": -77.02374416666666, "bike_id": "3b6d2c58fdeafbd1f6caa4af8099c406", "lat": 38.919573166666666, "fusion_lon": 0.0, "fusion_lat": 0.0, "type": "electric_scooter", "name": "3b6d2c58fdeafbd1f6caa4af8099c406", "is_disabled": 0, "rental_uris": {"ios": "https://dc.lft.to/lastmile_qr_scan", "android": "https://dc.lft.to/lastmile_qr_scan"}, "is_reserved": 0}, {"lon": -77.05952466666666, "bike_id": "fae8a7049072cd0db92fa9df7eb195f8", "lat": 38.9183955, "fusion_lon": 0.0, "fusion_lat": 0.0, "type": "electric_scooter", "name": "fae8a7049072cd0db92fa9df7eb195f8", "is_disabled": 0, "rental_uris": {"ios": "https://dc.lft.to/lastmile_qr_scan", "android": "https://dc.lft.to/lastmile_qr_scan"}, "is_reserved": 0}, {"lon": -77.03934766666667, "bike_id": "4424b3b5be831aa8c5c5223e49cc7edb", "lat": 38.89989116666667, "fusion_lon": 0.0, "fusion_lat": 0.0, "type": "electric_scooter", "name": "4424b3b5be831aa8c5c5223e49cc7edb", "is_disabled": 0, "rental_uris": {"ios": "https://dc.lft.to/lastmile_qr_scan", "android": "https://dc.lft.to/lastmile_qr_scan"}, "is_reserved": 0}, {"lon": -77.003529, "bike_id": "6eca86122e89443d59d081e846658f8b", "lat": 38.8870255, "fusion_lon": 0.0, "fusion_lat": 0.0, "type": "electric_bike", "name": "6eca86122e89443d59d081e846658f8b", "is_disabled": 0, "rental_uris": {"ios": "https://dc.lft.to/lastmile_qr_scan", "android": "https://dc.lft.to/lastmile_qr_scan"}, "is_reserved": 0}, {"lon": -77.02562916666666, "bike_id": "e77ec8fd999ae9cb2f03348a95392241", "lat": 38.933541, "fusion_lon": 0.0, "fusion_lat": 0.0, "type": "electric_scooter", "name": "e77ec8fd999ae9cb2f03348a95392241", "is_disabled": 0, "rental_uris": {"ios": "https://dc.lft.to/lastmile_qr_scan", "android": "https://dc.lft.to/lastmile_qr_scan"}, "is_reserved": 0}, {"lon": -77.0352265, "bike_id": "578316c9120fe39a221c6d56012721b1", "lat": 38.92257266666667, "fusion_lon": 0.0, "fusion_lat": 0.0, "type": "electric_scooter", "name": "578316c9120fe39a221c6d56012721b1", "is_disabled": 0, "rental_uris": {"ios": "https://dc.lft.to/lastmile_qr_scan", "android": "https://dc.lft.to/lastmile_qr_scan"}, "is_reserved": 0}, {"lon": -76.94635566666666, "bike_id": "f1f86abaf1583855ac7cda5a0212a7f3", "lat": 38.89831266666667, "fusion_lon": 0.0, "fusion_lat": 0.0, "type": "electric_scooter", "name": "f1f86abaf1583855ac7cda5a0212a7f3", "is_disabled": 0, "rental_uris": {"ios": "https://dc.lft.to/lastmile_qr_scan", "android": "https://dc.lft.to/lastmile_qr_scan"}, "is_reserved": 0}, {"lon": -77.02913866666667, "bike_id": "fe247be032ed704f239e57c322c12731", "lat": 38.916938, "fusion_lon": 0.0, "fusion_lat": 0.0, "type": "electric_scooter", "name": "fe247be032ed704f239e57c322c12731", "is_disabled": 0, "rental_uris": {"ios": "https://dc.lft.to/lastmile_qr_scan", "android": "https://dc.lft.to/lastmile_qr_scan"}, "is_reserved": 0}, {"lon": -76.9335965, "bike_id": "55d3f7b0c91479ff3907a912bf217cfc", "lat": 38.887982, "fusion_lon": 0.0, "fusion_lat": 0.0, "type": "electric_scooter", "name": "55d3f7b0c91479ff3907a912bf217cfc", "is_disabled": 0, "rental_uris": {"ios": "https://dc.lft.to/lastmile_qr_scan", "android": "https://dc.lft.to/lastmile_qr_scan"}, "is_reserved": 0}, {"lon": -77.03369833333333, "bike_id": "e1f51c4231af36906dd7955e4b1a8190", "lat": 38.90112716666667, "fusion_lon": 0.0, "fusion_lat": 0.0, "type": "electric_scooter", "name": "e1f51c4231af36906dd7955e4b1a8190", "is_disabled": 0, "rental_uris": {"ios": "https://dc.lft.to/lastmile_qr_scan", "android": "https://dc.lft.to/lastmile_qr_scan"}, "is_reserved": 0}, {"lon": -77.011894, "bike_id": "f710b2d41878aecb6857301373037356", "lat": 38.900317, "fusion_lon": 0.0, "fusion_lat": 0.0, "type": "electric_scooter", "name": "f710b2d41878aecb6857301373037356", "is_disabled": 0, "rental_uris": {"ios": "https://dc.lft.to/lastmile_qr_scan", "android": "https://dc.lft.to/lastmile_qr_scan"}, "is_reserved": 0}, {"lon": -77.0272315, "bike_id": "f27bddce7986ac11402d5fb13ceb0ff7", "lat": 38.897709666666664, "fusion_lon": 0.0, "fusion_lat": 0.0, "type": "electric_scooter", "name": "f27bddce7986ac11402d5fb13ceb0ff7", "is_disabled": 0, "rental_uris": {"ios": "https://dc.lft.to/lastmile_qr_scan", "android": "https://dc.lft.to/lastmile_qr_scan"}, "is_reserved": 0}, {"lon": -77.01448616666667, "bike_id": "ca236b1f4489cc7d48f8f48d3eeff9e6", "lat": 38.929752666666666, "fusion_lon": 0.0, "fusion_lat": 0.0, "type": "electric_scooter", "name": "ca236b1f4489cc7d48f8f48d3eeff9e6", "is_disabled": 0, "rental_uris": {"ios": "https://dc.lft.to/lastmile_qr_scan", "android": "https://dc.lft.to/lastmile_qr_scan"}, "is_reserved": 0}, {"lon": -77.04612933333334, "bike_id": "49a366b0879d06ccc78da18a1050f8c8", "lat": 38.902526333333334, "fusion_lon": 0.0, "fusion_lat": 0.0, "type": "electric_scooter", "name": "49a366b0879d06ccc78da18a1050f8c8", "is_disabled": 0, "rental_uris": {"ios": "https://dc.lft.to/lastmile_qr_scan", "android": "https://dc.lft.to/lastmile_qr_scan"}, "is_reserved": 0}, {"lon": -77.02959216666666, "bike_id": "9ecf577c5bc550e64222e6d4f748b794", "lat": 38.9167445, "fusion_lon": 0.0, "fusion_lat": 0.0, "type": "electric_scooter", "name": "9ecf577c5bc550e64222e6d4f748b794", "is_disabled": 0, "rental_uris": {"ios": "https://dc.lft.to/lastmile_qr_scan", "android": "https://dc.lft.to/lastmile_qr_scan"}, "is_reserved": 0}, {"lon": -77.046797, "bike_id": "5ff1801aeb0b048fc63e67bca7fad0a2", "lat": 38.905492, "fusion_lon": 0.0, "fusion_lat": 0.0, "type": "electric_scooter", "name": "5ff1801aeb0b048fc63e67bca7fad0a2", "is_disabled": 0, "rental_uris": {"ios": "https://dc.lft.to/lastmile_qr_scan", "android": "https://dc.lft.to/lastmile_qr_scan"}, "is_reserved": 0}, {"lon": -77.02010933333334, "bike_id": "1b5ad8e4df462d7c0ba647f3bd30dd29", "lat": 38.902667, "fusion_lon": 0.0, "fusion_lat": 0.0, "type": "electric_scooter", "name": "1b5ad8e4df462d7c0ba647f3bd30dd29", "is_disabled": 0, "rental_uris": {"ios": "https://dc.lft.to/lastmile_qr_scan", "android": "https://dc.lft.to/lastmile_qr_scan"}, "is_reserved": 0}, {"lon": -77.02802733333333, "bike_id": "0e07662c9d2df6a54e5b37772d01ae65", "lat": 38.91686116666666, "fusion_lon": 0.0, "fusion_lat": 0.0, "type": "electric_scooter", "name": "0e07662c9d2df6a54e5b37772d01ae65", "is_disabled": 0, "rental_uris": {"ios": "https://dc.lft.to/lastmile_qr_scan", "android": "https://dc.lft.to/lastmile_qr_scan"}, "is_reserved": 0}, {"lon": -77.05005483333333, "bike_id": "dbda5aee505131b8eae4c4c9ecd47495", "lat": 38.89191016666667, "fusion_lon": 0.0, "fusion_lat": 0.0, "type": "electric_scooter", "name": "dbda5aee505131b8eae4c4c9ecd47495", "is_disabled": 0, "rental_uris": {"ios": "https://dc.lft.to/lastmile_qr_scan", "android": "https://dc.lft.to/lastmile_qr_scan"}, "is_reserved": 0}, {"lon": -77.04268666666667, "bike_id": "d6144d82972eaea209d53124cbb5005c", "lat": 38.92233266666667, "fusion_lon": 0.0, "fusion_lat": 0.0, "type": "electric_scooter", "name": "d6144d82972eaea209d53124cbb5005c", "is_disabled": 0, "rental_uris": {"ios": "https://dc.lft.to/lastmile_qr_scan", "android": "https://dc.lft.to/lastmile_qr_scan"}, "is_reserved": 0}, {"lon": -77.02951916666666, "bike_id": "d4e3741c5c2e0b33852119e77fbf94f7", "lat": 38.89647083333333, "fusion_lon": 0.0, "fusion_lat": 0.0, "type": "electric_scooter", "name": "d4e3741c5c2e0b33852119e77fbf94f7", "is_disabled": 0, "rental_uris": {"ios": "https://dc.lft.to/lastmile_qr_scan", "android": "https://dc.lft.to/lastmile_qr_scan"}, "is_reserved": 0}, {"lon": -77.03450816666667, "bike_id": "d86eb4e3819ef67674b6c352ffb5ca23", "lat": 38.907357833333336, "fusion_lon": 0.0, "fusion_lat": 0.0, "type": "electric_scooter", "name": "d86eb4e3819ef67674b6c352ffb5ca23", "is_disabled": 0, "rental_uris": {"ios": "https://dc.lft.to/lastmile_qr_scan", "android": "https://dc.lft.to/lastmile_qr_scan"}, "is_reserved": 0}, {"lon": -77.03632783333333, "bike_id": "1b832dafa9f319b2312ae4787c1e33a3", "lat": 38.91553783333333, "fusion_lon": 0.0, "fusion_lat": 0.0, "type": "electric_scooter", "name": "1b832dafa9f319b2312ae4787c1e33a3", "is_disabled": 0, "rental_uris": {"ios": "https://dc.lft.to/lastmile_qr_scan", "android": "https://dc.lft.to/lastmile_qr_scan"}, "is_reserved": 0}, {"lon": -77.01765733333333, "bike_id": "83e888cd377d4cc03b4f87ce114d86cd", "lat": 38.876621166666666, "fusion_lon": 0.0, "fusion_lat": 0.0, "type": "electric_scooter", "name": "83e888cd377d4cc03b4f87ce114d86cd", "is_disabled": 0, "rental_uris": {"ios": "https://dc.lft.to/lastmile_qr_scan", "android": "https://dc.lft.to/lastmile_qr_scan"}, "is_reserved": 0}, {"lon": -77.03501416666667, "bike_id": "10995a3fdd00f0c45ff8d78edb03bf77", "lat": 38.91181316666667, "fusion_lon": 0.0, "fusion_lat": 0.0, "type": "electric_scooter", "name": "10995a3fdd00f0c45ff8d78edb03bf77", "is_disabled": 0, "rental_uris": {"ios": "https://dc.lft.to/lastmile_qr_scan", "android": "https://dc.lft.to/lastmile_qr_scan"}, "is_reserved": 0}, {"lon": -76.9327635, "bike_id": "75fcf218b816ca2e7832406d3da8eeb3", "lat": 38.954206666666664, "fusion_lon": 0.0, "fusion_lat": 0.0, "type": "electric_bike", "name": "75fcf218b816ca2e7832406d3da8eeb3", "is_disabled": 0, "rental_uris": {"ios": "https://dc.lft.to/lastmile_qr_scan", "android": "https://dc.lft.to/lastmile_qr_scan"}, "is_reserved": 0}, {"lon": -77.02825366666667, "bike_id": "c6833abe0096150c00b446a939d8da20", "lat": 38.922422, "fusion_lon": 0.0, "fusion_lat": 0.0, "type": "electric_scooter", "name": "c6833abe0096150c00b446a939d8da20", "is_disabled": 0, "rental_uris": {"ios": "https://dc.lft.to/lastmile_qr_scan", "android": "https://dc.lft.to/lastmile_qr_scan"}, "is_reserved": 0}, {"lon": -77.019958, "bike_id": "0a4752738cfab38ff114ddcb2725d54a", "lat": 38.91156483333334, "fusion_lon": 0.0, "fusion_lat": 0.0, "type": "electric_scooter", "name": "0a4752738cfab38ff114ddcb2725d54a", "is_disabled": 0, "rental_uris": {"ios": "https://dc.lft.to/lastmile_qr_scan", "android": "https://dc.lft.to/lastmile_qr_scan"}, "is_reserved": 0}, {"lon": -76.94619183333333, "bike_id": "0c713e989002f2f2c2902ef797b4e758", "lat": 38.83235283333333, "fusion_lon": 0.0, "fusion_lat": 0.0, "type": "electric_bike", "name": "0c713e989002f2f2c2902ef797b4e758", "is_disabled": 0, "rental_uris": {"ios": "https://dc.lft.to/lastmile_qr_scan", "android": "https://dc.lft.to/lastmile_qr_scan"}, "is_reserved": 0}, {"lon": -77.00126066666667, "bike_id": "037f1153a2c15784830799b596712d2a", "lat": 38.878201, "fusion_lon": 0.0, "fusion_lat": 0.0, "type": "electric_scooter", "name": "037f1153a2c15784830799b596712d2a", "is_disabled": 0, "rental_uris": {"ios": "https://dc.lft.to/lastmile_qr_scan", "android": "https://dc.lft.to/lastmile_qr_scan"}, "is_reserved": 0}, {"lon": -77.0318765, "bike_id": "a782973030c1252d4896ab412be72a76", "lat": 38.8922875, "fusion_lon": 0.0, "fusion_lat": 0.0, "type": "electric_scooter", "name": "a782973030c1252d4896ab412be72a76", "is_disabled": 0, "rental_uris": {"ios": "https://dc.lft.to/lastmile_qr_scan", "android": "https://dc.lft.to/lastmile_qr_scan"}, "is_reserved": 0}, {"lon": -77.03191116666666, "bike_id": "11c8bbe5dc70ed20943f5e7b166fa3a9", "lat": 38.915723666666665, "fusion_lon": 0.0, "fusion_lat": 0.0, "type": "electric_scooter", "name": "11c8bbe5dc70ed20943f5e7b166fa3a9", "is_disabled": 0, "rental_uris": {"ios": "https://dc.lft.to/lastmile_qr_scan", "android": "https://dc.lft.to/lastmile_qr_scan"}, "is_reserved": 0}, {"lon": -77.06126983333333, "bike_id": "f535dd21fc457f11729c1f2c110eccd2", "lat": 38.905304, "fusion_lon": 0.0, "fusion_lat": 0.0, "type": "electric_scooter", "name": "f535dd21fc457f11729c1f2c110eccd2", "is_disabled": 0, "rental_uris": {"ios": "https://dc.lft.to/lastmile_qr_scan", "android": "https://dc.lft.to/lastmile_qr_scan"}, "is_reserved": 0}, {"lon": -77.01787916666666, "bike_id": "80c1d6bf50ac025271f47c0c0e37005d", "lat": 38.920414666666666, "fusion_lon": 0.0, "fusion_lat": 0.0, "type": "electric_scooter", "name": "80c1d6bf50ac025271f47c0c0e37005d", "is_disabled": 0, "rental_uris": {"ios": "https://dc.lft.to/lastmile_qr_scan", "android": "https://dc.lft.to/lastmile_qr_scan"}, "is_reserved": 0}, {"lon": -77.055989, "bike_id": "8d2146c2aeb76fa3b68df31ebb1e05a2", "lat": 38.936975333333336, "fusion_lon": 0.0, "fusion_lat": 0.0, "type": "electric_scooter", "name": "8d2146c2aeb76fa3b68df31ebb1e05a2", "is_disabled": 0, "rental_uris": {"ios": "https://dc.lft.to/lastmile_qr_scan", "android": "https://dc.lft.to/lastmile_qr_scan"}, "is_reserved": 0}, {"lon": -77.03286416666667, "bike_id": "1be97ffc569f7938929f2cc808cd561a", "lat": 38.9325225, "fusion_lon": 0.0, "fusion_lat": 0.0, "type": "electric_scooter", "name": "1be97ffc569f7938929f2cc808cd561a", "is_disabled": 0, "rental_uris": {"ios": "https://dc.lft.to/lastmile_qr_scan", "android": "https://dc.lft.to/lastmile_qr_scan"}, "is_reserved": 0}, {"lon": -77.0306805, "bike_id": "0a29999540da8759e916eb228d01d098", "lat": 38.91694, "fusion_lon": 0.0, "fusion_lat": 0.0, "type": "electric_scooter", "name": "0a29999540da8759e916eb228d01d098", "is_disabled": 0, "rental_uris": {"ios": "https://dc.lft.to/lastmile_qr_scan", "android": "https://dc.lft.to/lastmile_qr_scan"}, "is_reserved": 0}, {"lon": -76.99600616666666, "bike_id": "744b436d5b081ab855320ee2f4f9ba1d", "lat": 38.884287, "fusion_lon": 0.0, "fusion_lat": 0.0, "type": "electric_scooter", "name": "744b436d5b081ab855320ee2f4f9ba1d", "is_disabled": 0, "rental_uris": {"ios": "https://dc.lft.to/lastmile_qr_scan", "android": "https://dc.lft.to/lastmile_qr_scan"}, "is_reserved": 0}, {"lon": -77.0281515, "bike_id": "ce0c5d4b0a34f59ecac171dfe4910f3b", "lat": 38.901439833333335, "fusion_lon": 0.0, "fusion_lat": 0.0, "type": "electric_scooter", "name": "ce0c5d4b0a34f59ecac171dfe4910f3b", "is_disabled": 0, "rental_uris": {"ios": "https://dc.lft.to/lastmile_qr_scan", "android": "https://dc.lft.to/lastmile_qr_scan"}, "is_reserved": 0}, {"lon": -77.012253, "bike_id": "1283d5f3234dd8426524e6f46c95de8b", "lat": 38.901711666666664, "fusion_lon": 0.0, "fusion_lat": 0.0, "type": "electric_scooter", "name": "1283d5f3234dd8426524e6f46c95de8b", "is_disabled": 0, "rental_uris": {"ios": "https://dc.lft.to/lastmile_qr_scan", "android": "https://dc.lft.to/lastmile_qr_scan"}, "is_reserved": 0}, {"lon": -77.03343016666666, "bike_id": "1b780c749fc13462925949a94cc50474", "lat": 38.898944, "fusion_lon": 0.0, "fusion_lat": 0.0, "type": "electric_scooter", "name": "1b780c749fc13462925949a94cc50474", "is_disabled": 0, "rental_uris": {"ios": "https://dc.lft.to/lastmile_qr_scan", "android": "https://dc.lft.to/lastmile_qr_scan"}, "is_reserved": 0}, {"lon": -76.985596, "bike_id": "f8bb1297c280323f5ac7442e1861da60", "lat": 38.909164833333335, "fusion_lon": 0.0, "fusion_lat": 0.0, "type": "electric_scooter", "name": "f8bb1297c280323f5ac7442e1861da60", "is_disabled": 0, "rental_uris": {"ios": "https://dc.lft.to/lastmile_qr_scan", "android": "https://dc.lft.to/lastmile_qr_scan"}, "is_reserved": 0}, {"lon": -77.02970783333333, "bike_id": "84bd4381e96c0ac09a066b090241f7dc", "lat": 38.916835166666665, "fusion_lon": 0.0, "fusion_lat": 0.0, "type": "electric_scooter", "name": "84bd4381e96c0ac09a066b090241f7dc", "is_disabled": 0, "rental_uris": {"ios": "https://dc.lft.to/lastmile_qr_scan", "android": "https://dc.lft.to/lastmile_qr_scan"}, "is_reserved": 0}, {"lon": -76.973378, "bike_id": "831ab3609a4dda9d311f232865af6abe", "lat": 38.86519166666667, "fusion_lon": 0.0, "fusion_lat": 0.0, "type": "electric_bike", "name": "831ab3609a4dda9d311f232865af6abe", "is_disabled": 0, "rental_uris": {"ios": "https://dc.lft.to/lastmile_qr_scan", "android": "https://dc.lft.to/lastmile_qr_scan"}, "is_reserved": 0}, {"lon": -77.03194416666666, "bike_id": "aebba244df201dfdcb22a8925c88c973", "lat": 38.9286725, "fusion_lon": 0.0, "fusion_lat": 0.0, "type": "electric_scooter", "name": "aebba244df201dfdcb22a8925c88c973", "is_disabled": 0, "rental_uris": {"ios": "https://dc.lft.to/lastmile_qr_scan", "android": "https://dc.lft.to/lastmile_qr_scan"}, "is_reserved": 0}, {"lon": -76.98084466666667, "bike_id": "c08cd010e47a05abc249beaec0620af2", "lat": 38.88423266666667, "fusion_lon": 0.0, "fusion_lat": 0.0, "type": "electric_scooter", "name": "c08cd010e47a05abc249beaec0620af2", "is_disabled": 0, "rental_uris": {"ios": "https://dc.lft.to/lastmile_qr_scan", "android": "https://dc.lft.to/lastmile_qr_scan"}, "is_reserved": 0}, {"lon": -76.98503616666666, "bike_id": "88542fa6c3e7bc2a68438d504ce347be", "lat": 38.866712166666666, "fusion_lon": 0.0, "fusion_lat": 0.0, "type": "electric_scooter", "name": "88542fa6c3e7bc2a68438d504ce347be", "is_disabled": 0, "rental_uris": {"ios": "https://dc.lft.to/lastmile_qr_scan", "android": "https://dc.lft.to/lastmile_qr_scan"}, "is_reserved": 0}, {"lon": -77.02902283333333, "bike_id": "7b30fae33a8ee1343d7ef5ab8c6e770a", "lat": 38.91690716666667, "fusion_lon": 0.0, "fusion_lat": 0.0, "type": "electric_scooter", "name": "7b30fae33a8ee1343d7ef5ab8c6e770a", "is_disabled": 0, "rental_uris": {"ios": "https://dc.lft.to/lastmile_qr_scan", "android": "https://dc.lft.to/lastmile_qr_scan"}, "is_reserved": 0}, {"lon": -77.043908, "bike_id": "f528738d8f5dbc0de805c99e51e8363f", "lat": 38.921123333333334, "fusion_lon": 0.0, "fusion_lat": 0.0, "type": "electric_scooter", "name": "f528738d8f5dbc0de805c99e51e8363f", "is_disabled": 0, "rental_uris": {"ios": "https://dc.lft.to/lastmile_qr_scan", "android": "https://dc.lft.to/lastmile_qr_scan"}, "is_reserved": 0}, {"lon": -77.02516033333333, "bike_id": "336b30a5247d4be6cadd6fa009e9aaa3", "lat": 38.926448, "fusion_lon": 0.0, "fusion_lat": 0.0, "type": "electric_scooter", "name": "336b30a5247d4be6cadd6fa009e9aaa3", "is_disabled": 0, "rental_uris": {"ios": "https://dc.lft.to/lastmile_qr_scan", "android": "https://dc.lft.to/lastmile_qr_scan"}, "is_reserved": 0}, {"lon": -76.8954115, "bike_id": "e349be808e1937677a4d14cb3acec8df", "lat": 38.945493, "fusion_lon": 0.0, "fusion_lat": 0.0, "type": "electric_bike", "name": "e349be808e1937677a4d14cb3acec8df", "is_disabled": 0, "rental_uris": {"ios": "https://dc.lft.to/lastmile_qr_scan", "android": "https://dc.lft.to/lastmile_qr_scan"}, "is_reserved": 0}, {"lon": -77.00597733333333, "bike_id": "db60207434fadb05df45587a50e12948", "lat": 38.87180933333333, "fusion_lon": 0.0, "fusion_lat": 0.0, "type": "electric_scooter", "name": "db60207434fadb05df45587a50e12948", "is_disabled": 0, "rental_uris": {"ios": "https://dc.lft.to/lastmile_qr_scan", "android": "https://dc.lft.to/lastmile_qr_scan"}, "is_reserved": 0}, {"lon": -76.9915965, "bike_id": "8f79571ee95d1e543c6e57ec0fe0df4d", "lat": 38.90035833333334, "fusion_lon": 0.0, "fusion_lat": 0.0, "type": "electric_scooter", "name": "8f79571ee95d1e543c6e57ec0fe0df4d", "is_disabled": 0, "rental_uris": {"ios": "https://dc.lft.to/lastmile_qr_scan", "android": "https://dc.lft.to/lastmile_qr_scan"}, "is_reserved": 0}, {"lon": -77.04878983333333, "bike_id": "ce08085242d69f29b51ae8adc7647788", "lat": 38.9008415, "fusion_lon": 0.0, "fusion_lat": 0.0, "type": "electric_scooter", "name": "ce08085242d69f29b51ae8adc7647788", "is_disabled": 0, "rental_uris": {"ios": "https://dc.lft.to/lastmile_qr_scan", "android": "https://dc.lft.to/lastmile_qr_scan"}, "is_reserved": 0}, {"lon": -77.0328005, "bike_id": "cc81defe4fdc842025354aa5b19b22d8", "lat": 38.90159933333333, "fusion_lon": 0.0, "fusion_lat": 0.0, "type": "electric_scooter", "name": "cc81defe4fdc842025354aa5b19b22d8", "is_disabled": 0, "rental_uris": {"ios": "https://dc.lft.to/lastmile_qr_scan", "android": "https://dc.lft.to/lastmile_qr_scan"}, "is_reserved": 0}, {"lon": -77.042205, "bike_id": "5a5950d02d9f364aac05b1c91737f7ea", "lat": 38.92313033333333, "fusion_lon": 0.0, "fusion_lat": 0.0, "type": "electric_scooter", "name": "5a5950d02d9f364aac05b1c91737f7ea", "is_disabled": 0, "rental_uris": {"ios": "https://dc.lft.to/lastmile_qr_scan", "android": "https://dc.lft.to/lastmile_qr_scan"}, "is_reserved": 0}, {"lon": -77.04262783333333, "bike_id": "5fb7b37e2cb387b50054ed5bbe231105", "lat": 38.9229105, "fusion_lon": 0.0, "fusion_lat": 0.0, "type": "electric_scooter", "name": "5fb7b37e2cb387b50054ed5bbe231105", "is_disabled": 0, "rental_uris": {"ios": "https://dc.lft.to/lastmile_qr_scan", "android": "https://dc.lft.to/lastmile_qr_scan"}, "is_reserved": 0}, {"lon": -76.97801766666667, "bike_id": "071ab6df2001033a8682b2b7a3b6ff85", "lat": 38.90667366666667, "fusion_lon": 0.0, "fusion_lat": 0.0, "type": "electric_scooter", "name": "071ab6df2001033a8682b2b7a3b6ff85", "is_disabled": 0, "rental_uris": {"ios": "https://dc.lft.to/lastmile_qr_scan", "android": "https://dc.lft.to/lastmile_qr_scan"}, "is_reserved": 0}, {"lon": -77.02703233333334, "bike_id": "772f00853f0b79a96914b1b6b1bc2773", "lat": 38.906616, "fusion_lon": 0.0, "fusion_lat": 0.0, "type": "electric_scooter", "name": "772f00853f0b79a96914b1b6b1bc2773", "is_disabled": 0, "rental_uris": {"ios": "https://dc.lft.to/lastmile_qr_scan", "android": "https://dc.lft.to/lastmile_qr_scan"}, "is_reserved": 0}, {"lon": -77.04020916666667, "bike_id": "3026dd9e0bb57ea44ff7810fd7b965ba", "lat": 38.90592933333333, "fusion_lon": 0.0, "fusion_lat": 0.0, "type": "electric_scooter", "name": "3026dd9e0bb57ea44ff7810fd7b965ba", "is_disabled": 0, "rental_uris": {"ios": "https://dc.lft.to/lastmile_qr_scan", "android": "https://dc.lft.to/lastmile_qr_scan"}, "is_reserved": 0}, {"lon": -77.02571716666667, "bike_id": "0b1b9c8e7f3d51b3a95a93115c1dbe89", "lat": 38.91491533333333, "fusion_lon": 0.0, "fusion_lat": 0.0, "type": "electric_scooter", "name": "0b1b9c8e7f3d51b3a95a93115c1dbe89", "is_disabled": 0, "rental_uris": {"ios": "https://dc.lft.to/lastmile_qr_scan", "android": "https://dc.lft.to/lastmile_qr_scan"}, "is_reserved": 0}, {"lon": -76.99892883333334, "bike_id": "722080d6aa3290cd81547c9a84c87a86", "lat": 38.9072555, "fusion_lon": 0.0, "fusion_lat": 0.0, "type": "electric_scooter", "name": "722080d6aa3290cd81547c9a84c87a86", "is_disabled": 0, "rental_uris": {"ios": "https://dc.lft.to/lastmile_qr_scan", "android": "https://dc.lft.to/lastmile_qr_scan"}, "is_reserved": 0}, {"lon": -77.04754733333333, "bike_id": "691313acc7f110220c3f20366bbc8752", "lat": 38.90546716666667, "fusion_lon": 0.0, "fusion_lat": 0.0, "type": "electric_scooter", "name": "691313acc7f110220c3f20366bbc8752", "is_disabled": 0, "rental_uris": {"ios": "https://dc.lft.to/lastmile_qr_scan", "android": "https://dc.lft.to/lastmile_qr_scan"}, "is_reserved": 0}, {"lon": -77.07116216666667, "bike_id": "6f5c72ea34cacdb3ded506ccfc3c1fa1", "lat": 38.91967983333333, "fusion_lon": 0.0, "fusion_lat": 0.0, "type": "electric_scooter", "name": "6f5c72ea34cacdb3ded506ccfc3c1fa1", "is_disabled": 0, "rental_uris": {"ios": "https://dc.lft.to/lastmile_qr_scan", "android": "https://dc.lft.to/lastmile_qr_scan"}, "is_reserved": 0}, {"lon": -77.03850466666667, "bike_id": "d135b5a43a583a5239ec967ceee8878e", "lat": 38.910144, "fusion_lon": 0.0, "fusion_lat": 0.0, "type": "electric_scooter", "name": "d135b5a43a583a5239ec967ceee8878e", "is_disabled": 0, "rental_uris": {"ios": "https://dc.lft.to/lastmile_qr_scan", "android": "https://dc.lft.to/lastmile_qr_scan"}, "is_reserved": 0}, {"lon": -77.00683216666667, "bike_id": "93c50463529b693234f210baef37a504", "lat": 38.944975166666666, "fusion_lon": 0.0, "fusion_lat": 0.0, "type": "electric_bike", "name": "93c50463529b693234f210baef37a504", "is_disabled": 0, "rental_uris": {"ios": "https://dc.lft.to/lastmile_qr_scan", "android": "https://dc.lft.to/lastmile_qr_scan"}, "is_reserved": 0}, {"lon": -77.03187416666667, "bike_id": "b6160f0ccdc6453fae01d7741457aad7", "lat": 38.91829416666667, "fusion_lon": 0.0, "fusion_lat": 0.0, "type": "electric_scooter", "name": "b6160f0ccdc6453fae01d7741457aad7", "is_disabled": 0, "rental_uris": {"ios": "https://dc.lft.to/lastmile_qr_scan", "android": "https://dc.lft.to/lastmile_qr_scan"}, "is_reserved": 0}, {"lon": -77.04675533333334, "bike_id": "bb5646f9a3a68312d53cf856e7c4b1b8", "lat": 38.892328, "fusion_lon": 0.0, "fusion_lat": 0.0, "type": "electric_scooter", "name": "bb5646f9a3a68312d53cf856e7c4b1b8", "is_disabled": 0, "rental_uris": {"ios": "https://dc.lft.to/lastmile_qr_scan", "android": "https://dc.lft.to/lastmile_qr_scan"}, "is_reserved": 0}, {"lon": -77.03205466666667, "bike_id": "447d52708645866fee6fd163234156e6", "lat": 38.9173935, "fusion_lon": 0.0, "fusion_lat": 0.0, "type": "electric_scooter", "name": "447d52708645866fee6fd163234156e6", "is_disabled": 0, "rental_uris": {"ios": "https://dc.lft.to/lastmile_qr_scan", "android": "https://dc.lft.to/lastmile_qr_scan"}, "is_reserved": 0}, {"lon": -77.025595, "bike_id": "31c5bcee0f55c523c2588bd426ce761b", "lat": 38.94172483333333, "fusion_lon": 0.0, "fusion_lat": 0.0, "type": "electric_scooter", "name": "31c5bcee0f55c523c2588bd426ce761b", "is_disabled": 0, "rental_uris": {"ios": "https://dc.lft.to/lastmile_qr_scan", "android": "https://dc.lft.to/lastmile_qr_scan"}, "is_reserved": 0}, {"lon": -76.92770983333334, "bike_id": "22fcac9c08971fbb37c0caf8be254476", "lat": 38.969254166666666, "fusion_lon": 0.0, "fusion_lat": 0.0, "type": "electric_bike", "name": "22fcac9c08971fbb37c0caf8be254476", "is_disabled": 0, "rental_uris": {"ios": "https://dc.lft.to/lastmile_qr_scan", "android": "https://dc.lft.to/lastmile_qr_scan"}, "is_reserved": 0}, {"lon": -77.03717483333334, "bike_id": "dc4622e3e8d06de6a97a794422e2b0e9", "lat": 38.93197683333333, "fusion_lon": 0.0, "fusion_lat": 0.0, "type": "electric_scooter", "name": "dc4622e3e8d06de6a97a794422e2b0e9", "is_disabled": 0, "rental_uris": {"ios": "https://dc.lft.to/lastmile_qr_scan", "android": "https://dc.lft.to/lastmile_qr_scan"}, "is_reserved": 0}, {"lon": -77.030635, "bike_id": "42f0c3c16f21114feba91c2504e22187", "lat": 38.887440166666664, "fusion_lon": 0.0, "fusion_lat": 0.0, "type": "electric_scooter", "name": "42f0c3c16f21114feba91c2504e22187", "is_disabled": 0, "rental_uris": {"ios": "https://dc.lft.to/lastmile_qr_scan", "android": "https://dc.lft.to/lastmile_qr_scan"}, "is_reserved": 0}, {"lon": -76.979168, "bike_id": "7a9f636be9215bafe76815f4f140665b", "lat": 38.86361133333333, "fusion_lon": 0.0, "fusion_lat": 0.0, "type": "electric_scooter", "name": "7a9f636be9215bafe76815f4f140665b", "is_disabled": 0, "rental_uris": {"ios": "https://dc.lft.to/lastmile_qr_scan", "android": "https://dc.lft.to/lastmile_qr_scan"}, "is_reserved": 0}, {"lon": -76.987109, "bike_id": "abe547fba7cc3d9d7767fe911a0ea2f0", "lat": 38.8669945, "fusion_lon": 0.0, "fusion_lat": 0.0, "type": "electric_scooter", "name": "abe547fba7cc3d9d7767fe911a0ea2f0", "is_disabled": 0, "rental_uris": {"ios": "https://dc.lft.to/lastmile_qr_scan", "android": "https://dc.lft.to/lastmile_qr_scan"}, "is_reserved": 0}, {"lon": -77.0248785, "bike_id": "6f4432411bd524a4af702807d4030e75", "lat": 38.916931166666664, "fusion_lon": 0.0, "fusion_lat": 0.0, "type": "electric_scooter", "name": "6f4432411bd524a4af702807d4030e75", "is_disabled": 0, "rental_uris": {"ios": "https://dc.lft.to/lastmile_qr_scan", "android": "https://dc.lft.to/lastmile_qr_scan"}, "is_reserved": 0}, {"lon": -77.01464516666667, "bike_id": "452a8bdd072143a9114821075c53c71d", "lat": 38.92676083333333, "fusion_lon": 0.0, "fusion_lat": 0.0, "type": "electric_scooter", "name": "452a8bdd072143a9114821075c53c71d", "is_disabled": 0, "rental_uris": {"ios": "https://dc.lft.to/lastmile_qr_scan", "android": "https://dc.lft.to/lastmile_qr_scan"}, "is_reserved": 0}, {"lon": -77.04628483333333, "bike_id": "5ef1eda79d6a28715a00aa6143050f8b", "lat": 38.915121666666664, "fusion_lon": 0.0, "fusion_lat": 0.0, "type": "electric_scooter", "name": "5ef1eda79d6a28715a00aa6143050f8b", "is_disabled": 0, "rental_uris": {"ios": "https://dc.lft.to/lastmile_qr_scan", "android": "https://dc.lft.to/lastmile_qr_scan"}, "is_reserved": 0}, {"lon": -76.927714, "bike_id": "c3ec3744b33f21810fad6a3f9b6cd273", "lat": 38.900884, "fusion_lon": 0.0, "fusion_lat": 0.0, "type": "electric_scooter", "name": "c3ec3744b33f21810fad6a3f9b6cd273", "is_disabled": 0, "rental_uris": {"ios": "https://dc.lft.to/lastmile_qr_scan", "android": "https://dc.lft.to/lastmile_qr_scan"}, "is_reserved": 0}, {"lon": -77.0020585, "bike_id": "a3357c46b76bc617301e03f616bba65e", "lat": 38.988491, "fusion_lon": 0.0, "fusion_lat": 0.0, "type": "electric_bike", "name": "a3357c46b76bc617301e03f616bba65e", "is_disabled": 0, "rental_uris": {"ios": "https://dc.lft.to/lastmile_qr_scan", "android": "https://dc.lft.to/lastmile_qr_scan"}, "is_reserved": 0}, {"lon": -76.98885966666667, "bike_id": "41438ed3d59ad15a892253c16b48ce5d", "lat": 38.8665655, "fusion_lon": 0.0, "fusion_lat": 0.0, "type": "electric_scooter", "name": "41438ed3d59ad15a892253c16b48ce5d", "is_disabled": 0, "rental_uris": {"ios": "https://dc.lft.to/lastmile_qr_scan", "android": "https://dc.lft.to/lastmile_qr_scan"}, "is_reserved": 0}, {"lon": -77.00201316666667, "bike_id": "c51ca69553fd693b767f297304ad939a", "lat": 38.90031033333333, "fusion_lon": 0.0, "fusion_lat": 0.0, "type": "electric_scooter", "name": "c51ca69553fd693b767f297304ad939a", "is_disabled": 0, "rental_uris": {"ios": "https://dc.lft.to/lastmile_qr_scan", "android": "https://dc.lft.to/lastmile_qr_scan"}, "is_reserved": 0}, {"lon": -77.032526, "bike_id": "5cb41df6137eaa1a8197abd04a667014", "lat": 38.91983716666667, "fusion_lon": 0.0, "fusion_lat": 0.0, "type": "electric_scooter", "name": "5cb41df6137eaa1a8197abd04a667014", "is_disabled": 0, "rental_uris": {"ios": "https://dc.lft.to/lastmile_qr_scan", "android": "https://dc.lft.to/lastmile_qr_scan"}, "is_reserved": 0}, {"lon": -77.02592133333333, "bike_id": "d21fec7d3157654b93fb5cc98a5a64b8", "lat": 38.942062166666666, "fusion_lon": 0.0, "fusion_lat": 0.0, "type": "electric_scooter", "name": "d21fec7d3157654b93fb5cc98a5a64b8", "is_disabled": 0, "rental_uris": {"ios": "https://dc.lft.to/lastmile_qr_scan", "android": "https://dc.lft.to/lastmile_qr_scan"}, "is_reserved": 0}, {"lon": -77.02224616666666, "bike_id": "e111915ea85e27f7ef537daf27067bc2", "lat": 38.903066, "fusion_lon": 0.0, "fusion_lat": 0.0, "type": "electric_scooter", "name": "e111915ea85e27f7ef537daf27067bc2", "is_disabled": 0, "rental_uris": {"ios": "https://dc.lft.to/lastmile_qr_scan", "android": "https://dc.lft.to/lastmile_qr_scan"}, "is_reserved": 0}, {"lon": -77.0089405, "bike_id": "ce7bb4bc5ae7439188d159d09a34a886", "lat": 38.96117116666667, "fusion_lon": 0.0, "fusion_lat": 0.0, "type": "electric_scooter", "name": "ce7bb4bc5ae7439188d159d09a34a886", "is_disabled": 0, "rental_uris": {"ios": "https://dc.lft.to/lastmile_qr_scan", "android": "https://dc.lft.to/lastmile_qr_scan"}, "is_reserved": 0}, {"lon": -77.0465755, "bike_id": "b5db99b2cd01de2a88653c38e9791647", "lat": 38.904554, "fusion_lon": 0.0, "fusion_lat": 0.0, "type": "electric_scooter", "name": "b5db99b2cd01de2a88653c38e9791647", "is_disabled": 0, "rental_uris": {"ios": "https://dc.lft.to/lastmile_qr_scan", "android": "https://dc.lft.to/lastmile_qr_scan"}, "is_reserved": 0}, {"lon": -76.9330525, "bike_id": "a1a187a7513f94c18869097e3a5b53e2", "lat": 38.90088266666667, "fusion_lon": 0.0, "fusion_lat": 0.0, "type": "electric_scooter", "name": "a1a187a7513f94c18869097e3a5b53e2", "is_disabled": 0, "rental_uris": {"ios": "https://dc.lft.to/lastmile_qr_scan", "android": "https://dc.lft.to/lastmile_qr_scan"}, "is_reserved": 0}, {"lon": -77.01997333333334, "bike_id": "e52757a70cc9db275199f65110651522", "lat": 38.90097733333333, "fusion_lon": 0.0, "fusion_lat": 0.0, "type": "electric_scooter", "name": "e52757a70cc9db275199f65110651522", "is_disabled": 0, "rental_uris": {"ios": "https://dc.lft.to/lastmile_qr_scan", "android": "https://dc.lft.to/lastmile_qr_scan"}, "is_reserved": 0}, {"lon": -76.99391083333333, "bike_id": "360bab879e34c63686382f124d4eea8b", "lat": 38.892042833333335, "fusion_lon": 0.0, "fusion_lat": 0.0, "type": "electric_scooter", "name": "360bab879e34c63686382f124d4eea8b", "is_disabled": 0, "rental_uris": {"ios": "https://dc.lft.to/lastmile_qr_scan", "android": "https://dc.lft.to/lastmile_qr_scan"}, "is_reserved": 0}, {"lon": -77.03279766666667, "bike_id": "4d3581ab3b7d85211833e161cf8f7dc1", "lat": 38.901534166666664, "fusion_lon": 0.0, "fusion_lat": 0.0, "type": "electric_scooter", "name": "4d3581ab3b7d85211833e161cf8f7dc1", "is_disabled": 0, "rental_uris": {"ios": "https://dc.lft.to/lastmile_qr_scan", "android": "https://dc.lft.to/lastmile_qr_scan"}, "is_reserved": 0}, {"lon": -77.02210866666667, "bike_id": "bd1bf8b2fb562643e605fbd9c4d131a6", "lat": 38.912715666666664, "fusion_lon": 0.0, "fusion_lat": 0.0, "type": "electric_scooter", "name": "bd1bf8b2fb562643e605fbd9c4d131a6", "is_disabled": 0, "rental_uris": {"ios": "https://dc.lft.to/lastmile_qr_scan", "android": "https://dc.lft.to/lastmile_qr_scan"}, "is_reserved": 0}, {"lon": -77.02830133333333, "bike_id": "71d41801454a9bb1e62158115ba84eed", "lat": 38.88730116666667, "fusion_lon": 0.0, "fusion_lat": 0.0, "type": "electric_scooter", "name": "71d41801454a9bb1e62158115ba84eed", "is_disabled": 0, "rental_uris": {"ios": "https://dc.lft.to/lastmile_qr_scan", "android": "https://dc.lft.to/lastmile_qr_scan"}, "is_reserved": 0}, {"lon": -77.04717916666667, "bike_id": "bebb4ae10a7b7f8ddbac728374ec3d50", "lat": 38.903152166666665, "fusion_lon": 0.0, "fusion_lat": 0.0, "type": "electric_scooter", "name": "bebb4ae10a7b7f8ddbac728374ec3d50", "is_disabled": 0, "rental_uris": {"ios": "https://dc.lft.to/lastmile_qr_scan", "android": "https://dc.lft.to/lastmile_qr_scan"}, "is_reserved": 0}, {"lon": -77.0218525, "bike_id": "8ff95dc175438f7b0b8e352fb05a0482", "lat": 38.89475, "fusion_lon": 0.0, "fusion_lat": 0.0, "type": "electric_scooter", "name": "8ff95dc175438f7b0b8e352fb05a0482", "is_disabled": 0, "rental_uris": {"ios": "https://dc.lft.to/lastmile_qr_scan", "android": "https://dc.lft.to/lastmile_qr_scan"}, "is_reserved": 0}, {"lon": -77.03211616666667, "bike_id": "c208f757884e9dbe84e21e050b58a532", "lat": 38.9287005, "fusion_lon": 0.0, "fusion_lat": 0.0, "type": "electric_scooter", "name": "c208f757884e9dbe84e21e050b58a532", "is_disabled": 0, "rental_uris": {"ios": "https://dc.lft.to/lastmile_qr_scan", "android": "https://dc.lft.to/lastmile_qr_scan"}, "is_reserved": 0}, {"lon": -77.0266155, "bike_id": "d2606d9eafb3ff1558b9c96b7a366043", "lat": 38.916885, "fusion_lon": 0.0, "fusion_lat": 0.0, "type": "electric_scooter", "name": "d2606d9eafb3ff1558b9c96b7a366043", "is_disabled": 0, "rental_uris": {"ios": "https://dc.lft.to/lastmile_qr_scan", "android": "https://dc.lft.to/lastmile_qr_scan"}, "is_reserved": 0}, {"lon": -77.0576285, "bike_id": "faa5906d361e929bdf4b39e8df828cb4", "lat": 38.93382866666666, "fusion_lon": 0.0, "fusion_lat": 0.0, "type": "electric_scooter", "name": "faa5906d361e929bdf4b39e8df828cb4", "is_disabled": 0, "rental_uris": {"ios": "https://dc.lft.to/lastmile_qr_scan", "android": "https://dc.lft.to/lastmile_qr_scan"}, "is_reserved": 0}, {"lon": -77.03269633333333, "bike_id": "6c15e481f64f688b0c02b8536c62e621", "lat": 38.930882833333335, "fusion_lon": 0.0, "fusion_lat": 0.0, "type": "electric_scooter", "name": "6c15e481f64f688b0c02b8536c62e621", "is_disabled": 0, "rental_uris": {"ios": "https://dc.lft.to/lastmile_qr_scan", "android": "https://dc.lft.to/lastmile_qr_scan"}, "is_reserved": 0}, {"lon": -77.02584016666667, "bike_id": "9ff50cf6933630a8efbed679e70fa797", "lat": 38.88736883333333, "fusion_lon": 0.0, "fusion_lat": 0.0, "type": "electric_scooter", "name": "9ff50cf6933630a8efbed679e70fa797", "is_disabled": 0, "rental_uris": {"ios": "https://dc.lft.to/lastmile_qr_scan", "android": "https://dc.lft.to/lastmile_qr_scan"}, "is_reserved": 0}, {"lon": -77.010733, "bike_id": "b9e947df80bdd6155d76d03bd83a9d65", "lat": 38.907184666666666, "fusion_lon": 0.0, "fusion_lat": 0.0, "type": "electric_bike", "name": "b9e947df80bdd6155d76d03bd83a9d65", "is_disabled": 0, "rental_uris": {"ios": "https://dc.lft.to/lastmile_qr_scan", "android": "https://dc.lft.to/lastmile_qr_scan"}, "is_reserved": 0}, {"lon": -77.02963533333333, "bike_id": "bca692203893b5f624f27264e41c643d", "lat": 38.92291266666667, "fusion_lon": 0.0, "fusion_lat": 0.0, "type": "electric_scooter", "name": "bca692203893b5f624f27264e41c643d", "is_disabled": 0, "rental_uris": {"ios": "https://dc.lft.to/lastmile_qr_scan", "android": "https://dc.lft.to/lastmile_qr_scan"}, "is_reserved": 0}, {"lon": -77.0240615, "bike_id": "0e4b82f4f156e8135edd20a692430a64", "lat": 38.891883666666665, "fusion_lon": 0.0, "fusion_lat": 0.0, "type": "electric_scooter", "name": "0e4b82f4f156e8135edd20a692430a64", "is_disabled": 0, "rental_uris": {"ios": "https://dc.lft.to/lastmile_qr_scan", "android": "https://dc.lft.to/lastmile_qr_scan"}, "is_reserved": 0}, {"lon": -77.03185633333334, "bike_id": "5cd4ebe5c6e8cb7fe6679bd638be1ab7", "lat": 38.905126, "fusion_lon": 0.0, "fusion_lat": 0.0, "type": "electric_scooter", "name": "5cd4ebe5c6e8cb7fe6679bd638be1ab7", "is_disabled": 0, "rental_uris": {"ios": "https://dc.lft.to/lastmile_qr_scan", "android": "https://dc.lft.to/lastmile_qr_scan"}, "is_reserved": 0}, {"lon": -77.03573183333333, "bike_id": "e0e7dcc5bc61bf4d0f795488342c6476", "lat": 38.9177515, "fusion_lon": 0.0, "fusion_lat": 0.0, "type": "electric_scooter", "name": "e0e7dcc5bc61bf4d0f795488342c6476", "is_disabled": 0, "rental_uris": {"ios": "https://dc.lft.to/lastmile_qr_scan", "android": "https://dc.lft.to/lastmile_qr_scan"}, "is_reserved": 0}, {"lon": -77.00369666666667, "bike_id": "bc34cd31e9e87e6a60081bcf4ea6d989", "lat": 38.90587516666667, "fusion_lon": 0.0, "fusion_lat": 0.0, "type": "electric_scooter", "name": "bc34cd31e9e87e6a60081bcf4ea6d989", "is_disabled": 0, "rental_uris": {"ios": "https://dc.lft.to/lastmile_qr_scan", "android": "https://dc.lft.to/lastmile_qr_scan"}, "is_reserved": 0}, {"lon": -77.02844166666667, "bike_id": "990bcaf11fde23557ea20e1fae67b123", "lat": 38.9296025, "fusion_lon": 0.0, "fusion_lat": 0.0, "type": "electric_scooter", "name": "990bcaf11fde23557ea20e1fae67b123", "is_disabled": 0, "rental_uris": {"ios": "https://dc.lft.to/lastmile_qr_scan", "android": "https://dc.lft.to/lastmile_qr_scan"}, "is_reserved": 0}, {"lon": -77.07849466666667, "bike_id": "13e716f6bf1eb6b56400b94628b02b06", "lat": 38.91964933333333, "fusion_lon": 0.0, "fusion_lat": 0.0, "type": "electric_bike", "name": "13e716f6bf1eb6b56400b94628b02b06", "is_disabled": 0, "rental_uris": {"ios": "https://dc.lft.to/lastmile_qr_scan", "android": "https://dc.lft.to/lastmile_qr_scan"}, "is_reserved": 0}, {"lon": -77.001972, "bike_id": "7008d0c45b6c8860c2bdd35e9009329b", "lat": 38.90034133333333, "fusion_lon": 0.0, "fusion_lat": 0.0, "type": "electric_scooter", "name": "7008d0c45b6c8860c2bdd35e9009329b", "is_disabled": 0, "rental_uris": {"ios": "https://dc.lft.to/lastmile_qr_scan", "android": "https://dc.lft.to/lastmile_qr_scan"}, "is_reserved": 0}, {"lon": -77.039876, "bike_id": "3a1647b940b2fddaa2e90c9d237706f1", "lat": 38.916365166666665, "fusion_lon": 0.0, "fusion_lat": 0.0, "type": "electric_scooter", "name": "3a1647b940b2fddaa2e90c9d237706f1", "is_disabled": 0, "rental_uris": {"ios": "https://dc.lft.to/lastmile_qr_scan", "android": "https://dc.lft.to/lastmile_qr_scan"}, "is_reserved": 0}, {"lon": -77.044664, "bike_id": "70d6994964f6939647d788111c439f78", "lat": 38.89624766666667, "fusion_lon": 0.0, "fusion_lat": 0.0, "type": "electric_scooter", "name": "70d6994964f6939647d788111c439f78", "is_disabled": 0, "rental_uris": {"ios": "https://dc.lft.to/lastmile_qr_scan", "android": "https://dc.lft.to/lastmile_qr_scan"}, "is_reserved": 0}, {"lon": -77.01053433333334, "bike_id": "a898dd4bae6bb158ad8a532b1c814d33", "lat": 38.963511833333335, "fusion_lon": 0.0, "fusion_lat": 0.0, "type": "electric_scooter", "name": "a898dd4bae6bb158ad8a532b1c814d33", "is_disabled": 0, "rental_uris": {"ios": "https://dc.lft.to/lastmile_qr_scan", "android": "https://dc.lft.to/lastmile_qr_scan"}, "is_reserved": 0}, {"lon": -77.10331633333334, "bike_id": "468226672dd98c51bb6562503e5b16a6", "lat": 38.88544666666667, "fusion_lon": 0.0, "fusion_lat": 0.0, "type": "electric_bike", "name": "468226672dd98c51bb6562503e5b16a6", "is_disabled": 0, "rental_uris": {"ios": "https://dc.lft.to/lastmile_qr_scan", "android": "https://dc.lft.to/lastmile_qr_scan"}, "is_reserved": 0}, {"lon": -77.009889, "bike_id": "a5be6a23734000d6ef4152385538ad2f", "lat": 38.90361583333333, "fusion_lon": 0.0, "fusion_lat": 0.0, "type": "electric_scooter", "name": "a5be6a23734000d6ef4152385538ad2f", "is_disabled": 0, "rental_uris": {"ios": "https://dc.lft.to/lastmile_qr_scan", "android": "https://dc.lft.to/lastmile_qr_scan"}, "is_reserved": 0}, {"lon": -77.0698225, "bike_id": "4980201014421620000cda12f19863f9", "lat": 38.91839866666667, "fusion_lon": 0.0, "fusion_lat": 0.0, "type": "electric_bike", "name": "4980201014421620000cda12f19863f9", "is_disabled": 0, "rental_uris": {"ios": "https://dc.lft.to/lastmile_qr_scan", "android": "https://dc.lft.to/lastmile_qr_scan"}, "is_reserved": 0}, {"lon": -77.02780416666667, "bike_id": "06295389baceac20c53bcb701beca650", "lat": 38.89218366666667, "fusion_lon": 0.0, "fusion_lat": 0.0, "type": "electric_scooter", "name": "06295389baceac20c53bcb701beca650", "is_disabled": 0, "rental_uris": {"ios": "https://dc.lft.to/lastmile_qr_scan", "android": "https://dc.lft.to/lastmile_qr_scan"}, "is_reserved": 0}, {"lon": -77.01509716666666, "bike_id": "1cb25a935623cb0ca454247d1c2dd9ce", "lat": 38.910014833333335, "fusion_lon": 0.0, "fusion_lat": 0.0, "type": "electric_scooter", "name": "1cb25a935623cb0ca454247d1c2dd9ce", "is_disabled": 0, "rental_uris": {"ios": "https://dc.lft.to/lastmile_qr_scan", "android": "https://dc.lft.to/lastmile_qr_scan"}, "is_reserved": 0}, {"lon": -77.0427595, "bike_id": "11650a1c559a52eaa8d64b753111a36c", "lat": 38.9074365, "fusion_lon": 0.0, "fusion_lat": 0.0, "type": "electric_scooter", "name": "11650a1c559a52eaa8d64b753111a36c", "is_disabled": 0, "rental_uris": {"ios": "https://dc.lft.to/lastmile_qr_scan", "android": "https://dc.lft.to/lastmile_qr_scan"}, "is_reserved": 0}, {"lon": -77.02585666666667, "bike_id": "807c2a050e63f8022c1a5e8c14026e35", "lat": 38.92036983333333, "fusion_lon": 0.0, "fusion_lat": 0.0, "type": "electric_scooter", "name": "807c2a050e63f8022c1a5e8c14026e35", "is_disabled": 0, "rental_uris": {"ios": "https://dc.lft.to/lastmile_qr_scan", "android": "https://dc.lft.to/lastmile_qr_scan"}, "is_reserved": 0}, {"lon": -77.04338816666667, "bike_id": "4842df4529e2f9dbd25aa613489c8291", "lat": 38.92217933333333, "fusion_lon": 0.0, "fusion_lat": 0.0, "type": "electric_scooter", "name": "4842df4529e2f9dbd25aa613489c8291", "is_disabled": 0, "rental_uris": {"ios": "https://dc.lft.to/lastmile_qr_scan", "android": "https://dc.lft.to/lastmile_qr_scan"}, "is_reserved": 0}, {"lon": -76.93756883333333, "bike_id": "8d518d86fadf40dc135c62911006a5d6", "lat": 38.89037866666666, "fusion_lon": 0.0, "fusion_lat": 0.0, "type": "electric_scooter", "name": "8d518d86fadf40dc135c62911006a5d6", "is_disabled": 0, "rental_uris": {"ios": "https://dc.lft.to/lastmile_qr_scan", "android": "https://dc.lft.to/lastmile_qr_scan"}, "is_reserved": 0}, {"lon": -77.049448, "bike_id": "2d985481369a15ee392068445bb7980c", "lat": 38.90944616666667, "fusion_lon": 0.0, "fusion_lat": 0.0, "type": "electric_scooter", "name": "2d985481369a15ee392068445bb7980c", "is_disabled": 0, "rental_uris": {"ios": "https://dc.lft.to/lastmile_qr_scan", "android": "https://dc.lft.to/lastmile_qr_scan"}, "is_reserved": 0}, {"lon": -77.024037, "bike_id": "fe9fc4ac4aef2acff9d934ed6d2c9157", "lat": 38.89188516666667, "fusion_lon": 0.0, "fusion_lat": 0.0, "type": "electric_scooter", "name": "fe9fc4ac4aef2acff9d934ed6d2c9157", "is_disabled": 0, "rental_uris": {"ios": "https://dc.lft.to/lastmile_qr_scan", "android": "https://dc.lft.to/lastmile_qr_scan"}, "is_reserved": 0}, {"lon": -77.10488016666666, "bike_id": "1e57b1c1d89f6b46d3ca550966dfc268", "lat": 38.856065666666666, "fusion_lon": 0.0, "fusion_lat": 0.0, "type": "electric_bike", "name": "1e57b1c1d89f6b46d3ca550966dfc268", "is_disabled": 0, "rental_uris": {"ios": "https://dc.lft.to/lastmile_qr_scan", "android": "https://dc.lft.to/lastmile_qr_scan"}, "is_reserved": 0}, {"lon": -77.111508, "bike_id": "898e3b49183c9b60681301fb5bcdfa4b", "lat": 38.85517883333333, "fusion_lon": 0.0, "fusion_lat": 0.0, "type": "electric_bike", "name": "898e3b49183c9b60681301fb5bcdfa4b", "is_disabled": 0, "rental_uris": {"ios": "https://dc.lft.to/lastmile_qr_scan", "android": "https://dc.lft.to/lastmile_qr_scan"}, "is_reserved": 0}, {"lon": -77.06381183333333, "bike_id": "2d5e960cb8714e549c01ecb82b8c72bb", "lat": 38.9051775, "fusion_lon": 0.0, "fusion_lat": 0.0, "type": "electric_scooter", "name": "2d5e960cb8714e549c01ecb82b8c72bb", "is_disabled": 0, "rental_uris": {"ios": "https://dc.lft.to/lastmile_qr_scan", "android": "https://dc.lft.to/lastmile_qr_scan"}, "is_reserved": 0}, {"lon": -77.04909966666666, "bike_id": "90d5f325e3ed8850a8db8854f1b395e8", "lat": 38.905418166666664, "fusion_lon": 0.0, "fusion_lat": 0.0, "type": "electric_scooter", "name": "90d5f325e3ed8850a8db8854f1b395e8", "is_disabled": 0, "rental_uris": {"ios": "https://dc.lft.to/lastmile_qr_scan", "android": "https://dc.lft.to/lastmile_qr_scan"}, "is_reserved": 0}, {"lon": -76.98224483333334, "bike_id": "91c28403b31a134c385405934f82e743", "lat": 38.86651, "fusion_lon": 0.0, "fusion_lat": 0.0, "type": "electric_scooter", "name": "91c28403b31a134c385405934f82e743", "is_disabled": 0, "rental_uris": {"ios": "https://dc.lft.to/lastmile_qr_scan", "android": "https://dc.lft.to/lastmile_qr_scan"}, "is_reserved": 0}, {"lon": -77.04183733333333, "bike_id": "d1ccc18f7bc9f4d4425325754c008e5d", "lat": 38.892247833333336, "fusion_lon": 0.0, "fusion_lat": 0.0, "type": "electric_scooter", "name": "d1ccc18f7bc9f4d4425325754c008e5d", "is_disabled": 0, "rental_uris": {"ios": "https://dc.lft.to/lastmile_qr_scan", "android": "https://dc.lft.to/lastmile_qr_scan"}, "is_reserved": 0}, {"lon": -77.0433995, "bike_id": "a9559e29b2e2bdd0349d69ee96a03f7c", "lat": 38.9012445, "fusion_lon": 0.0, "fusion_lat": 0.0, "type": "electric_scooter", "name": "a9559e29b2e2bdd0349d69ee96a03f7c", "is_disabled": 0, "rental_uris": {"ios": "https://dc.lft.to/lastmile_qr_scan", "android": "https://dc.lft.to/lastmile_qr_scan"}, "is_reserved": 0}, {"lon": -77.041591, "bike_id": "2753a0030008bcd42263e8e4c60a000a", "lat": 38.91416683333333, "fusion_lon": 0.0, "fusion_lat": 0.0, "type": "electric_scooter", "name": "2753a0030008bcd42263e8e4c60a000a", "is_disabled": 0, "rental_uris": {"ios": "https://dc.lft.to/lastmile_qr_scan", "android": "https://dc.lft.to/lastmile_qr_scan"}, "is_reserved": 0}, {"lon": -77.000587, "bike_id": "61f4dbd1a15877296a43859515e26113", "lat": 38.8949455, "fusion_lon": 0.0, "fusion_lat": 0.0, "type": "electric_scooter", "name": "61f4dbd1a15877296a43859515e26113", "is_disabled": 0, "rental_uris": {"ios": "https://dc.lft.to/lastmile_qr_scan", "android": "https://dc.lft.to/lastmile_qr_scan"}, "is_reserved": 0}, {"lon": -76.99376533333333, "bike_id": "729baa7d87a96fcded0035774bc71d12", "lat": 38.90028016666667, "fusion_lon": 0.0, "fusion_lat": 0.0, "type": "electric_scooter", "name": "729baa7d87a96fcded0035774bc71d12", "is_disabled": 0, "rental_uris": {"ios": "https://dc.lft.to/lastmile_qr_scan", "android": "https://dc.lft.to/lastmile_qr_scan"}, "is_reserved": 0}, {"lon": -76.93303533333334, "bike_id": "32b0e90257b1d8d669b8c954d12797c6", "lat": 38.891957166666664, "fusion_lon": 0.0, "fusion_lat": 0.0, "type": "electric_scooter", "name": "32b0e90257b1d8d669b8c954d12797c6", "is_disabled": 0, "rental_uris": {"ios": "https://dc.lft.to/lastmile_qr_scan", "android": "https://dc.lft.to/lastmile_qr_scan"}, "is_reserved": 0}, {"lon": -77.0569815, "bike_id": "03204e1f640f76d735fa467a0417a883", "lat": 38.937152, "fusion_lon": 0.0, "fusion_lat": 0.0, "type": "electric_scooter", "name": "03204e1f640f76d735fa467a0417a883", "is_disabled": 0, "rental_uris": {"ios": "https://dc.lft.to/lastmile_qr_scan", "android": "https://dc.lft.to/lastmile_qr_scan"}, "is_reserved": 0}, {"lon": -76.98232166666666, "bike_id": "735d9efdd9da01167c92209ee73d592c", "lat": 38.8864595, "fusion_lon": 0.0, "fusion_lat": 0.0, "type": "electric_scooter", "name": "735d9efdd9da01167c92209ee73d592c", "is_disabled": 0, "rental_uris": {"ios": "https://dc.lft.to/lastmile_qr_scan", "android": "https://dc.lft.to/lastmile_qr_scan"}, "is_reserved": 0}, {"lon": -77.02778, "bike_id": "2916916d6f79b63dfb54bbd1eee1353d", "lat": 38.89218616666667, "fusion_lon": 0.0, "fusion_lat": 0.0, "type": "electric_scooter", "name": "2916916d6f79b63dfb54bbd1eee1353d", "is_disabled": 0, "rental_uris": {"ios": "https://dc.lft.to/lastmile_qr_scan", "android": "https://dc.lft.to/lastmile_qr_scan"}, "is_reserved": 0}, {"lon": -77.017003, "bike_id": "b6e3fb93adf6c1ff868d422bc242dd2b", "lat": 38.9205335, "fusion_lon": 0.0, "fusion_lat": 0.0, "type": "electric_scooter", "name": "b6e3fb93adf6c1ff868d422bc242dd2b", "is_disabled": 0, "rental_uris": {"ios": "https://dc.lft.to/lastmile_qr_scan", "android": "https://dc.lft.to/lastmile_qr_scan"}, "is_reserved": 0}, {"lon": -77.032114, "bike_id": "63581c697395a1c23c86e5761d8dd1a1", "lat": 38.9162975, "fusion_lon": 0.0, "fusion_lat": 0.0, "type": "electric_scooter", "name": "63581c697395a1c23c86e5761d8dd1a1", "is_disabled": 0, "rental_uris": {"ios": "https://dc.lft.to/lastmile_qr_scan", "android": "https://dc.lft.to/lastmile_qr_scan"}, "is_reserved": 0}, {"lon": -77.05162066666666, "bike_id": "f55281328ea60f476c186536f99f1edd", "lat": 39.043039, "fusion_lon": 0.0, "fusion_lat": 0.0, "type": "electric_bike", "name": "f55281328ea60f476c186536f99f1edd", "is_disabled": 0, "rental_uris": {"ios": "https://dc.lft.to/lastmile_qr_scan", "android": "https://dc.lft.to/lastmile_qr_scan"}, "is_reserved": 0}, {"lon": -77.111562, "bike_id": "ed983a2657b9201d1d6477c3f7af5aeb", "lat": 38.855138333333336, "fusion_lon": 0.0, "fusion_lat": 0.0, "type": "electric_bike", "name": "ed983a2657b9201d1d6477c3f7af5aeb", "is_disabled": 0, "rental_uris": {"ios": "https://dc.lft.to/lastmile_qr_scan", "android": "https://dc.lft.to/lastmile_qr_scan"}, "is_reserved": 0}, {"lon": -76.94892283333333, "bike_id": "2e42b5cea4edf07d37c4ca80fd83f882", "lat": 38.895151, "fusion_lon": 0.0, "fusion_lat": 0.0, "type": "electric_scooter", "name": "2e42b5cea4edf07d37c4ca80fd83f882", "is_disabled": 0, "rental_uris": {"ios": "https://dc.lft.to/lastmile_qr_scan", "android": "https://dc.lft.to/lastmile_qr_scan"}, "is_reserved": 0}, {"lon": -77.06164266666667, "bike_id": "65427b2221a07e9eba45688ed6d98471", "lat": 38.91300483333333, "fusion_lon": 0.0, "fusion_lat": 0.0, "type": "electric_scooter", "name": "65427b2221a07e9eba45688ed6d98471", "is_disabled": 0, "rental_uris": {"ios": "https://dc.lft.to/lastmile_qr_scan", "android": "https://dc.lft.to/lastmile_qr_scan"}, "is_reserved": 0}, {"lon": -77.03137366666667, "bike_id": "c04a7aaa60b6685dd40592c672957f5e", "lat": 38.915519, "fusion_lon": 0.0, "fusion_lat": 0.0, "type": "electric_scooter", "name": "c04a7aaa60b6685dd40592c672957f5e", "is_disabled": 0, "rental_uris": {"ios": "https://dc.lft.to/lastmile_qr_scan", "android": "https://dc.lft.to/lastmile_qr_scan"}, "is_reserved": 0}, {"lon": -77.03208083333334, "bike_id": "7f06cd1f8168ef9019c8ebec1cb78455", "lat": 38.90993183333333, "fusion_lon": 0.0, "fusion_lat": 0.0, "type": "electric_scooter", "name": "7f06cd1f8168ef9019c8ebec1cb78455", "is_disabled": 0, "rental_uris": {"ios": "https://dc.lft.to/lastmile_qr_scan", "android": "https://dc.lft.to/lastmile_qr_scan"}, "is_reserved": 0}, {"lon": -77.043636, "bike_id": "08d7cb150cce1a588d7e18544e42b407", "lat": 39.015397, "fusion_lon": 0.0, "fusion_lat": 0.0, "type": "electric_bike", "name": "08d7cb150cce1a588d7e18544e42b407", "is_disabled": 0, "rental_uris": {"ios": "https://dc.lft.to/lastmile_qr_scan", "android": "https://dc.lft.to/lastmile_qr_scan"}, "is_reserved": 0}, {"lon": -77.00108783333333, "bike_id": "3b02c91a82fcd5daddd9098e1c6058da", "lat": 38.91251233333333, "fusion_lon": 0.0, "fusion_lat": 0.0, "type": "electric_scooter", "name": "3b02c91a82fcd5daddd9098e1c6058da", "is_disabled": 0, "rental_uris": {"ios": "https://dc.lft.to/lastmile_qr_scan", "android": "https://dc.lft.to/lastmile_qr_scan"}, "is_reserved": 0}, {"lon": -77.042359, "bike_id": "0897911cdd94aa40472804504518fc8b", "lat": 38.921802166666666, "fusion_lon": 0.0, "fusion_lat": 0.0, "type": "electric_scooter", "name": "0897911cdd94aa40472804504518fc8b", "is_disabled": 0, "rental_uris": {"ios": "https://dc.lft.to/lastmile_qr_scan", "android": "https://dc.lft.to/lastmile_qr_scan"}, "is_reserved": 0}, {"lon": -77.05885033333334, "bike_id": "8c2123dde33f7e2cfe0f82279f538592", "lat": 38.9360495, "fusion_lon": 0.0, "fusion_lat": 0.0, "type": "electric_scooter", "name": "8c2123dde33f7e2cfe0f82279f538592", "is_disabled": 0, "rental_uris": {"ios": "https://dc.lft.to/lastmile_qr_scan", "android": "https://dc.lft.to/lastmile_qr_scan"}, "is_reserved": 0}, {"lon": -77.03845866666667, "bike_id": "4d93696f51ae5e91acb138df4de20c9b", "lat": 38.912100333333335, "fusion_lon": 0.0, "fusion_lat": 0.0, "type": "electric_scooter", "name": "4d93696f51ae5e91acb138df4de20c9b", "is_disabled": 0, "rental_uris": {"ios": "https://dc.lft.to/lastmile_qr_scan", "android": "https://dc.lft.to/lastmile_qr_scan"}, "is_reserved": 0}, {"lon": -77.02603616666667, "bike_id": "00e2300040c899732d8b6197f3541b30", "lat": 38.91839866666667, "fusion_lon": 0.0, "fusion_lat": 0.0, "type": "electric_scooter", "name": "00e2300040c899732d8b6197f3541b30", "is_disabled": 0, "rental_uris": {"ios": "https://dc.lft.to/lastmile_qr_scan", "android": "https://dc.lft.to/lastmile_qr_scan"}, "is_reserved": 0}, {"lon": -77.03465, "bike_id": "5660f992ff9e4b01dbb6cfbcc3de5008", "lat": 38.91741283333333, "fusion_lon": 0.0, "fusion_lat": 0.0, "type": "electric_scooter", "name": "5660f992ff9e4b01dbb6cfbcc3de5008", "is_disabled": 0, "rental_uris": {"ios": "https://dc.lft.to/lastmile_qr_scan", "android": "https://dc.lft.to/lastmile_qr_scan"}, "is_reserved": 0}, {"lon": -77.04876783333333, "bike_id": "2c5157615cbd6953fc735ae3687fe60f", "lat": 38.892314, "fusion_lon": 0.0, "fusion_lat": 0.0, "type": "electric_scooter", "name": "2c5157615cbd6953fc735ae3687fe60f", "is_disabled": 0, "rental_uris": {"ios": "https://dc.lft.to/lastmile_qr_scan", "android": "https://dc.lft.to/lastmile_qr_scan"}, "is_reserved": 0}, {"lon": -77.01344466666667, "bike_id": "76811cb9072bf069694d544363afe6f4", "lat": 38.87814233333334, "fusion_lon": 0.0, "fusion_lat": 0.0, "type": "electric_scooter", "name": "76811cb9072bf069694d544363afe6f4", "is_disabled": 0, "rental_uris": {"ios": "https://dc.lft.to/lastmile_qr_scan", "android": "https://dc.lft.to/lastmile_qr_scan"}, "is_reserved": 0}, {"lon": -77.03497166666666, "bike_id": "532d21804f80cf05ea2661b2ba030205", "lat": 38.9327745, "fusion_lon": 0.0, "fusion_lat": 0.0, "type": "electric_scooter", "name": "532d21804f80cf05ea2661b2ba030205", "is_disabled": 0, "rental_uris": {"ios": "https://dc.lft.to/lastmile_qr_scan", "android": "https://dc.lft.to/lastmile_qr_scan"}, "is_reserved": 0}, {"lon": -77.029711, "bike_id": "5f596a0448afc97de402da8df4aee0c4", "lat": 38.9145635, "fusion_lon": 0.0, "fusion_lat": 0.0, "type": "electric_scooter", "name": "5f596a0448afc97de402da8df4aee0c4", "is_disabled": 0, "rental_uris": {"ios": "https://dc.lft.to/lastmile_qr_scan", "android": "https://dc.lft.to/lastmile_qr_scan"}, "is_reserved": 0}, {"lon": -77.02285833333333, "bike_id": "4ea9d8790f10bd7c4d30e3fe43623712", "lat": 38.9078195, "fusion_lon": 0.0, "fusion_lat": 0.0, "type": "electric_scooter", "name": "4ea9d8790f10bd7c4d30e3fe43623712", "is_disabled": 0, "rental_uris": {"ios": "https://dc.lft.to/lastmile_qr_scan", "android": "https://dc.lft.to/lastmile_qr_scan"}, "is_reserved": 0}, {"lon": -77.03757566666667, "bike_id": "ddd5508a2a744f4cdb1e1c3c25dda8e5", "lat": 38.90790666666667, "fusion_lon": 0.0, "fusion_lat": 0.0, "type": "electric_scooter", "name": "ddd5508a2a744f4cdb1e1c3c25dda8e5", "is_disabled": 0, "rental_uris": {"ios": "https://dc.lft.to/lastmile_qr_scan", "android": "https://dc.lft.to/lastmile_qr_scan"}, "is_reserved": 0}, {"lon": -77.02777566666667, "bike_id": "c3c21873bce57fef5624670ba6d354ca", "lat": 38.89201666666666, "fusion_lon": 0.0, "fusion_lat": 0.0, "type": "electric_scooter", "name": "c3c21873bce57fef5624670ba6d354ca", "is_disabled": 0, "rental_uris": {"ios": "https://dc.lft.to/lastmile_qr_scan", "android": "https://dc.lft.to/lastmile_qr_scan"}, "is_reserved": 0}, {"lon": -77.02875083333333, "bike_id": "a442ea8e47c092889bf98c408d68f252", "lat": 38.916904333333335, "fusion_lon": 0.0, "fusion_lat": 0.0, "type": "electric_scooter", "name": "a442ea8e47c092889bf98c408d68f252", "is_disabled": 0, "rental_uris": {"ios": "https://dc.lft.to/lastmile_qr_scan", "android": "https://dc.lft.to/lastmile_qr_scan"}, "is_reserved": 0}, {"lon": -76.98197266666666, "bike_id": "328c1b0b1c7ba25ff0098548d7275d9c", "lat": 38.9673965, "fusion_lon": 0.0, "fusion_lat": 0.0, "type": "electric_bike", "name": "328c1b0b1c7ba25ff0098548d7275d9c", "is_disabled": 0, "rental_uris": {"ios": "https://dc.lft.to/lastmile_qr_scan", "android": "https://dc.lft.to/lastmile_qr_scan"}, "is_reserved": 0}, {"lon": -77.02170683333334, "bike_id": "484649ca032ffdec04c393b8755519fe", "lat": 38.898797, "fusion_lon": 0.0, "fusion_lat": 0.0, "type": "electric_scooter", "name": "484649ca032ffdec04c393b8755519fe", "is_disabled": 0, "rental_uris": {"ios": "https://dc.lft.to/lastmile_qr_scan", "android": "https://dc.lft.to/lastmile_qr_scan"}, "is_reserved": 0}, {"lon": -76.99831183333333, "bike_id": "bb68c8f0e0d1d81998d38cbe603e5289", "lat": 38.8945285, "fusion_lon": 0.0, "fusion_lat": 0.0, "type": "electric_scooter", "name": "bb68c8f0e0d1d81998d38cbe603e5289", "is_disabled": 0, "rental_uris": {"ios": "https://dc.lft.to/lastmile_qr_scan", "android": "https://dc.lft.to/lastmile_qr_scan"}, "is_reserved": 0}, {"lon": -77.02845516666666, "bike_id": "b02e5628f40f4160ca94f33cbc501b6f", "lat": 38.93417983333333, "fusion_lon": 0.0, "fusion_lat": 0.0, "type": "electric_scooter", "name": "b02e5628f40f4160ca94f33cbc501b6f", "is_disabled": 0, "rental_uris": {"ios": "https://dc.lft.to/lastmile_qr_scan", "android": "https://dc.lft.to/lastmile_qr_scan"}, "is_reserved": 0}, {"lon": -77.06645283333333, "bike_id": "7667906f91cc8290256899a43106c4d7", "lat": 38.90590266666667, "fusion_lon": 0.0, "fusion_lat": 0.0, "type": "electric_scooter", "name": "7667906f91cc8290256899a43106c4d7", "is_disabled": 0, "rental_uris": {"ios": "https://dc.lft.to/lastmile_qr_scan", "android": "https://dc.lft.to/lastmile_qr_scan"}, "is_reserved": 0}, {"lon": -77.0020025, "bike_id": "5403e1e7c53d7aa99a3e1360262a2fbe", "lat": 38.90237533333333, "fusion_lon": 0.0, "fusion_lat": 0.0, "type": "electric_scooter", "name": "5403e1e7c53d7aa99a3e1360262a2fbe", "is_disabled": 0, "rental_uris": {"ios": "https://dc.lft.to/lastmile_qr_scan", "android": "https://dc.lft.to/lastmile_qr_scan"}, "is_reserved": 0}, {"lon": -77.02091916666667, "bike_id": "196919b8c388cf5be5cde6e817d70625", "lat": 38.88181733333333, "fusion_lon": 0.0, "fusion_lat": 0.0, "type": "electric_scooter", "name": "196919b8c388cf5be5cde6e817d70625", "is_disabled": 0, "rental_uris": {"ios": "https://dc.lft.to/lastmile_qr_scan", "android": "https://dc.lft.to/lastmile_qr_scan"}, "is_reserved": 0}, {"lon": -77.04034816666666, "bike_id": "e422bb9e7d876e883681a6947fc4218c", "lat": 38.925642833333335, "fusion_lon": 0.0, "fusion_lat": 0.0, "type": "electric_scooter", "name": "e422bb9e7d876e883681a6947fc4218c", "is_disabled": 0, "rental_uris": {"ios": "https://dc.lft.to/lastmile_qr_scan", "android": "https://dc.lft.to/lastmile_qr_scan"}, "is_reserved": 0}, {"lon": -77.03382233333333, "bike_id": "13cd1ea42699412d5cd02c97540fd74a", "lat": 38.921427333333334, "fusion_lon": 0.0, "fusion_lat": 0.0, "type": "electric_scooter", "name": "13cd1ea42699412d5cd02c97540fd74a", "is_disabled": 0, "rental_uris": {"ios": "https://dc.lft.to/lastmile_qr_scan", "android": "https://dc.lft.to/lastmile_qr_scan"}, "is_reserved": 0}, {"lon": -77.03651, "bike_id": "3865664bd8daeb1428ba10fb28defe00", "lat": 38.90454, "fusion_lon": 0.0, "fusion_lat": 0.0, "type": "electric_scooter", "name": "3865664bd8daeb1428ba10fb28defe00", "is_disabled": 0, "rental_uris": {"ios": "https://dc.lft.to/lastmile_qr_scan", "android": "https://dc.lft.to/lastmile_qr_scan"}, "is_reserved": 0}, {"lon": -77.02720766666667, "bike_id": "f44060e63300c7ec8d211328d44a467b", "lat": 38.91138733333333, "fusion_lon": 0.0, "fusion_lat": 0.0, "type": "electric_scooter", "name": "f44060e63300c7ec8d211328d44a467b", "is_disabled": 0, "rental_uris": {"ios": "https://dc.lft.to/lastmile_qr_scan", "android": "https://dc.lft.to/lastmile_qr_scan"}, "is_reserved": 0}, {"lon": -77.021637, "bike_id": "ce36ef2ad1f1038c7a504922e80a2499", "lat": 38.926166333333335, "fusion_lon": 0.0, "fusion_lat": 0.0, "type": "electric_scooter", "name": "ce36ef2ad1f1038c7a504922e80a2499", "is_disabled": 0, "rental_uris": {"ios": "https://dc.lft.to/lastmile_qr_scan", "android": "https://dc.lft.to/lastmile_qr_scan"}, "is_reserved": 0}, {"lon": -77.03205, "bike_id": "bb5b1516f3103986ce5578b795876238", "lat": 38.9128235, "fusion_lon": 0.0, "fusion_lat": 0.0, "type": "electric_scooter", "name": "bb5b1516f3103986ce5578b795876238", "is_disabled": 0, "rental_uris": {"ios": "https://dc.lft.to/lastmile_qr_scan", "android": "https://dc.lft.to/lastmile_qr_scan"}, "is_reserved": 0}, {"lon": -77.03408966666667, "bike_id": "e1d07c103a94b7e10876f65be6f9c488", "lat": 38.93422833333333, "fusion_lon": 0.0, "fusion_lat": 0.0, "type": "electric_scooter", "name": "e1d07c103a94b7e10876f65be6f9c488", "is_disabled": 0, "rental_uris": {"ios": "https://dc.lft.to/lastmile_qr_scan", "android": "https://dc.lft.to/lastmile_qr_scan"}, "is_reserved": 0}, {"lon": -77.0447215, "bike_id": "60e7c4fee05aed6d5e484cb4331f48a8", "lat": 38.900431166666664, "fusion_lon": 0.0, "fusion_lat": 0.0, "type": "electric_scooter", "name": "60e7c4fee05aed6d5e484cb4331f48a8", "is_disabled": 0, "rental_uris": {"ios": "https://dc.lft.to/lastmile_qr_scan", "android": "https://dc.lft.to/lastmile_qr_scan"}, "is_reserved": 0}, {"lon": -77.04155983333334, "bike_id": "e8df18e1bb1c41d88ccd8d4b4f2a8b1f", "lat": 38.918110166666665, "fusion_lon": 0.0, "fusion_lat": 0.0, "type": "electric_scooter", "name": "e8df18e1bb1c41d88ccd8d4b4f2a8b1f", "is_disabled": 0, "rental_uris": {"ios": "https://dc.lft.to/lastmile_qr_scan", "android": "https://dc.lft.to/lastmile_qr_scan"}, "is_reserved": 0}, {"lon": -77.01853683333333, "bike_id": "28f0d025c3d95c5c9bab5d224bc8191b", "lat": 38.94888233333333, "fusion_lon": 0.0, "fusion_lat": 0.0, "type": "electric_scooter", "name": "28f0d025c3d95c5c9bab5d224bc8191b", "is_disabled": 0, "rental_uris": {"ios": "https://dc.lft.to/lastmile_qr_scan", "android": "https://dc.lft.to/lastmile_qr_scan"}, "is_reserved": 0}, {"lon": -77.0347895, "bike_id": "42d401523718da528dcfbbb8a89f0b2b", "lat": 38.90727483333333, "fusion_lon": 0.0, "fusion_lat": 0.0, "type": "electric_scooter", "name": "42d401523718da528dcfbbb8a89f0b2b", "is_disabled": 0, "rental_uris": {"ios": "https://dc.lft.to/lastmile_qr_scan", "android": "https://dc.lft.to/lastmile_qr_scan"}, "is_reserved": 0}, {"lon": -77.04258433333334, "bike_id": "cddcb45f0b68934c27a5bf054c3d721e", "lat": 38.908450333333334, "fusion_lon": 0.0, "fusion_lat": 0.0, "type": "electric_scooter", "name": "cddcb45f0b68934c27a5bf054c3d721e", "is_disabled": 0, "rental_uris": {"ios": "https://dc.lft.to/lastmile_qr_scan", "android": "https://dc.lft.to/lastmile_qr_scan"}, "is_reserved": 0}, {"lon": -77.04635866666666, "bike_id": "b459716c53953687eea881a850aa92a8", "lat": 38.92117966666667, "fusion_lon": 0.0, "fusion_lat": 0.0, "type": "electric_scooter", "name": "b459716c53953687eea881a850aa92a8", "is_disabled": 0, "rental_uris": {"ios": "https://dc.lft.to/lastmile_qr_scan", "android": "https://dc.lft.to/lastmile_qr_scan"}, "is_reserved": 0}, {"lon": -77.0468075, "bike_id": "35c1b4d6b63d169155644944412d242a", "lat": 38.894548666666665, "fusion_lon": 0.0, "fusion_lat": 0.0, "type": "electric_scooter", "name": "35c1b4d6b63d169155644944412d242a", "is_disabled": 0, "rental_uris": {"ios": "https://dc.lft.to/lastmile_qr_scan", "android": "https://dc.lft.to/lastmile_qr_scan"}, "is_reserved": 0}, {"lon": -77.06103733333333, "bike_id": "c278dca1c94e8a6deee01f77efb56b42", "lat": 38.937057833333334, "fusion_lon": 0.0, "fusion_lat": 0.0, "type": "electric_scooter", "name": "c278dca1c94e8a6deee01f77efb56b42", "is_disabled": 0, "rental_uris": {"ios": "https://dc.lft.to/lastmile_qr_scan", "android": "https://dc.lft.to/lastmile_qr_scan"}, "is_reserved": 0}, {"lon": -77.01304383333333, "bike_id": "999aefc6ba2b7e2bff18c1e3f45616e5", "lat": 38.930313166666664, "fusion_lon": 0.0, "fusion_lat": 0.0, "type": "electric_scooter", "name": "999aefc6ba2b7e2bff18c1e3f45616e5", "is_disabled": 0, "rental_uris": {"ios": "https://dc.lft.to/lastmile_qr_scan", "android": "https://dc.lft.to/lastmile_qr_scan"}, "is_reserved": 0}, {"lon": -76.948856, "bike_id": "97db567219b088d19b6c7203abc05cc6", "lat": 38.8951365, "fusion_lon": 0.0, "fusion_lat": 0.0, "type": "electric_scooter", "name": "97db567219b088d19b6c7203abc05cc6", "is_disabled": 0, "rental_uris": {"ios": "https://dc.lft.to/lastmile_qr_scan", "android": "https://dc.lft.to/lastmile_qr_scan"}, "is_reserved": 0}, {"lon": -77.07775833333334, "bike_id": "0369979954894d15d6ff2c891d1fa44f", "lat": 38.930419, "fusion_lon": 0.0, "fusion_lat": 0.0, "type": "electric_scooter", "name": "0369979954894d15d6ff2c891d1fa44f", "is_disabled": 0, "rental_uris": {"ios": "https://dc.lft.to/lastmile_qr_scan", "android": "https://dc.lft.to/lastmile_qr_scan"}, "is_reserved": 0}, {"lon": -77.02231566666667, "bike_id": "38f42ce84dbea75933efebb57890ec3d", "lat": 38.92094183333333, "fusion_lon": 0.0, "fusion_lat": 0.0, "type": "electric_scooter", "name": "38f42ce84dbea75933efebb57890ec3d", "is_disabled": 0, "rental_uris": {"ios": "https://dc.lft.to/lastmile_qr_scan", "android": "https://dc.lft.to/lastmile_qr_scan"}, "is_reserved": 0}, {"lon": -77.06614, "bike_id": "c2650c1bd8b9e6fd4d380f44d2e6bc67", "lat": 38.91215566666666, "fusion_lon": 0.0, "fusion_lat": 0.0, "type": "electric_scooter", "name": "c2650c1bd8b9e6fd4d380f44d2e6bc67", "is_disabled": 0, "rental_uris": {"ios": "https://dc.lft.to/lastmile_qr_scan", "android": "https://dc.lft.to/lastmile_qr_scan"}, "is_reserved": 0}, {"lon": -77.02894216666667, "bike_id": "401a6bda9e86369b960c425fed4cdfe1", "lat": 38.91685533333333, "fusion_lon": 0.0, "fusion_lat": 0.0, "type": "electric_scooter", "name": "401a6bda9e86369b960c425fed4cdfe1", "is_disabled": 0, "rental_uris": {"ios": "https://dc.lft.to/lastmile_qr_scan", "android": "https://dc.lft.to/lastmile_qr_scan"}, "is_reserved": 0}, {"lon": -77.03064883333333, "bike_id": "2d08143dd2d775e937e023b36ccf15f1", "lat": 38.922610166666665, "fusion_lon": 0.0, "fusion_lat": 0.0, "type": "electric_scooter", "name": "2d08143dd2d775e937e023b36ccf15f1", "is_disabled": 0, "rental_uris": {"ios": "https://dc.lft.to/lastmile_qr_scan", "android": "https://dc.lft.to/lastmile_qr_scan"}, "is_reserved": 0}, {"lon": -76.976732, "bike_id": "b3ca7730701790bb8b15d1bb4e087ab9", "lat": 38.9524325, "fusion_lon": 0.0, "fusion_lat": 0.0, "type": "electric_bike", "name": "b3ca7730701790bb8b15d1bb4e087ab9", "is_disabled": 0, "rental_uris": {"ios": "https://dc.lft.to/lastmile_qr_scan", "android": "https://dc.lft.to/lastmile_qr_scan"}, "is_reserved": 0}, {"lon": -77.029525, "bike_id": "48e6941ba3124d788b8522b8c77bce14", "lat": 38.916716, "fusion_lon": 0.0, "fusion_lat": 0.0, "type": "electric_scooter", "name": "48e6941ba3124d788b8522b8c77bce14", "is_disabled": 0, "rental_uris": {"ios": "https://dc.lft.to/lastmile_qr_scan", "android": "https://dc.lft.to/lastmile_qr_scan"}, "is_reserved": 0}, {"lon": -77.02830333333333, "bike_id": "d56b793576abfff29ee01d4d2d67411c", "lat": 38.932739833333336, "fusion_lon": 0.0, "fusion_lat": 0.0, "type": "electric_scooter", "name": "d56b793576abfff29ee01d4d2d67411c", "is_disabled": 0, "rental_uris": {"ios": "https://dc.lft.to/lastmile_qr_scan", "android": "https://dc.lft.to/lastmile_qr_scan"}, "is_reserved": 0}, {"lon": -77.02926583333333, "bike_id": "90b6e7fb071566dd22b0dc03381c4a44", "lat": 38.934577, "fusion_lon": 0.0, "fusion_lat": 0.0, "type": "electric_scooter", "name": "90b6e7fb071566dd22b0dc03381c4a44", "is_disabled": 0, "rental_uris": {"ios": "https://dc.lft.to/lastmile_qr_scan", "android": "https://dc.lft.to/lastmile_qr_scan"}, "is_reserved": 0}, {"lon": -77.03115483333333, "bike_id": "3fbfc5254a8d954f8e1e2d2e9bc4f067", "lat": 38.91564366666667, "fusion_lon": 0.0, "fusion_lat": 0.0, "type": "electric_scooter", "name": "3fbfc5254a8d954f8e1e2d2e9bc4f067", "is_disabled": 0, "rental_uris": {"ios": "https://dc.lft.to/lastmile_qr_scan", "android": "https://dc.lft.to/lastmile_qr_scan"}, "is_reserved": 0}, {"lon": -77.027105, "bike_id": "29a7abc3acbee4902c6861a4a457c243", "lat": 38.906625, "fusion_lon": 0.0, "fusion_lat": 0.0, "type": "electric_scooter", "name": "29a7abc3acbee4902c6861a4a457c243", "is_disabled": 0, "rental_uris": {"ios": "https://dc.lft.to/lastmile_qr_scan", "android": "https://dc.lft.to/lastmile_qr_scan"}, "is_reserved": 0}, {"lon": -76.98787816666666, "bike_id": "4e13510b57b0d855ad74941a20cd15ee", "lat": 38.867408833333336, "fusion_lon": 0.0, "fusion_lat": 0.0, "type": "electric_scooter", "name": "4e13510b57b0d855ad74941a20cd15ee", "is_disabled": 0, "rental_uris": {"ios": "https://dc.lft.to/lastmile_qr_scan", "android": "https://dc.lft.to/lastmile_qr_scan"}, "is_reserved": 0}, {"lon": -77.03831816666667, "bike_id": "1fd14e903a59a12f5ce398433a5adbe7", "lat": 38.90672766666667, "fusion_lon": 0.0, "fusion_lat": 0.0, "type": "electric_scooter", "name": "1fd14e903a59a12f5ce398433a5adbe7", "is_disabled": 0, "rental_uris": {"ios": "https://dc.lft.to/lastmile_qr_scan", "android": "https://dc.lft.to/lastmile_qr_scan"}, "is_reserved": 0}, {"lon": -77.03940266666666, "bike_id": "17c82216494cbebf3e0b12b6acb0f2a9", "lat": 38.89892566666666, "fusion_lon": 0.0, "fusion_lat": 0.0, "type": "electric_scooter", "name": "17c82216494cbebf3e0b12b6acb0f2a9", "is_disabled": 0, "rental_uris": {"ios": "https://dc.lft.to/lastmile_qr_scan", "android": "https://dc.lft.to/lastmile_qr_scan"}, "is_reserved": 0}, {"lon": -77.04672066666667, "bike_id": "f604508ba0f69da794737d5fe0c7ab75", "lat": 38.89958333333333, "fusion_lon": 0.0, "fusion_lat": 0.0, "type": "electric_scooter", "name": "f604508ba0f69da794737d5fe0c7ab75", "is_disabled": 0, "rental_uris": {"ios": "https://dc.lft.to/lastmile_qr_scan", "android": "https://dc.lft.to/lastmile_qr_scan"}, "is_reserved": 0}, {"lon": -77.0098465, "bike_id": "a299d1e035a454c79039233a2fc1195b", "lat": 38.87289716666667, "fusion_lon": 0.0, "fusion_lat": 0.0, "type": "electric_scooter", "name": "a299d1e035a454c79039233a2fc1195b", "is_disabled": 0, "rental_uris": {"ios": "https://dc.lft.to/lastmile_qr_scan", "android": "https://dc.lft.to/lastmile_qr_scan"}, "is_reserved": 0}, {"lon": -76.937626, "bike_id": "320542799e4d384c724b06680a555c52", "lat": 38.89034083333333, "fusion_lon": 0.0, "fusion_lat": 0.0, "type": "electric_scooter", "name": "320542799e4d384c724b06680a555c52", "is_disabled": 0, "rental_uris": {"ios": "https://dc.lft.to/lastmile_qr_scan", "android": "https://dc.lft.to/lastmile_qr_scan"}, "is_reserved": 0}, {"lon": -77.02708816666667, "bike_id": "36b323a61946851f68c80126d1cf1c91", "lat": 38.9498445, "fusion_lon": 0.0, "fusion_lat": 0.0, "type": "electric_scooter", "name": "36b323a61946851f68c80126d1cf1c91", "is_disabled": 0, "rental_uris": {"ios": "https://dc.lft.to/lastmile_qr_scan", "android": "https://dc.lft.to/lastmile_qr_scan"}, "is_reserved": 0}, {"lon": -77.139291, "bike_id": "b2e5a56b24e05c2264da4d528ccf643b", "lat": 38.8729925, "fusion_lon": 0.0, "fusion_lat": 0.0, "type": "electric_bike", "name": "b2e5a56b24e05c2264da4d528ccf643b", "is_disabled": 0, "rental_uris": {"ios": "https://dc.lft.to/lastmile_qr_scan", "android": "https://dc.lft.to/lastmile_qr_scan"}, "is_reserved": 0}, {"lon": -77.05572766666667, "bike_id": "0496966e76394260912fa924fbadadd0", "lat": 38.930549666666664, "fusion_lon": 0.0, "fusion_lat": 0.0, "type": "electric_scooter", "name": "0496966e76394260912fa924fbadadd0", "is_disabled": 0, "rental_uris": {"ios": "https://dc.lft.to/lastmile_qr_scan", "android": "https://dc.lft.to/lastmile_qr_scan"}, "is_reserved": 0}, {"lon": -76.98836483333334, "bike_id": "15dc5cbd026826a53d27e6b1a095d4a9", "lat": 38.896658333333335, "fusion_lon": 0.0, "fusion_lat": 0.0, "type": "electric_scooter", "name": "15dc5cbd026826a53d27e6b1a095d4a9", "is_disabled": 0, "rental_uris": {"ios": "https://dc.lft.to/lastmile_qr_scan", "android": "https://dc.lft.to/lastmile_qr_scan"}, "is_reserved": 0}, {"lon": -77.02214666666667, "bike_id": "717736af3a3f74b238dfb6f914dd64a8", "lat": 38.893540333333334, "fusion_lon": 0.0, "fusion_lat": 0.0, "type": "electric_scooter", "name": "717736af3a3f74b238dfb6f914dd64a8", "is_disabled": 0, "rental_uris": {"ios": "https://dc.lft.to/lastmile_qr_scan", "android": "https://dc.lft.to/lastmile_qr_scan"}, "is_reserved": 0}, {"lon": -77.04200183333333, "bike_id": "194ecb8f1a55eb38e28c33f34eb449d7", "lat": 38.90579616666667, "fusion_lon": 0.0, "fusion_lat": 0.0, "type": "electric_scooter", "name": "194ecb8f1a55eb38e28c33f34eb449d7", "is_disabled": 0, "rental_uris": {"ios": "https://dc.lft.to/lastmile_qr_scan", "android": "https://dc.lft.to/lastmile_qr_scan"}, "is_reserved": 0}, {"lon": -77.0321015, "bike_id": "185749a269be775679d9bf4cad8d69fe", "lat": 38.91500633333333, "fusion_lon": 0.0, "fusion_lat": 0.0, "type": "electric_scooter", "name": "185749a269be775679d9bf4cad8d69fe", "is_disabled": 0, "rental_uris": {"ios": "https://dc.lft.to/lastmile_qr_scan", "android": "https://dc.lft.to/lastmile_qr_scan"}, "is_reserved": 0}, {"lon": -76.9926365, "bike_id": "cbf2375039d984e8a4ea97e5fef1e9ec", "lat": 38.86033066666667, "fusion_lon": 0.0, "fusion_lat": 0.0, "type": "electric_scooter", "name": "cbf2375039d984e8a4ea97e5fef1e9ec", "is_disabled": 0, "rental_uris": {"ios": "https://dc.lft.to/lastmile_qr_scan", "android": "https://dc.lft.to/lastmile_qr_scan"}, "is_reserved": 0}, {"lon": -77.124654, "bike_id": "537e3c381ba7461188492f96461d53f1", "lat": 38.85374516666667, "fusion_lon": 0.0, "fusion_lat": 0.0, "type": "electric_bike", "name": "537e3c381ba7461188492f96461d53f1", "is_disabled": 0, "rental_uris": {"ios": "https://dc.lft.to/lastmile_qr_scan", "android": "https://dc.lft.to/lastmile_qr_scan"}, "is_reserved": 0}, {"lon": -77.03819016666667, "bike_id": "f9fb2ad9ca52617ad4cf9b23709f4d49", "lat": 38.9310105, "fusion_lon": 0.0, "fusion_lat": 0.0, "type": "electric_scooter", "name": "f9fb2ad9ca52617ad4cf9b23709f4d49", "is_disabled": 0, "rental_uris": {"ios": "https://dc.lft.to/lastmile_qr_scan", "android": "https://dc.lft.to/lastmile_qr_scan"}, "is_reserved": 0}, {"lon": -77.05008066666667, "bike_id": "4e31e5bf3e9712ae2714253aac91c8c0", "lat": 38.905158, "fusion_lon": 0.0, "fusion_lat": 0.0, "type": "electric_scooter", "name": "4e31e5bf3e9712ae2714253aac91c8c0", "is_disabled": 0, "rental_uris": {"ios": "https://dc.lft.to/lastmile_qr_scan", "android": "https://dc.lft.to/lastmile_qr_scan"}, "is_reserved": 0}, {"lon": -76.97708333333334, "bike_id": "34eb42d84752312e3749fd74f0120ec0", "lat": 38.885236, "fusion_lon": 0.0, "fusion_lat": 0.0, "type": "electric_scooter", "name": "34eb42d84752312e3749fd74f0120ec0", "is_disabled": 0, "rental_uris": {"ios": "https://dc.lft.to/lastmile_qr_scan", "android": "https://dc.lft.to/lastmile_qr_scan"}, "is_reserved": 0}, {"lon": -77.04183116666667, "bike_id": "c912c9d6b120b56195d4f7b194bfb073", "lat": 38.915530333333336, "fusion_lon": 0.0, "fusion_lat": 0.0, "type": "electric_scooter", "name": "c912c9d6b120b56195d4f7b194bfb073", "is_disabled": 0, "rental_uris": {"ios": "https://dc.lft.to/lastmile_qr_scan", "android": "https://dc.lft.to/lastmile_qr_scan"}, "is_reserved": 0}, {"lon": -77.03668683333333, "bike_id": "3ab6e98ce80aed5846f5d6ba7ea1be3f", "lat": 38.922616166666664, "fusion_lon": 0.0, "fusion_lat": 0.0, "type": "electric_scooter", "name": "3ab6e98ce80aed5846f5d6ba7ea1be3f", "is_disabled": 0, "rental_uris": {"ios": "https://dc.lft.to/lastmile_qr_scan", "android": "https://dc.lft.to/lastmile_qr_scan"}, "is_reserved": 0}, {"lon": -76.972083, "bike_id": "dd488ea90b333eee12e5f733e01ef390", "lat": 38.892896666666665, "fusion_lon": 0.0, "fusion_lat": 0.0, "type": "electric_bike", "name": "dd488ea90b333eee12e5f733e01ef390", "is_disabled": 0, "rental_uris": {"ios": "https://dc.lft.to/lastmile_qr_scan", "android": "https://dc.lft.to/lastmile_qr_scan"}, "is_reserved": 0}, {"lon": -77.0449155, "bike_id": "4bcb16a323b540374e24c5d00f00d574", "lat": 38.913238, "fusion_lon": 0.0, "fusion_lat": 0.0, "type": "electric_scooter", "name": "4bcb16a323b540374e24c5d00f00d574", "is_disabled": 0, "rental_uris": {"ios": "https://dc.lft.to/lastmile_qr_scan", "android": "https://dc.lft.to/lastmile_qr_scan"}, "is_reserved": 0}, {"lon": -77.05132716666667, "bike_id": "e37ec0fc53e438063d02798035ef533d", "lat": 38.9055025, "fusion_lon": 0.0, "fusion_lat": 0.0, "type": "electric_scooter", "name": "e37ec0fc53e438063d02798035ef533d", "is_disabled": 0, "rental_uris": {"ios": "https://dc.lft.to/lastmile_qr_scan", "android": "https://dc.lft.to/lastmile_qr_scan"}, "is_reserved": 0}, {"lon": -77.005904, "bike_id": "858e13a294c8bb6066e48b701119c726", "lat": 38.9064515, "fusion_lon": 0.0, "fusion_lat": 0.0, "type": "electric_scooter", "name": "858e13a294c8bb6066e48b701119c726", "is_disabled": 0, "rental_uris": {"ios": "https://dc.lft.to/lastmile_qr_scan", "android": "https://dc.lft.to/lastmile_qr_scan"}, "is_reserved": 0}, {"lon": -77.02216716666666, "bike_id": "fb54dc31b1ffe556b31dadd1bfc35c8f", "lat": 38.887704166666666, "fusion_lon": 0.0, "fusion_lat": 0.0, "type": "electric_scooter", "name": "fb54dc31b1ffe556b31dadd1bfc35c8f", "is_disabled": 0, "rental_uris": {"ios": "https://dc.lft.to/lastmile_qr_scan", "android": "https://dc.lft.to/lastmile_qr_scan"}, "is_reserved": 0}, {"lon": -77.036752, "bike_id": "66d570627aa8f06f603c14637480757a", "lat": 38.90382683333333, "fusion_lon": 0.0, "fusion_lat": 0.0, "type": "electric_scooter", "name": "66d570627aa8f06f603c14637480757a", "is_disabled": 0, "rental_uris": {"ios": "https://dc.lft.to/lastmile_qr_scan", "android": "https://dc.lft.to/lastmile_qr_scan"}, "is_reserved": 0}, {"lon": -77.04448383333333, "bike_id": "2019e65e480cf5edf9533b48aad1259b", "lat": 38.92168916666667, "fusion_lon": 0.0, "fusion_lat": 0.0, "type": "electric_scooter", "name": "2019e65e480cf5edf9533b48aad1259b", "is_disabled": 0, "rental_uris": {"ios": "https://dc.lft.to/lastmile_qr_scan", "android": "https://dc.lft.to/lastmile_qr_scan"}, "is_reserved": 0}, {"lon": -77.00831083333334, "bike_id": "b320ccfb8289dac7e081b0b0f23b099a", "lat": 38.94922316666667, "fusion_lon": 0.0, "fusion_lat": 0.0, "type": "electric_scooter", "name": "b320ccfb8289dac7e081b0b0f23b099a", "is_disabled": 0, "rental_uris": {"ios": "https://dc.lft.to/lastmile_qr_scan", "android": "https://dc.lft.to/lastmile_qr_scan"}, "is_reserved": 0}, {"lon": -77.034436, "bike_id": "eb0afd1194d629e533996d77a9790f30", "lat": 38.908159, "fusion_lon": 0.0, "fusion_lat": 0.0, "type": "electric_scooter", "name": "eb0afd1194d629e533996d77a9790f30", "is_disabled": 0, "rental_uris": {"ios": "https://dc.lft.to/lastmile_qr_scan", "android": "https://dc.lft.to/lastmile_qr_scan"}, "is_reserved": 0}, {"lon": -77.0280635, "bike_id": "d7d49d61296237a7771ca3802f4351ea", "lat": 38.9304925, "fusion_lon": 0.0, "fusion_lat": 0.0, "type": "electric_scooter", "name": "d7d49d61296237a7771ca3802f4351ea", "is_disabled": 0, "rental_uris": {"ios": "https://dc.lft.to/lastmile_qr_scan", "android": "https://dc.lft.to/lastmile_qr_scan"}, "is_reserved": 0}, {"lon": -77.0806885, "bike_id": "94a904c82cc28469804ff563e201d991", "lat": 39.0528115, "fusion_lon": 0.0, "fusion_lat": 0.0, "type": "electric_bike", "name": "94a904c82cc28469804ff563e201d991", "is_disabled": 0, "rental_uris": {"ios": "https://dc.lft.to/lastmile_qr_scan", "android": "https://dc.lft.to/lastmile_qr_scan"}, "is_reserved": 0}, {"lon": -77.02093916666666, "bike_id": "79d553f917a034ac7521c8e464cb722d", "lat": 38.9271155, "fusion_lon": 0.0, "fusion_lat": 0.0, "type": "electric_scooter", "name": "79d553f917a034ac7521c8e464cb722d", "is_disabled": 0, "rental_uris": {"ios": "https://dc.lft.to/lastmile_qr_scan", "android": "https://dc.lft.to/lastmile_qr_scan"}, "is_reserved": 0}, {"lon": -76.98616633333333, "bike_id": "6ed98415d6fac8e8d046e9090680b394", "lat": 38.8830125, "fusion_lon": 0.0, "fusion_lat": 0.0, "type": "electric_scooter", "name": "6ed98415d6fac8e8d046e9090680b394", "is_disabled": 0, "rental_uris": {"ios": "https://dc.lft.to/lastmile_qr_scan", "android": "https://dc.lft.to/lastmile_qr_scan"}, "is_reserved": 0}, {"lon": -77.01769033333333, "bike_id": "60fb8218edaacf9ae6af0851cf551b2e", "lat": 38.88728966666667, "fusion_lon": 0.0, "fusion_lat": 0.0, "type": "electric_scooter", "name": "60fb8218edaacf9ae6af0851cf551b2e", "is_disabled": 0, "rental_uris": {"ios": "https://dc.lft.to/lastmile_qr_scan", "android": "https://dc.lft.to/lastmile_qr_scan"}, "is_reserved": 0}, {"lon": -77.04033033333333, "bike_id": "887b6b29969d35b2a1a5160be19b04b1", "lat": 38.901233500000004, "fusion_lon": 0.0, "fusion_lat": 0.0, "type": "electric_bike", "name": "887b6b29969d35b2a1a5160be19b04b1", "is_disabled": 0, "rental_uris": {"ios": "https://dc.lft.to/lastmile_qr_scan", "android": "https://dc.lft.to/lastmile_qr_scan"}, "is_reserved": 0}, {"lon": -77.00651183333333, "bike_id": "90a7df91d6cc8f9eb2fde4e3375d157f", "lat": 38.92616616666667, "fusion_lon": 0.0, "fusion_lat": 0.0, "type": "electric_scooter", "name": "90a7df91d6cc8f9eb2fde4e3375d157f", "is_disabled": 0, "rental_uris": {"ios": "https://dc.lft.to/lastmile_qr_scan", "android": "https://dc.lft.to/lastmile_qr_scan"}, "is_reserved": 0}, {"lon": -76.99535666666667, "bike_id": "d06e3723ae962f5fc03f6e8fc0c2b81d", "lat": 38.8836885, "fusion_lon": 0.0, "fusion_lat": 0.0, "type": "electric_scooter", "name": "d06e3723ae962f5fc03f6e8fc0c2b81d", "is_disabled": 0, "rental_uris": {"ios": "https://dc.lft.to/lastmile_qr_scan", "android": "https://dc.lft.to/lastmile_qr_scan"}, "is_reserved": 0}, {"lon": -77.02846183333334, "bike_id": "3bba925d7ee91a8fde26e30c2857dc0c", "lat": 38.8874495, "fusion_lon": 0.0, "fusion_lat": 0.0, "type": "electric_scooter", "name": "3bba925d7ee91a8fde26e30c2857dc0c", "is_disabled": 0, "rental_uris": {"ios": "https://dc.lft.to/lastmile_qr_scan", "android": "https://dc.lft.to/lastmile_qr_scan"}, "is_reserved": 0}, {"lon": -77.046219, "bike_id": "8ca2bfa3a4d8d7b1fccd423e77000824", "lat": 38.92064833333333, "fusion_lon": 0.0, "fusion_lat": 0.0, "type": "electric_scooter", "name": "8ca2bfa3a4d8d7b1fccd423e77000824", "is_disabled": 0, "rental_uris": {"ios": "https://dc.lft.to/lastmile_qr_scan", "android": "https://dc.lft.to/lastmile_qr_scan"}, "is_reserved": 0}, {"lon": -77.047744, "bike_id": "73ca5baea9df0d2e6a08560ba5fdd11f", "lat": 38.9175425, "fusion_lon": 0.0, "fusion_lat": 0.0, "type": "electric_scooter", "name": "73ca5baea9df0d2e6a08560ba5fdd11f", "is_disabled": 0, "rental_uris": {"ios": "https://dc.lft.to/lastmile_qr_scan", "android": "https://dc.lft.to/lastmile_qr_scan"}, "is_reserved": 0},