{"data": {"bikes": [{"is_disabled": 0, "fusion_lon": 0.0, "fusion_lat": 0.0, "lat": 38.941512333333336, "type": "electric_bike", "lon": -77.00195233333334, "bike_id": "1167260fc4e399c6725610e6529c70d9", "rental_uris": {"android": "https://dc.lft.to/lastmile_qr_scan", "ios": "https://dc.lft.to/lastmile_qr_scan"}, "name": "1167260fc4e399c6725610e6529c70d9", "is_reserved": 0}, {"is_disabled": 0, "fusion_lon": 0.0, "fusion_lat": 0.0, "lat": 38.92652566666667, "type": "electric_scooter", "lon": -77.02429083333334, "bike_id": "8b1d6126d346079410d3936a867082d6", "rental_uris": {"android": "https://dc.lft.to/lastmile_qr_scan", "ios": "https://dc.lft.to/lastmile_qr_scan"}, "name": "8b1d6126d346079410d3936a867082d6", "is_reserved": 0}, {"is_disabled": 0, "fusion_lon": 0.0, "fusion_lat": 0.0, "lat": 38.922969333333334, "type": "electric_scooter", "lon": -77.04028416666667, "bike_id": "f4e29d201666af553eb25825c4c8f63d", "rental_uris": {"android": "https://dc.lft.to/lastmile_qr_scan", "ios": "https://dc.lft.to/lastmile_qr_scan"}, "name": "f4e29d201666af553eb25825c4c8f63d", "is_reserved": 0}, {"is_disabled": 0, "fusion_lon": 0.0, "fusion_lat": 0.0, "lat": 38.905157333333335, "type": "electric_scooter", "lon": -77.0260425, "bike_id": "5d1394cc236d5388cdcb7324f6a7fc58", "rental_uris": {"android": "https://dc.lft.to/lastmile_qr_scan", "ios": "https://dc.lft.to/lastmile_qr_scan"}, "name": "5d1394cc236d5388cdcb7324f6a7fc58", "is_reserved": 0}, {"is_disabled": 0, "fusion_lon": 0.0, "fusion_lat": 0.0, "lat": 39.0581055, "type": "electric_bike", "lon": -77.126218, "bike_id": "76f7ab2f3e7f04925e9e16de23736642", "rental_uris": {"android": "https://dc.lft.to/lastmile_qr_scan", "ios": "https://dc.lft.to/lastmile_qr_scan"}, "name": "76f7ab2f3e7f04925e9e16de23736642", "is_reserved": 0}, {"is_disabled": 0, "fusion_lon": 0.0, "fusion_lat": 0.0, "lat": 38.918638666666666, "type": "electric_scooter", "lon": -77.03514316666667, "bike_id": "50867717e3a78b4ee84d81e166a43524", "rental_uris": {"android": "https://dc.lft.to/lastmile_qr_scan", "ios": "https://dc.lft.to/lastmile_qr_scan"}, "name": "50867717e3a78b4ee84d81e166a43524", "is_reserved": 0}, {"is_disabled": 0, "fusion_lon": 0.0, "fusion_lat": 0.0, "lat": 38.887595166666664, "type": "electric_scooter", "lon": -77.0338655, "bike_id": "a216033bccb9386df83354cbd70b9cec", "rental_uris": {"android": "https://dc.lft.to/lastmile_qr_scan", "ios": "https://dc.lft.to/lastmile_qr_scan"}, "name": "a216033bccb9386df83354cbd70b9cec", "is_reserved": 0}, {"is_disabled": 0, "fusion_lon": 0.0, "fusion_lat": 0.0, "lat": 38.909526166666666, "type": "electric_scooter", "lon": -77.04862583333333, "bike_id": "f9ec6fb0883cae4b27c04f2c3f469e93", "rental_uris": {"android": "https://dc.lft.to/lastmile_qr_scan", "ios": "https://dc.lft.to/lastmile_qr_scan"}, "name": "f9ec6fb0883cae4b27c04f2c3f469e93", "is_reserved": 0}, {"is_disabled": 0, "fusion_lon": 0.0, "fusion_lat": 0.0, "lat": 38.87671533333334, "type": "electric_bike", "lon": -77.0142945, "bike_id": "683688429bfd0a05e37ea17eec32fe34", "rental_uris": {"android": "https://dc.lft.to/lastmile_qr_scan", "ios": "https://dc.lft.to/lastmile_qr_scan"}, "name": "683688429bfd0a05e37ea17eec32fe34", "is_reserved": 0}, {"is_disabled": 0, "fusion_lon": 0.0, "fusion_lat": 0.0, "lat": 38.916208, "type": "electric_scooter", "lon": -77.02174983333333, "bike_id": "828138e7e23a120ad2881ce9515fccfa", "rental_uris": {"android": "https://dc.lft.to/lastmile_qr_scan", "ios": "https://dc.lft.to/lastmile_qr_scan"}, "name": "828138e7e23a120ad2881ce9515fccfa", "is_reserved": 0}, {"is_disabled": 0, "fusion_lon": 0.0, "fusion_lat": 0.0, "lat": 38.863566666666664, "type": "electric_scooter", "lon": -76.99065216666666, "bike_id": "557f1ca020ac2802d354022b6528b96c", "rental_uris": {"android": "https://dc.lft.to/lastmile_qr_scan", "ios": "https://dc.lft.to/lastmile_qr_scan"}, "name": "557f1ca020ac2802d354022b6528b96c", "is_reserved": 0}, {"is_disabled": 0, "fusion_lon": 0.0, "fusion_lat": 0.0, "lat": 38.99067983333333, "type": "electric_bike", "lon": -77.10028066666666, "bike_id": "b3567c0fe1dfc1c53aeff04b9091222a", "rental_uris": {"android": "https://dc.lft.to/lastmile_qr_scan", "ios": "https://dc.lft.to/lastmile_qr_scan"}, "name": "b3567c0fe1dfc1c53aeff04b9091222a", "is_reserved": 0}, {"is_disabled": 0, "fusion_lon": 0.0, "fusion_lat": 0.0, "lat": 38.90535283333333, "type": "electric_scooter", "lon": -77.05018483333333, "bike_id": "b7b317d9024748c45984092c97f2c34a", "rental_uris": {"android": "https://dc.lft.to/lastmile_qr_scan", "ios": "https://dc.lft.to/lastmile_qr_scan"}, "name": "b7b317d9024748c45984092c97f2c34a", "is_reserved": 0}, {"is_disabled": 0, "fusion_lon": 0.0, "fusion_lat": 0.0, "lat": 38.90773183333334, "type": "electric_scooter", "lon": -77.03174083333333, "bike_id": "25ca20a13b7febe57c7dc4e36a42a8fc", "rental_uris": {"android": "https://dc.lft.to/lastmile_qr_scan", "ios": "https://dc.lft.to/lastmile_qr_scan"}, "name": "25ca20a13b7febe57c7dc4e36a42a8fc", "is_reserved": 0}, {"is_disabled": 0, "fusion_lon": 0.0, "fusion_lat": 0.0, "lat": 38.9278595, "type": "electric_scooter", "lon": -77.01456983333334, "bike_id": "ea222d3db583e6d191585525ddf6454e", "rental_uris": {"android": "https://dc.lft.to/lastmile_qr_scan", "ios": "https://dc.lft.to/lastmile_qr_scan"}, "name": "ea222d3db583e6d191585525ddf6454e", "is_reserved": 0}, {"is_disabled": 0, "fusion_lon": 0.0, "fusion_lat": 0.0, "lat": 38.99089333333333, "type": "electric_bike", "lon": -76.87493966666666, "bike_id": "63ce50d6f02e62c5af2b34b699ba6b29", "rental_uris": {"android": "https://dc.lft.to/lastmile_qr_scan", "ios": "https://dc.lft.to/lastmile_qr_scan"}, "name": "63ce50d6f02e62c5af2b34b699ba6b29", "is_reserved": 0}, {"is_disabled": 0, "fusion_lon": 0.0, "fusion_lat": 0.0, "lat": 38.88585783333333, "type": "electric_scooter", "lon": -77.0199115, "bike_id": "79027e9cb27e489305b6b579d08ef426", "rental_uris": {"android": "https://dc.lft.to/lastmile_qr_scan", "ios": "https://dc.lft.to/lastmile_qr_scan"}, "name": "79027e9cb27e489305b6b579d08ef426", "is_reserved": 0}, {"is_disabled": 0, "fusion_lon": 0.0, "fusion_lat": 0.0, "lat": 38.92689083333333, "type": "electric_scooter", "lon": -77.0373955, "bike_id": "c32b4d6fb0b3212fde344b091cc0d52c", "rental_uris": {"android": "https://dc.lft.to/lastmile_qr_scan", "ios": "https://dc.lft.to/lastmile_qr_scan"}, "name": "c32b4d6fb0b3212fde344b091cc0d52c", "is_reserved": 0}, {"is_disabled": 0, "fusion_lon": 0.0, "fusion_lat": 0.0, "lat": 38.903640833333334, "type": "electric_scooter", "lon": -77.029173, "bike_id": "4585c5e3d23d7c16f13014673bc597be", "rental_uris": {"android": "https://dc.lft.to/lastmile_qr_scan", "ios": "https://dc.lft.to/lastmile_qr_scan"}, "name": "4585c5e3d23d7c16f13014673bc597be", "is_reserved": 0}, {"is_disabled": 0, "fusion_lon": 0.0, "fusion_lat": 0.0, "lat": 38.933007833333335, "type": "electric_scooter", "lon": -77.02142716666667, "bike_id": "8ada66b03991d5f34e9a111c5024b404", "rental_uris": {"android": "https://dc.lft.to/lastmile_qr_scan", "ios": "https://dc.lft.to/lastmile_qr_scan"}, "name": "8ada66b03991d5f34e9a111c5024b404", "is_reserved": 0}, {"is_disabled": 0, "fusion_lon": 0.0, "fusion_lat": 0.0, "lat": 38.93530583333333, "type": "electric_scooter", "lon": -77.0544215, "bike_id": "249c22ac68091584d5707fd2cfdef647", "rental_uris": {"android": "https://dc.lft.to/lastmile_qr_scan", "ios": "https://dc.lft.to/lastmile_qr_scan"}, "name": "249c22ac68091584d5707fd2cfdef647", "is_reserved": 0}, {"is_disabled": 0, "fusion_lon": 0.0, "fusion_lat": 0.0, "lat": 38.858049333333334, "type": "electric_scooter", "lon": -76.986526, "bike_id": "8cb72561f6dd249e8a0e8baccc6f90b9", "rental_uris": {"android": "https://dc.lft.to/lastmile_qr_scan", "ios": "https://dc.lft.to/lastmile_qr_scan"}, "name": "8cb72561f6dd249e8a0e8baccc6f90b9", "is_reserved": 0}, {"is_disabled": 0, "fusion_lon": 0.0, "fusion_lat": 0.0, "lat": 38.92612883333334, "type": "electric_scooter", "lon": -77.057041, "bike_id": "799d97031b43eb78572cc7f01fa054dd", "rental_uris": {"android": "https://dc.lft.to/lastmile_qr_scan", "ios": "https://dc.lft.to/lastmile_qr_scan"}, "name": "799d97031b43eb78572cc7f01fa054dd", "is_reserved": 0}, {"is_disabled": 0, "fusion_lon": 0.0, "fusion_lat": 0.0, "lat": 38.908685, "type": "electric_scooter", "lon": -77.03545066666666, "bike_id": "15fa7c452a173a8b6d0bbf63e622d877", "rental_uris": {"android": "https://dc.lft.to/lastmile_qr_scan", "ios": "https://dc.lft.to/lastmile_qr_scan"}, "name": "15fa7c452a173a8b6d0bbf63e622d877", "is_reserved": 0}, {"is_disabled": 0, "fusion_lon": 0.0, "fusion_lat": 0.0, "lat": 38.96099916666667, "type": "electric_scooter", "lon": -77.06896516666667, "bike_id": "716b6dfc7bd35ce3c750ee24f946b70f", "rental_uris": {"android": "https://dc.lft.to/lastmile_qr_scan", "ios": "https://dc.lft.to/lastmile_qr_scan"}, "name": "716b6dfc7bd35ce3c750ee24f946b70f", "is_reserved": 0}, {"is_disabled": 0, "fusion_lon": 0.0, "fusion_lat": 0.0, "lat": 38.91181383333333, "type": "electric_scooter", "lon": -77.03502833333333, "bike_id": "514f0b0c3f43ef576f05da40b6fe2be6", "rental_uris": {"android": "https://dc.lft.to/lastmile_qr_scan", "ios": "https://dc.lft.to/lastmile_qr_scan"}, "name": "514f0b0c3f43ef576f05da40b6fe2be6", "is_reserved": 0}, {"is_disabled": 0, "fusion_lon": 0.0, "fusion_lat": 0.0, "lat": 38.93398066666666, "type": "electric_scooter", "lon": -77.03261616666667, "bike_id": "81ce6abef32594e8e8c5b80968738426", "rental_uris": {"android": "https://dc.lft.to/lastmile_qr_scan", "ios": "https://dc.lft.to/lastmile_qr_scan"}, "name": "81ce6abef32594e8e8c5b80968738426", "is_reserved": 0}, {"is_disabled": 0, "fusion_lon": 0.0, "fusion_lat": 0.0, "lat": 38.865248333333334, "type": "electric_scooter", "lon": -76.98970366666667, "bike_id": "b79647c8071bf10e3b0e201c4c41d85a", "rental_uris": {"android": "https://dc.lft.to/lastmile_qr_scan", "ios": "https://dc.lft.to/lastmile_qr_scan"}, "name": "b79647c8071bf10e3b0e201c4c41d85a", "is_reserved": 0}, {"is_disabled": 0, "fusion_lon": 0.0, "fusion_lat": 0.0, "lat": 38.929721666666666, "type": "electric_scooter", "lon": -77.02072316666667, "bike_id": "638e7079002a18f87e3ff4f2e4c4a848", "rental_uris": {"android": "https://dc.lft.to/lastmile_qr_scan", "ios": "https://dc.lft.to/lastmile_qr_scan"}, "name": "638e7079002a18f87e3ff4f2e4c4a848", "is_reserved": 0}, {"is_disabled": 0, "fusion_lon": 0.0, "fusion_lat": 0.0, "lat": 38.916095166666665, "type": "electric_scooter", "lon": -77.03121283333333, "bike_id": "f7f5228fcc69844e6be5b7124db6838d", "rental_uris": {"android": "https://dc.lft.to/lastmile_qr_scan", "ios": "https://dc.lft.to/lastmile_qr_scan"}, "name": "f7f5228fcc69844e6be5b7124db6838d", "is_reserved": 0}, {"is_disabled": 0, "fusion_lon": 0.0, "fusion_lat": 0.0, "lat": 38.9037315, "type": "electric_scooter", "lon": -77.01634616666666, "bike_id": "f0509fe0ba2071bfd713ee2a75fc14eb", "rental_uris": {"android": "https://dc.lft.to/lastmile_qr_scan", "ios": "https://dc.lft.to/lastmile_qr_scan"}, "name": "f0509fe0ba2071bfd713ee2a75fc14eb", "is_reserved": 0}, {"is_disabled": 0, "fusion_lon": 0.0, "fusion_lat": 0.0, "lat": 38.934784, "type": "electric_scooter", "lon": -77.03576083333333, "bike_id": "d236d4e8e3cf418ee71a20880566759e", "rental_uris": {"android": "https://dc.lft.to/lastmile_qr_scan", "ios": "https://dc.lft.to/lastmile_qr_scan"}, "name": "d236d4e8e3cf418ee71a20880566759e", "is_reserved": 0}, {"is_disabled": 0, "fusion_lon": 0.0, "fusion_lat": 0.0, "lat": 38.901356666666665, "type": "electric_scooter", "lon": -77.02266033333333, "bike_id": "f448c875089ec07f93a7ae63ed2c3b5b", "rental_uris": {"android": "https://dc.lft.to/lastmile_qr_scan", "ios": "https://dc.lft.to/lastmile_qr_scan"}, "name": "f448c875089ec07f93a7ae63ed2c3b5b", "is_reserved": 0}, {"is_disabled": 0, "fusion_lon": 0.0, "fusion_lat": 0.0, "lat": 38.906819, "type": "electric_scooter", "lon": -76.97997733333334, "bike_id": "4b4176ba6443735411ff4450a5d7f9ac", "rental_uris": {"android": "https://dc.lft.to/lastmile_qr_scan", "ios": "https://dc.lft.to/lastmile_qr_scan"}, "name": "4b4176ba6443735411ff4450a5d7f9ac", "is_reserved": 0}, {"is_disabled": 0, "fusion_lon": 0.0, "fusion_lat": 0.0, "lat": 38.911649833333335, "type": "electric_scooter", "lon": -77.04169966666667, "bike_id": "b691d92a0d0d1f8f5a7a069a1c5bd4c6", "rental_uris": {"android": "https://dc.lft.to/lastmile_qr_scan", "ios": "https://dc.lft.to/lastmile_qr_scan"}, "name": "b691d92a0d0d1f8f5a7a069a1c5bd4c6", "is_reserved": 0}, {"is_disabled": 0, "fusion_lon": 0.0, "fusion_lat": 0.0, "lat": 38.910357833333336, "type": "electric_scooter", "lon": -77.04010383333333, "bike_id": "471bbb9f3f274e0357b6ecbdfb662404", "rental_uris": {"android": "https://dc.lft.to/lastmile_qr_scan", "ios": "https://dc.lft.to/lastmile_qr_scan"}, "name": "471bbb9f3f274e0357b6ecbdfb662404", "is_reserved": 0}, {"is_disabled": 0, "fusion_lon": 0.0, "fusion_lat": 0.0, "lat": 38.8964205, "type": "electric_scooter", "lon": -77.00939616666666, "bike_id": "f79ae17df404c365c8695748e9680604", "rental_uris": {"android": "https://dc.lft.to/lastmile_qr_scan", "ios": "https://dc.lft.to/lastmile_qr_scan"}, "name": "f79ae17df404c365c8695748e9680604", "is_reserved": 0}, {"is_disabled": 0, "fusion_lon": 0.0, "fusion_lat": 0.0, "lat": 38.94196916666667, "type": "electric_scooter", "lon": -77.02586716666667, "bike_id": "951d7f51629d67380017c1876eeeb00f", "rental_uris": {"android": "https://dc.lft.to/lastmile_qr_scan", "ios": "https://dc.lft.to/lastmile_qr_scan"}, "name": "951d7f51629d67380017c1876eeeb00f", "is_reserved": 0}, {"is_disabled": 0, "fusion_lon": 0.0, "fusion_lat": 0.0, "lat": 38.900929, "type": "electric_scooter", "lon": -77.01811616666667, "bike_id": "e9b7a5ee862b1227decb7cdb711c6471", "rental_uris": {"android": "https://dc.lft.to/lastmile_qr_scan", "ios": "https://dc.lft.to/lastmile_qr_scan"}, "name": "e9b7a5ee862b1227decb7cdb711c6471", "is_reserved": 0}, {"is_disabled": 0, "fusion_lon": 0.0, "fusion_lat": 0.0, "lat": 38.9180515, "type": "electric_scooter", "lon": -77.02443366666667, "bike_id": "87c051cca9f30f0be166d539782f9585", "rental_uris": {"android": "https://dc.lft.to/lastmile_qr_scan", "ios": "https://dc.lft.to/lastmile_qr_scan"}, "name": "87c051cca9f30f0be166d539782f9585", "is_reserved": 0}, {"is_disabled": 0, "fusion_lon": 0.0, "fusion_lat": 0.0, "lat": 38.92305983333333, "type": "electric_scooter", "lon": -77.03106316666667, "bike_id": "826b7346087969ada909bea4a4b4510d", "rental_uris": {"android": "https://dc.lft.to/lastmile_qr_scan", "ios": "https://dc.lft.to/lastmile_qr_scan"}, "name": "826b7346087969ada909bea4a4b4510d", "is_reserved": 0}, {"is_disabled": 0, "fusion_lon": 0.0, "fusion_lat": 0.0, "lat": 38.917779, "type": "electric_scooter", "lon": -77.04149833333334, "bike_id": "a3cde3932cf0bf50dc4ef8f547dd2dbd", "rental_uris": {"android": "https://dc.lft.to/lastmile_qr_scan", "ios": "https://dc.lft.to/lastmile_qr_scan"}, "name": "a3cde3932cf0bf50dc4ef8f547dd2dbd", "is_reserved": 0}, {"is_disabled": 0, "fusion_lon": 0.0, "fusion_lat": 0.0, "lat": 38.90711016666667, "type": "electric_scooter", "lon": -77.0270315, "bike_id": "04c38daf0c97e67fbbe120f74ebadd0f", "rental_uris": {"android": "https://dc.lft.to/lastmile_qr_scan", "ios": "https://dc.lft.to/lastmile_qr_scan"}, "name": "04c38daf0c97e67fbbe120f74ebadd0f", "is_reserved": 0}, {"is_disabled": 0, "fusion_lon": 0.0, "fusion_lat": 0.0, "lat": 38.9345815, "type": "electric_scooter", "lon": -77.02748916666667, "bike_id": "be5af7cc4230c93ab4eecf563b494a15", "rental_uris": {"android": "https://dc.lft.to/lastmile_qr_scan", "ios": "https://dc.lft.to/lastmile_qr_scan"}, "name": "be5af7cc4230c93ab4eecf563b494a15", "is_reserved": 0}, {"is_disabled": 0, "fusion_lon": 0.0, "fusion_lat": 0.0, "lat": 38.96556283333334, "type": "electric_bike", "lon": -77.02299716666667, "bike_id": "136708ce556f0bf8a9e4373b64d97316", "rental_uris": {"android": "https://dc.lft.to/lastmile_qr_scan", "ios": "https://dc.lft.to/lastmile_qr_scan"}, "name": "136708ce556f0bf8a9e4373b64d97316", "is_reserved": 0}, {"is_disabled": 0, "fusion_lon": 0.0, "fusion_lat": 0.0, "lat": 38.90330466666666, "type": "electric_scooter", "lon": -77.029009, "bike_id": "e9b1d21400addc26fc3b9e1536b89598", "rental_uris": {"android": "https://dc.lft.to/lastmile_qr_scan", "ios": "https://dc.lft.to/lastmile_qr_scan"}, "name": "e9b1d21400addc26fc3b9e1536b89598", "is_reserved": 0}, {"is_disabled": 0, "fusion_lon": 0.0, "fusion_lat": 0.0, "lat": 38.934873333333336, "type": "electric_scooter", "lon": -77.032828, "bike_id": "b19dde8433aa2fa7ced0a961e0cd5ccc", "rental_uris": {"android": "https://dc.lft.to/lastmile_qr_scan", "ios": "https://dc.lft.to/lastmile_qr_scan"}, "name": "b19dde8433aa2fa7ced0a961e0cd5ccc", "is_reserved": 0}, {"is_disabled": 0, "fusion_lon": 0.0, "fusion_lat": 0.0, "lat": 39.003837, "type": "electric_bike", "lon": -77.01299233333333, "bike_id": "382b9b4c1867c40f1def5e1de50acbcb", "rental_uris": {"android": "https://dc.lft.to/lastmile_qr_scan", "ios": "https://dc.lft.to/lastmile_qr_scan"}, "name": "382b9b4c1867c40f1def5e1de50acbcb", "is_reserved": 0}, {"is_disabled": 0, "fusion_lon": 0.0, "fusion_lat": 0.0, "lat": 38.94615116666667, "type": "electric_scooter", "lon": -77.03619316666666, "bike_id": "60c8ed8e11651a0d30ed70ed0cd62c7f", "rental_uris": {"android": "https://dc.lft.to/lastmile_qr_scan", "ios": "https://dc.lft.to/lastmile_qr_scan"}, "name": "60c8ed8e11651a0d30ed70ed0cd62c7f", "is_reserved": 0}, {"is_disabled": 0, "fusion_lon": 0.0, "fusion_lat": 0.0, "lat": 38.966152, "type": "electric_scooter", "lon": -77.03531266666667, "bike_id": "08ce0da88900f139a55d5f715be3e353", "rental_uris": {"android": "https://dc.lft.to/lastmile_qr_scan", "ios": "https://dc.lft.to/lastmile_qr_scan"}, "name": "08ce0da88900f139a55d5f715be3e353", "is_reserved": 0}, {"is_disabled": 0, "fusion_lon": 0.0, "fusion_lat": 0.0, "lat": 38.93432466666667, "type": "electric_scooter", "lon": -77.02593983333334, "bike_id": "8bca29a90f4b039b4e6020c264933417", "rental_uris": {"android": "https://dc.lft.to/lastmile_qr_scan", "ios": "https://dc.lft.to/lastmile_qr_scan"}, "name": "8bca29a90f4b039b4e6020c264933417", "is_reserved": 0}, {"is_disabled": 0, "fusion_lon": 0.0, "fusion_lat": 0.0, "lat": 38.91318366666667, "type": "electric_scooter", "lon": -77.00849933333333, "bike_id": "22ebd32721e05d80511832effddfa64b", "rental_uris": {"android": "https://dc.lft.to/lastmile_qr_scan", "ios": "https://dc.lft.to/lastmile_qr_scan"}, "name": "22ebd32721e05d80511832effddfa64b", "is_reserved": 0}, {"is_disabled": 0, "fusion_lon": 0.0, "fusion_lat": 0.0, "lat": 38.92965433333333, "type": "electric_scooter", "lon": -77.0420315, "bike_id": "60c2ed486c2add2edcf9c361a29e58b4", "rental_uris": {"android": "https://dc.lft.to/lastmile_qr_scan", "ios": "https://dc.lft.to/lastmile_qr_scan"}, "name": "60c2ed486c2add2edcf9c361a29e58b4", "is_reserved": 0}, {"is_disabled": 0, "fusion_lon": 0.0, "fusion_lat": 0.0, "lat": 38.9126555, "type": "electric_scooter", "lon": -77.033699, "bike_id": "5c401ca661f20731a40938a82a9f7752", "rental_uris": {"android": "https://dc.lft.to/lastmile_qr_scan", "ios": "https://dc.lft.to/lastmile_qr_scan"}, "name": "5c401ca661f20731a40938a82a9f7752", "is_reserved": 0}, {"is_disabled": 0, "fusion_lon": 0.0, "fusion_lat": 0.0, "lat": 38.95174466666667, "type": "electric_scooter", "lon": -77.03332283333333, "bike_id": "ef69b69004940d6c5fea78ca0042b332", "rental_uris": {"android": "https://dc.lft.to/lastmile_qr_scan", "ios": "https://dc.lft.to/lastmile_qr_scan"}, "name": "ef69b69004940d6c5fea78ca0042b332", "is_reserved": 0}, {"is_disabled": 0, "fusion_lon": 0.0, "fusion_lat": 0.0, "lat": 38.9154025, "type": "electric_scooter", "lon": -77.03799683333334, "bike_id": "7863f3c81dffd263e38f593948caee6d", "rental_uris": {"android": "https://dc.lft.to/lastmile_qr_scan", "ios": "https://dc.lft.to/lastmile_qr_scan"}, "name": "7863f3c81dffd263e38f593948caee6d", "is_reserved": 0}, {"is_disabled": 0, "fusion_lon": 0.0, "fusion_lat": 0.0, "lat": 38.90682366666667, "type": "electric_scooter", "lon": -77.026921, "bike_id": "ef552ded2e6bbdef3a01ee47c448afb9", "rental_uris": {"android": "https://dc.lft.to/lastmile_qr_scan", "ios": "https://dc.lft.to/lastmile_qr_scan"}, "name": "ef552ded2e6bbdef3a01ee47c448afb9", "is_reserved": 0}, {"is_disabled": 0, "fusion_lon": 0.0, "fusion_lat": 0.0, "lat": 38.912625, "type": "electric_scooter", "lon": -77.00826866666667, "bike_id": "a5077b2b7ea8527aa3b6d5fd43a3bb02", "rental_uris": {"android": "https://dc.lft.to/lastmile_qr_scan", "ios": "https://dc.lft.to/lastmile_qr_scan"}, "name": "a5077b2b7ea8527aa3b6d5fd43a3bb02", "is_reserved": 0}, {"is_disabled": 0, "fusion_lon": 0.0, "fusion_lat": 0.0, "lat": 38.90835516666667, "type": "electric_scooter", "lon": -76.99695433333333, "bike_id": "2bccb591fbc7c7f347a5f7b32c7ec79c", "rental_uris": {"android": "https://dc.lft.to/lastmile_qr_scan", "ios": "https://dc.lft.to/lastmile_qr_scan"}, "name": "2bccb591fbc7c7f347a5f7b32c7ec79c", "is_reserved": 0}, {"is_disabled": 0, "fusion_lon": 0.0, "fusion_lat": 0.0, "lat": 38.91677833333333, "type": "electric_scooter", "lon": -77.02711783333334, "bike_id": "2f3e6bf9b9e808c410a7aa6cbeaeff10", "rental_uris": {"android": "https://dc.lft.to/lastmile_qr_scan", "ios": "https://dc.lft.to/lastmile_qr_scan"}, "name": "2f3e6bf9b9e808c410a7aa6cbeaeff10", "is_reserved": 0}, {"is_disabled": 0, "fusion_lon": 0.0, "fusion_lat": 0.0, "lat": 38.866238333333335, "type": "electric_scooter", "lon": -76.98716066666667, "bike_id": "1adf2233e8d681c3d88358896e0c48e3", "rental_uris": {"android": "https://dc.lft.to/lastmile_qr_scan", "ios": "https://dc.lft.to/lastmile_qr_scan"}, "name": "1adf2233e8d681c3d88358896e0c48e3", "is_reserved": 0}, {"is_disabled": 0, "fusion_lon": 0.0, "fusion_lat": 0.0, "lat": 38.9019425, "type": "electric_scooter", "lon": -77.0395375, "bike_id": "2c3515ce0cc2b33854df699acf75aa84", "rental_uris": {"android": "https://dc.lft.to/lastmile_qr_scan", "ios": "https://dc.lft.to/lastmile_qr_scan"}, "name": "2c3515ce0cc2b33854df699acf75aa84", "is_reserved": 0}, {"is_disabled": 0, "fusion_lon": 0.0, "fusion_lat": 0.0, "lat": 38.90194066666667, "type": "electric_scooter", "lon": -77.02501616666666, "bike_id": "ed33cf316b74f8315a5801acd94faaf1", "rental_uris": {"android": "https://dc.lft.to/lastmile_qr_scan", "ios": "https://dc.lft.to/lastmile_qr_scan"}, "name": "ed33cf316b74f8315a5801acd94faaf1", "is_reserved": 0}, {"is_disabled": 0, "fusion_lon": 0.0, "fusion_lat": 0.0, "lat": 38.90548716666667, "type": "electric_scooter", "lon": -77.047185, "bike_id": "f79ac5c1420a074e12d7f014be7900e6", "rental_uris": {"android": "https://dc.lft.to/lastmile_qr_scan", "ios": "https://dc.lft.to/lastmile_qr_scan"}, "name": "f79ac5c1420a074e12d7f014be7900e6", "is_reserved": 0}, {"is_disabled": 0, "fusion_lon": 0.0, "fusion_lat": 0.0, "lat": 38.92264733333333, "type": "electric_bike", "lon": -77.07717866666667, "bike_id": "f89ca36c0452b60895873818c46f3524", "rental_uris": {"android": "https://dc.lft.to/lastmile_qr_scan", "ios": "https://dc.lft.to/lastmile_qr_scan"}, "name": "f89ca36c0452b60895873818c46f3524", "is_reserved": 0}, {"is_disabled": 0, "fusion_lon": 0.0, "fusion_lat": 0.0, "lat": 38.845144166666664, "type": "electric_bike", "lon": -77.07792633333334, "bike_id": "867b45ace0bf4a814817cda6ea47fd0d", "rental_uris": {"android": "https://dc.lft.to/lastmile_qr_scan", "ios": "https://dc.lft.to/lastmile_qr_scan"}, "name": "867b45ace0bf4a814817cda6ea47fd0d", "is_reserved": 0}, {"is_disabled": 0, "fusion_lon": 0.0, "fusion_lat": 0.0, "lat": 38.91813883333333, "type": "electric_scooter", "lon": -77.0380345, "bike_id": "59bf072724312f5f847be2632699cb1d", "rental_uris": {"android": "https://dc.lft.to/lastmile_qr_scan", "ios": "https://dc.lft.to/lastmile_qr_scan"}, "name": "59bf072724312f5f847be2632699cb1d", "is_reserved": 0}, {"is_disabled": 0, "fusion_lon": 0.0, "fusion_lat": 0.0, "lat": 38.90535, "type": "electric_scooter", "lon": -77.04345083333334, "bike_id": "78fa5d701e7c4fae1a19ed379ec0258f", "rental_uris": {"android": "https://dc.lft.to/lastmile_qr_scan", "ios": "https://dc.lft.to/lastmile_qr_scan"}, "name": "78fa5d701e7c4fae1a19ed379ec0258f", "is_reserved": 0}, {"is_disabled": 0, "fusion_lon": 0.0, "fusion_lat": 0.0, "lat": 38.923631666666665, "type": "electric_scooter", "lon": -77.05129966666667, "bike_id": "28ca3b1a314c980f64a3e5e9f1059dc5", "rental_uris": {"android": "https://dc.lft.to/lastmile_qr_scan", "ios": "https://dc.lft.to/lastmile_qr_scan"}, "name": "28ca3b1a314c980f64a3e5e9f1059dc5", "is_reserved": 0}, {"is_disabled": 0, "fusion_lon": 0.0, "fusion_lat": 0.0, "lat": 38.91691933333333, "type": "electric_scooter", "lon": -77.02517283333333, "bike_id": "15871005d7f37e5c0d1bd815845d69c9", "rental_uris": {"android": "https://dc.lft.to/lastmile_qr_scan", "ios": "https://dc.lft.to/lastmile_qr_scan"}, "name": "15871005d7f37e5c0d1bd815845d69c9", "is_reserved": 0}, {"is_disabled": 0, "fusion_lon": 0.0, "fusion_lat": 0.0, "lat": 38.903883666666665, "type": "electric_scooter", "lon": -77.01868716666667, "bike_id": "7a46a29bdca253eac0ed56c44948e739", "rental_uris": {"android": "https://dc.lft.to/lastmile_qr_scan", "ios": "https://dc.lft.to/lastmile_qr_scan"}, "name": "7a46a29bdca253eac0ed56c44948e739", "is_reserved": 0}, {"is_disabled": 0, "fusion_lon": 0.0, "fusion_lat": 0.0, "lat": 38.925309, "type": "electric_scooter", "lon": -77.073291, "bike_id": "e3bd04b25f7915d4521a6a2ed21a1906", "rental_uris": {"android": "https://dc.lft.to/lastmile_qr_scan", "ios": "https://dc.lft.to/lastmile_qr_scan"}, "name": "e3bd04b25f7915d4521a6a2ed21a1906", "is_reserved": 0}, {"is_disabled": 0, "fusion_lon": 0.0, "fusion_lat": 0.0, "lat": 38.928937, "type": "electric_scooter", "lon": -77.0240005, "bike_id": "c6c2487798cb434008a3c1c96f21f3ec", "rental_uris": {"android": "https://dc.lft.to/lastmile_qr_scan", "ios": "https://dc.lft.to/lastmile_qr_scan"}, "name": "c6c2487798cb434008a3c1c96f21f3ec", "is_reserved": 0}, {"is_disabled": 0, "fusion_lon": 0.0, "fusion_lat": 0.0, "lat": 38.897605666666664, "type": "electric_scooter", "lon": -77.02472683333333, "bike_id": "a43f42a42256521f9d8d7c29ebc3fa79", "rental_uris": {"android": "https://dc.lft.to/lastmile_qr_scan", "ios": "https://dc.lft.to/lastmile_qr_scan"}, "name": "a43f42a42256521f9d8d7c29ebc3fa79", "is_reserved": 0}, {"is_disabled": 0, "fusion_lon": 0.0, "fusion_lat": 0.0, "lat": 38.956922666666664, "type": "electric_scooter", "lon": -77.024047, "bike_id": "831948167624b6893537d6c79364d5a3", "rental_uris": {"android": "https://dc.lft.to/lastmile_qr_scan", "ios": "https://dc.lft.to/lastmile_qr_scan"}, "name": "831948167624b6893537d6c79364d5a3", "is_reserved": 0}, {"is_disabled": 0, "fusion_lon": 0.0, "fusion_lat": 0.0, "lat": 38.89650816666666, "type": "electric_scooter", "lon": -77.04328333333333, "bike_id": "88d451a7c0a4f18cc281e0f3c98547c2", "rental_uris": {"android": "https://dc.lft.to/lastmile_qr_scan", "ios": "https://dc.lft.to/lastmile_qr_scan"}, "name": "88d451a7c0a4f18cc281e0f3c98547c2", "is_reserved": 0}, {"is_disabled": 0, "fusion_lon": 0.0, "fusion_lat": 0.0, "lat": 38.92904466666667, "type": "electric_scooter", "lon": -77.0318605, "bike_id": "b419752c78eb823629ea58dada438619", "rental_uris": {"android": "https://dc.lft.to/lastmile_qr_scan", "ios": "https://dc.lft.to/lastmile_qr_scan"}, "name": "b419752c78eb823629ea58dada438619", "is_reserved": 0}, {"is_disabled": 0, "fusion_lon": 0.0, "fusion_lat": 0.0, "lat": 38.876743833333336, "type": "electric_bike", "lon": -77.0144785, "bike_id": "25ece640013ed9e3d6a34a9245350c54", "rental_uris": {"android": "https://dc.lft.to/lastmile_qr_scan", "ios": "https://dc.lft.to/lastmile_qr_scan"}, "name": "25ece640013ed9e3d6a34a9245350c54", "is_reserved": 0}, {"is_disabled": 0, "fusion_lon": 0.0, "fusion_lat": 0.0, "lat": 38.8429005, "type": "electric_scooter", "lon": -76.99944133333334, "bike_id": "96586ea44d7ee4ac789e2cbabb775923", "rental_uris": {"android": "https://dc.lft.to/lastmile_qr_scan", "ios": "https://dc.lft.to/lastmile_qr_scan"}, "name": "96586ea44d7ee4ac789e2cbabb775923", "is_reserved": 0}, {"is_disabled": 0, "fusion_lon": 0.0, "fusion_lat": 0.0, "lat": 38.919771, "type": "electric_scooter", "lon": -77.0001565, "bike_id": "e64e6f6182787b0f18dab56f3095942b", "rental_uris": {"android": "https://dc.lft.to/lastmile_qr_scan", "ios": "https://dc.lft.to/lastmile_qr_scan"}, "name": "e64e6f6182787b0f18dab56f3095942b", "is_reserved": 0}, {"is_disabled": 0, "fusion_lon": 0.0, "fusion_lat": 0.0, "lat": 38.900237, "type": "electric_scooter", "lon": -76.996724, "bike_id": "1df612cb8dd6707a210b55cb4c65f627", "rental_uris": {"android": "https://dc.lft.to/lastmile_qr_scan", "ios": "https://dc.lft.to/lastmile_qr_scan"}, "name": "1df612cb8dd6707a210b55cb4c65f627", "is_reserved": 0}, {"is_disabled": 0, "fusion_lon": 0.0, "fusion_lat": 0.0, "lat": 38.9005965, "type": "electric_scooter", "lon": -76.98681766666667, "bike_id": "26fc06af866a8fbce8562bfe7daf5bf6", "rental_uris": {"android": "https://dc.lft.to/lastmile_qr_scan", "ios": "https://dc.lft.to/lastmile_qr_scan"}, "name": "26fc06af866a8fbce8562bfe7daf5bf6", "is_reserved": 0}, {"is_disabled": 0, "fusion_lon": 0.0, "fusion_lat": 0.0, "lat": 38.913811833333334, "type": "electric_scooter", "lon": -77.02971683333334, "bike_id": "67085e2788ca2ddd174fa8bd3621244c", "rental_uris": {"android": "https://dc.lft.to/lastmile_qr_scan", "ios": "https://dc.lft.to/lastmile_qr_scan"}, "name": "67085e2788ca2ddd174fa8bd3621244c", "is_reserved": 0}, {"is_disabled": 0, "fusion_lon": 0.0, "fusion_lat": 0.0, "lat": 38.91636716666667, "type": "electric_scooter", "lon": -77.04164, "bike_id": "9fe5ae6fac51e032718da0771de13128", "rental_uris": {"android": "https://dc.lft.to/lastmile_qr_scan", "ios": "https://dc.lft.to/lastmile_qr_scan"}, "name": "9fe5ae6fac51e032718da0771de13128", "is_reserved": 0}, {"is_disabled": 0, "fusion_lon": 0.0, "fusion_lat": 0.0, "lat": 38.8870285, "type": "electric_scooter", "lon": -76.9535835, "bike_id": "854ed095f50128eaad47ddb82ed16fa8", "rental_uris": {"android": "https://dc.lft.to/lastmile_qr_scan", "ios": "https://dc.lft.to/lastmile_qr_scan"}, "name": "854ed095f50128eaad47ddb82ed16fa8", "is_reserved": 0}, {"is_disabled": 0, "fusion_lon": 0.0, "fusion_lat": 0.0, "lat": 38.90569516666667, "type": "electric_scooter", "lon": -77.04688866666666, "bike_id": "912dacb647f64d71304d4539f3cf4404", "rental_uris": {"android": "https://dc.lft.to/lastmile_qr_scan", "ios": "https://dc.lft.to/lastmile_qr_scan"}, "name": "912dacb647f64d71304d4539f3cf4404", "is_reserved": 0}, {"is_disabled": 0, "fusion_lon": 0.0, "fusion_lat": 0.0, "lat": 38.933898, "type": "electric_scooter", "lon": -77.04003316666666, "bike_id": "b7dfdb87c54730554b2839b5622eef52", "rental_uris": {"android": "https://dc.lft.to/lastmile_qr_scan", "ios": "https://dc.lft.to/lastmile_qr_scan"}, "name": "b7dfdb87c54730554b2839b5622eef52", "is_reserved": 0}, {"is_disabled": 0, "fusion_lon": 0.0, "fusion_lat": 0.0, "lat": 38.906632, "type": "electric_scooter", "lon": -77.02705366666666, "bike_id": "527c0b15bfae898a6cdd1ca3031df1f7", "rental_uris": {"android": "https://dc.lft.to/lastmile_qr_scan", "ios": "https://dc.lft.to/lastmile_qr_scan"}, "name": "527c0b15bfae898a6cdd1ca3031df1f7", "is_reserved": 0}, {"is_disabled": 0, "fusion_lon": 0.0, "fusion_lat": 0.0, "lat": 38.949199, "type": "electric_scooter", "lon": -77.022928, "bike_id": "30f62e3319110fbad15c2202b76306bb", "rental_uris": {"android": "https://dc.lft.to/lastmile_qr_scan", "ios": "https://dc.lft.to/lastmile_qr_scan"}, "name": "30f62e3319110fbad15c2202b76306bb", "is_reserved": 0}, {"is_disabled": 0, "fusion_lon": 0.0, "fusion_lat": 0.0, "lat": 38.880529333333335, "type": "electric_scooter", "lon": -77.00369383333333, "bike_id": "f801e59b1a6d9c0ecdc3319967624fb0", "rental_uris": {"android": "https://dc.lft.to/lastmile_qr_scan", "ios": "https://dc.lft.to/lastmile_qr_scan"}, "name": "f801e59b1a6d9c0ecdc3319967624fb0", "is_reserved": 0}, {"is_disabled": 0, "fusion_lon": 0.0, "fusion_lat": 0.0, "lat": 38.93072766666667, "type": "electric_scooter", "lon": -77.05820366666667, "bike_id": "76442d492067df2cf5e62413d44e3403", "rental_uris": {"android": "https://dc.lft.to/lastmile_qr_scan", "ios": "https://dc.lft.to/lastmile_qr_scan"}, "name": "76442d492067df2cf5e62413d44e3403", "is_reserved": 0}, {"is_disabled": 0, "fusion_lon": 0.0, "fusion_lat": 0.0, "lat": 38.90006866666667, "type": "electric_scooter", "lon": -77.03966333333334, "bike_id": "af24b9facd3a41039f60166059c7e237", "rental_uris": {"android": "https://dc.lft.to/lastmile_qr_scan", "ios": "https://dc.lft.to/lastmile_qr_scan"}, "name": "af24b9facd3a41039f60166059c7e237", "is_reserved": 0}, {"is_disabled": 0, "fusion_lon": 0.0, "fusion_lat": 0.0, "lat": 38.86963133333333, "type": "electric_scooter", "lon": -76.96031666666667, "bike_id": "7a675f7d8bcfa1b59ae6b7e97c369669", "rental_uris": {"android": "https://dc.lft.to/lastmile_qr_scan", "ios": "https://dc.lft.to/lastmile_qr_scan"}, "name": "7a675f7d8bcfa1b59ae6b7e97c369669", "is_reserved": 0}, {"is_disabled": 0, "fusion_lon": 0.0, "fusion_lat": 0.0, "lat": 38.91836, "type": "electric_scooter", "lon": -77.07206466666666, "bike_id": "e0d68d74a7e84be82660abcaec05eae8", "rental_uris": {"android": "https://dc.lft.to/lastmile_qr_scan", "ios": "https://dc.lft.to/lastmile_qr_scan"}, "name": "e0d68d74a7e84be82660abcaec05eae8", "is_reserved": 0}, {"is_disabled": 0, "fusion_lon": 0.0, "fusion_lat": 0.0, "lat": 38.92332416666667, "type": "electric_scooter", "lon": -77.041829, "bike_id": "544e41fc057418c9469a598f5d54e437", "rental_uris": {"android": "https://dc.lft.to/lastmile_qr_scan", "ios": "https://dc.lft.to/lastmile_qr_scan"}, "name": "544e41fc057418c9469a598f5d54e437", "is_reserved": 0}, {"is_disabled": 0, "fusion_lon": 0.0, "fusion_lat": 0.0, "lat": 38.81025616666667, "type": "electric_bike", "lon": -77.08433683333334, "bike_id": "614012d30f6dfaa47fe0ed5e7c6af211", "rental_uris": {"android": "https://dc.lft.to/lastmile_qr_scan", "ios": "https://dc.lft.to/lastmile_qr_scan"}, "name": "614012d30f6dfaa47fe0ed5e7c6af211", "is_reserved": 0}, {"is_disabled": 0, "fusion_lon": 0.0, "fusion_lat": 0.0, "lat": 38.90015483333333, "type": "electric_scooter", "lon": -77.0332835, "bike_id": "c22a4c5b548aaf3ff318bdc679fdecb9", "rental_uris": {"android": "https://dc.lft.to/lastmile_qr_scan", "ios": "https://dc.lft.to/lastmile_qr_scan"}, "name": "c22a4c5b548aaf3ff318bdc679fdecb9", "is_reserved": 0}, {"is_disabled": 0, "fusion_lon": 0.0, "fusion_lat": 0.0, "lat": 38.909574, "type": "electric_scooter", "lon": -77.02376066666666, "bike_id": "c44bef3e06a9d7a85e2baeca80d9f833", "rental_uris": {"android": "https://dc.lft.to/lastmile_qr_scan", "ios": "https://dc.lft.to/lastmile_qr_scan"}, "name": "c44bef3e06a9d7a85e2baeca80d9f833", "is_reserved": 0}, {"is_disabled": 0, "fusion_lon": 0.0, "fusion_lat": 0.0, "lat": 38.91933183333333, "type": "electric_bike", "lon": -76.97501933333334, "bike_id": "994e2a417873ada40a952dbdd16cd80b", "rental_uris": {"android": "https://dc.lft.to/lastmile_qr_scan", "ios": "https://dc.lft.to/lastmile_qr_scan"}, "name": "994e2a417873ada40a952dbdd16cd80b", "is_reserved": 0}, {"is_disabled": 0, "fusion_lon": 0.0, "fusion_lat": 0.0, "lat": 38.918957166666665, "type": "electric_scooter", "lon": -77.07108666666667, "bike_id": "c880176a381699d4373f0df66f7476ea", "rental_uris": {"android": "https://dc.lft.to/lastmile_qr_scan", "ios": "https://dc.lft.to/lastmile_qr_scan"}, "name": "c880176a381699d4373f0df66f7476ea", "is_reserved": 0}, {"is_disabled": 0, "fusion_lon": 0.0, "fusion_lat": 0.0, "lat": 38.90507433333333, "type": "electric_scooter", "lon": -77.05319133333333, "bike_id": "02e7e5f9f009de0ceec6de564f5fa22e", "rental_uris": {"android": "https://dc.lft.to/lastmile_qr_scan", "ios": "https://dc.lft.to/lastmile_qr_scan"}, "name": "02e7e5f9f009de0ceec6de564f5fa22e", "is_reserved": 0}, {"is_disabled": 0, "fusion_lon": 0.0, "fusion_lat": 0.0, "lat": 38.94300616666666, "type": "electric_scooter", "lon": -77.02760816666667, "bike_id": "f07488568fc7bbab47f38ca2a5fdec29", "rental_uris": {"android": "https://dc.lft.to/lastmile_qr_scan", "ios": "https://dc.lft.to/lastmile_qr_scan"}, "name": "f07488568fc7bbab47f38ca2a5fdec29", "is_reserved": 0}, {"is_disabled": 0, "fusion_lon": 0.0, "fusion_lat": 0.0, "lat": 38.894119, "type": "electric_scooter", "lon": -77.01090066666667, "bike_id": "800343db71268977a6b312f971ea3341", "rental_uris": {"android": "https://dc.lft.to/lastmile_qr_scan", "ios": "https://dc.lft.to/lastmile_qr_scan"}, "name": "800343db71268977a6b312f971ea3341", "is_reserved": 0}, {"is_disabled": 0, "fusion_lon": 0.0, "fusion_lat": 0.0, "lat": 38.92069733333334, "type": "electric_scooter", "lon": -77.04381, "bike_id": "ebadd624681b1827473d4394d98582bb", "rental_uris": {"android": "https://dc.lft.to/lastmile_qr_scan", "ios": "https://dc.lft.to/lastmile_qr_scan"}, "name": "ebadd624681b1827473d4394d98582bb", "is_reserved": 0}, {"is_disabled": 0, "fusion_lon": 0.0, "fusion_lat": 0.0, "lat": 38.9044825, "type": "electric_scooter", "lon": -77.02401566666667, "bike_id": "1108e201972d4f28bb4e939eebaf0eaa", "rental_uris": {"android": "https://dc.lft.to/lastmile_qr_scan", "ios": "https://dc.lft.to/lastmile_qr_scan"}, "name": "1108e201972d4f28bb4e939eebaf0eaa", "is_reserved": 0}, {"is_disabled": 0, "fusion_lon": 0.0, "fusion_lat": 0.0, "lat": 38.852820666666666, "type": "electric_bike", "lon": -76.98154466666666, "bike_id": "6f7324aae47e31c32dacb73791633cf4", "rental_uris": {"android": "https://dc.lft.to/lastmile_qr_scan", "ios": "https://dc.lft.to/lastmile_qr_scan"}, "name": "6f7324aae47e31c32dacb73791633cf4", "is_reserved": 0}, {"is_disabled": 0, "fusion_lon": 0.0, "fusion_lat": 0.0, "lat": 38.90009533333333, "type": "electric_scooter", "lon": -77.03358266666666, "bike_id": "ea70b722f40be11001a36372eed7f79b", "rental_uris": {"android": "https://dc.lft.to/lastmile_qr_scan", "ios": "https://dc.lft.to/lastmile_qr_scan"}, "name": "ea70b722f40be11001a36372eed7f79b", "is_reserved": 0}, {"is_disabled": 0, "fusion_lon": 0.0, "fusion_lat": 0.0, "lat": 38.921443333333336, "type": "electric_scooter", "lon": -77.04449733333334, "bike_id": "bf232496d443fab8120bc3f80d569f95", "rental_uris": {"android": "https://dc.lft.to/lastmile_qr_scan", "ios": "https://dc.lft.to/lastmile_qr_scan"}, "name": "bf232496d443fab8120bc3f80d569f95", "is_reserved": 0}, {"is_disabled": 0, "fusion_lon": 0.0, "fusion_lat": 0.0, "lat": 38.904738, "type": "electric_bike", "lon": -76.92946533333334, "bike_id": "341081d0af2ea6bcea5b7124911e6e0b", "rental_uris": {"android": "https://dc.lft.to/lastmile_qr_scan", "ios": "https://dc.lft.to/lastmile_qr_scan"}, "name": "341081d0af2ea6bcea5b7124911e6e0b", "is_reserved": 0}, {"is_disabled": 0, "fusion_lon": 0.0, "fusion_lat": 0.0, "lat": 38.914130666666665, "type": "electric_scooter", "lon": -77.03993, "bike_id": "624836af52bb659a44077577fdd337e1", "rental_uris": {"android": "https://dc.lft.to/lastmile_qr_scan", "ios": "https://dc.lft.to/lastmile_qr_scan"}, "name": "624836af52bb659a44077577fdd337e1", "is_reserved": 0}, {"is_disabled": 0, "fusion_lon": 0.0, "fusion_lat": 0.0, "lat": 38.857970333333334, "type": "electric_bike", "lon": -76.98753716666667, "bike_id": "4225071200ee9994152043fed3c9ad74", "rental_uris": {"android": "https://dc.lft.to/lastmile_qr_scan", "ios": "https://dc.lft.to/lastmile_qr_scan"}, "name": "4225071200ee9994152043fed3c9ad74", "is_reserved": 0}, {"is_disabled": 0, "fusion_lon": 0.0, "fusion_lat": 0.0, "lat": 38.921322833333335, "type": "electric_scooter", "lon": -77.043974, "bike_id": "8f0cceb2e0369b0e91ffe28cb9791de4", "rental_uris": {"android": "https://dc.lft.to/lastmile_qr_scan", "ios": "https://dc.lft.to/lastmile_qr_scan"}, "name": "8f0cceb2e0369b0e91ffe28cb9791de4", "is_reserved": 0}, {"is_disabled": 0, "fusion_lon": 0.0, "fusion_lat": 0.0, "lat": 38.917786166666666, "type": "electric_scooter", "lon": -77.04150583333333, "bike_id": "48ab27e53fa276bc6e06d4b7bf78cf06", "rental_uris": {"android": "https://dc.lft.to/lastmile_qr_scan", "ios": "https://dc.lft.to/lastmile_qr_scan"}, "name": "48ab27e53fa276bc6e06d4b7bf78cf06", "is_reserved": 0}, {"is_disabled": 0, "fusion_lon": 0.0, "fusion_lat": 0.0, "lat": 38.943272, "type": "electric_bike", "lon": -77.01473333333334, "bike_id": "ab0471dab34977fa3f787f0bdfd2bfbf", "rental_uris": {"android": "https://dc.lft.to/lastmile_qr_scan", "ios": "https://dc.lft.to/lastmile_qr_scan"}, "name": "ab0471dab34977fa3f787f0bdfd2bfbf", "is_reserved": 0}, {"is_disabled": 0, "fusion_lon": 0.0, "fusion_lat": 0.0, "lat": 38.905767833333336, "type": "electric_scooter", "lon": -77.0559545, "bike_id": "29827fadeb4f9563d8d41140a9b1fe70", "rental_uris": {"android": "https://dc.lft.to/lastmile_qr_scan", "ios": "https://dc.lft.to/lastmile_qr_scan"}, "name": "29827fadeb4f9563d8d41140a9b1fe70", "is_reserved": 0}, {"is_disabled": 0, "fusion_lon": 0.0, "fusion_lat": 0.0, "lat": 38.90867983333333, "type": "electric_scooter", "lon": -77.0355095, "bike_id": "933ba1d1c182fb222e3265747b529d92", "rental_uris": {"android": "https://dc.lft.to/lastmile_qr_scan", "ios": "https://dc.lft.to/lastmile_qr_scan"}, "name": "933ba1d1c182fb222e3265747b529d92", "is_reserved": 0}, {"is_disabled": 0, "fusion_lon": 0.0, "fusion_lat": 0.0, "lat": 38.87618716666667, "type": "electric_scooter", "lon": -76.96534033333333, "bike_id": "4b1b316721f6f8f7faedf422171aa799", "rental_uris": {"android": "https://dc.lft.to/lastmile_qr_scan", "ios": "https://dc.lft.to/lastmile_qr_scan"}, "name": "4b1b316721f6f8f7faedf422171aa799", "is_reserved": 0}, {"is_disabled": 0, "fusion_lon": 0.0, "fusion_lat": 0.0, "lat": 38.920048666666666, "type": "electric_scooter", "lon": -76.98493716666667, "bike_id": "8a22cda69d8af905ed7ff1b5dba6d805", "rental_uris": {"android": "https://dc.lft.to/lastmile_qr_scan", "ios": "https://dc.lft.to/lastmile_qr_scan"}, "name": "8a22cda69d8af905ed7ff1b5dba6d805", "is_reserved": 0}, {"is_disabled": 0, "fusion_lon": 0.0, "fusion_lat": 0.0, "lat": 38.91912033333333, "type": "electric_scooter", "lon": -77.04812266666667, "bike_id": "e04d2865e0b96181a07c4bd4643b0846", "rental_uris": {"android": "https://dc.lft.to/lastmile_qr_scan", "ios": "https://dc.lft.to/lastmile_qr_scan"}, "name": "e04d2865e0b96181a07c4bd4643b0846", "is_reserved": 0}, {"is_disabled": 0, "fusion_lon": 0.0, "fusion_lat": 0.0, "lat": 38.852039166666664, "type": "electric_bike", "lon": -77.10129866666666, "bike_id": "3ec6e2378582cbb84004f7e5ffad5e26", "rental_uris": {"android": "https://dc.lft.to/lastmile_qr_scan", "ios": "https://dc.lft.to/lastmile_qr_scan"}, "name": "3ec6e2378582cbb84004f7e5ffad5e26", "is_reserved": 0}, {"is_disabled": 0, "fusion_lon": 0.0, "fusion_lat": 0.0, "lat": 38.92899966666667, "type": "electric_scooter", "lon": -77.022648, "bike_id": "938391e2ea486cbd2634b20e5d97e021", "rental_uris": {"android": "https://dc.lft.to/lastmile_qr_scan", "ios": "https://dc.lft.to/lastmile_qr_scan"}, "name": "938391e2ea486cbd2634b20e5d97e021", "is_reserved": 0}, {"is_disabled": 0, "fusion_lon": 0.0, "fusion_lat": 0.0, "lat": 38.904166333333336, "type": "electric_scooter", "lon": -76.98547433333333, "bike_id": "6d61e0dd9c6f5974b30683a29707a104", "rental_uris": {"android": "https://dc.lft.to/lastmile_qr_scan", "ios": "https://dc.lft.to/lastmile_qr_scan"}, "name": "6d61e0dd9c6f5974b30683a29707a104", "is_reserved": 0}, {"is_disabled": 0, "fusion_lon": 0.0, "fusion_lat": 0.0, "lat": 38.91860783333333, "type": "electric_bike", "lon": -76.9608875, "bike_id": "f69ec944e94c62d5ca9bc4343334f688", "rental_uris": {"android": "https://dc.lft.to/lastmile_qr_scan", "ios": "https://dc.lft.to/lastmile_qr_scan"}, "name": "f69ec944e94c62d5ca9bc4343334f688", "is_reserved": 0}, {"is_disabled": 0, "fusion_lon": 0.0, "fusion_lat": 0.0, "lat": 38.937036166666665, "type": "electric_scooter", "lon": -77.06101183333334, "bike_id": "9b9db311df6b4b59732a75db3486e41a", "rental_uris": {"android": "https://dc.lft.to/lastmile_qr_scan", "ios": "https://dc.lft.to/lastmile_qr_scan"}, "name": "9b9db311df6b4b59732a75db3486e41a", "is_reserved": 0}, {"is_disabled": 0, "fusion_lon": 0.0, "fusion_lat": 0.0, "lat": 38.9068675, "type": "electric_scooter", "lon": -77.06285216666667, "bike_id": "3f949dd4212b768ba76276ab53ebbc29", "rental_uris": {"android": "https://dc.lft.to/lastmile_qr_scan", "ios": "https://dc.lft.to/lastmile_qr_scan"}, "name": "3f949dd4212b768ba76276ab53ebbc29", "is_reserved": 0}, {"is_disabled": 0, "fusion_lon": 0.0, "fusion_lat": 0.0, "lat": 38.938274, "type": "electric_scooter", "lon": -77.027948, "bike_id": "b8514e1c5f5e6e788258f53afe645644", "rental_uris": {"android": "https://dc.lft.to/lastmile_qr_scan", "ios": "https://dc.lft.to/lastmile_qr_scan"}, "name": "b8514e1c5f5e6e788258f53afe645644", "is_reserved": 0}, {"is_disabled": 0, "fusion_lon": 0.0, "fusion_lat": 0.0, "lat": 38.949401, "type": "electric_bike", "lon": -77.00770916666667, "bike_id": "36b6a9f414ec04d440f2537af9e990fa", "rental_uris": {"android": "https://dc.lft.to/lastmile_qr_scan", "ios": "https://dc.lft.to/lastmile_qr_scan"}, "name": "36b6a9f414ec04d440f2537af9e990fa", "is_reserved": 0}, {"is_disabled": 0, "fusion_lon": 0.0, "fusion_lat": 0.0, "lat": 38.90031333333334, "type": "electric_scooter", "lon": -76.99169216666667, "bike_id": "501d3aa52561833400d92a73ca51b9d6", "rental_uris": {"android": "https://dc.lft.to/lastmile_qr_scan", "ios": "https://dc.lft.to/lastmile_qr_scan"}, "name": "501d3aa52561833400d92a73ca51b9d6", "is_reserved": 0}, {"is_disabled": 0, "fusion_lon": 0.0, "fusion_lat": 0.0, "lat": 38.911149, "type": "electric_scooter", "lon": -77.0450515, "bike_id": "010485b453be71f9dfb5c03fb1dae3f2", "rental_uris": {"android": "https://dc.lft.to/lastmile_qr_scan", "ios": "https://dc.lft.to/lastmile_qr_scan"}, "name": "010485b453be71f9dfb5c03fb1dae3f2", "is_reserved": 0}, {"is_disabled": 0, "fusion_lon": 0.0, "fusion_lat": 0.0, "lat": 38.91428766666667, "type": "electric_scooter", "lon": -77.0142325, "bike_id": "c30317bc6f9547e5f998ce9c9c57053a", "rental_uris": {"android": "https://dc.lft.to/lastmile_qr_scan", "ios": "https://dc.lft.to/lastmile_qr_scan"}, "name": "c30317bc6f9547e5f998ce9c9c57053a", "is_reserved": 0}, {"is_disabled": 0, "fusion_lon": 0.0, "fusion_lat": 0.0, "lat": 38.916951833333336, "type": "electric_scooter", "lon": -77.00642183333333, "bike_id": "d3a9287f17e739bf41b1514a95b1af72", "rental_uris": {"android": "https://dc.lft.to/lastmile_qr_scan", "ios": "https://dc.lft.to/lastmile_qr_scan"}, "name": "d3a9287f17e739bf41b1514a95b1af72", "is_reserved": 0}, {"is_disabled": 0, "fusion_lon": 0.0, "fusion_lat": 0.0, "lat": 38.866, "type": "electric_bike", "lon": -76.9321875, "bike_id": "83827a9617de6ea551d23a729a2dc182", "rental_uris": {"android": "https://dc.lft.to/lastmile_qr_scan", "ios": "https://dc.lft.to/lastmile_qr_scan"}, "name": "83827a9617de6ea551d23a729a2dc182", "is_reserved": 0}, {"is_disabled": 0, "fusion_lon": 0.0, "fusion_lat": 0.0, "lat": 38.852038, "type": "electric_bike", "lon": -77.12764916666667, "bike_id": "f2e3fef750957444c7ab8ab38f8feeda", "rental_uris": {"android": "https://dc.lft.to/lastmile_qr_scan", "ios": "https://dc.lft.to/lastmile_qr_scan"}, "name": "f2e3fef750957444c7ab8ab38f8feeda", "is_reserved": 0}, {"is_disabled": 0, "fusion_lon": 0.0, "fusion_lat": 0.0, "lat": 38.89252366666667, "type": "electric_scooter", "lon": -76.99853216666666, "bike_id": "90612c05f8f42f419d9e63ac93025577", "rental_uris": {"android": "https://dc.lft.to/lastmile_qr_scan", "ios": "https://dc.lft.to/lastmile_qr_scan"}, "name": "90612c05f8f42f419d9e63ac93025577", "is_reserved": 0}, {"is_disabled": 0, "fusion_lon": 0.0, "fusion_lat": 0.0, "lat": 38.902922333333336, "type": "electric_scooter", "lon": -77.05073133333333, "bike_id": "227ded006678236bc29467d8c7692b01", "rental_uris": {"android": "https://dc.lft.to/lastmile_qr_scan", "ios": "https://dc.lft.to/lastmile_qr_scan"}, "name": "227ded006678236bc29467d8c7692b01", "is_reserved": 0}, {"is_disabled": 0, "fusion_lon": 0.0, "fusion_lat": 0.0, "lat": 38.926854666666664, "type": "electric_scooter", "lon": -77.03774133333333, "bike_id": "56fc00fceffed588aef8a8442476683e", "rental_uris": {"android": "https://dc.lft.to/lastmile_qr_scan", "ios": "https://dc.lft.to/lastmile_qr_scan"}, "name": "56fc00fceffed588aef8a8442476683e", "is_reserved": 0}, {"is_disabled": 0, "fusion_lon": 0.0, "fusion_lat": 0.0, "lat": 38.89744966666667, "type": "electric_scooter", "lon": -77.0514545, "bike_id": "328679f85ccc748ae3a6f6a27e6c9f75", "rental_uris": {"android": "https://dc.lft.to/lastmile_qr_scan", "ios": "https://dc.lft.to/lastmile_qr_scan"}, "name": "328679f85ccc748ae3a6f6a27e6c9f75", "is_reserved": 0}, {"is_disabled": 0, "fusion_lon": 0.0, "fusion_lat": 0.0, "lat": 38.9360835, "type": "electric_scooter", "lon": -77.058595, "bike_id": "c9094872794fbac39251720c9f689b0c", "rental_uris": {"android": "https://dc.lft.to/lastmile_qr_scan", "ios": "https://dc.lft.to/lastmile_qr_scan"}, "name": "c9094872794fbac39251720c9f689b0c", "is_reserved": 0}, {"is_disabled": 0, "fusion_lon": 0.0, "fusion_lat": 0.0, "lat": 38.92443216666667, "type": "electric_bike", "lon": -76.90758066666666, "bike_id": "10211cf5ac4ae95b1e51074532b2439c", "rental_uris": {"android": "https://dc.lft.to/lastmile_qr_scan", "ios": "https://dc.lft.to/lastmile_qr_scan"}, "name": "10211cf5ac4ae95b1e51074532b2439c", "is_reserved": 0}, {"is_disabled": 0, "fusion_lon": 0.0, "fusion_lat": 0.0, "lat": 38.9034165, "type": "electric_scooter", "lon": -77.03865283333333, "bike_id": "24f5fa32a34911143cb4b3ab747490ed", "rental_uris": {"android": "https://dc.lft.to/lastmile_qr_scan", "ios": "https://dc.lft.to/lastmile_qr_scan"}, "name": "24f5fa32a34911143cb4b3ab747490ed", "is_reserved": 0}, {"is_disabled": 0, "fusion_lon": 0.0, "fusion_lat": 0.0, "lat": 38.896714333333335, "type": "electric_bike", "lon": -76.98164083333333, "bike_id": "76a1a2ce594c0578888c765b3d200e02", "rental_uris": {"android": "https://dc.lft.to/lastmile_qr_scan", "ios": "https://dc.lft.to/lastmile_qr_scan"}, "name": "76a1a2ce594c0578888c765b3d200e02", "is_reserved": 0}, {"is_disabled": 0, "fusion_lon": 0.0, "fusion_lat": 0.0, "lat": 38.90016633333333, "type": "electric_scooter", "lon": -77.03401983333333, "bike_id": "d14f402504da55c60cb4a40d02a8c0c5", "rental_uris": {"android": "https://dc.lft.to/lastmile_qr_scan", "ios": "https://dc.lft.to/lastmile_qr_scan"}, "name": "d14f402504da55c60cb4a40d02a8c0c5", "is_reserved": 0}, {"is_disabled": 0, "fusion_lon": 0.0, "fusion_lat": 0.0, "lat": 38.899547166666665, "type": "electric_scooter", "lon": -77.00211483333334, "bike_id": "e62ab861072ffebb6e760328db758e97", "rental_uris": {"android": "https://dc.lft.to/lastmile_qr_scan", "ios": "https://dc.lft.to/lastmile_qr_scan"}, "name": "e62ab861072ffebb6e760328db758e97", "is_reserved": 0}, {"is_disabled": 0, "fusion_lon": 0.0, "fusion_lat": 0.0, "lat": 38.871951, "type": "electric_scooter", "lon": -76.978209, "bike_id": "8c566e03ce612a18ae0294a5d88015ed", "rental_uris": {"android": "https://dc.lft.to/lastmile_qr_scan", "ios": "https://dc.lft.to/lastmile_qr_scan"}, "name": "8c566e03ce612a18ae0294a5d88015ed", "is_reserved": 0}, {"is_disabled": 0, "fusion_lon": 0.0, "fusion_lat": 0.0, "lat": 38.89693166666667, "type": "electric_scooter", "lon": -77.01155966666667, "bike_id": "acb54a774d88d1526b22a9af2e2d8b9d", "rental_uris": {"android": "https://dc.lft.to/lastmile_qr_scan", "ios": "https://dc.lft.to/lastmile_qr_scan"}, "name": "acb54a774d88d1526b22a9af2e2d8b9d", "is_reserved": 0}, {"is_disabled": 0, "fusion_lon": 0.0, "fusion_lat": 0.0, "lat": 38.904227166666665, "type": "electric_scooter", "lon": -77.06886066666667, "bike_id": "72069226c5925c1eb4e6497a3b5ef348", "rental_uris": {"android": "https://dc.lft.to/lastmile_qr_scan", "ios": "https://dc.lft.to/lastmile_qr_scan"}, "name": "72069226c5925c1eb4e6497a3b5ef348", "is_reserved": 0}, {"is_disabled": 0, "fusion_lon": 0.0, "fusion_lat": 0.0, "lat": 38.905993333333335, "type": "electric_scooter", "lon": -77.06915683333334, "bike_id": "76b37cea7f98c8271c90c4bedac3971a", "rental_uris": {"android": "https://dc.lft.to/lastmile_qr_scan", "ios": "https://dc.lft.to/lastmile_qr_scan"}, "name": "76b37cea7f98c8271c90c4bedac3971a", "is_reserved": 0}, {"is_disabled": 0, "fusion_lon": 0.0, "fusion_lat": 0.0, "lat": 38.961379666666666, "type": "electric_scooter", "lon": -77.02810933333333, "bike_id": "95720e4fc0a0bed69870277409607660", "rental_uris": {"android": "https://dc.lft.to/lastmile_qr_scan", "ios": "https://dc.lft.to/lastmile_qr_scan"}, "name": "95720e4fc0a0bed69870277409607660", "is_reserved": 0}, {"is_disabled": 0, "fusion_lon": 0.0, "fusion_lat": 0.0, "lat": 38.908054166666666, "type": "electric_scooter", "lon": -77.00141466666666, "bike_id": "3653c1a2ab90c761e032eb57f1f76da1", "rental_uris": {"android": "https://dc.lft.to/lastmile_qr_scan", "ios": "https://dc.lft.to/lastmile_qr_scan"}, "name": "3653c1a2ab90c761e032eb57f1f76da1", "is_reserved": 0}, {"is_disabled": 0, "fusion_lon": 0.0, "fusion_lat": 0.0, "lat": 38.889177, "type": "electric_scooter", "lon": -76.98010516666666, "bike_id": "5bd6fa816a0339d57d9e6efec1194666", "rental_uris": {"android": "https://dc.lft.to/lastmile_qr_scan", "ios": "https://dc.lft.to/lastmile_qr_scan"}, "name": "5bd6fa816a0339d57d9e6efec1194666", "is_reserved": 0}, {"is_disabled": 0, "fusion_lon": 0.0, "fusion_lat": 0.0, "lat": 38.9288335, "type": "electric_scooter", "lon": -77.0372945, "bike_id": "366ae6cb361902249c15db62988a9e9a", "rental_uris": {"android": "https://dc.lft.to/lastmile_qr_scan", "ios": "https://dc.lft.to/lastmile_qr_scan"}, "name": "366ae6cb361902249c15db62988a9e9a", "is_reserved": 0}, {"is_disabled": 0, "fusion_lon": 0.0, "fusion_lat": 0.0, "lat": 38.91223333333333, "type": "electric_scooter", "lon": -76.984433, "bike_id": "f9c7dbc1169d3708da0a96ae199ace5a", "rental_uris": {"android": "https://dc.lft.to/lastmile_qr_scan", "ios": "https://dc.lft.to/lastmile_qr_scan"}, "name": "f9c7dbc1169d3708da0a96ae199ace5a", "is_reserved": 0}, {"is_disabled": 0, "fusion_lon": 0.0, "fusion_lat": 0.0, "lat": 38.92672316666667, "type": "electric_scooter", "lon": -77.10311516666667, "bike_id": "3af47ff7f62cb729f917f1ade7b20e86", "rental_uris": {"android": "https://dc.lft.to/lastmile_qr_scan", "ios": "https://dc.lft.to/lastmile_qr_scan"}, "name": "3af47ff7f62cb729f917f1ade7b20e86", "is_reserved": 0}, {"is_disabled": 0, "fusion_lon": 0.0, "fusion_lat": 0.0, "lat": 38.94701283333333, "type": "electric_scooter", "lon": -77.01943683333333, "bike_id": "0b7cb2562de6c794f6305a3a50690e08", "rental_uris": {"android": "https://dc.lft.to/lastmile_qr_scan", "ios": "https://dc.lft.to/lastmile_qr_scan"}, "name": "0b7cb2562de6c794f6305a3a50690e08", "is_reserved": 0}, {"is_disabled": 0, "fusion_lon": 0.0, "fusion_lat": 0.0, "lat": 38.906130833333336, "type": "electric_scooter", "lon": -77.05723966666666, "bike_id": "b024c624b3f549eabb1bb9c51d4e7743", "rental_uris": {"android": "https://dc.lft.to/lastmile_qr_scan", "ios": "https://dc.lft.to/lastmile_qr_scan"}, "name": "b024c624b3f549eabb1bb9c51d4e7743", "is_reserved": 0}, {"is_disabled": 0, "fusion_lon": 0.0, "fusion_lat": 0.0, "lat": 38.91962083333333, "type": "electric_scooter", "lon": -77.0271465, "bike_id": "92d0b1fd1e91b9535e56e13bd69e2f7e", "rental_uris": {"android": "https://dc.lft.to/lastmile_qr_scan", "ios": "https://dc.lft.to/lastmile_qr_scan"}, "name": "92d0b1fd1e91b9535e56e13bd69e2f7e", "is_reserved": 0}, {"is_disabled": 0, "fusion_lon": 0.0, "fusion_lat": 0.0, "lat": 38.921709166666666, "type": "electric_scooter", "lon": -77.055289, "bike_id": "19c67ee3f918f7edff4c1b9a398c0f3d", "rental_uris": {"android": "https://dc.lft.to/lastmile_qr_scan", "ios": "https://dc.lft.to/lastmile_qr_scan"}, "name": "19c67ee3f918f7edff4c1b9a398c0f3d", "is_reserved": 0}, {"is_disabled": 0, "fusion_lon": 0.0, "fusion_lat": 0.0, "lat": 38.923913666666664, "type": "electric_scooter", "lon": -77.02963466666667, "bike_id": "fadee457655e864345ee8348e368e329", "rental_uris": {"android": "https://dc.lft.to/lastmile_qr_scan", "ios": "https://dc.lft.to/lastmile_qr_scan"}, "name": "fadee457655e864345ee8348e368e329", "is_reserved": 0}, {"is_disabled": 0, "fusion_lon": 0.0, "fusion_lat": 0.0, "lat": 38.922307, "type": "electric_scooter", "lon": -76.975324, "bike_id": "46b80b854db0fc123c65f39eacd672fc", "rental_uris": {"android": "https://dc.lft.to/lastmile_qr_scan", "ios": "https://dc.lft.to/lastmile_qr_scan"}, "name": "46b80b854db0fc123c65f39eacd672fc", "is_reserved": 0}, {"is_disabled": 0, "fusion_lon": 0.0, "fusion_lat": 0.0, "lat": 38.91083283333333, "type": "electric_scooter", "lon": -77.015135, "bike_id": "a11b8c67475e92bbfac87bf961d7900e", "rental_uris": {"android": "https://dc.lft.to/lastmile_qr_scan", "ios": "https://dc.lft.to/lastmile_qr_scan"}, "name": "a11b8c67475e92bbfac87bf961d7900e", "is_reserved": 0}, {"is_disabled": 0, "fusion_lon": 0.0, "fusion_lat": 0.0, "lat": 38.924611666666664, "type": "electric_scooter", "lon": -77.02147766666667, "bike_id": "543df0434665c8a430bfa98a8fd1e8a2", "rental_uris": {"android": "https://dc.lft.to/lastmile_qr_scan", "ios": "https://dc.lft.to/lastmile_qr_scan"}, "name": "543df0434665c8a430bfa98a8fd1e8a2", "is_reserved": 0}, {"is_disabled": 0, "fusion_lon": 0.0, "fusion_lat": 0.0, "lat": 38.90509733333333, "type": "electric_scooter", "lon": -77.02969983333334, "bike_id": "bf9be73ee20f229c65930d9c0fc61905", "rental_uris": {"android": "https://dc.lft.to/lastmile_qr_scan", "ios": "https://dc.lft.to/lastmile_qr_scan"}, "name": "bf9be73ee20f229c65930d9c0fc61905", "is_reserved": 0}, {"is_disabled": 0, "fusion_lon": 0.0, "fusion_lat": 0.0, "lat": 38.884692, "type": "electric_scooter", "lon": -76.95226166666667, "bike_id": "4d06e686b7905b03c49400dc311fe080", "rental_uris": {"android": "https://dc.lft.to/lastmile_qr_scan", "ios": "https://dc.lft.to/lastmile_qr_scan"}, "name": "4d06e686b7905b03c49400dc311fe080", "is_reserved": 0}, {"is_disabled": 0, "fusion_lon": 0.0, "fusion_lat": 0.0, "lat": 38.9054345, "type": "electric_scooter", "lon": -77.0057855, "bike_id": "17b85a403bb97c86b26cb48d091e246b", "rental_uris": {"android": "https://dc.lft.to/lastmile_qr_scan", "ios": "https://dc.lft.to/lastmile_qr_scan"}, "name": "17b85a403bb97c86b26cb48d091e246b", "is_reserved": 0}, {"is_disabled": 0, "fusion_lon": 0.0, "fusion_lat": 0.0, "lat": 38.90644066666667, "type": "electric_scooter", "lon": -77.04520916666667, "bike_id": "cb04f883599e765845d0e7b034b91dc2", "rental_uris": {"android": "https://dc.lft.to/lastmile_qr_scan", "ios": "https://dc.lft.to/lastmile_qr_scan"}, "name": "cb04f883599e765845d0e7b034b91dc2", "is_reserved": 0}, {"is_disabled": 0, "fusion_lon": 0.0, "fusion_lat": 0.0, "lat": 38.9191465, "type": "electric_scooter", "lon": -77.03100466666666, "bike_id": "c9b071e9484d55d61f184d54e50a3414", "rental_uris": {"android": "https://dc.lft.to/lastmile_qr_scan", "ios": "https://dc.lft.to/lastmile_qr_scan"}, "name": "c9b071e9484d55d61f184d54e50a3414", "is_reserved": 0}, {"is_disabled": 0, "fusion_lon": 0.0, "fusion_lat": 0.0, "lat": 39.00783466666667, "type": "electric_bike", "lon": -76.99564, "bike_id": "93c4b095048054d903e580d82841e70b", "rental_uris": {"android": "https://dc.lft.to/lastmile_qr_scan", "ios": "https://dc.lft.to/lastmile_qr_scan"}, "name": "93c4b095048054d903e580d82841e70b", "is_reserved": 0}, {"is_disabled": 0, "fusion_lon": 0.0, "fusion_lat": 0.0, "lat": 38.90513466666667, "type": "electric_scooter", "lon": -76.98251666666667, "bike_id": "5d55dc376988500f011b168bcd5410a6", "rental_uris": {"android": "https://dc.lft.to/lastmile_qr_scan", "ios": "https://dc.lft.to/lastmile_qr_scan"}, "name": "5d55dc376988500f011b168bcd5410a6", "is_reserved": 0}, {"is_disabled": 0, "fusion_lon": 0.0, "fusion_lat": 0.0, "lat": 38.83427533333333, "type": "electric_bike", "lon": -77.103506, "bike_id": "b2e8ef6f03697285b73f5722a2cd5286", "rental_uris": {"android": "https://dc.lft.to/lastmile_qr_scan", "ios": "https://dc.lft.to/lastmile_qr_scan"}, "name": "b2e8ef6f03697285b73f5722a2cd5286", "is_reserved": 0}, {"is_disabled": 0, "fusion_lon": 0.0, "fusion_lat": 0.0, "lat": 38.92331566666667, "type": "electric_scooter", "lon": -77.0358605, "bike_id": "4023526a7714edf349d16ad615de55d1", "rental_uris": {"android": "https://dc.lft.to/lastmile_qr_scan", "ios": "https://dc.lft.to/lastmile_qr_scan"}, "name": "4023526a7714edf349d16ad615de55d1", "is_reserved": 0}, {"is_disabled": 0, "fusion_lon": 0.0, "fusion_lat": 0.0, "lat": 38.9166405, "type": "electric_scooter", "lon": -77.03851133333333, "bike_id": "39ad0c88708de4caeac0fa022b125f50", "rental_uris": {"android": "https://dc.lft.to/lastmile_qr_scan", "ios": "https://dc.lft.to/lastmile_qr_scan"}, "name": "39ad0c88708de4caeac0fa022b125f50", "is_reserved": 0}, {"is_disabled": 0, "fusion_lon": 0.0, "fusion_lat": 0.0, "lat": 38.91862733333333, "type": "electric_bike", "lon": -76.96090016666666, "bike_id": "5ee2aab4a0fe0ce1d083088be92f1041", "rental_uris": {"android": "https://dc.lft.to/lastmile_qr_scan", "ios": "https://dc.lft.to/lastmile_qr_scan"}, "name": "5ee2aab4a0fe0ce1d083088be92f1041", "is_reserved": 0}, {"is_disabled": 0, "fusion_lon": 0.0, "fusion_lat": 0.0, "lat": 38.90567033333333, "type": "electric_scooter", "lon": -77.02466766666667, "bike_id": "3463740eb8b4444e244d86afb13706c4", "rental_uris": {"android": "https://dc.lft.to/lastmile_qr_scan", "ios": "https://dc.lft.to/lastmile_qr_scan"}, "name": "3463740eb8b4444e244d86afb13706c4", "is_reserved": 0}, {"is_disabled": 0, "fusion_lon": 0.0, "fusion_lat": 0.0, "lat": 38.9284725, "type": "electric_scooter", "lon": -77.05630633333334, "bike_id": "0c01e4be6d4a6c6b86bef0292bda7f09", "rental_uris": {"android": "https://dc.lft.to/lastmile_qr_scan", "ios": "https://dc.lft.to/lastmile_qr_scan"}, "name": "0c01e4be6d4a6c6b86bef0292bda7f09", "is_reserved": 0}, {"is_disabled": 0, "fusion_lon": 0.0, "fusion_lat": 0.0, "lat": 38.884344166666665, "type": "electric_scooter", "lon": -77.02486083333334, "bike_id": "041cf2c758e3e3229f713e8c94fd56c2", "rental_uris": {"android": "https://dc.lft.to/lastmile_qr_scan", "ios": "https://dc.lft.to/lastmile_qr_scan"}, "name": "041cf2c758e3e3229f713e8c94fd56c2", "is_reserved": 0}, {"is_disabled": 0, "fusion_lon": 0.0, "fusion_lat": 0.0, "lat": 38.916953666666664, "type": "electric_scooter", "lon": -77.04303816666666, "bike_id": "cb4fe0bc9666ef1480b8c2108f986d1e", "rental_uris": {"android": "https://dc.lft.to/lastmile_qr_scan", "ios": "https://dc.lft.to/lastmile_qr_scan"}, "name": "cb4fe0bc9666ef1480b8c2108f986d1e", "is_reserved": 0}, {"is_disabled": 0, "fusion_lon": 0.0, "fusion_lat": 0.0, "lat": 38.91117416666667, "type": "electric_scooter", "lon": -77.03828466666667, "bike_id": "8f1fa868a4cbf55432300e9ca31a1e7b", "rental_uris": {"android": "https://dc.lft.to/lastmile_qr_scan", "ios": "https://dc.lft.to/lastmile_qr_scan"}, "name": "8f1fa868a4cbf55432300e9ca31a1e7b", "is_reserved": 0}, {"is_disabled": 0, "fusion_lon": 0.0, "fusion_lat": 0.0, "lat": 38.91794083333333, "type": "electric_scooter", "lon": -77.034596, "bike_id": "ee65a141e1bc956b4c62be32546b75dc", "rental_uris": {"android": "https://dc.lft.to/lastmile_qr_scan", "ios": "https://dc.lft.to/lastmile_qr_scan"}, "name": "ee65a141e1bc956b4c62be32546b75dc", "is_reserved": 0}, {"is_disabled": 0, "fusion_lon": 0.0, "fusion_lat": 0.0, "lat": 38.94552183333333, "type": "electric_scooter", "lon": -77.0423065, "bike_id": "3f1e298ef65461fd767d2b1b79d0fbc1", "rental_uris": {"android": "https://dc.lft.to/lastmile_qr_scan", "ios": "https://dc.lft.to/lastmile_qr_scan"}, "name": "3f1e298ef65461fd767d2b1b79d0fbc1", "is_reserved": 0}, {"is_disabled": 0, "fusion_lon": 0.0, "fusion_lat": 0.0, "lat": 38.92958933333333, "type": "electric_scooter", "lon": -77.02342166666666, "bike_id": "100f3d155c2a85cc0b5f15773e965b18", "rental_uris": {"android": "https://dc.lft.to/lastmile_qr_scan", "ios": "https://dc.lft.to/lastmile_qr_scan"}, "name": "100f3d155c2a85cc0b5f15773e965b18", "is_reserved": 0}, {"is_disabled": 0, "fusion_lon": 0.0, "fusion_lat": 0.0, "lat": 38.87341883333333, "type": "electric_scooter", "lon": -77.01356383333334, "bike_id": "7d80717ae0fe3ef77264a9ac2067e4de", "rental_uris": {"android": "https://dc.lft.to/lastmile_qr_scan", "ios": "https://dc.lft.to/lastmile_qr_scan"}, "name": "7d80717ae0fe3ef77264a9ac2067e4de", "is_reserved": 0}, {"is_disabled": 0, "fusion_lon": 0.0, "fusion_lat": 0.0, "lat": 38.91415683333334, "type": "electric_scooter", "lon": -77.02229, "bike_id": "adf1547dbe3aefa459d948bc63efefba", "rental_uris": {"android": "https://dc.lft.to/lastmile_qr_scan", "ios": "https://dc.lft.to/lastmile_qr_scan"}, "name": "adf1547dbe3aefa459d948bc63efefba", "is_reserved": 0}, {"is_disabled": 0, "fusion_lon": 0.0, "fusion_lat": 0.0, "lat": 38.87082216666667, "type": "electric_bike", "lon": -77.01211216666667, "bike_id": "be3cd5a52ae35e9d8eab345be1a8b309", "rental_uris": {"android": "https://dc.lft.to/lastmile_qr_scan", "ios": "https://dc.lft.to/lastmile_qr_scan"}, "name": "be3cd5a52ae35e9d8eab345be1a8b309", "is_reserved": 0}, {"is_disabled": 0, "fusion_lon": 0.0, "fusion_lat": 0.0, "lat": 38.914981833333336, "type": "electric_scooter", "lon": -76.98378283333334, "bike_id": "235b2b55363cec15b2009d23f2250eb4", "rental_uris": {"android": "https://dc.lft.to/lastmile_qr_scan", "ios": "https://dc.lft.to/lastmile_qr_scan"}, "name": "235b2b55363cec15b2009d23f2250eb4", "is_reserved": 0}, {"is_disabled": 0, "fusion_lon": 0.0, "fusion_lat": 0.0, "lat": 38.87679466666667, "type": "electric_scooter", "lon": -77.01792866666666, "bike_id": "26814eaaaac2c004662bdd7701bae528", "rental_uris": {"android": "https://dc.lft.to/lastmile_qr_scan", "ios": "https://dc.lft.to/lastmile_qr_scan"}, "name": "26814eaaaac2c004662bdd7701bae528", "is_reserved": 0}, {"is_disabled": 0, "fusion_lon": 0.0, "fusion_lat": 0.0, "lat": 38.926670666666666, "type": "electric_scooter", "lon": -77.043145, "bike_id": "b316c69d28ac7544fb2f2aac8547a644", "rental_uris": {"android": "https://dc.lft.to/lastmile_qr_scan", "ios": "https://dc.lft.to/lastmile_qr_scan"}, "name": "b316c69d28ac7544fb2f2aac8547a644", "is_reserved": 0}, {"is_disabled": 0, "fusion_lon": 0.0, "fusion_lat": 0.0, "lat": 38.93527866666667, "type": "electric_scooter", "lon": -77.020686, "bike_id": "08f2062ea11761d3fa983d0f1a6b2862", "rental_uris": {"android": "https://dc.lft.to/lastmile_qr_scan", "ios": "https://dc.lft.to/lastmile_qr_scan"}, "name": "08f2062ea11761d3fa983d0f1a6b2862", "is_reserved": 0}, {"is_disabled": 0, "fusion_lon": 0.0, "fusion_lat": 0.0, "lat": 38.9193655, "type": "electric_scooter", "lon": -77.0241815, "bike_id": "656f25bbeaf10bf96d183a4947f25e51", "rental_uris": {"android": "https://dc.lft.to/lastmile_qr_scan", "ios": "https://dc.lft.to/lastmile_qr_scan"}, "name": "656f25bbeaf10bf96d183a4947f25e51", "is_reserved": 0}, {"is_disabled": 0, "fusion_lon": 0.0, "fusion_lat": 0.0, "lat": 38.9246055, "type": "electric_scooter", "lon": -76.99902333333333, "bike_id": "45903b2a60efed292616805a81a312b0", "rental_uris": {"android": "https://dc.lft.to/lastmile_qr_scan", "ios": "https://dc.lft.to/lastmile_qr_scan"}, "name": "45903b2a60efed292616805a81a312b0", "is_reserved": 0}, {"is_disabled": 0, "fusion_lon": 0.0, "fusion_lat": 0.0, "lat": 38.941937, "type": "electric_scooter", "lon": -77.02573116666667, "bike_id": "69a87f4baccb98f217e0dde29e78585c", "rental_uris": {"android": "https://dc.lft.to/lastmile_qr_scan", "ios": "https://dc.lft.to/lastmile_qr_scan"}, "name": "69a87f4baccb98f217e0dde29e78585c", "is_reserved": 0}, {"is_disabled": 0, "fusion_lon": 0.0, "fusion_lat": 0.0, "lat": 38.91414816666666, "type": "electric_scooter", "lon": -77.04332666666667, "bike_id": "89530df676c5c2cb56fab3eb3862293a", "rental_uris": {"android": "https://dc.lft.to/lastmile_qr_scan", "ios": "https://dc.lft.to/lastmile_qr_scan"}, "name": "89530df676c5c2cb56fab3eb3862293a", "is_reserved": 0}, {"is_disabled": 0, "fusion_lon": 0.0, "fusion_lat": 0.0, "lat": 38.9084115, "type": "electric_scooter", "lon": -77.02693016666667, "bike_id": "1aae861db95bcd70137051936dd5ae33", "rental_uris": {"android": "https://dc.lft.to/lastmile_qr_scan", "ios": "https://dc.lft.to/lastmile_qr_scan"}, "name": "1aae861db95bcd70137051936dd5ae33", "is_reserved": 0}, {"is_disabled": 0, "fusion_lon": 0.0, "fusion_lat": 0.0, "lat": 38.94980116666667, "type": "electric_scooter", "lon": -77.067673, "bike_id": "6f8a2a171609a01705fb934fb6f92782", "rental_uris": {"android": "https://dc.lft.to/lastmile_qr_scan", "ios": "https://dc.lft.to/lastmile_qr_scan"}, "name": "6f8a2a171609a01705fb934fb6f92782", "is_reserved": 0}, {"is_disabled": 0, "fusion_lon": 0.0, "fusion_lat": 0.0, "lat": 38.93321483333333, "type": "electric_scooter", "lon": -77.0293095, "bike_id": "c0481ff129244d3f6d63245dafd21974", "rental_uris": {"android": "https://dc.lft.to/lastmile_qr_scan", "ios": "https://dc.lft.to/lastmile_qr_scan"}, "name": "c0481ff129244d3f6d63245dafd21974", "is_reserved": 0}, {"is_disabled": 0, "fusion_lon": 0.0, "fusion_lat": 0.0, "lat": 38.9683105, "type": "electric_scooter", "lon": -77.01514016666667, "bike_id": "1a34849fec0127c26427ba1947016e1a", "rental_uris": {"android": "https://dc.lft.to/lastmile_qr_scan", "ios": "https://dc.lft.to/lastmile_qr_scan"}, "name": "1a34849fec0127c26427ba1947016e1a", "is_reserved": 0}, {"is_disabled": 0, "fusion_lon": 0.0, "fusion_lat": 0.0, "lat": 38.897447166666666, "type": "electric_scooter", "lon": -77.0277175, "bike_id": "6a0dc61052d10043de1e3bfaddbb7a5a", "rental_uris": {"android": "https://dc.lft.to/lastmile_qr_scan", "ios": "https://dc.lft.to/lastmile_qr_scan"}, "name": "6a0dc61052d10043de1e3bfaddbb7a5a", "is_reserved": 0}, {"is_disabled": 0, "fusion_lon": 0.0, "fusion_lat": 0.0, "lat": 39.00009933333333, "type": "electric_bike", "lon": -76.918071, "bike_id": "663691f2316817a158fe9fceb61d6f62", "rental_uris": {"android": "https://dc.lft.to/lastmile_qr_scan", "ios": "https://dc.lft.to/lastmile_qr_scan"}, "name": "663691f2316817a158fe9fceb61d6f62", "is_reserved": 0}, {"is_disabled": 0, "fusion_lon": 0.0, "fusion_lat": 0.0, "lat": 38.92404783333333, "type": "electric_scooter", "lon": -77.051667, "bike_id": "55ba495a31bf1c414635b86d58d05590", "rental_uris": {"android": "https://dc.lft.to/lastmile_qr_scan", "ios": "https://dc.lft.to/lastmile_qr_scan"}, "name": "55ba495a31bf1c414635b86d58d05590", "is_reserved": 0}, {"is_disabled": 0, "fusion_lon": 0.0, "fusion_lat": 0.0, "lat": 38.858088, "type": "electric_scooter", "lon": -76.98652033333333, "bike_id": "b097a45b3703f6053ab5393dd5759663", "rental_uris": {"android": "https://dc.lft.to/lastmile_qr_scan", "ios": "https://dc.lft.to/lastmile_qr_scan"}, "name": "b097a45b3703f6053ab5393dd5759663", "is_reserved": 0}, {"is_disabled": 0, "fusion_lon": 0.0, "fusion_lat": 0.0, "lat": 38.915862, "type": "electric_scooter", "lon": -76.98114933333333, "bike_id": "5711033c5d120c2798a9e554949ea9e5", "rental_uris": {"android": "https://dc.lft.to/lastmile_qr_scan", "ios": "https://dc.lft.to/lastmile_qr_scan"}, "name": "5711033c5d120c2798a9e554949ea9e5", "is_reserved": 0}, {"is_disabled": 0, "fusion_lon": 0.0, "fusion_lat": 0.0, "lat": 38.928368166666665, "type": "electric_scooter", "lon": -77.01412566666667, "bike_id": "f621d1161ed33b892b72569cc67090df", "rental_uris": {"android": "https://dc.lft.to/lastmile_qr_scan", "ios": "https://dc.lft.to/lastmile_qr_scan"}, "name": "f621d1161ed33b892b72569cc67090df", "is_reserved": 0}, {"is_disabled": 0, "fusion_lon": 0.0, "fusion_lat": 0.0, "lat": 38.846002, "type": "electric_bike", "lon": -76.968791, "bike_id": "96b69d2685b0a2d9b8a3d3c5942750bd", "rental_uris": {"android": "https://dc.lft.to/lastmile_qr_scan", "ios": "https://dc.lft.to/lastmile_qr_scan"}, "name": "96b69d2685b0a2d9b8a3d3c5942750bd", "is_reserved": 0}, {"is_disabled": 0, "fusion_lon": 0.0, "fusion_lat": 0.0, "lat": 38.96753833333333, "type": "electric_bike", "lon": -77.09154816666667, "bike_id": "2762d5098c1f592a5c0180e3f6027dd7", "rental_uris": {"android": "https://dc.lft.to/lastmile_qr_scan", "ios": "https://dc.lft.to/lastmile_qr_scan"}, "name": "2762d5098c1f592a5c0180e3f6027dd7", "is_reserved": 0}, {"is_disabled": 0, "fusion_lon": 0.0, "fusion_lat": 0.0, "lat": 38.924796, "type": "electric_scooter", "lon": -77.0348555, "bike_id": "8159728dfec3e45370a5607411189c13", "rental_uris": {"android": "https://dc.lft.to/lastmile_qr_scan", "ios": "https://dc.lft.to/lastmile_qr_scan"}, "name": "8159728dfec3e45370a5607411189c13", "is_reserved": 0}, {"is_disabled": 0, "fusion_lon": 0.0, "fusion_lat": 0.0, "lat": 38.863146, "type": "electric_scooter", "lon": -76.990375, "bike_id": "00098fabc112156f7860d17c8ea38aad", "rental_uris": {"android": "https://dc.lft.to/lastmile_qr_scan", "ios": "https://dc.lft.to/lastmile_qr_scan"}, "name": "00098fabc112156f7860d17c8ea38aad", "is_reserved": 0}, {"is_disabled": 0, "fusion_lon": 0.0, "fusion_lat": 0.0, "lat": 38.842001833333335, "type": "electric_bike", "lon": -77.1068715, "bike_id": "2e30e69af7a44ad5c95e94edd73bf01d", "rental_uris": {"android": "https://dc.lft.to/lastmile_qr_scan", "ios": "https://dc.lft.to/lastmile_qr_scan"}, "name": "2e30e69af7a44ad5c95e94edd73bf01d", "is_reserved": 0}, {"is_disabled": 0, "fusion_lon": 0.0, "fusion_lat": 0.0, "lat": 38.893682166666665, "type": "electric_scooter", "lon": -77.0226595, "bike_id": "17e9bcde135daaceaa8745118ddb93b0", "rental_uris": {"android": "https://dc.lft.to/lastmile_qr_scan", "ios": "https://dc.lft.to/lastmile_qr_scan"}, "name": "17e9bcde135daaceaa8745118ddb93b0", "is_reserved": 0}, {"is_disabled": 0, "fusion_lon": 0.0, "fusion_lat": 0.0, "lat": 38.917085, "type": "electric_scooter", "lon": -77.03473616666666, "bike_id": "c652ea39724ff683b6d38603578a5fd5", "rental_uris": {"android": "https://dc.lft.to/lastmile_qr_scan", "ios": "https://dc.lft.to/lastmile_qr_scan"}, "name": "c652ea39724ff683b6d38603578a5fd5", "is_reserved": 0}, {"is_disabled": 0, "fusion_lon": 0.0, "fusion_lat": 0.0, "lat": 38.919397333333336, "type": "electric_scooter", "lon": -77.02326983333333, "bike_id": "2d48531bd0fba8cfb755dc97c99c49d0", "rental_uris": {"android": "https://dc.lft.to/lastmile_qr_scan", "ios": "https://dc.lft.to/lastmile_qr_scan"}, "name": "2d48531bd0fba8cfb755dc97c99c49d0", "is_reserved": 0}, {"is_disabled": 0, "fusion_lon": 0.0, "fusion_lat": 0.0, "lat": 38.998628333333336, "type": "electric_bike", "lon": -77.029009, "bike_id": "8269ca613e847aea445cbf3006e1ad7f", "rental_uris": {"android": "https://dc.lft.to/lastmile_qr_scan", "ios": "https://dc.lft.to/lastmile_qr_scan"}, "name": "8269ca613e847aea445cbf3006e1ad7f", "is_reserved": 0}, {"is_disabled": 0, "fusion_lon": 0.0, "fusion_lat": 0.0, "lat": 38.98661516666667, "type": "electric_scooter", "lon": -77.02646333333334, "bike_id": "660c72945a5388d696804783dfae6644", "rental_uris": {"android": "https://dc.lft.to/lastmile_qr_scan", "ios": "https://dc.lft.to/lastmile_qr_scan"}, "name": "660c72945a5388d696804783dfae6644", "is_reserved": 0}, {"is_disabled": 0, "fusion_lon": 0.0, "fusion_lat": 0.0, "lat": 38.88877083333333, "type": "electric_scooter", "lon": -77.028539, "bike_id": "ea69289ff4716190f163bf02ee335212", "rental_uris": {"android": "https://dc.lft.to/lastmile_qr_scan", "ios": "https://dc.lft.to/lastmile_qr_scan"}, "name": "ea69289ff4716190f163bf02ee335212", "is_reserved": 0}, {"is_disabled": 0, "fusion_lon": 0.0, "fusion_lat": 0.0, "lat": 38.9165075, "type": "electric_scooter", "lon": -77.0344105, "bike_id": "5531db3b2f2a075e50e1e83bb7efed0a", "rental_uris": {"android": "https://dc.lft.to/lastmile_qr_scan", "ios": "https://dc.lft.to/lastmile_qr_scan"}, "name": "5531db3b2f2a075e50e1e83bb7efed0a", "is_reserved": 0}, {"is_disabled": 0, "fusion_lon": 0.0, "fusion_lat": 0.0, "lat": 38.905503, "type": "electric_scooter", "lon": -77.01995633333334, "bike_id": "0f10c605ca1a0dfb10291c2eb6c50c11", "rental_uris": {"android": "https://dc.lft.to/lastmile_qr_scan", "ios": "https://dc.lft.to/lastmile_qr_scan"}, "name": "0f10c605ca1a0dfb10291c2eb6c50c11", "is_reserved": 0}, {"is_disabled": 0, "fusion_lon": 0.0, "fusion_lat": 0.0, "lat": 38.91286933333333, "type": "electric_scooter", "lon": -76.9869295, "bike_id": "97d445c90ce0e24032c2c8982b723bd8", "rental_uris": {"android": "https://dc.lft.to/lastmile_qr_scan", "ios": "https://dc.lft.to/lastmile_qr_scan"}, "name": "97d445c90ce0e24032c2c8982b723bd8", "is_reserved": 0}, {"is_disabled": 0, "fusion_lon": 0.0, "fusion_lat": 0.0, "lat": 38.91695, "type": "electric_scooter", "lon": -77.02184483333333, "bike_id": "c96379075ae6eeb85e0a1744d04da135", "rental_uris": {"android": "https://dc.lft.to/lastmile_qr_scan", "ios": "https://dc.lft.to/lastmile_qr_scan"}, "name": "c96379075ae6eeb85e0a1744d04da135", "is_reserved": 0}, {"is_disabled": 0, "fusion_lon": 0.0, "fusion_lat": 0.0, "lat": 38.9026625, "type": "electric_scooter", "lon": -77.03428233333334, "bike_id": "f843b0c84b61992cc0959eeaf83dd998", "rental_uris": {"android": "https://dc.lft.to/lastmile_qr_scan", "ios": "https://dc.lft.to/lastmile_qr_scan"}, "name": "f843b0c84b61992cc0959eeaf83dd998", "is_reserved": 0}, {"is_disabled": 0, "fusion_lon": 0.0, "fusion_lat": 0.0, "lat": 38.898249, "type": "electric_scooter", "lon": -77.03166233333333, "bike_id": "fef9fb3d941c56574efb509bfc472020", "rental_uris": {"android": "https://dc.lft.to/lastmile_qr_scan", "ios": "https://dc.lft.to/lastmile_qr_scan"}, "name": "fef9fb3d941c56574efb509bfc472020", "is_reserved": 0}, {"is_disabled": 0, "fusion_lon": 0.0, "fusion_lat": 0.0, "lat": 38.89908633333334, "type": "electric_scooter", "lon": -76.93390883333333, "bike_id": "aa66961db65af928ba7749fa3543907e", "rental_uris": {"android": "https://dc.lft.to/lastmile_qr_scan", "ios": "https://dc.lft.to/lastmile_qr_scan"}, "name": "aa66961db65af928ba7749fa3543907e", "is_reserved": 0}, {"is_disabled": 0, "fusion_lon": 0.0, "fusion_lat": 0.0, "lat": 38.9692505, "type": "electric_bike", "lon": -77.02619683333333, "bike_id": "e97a6a86064689aa6a8c1e12c41c9cb2", "rental_uris": {"android": "https://dc.lft.to/lastmile_qr_scan", "ios": "https://dc.lft.to/lastmile_qr_scan"}, "name": "e97a6a86064689aa6a8c1e12c41c9cb2", "is_reserved": 0}, {"is_disabled": 0, "fusion_lon": 0.0, "fusion_lat": 0.0, "lat": 38.892092, "type": "electric_scooter", "lon": -76.98798466666666, "bike_id": "8710931ba677245bc809e4ff143ba626", "rental_uris": {"android": "https://dc.lft.to/lastmile_qr_scan", "ios": "https://dc.lft.to/lastmile_qr_scan"}, "name": "8710931ba677245bc809e4ff143ba626", "is_reserved": 0}, {"is_disabled": 0, "fusion_lon": 0.0, "fusion_lat": 0.0, "lat": 38.92418416666667, "type": "electric_scooter", "lon": -77.0562975, "bike_id": "f10c3018cd33373bd4fab6025a2952a9", "rental_uris": {"android": "https://dc.lft.to/lastmile_qr_scan", "ios": "https://dc.lft.to/lastmile_qr_scan"}, "name": "f10c3018cd33373bd4fab6025a2952a9", "is_reserved": 0}, {"is_disabled": 0, "fusion_lon": 0.0, "fusion_lat": 0.0, "lat": 38.918512166666666, "type": "electric_scooter", "lon": -77.02953416666666, "bike_id": "f9f51b2cf8f9e60446141b80f0f3b8f7", "rental_uris": {"android": "https://dc.lft.to/lastmile_qr_scan", "ios": "https://dc.lft.to/lastmile_qr_scan"}, "name": "f9f51b2cf8f9e60446141b80f0f3b8f7", "is_reserved": 0}, {"is_disabled": 0, "fusion_lon": 0.0, "fusion_lat": 0.0, "lat": 38.836108, "type": "electric_bike", "lon": -77.003826, "bike_id": "472ed58ab3320f0a5837991472eb4d93", "rental_uris": {"android": "https://dc.lft.to/lastmile_qr_scan", "ios": "https://dc.lft.to/lastmile_qr_scan"}, "name": "472ed58ab3320f0a5837991472eb4d93", "is_reserved": 0}, {"is_disabled": 0, "fusion_lon": 0.0, "fusion_lat": 0.0, "lat": 38.91473366666666, "type": "electric_scooter", "lon": -77.04385983333333, "bike_id": "a9718626a2418ef2a6cf032b08cb3ac6", "rental_uris": {"android": "https://dc.lft.to/lastmile_qr_scan", "ios": "https://dc.lft.to/lastmile_qr_scan"}, "name": "a9718626a2418ef2a6cf032b08cb3ac6", "is_reserved": 0}, {"is_disabled": 0, "fusion_lon": 0.0, "fusion_lat": 0.0, "lat": 38.9118345, "type": "electric_scooter", "lon": -77.039247, "bike_id": "098541f44ca7a56dc2439a3f8377d4c3", "rental_uris": {"android": "https://dc.lft.to/lastmile_qr_scan", "ios": "https://dc.lft.to/lastmile_qr_scan"}, "name": "098541f44ca7a56dc2439a3f8377d4c3", "is_reserved": 0}, {"is_disabled": 0, "fusion_lon": 0.0, "fusion_lat": 0.0, "lat": 38.9274745, "type": "electric_scooter", "lon": -77.02481033333333, "bike_id": "3fda70810b9ce1673740f3a8cc8185f7", "rental_uris": {"android": "https://dc.lft.to/lastmile_qr_scan", "ios": "https://dc.lft.to/lastmile_qr_scan"}, "name": "3fda70810b9ce1673740f3a8cc8185f7", "is_reserved": 0}, {"is_disabled": 0, "fusion_lon": 0.0, "fusion_lat": 0.0, "lat": 38.93093733333333, "type": "electric_scooter", "lon": -77.02499733333333, "bike_id": "21fb52429cb9960567d31fc7d1cf7c5e", "rental_uris": {"android": "https://dc.lft.to/lastmile_qr_scan", "ios": "https://dc.lft.to/lastmile_qr_scan"}, "name": "21fb52429cb9960567d31fc7d1cf7c5e", "is_reserved": 0}, {"is_disabled": 0, "fusion_lon": 0.0, "fusion_lat": 0.0, "lat": 38.908755666666664, "type": "electric_scooter", "lon": -77.0763695, "bike_id": "59a6e516fc944de6276689e9e05047fc", "rental_uris": {"android": "https://dc.lft.to/lastmile_qr_scan", "ios": "https://dc.lft.to/lastmile_qr_scan"}, "name": "59a6e516fc944de6276689e9e05047fc", "is_reserved": 0}, {"is_disabled": 0, "fusion_lon": 0.0, "fusion_lat": 0.0, "lat": 38.91833833333333, "type": "electric_scooter", "lon": -77.03511683333333, "bike_id": "88f455fa48e89391cfba2a873889fe89", "rental_uris": {"android": "https://dc.lft.to/lastmile_qr_scan", "ios": "https://dc.lft.to/lastmile_qr_scan"}, "name": "88f455fa48e89391cfba2a873889fe89", "is_reserved": 0}, {"is_disabled": 0, "fusion_lon": 0.0, "fusion_lat": 0.0, "lat": 38.89740333333334, "type": "electric_scooter", "lon": -77.00315983333333, "bike_id": "4cc5f4788198d8336ef65b4b984e1d1b", "rental_uris": {"android": "https://dc.lft.to/lastmile_qr_scan", "ios": "https://dc.lft.to/lastmile_qr_scan"}, "name": "4cc5f4788198d8336ef65b4b984e1d1b", "is_reserved": 0}, {"is_disabled": 0, "fusion_lon": 0.0, "fusion_lat": 0.0, "lat": 38.93376966666666, "type": "electric_scooter", "lon": -77.07253733333333, "bike_id": "d9d4821e598d94f414bea4cb64b62975", "rental_uris": {"android": "https://dc.lft.to/lastmile_qr_scan", "ios": "https://dc.lft.to/lastmile_qr_scan"}, "name": "d9d4821e598d94f414bea4cb64b62975", "is_reserved": 0}, {"is_disabled": 0, "fusion_lon": 0.0, "fusion_lat": 0.0, "lat": 38.91759033333334, "type": "electric_scooter", "lon": -77.03582416666667, "bike_id": "0ea7a0bf2369eca127a17ff152a6aa98", "rental_uris": {"android": "https://dc.lft.to/lastmile_qr_scan", "ios": "https://dc.lft.to/lastmile_qr_scan"}, "name": "0ea7a0bf2369eca127a17ff152a6aa98", "is_reserved": 0}, {"is_disabled": 0, "fusion_lon": 0.0, "fusion_lat": 0.0, "lat": 38.90388883333333, "type": "electric_scooter", "lon": -77.03243183333333, "bike_id": "12ac737c8fe7dc7e6ecbb3aa0f49c922", "rental_uris": {"android": "https://dc.lft.to/lastmile_qr_scan", "ios": "https://dc.lft.to/lastmile_qr_scan"}, "name": "12ac737c8fe7dc7e6ecbb3aa0f49c922", "is_reserved": 0}, {"is_disabled": 0, "fusion_lon": 0.0, "fusion_lat": 0.0, "lat": 38.8690915, "type": "electric_bike", "lon": -77.131849, "bike_id": "43487fb9d869277cc1449234a7285432", "rental_uris": {"android": "https://dc.lft.to/lastmile_qr_scan", "ios": "https://dc.lft.to/lastmile_qr_scan"}, "name": "43487fb9d869277cc1449234a7285432", "is_reserved": 0}, {"is_disabled": 0, "fusion_lon": 0.0, "fusion_lat": 0.0, "lat": 38.97539366666667, "type": "electric_bike", "lon": -76.99528733333334, "bike_id": "213b62e6d1776266eabf2fcf4c052196", "rental_uris": {"android": "https://dc.lft.to/lastmile_qr_scan", "ios": "https://dc.lft.to/lastmile_qr_scan"}, "name": "213b62e6d1776266eabf2fcf4c052196", "is_reserved": 0}, {"is_disabled": 0, "fusion_lon": 0.0, "fusion_lat": 0.0, "lat": 38.91858833333333, "type": "electric_scooter", "lon": -77.03218083333333, "bike_id": "6165ea17baca13ae445734205da6877b", "rental_uris": {"android": "https://dc.lft.to/lastmile_qr_scan", "ios": "https://dc.lft.to/lastmile_qr_scan"}, "name": "6165ea17baca13ae445734205da6877b", "is_reserved": 0}, {"is_disabled": 0, "fusion_lon": 0.0, "fusion_lat": 0.0, "lat": 38.915962666666665, "type": "electric_bike", "lon": -76.971497, "bike_id": "5a98c32219cae08c0bac27984c14b1aa", "rental_uris": {"android": "https://dc.lft.to/lastmile_qr_scan", "ios": "https://dc.lft.to/lastmile_qr_scan"}, "name": "5a98c32219cae08c0bac27984c14b1aa", "is_reserved": 0}, {"is_disabled": 0, "fusion_lon": 0.0, "fusion_lat": 0.0, "lat": 38.9083905, "type": "electric_scooter", "lon": -77.02690283333334, "bike_id": "3b6d0738c124ed68fa8dc6bc99c05924", "rental_uris": {"android": "https://dc.lft.to/lastmile_qr_scan", "ios": "https://dc.lft.to/lastmile_qr_scan"}, "name": "3b6d0738c124ed68fa8dc6bc99c05924", "is_reserved": 0}, {"is_disabled": 0, "fusion_lon": 0.0, "fusion_lat": 0.0, "lat": 38.922931, "type": "electric_scooter", "lon": -77.04232066666667, "bike_id": "d329a80c74cf14cd4c70a699749760c0", "rental_uris": {"android": "https://dc.lft.to/lastmile_qr_scan", "ios": "https://dc.lft.to/lastmile_qr_scan"}, "name": "d329a80c74cf14cd4c70a699749760c0", "is_reserved": 0}, {"is_disabled": 0, "fusion_lon": 0.0, "fusion_lat": 0.0, "lat": 38.911153, "type": "electric_scooter", "lon": -77.00342666666667, "bike_id": "6b1d48aafa6c0a0f32fb495a1770a255", "rental_uris": {"android": "https://dc.lft.to/lastmile_qr_scan", "ios": "https://dc.lft.to/lastmile_qr_scan"}, "name": "6b1d48aafa6c0a0f32fb495a1770a255", "is_reserved": 0}, {"is_disabled": 0, "fusion_lon": 0.0, "fusion_lat": 0.0, "lat": 38.919940833333335, "type": "electric_bike", "lon": -76.97308983333333, "bike_id": "4ce748a975fb73641413cd10bfd26288", "rental_uris": {"android": "https://dc.lft.to/lastmile_qr_scan", "ios": "https://dc.lft.to/lastmile_qr_scan"}, "name": "4ce748a975fb73641413cd10bfd26288", "is_reserved": 0}, {"is_disabled": 0, "fusion_lon": 0.0, "fusion_lat": 0.0, "lat": 38.928949, "type": "electric_scooter", "lon": -77.023344, "bike_id": "73b531526b8cbd4ed791c8896a2663dd", "rental_uris": {"android": "https://dc.lft.to/lastmile_qr_scan", "ios": "https://dc.lft.to/lastmile_qr_scan"}, "name": "73b531526b8cbd4ed791c8896a2663dd", "is_reserved": 0}, {"is_disabled": 0, "fusion_lon": 0.0, "fusion_lat": 0.0, "lat": 38.97851583333333, "type": "electric_bike", "lon": -77.09127116666667, "bike_id": "c82acbdbb084d9e3e241b81c23e20675", "rental_uris": {"android": "https://dc.lft.to/lastmile_qr_scan", "ios": "https://dc.lft.to/lastmile_qr_scan"}, "name": "c82acbdbb084d9e3e241b81c23e20675", "is_reserved": 0}, {"is_disabled": 0, "fusion_lon": 0.0, "fusion_lat": 0.0, "lat": 38.896324, "type": "electric_scooter", "lon": -77.00901833333333, "bike_id": "53452db302332fc284726a4d5f0cf023", "rental_uris": {"android": "https://dc.lft.to/lastmile_qr_scan", "ios": "https://dc.lft.to/lastmile_qr_scan"}, "name": "53452db302332fc284726a4d5f0cf023", "is_reserved": 0}, {"is_disabled": 0, "fusion_lon": 0.0, "fusion_lat": 0.0, "lat": 38.897304166666665, "type": "electric_scooter", "lon": -77.02163, "bike_id": "0ad52ae19569ba8c5a84d6dfe4185299", "rental_uris": {"android": "https://dc.lft.to/lastmile_qr_scan", "ios": "https://dc.lft.to/lastmile_qr_scan"}, "name": "0ad52ae19569ba8c5a84d6dfe4185299", "is_reserved": 0}, {"is_disabled": 0, "fusion_lon": 0.0, "fusion_lat": 0.0, "lat": 38.9245775, "type": "electric_scooter", "lon": -77.0296355, "bike_id": "cbd22da012d71f5538cec68703e0cdf8", "rental_uris": {"android": "https://dc.lft.to/lastmile_qr_scan", "ios": "https://dc.lft.to/lastmile_qr_scan"}, "name": "cbd22da012d71f5538cec68703e0cdf8", "is_reserved": 0}, {"is_disabled": 0, "fusion_lon": 0.0, "fusion_lat": 0.0, "lat": 38.9012955, "type": "electric_scooter", "lon": -77.01969583333333, "bike_id": "a9d642b30cd196d9230335fbc51c9f0c", "rental_uris": {"android": "https://dc.lft.to/lastmile_qr_scan", "ios": "https://dc.lft.to/lastmile_qr_scan"}, "name": "a9d642b30cd196d9230335fbc51c9f0c", "is_reserved": 0}, {"is_disabled": 0, "fusion_lon": 0.0, "fusion_lat": 0.0, "lat": 38.93581066666667, "type": "electric_bike", "lon": -77.0825205, "bike_id": "11db9bd216b30612c754b0aeb3d3f7d2", "rental_uris": {"android": "https://dc.lft.to/lastmile_qr_scan", "ios": "https://dc.lft.to/lastmile_qr_scan"}, "name": "11db9bd216b30612c754b0aeb3d3f7d2", "is_reserved": 0}, {"is_disabled": 0, "fusion_lon": 0.0, "fusion_lat": 0.0, "lat": 38.922823, "type": "electric_bike", "lon": -76.99781133333333, "bike_id": "6e61da4a0fa98e2e5072c674187bcaf4", "rental_uris": {"android": "https://dc.lft.to/lastmile_qr_scan", "ios": "https://dc.lft.to/lastmile_qr_scan"}, "name": "6e61da4a0fa98e2e5072c674187bcaf4", "is_reserved": 0}, {"is_disabled": 0, "fusion_lon": 0.0, "fusion_lat": 0.0, "lat": 38.91479866666667, "type": "electric_scooter", "lon": -77.0346925, "bike_id": "3dd18b0280aed950a95d7661d5cefdbd", "rental_uris": {"android": "https://dc.lft.to/lastmile_qr_scan", "ios": "https://dc.lft.to/lastmile_qr_scan"}, "name": "3dd18b0280aed950a95d7661d5cefdbd", "is_reserved": 0}, {"is_disabled": 0, "fusion_lon": 0.0, "fusion_lat": 0.0, "lat": 38.911049166666665, "type": "electric_scooter", "lon": -77.06604916666667, "bike_id": "6bbff1fb66cbe651d183a4df5b963eb6", "rental_uris": {"android": "https://dc.lft.to/lastmile_qr_scan", "ios": "https://dc.lft.to/lastmile_qr_scan"}, "name": "6bbff1fb66cbe651d183a4df5b963eb6", "is_reserved": 0}, {"is_disabled": 0, "fusion_lon": 0.0, "fusion_lat": 0.0, "lat": 38.92368716666667, "type": "electric_scooter", "lon": -77.028072, "bike_id": "f7933947d6c135f84e1898f53a79d28b", "rental_uris": {"android": "https://dc.lft.to/lastmile_qr_scan", "ios": "https://dc.lft.to/lastmile_qr_scan"}, "name": "f7933947d6c135f84e1898f53a79d28b", "is_reserved": 0}, {"is_disabled": 0, "fusion_lon": 0.0, "fusion_lat": 0.0, "lat": 38.923858833333334, "type": "electric_scooter", "lon": -77.03134233333333, "bike_id": "dc9f8dec5ffb03a9abfdaeb221aac2b4", "rental_uris": {"android": "https://dc.lft.to/lastmile_qr_scan", "ios": "https://dc.lft.to/lastmile_qr_scan"}, "name": "dc9f8dec5ffb03a9abfdaeb221aac2b4", "is_reserved": 0}, {"is_disabled": 0, "fusion_lon": 0.0, "fusion_lat": 0.0, "lat": 38.9170105, "type": "electric_scooter", "lon": -77.03113333333333, "bike_id": "f442cab161297a13e8e1afdf2d195b1d", "rental_uris": {"android": "https://dc.lft.to/lastmile_qr_scan", "ios": "https://dc.lft.to/lastmile_qr_scan"}, "name": "f442cab161297a13e8e1afdf2d195b1d", "is_reserved": 0}, {"is_disabled": 0, "fusion_lon": 0.0, "fusion_lat": 0.0, "lat": 38.892057666666666, "type": "electric_scooter", "lon": -76.98807066666667, "bike_id": "378d030a32011561c7e8eaa4f52ca68e", "rental_uris": {"android": "https://dc.lft.to/lastmile_qr_scan", "ios": "https://dc.lft.to/lastmile_qr_scan"}, "name": "378d030a32011561c7e8eaa4f52ca68e", "is_reserved": 0}, {"is_disabled": 0, "fusion_lon": 0.0, "fusion_lat": 0.0, "lat": 39.0884715, "type": "electric_bike", "lon": -77.1779355, "bike_id": "168b862d651e62c8681a43939af141cd", "rental_uris": {"android": "https://dc.lft.to/lastmile_qr_scan", "ios": "https://dc.lft.to/lastmile_qr_scan"}, "name": "168b862d651e62c8681a43939af141cd", "is_reserved": 0}, {"is_disabled": 0, "fusion_lon": 0.0, "fusion_lat": 0.0, "lat": 38.884097833333335, "type": "electric_scooter", "lon": -76.95418366666667, "bike_id": "9c6d867a63b6bb9745372309caf178bd", "rental_uris": {"android": "https://dc.lft.to/lastmile_qr_scan", "ios": "https://dc.lft.to/lastmile_qr_scan"}, "name": "9c6d867a63b6bb9745372309caf178bd", "is_reserved": 0}, {"is_disabled": 0, "fusion_lon": 0.0, "fusion_lat": 0.0, "lat": 39.02294933333334, "type": "electric_bike", "lon": -77.02098233333334, "bike_id": "9dddcb2616bcfc266f4e71ce51a98f3b", "rental_uris": {"android": "https://dc.lft.to/lastmile_qr_scan", "ios": "https://dc.lft.to/lastmile_qr_scan"}, "name": "9dddcb2616bcfc266f4e71ce51a98f3b", "is_reserved": 0}, {"is_disabled": 0, "fusion_lon": 0.0, "fusion_lat": 0.0, "lat": 38.89550666666667, "type": "electric_scooter", "lon": -76.948727, "bike_id": "16a4ba7a2c0f7bc31272e1ec085fcc6e", "rental_uris": {"android": "https://dc.lft.to/lastmile_qr_scan", "ios": "https://dc.lft.to/lastmile_qr_scan"}, "name": "16a4ba7a2c0f7bc31272e1ec085fcc6e", "is_reserved": 0}, {"is_disabled": 0, "fusion_lon": 0.0, "fusion_lat": 0.0, "lat": 38.904252666666665, "type": "electric_scooter", "lon": -77.05147883333333, "bike_id": "53d5555feeb6ee54a0dffee2b8c201f9", "rental_uris": {"android": "https://dc.lft.to/lastmile_qr_scan", "ios": "https://dc.lft.to/lastmile_qr_scan"}, "name": "53d5555feeb6ee54a0dffee2b8c201f9", "is_reserved": 0}, {"is_disabled": 0, "fusion_lon": 0.0, "fusion_lat": 0.0, "lat": 38.89333533333333, "type": "electric_scooter", "lon": -77.0212185, "bike_id": "580cd8b484ef89ecc90abb82e63eb1c5", "rental_uris": {"android": "https://dc.lft.to/lastmile_qr_scan", "ios": "https://dc.lft.to/lastmile_qr_scan"}, "name": "580cd8b484ef89ecc90abb82e63eb1c5", "is_reserved": 0}, {"is_disabled": 0, "fusion_lon": 0.0, "fusion_lat": 0.0, "lat": 38.8304565, "type": "electric_scooter", "lon": -77.012321, "bike_id": "425253a539bf5a3fba785df8c9cfaec4", "rental_uris": {"android": "https://dc.lft.to/lastmile_qr_scan", "ios": "https://dc.lft.to/lastmile_qr_scan"}, "name": "425253a539bf5a3fba785df8c9cfaec4", "is_reserved": 0}, {"is_disabled": 0, "fusion_lon": 0.0, "fusion_lat": 0.0, "lat": 38.93190333333333, "type": "electric_scooter", "lon": -77.04152666666667, "bike_id": "94d86b83c614328e9056ab11f1d66ce8", "rental_uris": {"android": "https://dc.lft.to/lastmile_qr_scan", "ios": "https://dc.lft.to/lastmile_qr_scan"}, "name": "94d86b83c614328e9056ab11f1d66ce8", "is_reserved": 0}, {"is_disabled": 0, "fusion_lon": 0.0, "fusion_lat": 0.0, "lat": 38.9086445, "type": "electric_scooter", "lon": -77.03010916666666, "bike_id": "e5d2727bd82f6473910f6402d643018b", "rental_uris": {"android": "https://dc.lft.to/lastmile_qr_scan", "ios": "https://dc.lft.to/lastmile_qr_scan"}, "name": "e5d2727bd82f6473910f6402d643018b", "is_reserved": 0}, {"is_disabled": 0, "fusion_lon": 0.0, "fusion_lat": 0.0, "lat": 38.8652385, "type": "electric_scooter", "lon": -76.989662, "bike_id": "26757e000ba866dc24657e4f72a31fdd", "rental_uris": {"android": "https://dc.lft.to/lastmile_qr_scan", "ios": "https://dc.lft.to/lastmile_qr_scan"}, "name": "26757e000ba866dc24657e4f72a31fdd", "is_reserved": 0}, {"is_disabled": 0, "fusion_lon": 0.0, "fusion_lat": 0.0, "lat": 38.8984625, "type": "electric_scooter", "lon": -76.944991, "bike_id": "03ad730b085e4cfc0fe772c470069fcf", "rental_uris": {"android": "https://dc.lft.to/lastmile_qr_scan", "ios": "https://dc.lft.to/lastmile_qr_scan"}, "name": "03ad730b085e4cfc0fe772c470069fcf", "is_reserved": 0}, {"is_disabled": 0, "fusion_lon": 0.0, "fusion_lat": 0.0, "lat": 38.92326716666667, "type": "electric_scooter", "lon": -77.04501683333334, "bike_id": "8ce60b8ad3b64aa40b720a6fde1e14a2", "rental_uris": {"android": "https://dc.lft.to/lastmile_qr_scan", "ios": "https://dc.lft.to/lastmile_qr_scan"}, "name": "8ce60b8ad3b64aa40b720a6fde1e14a2", "is_reserved": 0}, {"is_disabled": 0, "fusion_lon": 0.0, "fusion_lat": 0.0, "lat": 38.94190033333334, "type": "electric_scooter", "lon": -77.04257933333334, "bike_id": "6d31d5cdedbdcc7af9186b43d20a329b", "rental_uris": {"android": "https://dc.lft.to/lastmile_qr_scan", "ios": "https://dc.lft.to/lastmile_qr_scan"}, "name": "6d31d5cdedbdcc7af9186b43d20a329b", "is_reserved": 0}, {"is_disabled": 0, "fusion_lon": 0.0, "fusion_lat": 0.0, "lat": 38.88874233333333, "type": "electric_bike", "lon": -77.02854266666667, "bike_id": "53dfae3c4bfddbe5c07b07133dd3c9c6", "rental_uris": {"android": "https://dc.lft.to/lastmile_qr_scan", "ios": "https://dc.lft.to/lastmile_qr_scan"}, "name": "53dfae3c4bfddbe5c07b07133dd3c9c6", "is_reserved": 0}, {"is_disabled": 0, "fusion_lon": 0.0, "fusion_lat": 0.0, "lat": 38.87649583333334, "type": "electric_scooter", "lon": -77.00749633333334, "bike_id": "ddf5cfe43f84067844e3020a3ce3a574", "rental_uris": {"android": "https://dc.lft.to/lastmile_qr_scan", "ios": "https://dc.lft.to/lastmile_qr_scan"}, "name": "ddf5cfe43f84067844e3020a3ce3a574", "is_reserved": 0}, {"is_disabled": 0, "fusion_lon": 0.0, "fusion_lat": 0.0, "lat": 38.90510366666667, "type": "electric_bike", "lon": -76.98127166666667, "bike_id": "6d2177c960443a6777445d22d0d13c73", "rental_uris": {"android": "https://dc.lft.to/lastmile_qr_scan", "ios": "https://dc.lft.to/lastmile_qr_scan"}, "name": "6d2177c960443a6777445d22d0d13c73", "is_reserved": 0}, {"is_disabled": 0, "fusion_lon": 0.0, "fusion_lat": 0.0, "lat": 38.93275466666667, "type": "electric_scooter", "lon": -76.97422383333333, "bike_id": "2c82fe906ec301c7cfc2121030d337c5", "rental_uris": {"android": "https://dc.lft.to/lastmile_qr_scan", "ios": "https://dc.lft.to/lastmile_qr_scan"}, "name": "2c82fe906ec301c7cfc2121030d337c5", "is_reserved": 0}, {"is_disabled": 0, "fusion_lon": 0.0, "fusion_lat": 0.0, "lat": 38.896052833333336, "type": "electric_scooter", "lon": -77.0091865, "bike_id": "1402d15b1fc65e2b9b0ebf40f93127b6", "rental_uris": {"android": "https://dc.lft.to/lastmile_qr_scan", "ios": "https://dc.lft.to/lastmile_qr_scan"}, "name": "1402d15b1fc65e2b9b0ebf40f93127b6", "is_reserved": 0}, {"is_disabled": 0, "fusion_lon": 0.0, "fusion_lat": 0.0, "lat": 38.92754516666667, "type": "electric_scooter", "lon": -77.00593133333334, "bike_id": "197487ef7d23b2d0c867ec3bd125d494", "rental_uris": {"android": "https://dc.lft.to/lastmile_qr_scan", "ios": "https://dc.lft.to/lastmile_qr_scan"}, "name": "197487ef7d23b2d0c867ec3bd125d494", "is_reserved": 0}, {"is_disabled": 0, "fusion_lon": 0.0, "fusion_lat": 0.0, "lat": 38.852053833333336, "type": "electric_bike", "lon": -77.10123183333333, "bike_id": "0209e88c4babb4810ea7ed864a023916", "rental_uris": {"android": "https://dc.lft.to/lastmile_qr_scan", "ios": "https://dc.lft.to/lastmile_qr_scan"}, "name": "0209e88c4babb4810ea7ed864a023916", "is_reserved": 0}, {"is_disabled": 0, "fusion_lon": 0.0, "fusion_lat": 0.0, "lat": 38.907693333333334, "type": "electric_scooter", "lon": -77.063162, "bike_id": "192eef9188b55be4f8db6a392cc9cdfc", "rental_uris": {"android": "https://dc.lft.to/lastmile_qr_scan", "ios": "https://dc.lft.to/lastmile_qr_scan"}, "name": "192eef9188b55be4f8db6a392cc9cdfc", "is_reserved": 0}, {"is_disabled": 0, "fusion_lon": 0.0, "fusion_lat": 0.0, "lat": 38.92446983333333, "type": "electric_bike", "lon": -76.96831233333333, "bike_id": "276285876153a55f20efd6e736ff895e", "rental_uris": {"android": "https://dc.lft.to/lastmile_qr_scan", "ios": "https://dc.lft.to/lastmile_qr_scan"}, "name": "276285876153a55f20efd6e736ff895e", "is_reserved": 0}, {"is_disabled": 0, "fusion_lon": 0.0, "fusion_lat": 0.0, "lat": 38.93632983333333, "type": "electric_scooter", "lon": -77.03660816666667, "bike_id": "0bd813d8c702ffbfda75aa9d71d413b2", "rental_uris": {"android": "https://dc.lft.to/lastmile_qr_scan", "ios": "https://dc.lft.to/lastmile_qr_scan"}, "name": "0bd813d8c702ffbfda75aa9d71d413b2", "is_reserved": 0}, {"is_disabled": 0, "fusion_lon": 0.0, "fusion_lat": 0.0, "lat": 39.10566583333333, "type": "electric_bike", "lon": -77.15267816666666, "bike_id": "0ba9cc116161704147a3e230fd34bbdb", "rental_uris": {"android": "https://dc.lft.to/lastmile_qr_scan", "ios": "https://dc.lft.to/lastmile_qr_scan"}, "name": "0ba9cc116161704147a3e230fd34bbdb", "is_reserved": 0}, {"is_disabled": 0, "fusion_lon": 0.0, "fusion_lat": 0.0, "lat": 38.92297833333333, "type": "electric_bike", "lon": -76.99417483333333, "bike_id": "b409054a5ed604fa5b7996d0db232899", "rental_uris": {"android": "https://dc.lft.to/lastmile_qr_scan", "ios": "https://dc.lft.to/lastmile_qr_scan"}, "name": "b409054a5ed604fa5b7996d0db232899", "is_reserved": 0}, {"is_disabled": 0, "fusion_lon": 0.0, "fusion_lat": 0.0, "lat": 38.9284995, "type": "electric_bike", "lon": -77.0206865, "bike_id": "9ce82b8eafbf59bee44653012209685e", "rental_uris": {"android": "https://dc.lft.to/lastmile_qr_scan", "ios": "https://dc.lft.to/lastmile_qr_scan"}, "name": "9ce82b8eafbf59bee44653012209685e", "is_reserved": 0},