{"data": {"bikes": [{"is_disabled": 0, "fusion_lon": 0.0, "fusion_lat": 0.0, "lat": 38.92329433333333, "type": "electric_scooter", "lon": -77.04182283333333, "bike_id": "8e008cc617a8952f278cf39668669ed5", "rental_uris": {"android": "https://dc.lft.to/lastmile_qr_scan", "ios": "https://dc.lft.to/lastmile_qr_scan"}, "name": "8e008cc617a8952f278cf39668669ed5", "is_reserved": 0}, {"is_disabled": 0, "fusion_lon": 0.0, "fusion_lat": 0.0, "lat": 38.90063216666667, "type": "electric_scooter", "lon": -76.93386466666666, "bike_id": "98badfbca191248d72806ae873731aa5", "rental_uris": {"android": "https://dc.lft.to/lastmile_qr_scan", "ios": "https://dc.lft.to/lastmile_qr_scan"}, "name": "98badfbca191248d72806ae873731aa5", "is_reserved": 0}, {"is_disabled": 0, "fusion_lon": 0.0, "fusion_lat": 0.0, "lat": 38.885910833333334, "type": "electric_scooter", "lon": -77.017657, "bike_id": "0ab61dc0bd365f4a0627f08f5fc99ac1", "rental_uris": {"android": "https://dc.lft.to/lastmile_qr_scan", "ios": "https://dc.lft.to/lastmile_qr_scan"}, "name": "0ab61dc0bd365f4a0627f08f5fc99ac1", "is_reserved": 0}, {"is_disabled": 0, "fusion_lon": 0.0, "fusion_lat": 0.0, "lat": 38.87898333333333, "type": "electric_scooter", "lon": -76.93526066666666, "bike_id": "db70e8a7074da6a8cca83a4ec733ca5c", "rental_uris": {"android": "https://dc.lft.to/lastmile_qr_scan", "ios": "https://dc.lft.to/lastmile_qr_scan"}, "name": "db70e8a7074da6a8cca83a4ec733ca5c", "is_reserved": 0}, {"is_disabled": 0, "fusion_lon": 0.0, "fusion_lat": 0.0, "lat": 38.913016, "type": "electric_scooter", "lon": -77.038463, "bike_id": "8a221d1e70fe4460a49ba5041cf266de", "rental_uris": {"android": "https://dc.lft.to/lastmile_qr_scan", "ios": "https://dc.lft.to/lastmile_qr_scan"}, "name": "8a221d1e70fe4460a49ba5041cf266de", "is_reserved": 0}, {"is_disabled": 0, "fusion_lon": 0.0, "fusion_lat": 0.0, "lat": 38.899556833333335, "type": "electric_scooter", "lon": -77.0515075, "bike_id": "aa85d400f752967f102c93559a17dd55", "rental_uris": {"android": "https://dc.lft.to/lastmile_qr_scan", "ios": "https://dc.lft.to/lastmile_qr_scan"}, "name": "aa85d400f752967f102c93559a17dd55", "is_reserved": 0}, {"is_disabled": 0, "fusion_lon": 0.0, "fusion_lat": 0.0, "lat": 38.93609816666667, "type": "electric_scooter", "lon": -77.058658, "bike_id": "4dbe6254a02790c7f7e7772c7d43844f", "rental_uris": {"android": "https://dc.lft.to/lastmile_qr_scan", "ios": "https://dc.lft.to/lastmile_qr_scan"}, "name": "4dbe6254a02790c7f7e7772c7d43844f", "is_reserved": 0}, {"is_disabled": 0, "fusion_lon": 0.0, "fusion_lat": 0.0, "lat": 38.925830166666664, "type": "electric_scooter", "lon": -77.02873333333334, "bike_id": "ec4b6c24bfb599fabd3bcb4bd2f1d8ef", "rental_uris": {"android": "https://dc.lft.to/lastmile_qr_scan", "ios": "https://dc.lft.to/lastmile_qr_scan"}, "name": "ec4b6c24bfb599fabd3bcb4bd2f1d8ef", "is_reserved": 0}, {"is_disabled": 0, "fusion_lon": 0.0, "fusion_lat": 0.0, "lat": 38.892264833333336, "type": "electric_scooter", "lon": -77.048673, "bike_id": "814a0efe67a0d6faf7b4527fddda95a5", "rental_uris": {"android": "https://dc.lft.to/lastmile_qr_scan", "ios": "https://dc.lft.to/lastmile_qr_scan"}, "name": "814a0efe67a0d6faf7b4527fddda95a5", "is_reserved": 0}, {"is_disabled": 0, "fusion_lon": 0.0, "fusion_lat": 0.0, "lat": 38.928270166666664, "type": "electric_scooter", "lon": -77.02256266666667, "bike_id": "0665290a8b545c94b82d89fc27d67aa4", "rental_uris": {"android": "https://dc.lft.to/lastmile_qr_scan", "ios": "https://dc.lft.to/lastmile_qr_scan"}, "name": "0665290a8b545c94b82d89fc27d67aa4", "is_reserved": 0}, {"is_disabled": 0, "fusion_lon": 0.0, "fusion_lat": 0.0, "lat": 38.90674883333333, "type": "electric_scooter", "lon": -77.02714533333334, "bike_id": "f59690d605be377e948c02b59e93705c", "rental_uris": {"android": "https://dc.lft.to/lastmile_qr_scan", "ios": "https://dc.lft.to/lastmile_qr_scan"}, "name": "f59690d605be377e948c02b59e93705c", "is_reserved": 0}, {"is_disabled": 0, "fusion_lon": 0.0, "fusion_lat": 0.0, "lat": 38.91707366666667, "type": "electric_scooter", "lon": -77.04302233333334, "bike_id": "8c497d9bf2f763e3b3f7645336aa5105", "rental_uris": {"android": "https://dc.lft.to/lastmile_qr_scan", "ios": "https://dc.lft.to/lastmile_qr_scan"}, "name": "8c497d9bf2f763e3b3f7645336aa5105", "is_reserved": 0}, {"is_disabled": 0, "fusion_lon": 0.0, "fusion_lat": 0.0, "lat": 38.87976, "type": "electric_scooter", "lon": -77.02430166666667, "bike_id": "9538fd431fca63ec724647a891e14179", "rental_uris": {"android": "https://dc.lft.to/lastmile_qr_scan", "ios": "https://dc.lft.to/lastmile_qr_scan"}, "name": "9538fd431fca63ec724647a891e14179", "is_reserved": 0}, {"is_disabled": 0, "fusion_lon": 0.0, "fusion_lat": 0.0, "lat": 38.90571683333334, "type": "electric_scooter", "lon": -77.0246885, "bike_id": "a206c20f93a5d6052fbcaef7ddac4064", "rental_uris": {"android": "https://dc.lft.to/lastmile_qr_scan", "ios": "https://dc.lft.to/lastmile_qr_scan"}, "name": "a206c20f93a5d6052fbcaef7ddac4064", "is_reserved": 0}, {"is_disabled": 0, "fusion_lon": 0.0, "fusion_lat": 0.0, "lat": 38.9285115, "type": "electric_scooter", "lon": -77.05632933333334, "bike_id": "4cdbb3d36779c7cfdd51a747fb6f8e4a", "rental_uris": {"android": "https://dc.lft.to/lastmile_qr_scan", "ios": "https://dc.lft.to/lastmile_qr_scan"}, "name": "4cdbb3d36779c7cfdd51a747fb6f8e4a", "is_reserved": 0}, {"is_disabled": 0, "fusion_lon": 0.0, "fusion_lat": 0.0, "lat": 38.90862416666667, "type": "electric_scooter", "lon": -77.042634, "bike_id": "7db441a0f94c83d26e171b9e59d6e32d", "rental_uris": {"android": "https://dc.lft.to/lastmile_qr_scan", "ios": "https://dc.lft.to/lastmile_qr_scan"}, "name": "7db441a0f94c83d26e171b9e59d6e32d", "is_reserved": 0}, {"is_disabled": 0, "fusion_lon": 0.0, "fusion_lat": 0.0, "lat": 38.917947833333336, "type": "electric_scooter", "lon": -77.034505, "bike_id": "0b3d00165d27be6640551246184d0597", "rental_uris": {"android": "https://dc.lft.to/lastmile_qr_scan", "ios": "https://dc.lft.to/lastmile_qr_scan"}, "name": "0b3d00165d27be6640551246184d0597", "is_reserved": 0}, {"is_disabled": 0, "fusion_lon": 0.0, "fusion_lat": 0.0, "lat": 38.91853316666667, "type": "electric_bike", "lon": -76.9609005, "bike_id": "eb1ec31c26aaeed0da2b9b56467ab83e", "rental_uris": {"android": "https://dc.lft.to/lastmile_qr_scan", "ios": "https://dc.lft.to/lastmile_qr_scan"}, "name": "eb1ec31c26aaeed0da2b9b56467ab83e", "is_reserved": 0}, {"is_disabled": 0, "fusion_lon": 0.0, "fusion_lat": 0.0, "lat": 38.9295895, "type": "electric_scooter", "lon": -77.02342883333333, "bike_id": "a770ba543963d87cf44c93c4d5d603e7", "rental_uris": {"android": "https://dc.lft.to/lastmile_qr_scan", "ios": "https://dc.lft.to/lastmile_qr_scan"}, "name": "a770ba543963d87cf44c93c4d5d603e7", "is_reserved": 0}, {"is_disabled": 0, "fusion_lon": 0.0, "fusion_lat": 0.0, "lat": 38.92751616666666, "type": "electric_scooter", "lon": -77.02536333333333, "bike_id": "eca015d8ea26da34339828191cada3d1", "rental_uris": {"android": "https://dc.lft.to/lastmile_qr_scan", "ios": "https://dc.lft.to/lastmile_qr_scan"}, "name": "eca015d8ea26da34339828191cada3d1", "is_reserved": 0}, {"is_disabled": 0, "fusion_lon": 0.0, "fusion_lat": 0.0, "lat": 38.874962333333336, "type": "electric_bike", "lon": -77.00084816666667, "bike_id": "bcc1792a984c6ca83620c29671a89e44", "rental_uris": {"android": "https://dc.lft.to/lastmile_qr_scan", "ios": "https://dc.lft.to/lastmile_qr_scan"}, "name": "bcc1792a984c6ca83620c29671a89e44", "is_reserved": 0}, {"is_disabled": 0, "fusion_lon": 0.0, "fusion_lat": 0.0, "lat": 38.91494333333333, "type": "electric_scooter", "lon": -76.98365516666667, "bike_id": "480d5566bdd6c4c51198c76bb2623c32", "rental_uris": {"android": "https://dc.lft.to/lastmile_qr_scan", "ios": "https://dc.lft.to/lastmile_qr_scan"}, "name": "480d5566bdd6c4c51198c76bb2623c32", "is_reserved": 0}, {"is_disabled": 0, "fusion_lon": 0.0, "fusion_lat": 0.0, "lat": 38.907384, "type": "electric_scooter", "lon": -77.0076755, "bike_id": "e7aca3874fcc42d59467b896a612ec9a", "rental_uris": {"android": "https://dc.lft.to/lastmile_qr_scan", "ios": "https://dc.lft.to/lastmile_qr_scan"}, "name": "e7aca3874fcc42d59467b896a612ec9a", "is_reserved": 0}, {"is_disabled": 0, "fusion_lon": 0.0, "fusion_lat": 0.0, "lat": 38.9418025, "type": "electric_scooter", "lon": -77.03654783333333, "bike_id": "223c53b9fe5eed21f52cf894e8edf990", "rental_uris": {"android": "https://dc.lft.to/lastmile_qr_scan", "ios": "https://dc.lft.to/lastmile_qr_scan"}, "name": "223c53b9fe5eed21f52cf894e8edf990", "is_reserved": 0}, {"is_disabled": 0, "fusion_lon": 0.0, "fusion_lat": 0.0, "lat": 38.956451666666666, "type": "electric_scooter", "lon": -77.014943, "bike_id": "c488f22d154eda6cdf82fcedc90c91a3", "rental_uris": {"android": "https://dc.lft.to/lastmile_qr_scan", "ios": "https://dc.lft.to/lastmile_qr_scan"}, "name": "c488f22d154eda6cdf82fcedc90c91a3", "is_reserved": 0}, {"is_disabled": 0, "fusion_lon": 0.0, "fusion_lat": 0.0, "lat": 38.92898866666667, "type": "electric_scooter", "lon": -77.031706, "bike_id": "729693fd8f600014b951ccee52954eaf", "rental_uris": {"android": "https://dc.lft.to/lastmile_qr_scan", "ios": "https://dc.lft.to/lastmile_qr_scan"}, "name": "729693fd8f600014b951ccee52954eaf", "is_reserved": 0}, {"is_disabled": 0, "fusion_lon": 0.0, "fusion_lat": 0.0, "lat": 38.907252166666666, "type": "electric_scooter", "lon": -77.0297135, "bike_id": "2bbc691d63b2c31dcba09af2df56a07b", "rental_uris": {"android": "https://dc.lft.to/lastmile_qr_scan", "ios": "https://dc.lft.to/lastmile_qr_scan"}, "name": "2bbc691d63b2c31dcba09af2df56a07b", "is_reserved": 0}, {"is_disabled": 0, "fusion_lon": 0.0, "fusion_lat": 0.0, "lat": 38.928953666666665, "type": "electric_scooter", "lon": -77.02409633333333, "bike_id": "dba28040e834735a5017b8e9f8f2bea0", "rental_uris": {"android": "https://dc.lft.to/lastmile_qr_scan", "ios": "https://dc.lft.to/lastmile_qr_scan"}, "name": "dba28040e834735a5017b8e9f8f2bea0", "is_reserved": 0}, {"is_disabled": 0, "fusion_lon": 0.0, "fusion_lat": 0.0, "lat": 38.92534533333333, "type": "electric_scooter", "lon": -77.073455, "bike_id": "8868e10b374711b0c64ce23f6b951296", "rental_uris": {"android": "https://dc.lft.to/lastmile_qr_scan", "ios": "https://dc.lft.to/lastmile_qr_scan"}, "name": "8868e10b374711b0c64ce23f6b951296", "is_reserved": 0}, {"is_disabled": 0, "fusion_lon": 0.0, "fusion_lat": 0.0, "lat": 38.8964585, "type": "electric_scooter", "lon": -77.043244, "bike_id": "41631e013ddd2857d9ae54494f0429e2", "rental_uris": {"android": "https://dc.lft.to/lastmile_qr_scan", "ios": "https://dc.lft.to/lastmile_qr_scan"}, "name": "41631e013ddd2857d9ae54494f0429e2", "is_reserved": 0}, {"is_disabled": 0, "fusion_lon": 0.0, "fusion_lat": 0.0, "lat": 38.95686666666667, "type": "electric_scooter", "lon": -77.024054, "bike_id": "5320ea415239299052d1206fdde9a166", "rental_uris": {"android": "https://dc.lft.to/lastmile_qr_scan", "ios": "https://dc.lft.to/lastmile_qr_scan"}, "name": "5320ea415239299052d1206fdde9a166", "is_reserved": 0}, {"is_disabled": 0, "fusion_lon": 0.0, "fusion_lat": 0.0, "lat": 38.8978145, "type": "electric_scooter", "lon": -77.02477816666666, "bike_id": "20847769825bd3c5b8c11b17b46f36c6", "rental_uris": {"android": "https://dc.lft.to/lastmile_qr_scan", "ios": "https://dc.lft.to/lastmile_qr_scan"}, "name": "20847769825bd3c5b8c11b17b46f36c6", "is_reserved": 0}, {"is_disabled": 0, "fusion_lon": 0.0, "fusion_lat": 0.0, "lat": 38.876703666666664, "type": "electric_bike", "lon": -77.014618, "bike_id": "96ca67efcf7d8f75bda1c14a38f2553d", "rental_uris": {"android": "https://dc.lft.to/lastmile_qr_scan", "ios": "https://dc.lft.to/lastmile_qr_scan"}, "name": "96ca67efcf7d8f75bda1c14a38f2553d", "is_reserved": 0}, {"is_disabled": 0, "fusion_lon": 0.0, "fusion_lat": 0.0, "lat": 38.9181655, "type": "electric_scooter", "lon": -77.03805183333333, "bike_id": "50108433252f52aa87e2162544a48f3c", "rental_uris": {"android": "https://dc.lft.to/lastmile_qr_scan", "ios": "https://dc.lft.to/lastmile_qr_scan"}, "name": "50108433252f52aa87e2162544a48f3c", "is_reserved": 0}, {"is_disabled": 0, "fusion_lon": 0.0, "fusion_lat": 0.0, "lat": 38.9335675, "type": "electric_scooter", "lon": -77.07382866666667, "bike_id": "21fe913de3eabee7aeeec4b256b3bdff", "rental_uris": {"android": "https://dc.lft.to/lastmile_qr_scan", "ios": "https://dc.lft.to/lastmile_qr_scan"}, "name": "21fe913de3eabee7aeeec4b256b3bdff", "is_reserved": 0}, {"is_disabled": 0, "fusion_lon": 0.0, "fusion_lat": 0.0, "lat": 38.90977, "type": "electric_scooter", "lon": -77.03871716666667, "bike_id": "ef980439eea77d6b10200381b07f9294", "rental_uris": {"android": "https://dc.lft.to/lastmile_qr_scan", "ios": "https://dc.lft.to/lastmile_qr_scan"}, "name": "ef980439eea77d6b10200381b07f9294", "is_reserved": 0}, {"is_disabled": 0, "fusion_lon": 0.0, "fusion_lat": 0.0, "lat": 38.875401833333335, "type": "electric_scooter", "lon": -77.01363933333333, "bike_id": "fa086cb73a8443e5b2543e2a9d3ac803", "rental_uris": {"android": "https://dc.lft.to/lastmile_qr_scan", "ios": "https://dc.lft.to/lastmile_qr_scan"}, "name": "fa086cb73a8443e5b2543e2a9d3ac803", "is_reserved": 0}, {"is_disabled": 0, "fusion_lon": 0.0, "fusion_lat": 0.0, "lat": 38.896392166666665, "type": "electric_scooter", "lon": -77.04332266666667, "bike_id": "f6d5ccc1e0bece4e41ef17c94f65e6f2", "rental_uris": {"android": "https://dc.lft.to/lastmile_qr_scan", "ios": "https://dc.lft.to/lastmile_qr_scan"}, "name": "f6d5ccc1e0bece4e41ef17c94f65e6f2", "is_reserved": 0}, {"is_disabled": 0, "fusion_lon": 0.0, "fusion_lat": 0.0, "lat": 38.92614866666667, "type": "electric_scooter", "lon": -77.0419755, "bike_id": "bba6c09d4cf91a937a96b3bb074a3d57", "rental_uris": {"android": "https://dc.lft.to/lastmile_qr_scan", "ios": "https://dc.lft.to/lastmile_qr_scan"}, "name": "bba6c09d4cf91a937a96b3bb074a3d57", "is_reserved": 0}, {"is_disabled": 0, "fusion_lon": 0.0, "fusion_lat": 0.0, "lat": 38.94452483333333, "type": "electric_scooter", "lon": -77.06026733333333, "bike_id": "2f3c02090a2c19cf4e4493c8b0f72f3e", "rental_uris": {"android": "https://dc.lft.to/lastmile_qr_scan", "ios": "https://dc.lft.to/lastmile_qr_scan"}, "name": "2f3c02090a2c19cf4e4493c8b0f72f3e", "is_reserved": 0}, {"is_disabled": 0, "fusion_lon": 0.0, "fusion_lat": 0.0, "lat": 38.99672483333333, "type": "electric_bike", "lon": -76.99142333333333, "bike_id": "fe78ad66e1aa1b74e43acd4b92bb2e42", "rental_uris": {"android": "https://dc.lft.to/lastmile_qr_scan", "ios": "https://dc.lft.to/lastmile_qr_scan"}, "name": "fe78ad66e1aa1b74e43acd4b92bb2e42", "is_reserved": 0}, {"is_disabled": 0, "fusion_lon": 0.0, "fusion_lat": 0.0, "lat": 38.87684316666667, "type": "electric_scooter", "lon": -77.01790316666667, "bike_id": "a705b35fcd3396825fbd4bf2063c9cdc", "rental_uris": {"android": "https://dc.lft.to/lastmile_qr_scan", "ios": "https://dc.lft.to/lastmile_qr_scan"}, "name": "a705b35fcd3396825fbd4bf2063c9cdc", "is_reserved": 0}, {"is_disabled": 0, "fusion_lon": 0.0, "fusion_lat": 0.0, "lat": 38.905762, "type": "electric_scooter", "lon": -77.04656133333333, "bike_id": "42657cc6fb1712e285b22c9336f684f9", "rental_uris": {"android": "https://dc.lft.to/lastmile_qr_scan", "ios": "https://dc.lft.to/lastmile_qr_scan"}, "name": "42657cc6fb1712e285b22c9336f684f9", "is_reserved": 0}, {"is_disabled": 0, "fusion_lon": 0.0, "fusion_lat": 0.0, "lat": 38.90539966666667, "type": "electric_scooter", "lon": -77.0270095, "bike_id": "c14e6134ecd65ba2cf576829f8e43c3d", "rental_uris": {"android": "https://dc.lft.to/lastmile_qr_scan", "ios": "https://dc.lft.to/lastmile_qr_scan"}, "name": "c14e6134ecd65ba2cf576829f8e43c3d", "is_reserved": 0}, {"is_disabled": 0, "fusion_lon": 0.0, "fusion_lat": 0.0, "lat": 38.917105166666666, "type": "electric_scooter", "lon": -77.028606, "bike_id": "eea01ff823add39932d3db98403d6a65", "rental_uris": {"android": "https://dc.lft.to/lastmile_qr_scan", "ios": "https://dc.lft.to/lastmile_qr_scan"}, "name": "eea01ff823add39932d3db98403d6a65", "is_reserved": 0}, {"is_disabled": 0, "fusion_lon": 0.0, "fusion_lat": 0.0, "lat": 38.96229233333333, "type": "electric_scooter", "lon": -77.02810716666667, "bike_id": "ef927b679b097b95d22c9f14a0611124", "rental_uris": {"android": "https://dc.lft.to/lastmile_qr_scan", "ios": "https://dc.lft.to/lastmile_qr_scan"}, "name": "ef927b679b097b95d22c9f14a0611124", "is_reserved": 0}, {"is_disabled": 0, "fusion_lon": 0.0, "fusion_lat": 0.0, "lat": 38.894759666666666, "type": "electric_scooter", "lon": -76.995269, "bike_id": "77b3767d404fcc546acf077c80aa2cbb", "rental_uris": {"android": "https://dc.lft.to/lastmile_qr_scan", "ios": "https://dc.lft.to/lastmile_qr_scan"}, "name": "77b3767d404fcc546acf077c80aa2cbb", "is_reserved": 0}, {"is_disabled": 0, "fusion_lon": 0.0, "fusion_lat": 0.0, "lat": 38.865187666666664, "type": "electric_scooter", "lon": -76.97336066666666, "bike_id": "7e3de73cb3835ccad02e7c9563e1f68f", "rental_uris": {"android": "https://dc.lft.to/lastmile_qr_scan", "ios": "https://dc.lft.to/lastmile_qr_scan"}, "name": "7e3de73cb3835ccad02e7c9563e1f68f", "is_reserved": 0}, {"is_disabled": 0, "fusion_lon": 0.0, "fusion_lat": 0.0, "lat": 38.9211335, "type": "electric_scooter", "lon": -77.017768, "bike_id": "2641c6507eb7f273b2f9bdbc7c672ff4", "rental_uris": {"android": "https://dc.lft.to/lastmile_qr_scan", "ios": "https://dc.lft.to/lastmile_qr_scan"}, "name": "2641c6507eb7f273b2f9bdbc7c672ff4", "is_reserved": 0}, {"is_disabled": 0, "fusion_lon": 0.0, "fusion_lat": 0.0, "lat": 38.92680633333333, "type": "electric_scooter", "lon": -77.02690583333333, "bike_id": "09ed8a10ec92cff9c757ba2143f66e65", "rental_uris": {"android": "https://dc.lft.to/lastmile_qr_scan", "ios": "https://dc.lft.to/lastmile_qr_scan"}, "name": "09ed8a10ec92cff9c757ba2143f66e65", "is_reserved": 0}, {"is_disabled": 0, "fusion_lon": 0.0, "fusion_lat": 0.0, "lat": 38.961371, "type": "electric_scooter", "lon": -77.0280055, "bike_id": "2251528aa4da02df8cf4ee27d1e12443", "rental_uris": {"android": "https://dc.lft.to/lastmile_qr_scan", "ios": "https://dc.lft.to/lastmile_qr_scan"}, "name": "2251528aa4da02df8cf4ee27d1e12443", "is_reserved": 0}, {"is_disabled": 0, "fusion_lon": 0.0, "fusion_lat": 0.0, "lat": 38.893045666666666, "type": "electric_scooter", "lon": -77.02130066666666, "bike_id": "2c12b3318be8495aa7dcb58347c796e0", "rental_uris": {"android": "https://dc.lft.to/lastmile_qr_scan", "ios": "https://dc.lft.to/lastmile_qr_scan"}, "name": "2c12b3318be8495aa7dcb58347c796e0", "is_reserved": 0}, {"is_disabled": 0, "fusion_lon": 0.0, "fusion_lat": 0.0, "lat": 38.9498035, "type": "electric_scooter", "lon": -77.02703, "bike_id": "4fecfc51e9e31fd886eaed0d5c9d067a", "rental_uris": {"android": "https://dc.lft.to/lastmile_qr_scan", "ios": "https://dc.lft.to/lastmile_qr_scan"}, "name": "4fecfc51e9e31fd886eaed0d5c9d067a", "is_reserved": 0}, {"is_disabled": 0, "fusion_lon": 0.0, "fusion_lat": 0.0, "lat": 38.85810633333333, "type": "electric_scooter", "lon": -76.989647, "bike_id": "80863f7f8ae585653a84b34e07aeee3c", "rental_uris": {"android": "https://dc.lft.to/lastmile_qr_scan", "ios": "https://dc.lft.to/lastmile_qr_scan"}, "name": "80863f7f8ae585653a84b34e07aeee3c", "is_reserved": 0}, {"is_disabled": 0, "fusion_lon": 0.0, "fusion_lat": 0.0, "lat": 38.918074, "type": "electric_scooter", "lon": -77.04032533333333, "bike_id": "ea8085b95079541d7b1516f36b9cbbc2", "rental_uris": {"android": "https://dc.lft.to/lastmile_qr_scan", "ios": "https://dc.lft.to/lastmile_qr_scan"}, "name": "ea8085b95079541d7b1516f36b9cbbc2", "is_reserved": 0}, {"is_disabled": 0, "fusion_lon": 0.0, "fusion_lat": 0.0, "lat": 38.9428485, "type": "electric_scooter", "lon": -77.03636383333334, "bike_id": "2a83fa67869ba36f832e872cf94cdb13", "rental_uris": {"android": "https://dc.lft.to/lastmile_qr_scan", "ios": "https://dc.lft.to/lastmile_qr_scan"}, "name": "2a83fa67869ba36f832e872cf94cdb13", "is_reserved": 0}, {"is_disabled": 0, "fusion_lon": 0.0, "fusion_lat": 0.0, "lat": 38.89989583333333, "type": "electric_scooter", "lon": -77.02607266666666, "bike_id": "bebe0113b97274761b0f884c481858c9", "rental_uris": {"android": "https://dc.lft.to/lastmile_qr_scan", "ios": "https://dc.lft.to/lastmile_qr_scan"}, "name": "bebe0113b97274761b0f884c481858c9", "is_reserved": 0}, {"is_disabled": 0, "fusion_lon": 0.0, "fusion_lat": 0.0, "lat": 38.90414416666667, "type": "electric_scooter", "lon": -77.02401533333334, "bike_id": "9d5048d30c70af85e499e8327ecac3b2", "rental_uris": {"android": "https://dc.lft.to/lastmile_qr_scan", "ios": "https://dc.lft.to/lastmile_qr_scan"}, "name": "9d5048d30c70af85e499e8327ecac3b2", "is_reserved": 0}, {"is_disabled": 0, "fusion_lon": 0.0, "fusion_lat": 0.0, "lat": 38.91333933333333, "type": "electric_scooter", "lon": -77.0325845, "bike_id": "710e93195a442d2730fe7c300393f68b", "rental_uris": {"android": "https://dc.lft.to/lastmile_qr_scan", "ios": "https://dc.lft.to/lastmile_qr_scan"}, "name": "710e93195a442d2730fe7c300393f68b", "is_reserved": 0}, {"is_disabled": 0, "fusion_lon": 0.0, "fusion_lat": 0.0, "lat": 38.935062, "type": "electric_scooter", "lon": -77.024175, "bike_id": "d0e96849ae86aa5b7847dd59905cb55a", "rental_uris": {"android": "https://dc.lft.to/lastmile_qr_scan", "ios": "https://dc.lft.to/lastmile_qr_scan"}, "name": "d0e96849ae86aa5b7847dd59905cb55a", "is_reserved": 0}, {"is_disabled": 0, "fusion_lon": 0.0, "fusion_lat": 0.0, "lat": 38.886246166666666, "type": "electric_scooter", "lon": -77.021936, "bike_id": "5dbc16787c7920d47d25e20d6cf83cc9", "rental_uris": {"android": "https://dc.lft.to/lastmile_qr_scan", "ios": "https://dc.lft.to/lastmile_qr_scan"}, "name": "5dbc16787c7920d47d25e20d6cf83cc9", "is_reserved": 0}, {"is_disabled": 0, "fusion_lon": 0.0, "fusion_lat": 0.0, "lat": 38.90544283333333, "type": "electric_scooter", "lon": -77.03405733333334, "bike_id": "1e232d97ea424788baa882d58097ba79", "rental_uris": {"android": "https://dc.lft.to/lastmile_qr_scan", "ios": "https://dc.lft.to/lastmile_qr_scan"}, "name": "1e232d97ea424788baa882d58097ba79", "is_reserved": 0}, {"is_disabled": 0, "fusion_lon": 0.0, "fusion_lat": 0.0, "lat": 38.89188766666667, "type": "electric_scooter", "lon": -76.988316, "bike_id": "a9cdef73d7dcb2a0129f72a35266f8cc", "rental_uris": {"android": "https://dc.lft.to/lastmile_qr_scan", "ios": "https://dc.lft.to/lastmile_qr_scan"}, "name": "a9cdef73d7dcb2a0129f72a35266f8cc", "is_reserved": 0}, {"is_disabled": 0, "fusion_lon": 0.0, "fusion_lat": 0.0, "lat": 38.943045, "type": "electric_scooter", "lon": -77.0235655, "bike_id": "31ee8331aede1f90247f998e5d37788c", "rental_uris": {"android": "https://dc.lft.to/lastmile_qr_scan", "ios": "https://dc.lft.to/lastmile_qr_scan"}, "name": "31ee8331aede1f90247f998e5d37788c", "is_reserved": 0}, {"is_disabled": 0, "fusion_lon": 0.0, "fusion_lat": 0.0, "lat": 38.938759833333336, "type": "electric_scooter", "lon": -77.03340716666666, "bike_id": "ecbfbb69e0eed218ff1b4c96002b2787", "rental_uris": {"android": "https://dc.lft.to/lastmile_qr_scan", "ios": "https://dc.lft.to/lastmile_qr_scan"}, "name": "ecbfbb69e0eed218ff1b4c96002b2787", "is_reserved": 0}, {"is_disabled": 0, "fusion_lon": 0.0, "fusion_lat": 0.0, "lat": 38.8571855, "type": "electric_bike", "lon": -76.98116166666667, "bike_id": "9d30351598b6de61eb1184fa8e02e0ea", "rental_uris": {"android": "https://dc.lft.to/lastmile_qr_scan", "ios": "https://dc.lft.to/lastmile_qr_scan"}, "name": "9d30351598b6de61eb1184fa8e02e0ea", "is_reserved": 0}, {"is_disabled": 0, "fusion_lon": 0.0, "fusion_lat": 0.0, "lat": 38.93045133333333, "type": "electric_scooter", "lon": -77.004169, "bike_id": "5365787ef4c3684d728b7699812add21", "rental_uris": {"android": "https://dc.lft.to/lastmile_qr_scan", "ios": "https://dc.lft.to/lastmile_qr_scan"}, "name": "5365787ef4c3684d728b7699812add21", "is_reserved": 0}, {"is_disabled": 0, "fusion_lon": 0.0, "fusion_lat": 0.0, "lat": 38.83118916666667, "type": "electric_bike", "lon": -77.04328383333333, "bike_id": "0200a1371cb18ac951bbeba206195fb0", "rental_uris": {"android": "https://dc.lft.to/lastmile_qr_scan", "ios": "https://dc.lft.to/lastmile_qr_scan"}, "name": "0200a1371cb18ac951bbeba206195fb0", "is_reserved": 0}, {"is_disabled": 0, "fusion_lon": 0.0, "fusion_lat": 0.0, "lat": 38.838133166666665, "type": "electric_scooter", "lon": -77.00434083333333, "bike_id": "ed6d6e66664355d7fb83de3d9b373469", "rental_uris": {"android": "https://dc.lft.to/lastmile_qr_scan", "ios": "https://dc.lft.to/lastmile_qr_scan"}, "name": "ed6d6e66664355d7fb83de3d9b373469", "is_reserved": 0}, {"is_disabled": 0, "fusion_lon": 0.0, "fusion_lat": 0.0, "lat": 39.115115333333335, "type": "electric_bike", "lon": -77.19546616666666, "bike_id": "e1beeb875b09f6a3df5c96f36e0fb5bb", "rental_uris": {"android": "https://dc.lft.to/lastmile_qr_scan", "ios": "https://dc.lft.to/lastmile_qr_scan"}, "name": "e1beeb875b09f6a3df5c96f36e0fb5bb", "is_reserved": 0}, {"is_disabled": 0, "fusion_lon": 0.0, "fusion_lat": 0.0, "lat": 38.99255433333333, "type": "electric_bike", "lon": -77.05000266666667, "bike_id": "fbcd889226dc82ad68a2a40d3fbdfdd4", "rental_uris": {"android": "https://dc.lft.to/lastmile_qr_scan", "ios": "https://dc.lft.to/lastmile_qr_scan"}, "name": "fbcd889226dc82ad68a2a40d3fbdfdd4", "is_reserved": 0}, {"is_disabled": 0, "fusion_lon": 0.0, "fusion_lat": 0.0, "lat": 38.92757916666667, "type": "electric_scooter", "lon": -77.005984, "bike_id": "e4006f44af444b0d1102d3e7cea049d5", "rental_uris": {"android": "https://dc.lft.to/lastmile_qr_scan", "ios": "https://dc.lft.to/lastmile_qr_scan"}, "name": "e4006f44af444b0d1102d3e7cea049d5", "is_reserved": 0}, {"is_disabled": 0, "fusion_lon": 0.0, "fusion_lat": 0.0, "lat": 38.90393533333334, "type": "electric_scooter", "lon": -76.9900605, "bike_id": "7405aaa1c3fe534951f7ffce711c18d9", "rental_uris": {"android": "https://dc.lft.to/lastmile_qr_scan", "ios": "https://dc.lft.to/lastmile_qr_scan"}, "name": "7405aaa1c3fe534951f7ffce711c18d9", "is_reserved": 0}, {"is_disabled": 0, "fusion_lon": 0.0, "fusion_lat": 0.0, "lat": 38.90628816666667, "type": "electric_bike", "lon": -77.04146433333334, "bike_id": "2a1a7e4ad1920bd105071142012d6fa4", "rental_uris": {"android": "https://dc.lft.to/lastmile_qr_scan", "ios": "https://dc.lft.to/lastmile_qr_scan"}, "name": "2a1a7e4ad1920bd105071142012d6fa4", "is_reserved": 0}, {"is_disabled": 0, "fusion_lon": 0.0, "fusion_lat": 0.0, "lat": 38.91936416666667, "type": "electric_scooter", "lon": -76.98073183333334, "bike_id": "8619c40877eb67e54c18023620b2ae3b", "rental_uris": {"android": "https://dc.lft.to/lastmile_qr_scan", "ios": "https://dc.lft.to/lastmile_qr_scan"}, "name": "8619c40877eb67e54c18023620b2ae3b", "is_reserved": 0}, {"is_disabled": 0, "fusion_lon": 0.0, "fusion_lat": 0.0, "lat": 38.92328666666667, "type": "electric_scooter", "lon": -77.0418455, "bike_id": "fedf70428be139ee391cf0491a940728", "rental_uris": {"android": "https://dc.lft.to/lastmile_qr_scan", "ios": "https://dc.lft.to/lastmile_qr_scan"}, "name": "fedf70428be139ee391cf0491a940728", "is_reserved": 0}, {"is_disabled": 0, "fusion_lon": 0.0, "fusion_lat": 0.0, "lat": 38.921124, "type": "electric_scooter", "lon": -77.01779066666667, "bike_id": "d1e14a823d000a5d6978759e8cc48fc0", "rental_uris": {"android": "https://dc.lft.to/lastmile_qr_scan", "ios": "https://dc.lft.to/lastmile_qr_scan"}, "name": "d1e14a823d000a5d6978759e8cc48fc0", "is_reserved": 0}, {"is_disabled": 0, "fusion_lon": 0.0, "fusion_lat": 0.0, "lat": 38.8551435, "type": "electric_bike", "lon": -76.95838816666667, "bike_id": "bb52ce9970377a5cab3747c6e26d4e96", "rental_uris": {"android": "https://dc.lft.to/lastmile_qr_scan", "ios": "https://dc.lft.to/lastmile_qr_scan"}, "name": "bb52ce9970377a5cab3747c6e26d4e96", "is_reserved": 0}, {"is_disabled": 0, "fusion_lon": 0.0, "fusion_lat": 0.0, "lat": 38.91546733333333, "type": "electric_scooter", "lon": -77.007724, "bike_id": "93617b5d3afa09afe7c3cd0c1f99a3d8", "rental_uris": {"android": "https://dc.lft.to/lastmile_qr_scan", "ios": "https://dc.lft.to/lastmile_qr_scan"}, "name": "93617b5d3afa09afe7c3cd0c1f99a3d8", "is_reserved": 0}, {"is_disabled": 0, "fusion_lon": 0.0, "fusion_lat": 0.0, "lat": 38.90959633333333, "type": "electric_scooter", "lon": -77.01571283333334, "bike_id": "68deca026ec848e7bef75b984dd28f0d", "rental_uris": {"android": "https://dc.lft.to/lastmile_qr_scan", "ios": "https://dc.lft.to/lastmile_qr_scan"}, "name": "68deca026ec848e7bef75b984dd28f0d", "is_reserved": 0}, {"is_disabled": 0, "fusion_lon": 0.0, "fusion_lat": 0.0, "lat": 38.9084795, "type": "electric_scooter", "lon": -77.02061233333333, "bike_id": "16910959c817b017c07e416eb46fe34f", "rental_uris": {"android": "https://dc.lft.to/lastmile_qr_scan", "ios": "https://dc.lft.to/lastmile_qr_scan"}, "name": "16910959c817b017c07e416eb46fe34f", "is_reserved": 0}, {"is_disabled": 0, "fusion_lon": 0.0, "fusion_lat": 0.0, "lat": 38.9071385, "type": "electric_scooter", "lon": -77.032109, "bike_id": "f9f431da33d1521c1801ef577441116f", "rental_uris": {"android": "https://dc.lft.to/lastmile_qr_scan", "ios": "https://dc.lft.to/lastmile_qr_scan"}, "name": "f9f431da33d1521c1801ef577441116f", "is_reserved": 0}, {"is_disabled": 0, "fusion_lon": 0.0, "fusion_lat": 0.0, "lat": 38.89736666666667, "type": "electric_scooter", "lon": -77.047937, "bike_id": "2322cd9f8703911c0da98d78da0535db", "rental_uris": {"android": "https://dc.lft.to/lastmile_qr_scan", "ios": "https://dc.lft.to/lastmile_qr_scan"}, "name": "2322cd9f8703911c0da98d78da0535db", "is_reserved": 0}, {"is_disabled": 0, "fusion_lon": 0.0, "fusion_lat": 0.0, "lat": 38.924857, "type": "electric_scooter", "lon": -77.03483816666666, "bike_id": "70746c9f63c5e2ef0ae8b5c6b8b4fb11", "rental_uris": {"android": "https://dc.lft.to/lastmile_qr_scan", "ios": "https://dc.lft.to/lastmile_qr_scan"}, "name": "70746c9f63c5e2ef0ae8b5c6b8b4fb11", "is_reserved": 0}, {"is_disabled": 0, "fusion_lon": 0.0, "fusion_lat": 0.0, "lat": 38.90362366666667, "type": "electric_scooter", "lon": -77.00500383333333, "bike_id": "defadf861872f6755f3c39ef2ea54427", "rental_uris": {"android": "https://dc.lft.to/lastmile_qr_scan", "ios": "https://dc.lft.to/lastmile_qr_scan"}, "name": "defadf861872f6755f3c39ef2ea54427", "is_reserved": 0}, {"is_disabled": 0, "fusion_lon": 0.0, "fusion_lat": 0.0, "lat": 38.894738, "type": "electric_scooter", "lon": -77.0229805, "bike_id": "3b2a2ed6a58727601d4edfb87f40ade3", "rental_uris": {"android": "https://dc.lft.to/lastmile_qr_scan", "ios": "https://dc.lft.to/lastmile_qr_scan"}, "name": "3b2a2ed6a58727601d4edfb87f40ade3", "is_reserved": 0}, {"is_disabled": 0, "fusion_lon": 0.0, "fusion_lat": 0.0, "lat": 38.897298166666666, "type": "electric_scooter", "lon": -77.0468155, "bike_id": "4e31e31334852a8228dbdcf3047be4bb", "rental_uris": {"android": "https://dc.lft.to/lastmile_qr_scan", "ios": "https://dc.lft.to/lastmile_qr_scan"}, "name": "4e31e31334852a8228dbdcf3047be4bb", "is_reserved": 0}, {"is_disabled": 0, "fusion_lon": 0.0, "fusion_lat": 0.0, "lat": 38.93545733333333, "type": "electric_scooter", "lon": -77.03418716666667, "bike_id": "1a3a5085278f7c319714677d62baa446", "rental_uris": {"android": "https://dc.lft.to/lastmile_qr_scan", "ios": "https://dc.lft.to/lastmile_qr_scan"}, "name": "1a3a5085278f7c319714677d62baa446", "is_reserved": 0}, {"is_disabled": 0, "fusion_lon": 0.0, "fusion_lat": 0.0, "lat": 38.89238816666666, "type": "electric_scooter", "lon": -77.04679416666667, "bike_id": "2372472c22c630485df08f83898f4889", "rental_uris": {"android": "https://dc.lft.to/lastmile_qr_scan", "ios": "https://dc.lft.to/lastmile_qr_scan"}, "name": "2372472c22c630485df08f83898f4889", "is_reserved": 0}, {"is_disabled": 0, "fusion_lon": 0.0, "fusion_lat": 0.0, "lat": 38.904758333333334, "type": "electric_scooter", "lon": -76.99210066666667, "bike_id": "de95917d58608a27f59ea84023ee1980", "rental_uris": {"android": "https://dc.lft.to/lastmile_qr_scan", "ios": "https://dc.lft.to/lastmile_qr_scan"}, "name": "de95917d58608a27f59ea84023ee1980", "is_reserved": 0}, {"is_disabled": 0, "fusion_lon": 0.0, "fusion_lat": 0.0, "lat": 38.92255566666667, "type": "electric_scooter", "lon": -77.0713445, "bike_id": "1fae1f98bdeb502dfdba7418c856c27d", "rental_uris": {"android": "https://dc.lft.to/lastmile_qr_scan", "ios": "https://dc.lft.to/lastmile_qr_scan"}, "name": "1fae1f98bdeb502dfdba7418c856c27d", "is_reserved": 0}, {"is_disabled": 0, "fusion_lon": 0.0, "fusion_lat": 0.0, "lat": 38.911515, "type": "electric_scooter", "lon": -76.98506133333333, "bike_id": "53ac2646d445fcd1c931e99ef232ec90", "rental_uris": {"android": "https://dc.lft.to/lastmile_qr_scan", "ios": "https://dc.lft.to/lastmile_qr_scan"}, "name": "53ac2646d445fcd1c931e99ef232ec90", "is_reserved": 0}, {"is_disabled": 0, "fusion_lon": 0.0, "fusion_lat": 0.0, "lat": 38.9050645, "type": "electric_bike", "lon": -76.98123116666666, "bike_id": "cc42d5737f0b2f51a12b814249cf7750", "rental_uris": {"android": "https://dc.lft.to/lastmile_qr_scan", "ios": "https://dc.lft.to/lastmile_qr_scan"}, "name": "cc42d5737f0b2f51a12b814249cf7750", "is_reserved": 0}, {"is_disabled": 0, "fusion_lon": 0.0, "fusion_lat": 0.0, "lat": 38.90267433333333, "type": "electric_scooter", "lon": -77.00212933333333, "bike_id": "5d8ba0c5ec6cc40d6e8dc4740e5dcfcb", "rental_uris": {"android": "https://dc.lft.to/lastmile_qr_scan", "ios": "https://dc.lft.to/lastmile_qr_scan"}, "name": "5d8ba0c5ec6cc40d6e8dc4740e5dcfcb", "is_reserved": 0}, {"is_disabled": 0, "fusion_lon": 0.0, "fusion_lat": 0.0, "lat": 38.90759516666667, "type": "electric_scooter", "lon": -77.06313866666666, "bike_id": "d3158a36d25ceb6a4810f3e9ef60a7e1", "rental_uris": {"android": "https://dc.lft.to/lastmile_qr_scan", "ios": "https://dc.lft.to/lastmile_qr_scan"}, "name": "d3158a36d25ceb6a4810f3e9ef60a7e1", "is_reserved": 0}, {"is_disabled": 0, "fusion_lon": 0.0, "fusion_lat": 0.0, "lat": 38.909283333333335, "type": "electric_bike", "lon": -77.061243, "bike_id": "ba163506c8ad888e893a1f42ee251548", "rental_uris": {"android": "https://dc.lft.to/lastmile_qr_scan", "ios": "https://dc.lft.to/lastmile_qr_scan"}, "name": "ba163506c8ad888e893a1f42ee251548", "is_reserved": 0}, {"is_disabled": 0, "fusion_lon": 0.0, "fusion_lat": 0.0, "lat": 38.85209566666666, "type": "electric_bike", "lon": -77.10132466666667, "bike_id": "9180ae8b561e4eeb4c38914ba6bb5612", "rental_uris": {"android": "https://dc.lft.to/lastmile_qr_scan", "ios": "https://dc.lft.to/lastmile_qr_scan"}, "name": "9180ae8b561e4eeb4c38914ba6bb5612", "is_reserved": 0}, {"is_disabled": 0, "fusion_lon": 0.0, "fusion_lat": 0.0, "lat": 38.932818, "type": "electric_scooter", "lon": -76.97425616666666, "bike_id": "8104ebb6cfa360013730040b62b10d30", "rental_uris": {"android": "https://dc.lft.to/lastmile_qr_scan", "ios": "https://dc.lft.to/lastmile_qr_scan"}, "name": "8104ebb6cfa360013730040b62b10d30", "is_reserved": 0}, {"is_disabled": 0, "fusion_lon": 0.0, "fusion_lat": 0.0, "lat": 38.8768505, "type": "electric_scooter", "lon": -77.01791316666667, "bike_id": "cb1778ac0f76630f88b1e6daf3541de0", "rental_uris": {"android": "https://dc.lft.to/lastmile_qr_scan", "ios": "https://dc.lft.to/lastmile_qr_scan"}, "name": "cb1778ac0f76630f88b1e6daf3541de0", "is_reserved": 0}, {"is_disabled": 0, "fusion_lon": 0.0, "fusion_lat": 0.0, "lat": 38.927562, "type": "electric_scooter", "lon": -77.00594966666667, "bike_id": "4d553d7ed26b173e975886dfb5059aef", "rental_uris": {"android": "https://dc.lft.to/lastmile_qr_scan", "ios": "https://dc.lft.to/lastmile_qr_scan"}, "name": "4d553d7ed26b173e975886dfb5059aef", "is_reserved": 0}, {"is_disabled": 0, "fusion_lon": 0.0, "fusion_lat": 0.0, "lat": 38.90529, "type": "electric_scooter", "lon": -77.0500105, "bike_id": "73dcf09a093dbe765feb0ab9f65b9c4c", "rental_uris": {"android": "https://dc.lft.to/lastmile_qr_scan", "ios": "https://dc.lft.to/lastmile_qr_scan"}, "name": "73dcf09a093dbe765feb0ab9f65b9c4c", "is_reserved": 0}, {"is_disabled": 0, "fusion_lon": 0.0, "fusion_lat": 0.0, "lat": 38.910501833333335, "type": "electric_scooter", "lon": -77.0227985, "bike_id": "b9dacd37b85ca342c47b27ac05680adf", "rental_uris": {"android": "https://dc.lft.to/lastmile_qr_scan", "ios": "https://dc.lft.to/lastmile_qr_scan"}, "name": "b9dacd37b85ca342c47b27ac05680adf", "is_reserved": 0}, {"is_disabled": 0, "fusion_lon": 0.0, "fusion_lat": 0.0, "lat": 38.91701916666667, "type": "electric_scooter", "lon": -77.03318483333334, "bike_id": "6380a4b7f02e97b9220df2eefabe1d93", "rental_uris": {"android": "https://dc.lft.to/lastmile_qr_scan", "ios": "https://dc.lft.to/lastmile_qr_scan"}, "name": "6380a4b7f02e97b9220df2eefabe1d93", "is_reserved": 0}, {"is_disabled": 0, "fusion_lon": 0.0, "fusion_lat": 0.0, "lat": 38.95184016666666, "type": "electric_scooter", "lon": -77.0261005, "bike_id": "638fbc347662157d2bb11396e85d4053", "rental_uris": {"android": "https://dc.lft.to/lastmile_qr_scan", "ios": "https://dc.lft.to/lastmile_qr_scan"}, "name": "638fbc347662157d2bb11396e85d4053", "is_reserved": 0}, {"is_disabled": 0, "fusion_lon": 0.0, "fusion_lat": 0.0, "lat": 38.903839833333336, "type": "electric_scooter", "lon": -76.990105, "bike_id": "bc1c77b8ea576f15c9888ebf5c4db18d", "rental_uris": {"android": "https://dc.lft.to/lastmile_qr_scan", "ios": "https://dc.lft.to/lastmile_qr_scan"}, "name": "bc1c77b8ea576f15c9888ebf5c4db18d", "is_reserved": 0}, {"is_disabled": 0, "fusion_lon": 0.0, "fusion_lat": 0.0, "lat": 38.8982995, "type": "electric_scooter", "lon": -76.9465755, "bike_id": "6b44f052b1a2c6bf7e8cfc5551f37f31", "rental_uris": {"android": "https://dc.lft.to/lastmile_qr_scan", "ios": "https://dc.lft.to/lastmile_qr_scan"}, "name": "6b44f052b1a2c6bf7e8cfc5551f37f31", "is_reserved": 0}, {"is_disabled": 0, "fusion_lon": 0.0, "fusion_lat": 0.0, "lat": 38.94624616666667, "type": "electric_bike", "lon": -76.93415383333334, "bike_id": "f034586da91b38acb73ad5ce58329a32", "rental_uris": {"android": "https://dc.lft.to/lastmile_qr_scan", "ios": "https://dc.lft.to/lastmile_qr_scan"}, "name": "f034586da91b38acb73ad5ce58329a32", "is_reserved": 0}, {"is_disabled": 0, "fusion_lon": 0.0, "fusion_lat": 0.0, "lat": 38.90267983333333, "type": "electric_scooter", "lon": -77.03450533333333, "bike_id": "89438cc757683e2073fff036c783408f", "rental_uris": {"android": "https://dc.lft.to/lastmile_qr_scan", "ios": "https://dc.lft.to/lastmile_qr_scan"}, "name": "89438cc757683e2073fff036c783408f", "is_reserved": 0}, {"is_disabled": 0, "fusion_lon": 0.0, "fusion_lat": 0.0, "lat": 38.92460766666667, "type": "electric_scooter", "lon": -77.029654, "bike_id": "f79d67f30962779120334e35f8291ccb", "rental_uris": {"android": "https://dc.lft.to/lastmile_qr_scan", "ios": "https://dc.lft.to/lastmile_qr_scan"}, "name": "f79d67f30962779120334e35f8291ccb", "is_reserved": 0}, {"is_disabled": 0, "fusion_lon": 0.0, "fusion_lat": 0.0, "lat": 38.8957525, "type": "electric_bike", "lon": -76.9762515, "bike_id": "81a8b76cbbebfc1dc77b4d98a8781160", "rental_uris": {"android": "https://dc.lft.to/lastmile_qr_scan", "ios": "https://dc.lft.to/lastmile_qr_scan"}, "name": "81a8b76cbbebfc1dc77b4d98a8781160", "is_reserved": 0}, {"is_disabled": 0, "fusion_lon": 0.0, "fusion_lat": 0.0, "lat": 38.920904666666665, "type": "electric_scooter", "lon": -77.02598416666666, "bike_id": "a4cdb02431c598f73fa477b00daa395e", "rental_uris": {"android": "https://dc.lft.to/lastmile_qr_scan", "ios": "https://dc.lft.to/lastmile_qr_scan"}, "name": "a4cdb02431c598f73fa477b00daa395e", "is_reserved": 0}, {"is_disabled": 0, "fusion_lon": 0.0, "fusion_lat": 0.0, "lat": 38.88451, "type": "electric_scooter", "lon": -76.95098916666667, "bike_id": "6a6c1a66d6dc0109fcf77244232cb0aa", "rental_uris": {"android": "https://dc.lft.to/lastmile_qr_scan", "ios": "https://dc.lft.to/lastmile_qr_scan"}, "name": "6a6c1a66d6dc0109fcf77244232cb0aa", "is_reserved": 0}, {"is_disabled": 0, "fusion_lon": 0.0, "fusion_lat": 0.0, "lat": 38.897993166666666, "type": "electric_scooter", "lon": -77.04764316666666, "bike_id": "f3dcf82462238533a64385a06e5ddbb2", "rental_uris": {"android": "https://dc.lft.to/lastmile_qr_scan", "ios": "https://dc.lft.to/lastmile_qr_scan"}, "name": "f3dcf82462238533a64385a06e5ddbb2", "is_reserved": 0}, {"is_disabled": 0, "fusion_lon": 0.0, "fusion_lat": 0.0, "lat": 38.910511666666665, "type": "electric_scooter", "lon": -77.04274683333334, "bike_id": "d14e479635b708cc9f8d074bcff17414", "rental_uris": {"android": "https://dc.lft.to/lastmile_qr_scan", "ios": "https://dc.lft.to/lastmile_qr_scan"}, "name": "d14e479635b708cc9f8d074bcff17414", "is_reserved": 0}, {"is_disabled": 0, "fusion_lon": 0.0, "fusion_lat": 0.0, "lat": 38.91174516666667, "type": "electric_scooter", "lon": -77.00458633333334, "bike_id": "34cf0f4d8f03b0d3be2937f631056cbf", "rental_uris": {"android": "https://dc.lft.to/lastmile_qr_scan", "ios": "https://dc.lft.to/lastmile_qr_scan"}, "name": "34cf0f4d8f03b0d3be2937f631056cbf", "is_reserved": 0}, {"is_disabled": 0, "fusion_lon": 0.0, "fusion_lat": 0.0, "lat": 38.92348916666667, "type": "electric_scooter", "lon": -77.03903433333333, "bike_id": "9b9f076610c894491f859ca2ecf3a12c", "rental_uris": {"android": "https://dc.lft.to/lastmile_qr_scan", "ios": "https://dc.lft.to/lastmile_qr_scan"}, "name": "9b9f076610c894491f859ca2ecf3a12c", "is_reserved": 0}, {"is_disabled": 0, "fusion_lon": 0.0, "fusion_lat": 0.0, "lat": 38.899497, "type": "electric_scooter", "lon": -77.0199385, "bike_id": "2a2151ea6afc10c017442487b8618435", "rental_uris": {"android": "https://dc.lft.to/lastmile_qr_scan", "ios": "https://dc.lft.to/lastmile_qr_scan"}, "name": "2a2151ea6afc10c017442487b8618435", "is_reserved": 0}, {"is_disabled": 0, "fusion_lon": 0.0, "fusion_lat": 0.0, "lat": 38.93415233333333, "type": "electric_scooter", "lon": -77.0427165, "bike_id": "206d90fec4449465cada8a0770f790a8", "rental_uris": {"android": "https://dc.lft.to/lastmile_qr_scan", "ios": "https://dc.lft.to/lastmile_qr_scan"}, "name": "206d90fec4449465cada8a0770f790a8", "is_reserved": 0}, {"is_disabled": 0, "fusion_lon": 0.0, "fusion_lat": 0.0, "lat": 38.90902283333333, "type": "electric_scooter", "lon": -77.04287316666667, "bike_id": "b955f427d49adcf98917ab5e137f6479", "rental_uris": {"android": "https://dc.lft.to/lastmile_qr_scan", "ios": "https://dc.lft.to/lastmile_qr_scan"}, "name": "b955f427d49adcf98917ab5e137f6479", "is_reserved": 0}, {"is_disabled": 0, "fusion_lon": 0.0, "fusion_lat": 0.0, "lat": 38.838132333333334, "type": "electric_scooter", "lon": -77.00432566666667, "bike_id": "be5818613957a512a7619628b04ca4f2", "rental_uris": {"android": "https://dc.lft.to/lastmile_qr_scan", "ios": "https://dc.lft.to/lastmile_qr_scan"}, "name": "be5818613957a512a7619628b04ca4f2", "is_reserved": 0}, {"is_disabled": 0, "fusion_lon": 0.0, "fusion_lat": 0.0, "lat": 38.895214833333334, "type": "electric_scooter", "lon": -77.010925, "bike_id": "89ef9ece9959e9188ccb1c6b32590965", "rental_uris": {"android": "https://dc.lft.to/lastmile_qr_scan", "ios": "https://dc.lft.to/lastmile_qr_scan"}, "name": "89ef9ece9959e9188ccb1c6b32590965", "is_reserved": 0}, {"is_disabled": 0, "fusion_lon": 0.0, "fusion_lat": 0.0, "lat": 38.84292633333333, "type": "electric_scooter", "lon": -76.99947466666667, "bike_id": "2593b50f4072da759f19e19ec72bd8d2", "rental_uris": {"android": "https://dc.lft.to/lastmile_qr_scan", "ios": "https://dc.lft.to/lastmile_qr_scan"}, "name": "2593b50f4072da759f19e19ec72bd8d2", "is_reserved": 0}, {"is_disabled": 0, "fusion_lon": 0.0, "fusion_lat": 0.0, "lat": 38.907974, "type": "electric_scooter", "lon": -77.049882, "bike_id": "ea778c2173f8cacc692aec9d83d453d1", "rental_uris": {"android": "https://dc.lft.to/lastmile_qr_scan", "ios": "https://dc.lft.to/lastmile_qr_scan"}, "name": "ea778c2173f8cacc692aec9d83d453d1", "is_reserved": 0}, {"is_disabled": 0, "fusion_lon": 0.0, "fusion_lat": 0.0, "lat": 39.09946566666667, "type": "electric_bike", "lon": -77.18793633333334, "bike_id": "830a0bcd0df5a3d7233d6547bd58d0cf", "rental_uris": {"android": "https://dc.lft.to/lastmile_qr_scan", "ios": "https://dc.lft.to/lastmile_qr_scan"}, "name": "830a0bcd0df5a3d7233d6547bd58d0cf", "is_reserved": 0}, {"is_disabled": 0, "fusion_lon": 0.0, "fusion_lat": 0.0, "lat": 38.897360666666664, "type": "electric_scooter", "lon": -77.02842416666667, "bike_id": "21cb126463ac5d3e1cd4556a03f51b88", "rental_uris": {"android": "https://dc.lft.to/lastmile_qr_scan", "ios": "https://dc.lft.to/lastmile_qr_scan"}, "name": "21cb126463ac5d3e1cd4556a03f51b88", "is_reserved": 0}, {"is_disabled": 0, "fusion_lon": 0.0, "fusion_lat": 0.0, "lat": 38.92163383333333, "type": "electric_scooter", "lon": -77.03385666666667, "bike_id": "9f8e9ada14f411e4522e34cef1a89015", "rental_uris": {"android": "https://dc.lft.to/lastmile_qr_scan", "ios": "https://dc.lft.to/lastmile_qr_scan"}, "name": "9f8e9ada14f411e4522e34cef1a89015", "is_reserved": 0}, {"is_disabled": 0, "fusion_lon": 0.0, "fusion_lat": 0.0, "lat": 38.935125, "type": "electric_bike", "lon": -76.9495315, "bike_id": "0e0e7295f5e42b67864bc118d46537ed", "rental_uris": {"android": "https://dc.lft.to/lastmile_qr_scan", "ios": "https://dc.lft.to/lastmile_qr_scan"}, "name": "0e0e7295f5e42b67864bc118d46537ed", "is_reserved": 0}, {"is_disabled": 0, "fusion_lon": 0.0, "fusion_lat": 0.0, "lat": 38.8945965, "type": "electric_scooter", "lon": -76.99488333333333, "bike_id": "398b542f4d525ba6c1e87e06d2d5696d", "rental_uris": {"android": "https://dc.lft.to/lastmile_qr_scan", "ios": "https://dc.lft.to/lastmile_qr_scan"}, "name": "398b542f4d525ba6c1e87e06d2d5696d", "is_reserved": 0}, {"is_disabled": 0, "fusion_lon": 0.0, "fusion_lat": 0.0, "lat": 38.90730216666667, "type": "electric_scooter", "lon": -77.02984433333333, "bike_id": "c3a53c98e1dd6772b5304d7b0a2f576c", "rental_uris": {"android": "https://dc.lft.to/lastmile_qr_scan", "ios": "https://dc.lft.to/lastmile_qr_scan"}, "name": "c3a53c98e1dd6772b5304d7b0a2f576c", "is_reserved": 0}, {"is_disabled": 0, "fusion_lon": 0.0, "fusion_lat": 0.0, "lat": 38.8863455, "type": "electric_scooter", "lon": -76.99851016666666, "bike_id": "f79c504c0d68b5d2546e50f48b17c200", "rental_uris": {"android": "https://dc.lft.to/lastmile_qr_scan", "ios": "https://dc.lft.to/lastmile_qr_scan"}, "name": "f79c504c0d68b5d2546e50f48b17c200", "is_reserved": 0}, {"is_disabled": 0, "fusion_lon": 0.0, "fusion_lat": 0.0, "lat": 39.05264366666667, "type": "electric_bike", "lon": -77.04387633333333, "bike_id": "72396a0b9b982d1e832316550946d63a", "rental_uris": {"android": "https://dc.lft.to/lastmile_qr_scan", "ios": "https://dc.lft.to/lastmile_qr_scan"}, "name": "72396a0b9b982d1e832316550946d63a", "is_reserved": 0}, {"is_disabled": 0, "fusion_lon": 0.0, "fusion_lat": 0.0, "lat": 38.90830183333333, "type": "electric_scooter", "lon": -77.03836516666667, "bike_id": "868a7aeeb6fc0a27f647f49c9d0a8c44", "rental_uris": {"android": "https://dc.lft.to/lastmile_qr_scan", "ios": "https://dc.lft.to/lastmile_qr_scan"}, "name": "868a7aeeb6fc0a27f647f49c9d0a8c44", "is_reserved": 0}, {"is_disabled": 0, "fusion_lon": 0.0, "fusion_lat": 0.0, "lat": 38.949027666666666, "type": "electric_bike", "lon": -76.963724, "bike_id": "095df20acd8237d9f568b6ec3b6f0cd1", "rental_uris": {"android": "https://dc.lft.to/lastmile_qr_scan", "ios": "https://dc.lft.to/lastmile_qr_scan"}, "name": "095df20acd8237d9f568b6ec3b6f0cd1", "is_reserved": 0}, {"is_disabled": 0, "fusion_lon": 0.0, "fusion_lat": 0.0, "lat": 38.90532916666667, "type": "electric_scooter", "lon": -77.050044, "bike_id": "8002f52990008aaa4e8df13a894dc5bb", "rental_uris": {"android": "https://dc.lft.to/lastmile_qr_scan", "ios": "https://dc.lft.to/lastmile_qr_scan"}, "name": "8002f52990008aaa4e8df13a894dc5bb", "is_reserved": 0}, {"is_disabled": 0, "fusion_lon": 0.0, "fusion_lat": 0.0, "lat": 38.93701216666667, "type": "electric_scooter", "lon": -77.05602383333333, "bike_id": "0ecd30cc04046c56557263540d56f209", "rental_uris": {"android": "https://dc.lft.to/lastmile_qr_scan", "ios": "https://dc.lft.to/lastmile_qr_scan"}, "name": "0ecd30cc04046c56557263540d56f209", "is_reserved": 0}, {"is_disabled": 0, "fusion_lon": 0.0, "fusion_lat": 0.0, "lat": 38.8974685, "type": "electric_scooter", "lon": -77.02178216666667, "bike_id": "9df83deebaeb2b43d97d398d1141ac65", "rental_uris": {"android": "https://dc.lft.to/lastmile_qr_scan", "ios": "https://dc.lft.to/lastmile_qr_scan"}, "name": "9df83deebaeb2b43d97d398d1141ac65", "is_reserved": 0}, {"is_disabled": 0, "fusion_lon": 0.0, "fusion_lat": 0.0, "lat": 38.91704333333333, "type": "electric_scooter", "lon": -77.001178, "bike_id": "59791505a4bbfb9883126f6506294131", "rental_uris": {"android": "https://dc.lft.to/lastmile_qr_scan", "ios": "https://dc.lft.to/lastmile_qr_scan"}, "name": "59791505a4bbfb9883126f6506294131", "is_reserved": 0}, {"is_disabled": 0, "fusion_lon": 0.0, "fusion_lat": 0.0, "lat": 38.884623166666664, "type": "electric_bike", "lon": -76.91639966666666, "bike_id": "4d8a1671ee05f2fd6bf9751c16acaead", "rental_uris": {"android": "https://dc.lft.to/lastmile_qr_scan", "ios": "https://dc.lft.to/lastmile_qr_scan"}, "name": "4d8a1671ee05f2fd6bf9751c16acaead", "is_reserved": 0}, {"is_disabled": 0, "fusion_lon": 0.0, "fusion_lat": 0.0, "lat": 38.9162115, "type": "electric_scooter", "lon": -77.02286066666667, "bike_id": "99ff656d3339352f27620974167505fd", "rental_uris": {"android": "https://dc.lft.to/lastmile_qr_scan", "ios": "https://dc.lft.to/lastmile_qr_scan"}, "name": "99ff656d3339352f27620974167505fd", "is_reserved": 0}, {"is_disabled": 0, "fusion_lon": 0.0, "fusion_lat": 0.0, "lat": 38.91596233333333, "type": "electric_scooter", "lon": -77.072783, "bike_id": "50dc55e4059d6fbd48bd9ba123e7d93c", "rental_uris": {"android": "https://dc.lft.to/lastmile_qr_scan", "ios": "https://dc.lft.to/lastmile_qr_scan"}, "name": "50dc55e4059d6fbd48bd9ba123e7d93c", "is_reserved": 0}, {"is_disabled": 0, "fusion_lon": 0.0, "fusion_lat": 0.0, "lat": 38.912787, "type": "electric_scooter", "lon": -77.02249466666666, "bike_id": "b5ebc3b68f59a6e1467a231467a53a2a", "rental_uris": {"android": "https://dc.lft.to/lastmile_qr_scan", "ios": "https://dc.lft.to/lastmile_qr_scan"}, "name": "b5ebc3b68f59a6e1467a231467a53a2a", "is_reserved": 0}, {"is_disabled": 0, "fusion_lon": 0.0, "fusion_lat": 0.0, "lat": 38.930687, "type": "electric_scooter", "lon": -77.038103, "bike_id": "6523cd00db38c1ddf4ff664f2481c7f4", "rental_uris": {"android": "https://dc.lft.to/lastmile_qr_scan", "ios": "https://dc.lft.to/lastmile_qr_scan"}, "name": "6523cd00db38c1ddf4ff664f2481c7f4", "is_reserved": 0}, {"is_disabled": 0, "fusion_lon": 0.0, "fusion_lat": 0.0, "lat": 38.908507166666666, "type": "electric_scooter", "lon": -77.03189133333333, "bike_id": "c25e17e9af97f357713442b509c5364d", "rental_uris": {"android": "https://dc.lft.to/lastmile_qr_scan", "ios": "https://dc.lft.to/lastmile_qr_scan"}, "name": "c25e17e9af97f357713442b509c5364d", "is_reserved": 0}, {"is_disabled": 0, "fusion_lon": 0.0, "fusion_lat": 0.0, "lat": 38.888691333333334, "type": "electric_scooter", "lon": -77.04002766666666, "bike_id": "5e1bfb6bfdedbee44e05ed5570be627c", "rental_uris": {"android": "https://dc.lft.to/lastmile_qr_scan", "ios": "https://dc.lft.to/lastmile_qr_scan"}, "name": "5e1bfb6bfdedbee44e05ed5570be627c", "is_reserved": 0}, {"is_disabled": 0, "fusion_lon": 0.0, "fusion_lat": 0.0, "lat": 38.92872666666667, "type": "electric_scooter", "lon": -77.01417033333334, "bike_id": "986dde796c0acf7aa22ee393628e4fda", "rental_uris": {"android": "https://dc.lft.to/lastmile_qr_scan", "ios": "https://dc.lft.to/lastmile_qr_scan"}, "name": "986dde796c0acf7aa22ee393628e4fda", "is_reserved": 0}, {"is_disabled": 0, "fusion_lon": 0.0, "fusion_lat": 0.0, "lat": 38.9183875, "type": "electric_scooter", "lon": -77.0721285, "bike_id": "6bacc0d7a8e7c9535cfb54fa02ef2060", "rental_uris": {"android": "https://dc.lft.to/lastmile_qr_scan", "ios": "https://dc.lft.to/lastmile_qr_scan"}, "name": "6bacc0d7a8e7c9535cfb54fa02ef2060", "is_reserved": 0}, {"is_disabled": 0, "fusion_lon": 0.0, "fusion_lat": 0.0, "lat": 38.9127005, "type": "electric_scooter", "lon": -77.022248, "bike_id": "aa9541b2d615de0e065f4ddfaeee7fa2", "rental_uris": {"android": "https://dc.lft.to/lastmile_qr_scan", "ios": "https://dc.lft.to/lastmile_qr_scan"}, "name": "aa9541b2d615de0e065f4ddfaeee7fa2", "is_reserved": 0}, {"is_disabled": 0, "fusion_lon": 0.0, "fusion_lat": 0.0, "lat": 38.90602716666667, "type": "electric_scooter", "lon": -77.05711983333333, "bike_id": "f5b5d742e13e9de6ce3e9931c818dab0", "rental_uris": {"android": "https://dc.lft.to/lastmile_qr_scan", "ios": "https://dc.lft.to/lastmile_qr_scan"}, "name": "f5b5d742e13e9de6ce3e9931c818dab0", "is_reserved": 0}, {"is_disabled": 0, "fusion_lon": 0.0, "fusion_lat": 0.0, "lat": 38.925379166666666, "type": "electric_scooter", "lon": -77.07652316666666, "bike_id": "cb7a98562b73cc22cdab19e84af468f7", "rental_uris": {"android": "https://dc.lft.to/lastmile_qr_scan", "ios": "https://dc.lft.to/lastmile_qr_scan"}, "name": "cb7a98562b73cc22cdab19e84af468f7", "is_reserved": 0}, {"is_disabled": 0, "fusion_lon": 0.0, "fusion_lat": 0.0, "lat": 38.858720166666664, "type": "electric_scooter", "lon": -76.99022833333333, "bike_id": "fafd43794e7a3cfd5a2a3e9c25389dff", "rental_uris": {"android": "https://dc.lft.to/lastmile_qr_scan", "ios": "https://dc.lft.to/lastmile_qr_scan"}, "name": "fafd43794e7a3cfd5a2a3e9c25389dff", "is_reserved": 0}, {"is_disabled": 0, "fusion_lon": 0.0, "fusion_lat": 0.0, "lat": 38.909656, "type": "electric_scooter", "lon": -77.034286, "bike_id": "6ade0664075e9deba090a59ecbea6bee", "rental_uris": {"android": "https://dc.lft.to/lastmile_qr_scan", "ios": "https://dc.lft.to/lastmile_qr_scan"}, "name": "6ade0664075e9deba090a59ecbea6bee", "is_reserved": 0}, {"is_disabled": 0, "fusion_lon": 0.0, "fusion_lat": 0.0, "lat": 38.96029583333333, "type": "electric_bike", "lon": -76.92729016666667, "bike_id": "efbdd0cfcb0d229643ad98fb8d209f36", "rental_uris": {"android": "https://dc.lft.to/lastmile_qr_scan", "ios": "https://dc.lft.to/lastmile_qr_scan"}, "name": "efbdd0cfcb0d229643ad98fb8d209f36", "is_reserved": 0}, {"is_disabled": 0, "fusion_lon": 0.0, "fusion_lat": 0.0, "lat": 38.90700833333333, "type": "electric_scooter", "lon": -77.063054, "bike_id": "b27f343fa236ad9f3b0d23e8702c3e41", "rental_uris": {"android": "https://dc.lft.to/lastmile_qr_scan", "ios": "https://dc.lft.to/lastmile_qr_scan"}, "name": "b27f343fa236ad9f3b0d23e8702c3e41", "is_reserved": 0}, {"is_disabled": 0, "fusion_lon": 0.0, "fusion_lat": 0.0, "lat": 38.90774, "type": "electric_scooter", "lon": -77.03184983333334, "bike_id": "77d8dcb70a1a84a775ff13b5318451be", "rental_uris": {"android": "https://dc.lft.to/lastmile_qr_scan", "ios": "https://dc.lft.to/lastmile_qr_scan"}, "name": "77d8dcb70a1a84a775ff13b5318451be", "is_reserved": 0}, {"is_disabled": 0, "fusion_lon": 0.0, "fusion_lat": 0.0, "lat": 38.90722316666667, "type": "electric_scooter", "lon": -77.0343425, "bike_id": "8c9085cef21681a0c654892e314dc9ef", "rental_uris": {"android": "https://dc.lft.to/lastmile_qr_scan", "ios": "https://dc.lft.to/lastmile_qr_scan"}, "name": "8c9085cef21681a0c654892e314dc9ef", "is_reserved": 0}, {"is_disabled": 0, "fusion_lon": 0.0, "fusion_lat": 0.0, "lat": 38.89730266666667, "type": "electric_scooter", "lon": -77.02505216666667, "bike_id": "fe298eec833a7367581b34733ad61fb0", "rental_uris": {"android": "https://dc.lft.to/lastmile_qr_scan", "ios": "https://dc.lft.to/lastmile_qr_scan"}, "name": "fe298eec833a7367581b34733ad61fb0", "is_reserved": 0}, {"is_disabled": 0, "fusion_lon": 0.0, "fusion_lat": 0.0, "lat": 38.893725, "type": "electric_scooter", "lon": -76.97820483333334, "bike_id": "b74a8a1885e833f0039e3695a0d1de9c", "rental_uris": {"android": "https://dc.lft.to/lastmile_qr_scan", "ios": "https://dc.lft.to/lastmile_qr_scan"}, "name": "b74a8a1885e833f0039e3695a0d1de9c", "is_reserved": 0}, {"is_disabled": 0, "fusion_lon": 0.0, "fusion_lat": 0.0, "lat": 38.89311983333333, "type": "electric_scooter", "lon": -77.02207016666667, "bike_id": "a551788e49d0322da1802f4c7779d904", "rental_uris": {"android": "https://dc.lft.to/lastmile_qr_scan", "ios": "https://dc.lft.to/lastmile_qr_scan"}, "name": "a551788e49d0322da1802f4c7779d904", "is_reserved": 0}, {"is_disabled": 0, "fusion_lon": 0.0, "fusion_lat": 0.0, "lat": 38.958877, "type": "electric_bike", "lon": -76.92504066666666, "bike_id": "62771cdd0cb399efaf7873d43e3c83d7", "rental_uris": {"android": "https://dc.lft.to/lastmile_qr_scan", "ios": "https://dc.lft.to/lastmile_qr_scan"}, "name": "62771cdd0cb399efaf7873d43e3c83d7", "is_reserved": 0}, {"is_disabled": 0, "fusion_lon": 0.0, "fusion_lat": 0.0, "lat": 38.916592, "type": "electric_scooter", "lon": -77.04656216666666, "bike_id": "f65b8d079143898be2575322e4a3cb33", "rental_uris": {"android": "https://dc.lft.to/lastmile_qr_scan", "ios": "https://dc.lft.to/lastmile_qr_scan"}, "name": "f65b8d079143898be2575322e4a3cb33", "is_reserved": 0}, {"is_disabled": 0, "fusion_lon": 0.0, "fusion_lat": 0.0, "lat": 38.88555783333334, "type": "electric_scooter", "lon": -76.9980475, "bike_id": "9c29361ddcea5e3c55ed72c43371e4c0", "rental_uris": {"android": "https://dc.lft.to/lastmile_qr_scan", "ios": "https://dc.lft.to/lastmile_qr_scan"}, "name": "9c29361ddcea5e3c55ed72c43371e4c0", "is_reserved": 0}, {"is_disabled": 0, "fusion_lon": 0.0, "fusion_lat": 0.0, "lat": 38.90522266666667, "type": "electric_scooter", "lon": -77.04989916666666, "bike_id": "3e52cdf453cff65e79b9e4d113544525", "rental_uris": {"android": "https://dc.lft.to/lastmile_qr_scan", "ios": "https://dc.lft.to/lastmile_qr_scan"}, "name": "3e52cdf453cff65e79b9e4d113544525", "is_reserved": 0}, {"is_disabled": 0, "fusion_lon": 0.0, "fusion_lat": 0.0, "lat": 38.91689016666667, "type": "electric_scooter", "lon": -77.02603916666666, "bike_id": "147a3e026d604ac6da71818017ea926e", "rental_uris": {"android": "https://dc.lft.to/lastmile_qr_scan", "ios": "https://dc.lft.to/lastmile_qr_scan"}, "name": "147a3e026d604ac6da71818017ea926e", "is_reserved": 0}, {"is_disabled": 0, "fusion_lon": 0.0, "fusion_lat": 0.0, "lat": 38.89744066666667, "type": "electric_scooter", "lon": -77.0032085, "bike_id": "2ddc8f04e03c7546129f928421d83216", "rental_uris": {"android": "https://dc.lft.to/lastmile_qr_scan", "ios": "https://dc.lft.to/lastmile_qr_scan"}, "name": "2ddc8f04e03c7546129f928421d83216", "is_reserved": 0}, {"is_disabled": 0, "fusion_lon": 0.0, "fusion_lat": 0.0, "lat": 38.9475435, "type": "electric_scooter", "lon": -77.02981216666667, "bike_id": "ef7283af9f1317ab9cb0a54ce26e2918", "rental_uris": {"android": "https://dc.lft.to/lastmile_qr_scan", "ios": "https://dc.lft.to/lastmile_qr_scan"}, "name": "ef7283af9f1317ab9cb0a54ce26e2918", "is_reserved": 0}, {"is_disabled": 0, "fusion_lon": 0.0, "fusion_lat": 0.0, "lat": 38.93109066666667, "type": "electric_scooter", "lon": -77.01246066666667, "bike_id": "b6ce6b49ceb9c6350fda4f4184d7ded5", "rental_uris": {"android": "https://dc.lft.to/lastmile_qr_scan", "ios": "https://dc.lft.to/lastmile_qr_scan"}, "name": "b6ce6b49ceb9c6350fda4f4184d7ded5", "is_reserved": 0}, {"is_disabled": 0, "fusion_lon": 0.0, "fusion_lat": 0.0, "lat": 38.9073505, "type": "electric_scooter", "lon": -77.03456483333333, "bike_id": "6b52bd4d07c0ede08e276b35709ff394", "rental_uris": {"android": "https://dc.lft.to/lastmile_qr_scan", "ios": "https://dc.lft.to/lastmile_qr_scan"}, "name": "6b52bd4d07c0ede08e276b35709ff394", "is_reserved": 0}, {"is_disabled": 0, "fusion_lon": 0.0, "fusion_lat": 0.0, "lat": 38.92749533333333, "type": "electric_scooter", "lon": -77.0248775, "bike_id": "89f7531ae00c8a7728158100d676f785", "rental_uris": {"android": "https://dc.lft.to/lastmile_qr_scan", "ios": "https://dc.lft.to/lastmile_qr_scan"}, "name": "89f7531ae00c8a7728158100d676f785", "is_reserved": 0}, {"is_disabled": 0, "fusion_lon": 0.0, "fusion_lat": 0.0, "lat": 38.909518, "type": "electric_scooter", "lon": -77.02180016666667, "bike_id": "a91658e7affdcaa06f05ed37a6c0fe9d", "rental_uris": {"android": "https://dc.lft.to/lastmile_qr_scan", "ios": "https://dc.lft.to/lastmile_qr_scan"}, "name": "a91658e7affdcaa06f05ed37a6c0fe9d", "is_reserved": 0}, {"is_disabled": 0, "fusion_lon": 0.0, "fusion_lat": 0.0, "lat": 38.908766166666666, "type": "electric_scooter", "lon": -77.07638116666666, "bike_id": "20384eb4becad6d762cfaf8b5651f11b", "rental_uris": {"android": "https://dc.lft.to/lastmile_qr_scan", "ios": "https://dc.lft.to/lastmile_qr_scan"}, "name": "20384eb4becad6d762cfaf8b5651f11b", "is_reserved": 0}, {"is_disabled": 0, "fusion_lon": 0.0, "fusion_lat": 0.0, "lat": 38.90596716666667, "type": "electric_scooter", "lon": -77.04181916666667, "bike_id": "379d53c7f88325e601d2048703ec9233", "rental_uris": {"android": "https://dc.lft.to/lastmile_qr_scan", "ios": "https://dc.lft.to/lastmile_qr_scan"}, "name": "379d53c7f88325e601d2048703ec9233", "is_reserved": 0}, {"is_disabled": 0, "fusion_lon": 0.0, "fusion_lat": 0.0, "lat": 38.9909005, "type": "electric_bike", "lon": -76.8749725, "bike_id": "603e3501186625b2226e86457d81edff", "rental_uris": {"android": "https://dc.lft.to/lastmile_qr_scan", "ios": "https://dc.lft.to/lastmile_qr_scan"}, "name": "603e3501186625b2226e86457d81edff", "is_reserved": 0}, {"is_disabled": 0, "fusion_lon": 0.0, "fusion_lat": 0.0, "lat": 38.92886983333333, "type": "electric_scooter", "lon": -77.01409466666667, "bike_id": "cc79bff8f1b1e20cd147180fe3411924", "rental_uris": {"android": "https://dc.lft.to/lastmile_qr_scan", "ios": "https://dc.lft.to/lastmile_qr_scan"}, "name": "cc79bff8f1b1e20cd147180fe3411924", "is_reserved": 0}, {"is_disabled": 0, "fusion_lon": 0.0, "fusion_lat": 0.0, "lat": 38.937828333333336, "type": "electric_scooter", "lon": -77.02305866666667, "bike_id": "b875cf286874855ff1ba91c7e16af18e", "rental_uris": {"android": "https://dc.lft.to/lastmile_qr_scan", "ios": "https://dc.lft.to/lastmile_qr_scan"}, "name": "b875cf286874855ff1ba91c7e16af18e", "is_reserved": 0}, {"is_disabled": 0, "fusion_lon": 0.0, "fusion_lat": 0.0, "lat": 38.86357433333333, "type": "electric_scooter", "lon": -76.99072333333334, "bike_id": "b87d433ea220734d9ad333ece2284c0f", "rental_uris": {"android": "https://dc.lft.to/lastmile_qr_scan", "ios": "https://dc.lft.to/lastmile_qr_scan"}, "name": "b87d433ea220734d9ad333ece2284c0f", "is_reserved": 0}, {"is_disabled": 0, "fusion_lon": 0.0, "fusion_lat": 0.0, "lat": 38.905265666666665, "type": "electric_scooter", "lon": -77.05010383333334, "bike_id": "2cf2524c7bc57b5b0806069591af37fb", "rental_uris": {"android": "https://dc.lft.to/lastmile_qr_scan", "ios": "https://dc.lft.to/lastmile_qr_scan"}, "name": "2cf2524c7bc57b5b0806069591af37fb", "is_reserved": 0}, {"is_disabled": 0, "fusion_lon": 0.0, "fusion_lat": 0.0, "lat": 38.91128366666667, "type": "electric_scooter", "lon": -77.0420845, "bike_id": "4e04d4122499465479f380e0e4ce57d6", "rental_uris": {"android": "https://dc.lft.to/lastmile_qr_scan", "ios": "https://dc.lft.to/lastmile_qr_scan"}, "name": "4e04d4122499465479f380e0e4ce57d6", "is_reserved": 0}, {"is_disabled": 0, "fusion_lon": 0.0, "fusion_lat": 0.0, "lat": 38.885852, "type": "electric_scooter", "lon": -77.01988833333333, "bike_id": "eed56b33af92ad38859902db0d493bfe", "rental_uris": {"android": "https://dc.lft.to/lastmile_qr_scan", "ios": "https://dc.lft.to/lastmile_qr_scan"}, "name": "eed56b33af92ad38859902db0d493bfe", "is_reserved": 0}, {"is_disabled": 0, "fusion_lon": 0.0, "fusion_lat": 0.0, "lat": 38.90784633333333, "type": "electric_scooter", "lon": -77.03194866666666, "bike_id": "57b943a245bba923f00e54b642206a5d", "rental_uris": {"android": "https://dc.lft.to/lastmile_qr_scan", "ios": "https://dc.lft.to/lastmile_qr_scan"}, "name": "57b943a245bba923f00e54b642206a5d", "is_reserved": 0}, {"is_disabled": 0, "fusion_lon": 0.0, "fusion_lat": 0.0, "lat": 38.900981333333334, "type": "electric_scooter", "lon": -77.04882483333333, "bike_id": "f02985e8a69f60c26677a2ba4812d7cf", "rental_uris": {"android": "https://dc.lft.to/lastmile_qr_scan", "ios": "https://dc.lft.to/lastmile_qr_scan"}, "name": "f02985e8a69f60c26677a2ba4812d7cf", "is_reserved": 0}, {"is_disabled": 0, "fusion_lon": 0.0, "fusion_lat": 0.0, "lat": 38.990711833333336, "type": "electric_bike", "lon": -77.10031633333334, "bike_id": "d4c43f6482a485f599f9b8a2da2fbc9d", "rental_uris": {"android": "https://dc.lft.to/lastmile_qr_scan", "ios": "https://dc.lft.to/lastmile_qr_scan"}, "name": "d4c43f6482a485f599f9b8a2da2fbc9d", "is_reserved": 0}, {"is_disabled": 0, "fusion_lon": 0.0, "fusion_lat": 0.0, "lat": 38.928661, "type": "electric_scooter", "lon": -77.014083, "bike_id": "822b6772a0310c10d9aab97bd7a300b8", "rental_uris": {"android": "https://dc.lft.to/lastmile_qr_scan", "ios": "https://dc.lft.to/lastmile_qr_scan"}, "name": "822b6772a0310c10d9aab97bd7a300b8", "is_reserved": 0}, {"is_disabled": 0, "fusion_lon": 0.0, "fusion_lat": 0.0, "lat": 38.9014785, "type": "electric_scooter", "lon": -77.029343, "bike_id": "0b9f015e1267be34cdcea6267e227070", "rental_uris": {"android": "https://dc.lft.to/lastmile_qr_scan", "ios": "https://dc.lft.to/lastmile_qr_scan"}, "name": "0b9f015e1267be34cdcea6267e227070", "is_reserved": 0}, {"is_disabled": 0, "fusion_lon": 0.0, "fusion_lat": 0.0, "lat": 38.9346905, "type": "electric_scooter", "lon": -77.07220433333333, "bike_id": "6d4582074bf518bbfd19c3b0da1f3acb", "rental_uris": {"android": "https://dc.lft.to/lastmile_qr_scan", "ios": "https://dc.lft.to/lastmile_qr_scan"}, "name": "6d4582074bf518bbfd19c3b0da1f3acb", "is_reserved": 0}, {"is_disabled": 0, "fusion_lon": 0.0, "fusion_lat": 0.0, "lat": 38.927076166666666, "type": "electric_scooter", "lon": -77.02329733333333, "bike_id": "bbe8fd479e81bf3db1380546bd243f9f", "rental_uris": {"android": "https://dc.lft.to/lastmile_qr_scan", "ios": "https://dc.lft.to/lastmile_qr_scan"}, "name": "bbe8fd479e81bf3db1380546bd243f9f", "is_reserved": 0}, {"is_disabled": 0, "fusion_lon": 0.0, "fusion_lat": 0.0, "lat": 38.900474, "type": "electric_scooter", "lon": -76.92270616666667, "bike_id": "27bf6d0eb55e24e6b966455aa63b456a", "rental_uris": {"android": "https://dc.lft.to/lastmile_qr_scan", "ios": "https://dc.lft.to/lastmile_qr_scan"}, "name": "27bf6d0eb55e24e6b966455aa63b456a", "is_reserved": 0}, {"is_disabled": 0, "fusion_lon": 0.0, "fusion_lat": 0.0, "lat": 38.92729416666667, "type": "electric_scooter", "lon": -77.02246616666666, "bike_id": "a550763dbf4c402e24cc8ebeb537c502", "rental_uris": {"android": "https://dc.lft.to/lastmile_qr_scan", "ios": "https://dc.lft.to/lastmile_qr_scan"}, "name": "a550763dbf4c402e24cc8ebeb537c502", "is_reserved": 0}, {"is_disabled": 0, "fusion_lon": 0.0, "fusion_lat": 0.0, "lat": 38.9367915, "type": "electric_scooter", "lon": -77.02460933333333, "bike_id": "293fc8ff81895a0126aea83c500c6942", "rental_uris": {"android": "https://dc.lft.to/lastmile_qr_scan", "ios": "https://dc.lft.to/lastmile_qr_scan"}, "name": "293fc8ff81895a0126aea83c500c6942", "is_reserved": 0}, {"is_disabled": 0, "fusion_lon": 0.0, "fusion_lat": 0.0, "lat": 38.893747166666664, "type": "electric_scooter", "lon": -76.949983, "bike_id": "5464a50db4d19e744b87f6a47faeafcd", "rental_uris": {"android": "https://dc.lft.to/lastmile_qr_scan", "ios": "https://dc.lft.to/lastmile_qr_scan"}, "name": "5464a50db4d19e744b87f6a47faeafcd", "is_reserved": 0}, {"is_disabled": 0, "fusion_lon": 0.0, "fusion_lat": 0.0, "lat": 38.9054085, "type": "electric_scooter", "lon": -77.04866366666667, "bike_id": "e48270eae7705d850985fda33d1c5234", "rental_uris": {"android": "https://dc.lft.to/lastmile_qr_scan", "ios": "https://dc.lft.to/lastmile_qr_scan"}, "name": "e48270eae7705d850985fda33d1c5234", "is_reserved": 0}, {"is_disabled": 0, "fusion_lon": 0.0, "fusion_lat": 0.0, "lat": 38.8613315, "type": "electric_scooter", "lon": -76.98535383333333, "bike_id": "051635878c7230c1dd8931d66bc34588", "rental_uris": {"android": "https://dc.lft.to/lastmile_qr_scan", "ios": "https://dc.lft.to/lastmile_qr_scan"}, "name": "051635878c7230c1dd8931d66bc34588", "is_reserved": 0}, {"is_disabled": 0, "fusion_lon": 0.0, "fusion_lat": 0.0, "lat": 38.9118535, "type": "electric_scooter", "lon": -77.03514933333334, "bike_id": "a9106d10e2c54372579efef958c2391b", "rental_uris": {"android": "https://dc.lft.to/lastmile_qr_scan", "ios": "https://dc.lft.to/lastmile_qr_scan"}, "name": "a9106d10e2c54372579efef958c2391b", "is_reserved": 0}, {"is_disabled": 0, "fusion_lon": 0.0, "fusion_lat": 0.0, "lat": 38.93627033333333, "type": "electric_scooter", "lon": -77.0590955, "bike_id": "c4b725a3a3aca0208ec36b7dfda27785", "rental_uris": {"android": "https://dc.lft.to/lastmile_qr_scan", "ios": "https://dc.lft.to/lastmile_qr_scan"}, "name": "c4b725a3a3aca0208ec36b7dfda27785", "is_reserved": 0}, {"is_disabled": 0, "fusion_lon": 0.0, "fusion_lat": 0.0, "lat": 38.8967675, "type": "electric_scooter", "lon": -76.9979355, "bike_id": "325c980a379ca8c1f04412601b2f28b4", "rental_uris": {"android": "https://dc.lft.to/lastmile_qr_scan", "ios": "https://dc.lft.to/lastmile_qr_scan"}, "name": "325c980a379ca8c1f04412601b2f28b4", "is_reserved": 0}, {"is_disabled": 0, "fusion_lon": 0.0, "fusion_lat": 0.0, "lat": 38.929736166666665, "type": "electric_scooter", "lon": -77.04205433333334, "bike_id": "2bab67d92e66fe9bc63ed53ee76f0acd", "rental_uris": {"android": "https://dc.lft.to/lastmile_qr_scan", "ios": "https://dc.lft.to/lastmile_qr_scan"}, "name": "2bab67d92e66fe9bc63ed53ee76f0acd", "is_reserved": 0}, {"is_disabled": 0, "fusion_lon": 0.0, "fusion_lat": 0.0, "lat": 38.94618416666667, "type": "electric_scooter", "lon": -77.03624266666667, "bike_id": "8a1e73c5a6948363dc14f493f8f9299b", "rental_uris": {"android": "https://dc.lft.to/lastmile_qr_scan", "ios": "https://dc.lft.to/lastmile_qr_scan"}, "name": "8a1e73c5a6948363dc14f493f8f9299b", "is_reserved": 0}, {"is_disabled": 0, "fusion_lon": 0.0, "fusion_lat": 0.0, "lat": 38.951743666666665, "type": "electric_scooter", "lon": -77.03334933333333, "bike_id": "a49675620160e0d01b54636ddfc080e2", "rental_uris": {"android": "https://dc.lft.to/lastmile_qr_scan", "ios": "https://dc.lft.to/lastmile_qr_scan"}, "name": "a49675620160e0d01b54636ddfc080e2", "is_reserved": 0}, {"is_disabled": 0, "fusion_lon": 0.0, "fusion_lat": 0.0, "lat": 38.913105, "type": "electric_scooter", "lon": -77.0084275, "bike_id": "4a0ff81e8b542928af006ce60a97be34", "rental_uris": {"android": "https://dc.lft.to/lastmile_qr_scan", "ios": "https://dc.lft.to/lastmile_qr_scan"}, "name": "4a0ff81e8b542928af006ce60a97be34", "is_reserved": 0}, {"is_disabled": 0, "fusion_lon": 0.0, "fusion_lat": 0.0, "lat": 38.912697333333334, "type": "electric_scooter", "lon": -77.033668, "bike_id": "21e617b5df87eedce8365cf40158a612", "rental_uris": {"android": "https://dc.lft.to/lastmile_qr_scan", "ios": "https://dc.lft.to/lastmile_qr_scan"}, "name": "21e617b5df87eedce8365cf40158a612", "is_reserved": 0}, {"is_disabled": 0, "fusion_lon": 0.0, "fusion_lat": 0.0, "lat": 38.91465516666667, "type": "electric_scooter", "lon": -77.0385425, "bike_id": "0f9e4473377acda7005d4c169bc1e115", "rental_uris": {"android": "https://dc.lft.to/lastmile_qr_scan", "ios": "https://dc.lft.to/lastmile_qr_scan"}, "name": "0f9e4473377acda7005d4c169bc1e115", "is_reserved": 0}, {"is_disabled": 0, "fusion_lon": 0.0, "fusion_lat": 0.0, "lat": 38.96617066666666, "type": "electric_scooter", "lon": -77.03536766666667, "bike_id": "e74331d76b54f12984968e3f1ae5e35d", "rental_uris": {"android": "https://dc.lft.to/lastmile_qr_scan", "ios": "https://dc.lft.to/lastmile_qr_scan"}, "name": "e74331d76b54f12984968e3f1ae5e35d", "is_reserved": 0}, {"is_disabled": 0, "fusion_lon": 0.0, "fusion_lat": 0.0, "lat": 38.934322333333334, "type": "electric_scooter", "lon": -77.025928, "bike_id": "9d47add7c7781caeb7134a5372b079a6", "rental_uris": {"android": "https://dc.lft.to/lastmile_qr_scan", "ios": "https://dc.lft.to/lastmile_qr_scan"}, "name": "9d47add7c7781caeb7134a5372b079a6", "is_reserved": 0}, {"is_disabled": 0, "fusion_lon": 0.0, "fusion_lat": 0.0, "lat": 38.899625666666665, "type": "electric_scooter", "lon": -77.01614616666667, "bike_id": "cd005d439be96a1a980b7480da4025ac", "rental_uris": {"android": "https://dc.lft.to/lastmile_qr_scan", "ios": "https://dc.lft.to/lastmile_qr_scan"}, "name": "cd005d439be96a1a980b7480da4025ac", "is_reserved": 0}, {"is_disabled": 0, "fusion_lon": 0.0, "fusion_lat": 0.0, "lat": 38.8887715, "type": "electric_bike", "lon": -77.028611, "bike_id": "acaa97a816e49a5fe0b67ecd680cb694", "rental_uris": {"android": "https://dc.lft.to/lastmile_qr_scan", "ios": "https://dc.lft.to/lastmile_qr_scan"}, "name": "acaa97a816e49a5fe0b67ecd680cb694", "is_reserved": 0}, {"is_disabled": 0, "fusion_lon": 0.0, "fusion_lat": 0.0, "lat": 38.912638666666666, "type": "electric_scooter", "lon": -77.03682033333334, "bike_id": "d754da21c751396b75169978d8188b77", "rental_uris": {"android": "https://dc.lft.to/lastmile_qr_scan", "ios": "https://dc.lft.to/lastmile_qr_scan"}, "name": "d754da21c751396b75169978d8188b77", "is_reserved": 0}, {"is_disabled": 0, "fusion_lon": 0.0, "fusion_lat": 0.0, "lat": 38.86518933333333, "type": "electric_scooter", "lon": -76.9896745, "bike_id": "2e22c4a5a502cbc058d0b2a90c43af82", "rental_uris": {"android": "https://dc.lft.to/lastmile_qr_scan", "ios": "https://dc.lft.to/lastmile_qr_scan"}, "name": "2e22c4a5a502cbc058d0b2a90c43af82", "is_reserved": 0}, {"is_disabled": 0, "fusion_lon": 0.0, "fusion_lat": 0.0, "lat": 38.89553683333333, "type": "electric_scooter", "lon": -76.948794, "bike_id": "c9266f89bcdfbe381c12521fdbddc0dc", "rental_uris": {"android": "https://dc.lft.to/lastmile_qr_scan", "ios": "https://dc.lft.to/lastmile_qr_scan"}, "name": "c9266f89bcdfbe381c12521fdbddc0dc", "is_reserved": 0}, {"is_disabled": 0, "fusion_lon": 0.0, "fusion_lat": 0.0, "lat": 39.02301466666667, "type": "electric_bike", "lon": -77.02108283333334, "bike_id": "ba69e263dc793dd526fd65062b4cf0b3", "rental_uris": {"android": "https://dc.lft.to/lastmile_qr_scan", "ios": "https://dc.lft.to/lastmile_qr_scan"}, "name": "ba69e263dc793dd526fd65062b4cf0b3", "is_reserved": 0}, {"is_disabled": 0, "fusion_lon": 0.0, "fusion_lat": 0.0, "lat": 38.9038485, "type": "electric_scooter", "lon": -77.039908, "bike_id": "0d66b466cce42a410e44afdc1c88a434", "rental_uris": {"android": "https://dc.lft.to/lastmile_qr_scan", "ios": "https://dc.lft.to/lastmile_qr_scan"}, "name": "0d66b466cce42a410e44afdc1c88a434", "is_reserved": 0}, {"is_disabled": 0, "fusion_lon": 0.0, "fusion_lat": 0.0, "lat": 38.90188333333333, "type": "electric_scooter", "lon": -77.0500265, "bike_id": "ba9e26003c82467ca63c5854ac2fef93", "rental_uris": {"android": "https://dc.lft.to/lastmile_qr_scan", "ios": "https://dc.lft.to/lastmile_qr_scan"}, "name": "ba9e26003c82467ca63c5854ac2fef93", "is_reserved": 0}, {"is_disabled": 0, "fusion_lon": 0.0, "fusion_lat": 0.0, "lat": 38.93144266666667, "type": "electric_scooter", "lon": -77.04131016666666, "bike_id": "0233ba0058dd7537aac93fd3f9894659", "rental_uris": {"android": "https://dc.lft.to/lastmile_qr_scan", "ios": "https://dc.lft.to/lastmile_qr_scan"}, "name": "0233ba0058dd7537aac93fd3f9894659", "is_reserved": 0}, {"is_disabled": 0, "fusion_lon": 0.0, "fusion_lat": 0.0, "lat": 38.893335, "type": "electric_scooter", "lon": -77.02135333333334, "bike_id": "96fe8765728d90cceaccb4ed55061c96", "rental_uris": {"android": "https://dc.lft.to/lastmile_qr_scan", "ios": "https://dc.lft.to/lastmile_qr_scan"}, "name": "96fe8765728d90cceaccb4ed55061c96", "is_reserved": 0}, {"is_disabled": 0, "fusion_lon": 0.0, "fusion_lat": 0.0, "lat": 38.90869883333333, "type": "electric_scooter", "lon": -77.03018666666667, "bike_id": "bc3c75f710d4e51ab39baa53693bd465", "rental_uris": {"android": "https://dc.lft.to/lastmile_qr_scan", "ios": "https://dc.lft.to/lastmile_qr_scan"}, "name": "bc3c75f710d4e51ab39baa53693bd465", "is_reserved": 0}, {"is_disabled": 0, "fusion_lon": 0.0, "fusion_lat": 0.0, "lat": 38.9418545, "type": "electric_scooter", "lon": -77.04259683333333, "bike_id": "a91b0526053a039a237e6bbf3448254d", "rental_uris": {"android": "https://dc.lft.to/lastmile_qr_scan", "ios": "https://dc.lft.to/lastmile_qr_scan"}, "name": "a91b0526053a039a237e6bbf3448254d", "is_reserved": 0}, {"is_disabled": 0, "fusion_lon": 0.0, "fusion_lat": 0.0, "lat": 38.91545133333333, "type": "electric_scooter", "lon": -77.0417595, "bike_id": "ce4eb48f56943e5e56b590eb3162f5da", "rental_uris": {"android": "https://dc.lft.to/lastmile_qr_scan", "ios": "https://dc.lft.to/lastmile_qr_scan"}, "name": "ce4eb48f56943e5e56b590eb3162f5da", "is_reserved": 0}, {"is_disabled": 0, "fusion_lon": 0.0, "fusion_lat": 0.0, "lat": 38.898485, "type": "electric_scooter", "lon": -76.94496166666667, "bike_id": "0c706b5cb632f048bdb0e098b0c4e80b", "rental_uris": {"android": "https://dc.lft.to/lastmile_qr_scan", "ios": "https://dc.lft.to/lastmile_qr_scan"}, "name": "0c706b5cb632f048bdb0e098b0c4e80b", "is_reserved": 0}, {"is_disabled": 0, "fusion_lon": 0.0, "fusion_lat": 0.0, "lat": 38.88132516666667, "type": "electric_scooter", "lon": -77.02073066666667, "bike_id": "e07b18002a6e277f0a64452b70b35a46", "rental_uris": {"android": "https://dc.lft.to/lastmile_qr_scan", "ios": "https://dc.lft.to/lastmile_qr_scan"}, "name": "e07b18002a6e277f0a64452b70b35a46", "is_reserved": 0}, {"is_disabled": 0, "fusion_lon": 0.0, "fusion_lat": 0.0, "lat": 38.901492833333336, "type": "electric_scooter", "lon": -77.03981616666667, "bike_id": "d82084f7c604e1a68d40fe0d94564b12", "rental_uris": {"android": "https://dc.lft.to/lastmile_qr_scan", "ios": "https://dc.lft.to/lastmile_qr_scan"}, "name": "d82084f7c604e1a68d40fe0d94564b12", "is_reserved": 0}, {"is_disabled": 0, "fusion_lon": 0.0, "fusion_lat": 0.0, "lat": 38.9073595, "type": "electric_scooter", "lon": -77.02251316666667, "bike_id": "d80d0c6faea589faeb4baae6a94ad11d", "rental_uris": {"android": "https://dc.lft.to/lastmile_qr_scan", "ios": "https://dc.lft.to/lastmile_qr_scan"}, "name": "d80d0c6faea589faeb4baae6a94ad11d", "is_reserved": 0}, {"is_disabled": 0, "fusion_lon": 0.0, "fusion_lat": 0.0, "lat": 38.89680583333333, "type": "electric_scooter", "lon": -77.01194783333334, "bike_id": "6c7102def6b4439e40bcf78899ed47ad", "rental_uris": {"android": "https://dc.lft.to/lastmile_qr_scan", "ios": "https://dc.lft.to/lastmile_qr_scan"}, "name": "6c7102def6b4439e40bcf78899ed47ad", "is_reserved": 0}, {"is_disabled": 0, "fusion_lon": 0.0, "fusion_lat": 0.0, "lat": 38.908445, "type": "electric_scooter", "lon": -77.06347566666666, "bike_id": "01a5ada1a90b5d80a389a3341943de5b", "rental_uris": {"android": "https://dc.lft.to/lastmile_qr_scan", "ios": "https://dc.lft.to/lastmile_qr_scan"}, "name": "01a5ada1a90b5d80a389a3341943de5b", "is_reserved": 0}, {"is_disabled": 0, "fusion_lon": 0.0, "fusion_lat": 0.0, "lat": 38.909485833333335, "type": "electric_scooter", "lon": -77.0345055, "bike_id": "20c205081d063f669de2cd3b9671705b", "rental_uris": {"android": "https://dc.lft.to/lastmile_qr_scan", "ios": "https://dc.lft.to/lastmile_qr_scan"}, "name": "20c205081d063f669de2cd3b9671705b", "is_reserved": 0}, {"is_disabled": 0, "fusion_lon": 0.0, "fusion_lat": 0.0, "lat": 38.911764166666664, "type": "electric_bike", "lon": -77.01151116666666, "bike_id": "59301319c883fbeef3b5cdc3b39d2391", "rental_uris": {"android": "https://dc.lft.to/lastmile_qr_scan", "ios": "https://dc.lft.to/lastmile_qr_scan"}, "name": "59301319c883fbeef3b5cdc3b39d2391", "is_reserved": 0}, {"is_disabled": 0, "fusion_lon": 0.0, "fusion_lat": 0.0, "lat": 38.9180185, "type": "electric_scooter", "lon": -77.04362116666667, "bike_id": "d486b0d16028396ffd1f0b8b7e036dc2", "rental_uris": {"android": "https://dc.lft.to/lastmile_qr_scan", "ios": "https://dc.lft.to/lastmile_qr_scan"}, "name": "d486b0d16028396ffd1f0b8b7e036dc2", "is_reserved": 0}, {"is_disabled": 0, "fusion_lon": 0.0, "fusion_lat": 0.0, "lat": 38.990716, "type": "electric_bike", "lon": -77.02383616666667, "bike_id": "7615b2453a7df980a697dc563b4c0dba", "rental_uris": {"android": "https://dc.lft.to/lastmile_qr_scan", "ios": "https://dc.lft.to/lastmile_qr_scan"}, "name": "7615b2453a7df980a697dc563b4c0dba", "is_reserved": 0}, {"is_disabled": 0, "fusion_lon": 0.0, "fusion_lat": 0.0, "lat": 38.92351466666667, "type": "electric_bike", "lon": -76.99249883333333, "bike_id": "4d414487744bca69a6ce0b995bf12581", "rental_uris": {"android": "https://dc.lft.to/lastmile_qr_scan", "ios": "https://dc.lft.to/lastmile_qr_scan"}, "name": "4d414487744bca69a6ce0b995bf12581", "is_reserved": 0}, {"is_disabled": 0, "fusion_lon": 0.0, "fusion_lat": 0.0, "lat": 38.909513833333335, "type": "electric_scooter", "lon": -77.021836, "bike_id": "c8c04c7ade1476f0654bf3e03394e123", "rental_uris": {"android": "https://dc.lft.to/lastmile_qr_scan", "ios": "https://dc.lft.to/lastmile_qr_scan"}, "name": "c8c04c7ade1476f0654bf3e03394e123", "is_reserved": 0}, {"is_disabled": 0, "fusion_lon": 0.0, "fusion_lat": 0.0, "lat": 38.91704566666667, "type": "electric_scooter", "lon": -77.0347665, "bike_id": "363e911b366f0bb679b6bf488a14bb15", "rental_uris": {"android": "https://dc.lft.to/lastmile_qr_scan", "ios": "https://dc.lft.to/lastmile_qr_scan"}, "name": "363e911b366f0bb679b6bf488a14bb15", "is_reserved": 0}, {"is_disabled": 0, "fusion_lon": 0.0, "fusion_lat": 0.0, "lat": 38.919653833333335, "type": "electric_scooter", "lon": -77.02366983333333, "bike_id": "6f6226017747af679050c8f85d991310", "rental_uris": {"android": "https://dc.lft.to/lastmile_qr_scan", "ios": "https://dc.lft.to/lastmile_qr_scan"}, "name": "6f6226017747af679050c8f85d991310", "is_reserved": 0}, {"is_disabled": 0, "fusion_lon": 0.0, "fusion_lat": 0.0, "lat": 38.84613866666667, "type": "electric_bike", "lon": -76.968774, "bike_id": "7157715e9151de7c2e00df21cd59fa61", "rental_uris": {"android": "https://dc.lft.to/lastmile_qr_scan", "ios": "https://dc.lft.to/lastmile_qr_scan"}, "name": "7157715e9151de7c2e00df21cd59fa61", "is_reserved": 0}, {"is_disabled": 0, "fusion_lon": 0.0, "fusion_lat": 0.0, "lat": 38.89239466666667, "type": "electric_scooter", "lon": -77.02813216666667, "bike_id": "46f21546ca2d402b7d7c936723c46a0a", "rental_uris": {"android": "https://dc.lft.to/lastmile_qr_scan", "ios": "https://dc.lft.to/lastmile_qr_scan"}, "name": "46f21546ca2d402b7d7c936723c46a0a", "is_reserved": 0}, {"is_disabled": 0, "fusion_lon": 0.0, "fusion_lat": 0.0, "lat": 38.92484816666666, "type": "electric_scooter", "lon": -77.02716633333333, "bike_id": "8a8aef085e28ac0a439c7007a455e329", "rental_uris": {"android": "https://dc.lft.to/lastmile_qr_scan", "ios": "https://dc.lft.to/lastmile_qr_scan"}, "name": "8a8aef085e28ac0a439c7007a455e329", "is_reserved": 0}, {"is_disabled": 0, "fusion_lon": 0.0, "fusion_lat": 0.0, "lat": 38.915792, "type": "electric_scooter", "lon": -76.981117, "bike_id": "5fea6b7ee742eb59cdd32eb10caf4847", "rental_uris": {"android": "https://dc.lft.to/lastmile_qr_scan", "ios": "https://dc.lft.to/lastmile_qr_scan"}, "name": "5fea6b7ee742eb59cdd32eb10caf4847", "is_reserved": 0}, {"is_disabled": 0, "fusion_lon": 0.0, "fusion_lat": 0.0, "lat": 38.895387666666664, "type": "electric_scooter", "lon": -77.0284175, "bike_id": "7f55287eff14bd4d26d46db3b96f75e8", "rental_uris": {"android": "https://dc.lft.to/lastmile_qr_scan", "ios": "https://dc.lft.to/lastmile_qr_scan"}, "name": "7f55287eff14bd4d26d46db3b96f75e8", "is_reserved": 0}, {"is_disabled": 0, "fusion_lon": 0.0, "fusion_lat": 0.0, "lat": 38.967582, "type": "electric_bike", "lon": -77.09163183333334, "bike_id": "13445218628f727a7083b978b243bc06", "rental_uris": {"android": "https://dc.lft.to/lastmile_qr_scan", "ios": "https://dc.lft.to/lastmile_qr_scan"}, "name": "13445218628f727a7083b978b243bc06", "is_reserved": 0}, {"is_disabled": 0, "fusion_lon": 0.0, "fusion_lat": 0.0, "lat": 38.858050666666664, "type": "electric_scooter", "lon": -76.98656516666667, "bike_id": "50a4984300d60b461c213fa75887c920", "rental_uris": {"android": "https://dc.lft.to/lastmile_qr_scan", "ios": "https://dc.lft.to/lastmile_qr_scan"}, "name": "50a4984300d60b461c213fa75887c920", "is_reserved": 0}, {"is_disabled": 0, "fusion_lon": 0.0, "fusion_lat": 0.0, "lat": 38.84199233333333, "type": "electric_bike", "lon": -77.10688216666667, "bike_id": "e7f1a37b5169fe37c4670201a175a217", "rental_uris": {"android": "https://dc.lft.to/lastmile_qr_scan", "ios": "https://dc.lft.to/lastmile_qr_scan"}, "name": "e7f1a37b5169fe37c4670201a175a217", "is_reserved": 0}, {"is_disabled": 0, "fusion_lon": 0.0, "fusion_lat": 0.0, "lat": 38.928667833333336, "type": "electric_scooter", "lon": -77.01407566666667, "bike_id": "524d3c8fa33f4e89ec6dfd678d73833a", "rental_uris": {"android": "https://dc.lft.to/lastmile_qr_scan", "ios": "https://dc.lft.to/lastmile_qr_scan"}, "name": "524d3c8fa33f4e89ec6dfd678d73833a", "is_reserved": 0}, {"is_disabled": 0, "fusion_lon": 0.0, "fusion_lat": 0.0, "lat": 38.99867283333333, "type": "electric_bike", "lon": -77.0287485, "bike_id": "9e2dfbcc966361e71ebb630dcca40b0f", "rental_uris": {"android": "https://dc.lft.to/lastmile_qr_scan", "ios": "https://dc.lft.to/lastmile_qr_scan"}, "name": "9e2dfbcc966361e71ebb630dcca40b0f", "is_reserved": 0}, {"is_disabled": 0, "fusion_lon": 0.0, "fusion_lat": 0.0, "lat": 38.8632635, "type": "electric_scooter", "lon": -76.99058133333334, "bike_id": "2784c2e9db36f0fd6ce0172a8fd7b238", "rental_uris": {"android": "https://dc.lft.to/lastmile_qr_scan", "ios": "https://dc.lft.to/lastmile_qr_scan"}, "name": "2784c2e9db36f0fd6ce0172a8fd7b238", "is_reserved": 0}, {"is_disabled": 0, "fusion_lon": 0.0, "fusion_lat": 0.0, "lat": 38.92488433333333, "type": "electric_scooter", "lon": -77.034878, "bike_id": "2e58bdc79612b63dec024eaca457254e", "rental_uris": {"android": "https://dc.lft.to/lastmile_qr_scan", "ios": "https://dc.lft.to/lastmile_qr_scan"}, "name": "2e58bdc79612b63dec024eaca457254e", "is_reserved": 0}, {"is_disabled": 0, "fusion_lon": 0.0, "fusion_lat": 0.0, "lat": 38.90755933333333, "type": "electric_scooter", "lon": -77.00106683333334, "bike_id": "73d8ce82bbfcdf12d38b8bb20df9c099", "rental_uris": {"android": "https://dc.lft.to/lastmile_qr_scan", "ios": "https://dc.lft.to/lastmile_qr_scan"}, "name": "73d8ce82bbfcdf12d38b8bb20df9c099", "is_reserved": 0}, {"is_disabled": 0, "fusion_lon": 0.0, "fusion_lat": 0.0, "lat": 38.88693133333334, "type": "electric_scooter", "lon": -76.9880145, "bike_id": "2a2fbdde300c0fc177ae5eea253d488b", "rental_uris": {"android": "https://dc.lft.to/lastmile_qr_scan", "ios": "https://dc.lft.to/lastmile_qr_scan"}, "name": "2a2fbdde300c0fc177ae5eea253d488b", "is_reserved": 0}, {"is_disabled": 0, "fusion_lon": 0.0, "fusion_lat": 0.0, "lat": 38.91693, "type": "electric_scooter", "lon": -77.01174533333334, "bike_id": "2a938ece230e50ab1a21e47d033058e1", "rental_uris": {"android": "https://dc.lft.to/lastmile_qr_scan", "ios": "https://dc.lft.to/lastmile_qr_scan"}, "name": "2a938ece230e50ab1a21e47d033058e1", "is_reserved": 0}, {"is_disabled": 0, "fusion_lon": 0.0, "fusion_lat": 0.0, "lat": 38.856492, "type": "electric_bike", "lon": -77.08530766666667, "bike_id": "bdbae55797c9a3a0fe6cdc34acf176be", "rental_uris": {"android": "https://dc.lft.to/lastmile_qr_scan", "ios": "https://dc.lft.to/lastmile_qr_scan"}, "name": "bdbae55797c9a3a0fe6cdc34acf176be", "is_reserved": 0}, {"is_disabled": 0, "fusion_lon": 0.0, "fusion_lat": 0.0, "lat": 38.937006, "type": "electric_scooter", "lon": -77.05604983333333, "bike_id": "3b91b843301b4f1a84d5c59c571abf8f", "rental_uris": {"android": "https://dc.lft.to/lastmile_qr_scan", "ios": "https://dc.lft.to/lastmile_qr_scan"}, "name": "3b91b843301b4f1a84d5c59c571abf8f", "is_reserved": 0}, {"is_disabled": 0, "fusion_lon": 0.0, "fusion_lat": 0.0, "lat": 38.849360833333336, "type": "electric_bike", "lon": -77.10015016666667, "bike_id": "77c3ccc4bb8544dd7502d138d7c50323", "rental_uris": {"android": "https://dc.lft.to/lastmile_qr_scan", "ios": "https://dc.lft.to/lastmile_qr_scan"}, "name": "77c3ccc4bb8544dd7502d138d7c50323", "is_reserved": 0}, {"is_disabled": 0, "fusion_lon": 0.0, "fusion_lat": 0.0, "lat": 38.903692666666664, "type": "electric_scooter", "lon": -77.05384766666667, "bike_id": "159732e502f34a1111fd7f19fd521b82", "rental_uris": {"android": "https://dc.lft.to/lastmile_qr_scan", "ios": "https://dc.lft.to/lastmile_qr_scan"}, "name": "159732e502f34a1111fd7f19fd521b82", "is_reserved": 0}, {"is_disabled": 0, "fusion_lon": 0.0, "fusion_lat": 0.0, "lat": 38.886024166666665, "type": "electric_scooter", "lon": -77.005828, "bike_id": "e55fe3620f41812f9c59f2314023ff3c", "rental_uris": {"android": "https://dc.lft.to/lastmile_qr_scan", "ios": "https://dc.lft.to/lastmile_qr_scan"}, "name": "e55fe3620f41812f9c59f2314023ff3c", "is_reserved": 0}, {"is_disabled": 0, "fusion_lon": 0.0, "fusion_lat": 0.0, "lat": 38.913117666666665, "type": "electric_scooter", "lon": -77.01434716666667, "bike_id": "bc0b75aaffc89ab8d5146d3cc52b31b7", "rental_uris": {"android": "https://dc.lft.to/lastmile_qr_scan", "ios": "https://dc.lft.to/lastmile_qr_scan"}, "name": "bc0b75aaffc89ab8d5146d3cc52b31b7", "is_reserved": 0}, {"is_disabled": 0, "fusion_lon": 0.0, "fusion_lat": 0.0, "lat": 38.870632, "type": "electric_scooter", "lon": -76.98094483333334, "bike_id": "c50a10e89164271f0200d07283ea71f5", "rental_uris": {"android": "https://dc.lft.to/lastmile_qr_scan", "ios": "https://dc.lft.to/lastmile_qr_scan"}, "name": "c50a10e89164271f0200d07283ea71f5", "is_reserved": 0}, {"is_disabled": 0, "fusion_lon": 0.0, "fusion_lat": 0.0, "lat": 38.95641083333334, "type": "electric_scooter", "lon": -77.09103616666667, "bike_id": "60259b74dcc1f281b6f08669b81928a7", "rental_uris": {"android": "https://dc.lft.to/lastmile_qr_scan", "ios": "https://dc.lft.to/lastmile_qr_scan"}, "name": "60259b74dcc1f281b6f08669b81928a7", "is_reserved": 0}, {"is_disabled": 0, "fusion_lon": 0.0, "fusion_lat": 0.0, "lat": 38.91806833333333, "type": "electric_scooter", "lon": -77.040363, "bike_id": "003719f52f05549d814ab6cd2ebcbbef", "rental_uris": {"android": "https://dc.lft.to/lastmile_qr_scan", "ios": "https://dc.lft.to/lastmile_qr_scan"}, "name": "003719f52f05549d814ab6cd2ebcbbef", "is_reserved": 0}, {"is_disabled": 0, "fusion_lon": 0.0, "fusion_lat": 0.0, "lat": 38.948053, "type": "electric_bike", "lon": -76.97214616666666, "bike_id": "65947c054c01d04de59e49284bf52f95", "rental_uris": {"android": "https://dc.lft.to/lastmile_qr_scan", "ios": "https://dc.lft.to/lastmile_qr_scan"}, "name": "65947c054c01d04de59e49284bf52f95", "is_reserved": 0}, {"is_disabled": 0, "fusion_lon": 0.0, "fusion_lat": 0.0, "lat": 38.91734683333333, "type": "electric_scooter", "lon": -76.99183033333334, "bike_id": "f8bfbb119cb943f715b374ba0e703792", "rental_uris": {"android": "https://dc.lft.to/lastmile_qr_scan", "ios": "https://dc.lft.to/lastmile_qr_scan"}, "name": "f8bfbb119cb943f715b374ba0e703792", "is_reserved": 0}, {"is_disabled": 0, "fusion_lon": 0.0, "fusion_lat": 0.0, "lat": 38.90271116666667, "type": "electric_scooter", "lon": -77.00327783333333, "bike_id": "319de6c73469e33a4cb0c8d95f922956", "rental_uris": {"android": "https://dc.lft.to/lastmile_qr_scan", "ios": "https://dc.lft.to/lastmile_qr_scan"}, "name": "319de6c73469e33a4cb0c8d95f922956", "is_reserved": 0}, {"is_disabled": 0, "fusion_lon": 0.0, "fusion_lat": 0.0, "lat": 38.90212283333334, "type": "electric_scooter", "lon": -77.039206, "bike_id": "cc71e83bee963c327ae406c52c25a97b", "rental_uris": {"android": "https://dc.lft.to/lastmile_qr_scan", "ios": "https://dc.lft.to/lastmile_qr_scan"}, "name": "cc71e83bee963c327ae406c52c25a97b", "is_reserved": 0}, {"is_disabled": 0, "fusion_lon": 0.0, "fusion_lat": 0.0, "lat": 38.918516833333335, "type": "electric_scooter", "lon": -77.03206366666667, "bike_id": "015aec4be045a5d70235c7275260c36e", "rental_uris": {"android": "https://dc.lft.to/lastmile_qr_scan", "ios": "https://dc.lft.to/lastmile_qr_scan"}, "name": "015aec4be045a5d70235c7275260c36e", "is_reserved": 0}, {"is_disabled": 0, "fusion_lon": 0.0, "fusion_lat": 0.0, "lat": 38.97064066666667, "type": "electric_bike", "lon": -76.960549, "bike_id": "828e04db6e4e67a5f18709131ad06d5f", "rental_uris": {"android": "https://dc.lft.to/lastmile_qr_scan", "ios": "https://dc.lft.to/lastmile_qr_scan"}, "name": "828e04db6e4e67a5f18709131ad06d5f", "is_reserved": 0}, {"is_disabled": 0, "fusion_lon": 0.0, "fusion_lat": 0.0, "lat": 38.912103333333334, "type": "electric_scooter", "lon": -76.984912, "bike_id": "5d72997991b493c9ecdf28205395a626", "rental_uris": {"android": "https://dc.lft.to/lastmile_qr_scan", "ios": "https://dc.lft.to/lastmile_qr_scan"}, "name": "5d72997991b493c9ecdf28205395a626", "is_reserved": 0}, {"is_disabled": 0, "fusion_lon": 0.0, "fusion_lat": 0.0, "lat": 38.8875415, "type": "electric_scooter", "lon": -77.00226416666666, "bike_id": "5b79987a745a336cc78b0940d9959b7b", "rental_uris": {"android": "https://dc.lft.to/lastmile_qr_scan", "ios": "https://dc.lft.to/lastmile_qr_scan"}, "name": "5b79987a745a336cc78b0940d9959b7b", "is_reserved": 0}, {"is_disabled": 0, "fusion_lon": 0.0, "fusion_lat": 0.0, "lat": 38.9017675, "type": "electric_scooter", "lon": -77.05020666666667, "bike_id": "34676970d413192c14f9b3559fbc3234", "rental_uris": {"android": "https://dc.lft.to/lastmile_qr_scan", "ios": "https://dc.lft.to/lastmile_qr_scan"}, "name": "34676970d413192c14f9b3559fbc3234", "is_reserved": 0}, {"is_disabled": 0, "fusion_lon": 0.0, "fusion_lat": 0.0, "lat": 38.9017375, "type": "electric_scooter", "lon": -76.99386483333333, "bike_id": "ef6055b49d2e361fe5104bc48e3cde2c", "rental_uris": {"android": "https://dc.lft.to/lastmile_qr_scan", "ios": "https://dc.lft.to/lastmile_qr_scan"}, "name": "ef6055b49d2e361fe5104bc48e3cde2c", "is_reserved": 0}, {"is_disabled": 0, "fusion_lon": 0.0, "fusion_lat": 0.0, "lat": 39.038853833333334, "type": "electric_bike", "lon": -77.10913833333333, "bike_id": "34109985fcf0630b094581c3c88e8734", "rental_uris": {"android": "https://dc.lft.to/lastmile_qr_scan", "ios": "https://dc.lft.to/lastmile_qr_scan"}, "name": "34109985fcf0630b094581c3c88e8734", "is_reserved": 0}, {"is_disabled": 0, "fusion_lon": 0.0, "fusion_lat": 0.0, "lat": 38.885771166666665, "type": "electric_scooter", "lon": -76.91911616666667, "bike_id": "0e4874272df6a75540e3fc3066117fed", "rental_uris": {"android": "https://dc.lft.to/lastmile_qr_scan", "ios": "https://dc.lft.to/lastmile_qr_scan"}, "name": "0e4874272df6a75540e3fc3066117fed", "is_reserved": 0}, {"is_disabled": 0, "fusion_lon": 0.0, "fusion_lat": 0.0, "lat": 38.91647183333333, "type": "electric_scooter", "lon": -77.02178433333333, "bike_id": "55e0133886c856dd2575a52d892249d1", "rental_uris": {"android": "https://dc.lft.to/lastmile_qr_scan", "ios": "https://dc.lft.to/lastmile_qr_scan"}, "name": "55e0133886c856dd2575a52d892249d1", "is_reserved": 0}, {"is_disabled": 0, "fusion_lon": 0.0, "fusion_lat": 0.0, "lat": 38.8929145, "type": "electric_bike", "lon": -77.00147683333333, "bike_id": "4dcf0618fa85b83621c5aea81b6437b8", "rental_uris": {"android": "https://dc.lft.to/lastmile_qr_scan", "ios": "https://dc.lft.to/lastmile_qr_scan"}, "name": "4dcf0618fa85b83621c5aea81b6437b8", "is_reserved": 0}, {"is_disabled": 0, "fusion_lon": 0.0, "fusion_lat": 0.0, "lat": 38.9367, "type": "electric_bike", "lon": -76.95209016666666, "bike_id": "9c0d02152746b57c14bb8e750749cf53", "rental_uris": {"android": "https://dc.lft.to/lastmile_qr_scan", "ios": "https://dc.lft.to/lastmile_qr_scan"}, "name": "9c0d02152746b57c14bb8e750749cf53", "is_reserved": 0}, {"is_disabled": 0, "fusion_lon": 0.0, "fusion_lat": 0.0, "lat": 38.953268666666666, "type": "electric_scooter", "lon": -77.06856583333334, "bike_id": "885479673820124c8ec1f5502241eb63", "rental_uris": {"android": "https://dc.lft.to/lastmile_qr_scan", "ios": "https://dc.lft.to/lastmile_qr_scan"}, "name": "885479673820124c8ec1f5502241eb63", "is_reserved": 0}, {"is_disabled": 0, "fusion_lon": 0.0, "fusion_lat": 0.0, "lat": 38.92225716666667, "type": "electric_scooter", "lon": -77.0433865, "bike_id": "f798b58e32938ab1d8fea802289064fc", "rental_uris": {"android": "https://dc.lft.to/lastmile_qr_scan", "ios": "https://dc.lft.to/lastmile_qr_scan"}, "name": "f798b58e32938ab1d8fea802289064fc", "is_reserved": 0}, {"is_disabled": 0, "fusion_lon": 0.0, "fusion_lat": 0.0, "lat": 38.892468666666666, "type": "electric_scooter", "lon": -77.03194883333333, "bike_id": "53b95f86070c556853698aec378e4c81", "rental_uris": {"android": "https://dc.lft.to/lastmile_qr_scan", "ios": "https://dc.lft.to/lastmile_qr_scan"}, "name": "53b95f86070c556853698aec378e4c81", "is_reserved": 0}, {"is_disabled": 0, "fusion_lon": 0.0, "fusion_lat": 0.0, "lat": 38.9049245, "type": "electric_scooter", "lon": -77.0272505, "bike_id": "452bc2710f62a287a6992b16a56e26a0", "rental_uris": {"android": "https://dc.lft.to/lastmile_qr_scan", "ios": "https://dc.lft.to/lastmile_qr_scan"}, "name": "452bc2710f62a287a6992b16a56e26a0", "is_reserved": 0}, {"is_disabled": 0, "fusion_lon": 0.0, "fusion_lat": 0.0, "lat": 38.911280166666664, "type": "electric_scooter", "lon": -77.04424266666666, "bike_id": "c93620e14d25543bf053433b095f7a95", "rental_uris": {"android": "https://dc.lft.to/lastmile_qr_scan", "ios": "https://dc.lft.to/lastmile_qr_scan"}, "name": "c93620e14d25543bf053433b095f7a95", "is_reserved": 0}, {"is_disabled": 0, "fusion_lon": 0.0, "fusion_lat": 0.0, "lat": 38.91919433333333, "type": "electric_scooter", "lon": -77.03394716666666, "bike_id": "587a4c0fb7ee9294ed0f11ffe3ff36ed", "rental_uris": {"android": "https://dc.lft.to/lastmile_qr_scan", "ios": "https://dc.lft.to/lastmile_qr_scan"}, "name": "587a4c0fb7ee9294ed0f11ffe3ff36ed", "is_reserved": 0}, {"is_disabled": 0, "fusion_lon": 0.0, "fusion_lat": 0.0, "lat": 38.897478, "type": "electric_scooter", "lon": -77.0101335, "bike_id": "bfe13b4dd4f6054ea6ef8ee23f6d1f26", "rental_uris": {"android": "https://dc.lft.to/lastmile_qr_scan", "ios": "https://dc.lft.to/lastmile_qr_scan"}, "name": "bfe13b4dd4f6054ea6ef8ee23f6d1f26", "is_reserved": 0}, {"is_disabled": 0, "fusion_lon": 0.0, "fusion_lat": 0.0, "lat": 38.97261016666667, "type": "electric_bike", "lon": -76.99172633333333, "bike_id": "207d67792242c03751ad3b76317ffc97", "rental_uris": {"android": "https://dc.lft.to/lastmile_qr_scan", "ios": "https://dc.lft.to/lastmile_qr_scan"}, "name": "207d67792242c03751ad3b76317ffc97", "is_reserved": 0}, {"is_disabled": 0, "fusion_lon": 0.0, "fusion_lat": 0.0, "lat": 38.93467166666667, "type": "electric_scooter", "lon": -77.068864, "bike_id": "e3a5d055ad3bf8efd64390d167e186d3", "rental_uris": {"android": "https://dc.lft.to/lastmile_qr_scan", "ios": "https://dc.lft.to/lastmile_qr_scan"}, "name": "e3a5d055ad3bf8efd64390d167e186d3", "is_reserved": 0}, {"is_disabled": 0, "fusion_lon": 0.0, "fusion_lat": 0.0, "lat": 38.894302833333334, "type": "electric_scooter", "lon": -77.01093, "bike_id": "548c39e9a4c741b0b6f8cfe20608edfb", "rental_uris": {"android": "https://dc.lft.to/lastmile_qr_scan", "ios": "https://dc.lft.to/lastmile_qr_scan"}, "name": "548c39e9a4c741b0b6f8cfe20608edfb", "is_reserved": 0}, {"is_disabled": 0, "fusion_lon": 0.0, "fusion_lat": 0.0, "lat": 38.91780983333334, "type": "electric_scooter", "lon": -77.047579, "bike_id": "68af8d007eb8930a6bb82deb6c5ff2f8", "rental_uris": {"android": "https://dc.lft.to/lastmile_qr_scan", "ios": "https://dc.lft.to/lastmile_qr_scan"}, "name": "68af8d007eb8930a6bb82deb6c5ff2f8", "is_reserved": 0}, {"is_disabled": 0, "fusion_lon": 0.0, "fusion_lat": 0.0, "lat": 38.903705, "type": "electric_scooter", "lon": -77.016431, "bike_id": "7bd5c9bb2ef8e2cbdf1340b50d76802f", "rental_uris": {"android": "https://dc.lft.to/lastmile_qr_scan", "ios": "https://dc.lft.to/lastmile_qr_scan"}, "name": "7bd5c9bb2ef8e2cbdf1340b50d76802f", "is_reserved": 0}, {"is_disabled": 0, "fusion_lon": 0.0, "fusion_lat": 0.0, "lat": 38.83935016666667, "type": "electric_bike", "lon": -77.07902716666666, "bike_id": "36c3703aae34cc17962b6e68df2b0251", "rental_uris": {"android": "https://dc.lft.to/lastmile_qr_scan", "ios": "https://dc.lft.to/lastmile_qr_scan"}, "name": "36c3703aae34cc17962b6e68df2b0251", "is_reserved": 0}, {"is_disabled": 0, "fusion_lon": 0.0, "fusion_lat": 0.0, "lat": 38.895203, "type": "electric_scooter", "lon": -77.01110066666666, "bike_id": "8211368a847a43e50e06ce1165538228", "rental_uris": {"android": "https://dc.lft.to/lastmile_qr_scan", "ios": "https://dc.lft.to/lastmile_qr_scan"}, "name": "8211368a847a43e50e06ce1165538228", "is_reserved": 0},