{"data": {"bikes": [{"fusion_lon": 0.0, "rental_uris": {"ios": "https://dc.lft.to/lastmile_qr_scan", "android": "https://dc.lft.to/lastmile_qr_scan"}, "type": "electric_bike", "is_reserved": 0, "is_disabled": 0, "bike_id": "b53d4140f47180f492b79e8f35cd4e6b", "lat": 38.98220416666667, "lon": -77.09656733333334, "fusion_lat": 0.0, "name": "b53d4140f47180f492b79e8f35cd4e6b"}, {"fusion_lon": 0.0, "rental_uris": {"ios": "https://dc.lft.to/lastmile_qr_scan", "android": "https://dc.lft.to/lastmile_qr_scan"}, "type": "electric_scooter", "is_reserved": 0, "is_disabled": 0, "bike_id": "46f1b0b1369130a1d13ead2711ea47d0", "lat": 38.92919233333333, "lon": -77.02189683333333, "fusion_lat": 0.0, "name": "46f1b0b1369130a1d13ead2711ea47d0"}, {"fusion_lon": 0.0, "rental_uris": {"ios": "https://dc.lft.to/lastmile_qr_scan", "android": "https://dc.lft.to/lastmile_qr_scan"}, "type": "electric_scooter", "is_reserved": 0, "is_disabled": 0, "bike_id": "7ebb099c7adf150f0470569f1e899e8d", "lat": 38.8972535, "lon": -77.02717366666667, "fusion_lat": 0.0, "name": "7ebb099c7adf150f0470569f1e899e8d"}, {"fusion_lon": 0.0, "rental_uris": {"ios": "https://dc.lft.to/lastmile_qr_scan", "android": "https://dc.lft.to/lastmile_qr_scan"}, "type": "electric_bike", "is_reserved": 0, "is_disabled": 0, "bike_id": "6896beb3fab79aba4a71cf00857d0536", "lat": 38.992270500000004, "lon": -77.06525416666666, "fusion_lat": 0.0, "name": "6896beb3fab79aba4a71cf00857d0536"}, {"fusion_lon": 0.0, "rental_uris": {"ios": "https://dc.lft.to/lastmile_qr_scan", "android": "https://dc.lft.to/lastmile_qr_scan"}, "type": "electric_scooter", "is_reserved": 0, "is_disabled": 0, "bike_id": "bd41f9091f91297805cfc7aef0883267", "lat": 38.910692166666664, "lon": -76.99089266666667, "fusion_lat": 0.0, "name": "bd41f9091f91297805cfc7aef0883267"}, {"fusion_lon": 0.0, "rental_uris": {"ios": "https://dc.lft.to/lastmile_qr_scan", "android": "https://dc.lft.to/lastmile_qr_scan"}, "type": "electric_scooter", "is_reserved": 0, "is_disabled": 0, "bike_id": "e322ebe5fdc28fd9b7809518e2da1a82", "lat": 38.93849066666667, "lon": -77.02480583333333, "fusion_lat": 0.0, "name": "e322ebe5fdc28fd9b7809518e2da1a82"}, {"fusion_lon": 0.0, "rental_uris": {"ios": "https://dc.lft.to/lastmile_qr_scan", "android": "https://dc.lft.to/lastmile_qr_scan"}, "type": "electric_scooter", "is_reserved": 0, "is_disabled": 0, "bike_id": "1f7d33f00ad26ec51b990be74a27e7a5", "lat": 38.88432066666667, "lon": -76.9968165, "fusion_lat": 0.0, "name": "1f7d33f00ad26ec51b990be74a27e7a5"}, {"fusion_lon": 0.0, "rental_uris": {"ios": "https://dc.lft.to/lastmile_qr_scan", "android": "https://dc.lft.to/lastmile_qr_scan"}, "type": "electric_scooter", "is_reserved": 0, "is_disabled": 0, "bike_id": "8033790807a84b513254451d9462bd4a", "lat": 38.92168133333333, "lon": -77.033016, "fusion_lat": 0.0, "name": "8033790807a84b513254451d9462bd4a"}, {"fusion_lon": 0.0, "rental_uris": {"ios": "https://dc.lft.to/lastmile_qr_scan", "android": "https://dc.lft.to/lastmile_qr_scan"}, "type": "electric_scooter", "is_reserved": 0, "is_disabled": 0, "bike_id": "04929575ac408194196208cda235cb20", "lat": 38.923179, "lon": -77.02905883333334, "fusion_lat": 0.0, "name": "04929575ac408194196208cda235cb20"}, {"fusion_lon": 0.0, "rental_uris": {"ios": "https://dc.lft.to/lastmile_qr_scan", "android": "https://dc.lft.to/lastmile_qr_scan"}, "type": "electric_scooter", "is_reserved": 0, "is_disabled": 0, "bike_id": "9accc26013d96387087ce5aa7106128f", "lat": 38.89984233333333, "lon": -77.01988883333334, "fusion_lat": 0.0, "name": "9accc26013d96387087ce5aa7106128f"}, {"fusion_lon": 0.0, "rental_uris": {"ios": "https://dc.lft.to/lastmile_qr_scan", "android": "https://dc.lft.to/lastmile_qr_scan"}, "type": "electric_scooter", "is_reserved": 0, "is_disabled": 0, "bike_id": "24c714223437778c116cae8873d62f5c", "lat": 38.88735483333333, "lon": -77.0153105, "fusion_lat": 0.0, "name": "24c714223437778c116cae8873d62f5c"}, {"fusion_lon": 0.0, "rental_uris": {"ios": "https://dc.lft.to/lastmile_qr_scan", "android": "https://dc.lft.to/lastmile_qr_scan"}, "type": "electric_scooter", "is_reserved": 0, "is_disabled": 0, "bike_id": "65ab852bb34dca13e99a6eba164513e9", "lat": 38.89236916666667, "lon": -77.0279115, "fusion_lat": 0.0, "name": "65ab852bb34dca13e99a6eba164513e9"}, {"fusion_lon": 0.0, "rental_uris": {"ios": "https://dc.lft.to/lastmile_qr_scan", "android": "https://dc.lft.to/lastmile_qr_scan"}, "type": "electric_scooter", "is_reserved": 0, "is_disabled": 0, "bike_id": "9d9d8deece725ce56a38ee039376433f", "lat": 38.90469083333333, "lon": -77.04483716666667, "fusion_lat": 0.0, "name": "9d9d8deece725ce56a38ee039376433f"}, {"fusion_lon": 0.0, "rental_uris": {"ios": "https://dc.lft.to/lastmile_qr_scan", "android": "https://dc.lft.to/lastmile_qr_scan"}, "type": "electric_scooter", "is_reserved": 0, "is_disabled": 0, "bike_id": "0f5a1a636e34ec6e23400e06d49745c0", "lat": 38.928857, "lon": -77.0136275, "fusion_lat": 0.0, "name": "0f5a1a636e34ec6e23400e06d49745c0"}, {"fusion_lon": 0.0, "rental_uris": {"ios": "https://dc.lft.to/lastmile_qr_scan", "android": "https://dc.lft.to/lastmile_qr_scan"}, "type": "electric_scooter", "is_reserved": 0, "is_disabled": 0, "bike_id": "8bdbab5a6be441ad66f65016cc9ccaf2", "lat": 38.92469216666667, "lon": -77.02220216666667, "fusion_lat": 0.0, "name": "8bdbab5a6be441ad66f65016cc9ccaf2"}, {"fusion_lon": 0.0, "rental_uris": {"ios": "https://dc.lft.to/lastmile_qr_scan", "android": "https://dc.lft.to/lastmile_qr_scan"}, "type": "electric_bike", "is_reserved": 0, "is_disabled": 0, "bike_id": "828481f3b47f3de363f65c906ba3a193", "lat": 38.86568, "lon": -76.97348833333334, "fusion_lat": 0.0, "name": "828481f3b47f3de363f65c906ba3a193"}, {"fusion_lon": 0.0, "rental_uris": {"ios": "https://dc.lft.to/lastmile_qr_scan", "android": "https://dc.lft.to/lastmile_qr_scan"}, "type": "electric_bike", "is_reserved": 0, "is_disabled": 0, "bike_id": "c88b323a86fdd4b9a76d628713b7ae52", "lat": 38.872778, "lon": -77.23326433333334, "fusion_lat": 0.0, "name": "c88b323a86fdd4b9a76d628713b7ae52"}, {"fusion_lon": 0.0, "rental_uris": {"ios": "https://dc.lft.to/lastmile_qr_scan", "android": "https://dc.lft.to/lastmile_qr_scan"}, "type": "electric_bike", "is_reserved": 0, "is_disabled": 0, "bike_id": "fa2921c7d448a7a24ce8bdb0e4f7a629", "lat": 38.83791333333333, "lon": -77.093505, "fusion_lat": 0.0, "name": "fa2921c7d448a7a24ce8bdb0e4f7a629"}, {"fusion_lon": 0.0, "rental_uris": {"ios": "https://dc.lft.to/lastmile_qr_scan", "android": "https://dc.lft.to/lastmile_qr_scan"}, "type": "electric_scooter", "is_reserved": 0, "is_disabled": 0, "bike_id": "26c96d0b6c457e447609290d6302114a", "lat": 38.89221716666667, "lon": -77.02764133333334, "fusion_lat": 0.0, "name": "26c96d0b6c457e447609290d6302114a"}, {"fusion_lon": 0.0, "rental_uris": {"ios": "https://dc.lft.to/lastmile_qr_scan", "android": "https://dc.lft.to/lastmile_qr_scan"}, "type": "electric_scooter", "is_reserved": 0, "is_disabled": 0, "bike_id": "17862f22b639afb0b441f3e95b7f3669", "lat": 38.910625333333336, "lon": -77.05517566666667, "fusion_lat": 0.0, "name": "17862f22b639afb0b441f3e95b7f3669"}, {"fusion_lon": 0.0, "rental_uris": {"ios": "https://dc.lft.to/lastmile_qr_scan", "android": "https://dc.lft.to/lastmile_qr_scan"}, "type": "electric_scooter", "is_reserved": 0, "is_disabled": 0, "bike_id": "5242d6ef7df7cd67dde72db7495f07c5", "lat": 38.8754295, "lon": -77.0060135, "fusion_lat": 0.0, "name": "5242d6ef7df7cd67dde72db7495f07c5"}, {"fusion_lon": 0.0, "rental_uris": {"ios": "https://dc.lft.to/lastmile_qr_scan", "android": "https://dc.lft.to/lastmile_qr_scan"}, "type": "electric_scooter", "is_reserved": 0, "is_disabled": 0, "bike_id": "ae21cdd1f10dcb769fb2c342097ae6f9", "lat": 38.895077, "lon": -76.9488455, "fusion_lat": 0.0, "name": "ae21cdd1f10dcb769fb2c342097ae6f9"}, {"fusion_lon": 0.0, "rental_uris": {"ios": "https://dc.lft.to/lastmile_qr_scan", "android": "https://dc.lft.to/lastmile_qr_scan"}, "type": "electric_scooter", "is_reserved": 0, "is_disabled": 0, "bike_id": "5d24efd5dd1b82097d6da6b6b1abc027", "lat": 38.96394316666667, "lon": -77.0258995, "fusion_lat": 0.0, "name": "5d24efd5dd1b82097d6da6b6b1abc027"}, {"fusion_lon": 0.0, "rental_uris": {"ios": "https://dc.lft.to/lastmile_qr_scan", "android": "https://dc.lft.to/lastmile_qr_scan"}, "type": "electric_scooter", "is_reserved": 0, "is_disabled": 0, "bike_id": "53241b2e2eff2af9b2735d2f882bad37", "lat": 38.9204865, "lon": -77.02577666666667, "fusion_lat": 0.0, "name": "53241b2e2eff2af9b2735d2f882bad37"}, {"fusion_lon": 0.0, "rental_uris": {"ios": "https://dc.lft.to/lastmile_qr_scan", "android": "https://dc.lft.to/lastmile_qr_scan"}, "type": "electric_scooter", "is_reserved": 0, "is_disabled": 0, "bike_id": "ce8897d9cdd010e12cc9a41f6d66b120", "lat": 38.91188783333333, "lon": -77.03205883333334, "fusion_lat": 0.0, "name": "ce8897d9cdd010e12cc9a41f6d66b120"}, {"fusion_lon": 0.0, "rental_uris": {"ios": "https://dc.lft.to/lastmile_qr_scan", "android": "https://dc.lft.to/lastmile_qr_scan"}, "type": "electric_scooter", "is_reserved": 0, "is_disabled": 0, "bike_id": "1ee0fa86c19684eb72a8d1718f1b72aa", "lat": 38.91270816666667, "lon": -77.03229683333333, "fusion_lat": 0.0, "name": "1ee0fa86c19684eb72a8d1718f1b72aa"}, {"fusion_lon": 0.0, "rental_uris": {"ios": "https://dc.lft.to/lastmile_qr_scan", "android": "https://dc.lft.to/lastmile_qr_scan"}, "type": "electric_scooter", "is_reserved": 0, "is_disabled": 0, "bike_id": "0846bbc92a2077a7f0b56db611d8b1c3", "lat": 38.90277366666667, "lon": -77.03858033333333, "fusion_lat": 0.0, "name": "0846bbc92a2077a7f0b56db611d8b1c3"}, {"fusion_lon": 0.0, "rental_uris": {"ios": "https://dc.lft.to/lastmile_qr_scan", "android": "https://dc.lft.to/lastmile_qr_scan"}, "type": "electric_scooter", "is_reserved": 0, "is_disabled": 0, "bike_id": "4c263eb1b5eae149ee778533c18cbb70", "lat": 38.924425166666666, "lon": -77.01943733333333, "fusion_lat": 0.0, "name": "4c263eb1b5eae149ee778533c18cbb70"}, {"fusion_lon": 0.0, "rental_uris": {"ios": "https://dc.lft.to/lastmile_qr_scan", "android": "https://dc.lft.to/lastmile_qr_scan"}, "type": "electric_scooter", "is_reserved": 0, "is_disabled": 0, "bike_id": "f1aef123be8eb8cc67f77850130c051e", "lat": 38.9062875, "lon": -77.0152675, "fusion_lat": 0.0, "name": "f1aef123be8eb8cc67f77850130c051e"}, {"fusion_lon": 0.0, "rental_uris": {"ios": "https://dc.lft.to/lastmile_qr_scan", "android": "https://dc.lft.to/lastmile_qr_scan"}, "type": "electric_scooter", "is_reserved": 0, "is_disabled": 0, "bike_id": "6740af15fdbd7409fefc1751a4c643d5", "lat": 38.929919, "lon": -77.03471183333333, "fusion_lat": 0.0, "name": "6740af15fdbd7409fefc1751a4c643d5"}, {"fusion_lon": 0.0, "rental_uris": {"ios": "https://dc.lft.to/lastmile_qr_scan", "android": "https://dc.lft.to/lastmile_qr_scan"}, "type": "electric_scooter", "is_reserved": 0, "is_disabled": 0, "bike_id": "5acd6eaa2679eba222b12be9745cf985", "lat": 38.905705166666664, "lon": -77.00268683333333, "fusion_lat": 0.0, "name": "5acd6eaa2679eba222b12be9745cf985"}, {"fusion_lon": 0.0, "rental_uris": {"ios": "https://dc.lft.to/lastmile_qr_scan", "android": "https://dc.lft.to/lastmile_qr_scan"}, "type": "electric_scooter", "is_reserved": 0, "is_disabled": 0, "bike_id": "3b7b7ad9efb9cef2a2ccfbacfb72e023", "lat": 38.93072383333333, "lon": -77.02336983333333, "fusion_lat": 0.0, "name": "3b7b7ad9efb9cef2a2ccfbacfb72e023"}, {"fusion_lon": 0.0, "rental_uris": {"ios": "https://dc.lft.to/lastmile_qr_scan", "android": "https://dc.lft.to/lastmile_qr_scan"}, "type": "electric_scooter", "is_reserved": 0, "is_disabled": 0, "bike_id": "3356a7117b26909decf3c1159b59179c", "lat": 38.8727485, "lon": -77.01517016666666, "fusion_lat": 0.0, "name": "3356a7117b26909decf3c1159b59179c"}, {"fusion_lon": 0.0, "rental_uris": {"ios": "https://dc.lft.to/lastmile_qr_scan", "android": "https://dc.lft.to/lastmile_qr_scan"}, "type": "electric_bike", "is_reserved": 0, "is_disabled": 0, "bike_id": "ac2a891d7de83e4e4410df8b479c4293", "lat": 38.8074235, "lon": -77.09686316666667, "fusion_lat": 0.0, "name": "ac2a891d7de83e4e4410df8b479c4293"}, {"fusion_lon": 0.0, "rental_uris": {"ios": "https://dc.lft.to/lastmile_qr_scan", "android": "https://dc.lft.to/lastmile_qr_scan"}, "type": "electric_scooter", "is_reserved": 0, "is_disabled": 0, "bike_id": "e8d08647d7f88d81e6ec43a5f580160c", "lat": 38.90212316666667, "lon": -76.99236133333333, "fusion_lat": 0.0, "name": "e8d08647d7f88d81e6ec43a5f580160c"}, {"fusion_lon": 0.0, "rental_uris": {"ios": "https://dc.lft.to/lastmile_qr_scan", "android": "https://dc.lft.to/lastmile_qr_scan"}, "type": "electric_scooter", "is_reserved": 0, "is_disabled": 0, "bike_id": "621058b85a68b8c329311c44e237c7e3", "lat": 38.921234166666665, "lon": -77.021297, "fusion_lat": 0.0, "name": "621058b85a68b8c329311c44e237c7e3"}, {"fusion_lon": 0.0, "rental_uris": {"ios": "https://dc.lft.to/lastmile_qr_scan", "android": "https://dc.lft.to/lastmile_qr_scan"}, "type": "electric_scooter", "is_reserved": 0, "is_disabled": 0, "bike_id": "39df2224fbeb27d9a950f005548ae0bb", "lat": 38.898032666666666, "lon": -77.04615483333333, "fusion_lat": 0.0, "name": "39df2224fbeb27d9a950f005548ae0bb"}, {"fusion_lon": 0.0, "rental_uris": {"ios": "https://dc.lft.to/lastmile_qr_scan", "android": "https://dc.lft.to/lastmile_qr_scan"}, "type": "electric_bike", "is_reserved": 0, "is_disabled": 0, "bike_id": "0e1c2afa872cf269eb396b5026555c20", "lat": 38.87188666666667, "lon": -77.23396566666666, "fusion_lat": 0.0, "name": "0e1c2afa872cf269eb396b5026555c20"}, {"fusion_lon": 0.0, "rental_uris": {"ios": "https://dc.lft.to/lastmile_qr_scan", "android": "https://dc.lft.to/lastmile_qr_scan"}, "type": "electric_scooter", "is_reserved": 0, "is_disabled": 0, "bike_id": "692923fd784a6b267f84f0af1dc6dd2f", "lat": 38.92067733333333, "lon": -77.04239833333334, "fusion_lat": 0.0, "name": "692923fd784a6b267f84f0af1dc6dd2f"}, {"fusion_lon": 0.0, "rental_uris": {"ios": "https://dc.lft.to/lastmile_qr_scan", "android": "https://dc.lft.to/lastmile_qr_scan"}, "type": "electric_scooter", "is_reserved": 0, "is_disabled": 0, "bike_id": "f08dc8bdc12bd2580bd79ad2dd169c0a", "lat": 38.87889066666666, "lon": -77.00050183333333, "fusion_lat": 0.0, "name": "f08dc8bdc12bd2580bd79ad2dd169c0a"}, {"fusion_lon": 0.0, "rental_uris": {"ios": "https://dc.lft.to/lastmile_qr_scan", "android": "https://dc.lft.to/lastmile_qr_scan"}, "type": "electric_scooter", "is_reserved": 0, "is_disabled": 0, "bike_id": "c82df9bad45e13d9a937b0175e7abc76", "lat": 38.9097285, "lon": -77.048725, "fusion_lat": 0.0, "name": "c82df9bad45e13d9a937b0175e7abc76"}, {"fusion_lon": 0.0, "rental_uris": {"ios": "https://dc.lft.to/lastmile_qr_scan", "android": "https://dc.lft.to/lastmile_qr_scan"}, "type": "electric_scooter", "is_reserved": 0, "is_disabled": 0, "bike_id": "7043e12b22210005a3cefff7a44fb7d8", "lat": 38.8868835, "lon": -76.976402, "fusion_lat": 0.0, "name": "7043e12b22210005a3cefff7a44fb7d8"}, {"fusion_lon": 0.0, "rental_uris": {"ios": "https://dc.lft.to/lastmile_qr_scan", "android": "https://dc.lft.to/lastmile_qr_scan"}, "type": "electric_scooter", "is_reserved": 0, "is_disabled": 0, "bike_id": "65113cc7a794b0ec45288b9a1f4a343c", "lat": 38.905673666666665, "lon": -77.001188, "fusion_lat": 0.0, "name": "65113cc7a794b0ec45288b9a1f4a343c"}, {"fusion_lon": 0.0, "rental_uris": {"ios": "https://dc.lft.to/lastmile_qr_scan", "android": "https://dc.lft.to/lastmile_qr_scan"}, "type": "electric_scooter", "is_reserved": 0, "is_disabled": 0, "bike_id": "c86d0fda7c8bb24ec7852c6574b2b6f9", "lat": 38.909871, "lon": -77.06474866666667, "fusion_lat": 0.0, "name": "c86d0fda7c8bb24ec7852c6574b2b6f9"}, {"fusion_lon": 0.0, "rental_uris": {"ios": "https://dc.lft.to/lastmile_qr_scan", "android": "https://dc.lft.to/lastmile_qr_scan"}, "type": "electric_scooter", "is_reserved": 0, "is_disabled": 0, "bike_id": "4f1c34e5f1295b44006ddfce8c937ec8", "lat": 38.90146466666667, "lon": -77.04102733333333, "fusion_lat": 0.0, "name": "4f1c34e5f1295b44006ddfce8c937ec8"}, {"fusion_lon": 0.0, "rental_uris": {"ios": "https://dc.lft.to/lastmile_qr_scan", "android": "https://dc.lft.to/lastmile_qr_scan"}, "type": "electric_scooter", "is_reserved": 0, "is_disabled": 0, "bike_id": "70613b60673287507984867c6666425c", "lat": 38.847224, "lon": -76.96813416666667, "fusion_lat": 0.0, "name": "70613b60673287507984867c6666425c"}, {"fusion_lon": 0.0, "rental_uris": {"ios": "https://dc.lft.to/lastmile_qr_scan", "android": "https://dc.lft.to/lastmile_qr_scan"}, "type": "electric_bike", "is_reserved": 0, "is_disabled": 0, "bike_id": "375130d7bb2ba9c891ca37447c0f6982", "lat": 38.8757965, "lon": -77.23410766666667, "fusion_lat": 0.0, "name": "375130d7bb2ba9c891ca37447c0f6982"}, {"fusion_lon": 0.0, "rental_uris": {"ios": "https://dc.lft.to/lastmile_qr_scan", "android": "https://dc.lft.to/lastmile_qr_scan"}, "type": "electric_scooter", "is_reserved": 0, "is_disabled": 0, "bike_id": "c77c37feeb780e167d1c85f96f609172", "lat": 38.89539766666667, "lon": -76.94889366666666, "fusion_lat": 0.0, "name": "c77c37feeb780e167d1c85f96f609172"}, {"fusion_lon": 0.0, "rental_uris": {"ios": "https://dc.lft.to/lastmile_qr_scan", "android": "https://dc.lft.to/lastmile_qr_scan"}, "type": "electric_scooter", "is_reserved": 0, "is_disabled": 0, "bike_id": "f7313696dc136dd5e87fa874c7429882", "lat": 38.92789833333333, "lon": -77.02723683333333, "fusion_lat": 0.0, "name": "f7313696dc136dd5e87fa874c7429882"}, {"fusion_lon": 0.0, "rental_uris": {"ios": "https://dc.lft.to/lastmile_qr_scan", "android": "https://dc.lft.to/lastmile_qr_scan"}, "type": "electric_scooter", "is_reserved": 0, "is_disabled": 0, "bike_id": "7a52aaad4c5bcb306822ea7d3ebf12b8", "lat": 38.88860016666667, "lon": -76.9790435, "fusion_lat": 0.0, "name": "7a52aaad4c5bcb306822ea7d3ebf12b8"}, {"fusion_lon": 0.0, "rental_uris": {"ios": "https://dc.lft.to/lastmile_qr_scan", "android": "https://dc.lft.to/lastmile_qr_scan"}, "type": "electric_scooter", "is_reserved": 0, "is_disabled": 0, "bike_id": "d9ee10c25d5ee598f0fc6a69ce89521c", "lat": 38.90980183333333, "lon": -77.00888266666666, "fusion_lat": 0.0, "name": "d9ee10c25d5ee598f0fc6a69ce89521c"}, {"fusion_lon": 0.0, "rental_uris": {"ios": "https://dc.lft.to/lastmile_qr_scan", "android": "https://dc.lft.to/lastmile_qr_scan"}, "type": "electric_scooter", "is_reserved": 0, "is_disabled": 0, "bike_id": "abc02574c1c986fbe880d1af1003685c", "lat": 38.89357316666667, "lon": -77.003288, "fusion_lat": 0.0, "name": "abc02574c1c986fbe880d1af1003685c"}, {"fusion_lon": 0.0, "rental_uris": {"ios": "https://dc.lft.to/lastmile_qr_scan", "android": "https://dc.lft.to/lastmile_qr_scan"}, "type": "electric_scooter", "is_reserved": 0, "is_disabled": 0, "bike_id": "8e5f2b72a581ebb76de1bcee589b888f", "lat": 38.8905155, "lon": -76.989777, "fusion_lat": 0.0, "name": "8e5f2b72a581ebb76de1bcee589b888f"}, {"fusion_lon": 0.0, "rental_uris": {"ios": "https://dc.lft.to/lastmile_qr_scan", "android": "https://dc.lft.to/lastmile_qr_scan"}, "type": "electric_scooter", "is_reserved": 0, "is_disabled": 0, "bike_id": "ee7421cdd66183bd64f46106ee22abd4", "lat": 38.884932666666664, "lon": -77.0071515, "fusion_lat": 0.0, "name": "ee7421cdd66183bd64f46106ee22abd4"}, {"fusion_lon": 0.0, "rental_uris": {"ios": "https://dc.lft.to/lastmile_qr_scan", "android": "https://dc.lft.to/lastmile_qr_scan"}, "type": "electric_scooter", "is_reserved": 0, "is_disabled": 0, "bike_id": "530f24ffbd8315d0dc15df6dcbb55127", "lat": 38.91416533333334, "lon": -77.018072, "fusion_lat": 0.0, "name": "530f24ffbd8315d0dc15df6dcbb55127"}, {"fusion_lon": 0.0, "rental_uris": {"ios": "https://dc.lft.to/lastmile_qr_scan", "android": "https://dc.lft.to/lastmile_qr_scan"}, "type": "electric_scooter", "is_reserved": 0, "is_disabled": 0, "bike_id": "b31d50118e2f28ac76c1890ee59a3038", "lat": 38.898188833333336, "lon": -77.01209183333333, "fusion_lat": 0.0, "name": "b31d50118e2f28ac76c1890ee59a3038"}, {"fusion_lon": 0.0, "rental_uris": {"ios": "https://dc.lft.to/lastmile_qr_scan", "android": "https://dc.lft.to/lastmile_qr_scan"}, "type": "electric_bike", "is_reserved": 0, "is_disabled": 0, "bike_id": "f2922ac1fc2723278313552e1571c2ef", "lat": 39.003806166666664, "lon": -77.012859, "fusion_lat": 0.0, "name": "f2922ac1fc2723278313552e1571c2ef"}, {"fusion_lon": 0.0, "rental_uris": {"ios": "https://dc.lft.to/lastmile_qr_scan", "android": "https://dc.lft.to/lastmile_qr_scan"}, "type": "electric_bike", "is_reserved": 0, "is_disabled": 0, "bike_id": "7b84ef7d3e941959a7fc5090e23f847c", "lat": 38.897849, "lon": -77.013554, "fusion_lat": 0.0, "name": "7b84ef7d3e941959a7fc5090e23f847c"}, {"fusion_lon": 0.0, "rental_uris": {"ios": "https://dc.lft.to/lastmile_qr_scan", "android": "https://dc.lft.to/lastmile_qr_scan"}, "type": "electric_bike", "is_reserved": 0, "is_disabled": 0, "bike_id": "4362040cd86c814b2c6311ac5aa8d48a", "lat": 38.99670016666666, "lon": -77.037975, "fusion_lat": 0.0, "name": "4362040cd86c814b2c6311ac5aa8d48a"}, {"fusion_lon": 0.0, "rental_uris": {"ios": "https://dc.lft.to/lastmile_qr_scan", "android": "https://dc.lft.to/lastmile_qr_scan"}, "type": "electric_scooter", "is_reserved": 0, "is_disabled": 0, "bike_id": "69dd77ddea06dde8781f52d4b41cba32", "lat": 38.91714, "lon": -77.038568, "fusion_lat": 0.0, "name": "69dd77ddea06dde8781f52d4b41cba32"}, {"fusion_lon": 0.0, "rental_uris": {"ios": "https://dc.lft.to/lastmile_qr_scan", "android": "https://dc.lft.to/lastmile_qr_scan"}, "type": "electric_scooter", "is_reserved": 0, "is_disabled": 0, "bike_id": "6161ad95afb822ca1a01aceef7b8a497", "lat": 38.91742383333333, "lon": -77.021163, "fusion_lat": 0.0, "name": "6161ad95afb822ca1a01aceef7b8a497"}, {"fusion_lon": 0.0, "rental_uris": {"ios": "https://dc.lft.to/lastmile_qr_scan", "android": "https://dc.lft.to/lastmile_qr_scan"}, "type": "electric_scooter", "is_reserved": 0, "is_disabled": 0, "bike_id": "4cf568b46fe549f439f7994f8421c352", "lat": 38.9428585, "lon": -77.02926016666666, "fusion_lat": 0.0, "name": "4cf568b46fe549f439f7994f8421c352"}, {"fusion_lon": 0.0, "rental_uris": {"ios": "https://dc.lft.to/lastmile_qr_scan", "android": "https://dc.lft.to/lastmile_qr_scan"}, "type": "electric_scooter", "is_reserved": 0, "is_disabled": 0, "bike_id": "1a740eeffe79b622607bef2af124fb12", "lat": 38.92719116666667, "lon": -77.0598905, "fusion_lat": 0.0, "name": "1a740eeffe79b622607bef2af124fb12"}, {"fusion_lon": 0.0, "rental_uris": {"ios": "https://dc.lft.to/lastmile_qr_scan", "android": "https://dc.lft.to/lastmile_qr_scan"}, "type": "electric_scooter", "is_reserved": 0, "is_disabled": 0, "bike_id": "6d6770dbedfd6ac30e324e6721f43c10", "lat": 38.935386, "lon": -77.03092366666667, "fusion_lat": 0.0, "name": "6d6770dbedfd6ac30e324e6721f43c10"}, {"fusion_lon": 0.0, "rental_uris": {"ios": "https://dc.lft.to/lastmile_qr_scan", "android": "https://dc.lft.to/lastmile_qr_scan"}, "type": "electric_scooter", "is_reserved": 0, "is_disabled": 0, "bike_id": "0aab8456b93bfc3c861df1bf71fa3532", "lat": 38.94449616666667, "lon": -77.02336166666667, "fusion_lat": 0.0, "name": "0aab8456b93bfc3c861df1bf71fa3532"}, {"fusion_lon": 0.0, "rental_uris": {"ios": "https://dc.lft.to/lastmile_qr_scan", "android": "https://dc.lft.to/lastmile_qr_scan"}, "type": "electric_scooter", "is_reserved": 0, "is_disabled": 0, "bike_id": "a4db87e274caefd4f6f8bc2d81490cc7", "lat": 38.89360283333333, "lon": -77.02801266666667, "fusion_lat": 0.0, "name": "a4db87e274caefd4f6f8bc2d81490cc7"}, {"fusion_lon": 0.0, "rental_uris": {"ios": "https://dc.lft.to/lastmile_qr_scan", "android": "https://dc.lft.to/lastmile_qr_scan"}, "type": "electric_scooter", "is_reserved": 0, "is_disabled": 0, "bike_id": "273d1e91844e561f2310c8d78015370e", "lat": 38.903154, "lon": -77.03336783333333, "fusion_lat": 0.0, "name": "273d1e91844e561f2310c8d78015370e"}, {"fusion_lon": 0.0, "rental_uris": {"ios": "https://dc.lft.to/lastmile_qr_scan", "android": "https://dc.lft.to/lastmile_qr_scan"}, "type": "electric_scooter", "is_reserved": 0, "is_disabled": 0, "bike_id": "b1b45936b48642a563a313758cd2e745", "lat": 38.9074635, "lon": -77.00760783333334, "fusion_lat": 0.0, "name": "b1b45936b48642a563a313758cd2e745"}, {"fusion_lon": 0.0, "rental_uris": {"ios": "https://dc.lft.to/lastmile_qr_scan", "android": "https://dc.lft.to/lastmile_qr_scan"}, "type": "electric_scooter", "is_reserved": 0, "is_disabled": 0, "bike_id": "751c1c51464974a4ac12719e3b5a3331", "lat": 38.896754666666666, "lon": -77.0502845, "fusion_lat": 0.0, "name": "751c1c51464974a4ac12719e3b5a3331"}, {"fusion_lon": 0.0, "rental_uris": {"ios": "https://dc.lft.to/lastmile_qr_scan", "android": "https://dc.lft.to/lastmile_qr_scan"}, "type": "electric_scooter", "is_reserved": 0, "is_disabled": 0, "bike_id": "090999347f1b7ec036006a5d83ab4ef4", "lat": 38.90477466666667, "lon": -77.03549183333334, "fusion_lat": 0.0, "name": "090999347f1b7ec036006a5d83ab4ef4"}, {"fusion_lon": 0.0, "rental_uris": {"ios": "https://dc.lft.to/lastmile_qr_scan", "android": "https://dc.lft.to/lastmile_qr_scan"}, "type": "electric_scooter", "is_reserved": 0, "is_disabled": 0, "bike_id": "e4905c019a41fb803c116188fc4855cf", "lat": 38.89996383333333, "lon": -76.99011516666667, "fusion_lat": 0.0, "name": "e4905c019a41fb803c116188fc4855cf"}, {"fusion_lon": 0.0, "rental_uris": {"ios": "https://dc.lft.to/lastmile_qr_scan", "android": "https://dc.lft.to/lastmile_qr_scan"}, "type": "electric_scooter", "is_reserved": 0, "is_disabled": 0, "bike_id": "5afc8673643cbf637d70ec086f276862", "lat": 38.89221216666667, "lon": -77.02412633333333, "fusion_lat": 0.0, "name": "5afc8673643cbf637d70ec086f276862"}, {"fusion_lon": 0.0, "rental_uris": {"ios": "https://dc.lft.to/lastmile_qr_scan", "android": "https://dc.lft.to/lastmile_qr_scan"}, "type": "electric_scooter", "is_reserved": 0, "is_disabled": 0, "bike_id": "76ff9220622bc2df111b9a28f679bc8c", "lat": 38.897657333333335, "lon": -77.02678366666666, "fusion_lat": 0.0, "name": "76ff9220622bc2df111b9a28f679bc8c"}, {"fusion_lon": 0.0, "rental_uris": {"ios": "https://dc.lft.to/lastmile_qr_scan", "android": "https://dc.lft.to/lastmile_qr_scan"}, "type": "electric_scooter", "is_reserved": 0, "is_disabled": 0, "bike_id": "d2b4baaf1e7dbc6e279cf90060cd444e", "lat": 38.88322766666667, "lon": -77.03007283333334, "fusion_lat": 0.0, "name": "d2b4baaf1e7dbc6e279cf90060cd444e"}, {"fusion_lon": 0.0, "rental_uris": {"ios": "https://dc.lft.to/lastmile_qr_scan", "android": "https://dc.lft.to/lastmile_qr_scan"}, "type": "electric_scooter", "is_reserved": 0, "is_disabled": 0, "bike_id": "91d0614440525f8b3200b0648cbe0942", "lat": 38.925921333333335, "lon": -77.0439965, "fusion_lat": 0.0, "name": "91d0614440525f8b3200b0648cbe0942"}, {"fusion_lon": 0.0, "rental_uris": {"ios": "https://dc.lft.to/lastmile_qr_scan", "android": "https://dc.lft.to/lastmile_qr_scan"}, "type": "electric_scooter", "is_reserved": 0, "is_disabled": 0, "bike_id": "09c0a69cdd99d505fb90d1b8b54d71a3", "lat": 38.890167166666664, "lon": -76.9373325, "fusion_lat": 0.0, "name": "09c0a69cdd99d505fb90d1b8b54d71a3"}, {"fusion_lon": 0.0, "rental_uris": {"ios": "https://dc.lft.to/lastmile_qr_scan", "android": "https://dc.lft.to/lastmile_qr_scan"}, "type": "electric_scooter", "is_reserved": 0, "is_disabled": 0, "bike_id": "348b31dc93e9d51f391f88f5c6ac2d15", "lat": 38.92788616666667, "lon": -77.0272385, "fusion_lat": 0.0, "name": "348b31dc93e9d51f391f88f5c6ac2d15"}, {"fusion_lon": 0.0, "rental_uris": {"ios": "https://dc.lft.to/lastmile_qr_scan", "android": "https://dc.lft.to/lastmile_qr_scan"}, "type": "electric_scooter", "is_reserved": 0, "is_disabled": 0, "bike_id": "84433dfcbec8b07cb09f916b46b1f4a0", "lat": 38.90354166666667, "lon": -77.01115233333333, "fusion_lat": 0.0, "name": "84433dfcbec8b07cb09f916b46b1f4a0"}, {"fusion_lon": 0.0, "rental_uris": {"ios": "https://dc.lft.to/lastmile_qr_scan", "android": "https://dc.lft.to/lastmile_qr_scan"}, "type": "electric_scooter", "is_reserved": 0, "is_disabled": 0, "bike_id": "cd665b50f3fb6217188de98b7bc56024", "lat": 38.91358833333334, "lon": -77.02050916666667, "fusion_lat": 0.0, "name": "cd665b50f3fb6217188de98b7bc56024"}, {"fusion_lon": 0.0, "rental_uris": {"ios": "https://dc.lft.to/lastmile_qr_scan", "android": "https://dc.lft.to/lastmile_qr_scan"}, "type": "electric_scooter", "is_reserved": 0, "is_disabled": 0, "bike_id": "c4a01e9a573ab8dde3da84909abcda7b", "lat": 38.90020766666667, "lon": -77.04116666666667, "fusion_lat": 0.0, "name": "c4a01e9a573ab8dde3da84909abcda7b"}, {"fusion_lon": 0.0, "rental_uris": {"ios": "https://dc.lft.to/lastmile_qr_scan", "android": "https://dc.lft.to/lastmile_qr_scan"}, "type": "electric_scooter", "is_reserved": 0, "is_disabled": 0, "bike_id": "92aec17c9ec198ea85c9971097afac69", "lat": 38.90040066666667, "lon": -76.99146633333334, "fusion_lat": 0.0, "name": "92aec17c9ec198ea85c9971097afac69"}, {"fusion_lon": 0.0, "rental_uris": {"ios": "https://dc.lft.to/lastmile_qr_scan", "android": "https://dc.lft.to/lastmile_qr_scan"}, "type": "electric_scooter", "is_reserved": 0, "is_disabled": 0, "bike_id": "d02e8db41bfb0f015eae0fc8efb4c659", "lat": 38.8989835, "lon": -77.04548266666667, "fusion_lat": 0.0, "name": "d02e8db41bfb0f015eae0fc8efb4c659"}, {"fusion_lon": 0.0, "rental_uris": {"ios": "https://dc.lft.to/lastmile_qr_scan", "android": "https://dc.lft.to/lastmile_qr_scan"}, "type": "electric_scooter", "is_reserved": 0, "is_disabled": 0, "bike_id": "4489ab15c5da938430f08f320ac4b9a1", "lat": 38.927081666666666, "lon": -77.0209515, "fusion_lat": 0.0, "name": "4489ab15c5da938430f08f320ac4b9a1"}, {"fusion_lon": 0.0, "rental_uris": {"ios": "https://dc.lft.to/lastmile_qr_scan", "android": "https://dc.lft.to/lastmile_qr_scan"}, "type": "electric_scooter", "is_reserved": 0, "is_disabled": 0, "bike_id": "39250b4a11754c0a08a46e9a9c7e3ea1", "lat": 38.90674633333333, "lon": -77.04340366666666, "fusion_lat": 0.0, "name": "39250b4a11754c0a08a46e9a9c7e3ea1"}, {"fusion_lon": 0.0, "rental_uris": {"ios": "https://dc.lft.to/lastmile_qr_scan", "android": "https://dc.lft.to/lastmile_qr_scan"}, "type": "electric_scooter", "is_reserved": 0, "is_disabled": 0, "bike_id": "63793dee1ff65cbce2e3a095912727e5", "lat": 38.913294, "lon": -77.04540366666667, "fusion_lat": 0.0, "name": "63793dee1ff65cbce2e3a095912727e5"}, {"fusion_lon": 0.0, "rental_uris": {"ios": "https://dc.lft.to/lastmile_qr_scan", "android": "https://dc.lft.to/lastmile_qr_scan"}, "type": "electric_scooter", "is_reserved": 0, "is_disabled": 0, "bike_id": "fabadc7d81f36052e8319c1927d3ca8b", "lat": 38.914077, "lon": -77.03248966666666, "fusion_lat": 0.0, "name": "fabadc7d81f36052e8319c1927d3ca8b"}, {"fusion_lon": 0.0, "rental_uris": {"ios": "https://dc.lft.to/lastmile_qr_scan", "android": "https://dc.lft.to/lastmile_qr_scan"}, "type": "electric_scooter", "is_reserved": 0, "is_disabled": 0, "bike_id": "187fcbf6d8b36cb5c3cc87919163f504", "lat": 38.91190866666667, "lon": -77.0608265, "fusion_lat": 0.0, "name": "187fcbf6d8b36cb5c3cc87919163f504"}, {"fusion_lon": 0.0, "rental_uris": {"ios": "https://dc.lft.to/lastmile_qr_scan", "android": "https://dc.lft.to/lastmile_qr_scan"}, "type": "electric_scooter", "is_reserved": 0, "is_disabled": 0, "bike_id": "615d7a6464701e706975e57014422811", "lat": 38.90605683333333, "lon": -77.04041633333334, "fusion_lat": 0.0, "name": "615d7a6464701e706975e57014422811"}, {"fusion_lon": 0.0, "rental_uris": {"ios": "https://dc.lft.to/lastmile_qr_scan", "android": "https://dc.lft.to/lastmile_qr_scan"}, "type": "electric_scooter", "is_reserved": 0, "is_disabled": 0, "bike_id": "edb4b04882951f610581e5e789abcf72", "lat": 38.916641166666665, "lon": -77.02705216666666, "fusion_lat": 0.0, "name": "edb4b04882951f610581e5e789abcf72"}, {"fusion_lon": 0.0, "rental_uris": {"ios": "https://dc.lft.to/lastmile_qr_scan", "android": "https://dc.lft.to/lastmile_qr_scan"}, "type": "electric_scooter", "is_reserved": 0, "is_disabled": 0, "bike_id": "87fc6babc21d0120ab8021b9ca64b46a", "lat": 38.897167333333336, "lon": -77.01323366666666, "fusion_lat": 0.0, "name": "87fc6babc21d0120ab8021b9ca64b46a"}, {"fusion_lon": 0.0, "rental_uris": {"ios": "https://dc.lft.to/lastmile_qr_scan", "android": "https://dc.lft.to/lastmile_qr_scan"}, "type": "electric_bike", "is_reserved": 0, "is_disabled": 0, "bike_id": "7c279d3c733454e2c8ef3a31608f92d3", "lat": 38.8565115, "lon": -77.08529633333333, "fusion_lat": 0.0, "name": "7c279d3c733454e2c8ef3a31608f92d3"}, {"fusion_lon": 0.0, "rental_uris": {"ios": "https://dc.lft.to/lastmile_qr_scan", "android": "https://dc.lft.to/lastmile_qr_scan"}, "type": "electric_scooter", "is_reserved": 0, "is_disabled": 0, "bike_id": "8f910df27efbbd138de795cfc37bb26c", "lat": 38.90157516666667, "lon": -77.040439, "fusion_lat": 0.0, "name": "8f910df27efbbd138de795cfc37bb26c"}, {"fusion_lon": 0.0, "rental_uris": {"ios": "https://dc.lft.to/lastmile_qr_scan", "android": "https://dc.lft.to/lastmile_qr_scan"}, "type": "electric_scooter", "is_reserved": 0, "is_disabled": 0, "bike_id": "017402f70a529f5e7a7725470b472276", "lat": 38.9188495, "lon": -77.04306116666666, "fusion_lat": 0.0, "name": "017402f70a529f5e7a7725470b472276"}, {"fusion_lon": 0.0, "rental_uris": {"ios": "https://dc.lft.to/lastmile_qr_scan", "android": "https://dc.lft.to/lastmile_qr_scan"}, "type": "electric_scooter", "is_reserved": 0, "is_disabled": 0, "bike_id": "2a9466a9edad4a33ffa6b0faf533e931", "lat": 38.88735716666667, "lon": -77.01387616666666, "fusion_lat": 0.0, "name": "2a9466a9edad4a33ffa6b0faf533e931"}, {"fusion_lon": 0.0, "rental_uris": {"ios": "https://dc.lft.to/lastmile_qr_scan", "android": "https://dc.lft.to/lastmile_qr_scan"}, "type": "electric_scooter", "is_reserved": 0, "is_disabled": 0, "bike_id": "814d6053913223cfbc9be24e071adbd1", "lat": 38.90145483333333, "lon": -77.03966733333333, "fusion_lat": 0.0, "name": "814d6053913223cfbc9be24e071adbd1"}, {"fusion_lon": 0.0, "rental_uris": {"ios": "https://dc.lft.to/lastmile_qr_scan", "android": "https://dc.lft.to/lastmile_qr_scan"}, "type": "electric_scooter", "is_reserved": 0, "is_disabled": 0, "bike_id": "0aa5787fa6abe622bcc2e6bee19f222e", "lat": 38.915682833333335, "lon": -77.0119805, "fusion_lat": 0.0, "name": "0aa5787fa6abe622bcc2e6bee19f222e"}, {"fusion_lon": 0.0, "rental_uris": {"ios": "https://dc.lft.to/lastmile_qr_scan", "android": "https://dc.lft.to/lastmile_qr_scan"}, "type": "electric_scooter", "is_reserved": 0, "is_disabled": 0, "bike_id": "7b3018eb5fdd7d1cb70fb25b47759d3c", "lat": 38.907931833333336, "lon": -77.03190233333333, "fusion_lat": 0.0, "name": "7b3018eb5fdd7d1cb70fb25b47759d3c"}, {"fusion_lon": 0.0, "rental_uris": {"ios": "https://dc.lft.to/lastmile_qr_scan", "android": "https://dc.lft.to/lastmile_qr_scan"}, "type": "electric_scooter", "is_reserved": 0, "is_disabled": 0, "bike_id": "e943d9af227b7f274cb09113620dde73", "lat": 38.92615033333333, "lon": -77.02170816666667, "fusion_lat": 0.0, "name": "e943d9af227b7f274cb09113620dde73"}, {"fusion_lon": 0.0, "rental_uris": {"ios": "https://dc.lft.to/lastmile_qr_scan", "android": "https://dc.lft.to/lastmile_qr_scan"}, "type": "electric_scooter", "is_reserved": 0, "is_disabled": 0, "bike_id": "391431e9a9d105f4b7b9a8bda08819cd", "lat": 38.9027775, "lon": -77.03882833333333, "fusion_lat": 0.0, "name": "391431e9a9d105f4b7b9a8bda08819cd"}, {"fusion_lon": 0.0, "rental_uris": {"ios": "https://dc.lft.to/lastmile_qr_scan", "android": "https://dc.lft.to/lastmile_qr_scan"}, "type": "electric_scooter", "is_reserved": 0, "is_disabled": 0, "bike_id": "95958284020d30ccee81428d5534edbb", "lat": 38.9195435, "lon": -77.024719, "fusion_lat": 0.0, "name": "95958284020d30ccee81428d5534edbb"}, {"fusion_lon": 0.0, "rental_uris": {"ios": "https://dc.lft.to/lastmile_qr_scan", "android": "https://dc.lft.to/lastmile_qr_scan"}, "type": "electric_bike", "is_reserved": 0, "is_disabled": 0, "bike_id": "478aa42631e1de1e450be999658549bc", "lat": 38.865553166666665, "lon": -76.941469, "fusion_lat": 0.0, "name": "478aa42631e1de1e450be999658549bc"}, {"fusion_lon": 0.0, "rental_uris": {"ios": "https://dc.lft.to/lastmile_qr_scan", "android": "https://dc.lft.to/lastmile_qr_scan"}, "type": "electric_scooter", "is_reserved": 0, "is_disabled": 0, "bike_id": "54d0fa989320b3ccb0952c2735a938fb", "lat": 38.9011715, "lon": -77.043507, "fusion_lat": 0.0, "name": "54d0fa989320b3ccb0952c2735a938fb"}, {"fusion_lon": 0.0, "rental_uris": {"ios": "https://dc.lft.to/lastmile_qr_scan", "android": "https://dc.lft.to/lastmile_qr_scan"}, "type": "electric_scooter", "is_reserved": 0, "is_disabled": 0, "bike_id": "dc51df26a6a1812a40ada78d2588a148", "lat": 38.91718616666667, "lon": -77.0297045, "fusion_lat": 0.0, "name": "dc51df26a6a1812a40ada78d2588a148"}, {"fusion_lon": 0.0, "rental_uris": {"ios": "https://dc.lft.to/lastmile_qr_scan", "android": "https://dc.lft.to/lastmile_qr_scan"}, "type": "electric_scooter", "is_reserved": 0, "is_disabled": 0, "bike_id": "ea7b096aa55e1805e2840cd30b79d6e9", "lat": 38.903393, "lon": -77.05898866666666, "fusion_lat": 0.0, "name": "ea7b096aa55e1805e2840cd30b79d6e9"}, {"fusion_lon": 0.0, "rental_uris": {"ios": "https://dc.lft.to/lastmile_qr_scan", "android": "https://dc.lft.to/lastmile_qr_scan"}, "type": "electric_scooter", "is_reserved": 0, "is_disabled": 0, "bike_id": "661bcf182f620924263268d6311c8cda", "lat": 38.9265385, "lon": -77.03711233333334, "fusion_lat": 0.0, "name": "661bcf182f620924263268d6311c8cda"}, {"fusion_lon": 0.0, "rental_uris": {"ios": "https://dc.lft.to/lastmile_qr_scan", "android": "https://dc.lft.to/lastmile_qr_scan"}, "type": "electric_scooter", "is_reserved": 0, "is_disabled": 0, "bike_id": "3a7b385155493c53c272addf2fd22065", "lat": 38.920707, "lon": -77.02210716666667, "fusion_lat": 0.0, "name": "3a7b385155493c53c272addf2fd22065"}, {"fusion_lon": 0.0, "rental_uris": {"ios": "https://dc.lft.to/lastmile_qr_scan", "android": "https://dc.lft.to/lastmile_qr_scan"}, "type": "electric_scooter", "is_reserved": 0, "is_disabled": 0, "bike_id": "a250c7b323e3da9df491d8bed42fdc4b", "lat": 38.94886016666667, "lon": -77.08060316666666, "fusion_lat": 0.0, "name": "a250c7b323e3da9df491d8bed42fdc4b"}, {"fusion_lon": 0.0, "rental_uris": {"ios": "https://dc.lft.to/lastmile_qr_scan", "android": "https://dc.lft.to/lastmile_qr_scan"}, "type": "electric_bike", "is_reserved": 0, "is_disabled": 0, "bike_id": "4a68379cd8175dc03f1ea46b6cb380e5", "lat": 38.8313115, "lon": -77.11313833333334, "fusion_lat": 0.0, "name": "4a68379cd8175dc03f1ea46b6cb380e5"}, {"fusion_lon": 0.0, "rental_uris": {"ios": "https://dc.lft.to/lastmile_qr_scan", "android": "https://dc.lft.to/lastmile_qr_scan"}, "type": "electric_scooter", "is_reserved": 0, "is_disabled": 0, "bike_id": "e72da06961747ed0b54ce8c496490ff0", "lat": 38.928963333333336, "lon": -77.03626383333334, "fusion_lat": 0.0, "name": "e72da06961747ed0b54ce8c496490ff0"}, {"fusion_lon": 0.0, "rental_uris": {"ios": "https://dc.lft.to/lastmile_qr_scan", "android": "https://dc.lft.to/lastmile_qr_scan"}, "type": "electric_scooter", "is_reserved": 0, "is_disabled": 0, "bike_id": "95e58e937f9539205bb7892c944c1847", "lat": 38.90982266666666, "lon": -77.00913183333333, "fusion_lat": 0.0, "name": "95e58e937f9539205bb7892c944c1847"}, {"fusion_lon": 0.0, "rental_uris": {"ios": "https://dc.lft.to/lastmile_qr_scan", "android": "https://dc.lft.to/lastmile_qr_scan"}, "type": "electric_scooter", "is_reserved": 0, "is_disabled": 0, "bike_id": "febcf288ed4ebb1ad2b13729af97e6b7", "lat": 38.91981466666667, "lon": -77.021669, "fusion_lat": 0.0, "name": "febcf288ed4ebb1ad2b13729af97e6b7"}, {"fusion_lon": 0.0, "rental_uris": {"ios": "https://dc.lft.to/lastmile_qr_scan", "android": "https://dc.lft.to/lastmile_qr_scan"}, "type": "electric_bike", "is_reserved": 0, "is_disabled": 0, "bike_id": "8446ce9333a9f50d641e844d3a535a29", "lat": 38.9289705, "lon": -77.2317455, "fusion_lat": 0.0, "name": "8446ce9333a9f50d641e844d3a535a29"}, {"fusion_lon": 0.0, "rental_uris": {"ios": "https://dc.lft.to/lastmile_qr_scan", "android": "https://dc.lft.to/lastmile_qr_scan"}, "type": "electric_scooter", "is_reserved": 0, "is_disabled": 0, "bike_id": "92bf57112b08a57fa3fe5213aea5f39d", "lat": 38.901079833333334, "lon": -77.033827, "fusion_lat": 0.0, "name": "92bf57112b08a57fa3fe5213aea5f39d"}, {"fusion_lon": 0.0, "rental_uris": {"ios": "https://dc.lft.to/lastmile_qr_scan", "android": "https://dc.lft.to/lastmile_qr_scan"}, "type": "electric_scooter", "is_reserved": 0, "is_disabled": 0, "bike_id": "e5e35907959ba1563b7bf5dd695a6eb5", "lat": 38.898395, "lon": -77.02617183333334, "fusion_lat": 0.0, "name": "e5e35907959ba1563b7bf5dd695a6eb5"}, {"fusion_lon": 0.0, "rental_uris": {"ios": "https://dc.lft.to/lastmile_qr_scan", "android": "https://dc.lft.to/lastmile_qr_scan"}, "type": "electric_scooter", "is_reserved": 0, "is_disabled": 0, "bike_id": "5d7d041b5fa42e6551fa47f3392bbec8", "lat": 38.9002605, "lon": -77.02276133333334, "fusion_lat": 0.0, "name": "5d7d041b5fa42e6551fa47f3392bbec8"}, {"fusion_lon": 0.0, "rental_uris": {"ios": "https://dc.lft.to/lastmile_qr_scan", "android": "https://dc.lft.to/lastmile_qr_scan"}, "type": "electric_scooter", "is_reserved": 0, "is_disabled": 0, "bike_id": "397df1512571262c1d526204928a9619", "lat": 38.9205735, "lon": -77.023034, "fusion_lat": 0.0, "name": "397df1512571262c1d526204928a9619"}, {"fusion_lon": 0.0, "rental_uris": {"ios": "https://dc.lft.to/lastmile_qr_scan", "android": "https://dc.lft.to/lastmile_qr_scan"}, "type": "electric_scooter", "is_reserved": 0, "is_disabled": 0, "bike_id": "3d08e4a7884af3adb21a843a05a838bb", "lat": 38.920586666666665, "lon": -77.02301716666666, "fusion_lat": 0.0, "name": "3d08e4a7884af3adb21a843a05a838bb"}, {"fusion_lon": 0.0, "rental_uris": {"ios": "https://dc.lft.to/lastmile_qr_scan", "android": "https://dc.lft.to/lastmile_qr_scan"}, "type": "electric_scooter", "is_reserved": 0, "is_disabled": 0, "bike_id": "6529c5e758e4e4dc12f570a8284b0cb1", "lat": 38.8864505, "lon": -77.00098983333334, "fusion_lat": 0.0, "name": "6529c5e758e4e4dc12f570a8284b0cb1"}, {"fusion_lon": 0.0, "rental_uris": {"ios": "https://dc.lft.to/lastmile_qr_scan", "android": "https://dc.lft.to/lastmile_qr_scan"}, "type": "electric_scooter", "is_reserved": 0, "is_disabled": 0, "bike_id": "916cbe7b496331f013325bfae0afdae7", "lat": 38.89222516666667, "lon": -77.03168366666667, "fusion_lat": 0.0, "name": "916cbe7b496331f013325bfae0afdae7"}, {"fusion_lon": 0.0, "rental_uris": {"ios": "https://dc.lft.to/lastmile_qr_scan", "android": "https://dc.lft.to/lastmile_qr_scan"}, "type": "electric_scooter", "is_reserved": 0, "is_disabled": 0, "bike_id": "5d1cf0936a129dea9dfe657f1cf8e7aa", "lat": 38.915944833333334, "lon": -77.04521716666666, "fusion_lat": 0.0, "name": "5d1cf0936a129dea9dfe657f1cf8e7aa"}, {"fusion_lon": 0.0, "rental_uris": {"ios": "https://dc.lft.to/lastmile_qr_scan", "android": "https://dc.lft.to/lastmile_qr_scan"}, "type": "electric_scooter", "is_reserved": 0, "is_disabled": 0, "bike_id": "c3b74840b588796ad2032b60dc88161e", "lat": 38.89913283333333, "lon": -77.039269, "fusion_lat": 0.0, "name": "c3b74840b588796ad2032b60dc88161e"}, {"fusion_lon": 0.0, "rental_uris": {"ios": "https://dc.lft.to/lastmile_qr_scan", "android": "https://dc.lft.to/lastmile_qr_scan"}, "type": "electric_scooter", "is_reserved": 0, "is_disabled": 0, "bike_id": "3ec648d6a024d9fab02f2c2baa03d8bd", "lat": 38.95812866666667, "lon": -77.01452283333333, "fusion_lat": 0.0, "name": "3ec648d6a024d9fab02f2c2baa03d8bd"}, {"fusion_lon": 0.0, "rental_uris": {"ios": "https://dc.lft.to/lastmile_qr_scan", "android": "https://dc.lft.to/lastmile_qr_scan"}, "type": "electric_bike", "is_reserved": 0, "is_disabled": 0, "bike_id": "b33c7208b40915a5ede254b07488095f", "lat": 38.838332666666666, "lon": -77.07910133333333, "fusion_lat": 0.0, "name": "b33c7208b40915a5ede254b07488095f"}, {"fusion_lon": 0.0, "rental_uris": {"ios": "https://dc.lft.to/lastmile_qr_scan", "android": "https://dc.lft.to/lastmile_qr_scan"}, "type": "electric_scooter", "is_reserved": 0, "is_disabled": 0, "bike_id": "ff730f43a1ece420d01264b9907fc4b4", "lat": 38.90396716666667, "lon": -76.99046116666666, "fusion_lat": 0.0, "name": "ff730f43a1ece420d01264b9907fc4b4"}, {"fusion_lon": 0.0, "rental_uris": {"ios": "https://dc.lft.to/lastmile_qr_scan", "android": "https://dc.lft.to/lastmile_qr_scan"}, "type": "electric_scooter", "is_reserved": 0, "is_disabled": 0, "bike_id": "ef6679c8b4f1a9c6e1fa1e0d744818f2", "lat": 38.92383516666666, "lon": -77.03054516666667, "fusion_lat": 0.0, "name": "ef6679c8b4f1a9c6e1fa1e0d744818f2"}, {"fusion_lon": 0.0, "rental_uris": {"ios": "https://dc.lft.to/lastmile_qr_scan", "android": "https://dc.lft.to/lastmile_qr_scan"}, "type": "electric_scooter", "is_reserved": 0, "is_disabled": 0, "bike_id": "de3d1bacc9a32cd6caf1d20399638003", "lat": 38.92252516666667, "lon": -77.04712033333334, "fusion_lat": 0.0, "name": "de3d1bacc9a32cd6caf1d20399638003"}, {"fusion_lon": 0.0, "rental_uris": {"ios": "https://dc.lft.to/lastmile_qr_scan", "android": "https://dc.lft.to/lastmile_qr_scan"}, "type": "electric_scooter", "is_reserved": 0, "is_disabled": 0, "bike_id": "0d0c60ff4745a4941142bebb92efa4b1", "lat": 38.9241905, "lon": -77.01947316666667, "fusion_lat": 0.0, "name": "0d0c60ff4745a4941142bebb92efa4b1"}, {"fusion_lon": 0.0, "rental_uris": {"ios": "https://dc.lft.to/lastmile_qr_scan", "android": "https://dc.lft.to/lastmile_qr_scan"}, "type": "electric_scooter", "is_reserved": 0, "is_disabled": 0, "bike_id": "523c54152fac527bdaeaac9ae0638f1c", "lat": 38.9077225, "lon": -77.0630395, "fusion_lat": 0.0, "name": "523c54152fac527bdaeaac9ae0638f1c"}, {"fusion_lon": 0.0, "rental_uris": {"ios": "https://dc.lft.to/lastmile_qr_scan", "android": "https://dc.lft.to/lastmile_qr_scan"}, "type": "electric_scooter", "is_reserved": 0, "is_disabled": 0, "bike_id": "73cfc1bff4a7e1e3a6ecaad2908a0a27", "lat": 38.9431185, "lon": -77.0294725, "fusion_lat": 0.0, "name": "73cfc1bff4a7e1e3a6ecaad2908a0a27"}, {"fusion_lon": 0.0, "rental_uris": {"ios": "https://dc.lft.to/lastmile_qr_scan", "android": "https://dc.lft.to/lastmile_qr_scan"}, "type": "electric_scooter", "is_reserved": 0, "is_disabled": 0, "bike_id": "9626e90c514022195ad4fb9895ec6641", "lat": 38.92911, "lon": -77.01872283333333, "fusion_lat": 0.0, "name": "9626e90c514022195ad4fb9895ec6641"}, {"fusion_lon": 0.0, "rental_uris": {"ios": "https://dc.lft.to/lastmile_qr_scan", "android": "https://dc.lft.to/lastmile_qr_scan"}, "type": "electric_bike", "is_reserved": 0, "is_disabled": 0, "bike_id": "140b3468d46cc2c3641aa797ecd7efbc", "lat": 38.89566683333334, "lon": -77.1273125, "fusion_lat": 0.0, "name": "140b3468d46cc2c3641aa797ecd7efbc"}, {"fusion_lon": 0.0, "rental_uris": {"ios": "https://dc.lft.to/lastmile_qr_scan", "android": "https://dc.lft.to/lastmile_qr_scan"}, "type": "electric_scooter", "is_reserved": 0, "is_disabled": 0, "bike_id": "a09a8dc8f5adc0c29f35fdc0ee5395a3", "lat": 38.9082275, "lon": -77.03912966666667, "fusion_lat": 0.0, "name": "a09a8dc8f5adc0c29f35fdc0ee5395a3"}, {"fusion_lon": 0.0, "rental_uris": {"ios": "https://dc.lft.to/lastmile_qr_scan", "android": "https://dc.lft.to/lastmile_qr_scan"}, "type": "electric_scooter", "is_reserved": 0, "is_disabled": 0, "bike_id": "d49ebf9fd97bee10612ca43fdd0ddfc2", "lat": 38.94417166666667, "lon": -77.06337033333334, "fusion_lat": 0.0, "name": "d49ebf9fd97bee10612ca43fdd0ddfc2"}, {"fusion_lon": 0.0, "rental_uris": {"ios": "https://dc.lft.to/lastmile_qr_scan", "android": "https://dc.lft.to/lastmile_qr_scan"}, "type": "electric_bike", "is_reserved": 0, "is_disabled": 0, "bike_id": "7598a7f8091ce61e7aa93ebbb9e73863", "lat": 38.8428485, "lon": -76.98818066666666, "fusion_lat": 0.0, "name": "7598a7f8091ce61e7aa93ebbb9e73863"}, {"fusion_lon": 0.0, "rental_uris": {"ios": "https://dc.lft.to/lastmile_qr_scan", "android": "https://dc.lft.to/lastmile_qr_scan"}, "type": "electric_scooter", "is_reserved": 0, "is_disabled": 0, "bike_id": "bd5a1bb5843b306b5bc1156b123af2a7", "lat": 38.9069835, "lon": -77.04206316666667, "fusion_lat": 0.0, "name": "bd5a1bb5843b306b5bc1156b123af2a7"}, {"fusion_lon": 0.0, "rental_uris": {"ios": "https://dc.lft.to/lastmile_qr_scan", "android": "https://dc.lft.to/lastmile_qr_scan"}, "type": "electric_scooter", "is_reserved": 0, "is_disabled": 0, "bike_id": "b102ca31246c9bc261406939992eedd6", "lat": 38.898174166666664, "lon": -77.04661516666667, "fusion_lat": 0.0, "name": "b102ca31246c9bc261406939992eedd6"}, {"fusion_lon": 0.0, "rental_uris": {"ios": "https://dc.lft.to/lastmile_qr_scan", "android": "https://dc.lft.to/lastmile_qr_scan"}, "type": "electric_scooter", "is_reserved": 0, "is_disabled": 0, "bike_id": "adf0c56365a34960082ab1d9b3e44ad0", "lat": 38.91408333333333, "lon": -77.01338083333333, "fusion_lat": 0.0, "name": "adf0c56365a34960082ab1d9b3e44ad0"}, {"fusion_lon": 0.0, "rental_uris": {"ios": "https://dc.lft.to/lastmile_qr_scan", "android": "https://dc.lft.to/lastmile_qr_scan"}, "type": "electric_scooter", "is_reserved": 0, "is_disabled": 0, "bike_id": "4076fa144e455e44285286b0be13f1a2", "lat": 38.900271333333336, "lon": -77.0487305, "fusion_lat": 0.0, "name": "4076fa144e455e44285286b0be13f1a2"}, {"fusion_lon": 0.0, "rental_uris": {"ios": "https://dc.lft.to/lastmile_qr_scan", "android": "https://dc.lft.to/lastmile_qr_scan"}, "type": "electric_scooter", "is_reserved": 0, "is_disabled": 0, "bike_id": "2f19f6c433f51bd74af3d0df1a7b8e52", "lat": 38.92140466666667, "lon": -77.01808533333333, "fusion_lat": 0.0, "name": "2f19f6c433f51bd74af3d0df1a7b8e52"}, {"fusion_lon": 0.0, "rental_uris": {"ios": "https://dc.lft.to/lastmile_qr_scan", "android": "https://dc.lft.to/lastmile_qr_scan"}, "type": "electric_scooter", "is_reserved": 0, "is_disabled": 0, "bike_id": "a43756e172d959bfb14410de5f61940c", "lat": 38.90877583333334, "lon": -77.02333666666667, "fusion_lat": 0.0, "name": "a43756e172d959bfb14410de5f61940c"}, {"fusion_lon": 0.0, "rental_uris": {"ios": "https://dc.lft.to/lastmile_qr_scan", "android": "https://dc.lft.to/lastmile_qr_scan"}, "type": "electric_scooter", "is_reserved": 0, "is_disabled": 0, "bike_id": "96c0db8058f67fed1e8194ed16c2df90", "lat": 38.923410833333335, "lon": -77.00918233333333, "fusion_lat": 0.0, "name": "96c0db8058f67fed1e8194ed16c2df90"}, {"fusion_lon": 0.0, "rental_uris": {"ios": "https://dc.lft.to/lastmile_qr_scan", "android": "https://dc.lft.to/lastmile_qr_scan"}, "type": "electric_scooter", "is_reserved": 0, "is_disabled": 0, "bike_id": "59c7f55ba9ff9431573c105f72a39f59", "lat": 38.920722, "lon": -77.02317233333333, "fusion_lat": 0.0, "name": "59c7f55ba9ff9431573c105f72a39f59"}, {"fusion_lon": 0.0, "rental_uris": {"ios": "https://dc.lft.to/lastmile_qr_scan", "android": "https://dc.lft.to/lastmile_qr_scan"}, "type": "electric_scooter", "is_reserved": 0, "is_disabled": 0, "bike_id": "0670444ef04b8b6367fdee38fc23691a", "lat": 38.89217166666667, "lon": -77.02764466666666, "fusion_lat": 0.0, "name": "0670444ef04b8b6367fdee38fc23691a"}, {"fusion_lon": 0.0, "rental_uris": {"ios": "https://dc.lft.to/lastmile_qr_scan", "android": "https://dc.lft.to/lastmile_qr_scan"}, "type": "electric_scooter", "is_reserved": 0, "is_disabled": 0, "bike_id": "b5a9f4accfd1343a0991841c3c9a696d", "lat": 38.91576533333333, "lon": -77.0366005, "fusion_lat": 0.0, "name": "b5a9f4accfd1343a0991841c3c9a696d"}, {"fusion_lon": 0.0, "rental_uris": {"ios": "https://dc.lft.to/lastmile_qr_scan", "android": "https://dc.lft.to/lastmile_qr_scan"}, "type": "electric_scooter", "is_reserved": 0, "is_disabled": 0, "bike_id": "32ab7bbd909d6b33fb8198a468c61102", "lat": 38.8922305, "lon": -77.0316305, "fusion_lat": 0.0, "name": "32ab7bbd909d6b33fb8198a468c61102"}, {"fusion_lon": 0.0, "rental_uris": {"ios": "https://dc.lft.to/lastmile_qr_scan", "android": "https://dc.lft.to/lastmile_qr_scan"}, "type": "electric_scooter", "is_reserved": 0, "is_disabled": 0, "bike_id": "0d28dc1ac4e79b4884a95bbc479aa14f", "lat": 38.92018616666667, "lon": -77.0636265, "fusion_lat": 0.0, "name": "0d28dc1ac4e79b4884a95bbc479aa14f"}, {"fusion_lon": 0.0, "rental_uris": {"ios": "https://dc.lft.to/lastmile_qr_scan", "android": "https://dc.lft.to/lastmile_qr_scan"}, "type": "electric_scooter", "is_reserved": 0, "is_disabled": 0, "bike_id": "3e5d85ad4b0e4dcd5ee7458a6a991fca", "lat": 38.899915166666666, "lon": -77.0273695, "fusion_lat": 0.0, "name": "3e5d85ad4b0e4dcd5ee7458a6a991fca"}, {"fusion_lon": 0.0, "rental_uris": {"ios": "https://dc.lft.to/lastmile_qr_scan", "android": "https://dc.lft.to/lastmile_qr_scan"}, "type": "electric_scooter", "is_reserved": 0, "is_disabled": 0, "bike_id": "f73017e4d1783818f4551593f0629398", "lat": 38.914175166666666, "lon": -77.02589333333333, "fusion_lat": 0.0, "name": "f73017e4d1783818f4551593f0629398"}, {"fusion_lon": 0.0, "rental_uris": {"ios": "https://dc.lft.to/lastmile_qr_scan", "android": "https://dc.lft.to/lastmile_qr_scan"}, "type": "electric_scooter", "is_reserved": 0, "is_disabled": 0, "bike_id": "1cb6c698b8c6933da762ed2d9355df17", "lat": 38.937755333333335, "lon": -77.059613, "fusion_lat": 0.0, "name": "1cb6c698b8c6933da762ed2d9355df17"}, {"fusion_lon": 0.0, "rental_uris": {"ios": "https://dc.lft.to/lastmile_qr_scan", "android": "https://dc.lft.to/lastmile_qr_scan"}, "type": "electric_scooter", "is_reserved": 0, "is_disabled": 0, "bike_id": "b9cfc8281f569d89fe9acd64db5ca4e2", "lat": 38.87720133333333, "lon": -77.00609266666666, "fusion_lat": 0.0, "name": "b9cfc8281f569d89fe9acd64db5ca4e2"}, {"fusion_lon": 0.0, "rental_uris": {"ios": "https://dc.lft.to/lastmile_qr_scan", "android": "https://dc.lft.to/lastmile_qr_scan"}, "type": "electric_scooter", "is_reserved": 0, "is_disabled": 0, "bike_id": "dff2bc0f373d04396faf769e0ba9c4a9", "lat": 38.88477283333334, "lon": -77.02492833333334, "fusion_lat": 0.0, "name": "dff2bc0f373d04396faf769e0ba9c4a9"}, {"fusion_lon": 0.0, "rental_uris": {"ios": "https://dc.lft.to/lastmile_qr_scan", "android": "https://dc.lft.to/lastmile_qr_scan"}, "type": "electric_scooter", "is_reserved": 0, "is_disabled": 0, "bike_id": "a7ca6eec95e7bcce582d2e4baca96a06", "lat": 38.92044166666667, "lon": -77.01731466666666, "fusion_lat": 0.0, "name": "a7ca6eec95e7bcce582d2e4baca96a06"}, {"fusion_lon": 0.0, "rental_uris": {"ios": "https://dc.lft.to/lastmile_qr_scan", "android": "https://dc.lft.to/lastmile_qr_scan"}, "type": "electric_scooter", "is_reserved": 0, "is_disabled": 0, "bike_id": "0dfaed9ca1d62077efa9bc5f5a1a4bbf", "lat": 38.91706683333334, "lon": -77.03497966666667, "fusion_lat": 0.0, "name": "0dfaed9ca1d62077efa9bc5f5a1a4bbf"}, {"fusion_lon": 0.0, "rental_uris": {"ios": "https://dc.lft.to/lastmile_qr_scan", "android": "https://dc.lft.to/lastmile_qr_scan"}, "type": "electric_scooter", "is_reserved": 0, "is_disabled": 0, "bike_id": "3b2af181c8303d2594a642ef5552ff21", "lat": 38.94199733333333, "lon": -77.02347466666667, "fusion_lat": 0.0, "name": "3b2af181c8303d2594a642ef5552ff21"}, {"fusion_lon": 0.0, "rental_uris": {"ios": "https://dc.lft.to/lastmile_qr_scan", "android": "https://dc.lft.to/lastmile_qr_scan"}, "type": "electric_scooter", "is_reserved": 0, "is_disabled": 0, "bike_id": "ca282a15d7a301cbe8976966b0082921", "lat": 38.929788, "lon": -77.0318485, "fusion_lat": 0.0, "name": "ca282a15d7a301cbe8976966b0082921"}, {"fusion_lon": 0.0, "rental_uris": {"ios": "https://dc.lft.to/lastmile_qr_scan", "android": "https://dc.lft.to/lastmile_qr_scan"}, "type": "electric_scooter", "is_reserved": 0, "is_disabled": 0, "bike_id": "c3a8b233d6ebed490fd674ee31072ec1", "lat": 38.898519666666665, "lon": -77.04020166666666, "fusion_lat": 0.0, "name": "c3a8b233d6ebed490fd674ee31072ec1"}, {"fusion_lon": 0.0, "rental_uris": {"ios": "https://dc.lft.to/lastmile_qr_scan", "android": "https://dc.lft.to/lastmile_qr_scan"}, "type": "electric_scooter", "is_reserved": 0, "is_disabled": 0, "bike_id": "0e2a1715a7c156b3f7c85f5ab19cdedc", "lat": 38.90602366666667, "lon": -77.06375316666667, "fusion_lat": 0.0, "name": "0e2a1715a7c156b3f7c85f5ab19cdedc"}, {"fusion_lon": 0.0, "rental_uris": {"ios": "https://dc.lft.to/lastmile_qr_scan", "android": "https://dc.lft.to/lastmile_qr_scan"}, "type": "electric_scooter", "is_reserved": 0, "is_disabled": 0, "bike_id": "8fdd256a2980f97adf15cb74517dc6cc", "lat": 38.962748166666664, "lon": -77.03025716666667, "fusion_lat": 0.0, "name": "8fdd256a2980f97adf15cb74517dc6cc"}, {"fusion_lon": 0.0, "rental_uris": {"ios": "https://dc.lft.to/lastmile_qr_scan", "android": "https://dc.lft.to/lastmile_qr_scan"}, "type": "electric_scooter", "is_reserved": 0, "is_disabled": 0, "bike_id": "7317cde4bdedc5addaab57ba758fd2a2", "lat": 38.920442, "lon": -77.038916, "fusion_lat": 0.0, "name": "7317cde4bdedc5addaab57ba758fd2a2"}, {"fusion_lon": 0.0, "rental_uris": {"ios": "https://dc.lft.to/lastmile_qr_scan", "android": "https://dc.lft.to/lastmile_qr_scan"}, "type": "electric_scooter", "is_reserved": 0, "is_disabled": 0, "bike_id": "3282ab16be80130261750b5ef3f131a4", "lat": 38.93953366666667, "lon": -77.07258683333333, "fusion_lat": 0.0, "name": "3282ab16be80130261750b5ef3f131a4"}, {"fusion_lon": 0.0, "rental_uris": {"ios": "https://dc.lft.to/lastmile_qr_scan", "android": "https://dc.lft.to/lastmile_qr_scan"}, "type": "electric_scooter", "is_reserved": 0, "is_disabled": 0, "bike_id": "888f42273b759c59133f2a40fc7b17ad", "lat": 38.9275635, "lon": -77.02108533333333, "fusion_lat": 0.0, "name": "888f42273b759c59133f2a40fc7b17ad"}, {"fusion_lon": 0.0, "rental_uris": {"ios": "https://dc.lft.to/lastmile_qr_scan", "android": "https://dc.lft.to/lastmile_qr_scan"}, "type": "electric_scooter", "is_reserved": 0, "is_disabled": 0, "bike_id": "3730c536ea592cd91a6dcd27ba0d5fa8", "lat": 38.8955665, "lon": -77.009153, "fusion_lat": 0.0, "name": "3730c536ea592cd91a6dcd27ba0d5fa8"}, {"fusion_lon": 0.0, "rental_uris": {"ios": "https://dc.lft.to/lastmile_qr_scan", "android": "https://dc.lft.to/lastmile_qr_scan"}, "type": "electric_bike", "is_reserved": 0, "is_disabled": 0, "bike_id": "5c199e2838d83c90a2acf13f59cc70d6", "lat": 38.94569833333333, "lon": -76.981127, "fusion_lat": 0.0, "name": "5c199e2838d83c90a2acf13f59cc70d6"}, {"fusion_lon": 0.0, "rental_uris": {"ios": "https://dc.lft.to/lastmile_qr_scan", "android": "https://dc.lft.to/lastmile_qr_scan"}, "type": "electric_bike", "is_reserved": 0, "is_disabled": 0, "bike_id": "28be7a2591344ec0178eb59f33b84e7c", "lat": 38.9003405, "lon": -76.9722535, "fusion_lat": 0.0, "name": "28be7a2591344ec0178eb59f33b84e7c"}, {"fusion_lon": 0.0, "rental_uris": {"ios": "https://dc.lft.to/lastmile_qr_scan", "android": "https://dc.lft.to/lastmile_qr_scan"}, "type": "electric_scooter", "is_reserved": 0, "is_disabled": 0, "bike_id": "1e1d0b299547766c221f67632db7de9b", "lat": 38.94494866666667, "lon": -77.02848033333333, "fusion_lat": 0.0, "name": "1e1d0b299547766c221f67632db7de9b"}, {"fusion_lon": 0.0, "rental_uris": {"ios": "https://dc.lft.to/lastmile_qr_scan", "android": "https://dc.lft.to/lastmile_qr_scan"}, "type": "electric_scooter", "is_reserved": 0, "is_disabled": 0, "bike_id": "a5c564d61cf125d8833f2f57378987c2", "lat": 38.92071283333333, "lon": -77.04377833333334, "fusion_lat": 0.0, "name": "a5c564d61cf125d8833f2f57378987c2"}, {"fusion_lon": 0.0, "rental_uris": {"ios": "https://dc.lft.to/lastmile_qr_scan", "android": "https://dc.lft.to/lastmile_qr_scan"}, "type": "electric_scooter", "is_reserved": 0, "is_disabled": 0, "bike_id": "e5ddb08eef8a9518be9d81a7ae7c7e2a", "lat": 38.912749166666664, "lon": -77.0229835, "fusion_lat": 0.0, "name": "e5ddb08eef8a9518be9d81a7ae7c7e2a"}, {"fusion_lon": 0.0, "rental_uris": {"ios": "https://dc.lft.to/lastmile_qr_scan", "android": "https://dc.lft.to/lastmile_qr_scan"}, "type": "electric_scooter", "is_reserved": 0, "is_disabled": 0, "bike_id": "501763cf4e2452d31d18c80a78f111d0", "lat": 38.892210166666665, "lon": -77.03161333333334, "fusion_lat": 0.0, "name": "501763cf4e2452d31d18c80a78f111d0"}, {"fusion_lon": 0.0, "rental_uris": {"ios": "https://dc.lft.to/lastmile_qr_scan", "android": "https://dc.lft.to/lastmile_qr_scan"}, "type": "electric_scooter", "is_reserved": 0, "is_disabled": 0, "bike_id": "a6e3291786ab1eb9c9f636a6334a8308", "lat": 38.942807, "lon": -77.029335, "fusion_lat": 0.0, "name": "a6e3291786ab1eb9c9f636a6334a8308"}, {"fusion_lon": 0.0, "rental_uris": {"ios": "https://dc.lft.to/lastmile_qr_scan", "android": "https://dc.lft.to/lastmile_qr_scan"}, "type": "electric_scooter", "is_reserved": 0, "is_disabled": 0, "bike_id": "c526607e5c2028f8699a5d2f64174024", "lat": 38.884932666666664, "lon": -77.007311, "fusion_lat": 0.0, "name": "c526607e5c2028f8699a5d2f64174024"}, {"fusion_lon": 0.0, "rental_uris": {"ios": "https://dc.lft.to/lastmile_qr_scan", "android": "https://dc.lft.to/lastmile_qr_scan"}, "type": "electric_scooter", "is_reserved": 0, "is_disabled": 0, "bike_id": "a3e4662351b348461a6a49b65c1dc565", "lat": 38.867524, "lon": -77.00146616666666, "fusion_lat": 0.0, "name": "a3e4662351b348461a6a49b65c1dc565"}, {"fusion_lon": 0.0, "rental_uris": {"ios": "https://dc.lft.to/lastmile_qr_scan", "android": "https://dc.lft.to/lastmile_qr_scan"}, "type": "electric_scooter", "is_reserved": 0, "is_disabled": 0, "bike_id": "b265e2ca70e5a13624f76aba8cdc96ef", "lat": 38.90142266666667, "lon": -77.03804283333334, "fusion_lat": 0.0, "name": "b265e2ca70e5a13624f76aba8cdc96ef"}, {"fusion_lon": 0.0, "rental_uris": {"ios": "https://dc.lft.to/lastmile_qr_scan", "android": "https://dc.lft.to/lastmile_qr_scan"}, "type": "electric_scooter", "is_reserved": 0, "is_disabled": 0, "bike_id": "603648b19a38aa10bf9b9a7aef3c2a4a", "lat": 38.9173065, "lon": -77.068336, "fusion_lat": 0.0, "name": "603648b19a38aa10bf9b9a7aef3c2a4a"}, {"fusion_lon": 0.0, "rental_uris": {"ios": "https://dc.lft.to/lastmile_qr_scan", "android": "https://dc.lft.to/lastmile_qr_scan"}, "type": "electric_scooter", "is_reserved": 0, "is_disabled": 0, "bike_id": "164afcf5cc6078be2c5cbd73eb8d57ca", "lat": 38.90144516666667, "lon": -77.04455583333333, "fusion_lat": 0.0, "name": "164afcf5cc6078be2c5cbd73eb8d57ca"}, {"fusion_lon": 0.0, "rental_uris": {"ios": "https://dc.lft.to/lastmile_qr_scan", "android": "https://dc.lft.to/lastmile_qr_scan"}, "type": "electric_scooter", "is_reserved": 0, "is_disabled": 0, "bike_id": "206d3b2aa3dcc0d48451314087789997", "lat": 38.93069966666667, "lon": -77.03201633333333, "fusion_lat": 0.0, "name": "206d3b2aa3dcc0d48451314087789997"}, {"fusion_lon": 0.0, "rental_uris": {"ios": "https://dc.lft.to/lastmile_qr_scan", "android": "https://dc.lft.to/lastmile_qr_scan"}, "type": "electric_bike", "is_reserved": 0, "is_disabled": 0, "bike_id": "f0f990150db6f55ecf69836d7073de8e", "lat": 39.085106833333334, "lon": -76.95061166666666, "fusion_lat": 0.0, "name": "f0f990150db6f55ecf69836d7073de8e"}, {"fusion_lon": 0.0, "rental_uris": {"ios": "https://dc.lft.to/lastmile_qr_scan", "android": "https://dc.lft.to/lastmile_qr_scan"}, "type": "electric_scooter", "is_reserved": 0, "is_disabled": 0, "bike_id": "07d3a32971703d9ed793f37329860298", "lat": 38.883959, "lon": -76.99506183333334, "fusion_lat": 0.0, "name": "07d3a32971703d9ed793f37329860298"}, {"fusion_lon": 0.0, "rental_uris": {"ios": "https://dc.lft.to/lastmile_qr_scan", "android": "https://dc.lft.to/lastmile_qr_scan"}, "type": "electric_scooter", "is_reserved": 0, "is_disabled": 0, "bike_id": "29949f9d73a62b660916e7bcd9e90499", "lat": 38.921471333333336, "lon": -77.01801216666667, "fusion_lat": 0.0, "name": "29949f9d73a62b660916e7bcd9e90499"}, {"fusion_lon": 0.0, "rental_uris": {"ios": "https://dc.lft.to/lastmile_qr_scan", "android": "https://dc.lft.to/lastmile_qr_scan"}, "type": "electric_scooter", "is_reserved": 0, "is_disabled": 0, "bike_id": "270d02af536bbaddad7713f309d73473", "lat": 38.89491183333333, "lon": -77.02013016666666, "fusion_lat": 0.0, "name": "270d02af536bbaddad7713f309d73473"}, {"fusion_lon": 0.0, "rental_uris": {"ios": "https://dc.lft.to/lastmile_qr_scan", "android": "https://dc.lft.to/lastmile_qr_scan"}, "type": "electric_scooter", "is_reserved": 0, "is_disabled": 0, "bike_id": "cabb890cc425383e2305e07c222b72f0", "lat": 38.908324, "lon": -76.99695783333334, "fusion_lat": 0.0, "name": "cabb890cc425383e2305e07c222b72f0"}, {"fusion_lon": 0.0, "rental_uris": {"ios": "https://dc.lft.to/lastmile_qr_scan", "android": "https://dc.lft.to/lastmile_qr_scan"}, "type": "electric_scooter", "is_reserved": 0, "is_disabled": 0, "bike_id": "21415a649a5f9ad92c7feebc7140b93d", "lat": 38.984624333333336, "lon": -77.02682733333333, "fusion_lat": 0.0, "name": "21415a649a5f9ad92c7feebc7140b93d"}, {"fusion_lon": 0.0, "rental_uris": {"ios": "https://dc.lft.to/lastmile_qr_scan", "android": "https://dc.lft.to/lastmile_qr_scan"}, "type": "electric_scooter", "is_reserved": 0, "is_disabled": 0, "bike_id": "a5cbd851af3c619da35e54ce4693a0aa", "lat": 38.90154, "lon": -77.0445985, "fusion_lat": 0.0, "name": "a5cbd851af3c619da35e54ce4693a0aa"}, {"fusion_lon": 0.0, "rental_uris": {"ios": "https://dc.lft.to/lastmile_qr_scan", "android": "https://dc.lft.to/lastmile_qr_scan"}, "type": "electric_scooter", "is_reserved": 0, "is_disabled": 0, "bike_id": "e879213c6dc1515895c2690cdc1f28a8", "lat": 38.8919135, "lon": -77.01540266666666, "fusion_lat": 0.0, "name": "e879213c6dc1515895c2690cdc1f28a8"}, {"fusion_lon": 0.0, "rental_uris": {"ios": "https://dc.lft.to/lastmile_qr_scan", "android": "https://dc.lft.to/lastmile_qr_scan"}, "type": "electric_scooter", "is_reserved": 0, "is_disabled": 0, "bike_id": "c11f760965ef3dbb2c7b7aee3e2506d1", "lat": 38.89912833333333, "lon": -77.03930283333334, "fusion_lat": 0.0, "name": "c11f760965ef3dbb2c7b7aee3e2506d1"}, {"fusion_lon": 0.0, "rental_uris": {"ios": "https://dc.lft.to/lastmile_qr_scan", "android": "https://dc.lft.to/lastmile_qr_scan"}, "type": "electric_scooter", "is_reserved": 0, "is_disabled": 0, "bike_id": "8818cd4ce6d311d92b17b6d492916efb", "lat": 38.924656, "lon": -77.052379, "fusion_lat": 0.0, "name": "8818cd4ce6d311d92b17b6d492916efb"}, {"fusion_lon": 0.0, "rental_uris": {"ios": "https://dc.lft.to/lastmile_qr_scan", "android": "https://dc.lft.to/lastmile_qr_scan"}, "type": "electric_scooter", "is_reserved": 0, "is_disabled": 0, "bike_id": "10bb254f33f4a57dae09868daa7dc526", "lat": 38.91620266666666, "lon": -77.04157283333333, "fusion_lat": 0.0, "name": "10bb254f33f4a57dae09868daa7dc526"}, {"fusion_lon": 0.0, "rental_uris": {"ios": "https://dc.lft.to/lastmile_qr_scan", "android": "https://dc.lft.to/lastmile_qr_scan"}, "type": "electric_scooter", "is_reserved": 0, "is_disabled": 0, "bike_id": "13efdb139ba3340f032316524c21f49c", "lat": 38.885054, "lon": -77.00564816666666, "fusion_lat": 0.0, "name": "13efdb139ba3340f032316524c21f49c"}, {"fusion_lon": 0.0, "rental_uris": {"ios": "https://dc.lft.to/lastmile_qr_scan", "android": "https://dc.lft.to/lastmile_qr_scan"}, "type": "electric_scooter", "is_reserved": 0, "is_disabled": 0, "bike_id": "6a318d71030d62ec34e121d60d846f7d", "lat": 38.90638916666666, "lon": -77.00611616666667, "fusion_lat": 0.0, "name": "6a318d71030d62ec34e121d60d846f7d"}, {"fusion_lon": 0.0, "rental_uris": {"ios": "https://dc.lft.to/lastmile_qr_scan", "android": "https://dc.lft.to/lastmile_qr_scan"}, "type": "electric_scooter", "is_reserved": 0, "is_disabled": 0, "bike_id": "9043d04a723c4db8eedf9c2c56aabeec", "lat": 38.9173385, "lon": -77.036417, "fusion_lat": 0.0, "name": "9043d04a723c4db8eedf9c2c56aabeec"}, {"fusion_lon": 0.0, "rental_uris": {"ios": "https://dc.lft.to/lastmile_qr_scan", "android": "https://dc.lft.to/lastmile_qr_scan"}, "type": "electric_scooter", "is_reserved": 0, "is_disabled": 0, "bike_id": "569770ef9f7e744e72b158a3f3b26155", "lat": 38.901506833333336, "lon": -77.04185083333333, "fusion_lat": 0.0, "name": "569770ef9f7e744e72b158a3f3b26155"}, {"fusion_lon": 0.0, "rental_uris": {"ios": "https://dc.lft.to/lastmile_qr_scan", "android": "https://dc.lft.to/lastmile_qr_scan"}, "type": "electric_scooter", "is_reserved": 0, "is_disabled": 0, "bike_id": "50d3ce9ffa9b0e820e6bcdf83315509a", "lat": 38.88395833333333, "lon": -76.995054, "fusion_lat": 0.0, "name": "50d3ce9ffa9b0e820e6bcdf83315509a"}, {"fusion_lon": 0.0, "rental_uris": {"ios": "https://dc.lft.to/lastmile_qr_scan", "android": "https://dc.lft.to/lastmile_qr_scan"}, "type": "electric_scooter", "is_reserved": 0, "is_disabled": 0, "bike_id": "0a33d6e2f774b59d64b751a619a17e94", "lat": 38.887322166666664, "lon": -77.03181683333334, "fusion_lat": 0.0, "name": "0a33d6e2f774b59d64b751a619a17e94"}, {"fusion_lon": 0.0, "rental_uris": {"ios": "https://dc.lft.to/lastmile_qr_scan", "android": "https://dc.lft.to/lastmile_qr_scan"}, "type": "electric_scooter", "is_reserved": 0, "is_disabled": 0, "bike_id": "479bd403ac73f530a55f85d29ad50bda", "lat": 38.91660016666667, "lon": -77.02193716666666, "fusion_lat": 0.0, "name": "479bd403ac73f530a55f85d29ad50bda"}, {"fusion_lon": 0.0, "rental_uris": {"ios": "https://dc.lft.to/lastmile_qr_scan", "android": "https://dc.lft.to/lastmile_qr_scan"}, "type": "electric_scooter", "is_reserved": 0, "is_disabled": 0, "bike_id": "b784661683991c9f72b841e57db71b66", "lat": 38.9197925, "lon": -77.03802716666667, "fusion_lat": 0.0, "name": "b784661683991c9f72b841e57db71b66"}, {"fusion_lon": 0.0, "rental_uris": {"ios": "https://dc.lft.to/lastmile_qr_scan", "android": "https://dc.lft.to/lastmile_qr_scan"}, "type": "electric_scooter", "is_reserved": 0, "is_disabled": 0, "bike_id": "c5f910dc61d403c370615d255c65fb5e", "lat": 38.94981583333333, "lon": -77.02698283333334, "fusion_lat": 0.0, "name": "c5f910dc61d403c370615d255c65fb5e"}, {"fusion_lon": 0.0, "rental_uris": {"ios": "https://dc.lft.to/lastmile_qr_scan", "android": "https://dc.lft.to/lastmile_qr_scan"}, "type": "electric_scooter", "is_reserved": 0, "is_disabled": 0, "bike_id": "9082735a075f426d6b831e8818c19e02", "lat": 38.920375166666666, "lon": -77.02584783333333, "fusion_lat": 0.0, "name": "9082735a075f426d6b831e8818c19e02"}, {"fusion_lon": 0.0, "rental_uris": {"ios": "https://dc.lft.to/lastmile_qr_scan", "android": "https://dc.lft.to/lastmile_qr_scan"}, "type": "electric_scooter", "is_reserved": 0, "is_disabled": 0, "bike_id": "ed65c7fbfd4db54f498a613b5717b33a", "lat": 38.90644266666666, "lon": -77.051385, "fusion_lat": 0.0, "name": "ed65c7fbfd4db54f498a613b5717b33a"}, {"fusion_lon": 0.0, "rental_uris": {"ios": "https://dc.lft.to/lastmile_qr_scan", "android": "https://dc.lft.to/lastmile_qr_scan"}, "type": "electric_scooter", "is_reserved": 0, "is_disabled": 0, "bike_id": "dff99b460ed2b39ee42f3fbb4a74d077", "lat": 38.89931633333333, "lon": -77.03979566666666, "fusion_lat": 0.0, "name": "dff99b460ed2b39ee42f3fbb4a74d077"}, {"fusion_lon": 0.0, "rental_uris": {"ios": "https://dc.lft.to/lastmile_qr_scan", "android": "https://dc.lft.to/lastmile_qr_scan"}, "type": "electric_scooter", "is_reserved": 0, "is_disabled": 0, "bike_id": "fad4ca9683750b417d0be32e8a701b32", "lat": 38.92719616666667, "lon": -77.02077716666666, "fusion_lat": 0.0, "name": "fad4ca9683750b417d0be32e8a701b32"}, {"fusion_lon": 0.0, "rental_uris": {"ios": "https://dc.lft.to/lastmile_qr_scan", "android": "https://dc.lft.to/lastmile_qr_scan"}, "type": "electric_scooter", "is_reserved": 0, "is_disabled": 0, "bike_id": "720b7712096173ac526d14848edf882d", "lat": 38.86269433333333, "lon": -76.99568166666667, "fusion_lat": 0.0, "name": "720b7712096173ac526d14848edf882d"}, {"fusion_lon": 0.0, "rental_uris": {"ios": "https://dc.lft.to/lastmile_qr_scan", "android": "https://dc.lft.to/lastmile_qr_scan"}, "type": "electric_scooter", "is_reserved": 0, "is_disabled": 0, "bike_id": "6522e5f395896e581041745a12298edc", "lat": 38.90468966666667, "lon": -77.02139783333334, "fusion_lat": 0.0, "name": "6522e5f395896e581041745a12298edc"}, {"fusion_lon": 0.0, "rental_uris": {"ios": "https://dc.lft.to/lastmile_qr_scan", "android": "https://dc.lft.to/lastmile_qr_scan"}, "type": "electric_scooter", "is_reserved": 0, "is_disabled": 0, "bike_id": "b4cc146adacd17ba363e59044e022f0b", "lat": 38.902701, "lon": -77.060145, "fusion_lat": 0.0, "name": "b4cc146adacd17ba363e59044e022f0b"}, {"fusion_lon": 0.0, "rental_uris": {"ios": "https://dc.lft.to/lastmile_qr_scan", "android": "https://dc.lft.to/lastmile_qr_scan"}, "type": "electric_scooter", "is_reserved": 0, "is_disabled": 0, "bike_id": "6ac8dea30df445fa4d70f4fa42e4e782", "lat": 38.8872645, "lon": -76.9834095, "fusion_lat": 0.0, "name": "6ac8dea30df445fa4d70f4fa42e4e782"}, {"fusion_lon": 0.0, "rental_uris": {"ios": "https://dc.lft.to/lastmile_qr_scan", "android": "https://dc.lft.to/lastmile_qr_scan"}, "type": "electric_scooter", "is_reserved": 0, "is_disabled": 0, "bike_id": "b45f893aabdd574404c926d3e1bfd389", "lat": 38.8740405, "lon": -77.0007585, "fusion_lat": 0.0, "name": "b45f893aabdd574404c926d3e1bfd389"}, {"fusion_lon": 0.0, "rental_uris": {"ios": "https://dc.lft.to/lastmile_qr_scan", "android": "https://dc.lft.to/lastmile_qr_scan"}, "type": "electric_scooter", "is_reserved": 0, "is_disabled": 0, "bike_id": "f37c028519bafb466a94375b81466e46", "lat": 38.9038805, "lon": -77.04746316666666, "fusion_lat": 0.0, "name": "f37c028519bafb466a94375b81466e46"}, {"fusion_lon": 0.0, "rental_uris": {"ios": "https://dc.lft.to/lastmile_qr_scan", "android": "https://dc.lft.to/lastmile_qr_scan"}, "type": "electric_scooter", "is_reserved": 0, "is_disabled": 0, "bike_id": "233027433d8ceff03069e2b80f4a31d9", "lat": 38.89619316666667, "lon": -76.98567800000001, "fusion_lat": 0.0, "name": "233027433d8ceff03069e2b80f4a31d9"}, {"fusion_lon": 0.0, "rental_uris": {"ios": "https://dc.lft.to/lastmile_qr_scan", "android": "https://dc.lft.to/lastmile_qr_scan"}, "type": "electric_scooter", "is_reserved": 0, "is_disabled": 0, "bike_id": "8ae9f6ecc5f85088ce9ecfaa8602c8a0", "lat": 38.921529666666665, "lon": -77.03320233333334, "fusion_lat": 0.0, "name": "8ae9f6ecc5f85088ce9ecfaa8602c8a0"}, {"fusion_lon": 0.0, "rental_uris": {"ios": "https://dc.lft.to/lastmile_qr_scan", "android": "https://dc.lft.to/lastmile_qr_scan"}, "type": "electric_scooter", "is_reserved": 0, "is_disabled": 0, "bike_id": "887f4570490202996ef6c5c6bf89ecaa", "lat": 38.9261845, "lon": -77.0432555, "fusion_lat": 0.0, "name": "887f4570490202996ef6c5c6bf89ecaa"}, {"fusion_lon": 0.0, "rental_uris": {"ios": "https://dc.lft.to/lastmile_qr_scan", "android": "https://dc.lft.to/lastmile_qr_scan"}, "type": "electric_scooter", "is_reserved": 0, "is_disabled": 0, "bike_id": "7cdb3ede907e30b9d2e473f0301e0a62", "lat": 38.90393433333333, "lon": -77.0347825, "fusion_lat": 0.0, "name": "7cdb3ede907e30b9d2e473f0301e0a62"}, {"fusion_lon": 0.0, "rental_uris": {"ios": "https://dc.lft.to/lastmile_qr_scan", "android": "https://dc.lft.to/lastmile_qr_scan"}, "type": "electric_scooter", "is_reserved": 0, "is_disabled": 0, "bike_id": "70dba56bff4e1fbbc0af6a6a5960daf3", "lat": 38.887527666666664, "lon": -77.031486, "fusion_lat": 0.0, "name": "70dba56bff4e1fbbc0af6a6a5960daf3"}, {"fusion_lon": 0.0, "rental_uris": {"ios": "https://dc.lft.to/lastmile_qr_scan", "android": "https://dc.lft.to/lastmile_qr_scan"}, "type": "electric_scooter", "is_reserved": 0, "is_disabled": 0, "bike_id": "4ff7dabfaa62bc8481a3b15af0ac046b", "lat": 38.96803466666667, "lon": -77.02411116666667, "fusion_lat": 0.0, "name": "4ff7dabfaa62bc8481a3b15af0ac046b"}, {"fusion_lon": 0.0, "rental_uris": {"ios": "https://dc.lft.to/lastmile_qr_scan", "android": "https://dc.lft.to/lastmile_qr_scan"}, "type": "electric_scooter", "is_reserved": 0, "is_disabled": 0, "bike_id": "b0753b13fedc60323e6f2ec27ac7b4f2", "lat": 38.88574166666667, "lon": -77.0005355, "fusion_lat": 0.0, "name": "b0753b13fedc60323e6f2ec27ac7b4f2"}, {"fusion_lon": 0.0, "rental_uris": {"ios": "https://dc.lft.to/lastmile_qr_scan", "android": "https://dc.lft.to/lastmile_qr_scan"}, "type": "electric_scooter", "is_reserved": 0, "is_disabled": 0, "bike_id": "a80e0965137167a9f7a342b1a52e782f", "lat": 38.884547, "lon": -76.92959966666666, "fusion_lat": 0.0, "name": "a80e0965137167a9f7a342b1a52e782f"}, {"fusion_lon": 0.0, "rental_uris": {"ios": "https://dc.lft.to/lastmile_qr_scan", "android": "https://dc.lft.to/lastmile_qr_scan"}, "type": "electric_scooter", "is_reserved": 0, "is_disabled": 0, "bike_id": "ff063182aabf1d8b98336c0b554a1ccd", "lat": 38.949217833333336, "lon": -77.01861283333334, "fusion_lat": 0.0, "name": "ff063182aabf1d8b98336c0b554a1ccd"}, {"fusion_lon": 0.0, "rental_uris": {"ios": "https://dc.lft.to/lastmile_qr_scan", "android": "https://dc.lft.to/lastmile_qr_scan"}, "type": "electric_scooter", "is_reserved": 0, "is_disabled": 0, "bike_id": "b92056684eb1f9ae3067fe7c3723efdc", "lat": 38.89639666666667, "lon": -76.92958716666666, "fusion_lat": 0.0, "name": "b92056684eb1f9ae3067fe7c3723efdc"}, {"fusion_lon": 0.0, "rental_uris": {"ios": "https://dc.lft.to/lastmile_qr_scan", "android": "https://dc.lft.to/lastmile_qr_scan"}, "type": "electric_scooter", "is_reserved": 0, "is_disabled": 0, "bike_id": "9040857f53d2899ae61a4d0c20e4741c", "lat": 38.90343166666667, "lon": -76.98615533333333, "fusion_lat": 0.0, "name": "9040857f53d2899ae61a4d0c20e4741c"}, {"fusion_lon": 0.0, "rental_uris": {"ios": "https://dc.lft.to/lastmile_qr_scan", "android": "https://dc.lft.to/lastmile_qr_scan"}, "type": "electric_scooter", "is_reserved": 0, "is_disabled": 0, "bike_id": "1747b25f3b529a8e702a6766f8d51ba1", "lat": 38.89232166666667, "lon": -77.0499845, "fusion_lat": 0.0, "name": "1747b25f3b529a8e702a6766f8d51ba1"}, {"fusion_lon": 0.0, "rental_uris": {"ios": "https://dc.lft.to/lastmile_qr_scan", "android": "https://dc.lft.to/lastmile_qr_scan"}, "type": "electric_scooter", "is_reserved": 0, "is_disabled": 0, "bike_id": "30bcd7514389178403ea35e1c5587a4d", "lat": 38.88824866666667, "lon": -76.97716816666667, "fusion_lat": 0.0, "name": "30bcd7514389178403ea35e1c5587a4d"}, {"fusion_lon": 0.0, "rental_uris": {"ios": "https://dc.lft.to/lastmile_qr_scan", "android": "https://dc.lft.to/lastmile_qr_scan"}, "type": "electric_bike", "is_reserved": 0, "is_disabled": 0, "bike_id": "496cc4218c5ff66dea14d2daa8acbb62", "lat": 38.86576766666667, "lon": -77.129385, "fusion_lat": 0.0, "name": "496cc4218c5ff66dea14d2daa8acbb62"}, {"fusion_lon": 0.0, "rental_uris": {"ios": "https://dc.lft.to/lastmile_qr_scan", "android": "https://dc.lft.to/lastmile_qr_scan"}, "type": "electric_scooter", "is_reserved": 0, "is_disabled": 0, "bike_id": "b88532c116ed8d72bfd0db0ed95cf8f6", "lat": 38.89220183333333, "lon": -77.02159483333334, "fusion_lat": 0.0, "name": "b88532c116ed8d72bfd0db0ed95cf8f6"}, {"fusion_lon": 0.0, "rental_uris": {"ios": "https://dc.lft.to/lastmile_qr_scan", "android": "https://dc.lft.to/lastmile_qr_scan"}, "type": "electric_bike", "is_reserved": 0, "is_disabled": 0, "bike_id": "59b0c996feb753a148e95ea67a7547e5", "lat": 38.862630333333335, "lon": -76.98347583333333, "fusion_lat": 0.0, "name": "59b0c996feb753a148e95ea67a7547e5"}, {"fusion_lon": 0.0, "rental_uris": {"ios": "https://dc.lft.to/lastmile_qr_scan", "android": "https://dc.lft.to/lastmile_qr_scan"}, "type": "electric_scooter", "is_reserved": 0, "is_disabled": 0, "bike_id": "189fc8c874ede3d7d557a90e31d9cbb3", "lat": 38.898545166666665, "lon": -77.020078, "fusion_lat": 0.0, "name": "189fc8c874ede3d7d557a90e31d9cbb3"}, {"fusion_lon": 0.0, "rental_uris": {"ios": "https://dc.lft.to/lastmile_qr_scan", "android": "https://dc.lft.to/lastmile_qr_scan"}, "type": "electric_scooter", "is_reserved": 0, "is_disabled": 0, "bike_id": "af91e043213ce2d55685cf1ec5f0d133", "lat": 38.9198745, "lon": -77.037925, "fusion_lat": 0.0, "name": "af91e043213ce2d55685cf1ec5f0d133"}, {"fusion_lon": 0.0, "rental_uris": {"ios": "https://dc.lft.to/lastmile_qr_scan", "android": "https://dc.lft.to/lastmile_qr_scan"}, "type": "electric_scooter", "is_reserved": 0, "is_disabled": 0, "bike_id": "a6da1ba32c7fc05731a38f9020e55ee3", "lat": 38.92669883333333, "lon": -77.01497533333334, "fusion_lat": 0.0, "name": "a6da1ba32c7fc05731a38f9020e55ee3"}, {"fusion_lon": 0.0, "rental_uris": {"ios": "https://dc.lft.to/lastmile_qr_scan", "android": "https://dc.lft.to/lastmile_qr_scan"}, "type": "electric_scooter", "is_reserved": 0, "is_disabled": 0, "bike_id": "e0275357d06b5826914500c64ea130b3", "lat": 38.920963666666665, "lon": -77.02412966666667, "fusion_lat": 0.0, "name": "e0275357d06b5826914500c64ea130b3"}, {"fusion_lon": 0.0, "rental_uris": {"ios": "https://dc.lft.to/lastmile_qr_scan", "android": "https://dc.lft.to/lastmile_qr_scan"}, "type": "electric_scooter", "is_reserved": 0, "is_disabled": 0, "bike_id": "01ab1f48083418c2ab20d9cb973746d5", "lat": 38.91805466666667, "lon": -77.02430066666666, "fusion_lat": 0.0, "name": "01ab1f48083418c2ab20d9cb973746d5"}, {"fusion_lon": 0.0, "rental_uris": {"ios": "https://dc.lft.to/lastmile_qr_scan", "android": "https://dc.lft.to/lastmile_qr_scan"}, "type": "electric_scooter", "is_reserved": 0, "is_disabled": 0, "bike_id": "de2a4b121050fbe366ed22795e791196", "lat": 38.90336516666667, "lon": -77.02083816666666, "fusion_lat": 0.0, "name": "de2a4b121050fbe366ed22795e791196"}, {"fusion_lon": 0.0, "rental_uris": {"ios": "https://dc.lft.to/lastmile_qr_scan", "android": "https://dc.lft.to/lastmile_qr_scan"}, "type": "electric_scooter", "is_reserved": 0, "is_disabled": 0, "bike_id": "d370f7ad6847ec1a7c8cb2eaa49e3fa9", "lat": 38.89619916666667, "lon": -77.012268, "fusion_lat": 0.0, "name": "d370f7ad6847ec1a7c8cb2eaa49e3fa9"}, {"fusion_lon": 0.0, "rental_uris": {"ios": "https://dc.lft.to/lastmile_qr_scan", "android": "https://dc.lft.to/lastmile_qr_scan"}, "type": "electric_scooter", "is_reserved": 0, "is_disabled": 0, "bike_id": "11409a1457b1da524e049d640668abfb", "lat": 38.921668333333336, "lon": -77.0219505, "fusion_lat": 0.0, "name": "11409a1457b1da524e049d640668abfb"}, {"fusion_lon": 0.0, "rental_uris": {"ios": "https://dc.lft.to/lastmile_qr_scan", "android": "https://dc.lft.to/lastmile_qr_scan"}, "type": "electric_scooter", "is_reserved": 0, "is_disabled": 0, "bike_id": "92fd94a6c550b0887ff9f4f51d787da0", "lat": 38.899525, "lon": -77.05144183333333, "fusion_lat": 0.0, "name": "92fd94a6c550b0887ff9f4f51d787da0"}, {"fusion_lon": 0.0, "rental_uris": {"ios": "https://dc.lft.to/lastmile_qr_scan", "android": "https://dc.lft.to/lastmile_qr_scan"}, "type": "electric_scooter", "is_reserved": 0, "is_disabled": 0, "bike_id": "675a47258a6731d3fdae81fdb9602c15", "lat": 38.9260315, "lon": -77.02151433333333, "fusion_lat": 0.0, "name": "675a47258a6731d3fdae81fdb9602c15"}, {"fusion_lon": 0.0, "rental_uris": {"ios": "https://dc.lft.to/lastmile_qr_scan", "android": "https://dc.lft.to/lastmile_qr_scan"}, "type": "electric_scooter", "is_reserved": 0, "is_disabled": 0, "bike_id": "0ff18b3c4f57e25811b42fe39e7ded12", "lat": 38.91965716666667, "lon": -77.03959766666667, "fusion_lat": 0.0, "name": "0ff18b3c4f57e25811b42fe39e7ded12"}, {"fusion_lon": 0.0, "rental_uris": {"ios": "https://dc.lft.to/lastmile_qr_scan", "android": "https://dc.lft.to/lastmile_qr_scan"}, "type": "electric_scooter", "is_reserved": 0, "is_disabled": 0, "bike_id": "784e7e75471f05f7185b3817d5d8cf84", "lat": 38.89559716666667, "lon": -76.930594, "fusion_lat": 0.0, "name": "784e7e75471f05f7185b3817d5d8cf84"}, {"fusion_lon": 0.0, "rental_uris": {"ios": "https://dc.lft.to/lastmile_qr_scan", "android": "https://dc.lft.to/lastmile_qr_scan"}, "type": "electric_scooter", "is_reserved": 0, "is_disabled": 0, "bike_id": "d9b544e2af2499edc27c48539a45fe56", "lat": 38.885094333333335, "lon": -77.011158, "fusion_lat": 0.0, "name": "d9b544e2af2499edc27c48539a45fe56"}, {"fusion_lon": 0.0, "rental_uris": {"ios": "https://dc.lft.to/lastmile_qr_scan", "android": "https://dc.lft.to/lastmile_qr_scan"}, "type": "electric_scooter", "is_reserved": 0, "is_disabled": 0, "bike_id": "1c06632644e2c639d6ad5d2205591d37", "lat": 38.89949216666667, "lon": -77.04492966666666, "fusion_lat": 0.0, "name": "1c06632644e2c639d6ad5d2205591d37"}, {"fusion_lon": 0.0, "rental_uris": {"ios": "https://dc.lft.to/lastmile_qr_scan", "android": "https://dc.lft.to/lastmile_qr_scan"}, "type": "electric_scooter", "is_reserved": 0, "is_disabled": 0, "bike_id": "44b9192ad15f10851451a4cf6b0c5144", "lat": 38.9362235, "lon": -77.032767, "fusion_lat": 0.0, "name": "44b9192ad15f10851451a4cf6b0c5144"}, {"fusion_lon": 0.0, "rental_uris": {"ios": "https://dc.lft.to/lastmile_qr_scan", "android": "https://dc.lft.to/lastmile_qr_scan"}, "type": "electric_scooter", "is_reserved": 0, "is_disabled": 0, "bike_id": "d3f84876a74d3338741a985403e36945", "lat": 38.895995666666664, "lon": -77.006727, "fusion_lat": 0.0, "name": "d3f84876a74d3338741a985403e36945"}, {"fusion_lon": 0.0, "rental_uris": {"ios": "https://dc.lft.to/lastmile_qr_scan", "android": "https://dc.lft.to/lastmile_qr_scan"}, "type": "electric_scooter", "is_reserved": 0, "is_disabled": 0, "bike_id": "bde2bc5fc1f195df272f1e090cfb3eea", "lat": 38.89931766666667, "lon": -77.050004, "fusion_lat": 0.0, "name": "bde2bc5fc1f195df272f1e090cfb3eea"}, {"fusion_lon": 0.0, "rental_uris": {"ios": "https://dc.lft.to/lastmile_qr_scan", "android": "https://dc.lft.to/lastmile_qr_scan"}, "type": "electric_scooter", "is_reserved": 0, "is_disabled": 0, "bike_id": "6895389da466cb89e69a9e63c7a866e0", "lat": 38.9020885, "lon": -77.038015, "fusion_lat": 0.0, "name": "6895389da466cb89e69a9e63c7a866e0"}, {"fusion_lon": 0.0, "rental_uris": {"ios": "https://dc.lft.to/lastmile_qr_scan", "android": "https://dc.lft.to/lastmile_qr_scan"}, "type": "electric_scooter", "is_reserved": 0, "is_disabled": 0, "bike_id": "a1511b3a4ab54c02c16884828ac94abc", "lat": 38.9242095, "lon": -77.02278633333333, "fusion_lat": 0.0, "name": "a1511b3a4ab54c02c16884828ac94abc"}, {"fusion_lon": 0.0, "rental_uris": {"ios": "https://dc.lft.to/lastmile_qr_scan", "android": "https://dc.lft.to/lastmile_qr_scan"}, "type": "electric_scooter", "is_reserved": 0, "is_disabled": 0, "bike_id": "0f2d5690e90a630863ed0612e9040948", "lat": 38.92098333333333, "lon": -77.0251665, "fusion_lat": 0.0, "name": "0f2d5690e90a630863ed0612e9040948"}, {"fusion_lon": 0.0, "rental_uris": {"ios": "https://dc.lft.to/lastmile_qr_scan", "android": "https://dc.lft.to/lastmile_qr_scan"}, "type": "electric_scooter", "is_reserved": 0, "is_disabled": 0, "bike_id": "2651d3760c1ebadb714b1125b2cb74b8", "lat": 38.93581183333333, "lon": -77.021246, "fusion_lat": 0.0, "name": "2651d3760c1ebadb714b1125b2cb74b8"}, {"fusion_lon": 0.0, "rental_uris": {"ios": "https://dc.lft.to/lastmile_qr_scan", "android": "https://dc.lft.to/lastmile_qr_scan"}, "type": "electric_scooter", "is_reserved": 0, "is_disabled": 0, "bike_id": "0a68e140df518860795fcc02294732b2", "lat": 38.93061383333333, "lon": -77.039434, "fusion_lat": 0.0, "name": "0a68e140df518860795fcc02294732b2"}, {"fusion_lon": 0.0, "rental_uris": {"ios": "https://dc.lft.to/lastmile_qr_scan", "android": "https://dc.lft.to/lastmile_qr_scan"}, "type": "electric_scooter", "is_reserved": 0, "is_disabled": 0, "bike_id": "e0a6b109c4a1c24b6852fa83e9f31310", "lat": 38.892705666666664, "lon": -76.98373166666667, "fusion_lat": 0.0, "name": "e0a6b109c4a1c24b6852fa83e9f31310"}, {"fusion_lon": 0.0, "rental_uris": {"ios": "https://dc.lft.to/lastmile_qr_scan", "android": "https://dc.lft.to/lastmile_qr_scan"}, "type": "electric_scooter", "is_reserved": 0, "is_disabled": 0, "bike_id": "8698ead2d448645987b3929af50ac781", "lat": 38.916343499999996, "lon": -77.03499816666667, "fusion_lat": 0.0, "name": "8698ead2d448645987b3929af50ac781"}, {"fusion_lon": 0.0, "rental_uris": {"ios": "https://dc.lft.to/lastmile_qr_scan", "android": "https://dc.lft.to/lastmile_qr_scan"}, "type": "electric_scooter", "is_reserved": 0, "is_disabled": 0, "bike_id": "ecd046471492ebac84916f028fe3058b", "lat": 38.89750083333333, "lon": -77.03044516666667, "fusion_lat": 0.0, "name": "ecd046471492ebac84916f028fe3058b"}, {"fusion_lon": 0.0, "rental_uris": {"ios": "https://dc.lft.to/lastmile_qr_scan", "android": "https://dc.lft.to/lastmile_qr_scan"}, "type": "electric_scooter", "is_reserved": 0, "is_disabled": 0, "bike_id": "63fcaf403db4f61c2837c313d4660a2b", "lat": 38.92332233333333, "lon": -77.05394166666666, "fusion_lat": 0.0, "name": "63fcaf403db4f61c2837c313d4660a2b"}, {"fusion_lon": 0.0, "rental_uris": {"ios": "https://dc.lft.to/lastmile_qr_scan", "android": "https://dc.lft.to/lastmile_qr_scan"}, "type": "electric_scooter", "is_reserved": 0, "is_disabled": 0, "bike_id": "d113f0a67a9bd35b4a2a408726a0956e", "lat": 38.886135833333334, "lon": -77.00331416666667, "fusion_lat": 0.0, "name": "d113f0a67a9bd35b4a2a408726a0956e"}, {"fusion_lon": 0.0, "rental_uris": {"ios": "https://dc.lft.to/lastmile_qr_scan", "android": "https://dc.lft.to/lastmile_qr_scan"}, "type": "electric_scooter", "is_reserved": 0, "is_disabled": 0, "bike_id": "8b2b8fa3264c97a188997d100db66c32", "lat": 38.899803166666665, "lon": -77.0218665, "fusion_lat": 0.0, "name": "8b2b8fa3264c97a188997d100db66c32"}, {"fusion_lon": 0.0, "rental_uris": {"ios": "https://dc.lft.to/lastmile_qr_scan", "android": "https://dc.lft.to/lastmile_qr_scan"}, "type": "electric_scooter", "is_reserved": 0, "is_disabled": 0, "bike_id": "19825a34b259898a1ed99827dfbfed7d", "lat": 38.888683666666665, "lon": -77.039962, "fusion_lat": 0.0, "name": "19825a34b259898a1ed99827dfbfed7d"}, {"fusion_lon": 0.0, "rental_uris": {"ios": "https://dc.lft.to/lastmile_qr_scan", "android": "https://dc.lft.to/lastmile_qr_scan"}, "type": "electric_scooter", "is_reserved": 0, "is_disabled": 0, "bike_id": "ac3c83edd64e3e9644d5e641f4070a4b", "lat": 38.93942333333333, "lon": -77.032649, "fusion_lat": 0.0, "name": "ac3c83edd64e3e9644d5e641f4070a4b"}, {"fusion_lon": 0.0, "rental_uris": {"ios": "https://dc.lft.to/lastmile_qr_scan", "android": "https://dc.lft.to/lastmile_qr_scan"}, "type": "electric_scooter", "is_reserved": 0, "is_disabled": 0, "bike_id": "c87b65a8101da1aecd9da419b24af189", "lat": 38.9267225, "lon": -77.04061183333333, "fusion_lat": 0.0, "name": "c87b65a8101da1aecd9da419b24af189"}, {"fusion_lon": 0.0, "rental_uris": {"ios": "https://dc.lft.to/lastmile_qr_scan", "android": "https://dc.lft.to/lastmile_qr_scan"}, "type": "electric_scooter", "is_reserved": 0, "is_disabled": 0, "bike_id": "acd999f9fdbc3b82953c91f74e53c6fe", "lat": 38.89545866666667, "lon": -76.98338, "fusion_lat": 0.0, "name": "acd999f9fdbc3b82953c91f74e53c6fe"}, {"fusion_lon": 0.0, "rental_uris": {"ios": "https://dc.lft.to/lastmile_qr_scan", "android": "https://dc.lft.to/lastmile_qr_scan"}, "type": "electric_scooter", "is_reserved": 0, "is_disabled": 0, "bike_id": "616f539caeaf0fef6b768ff36153f351", "lat": 38.8920105, "lon": -77.002907, "fusion_lat": 0.0, "name": "616f539caeaf0fef6b768ff36153f351"}, {"fusion_lon": 0.0, "rental_uris": {"ios": "https://dc.lft.to/lastmile_qr_scan", "android": "https://dc.lft.to/lastmile_qr_scan"}, "type": "electric_scooter", "is_reserved": 0, "is_disabled": 0, "bike_id": "5946e19e9a1d1a6ce6d7c9e6ff3a0e7d", "lat": 38.902694, "lon": -77.03826, "fusion_lat": 0.0, "name": "5946e19e9a1d1a6ce6d7c9e6ff3a0e7d"}, {"fusion_lon": 0.0, "rental_uris": {"ios": "https://dc.lft.to/lastmile_qr_scan", "android": "https://dc.lft.to/lastmile_qr_scan"}, "type": "electric_scooter", "is_reserved": 0, "is_disabled": 0, "bike_id": "d713f466ba948d0ca3caa5c03fabf535", "lat": 38.898502, "lon": -77.00449483333334, "fusion_lat": 0.0, "name": "d713f466ba948d0ca3caa5c03fabf535"}, {"fusion_lon": 0.0, "rental_uris": {"ios": "https://dc.lft.to/lastmile_qr_scan", "android": "https://dc.lft.to/lastmile_qr_scan"}, "type": "electric_scooter", "is_reserved": 0, "is_disabled": 0, "bike_id": "ac78fe38043f3c5c0268a8d64f747b1a", "lat": 38.924414166666665, "lon": -77.02032716666666, "fusion_lat": 0.0, "name": "ac78fe38043f3c5c0268a8d64f747b1a"}, {"fusion_lon": 0.0, "rental_uris": {"ios": "https://dc.lft.to/lastmile_qr_scan", "android": "https://dc.lft.to/lastmile_qr_scan"}, "type": "electric_bike", "is_reserved": 0, "is_disabled": 0, "bike_id": "dcbd08a34a7ab05ef0078aec6edb38f5", "lat": 39.00191216666666, "lon": -76.90182633333333, "fusion_lat": 0.0, "name": "dcbd08a34a7ab05ef0078aec6edb38f5"}, {"fusion_lon": 0.0, "rental_uris": {"ios": "https://dc.lft.to/lastmile_qr_scan", "android": "https://dc.lft.to/lastmile_qr_scan"}, "type": "electric_scooter", "is_reserved": 0, "is_disabled": 0, "bike_id": "332dc1bc1c7dedb37092cab96496f072", "lat": 38.913464166666664, "lon": -77.00925666666667, "fusion_lat": 0.0, "name": "332dc1bc1c7dedb37092cab96496f072"}, {"fusion_lon": 0.0, "rental_uris": {"ios": "https://dc.lft.to/lastmile_qr_scan", "android": "https://dc.lft.to/lastmile_qr_scan"}, "type": "electric_scooter", "is_reserved": 0, "is_disabled": 0, "bike_id": "3c3e935d345bb4af830a37f7df065499", "lat": 38.89853216666667, "lon": -76.99028416666667, "fusion_lat": 0.0, "name": "3c3e935d345bb4af830a37f7df065499"}, {"fusion_lon": 0.0, "rental_uris": {"ios": "https://dc.lft.to/lastmile_qr_scan", "android": "https://dc.lft.to/lastmile_qr_scan"}, "type": "electric_scooter", "is_reserved": 0, "is_disabled": 0, "bike_id": "6fb1730ef442a327121232af397986f0", "lat": 38.92263366666667, "lon": -77.00350016666667, "fusion_lat": 0.0, "name": "6fb1730ef442a327121232af397986f0"}, {"fusion_lon": 0.0, "rental_uris": {"ios": "https://dc.lft.to/lastmile_qr_scan", "android": "https://dc.lft.to/lastmile_qr_scan"}, "type": "electric_scooter", "is_reserved": 0, "is_disabled": 0, "bike_id": "7d5ab27ab65c8ce2b3d36f99bae34de2", "lat": 38.88960183333333, "lon": -76.93119966666667, "fusion_lat": 0.0, "name": "7d5ab27ab65c8ce2b3d36f99bae34de2"}, {"fusion_lon": 0.0, "rental_uris": {"ios": "https://dc.lft.to/lastmile_qr_scan", "android": "https://dc.lft.to/lastmile_qr_scan"}, "type": "electric_scooter", "is_reserved": 0, "is_disabled": 0, "bike_id": "976b0b99878b0d8b53b4425a4df2a383", "lat": 38.944434, "lon": -77.06405733333334, "fusion_lat": 0.0, "name": "976b0b99878b0d8b53b4425a4df2a383"}, {"fusion_lon": 0.0, "rental_uris": {"ios": "https://dc.lft.to/lastmile_qr_scan", "android": "https://dc.lft.to/lastmile_qr_scan"}, "type": "electric_scooter", "is_reserved": 0, "is_disabled": 0, "bike_id": "e99baa7a6f84b46c557c4cce7ba5c682", "lat": 38.893552, "lon": -77.003372, "fusion_lat": 0.0, "name": "e99baa7a6f84b46c557c4cce7ba5c682"}, {"fusion_lon": 0.0, "rental_uris": {"ios": "https://dc.lft.to/lastmile_qr_scan", "android": "https://dc.lft.to/lastmile_qr_scan"}, "type": "electric_scooter", "is_reserved": 0, "is_disabled": 0, "bike_id": "92244b531afa062f606fe844c40df36b", "lat": 38.916978, "lon": -77.02890466666666, "fusion_lat": 0.0, "name": "92244b531afa062f606fe844c40df36b"}, {"fusion_lon": 0.0, "rental_uris": {"ios": "https://dc.lft.to/lastmile_qr_scan", "android": "https://dc.lft.to/lastmile_qr_scan"}, "type": "electric_scooter", "is_reserved": 0, "is_disabled": 0, "bike_id": "d2877a9be59637933a1aee09c1c1c76c", "lat": 38.898012333333334, "lon": -77.0488315, "fusion_lat": 0.0, "name": "d2877a9be59637933a1aee09c1c1c76c"}, {"fusion_lon": 0.0, "rental_uris": {"ios": "https://dc.lft.to/lastmile_qr_scan", "android": "https://dc.lft.to/lastmile_qr_scan"}, "type": "electric_scooter", "is_reserved": 0, "is_disabled": 0, "bike_id": "52e15369ebe2d1f988e002c64fb99e9c", "lat": 38.92357366666667, "lon": -77.04312033333333, "fusion_lat": 0.0, "name": "52e15369ebe2d1f988e002c64fb99e9c"}, {"fusion_lon": 0.0, "rental_uris": {"ios": "https://dc.lft.to/lastmile_qr_scan", "android": "https://dc.lft.to/lastmile_qr_scan"}, "type": "electric_scooter", "is_reserved": 0, "is_disabled": 0, "bike_id": "a8d2123a85e45a5a26fd8476a9a1a775", "lat": 38.89407766666667, "lon": -77.022057, "fusion_lat": 0.0, "name": "a8d2123a85e45a5a26fd8476a9a1a775"}, {"fusion_lon": 0.0, "rental_uris": {"ios": "https://dc.lft.to/lastmile_qr_scan", "android": "https://dc.lft.to/lastmile_qr_scan"}, "type": "electric_scooter", "is_reserved": 0, "is_disabled": 0, "bike_id": "d14ba049ba4bc9ae32ead29171a12e9a", "lat": 38.910996, "lon": -77.03179483333334, "fusion_lat": 0.0, "name": "d14ba049ba4bc9ae32ead29171a12e9a"}, {"fusion_lon": 0.0, "rental_uris": {"ios": "https://dc.lft.to/lastmile_qr_scan", "android": "https://dc.lft.to/lastmile_qr_scan"}, "type": "electric_scooter", "is_reserved": 0, "is_disabled": 0, "bike_id": "1f710f844b5893a265339b57047f9aed", "lat": 38.89743933333333, "lon": -77.04156866666666, "fusion_lat": 0.0, "name": "1f710f844b5893a265339b57047f9aed"}, {"fusion_lon": 0.0, "rental_uris": {"ios": "https://dc.lft.to/lastmile_qr_scan", "android": "https://dc.lft.to/lastmile_qr_scan"}, "type": "electric_scooter", "is_reserved": 0, "is_disabled": 0, "bike_id": "59c263dce45d1419e61b9c2648b43c47", "lat": 38.92317633333333, "lon": -77.04339616666667, "fusion_lat": 0.0, "name": "59c263dce45d1419e61b9c2648b43c47"}, {"fusion_lon": 0.0, "rental_uris": {"ios": "https://dc.lft.to/lastmile_qr_scan", "android": "https://dc.lft.to/lastmile_qr_scan"}, "type": "electric_bike", "is_reserved": 0, "is_disabled": 0, "bike_id": "69378ef1ccfca694c6bf9abfbb965047", "lat": 38.8731965, "lon": -77.11411716666667, "fusion_lat": 0.0, "name": "69378ef1ccfca694c6bf9abfbb965047"}, {"fusion_lon": 0.0, "rental_uris": {"ios": "https://dc.lft.to/lastmile_qr_scan", "android": "https://dc.lft.to/lastmile_qr_scan"}, "type": "electric_scooter", "is_reserved": 0, "is_disabled": 0, "bike_id": "64f816ec704a74128c12a65221c6bcb8", "lat": 38.91387316666667, "lon": -77.04576133333333, "fusion_lat": 0.0, "name": "64f816ec704a74128c12a65221c6bcb8"}, {"fusion_lon": 0.0, "rental_uris": {"ios": "https://dc.lft.to/lastmile_qr_scan", "android": "https://dc.lft.to/lastmile_qr_scan"}, "type": "electric_scooter", "is_reserved": 0, "is_disabled": 0, "bike_id": "859c1560f0d9d43b198018f9fa3a9e07", "lat": 38.89217933333333, "lon": -77.0276475, "fusion_lat": 0.0, "name": "859c1560f0d9d43b198018f9fa3a9e07"}, {"fusion_lon": 0.0, "rental_uris": {"ios": "https://dc.lft.to/lastmile_qr_scan", "android": "https://dc.lft.to/lastmile_qr_scan"}, "type": "electric_scooter", "is_reserved": 0, "is_disabled": 0, "bike_id": "84b92518e1058b2881e5f5e715e823a9", "lat": 38.899073666666666, "lon": -77.03925183333334, "fusion_lat": 0.0, "name": "84b92518e1058b2881e5f5e715e823a9"}, {"fusion_lon": 0.0, "rental_uris": {"ios": "https://dc.lft.to/lastmile_qr_scan", "android": "https://dc.lft.to/lastmile_qr_scan"}, "type": "electric_scooter", "is_reserved": 0, "is_disabled": 0, "bike_id": "7d3ecb8652c19a3a17cb7346b01892e3", "lat": 38.91893566666667, "lon": -77.03832116666666, "fusion_lat": 0.0, "name": "7d3ecb8652c19a3a17cb7346b01892e3"}, {"fusion_lon": 0.0, "rental_uris": {"ios": "https://dc.lft.to/lastmile_qr_scan", "android": "https://dc.lft.to/lastmile_qr_scan"}, "type": "electric_bike", "is_reserved": 0, "is_disabled": 0, "bike_id": "49bad3d9660a18be2d3db9db6adbf3ec", "lat": 38.84917316666667, "lon": -77.07926616666667, "fusion_lat": 0.0, "name": "49bad3d9660a18be2d3db9db6adbf3ec"}, {"fusion_lon": 0.0, "rental_uris": {"ios": "https://dc.lft.to/lastmile_qr_scan", "android": "https://dc.lft.to/lastmile_qr_scan"}, "type": "electric_scooter", "is_reserved": 0, "is_disabled": 0, "bike_id": "fcad0ceefc9ed94c982c7ac322046352", "lat": 38.905787833333335, "lon": -77.0416035, "fusion_lat": 0.0, "name": "fcad0ceefc9ed94c982c7ac322046352"}, {"fusion_lon": 0.0, "rental_uris": {"ios": "https://dc.lft.to/lastmile_qr_scan", "android": "https://dc.lft.to/lastmile_qr_scan"}, "type": "electric_scooter", "is_reserved": 0, "is_disabled": 0, "bike_id": "3e39ebeb78b5df68aeaa36b7c870de71", "lat": 38.94352833333333, "lon": -77.029807, "fusion_lat": 0.0, "name": "3e39ebeb78b5df68aeaa36b7c870de71"}, {"fusion_lon": 0.0, "rental_uris": {"ios": "https://dc.lft.to/lastmile_qr_scan", "android": "https://dc.lft.to/lastmile_qr_scan"}, "type": "electric_scooter", "is_reserved": 0, "is_disabled": 0, "bike_id": "69ba19d22cbe95b5dbf985820b279b27", "lat": 38.913289, "lon": -77.0452935, "fusion_lat": 0.0, "name": "69ba19d22cbe95b5dbf985820b279b27"}, {"fusion_lon": 0.0, "rental_uris": {"ios": "https://dc.lft.to/lastmile_qr_scan", "android": "https://dc.lft.to/lastmile_qr_scan"}, "type": "electric_scooter", "is_reserved": 0, "is_disabled": 0, "bike_id": "439c8cf870473ad9463fe99a59f14324", "lat": 38.913282833333334, "lon": -77.013592, "fusion_lat": 0.0, "name": "439c8cf870473ad9463fe99a59f14324"}, {"fusion_lon": 0.0, "rental_uris": {"ios": "https://dc.lft.to/lastmile_qr_scan", "android": "https://dc.lft.to/lastmile_qr_scan"}, "type": "electric_scooter", "is_reserved": 0, "is_disabled": 0, "bike_id": "4ee16a7de8519ea7466d624622989b14", "lat": 38.91847533333333, "lon": -77.03880916666667, "fusion_lat": 0.0, "name": "4ee16a7de8519ea7466d624622989b14"}, {"fusion_lon": 0.0, "rental_uris": {"ios": "https://dc.lft.to/lastmile_qr_scan", "android": "https://dc.lft.to/lastmile_qr_scan"},