{"data": {"bikes": [{"lat": 38.918167, "is_disabled": 0, "type": "electric_scooter", "lon": -77.01377066666667, "bike_id": "35c1e47f8d046d15215eea01b527b99c", "fusion_lat": 0.0, "name": "35c1e47f8d046d15215eea01b527b99c", "is_reserved": 0, "rental_uris": {"android": "https://dc.lft.to/lastmile_qr_scan", "ios": "https://dc.lft.to/lastmile_qr_scan"}, "fusion_lon": 0.0}, {"lat": 38.94914883333333, "is_disabled": 0, "type": "electric_scooter", "lon": -77.008657, "bike_id": "1791c24f5ce9aae87a313712799836ba", "fusion_lat": 0.0, "name": "1791c24f5ce9aae87a313712799836ba", "is_reserved": 0, "rental_uris": {"android": "https://dc.lft.to/lastmile_qr_scan", "ios": "https://dc.lft.to/lastmile_qr_scan"}, "fusion_lon": 0.0}, {"lat": 38.85977783333333, "is_disabled": 0, "type": "electric_bike", "lon": -77.056719, "bike_id": "dd1b87e51245d824c97fe3771844c12e", "fusion_lat": 0.0, "name": "dd1b87e51245d824c97fe3771844c12e", "is_reserved": 0, "rental_uris": {"android": "https://dc.lft.to/lastmile_qr_scan", "ios": "https://dc.lft.to/lastmile_qr_scan"}, "fusion_lon": 0.0}, {"lat": 38.906216, "is_disabled": 0, "type": "electric_scooter", "lon": -77.03376666666666, "bike_id": "c3061b87344158d24e85d59100056104", "fusion_lat": 0.0, "name": "c3061b87344158d24e85d59100056104", "is_reserved": 0, "rental_uris": {"android": "https://dc.lft.to/lastmile_qr_scan", "ios": "https://dc.lft.to/lastmile_qr_scan"}, "fusion_lon": 0.0}, {"lat": 38.9112305, "is_disabled": 0, "type": "electric_scooter", "lon": -77.0382825, "bike_id": "f3fdb1ad2688d628f28fe6e750956aa3", "fusion_lat": 0.0, "name": "f3fdb1ad2688d628f28fe6e750956aa3", "is_reserved": 0, "rental_uris": {"android": "https://dc.lft.to/lastmile_qr_scan", "ios": "https://dc.lft.to/lastmile_qr_scan"}, "fusion_lon": 0.0}, {"lat": 38.952198, "is_disabled": 0, "type": "electric_scooter", "lon": -77.08600116666666, "bike_id": "3897492493963a1fbc66c918bc3f5839", "fusion_lat": 0.0, "name": "3897492493963a1fbc66c918bc3f5839", "is_reserved": 0, "rental_uris": {"android": "https://dc.lft.to/lastmile_qr_scan", "ios": "https://dc.lft.to/lastmile_qr_scan"}, "fusion_lon": 0.0}, {"lat": 38.9133135, "is_disabled": 0, "type": "electric_scooter", "lon": -77.03046433333333, "bike_id": "8eabc59cfb015fb008899d21684e037b", "fusion_lat": 0.0, "name": "8eabc59cfb015fb008899d21684e037b", "is_reserved": 0, "rental_uris": {"android": "https://dc.lft.to/lastmile_qr_scan", "ios": "https://dc.lft.to/lastmile_qr_scan"}, "fusion_lon": 0.0}, {"lat": 38.922759666666664, "is_disabled": 0, "type": "electric_scooter", "lon": -77.04240566666667, "bike_id": "99c56c6304e8c8f9c67e1f914cff88af", "fusion_lat": 0.0, "name": "99c56c6304e8c8f9c67e1f914cff88af", "is_reserved": 0, "rental_uris": {"android": "https://dc.lft.to/lastmile_qr_scan", "ios": "https://dc.lft.to/lastmile_qr_scan"}, "fusion_lon": 0.0}, {"lat": 38.918415333333336, "is_disabled": 0, "type": "electric_scooter", "lon": -77.035215, "bike_id": "cb506f7abb2f8d116bceee765e21ba97", "fusion_lat": 0.0, "name": "cb506f7abb2f8d116bceee765e21ba97", "is_reserved": 0, "rental_uris": {"android": "https://dc.lft.to/lastmile_qr_scan", "ios": "https://dc.lft.to/lastmile_qr_scan"}, "fusion_lon": 0.0}, {"lat": 38.890952166666665, "is_disabled": 0, "type": "electric_scooter", "lon": -76.9527235, "bike_id": "dfe9f528490499a919f68b8f92e54e67", "fusion_lat": 0.0, "name": "dfe9f528490499a919f68b8f92e54e67", "is_reserved": 0, "rental_uris": {"android": "https://dc.lft.to/lastmile_qr_scan", "ios": "https://dc.lft.to/lastmile_qr_scan"}, "fusion_lon": 0.0}, {"lat": 38.905035833333336, "is_disabled": 0, "type": "electric_scooter", "lon": -77.02949016666666, "bike_id": "0d0287290f91354c36fc6bb2f6cb2e9b", "fusion_lat": 0.0, "name": "0d0287290f91354c36fc6bb2f6cb2e9b", "is_reserved": 0, "rental_uris": {"android": "https://dc.lft.to/lastmile_qr_scan", "ios": "https://dc.lft.to/lastmile_qr_scan"}, "fusion_lon": 0.0}, {"lat": 38.9999775, "is_disabled": 0, "type": "electric_bike", "lon": -76.9249685, "bike_id": "ab8237f1ede171dd68079ca83add53e6", "fusion_lat": 0.0, "name": "ab8237f1ede171dd68079ca83add53e6", "is_reserved": 0, "rental_uris": {"android": "https://dc.lft.to/lastmile_qr_scan", "ios": "https://dc.lft.to/lastmile_qr_scan"}, "fusion_lon": 0.0}, {"lat": 38.9073965, "is_disabled": 0, "type": "electric_scooter", "lon": -77.02955516666667, "bike_id": "c669e9bb8c75b806fc2aa425098d9b01", "fusion_lat": 0.0, "name": "c669e9bb8c75b806fc2aa425098d9b01", "is_reserved": 0, "rental_uris": {"android": "https://dc.lft.to/lastmile_qr_scan", "ios": "https://dc.lft.to/lastmile_qr_scan"}, "fusion_lon": 0.0}, {"lat": 38.9068345, "is_disabled": 0, "type": "electric_scooter", "lon": -77.03527883333334, "bike_id": "6d9f9690355998a150074ff3bf80399b", "fusion_lat": 0.0, "name": "6d9f9690355998a150074ff3bf80399b", "is_reserved": 0, "rental_uris": {"android": "https://dc.lft.to/lastmile_qr_scan", "ios": "https://dc.lft.to/lastmile_qr_scan"}, "fusion_lon": 0.0}, {"lat": 38.8845245, "is_disabled": 0, "type": "electric_scooter", "lon": -76.95095816666667, "bike_id": "620b2d3bc1334657ea884332d034654e", "fusion_lat": 0.0, "name": "620b2d3bc1334657ea884332d034654e", "is_reserved": 0, "rental_uris": {"android": "https://dc.lft.to/lastmile_qr_scan", "ios": "https://dc.lft.to/lastmile_qr_scan"}, "fusion_lon": 0.0}, {"lat": 38.89687516666667, "is_disabled": 0, "type": "electric_scooter", "lon": -76.936062, "bike_id": "8034091d8e277e19522f414317a2e1d3", "fusion_lat": 0.0, "name": "8034091d8e277e19522f414317a2e1d3", "is_reserved": 0, "rental_uris": {"android": "https://dc.lft.to/lastmile_qr_scan", "ios": "https://dc.lft.to/lastmile_qr_scan"}, "fusion_lon": 0.0}, {"lat": 38.914234666666665, "is_disabled": 0, "type": "electric_scooter", "lon": -77.02178583333334, "bike_id": "c967fafc6d96e39b9e44b7ec64950e6f", "fusion_lat": 0.0, "name": "c967fafc6d96e39b9e44b7ec64950e6f", "is_reserved": 0, "rental_uris": {"android": "https://dc.lft.to/lastmile_qr_scan", "ios": "https://dc.lft.to/lastmile_qr_scan"}, "fusion_lon": 0.0}, {"lat": 38.9307945, "is_disabled": 0, "type": "electric_scooter", "lon": -77.03399816666666, "bike_id": "7421028773338efd4d017e62acf15786", "fusion_lat": 0.0, "name": "7421028773338efd4d017e62acf15786", "is_reserved": 0, "rental_uris": {"android": "https://dc.lft.to/lastmile_qr_scan", "ios": "https://dc.lft.to/lastmile_qr_scan"}, "fusion_lon": 0.0}, {"lat": 38.918245666666664, "is_disabled": 0, "type": "electric_scooter", "lon": -77.041772, "bike_id": "ce706bafb145e10d2d62ce11c205a15f", "fusion_lat": 0.0, "name": "ce706bafb145e10d2d62ce11c205a15f", "is_reserved": 0, "rental_uris": {"android": "https://dc.lft.to/lastmile_qr_scan", "ios": "https://dc.lft.to/lastmile_qr_scan"}, "fusion_lon": 0.0}, {"lat": 38.911223, "is_disabled": 0, "type": "electric_scooter", "lon": -77.038252, "bike_id": "ddc9793b096f78618e6085fd25d0364d", "fusion_lat": 0.0, "name": "ddc9793b096f78618e6085fd25d0364d", "is_reserved": 0, "rental_uris": {"android": "https://dc.lft.to/lastmile_qr_scan", "ios": "https://dc.lft.to/lastmile_qr_scan"}, "fusion_lon": 0.0}, {"lat": 38.98824366666667, "is_disabled": 0, "type": "electric_bike", "lon": -77.02651533333334, "bike_id": "f61a50d1a85959faa1e35bec56df49d8", "fusion_lat": 0.0, "name": "f61a50d1a85959faa1e35bec56df49d8", "is_reserved": 0, "rental_uris": {"android": "https://dc.lft.to/lastmile_qr_scan", "ios": "https://dc.lft.to/lastmile_qr_scan"}, "fusion_lon": 0.0}, {"lat": 38.948252833333335, "is_disabled": 0, "type": "electric_scooter", "lon": -76.99907083333333, "bike_id": "45b90f28ccd070e346cc53ba78254cc7", "fusion_lat": 0.0, "name": "45b90f28ccd070e346cc53ba78254cc7", "is_reserved": 0, "rental_uris": {"android": "https://dc.lft.to/lastmile_qr_scan", "ios": "https://dc.lft.to/lastmile_qr_scan"}, "fusion_lon": 0.0}, {"lat": 38.90738566666667, "is_disabled": 0, "type": "electric_scooter", "lon": -77.0294955, "bike_id": "544faed85d407ef508d35d3b8967dd68", "fusion_lat": 0.0, "name": "544faed85d407ef508d35d3b8967dd68", "is_reserved": 0, "rental_uris": {"android": "https://dc.lft.to/lastmile_qr_scan", "ios": "https://dc.lft.to/lastmile_qr_scan"}, "fusion_lon": 0.0}, {"lat": 38.89891983333333, "is_disabled": 0, "type": "electric_scooter", "lon": -77.07238033333333, "bike_id": "08040f2938012421b116c7cebf8ab4d0", "fusion_lat": 0.0, "name": "08040f2938012421b116c7cebf8ab4d0", "is_reserved": 0, "rental_uris": {"android": "https://dc.lft.to/lastmile_qr_scan", "ios": "https://dc.lft.to/lastmile_qr_scan"}, "fusion_lon": 0.0}, {"lat": 38.923024, "is_disabled": 0, "type": "electric_scooter", "lon": -77.023287, "bike_id": "15d7e18aa12b4c4fde7dc7b2c61f9873", "fusion_lat": 0.0, "name": "15d7e18aa12b4c4fde7dc7b2c61f9873", "is_reserved": 0, "rental_uris": {"android": "https://dc.lft.to/lastmile_qr_scan", "ios": "https://dc.lft.to/lastmile_qr_scan"}, "fusion_lon": 0.0}, {"lat": 38.91249233333333, "is_disabled": 0, "type": "electric_scooter", "lon": -77.04663633333334, "bike_id": "a82c1a60f4d3d91957c4d4d1f29e3f89", "fusion_lat": 0.0, "name": "a82c1a60f4d3d91957c4d4d1f29e3f89", "is_reserved": 0, "rental_uris": {"android": "https://dc.lft.to/lastmile_qr_scan", "ios": "https://dc.lft.to/lastmile_qr_scan"}, "fusion_lon": 0.0}, {"lat": 38.901117666666664, "is_disabled": 0, "type": "electric_scooter", "lon": -77.059027, "bike_id": "8513fcb4eee08ce6a6ba84fbbd9dc8d9", "fusion_lat": 0.0, "name": "8513fcb4eee08ce6a6ba84fbbd9dc8d9", "is_reserved": 0, "rental_uris": {"android": "https://dc.lft.to/lastmile_qr_scan", "ios": "https://dc.lft.to/lastmile_qr_scan"}, "fusion_lon": 0.0}, {"lat": 38.916914, "is_disabled": 0, "type": "electric_scooter", "lon": -77.04592583333333, "bike_id": "94d040d5dc3d5dda4293aa9d28e5cd38", "fusion_lat": 0.0, "name": "94d040d5dc3d5dda4293aa9d28e5cd38", "is_reserved": 0, "rental_uris": {"android": "https://dc.lft.to/lastmile_qr_scan", "ios": "https://dc.lft.to/lastmile_qr_scan"}, "fusion_lon": 0.0}, {"lat": 38.8934505, "is_disabled": 0, "type": "electric_scooter", "lon": -77.04490716666666, "bike_id": "5976a7afb9c3fa8440e78d4863f13a7e", "fusion_lat": 0.0, "name": "5976a7afb9c3fa8440e78d4863f13a7e", "is_reserved": 0, "rental_uris": {"android": "https://dc.lft.to/lastmile_qr_scan", "ios": "https://dc.lft.to/lastmile_qr_scan"}, "fusion_lon": 0.0}, {"lat": 38.873720666666664, "is_disabled": 0, "type": "electric_bike", "lon": -77.00057283333334, "bike_id": "e5d22d3fce656e3c98f8c7f62d69ad41", "fusion_lat": 0.0, "name": "e5d22d3fce656e3c98f8c7f62d69ad41", "is_reserved": 0, "rental_uris": {"android": "https://dc.lft.to/lastmile_qr_scan", "ios": "https://dc.lft.to/lastmile_qr_scan"}, "fusion_lon": 0.0}, {"lat": 38.86655366666667, "is_disabled": 0, "type": "electric_scooter", "lon": -76.98883183333334, "bike_id": "a0ff5356772f9af8a58a63a1b5352df9", "fusion_lat": 0.0, "name": "a0ff5356772f9af8a58a63a1b5352df9", "is_reserved": 0, "rental_uris": {"android": "https://dc.lft.to/lastmile_qr_scan", "ios": "https://dc.lft.to/lastmile_qr_scan"}, "fusion_lon": 0.0}, {"lat": 38.8990405, "is_disabled": 0, "type": "electric_scooter", "lon": -76.9335195, "bike_id": "1ed69e4f45096ff67ad610b8ec0636e5", "fusion_lat": 0.0, "name": "1ed69e4f45096ff67ad610b8ec0636e5", "is_reserved": 0, "rental_uris": {"android": "https://dc.lft.to/lastmile_qr_scan", "ios": "https://dc.lft.to/lastmile_qr_scan"}, "fusion_lon": 0.0}, {"lat": 38.90393566666667, "is_disabled": 0, "type": "electric_scooter", "lon": -77.01762766666667, "bike_id": "ce8a5ad77ad39adff91f90c1c78f7eda", "fusion_lat": 0.0, "name": "ce8a5ad77ad39adff91f90c1c78f7eda", "is_reserved": 0, "rental_uris": {"android": "https://dc.lft.to/lastmile_qr_scan", "ios": "https://dc.lft.to/lastmile_qr_scan"}, "fusion_lon": 0.0}, {"lat": 38.9257655, "is_disabled": 0, "type": "electric_scooter", "lon": -77.0575415, "bike_id": "60764b4562ad05fd7377a70805f30992", "fusion_lat": 0.0, "name": "60764b4562ad05fd7377a70805f30992", "is_reserved": 0, "rental_uris": {"android": "https://dc.lft.to/lastmile_qr_scan", "ios": "https://dc.lft.to/lastmile_qr_scan"}, "fusion_lon": 0.0}, {"lat": 38.9127595, "is_disabled": 0, "type": "electric_bike", "lon": -77.0122705, "bike_id": "58503daeb17624cb4f2babe497f8ecd0", "fusion_lat": 0.0, "name": "58503daeb17624cb4f2babe497f8ecd0", "is_reserved": 0, "rental_uris": {"android": "https://dc.lft.to/lastmile_qr_scan", "ios": "https://dc.lft.to/lastmile_qr_scan"}, "fusion_lon": 0.0}, {"lat": 38.9217845, "is_disabled": 0, "type": "electric_scooter", "lon": -77.03185566666667, "bike_id": "b18b76550b8a580c38b164429136e6ef", "fusion_lat": 0.0, "name": "b18b76550b8a580c38b164429136e6ef", "is_reserved": 0, "rental_uris": {"android": "https://dc.lft.to/lastmile_qr_scan", "ios": "https://dc.lft.to/lastmile_qr_scan"}, "fusion_lon": 0.0}, {"lat": 38.90460816666667, "is_disabled": 0, "type": "electric_scooter", "lon": -77.031029, "bike_id": "dda93a18e16e417775be6f6a41cb8df0", "fusion_lat": 0.0, "name": "dda93a18e16e417775be6f6a41cb8df0", "is_reserved": 0, "rental_uris": {"android": "https://dc.lft.to/lastmile_qr_scan", "ios": "https://dc.lft.to/lastmile_qr_scan"}, "fusion_lon": 0.0}, {"lat": 38.903357, "is_disabled": 0, "type": "electric_scooter", "lon": -76.975927, "bike_id": "a3201d3112a85d86de86cdb524dd6cea", "fusion_lat": 0.0, "name": "a3201d3112a85d86de86cdb524dd6cea", "is_reserved": 0, "rental_uris": {"android": "https://dc.lft.to/lastmile_qr_scan", "ios": "https://dc.lft.to/lastmile_qr_scan"}, "fusion_lon": 0.0}, {"lat": 38.8800035, "is_disabled": 0, "type": "electric_scooter", "lon": -76.9854, "bike_id": "2e7b981a704e298837ac427c5eee1b9c", "fusion_lat": 0.0, "name": "2e7b981a704e298837ac427c5eee1b9c", "is_reserved": 0, "rental_uris": {"android": "https://dc.lft.to/lastmile_qr_scan", "ios": "https://dc.lft.to/lastmile_qr_scan"}, "fusion_lon": 0.0}, {"lat": 38.91784, "is_disabled": 0, "type": "electric_scooter", "lon": -77.04331883333333, "bike_id": "12262462a9879aaf0354a29bd29b8310", "fusion_lat": 0.0, "name": "12262462a9879aaf0354a29bd29b8310", "is_reserved": 0, "rental_uris": {"android": "https://dc.lft.to/lastmile_qr_scan", "ios": "https://dc.lft.to/lastmile_qr_scan"}, "fusion_lon": 0.0}, {"lat": 38.92136516666667, "is_disabled": 0, "type": "electric_scooter", "lon": -77.04349766666667, "bike_id": "a1243eb4804d5fda34615b7b387860fd", "fusion_lat": 0.0, "name": "a1243eb4804d5fda34615b7b387860fd", "is_reserved": 0, "rental_uris": {"android": "https://dc.lft.to/lastmile_qr_scan", "ios": "https://dc.lft.to/lastmile_qr_scan"}, "fusion_lon": 0.0}, {"lat": 38.897521833333336, "is_disabled": 0, "type": "electric_scooter", "lon": -77.04535383333334, "bike_id": "25b8253ec998d7c8f86f93f9f6c3519f", "fusion_lat": 0.0, "name": "25b8253ec998d7c8f86f93f9f6c3519f", "is_reserved": 0, "rental_uris": {"android": "https://dc.lft.to/lastmile_qr_scan", "ios": "https://dc.lft.to/lastmile_qr_scan"}, "fusion_lon": 0.0}, {"lat": 38.806837, "is_disabled": 0, "type": "electric_bike", "lon": -77.0812005, "bike_id": "4c4491e29393970d7ad174f7219bc7d6", "fusion_lat": 0.0, "name": "4c4491e29393970d7ad174f7219bc7d6", "is_reserved": 0, "rental_uris": {"android": "https://dc.lft.to/lastmile_qr_scan", "ios": "https://dc.lft.to/lastmile_qr_scan"}, "fusion_lon": 0.0}, {"lat": 38.89264716666667, "is_disabled": 0, "type": "electric_scooter", "lon": -76.94158883333333, "bike_id": "9bf61592372c1de330e4fde9c179146b", "fusion_lat": 0.0, "name": "9bf61592372c1de330e4fde9c179146b", "is_reserved": 0, "rental_uris": {"android": "https://dc.lft.to/lastmile_qr_scan", "ios": "https://dc.lft.to/lastmile_qr_scan"}, "fusion_lon": 0.0}, {"lat": 38.85810516666667, "is_disabled": 0, "type": "electric_scooter", "lon": -76.98991016666666, "bike_id": "ed98a564c6614768abc211dd9cf24c18", "fusion_lat": 0.0, "name": "ed98a564c6614768abc211dd9cf24c18", "is_reserved": 0, "rental_uris": {"android": "https://dc.lft.to/lastmile_qr_scan", "ios": "https://dc.lft.to/lastmile_qr_scan"}, "fusion_lon": 0.0}, {"lat": 38.908577333333334, "is_disabled": 0, "type": "electric_scooter", "lon": -77.04297366666667, "bike_id": "5d6733c0564544fe52b050b5a462b48b", "fusion_lat": 0.0, "name": "5d6733c0564544fe52b050b5a462b48b", "is_reserved": 0, "rental_uris": {"android": "https://dc.lft.to/lastmile_qr_scan", "ios": "https://dc.lft.to/lastmile_qr_scan"}, "fusion_lon": 0.0}, {"lat": 38.932053833333335, "is_disabled": 0, "type": "electric_scooter", "lon": -77.03749383333333, "bike_id": "500c5bdd1b210c13a9d102d6dabb2e26", "fusion_lat": 0.0, "name": "500c5bdd1b210c13a9d102d6dabb2e26", "is_reserved": 0, "rental_uris": {"android": "https://dc.lft.to/lastmile_qr_scan", "ios": "https://dc.lft.to/lastmile_qr_scan"}, "fusion_lon": 0.0}, {"lat": 38.939946, "is_disabled": 0, "type": "electric_scooter", "lon": -77.071796, "bike_id": "3bb353185bd83e13a526387d78cab2b4", "fusion_lat": 0.0, "name": "3bb353185bd83e13a526387d78cab2b4", "is_reserved": 0, "rental_uris": {"android": "https://dc.lft.to/lastmile_qr_scan", "ios": "https://dc.lft.to/lastmile_qr_scan"}, "fusion_lon": 0.0}, {"lat": 38.943091833333334, "is_disabled": 0, "type": "electric_scooter", "lon": -77.05923, "bike_id": "368ab156d823713a53602f4bdc8d58b8", "fusion_lat": 0.0, "name": "368ab156d823713a53602f4bdc8d58b8", "is_reserved": 0, "rental_uris": {"android": "https://dc.lft.to/lastmile_qr_scan", "ios": "https://dc.lft.to/lastmile_qr_scan"}, "fusion_lon": 0.0}, {"lat": 38.924504, "is_disabled": 0, "type": "electric_scooter", "lon": -77.02039733333334, "bike_id": "ae3f0d7da3e4947ecd2df089040ffcf4", "fusion_lat": 0.0, "name": "ae3f0d7da3e4947ecd2df089040ffcf4", "is_reserved": 0, "rental_uris": {"android": "https://dc.lft.to/lastmile_qr_scan", "ios": "https://dc.lft.to/lastmile_qr_scan"}, "fusion_lon": 0.0}, {"lat": 38.911186666666666, "is_disabled": 0, "type": "electric_scooter", "lon": -77.03833283333333, "bike_id": "178b7f082025ab0b374910aefdf2504d", "fusion_lat": 0.0, "name": "178b7f082025ab0b374910aefdf2504d", "is_reserved": 0, "rental_uris": {"android": "https://dc.lft.to/lastmile_qr_scan", "ios": "https://dc.lft.to/lastmile_qr_scan"}, "fusion_lon": 0.0}, {"lat": 38.854619, "is_disabled": 0, "type": "electric_scooter", "lon": -76.97233483333333, "bike_id": "2dbc3f4744cdf241a8ea29c6c9aec661", "fusion_lat": 0.0, "name": "2dbc3f4744cdf241a8ea29c6c9aec661", "is_reserved": 0, "rental_uris": {"android": "https://dc.lft.to/lastmile_qr_scan", "ios": "https://dc.lft.to/lastmile_qr_scan"}, "fusion_lon": 0.0}, {"lat": 38.97841583333334, "is_disabled": 0, "type": "electric_bike", "lon": -77.02649366666667, "bike_id": "5a606106142e47a5e656d16c721e76b0", "fusion_lat": 0.0, "name": "5a606106142e47a5e656d16c721e76b0", "is_reserved": 0, "rental_uris": {"android": "https://dc.lft.to/lastmile_qr_scan", "ios": "https://dc.lft.to/lastmile_qr_scan"}, "fusion_lon": 0.0}, {"lat": 38.92794133333334, "is_disabled": 0, "type": "electric_bike", "lon": -76.97220383333334, "bike_id": "4ff1555373754088723820f7d6c21339", "fusion_lat": 0.0, "name": "4ff1555373754088723820f7d6c21339", "is_reserved": 0, "rental_uris": {"android": "https://dc.lft.to/lastmile_qr_scan", "ios": "https://dc.lft.to/lastmile_qr_scan"}, "fusion_lon": 0.0}, {"lat": 38.85518916666667, "is_disabled": 0, "type": "electric_bike", "lon": -77.12032516666666, "bike_id": "b9c778797827f1c5c6ff241eb6e04539", "fusion_lat": 0.0, "name": "b9c778797827f1c5c6ff241eb6e04539", "is_reserved": 0, "rental_uris": {"android": "https://dc.lft.to/lastmile_qr_scan", "ios": "https://dc.lft.to/lastmile_qr_scan"}, "fusion_lon": 0.0}, {"lat": 38.88506183333333, "is_disabled": 0, "type": "electric_scooter", "lon": -77.00566583333334, "bike_id": "e0c2dbf5fb4d0a5553aba2aa838478d4", "fusion_lat": 0.0, "name": "e0c2dbf5fb4d0a5553aba2aa838478d4", "is_reserved": 0, "rental_uris": {"android": "https://dc.lft.to/lastmile_qr_scan", "ios": "https://dc.lft.to/lastmile_qr_scan"}, "fusion_lon": 0.0}, {"lat": 38.91790066666667, "is_disabled": 0, "type": "electric_scooter", "lon": -77.04409833333334, "bike_id": "30aeb622c11e8d935c6c1b56f30c5055", "fusion_lat": 0.0, "name": "30aeb622c11e8d935c6c1b56f30c5055", "is_reserved": 0, "rental_uris": {"android": "https://dc.lft.to/lastmile_qr_scan", "ios": "https://dc.lft.to/lastmile_qr_scan"}, "fusion_lon": 0.0}, {"lat": 38.863876166666664, "is_disabled": 0, "type": "electric_scooter", "lon": -76.99248883333334, "bike_id": "0b0203db6ea0b95ee3bb272676f82261", "fusion_lat": 0.0, "name": "0b0203db6ea0b95ee3bb272676f82261", "is_reserved": 0, "rental_uris": {"android": "https://dc.lft.to/lastmile_qr_scan", "ios": "https://dc.lft.to/lastmile_qr_scan"}, "fusion_lon": 0.0}, {"lat": 38.865620166666666, "is_disabled": 0, "type": "electric_bike", "lon": -76.97351, "bike_id": "aadfffdfa8948da28c82993cbc8ce277", "fusion_lat": 0.0, "name": "aadfffdfa8948da28c82993cbc8ce277", "is_reserved": 0, "rental_uris": {"android": "https://dc.lft.to/lastmile_qr_scan", "ios": "https://dc.lft.to/lastmile_qr_scan"}, "fusion_lon": 0.0}, {"lat": 38.91410583333333, "is_disabled": 0, "type": "electric_scooter", "lon": -77.02562116666667, "bike_id": "7671fc84875784b774e9cd31a2ecc6e4", "fusion_lat": 0.0, "name": "7671fc84875784b774e9cd31a2ecc6e4", "is_reserved": 0, "rental_uris": {"android": "https://dc.lft.to/lastmile_qr_scan", "ios": "https://dc.lft.to/lastmile_qr_scan"}, "fusion_lon": 0.0}, {"lat": 38.9365625, "is_disabled": 0, "type": "electric_scooter", "lon": -77.03649183333333, "bike_id": "fa52b9cc60cd2e6e22ce1c374bf65416", "fusion_lat": 0.0, "name": "fa52b9cc60cd2e6e22ce1c374bf65416", "is_reserved": 0, "rental_uris": {"android": "https://dc.lft.to/lastmile_qr_scan", "ios": "https://dc.lft.to/lastmile_qr_scan"}, "fusion_lon": 0.0}, {"lat": 38.93297583333333, "is_disabled": 0, "type": "electric_scooter", "lon": -77.02825866666667, "bike_id": "5226d7dd7ad9bc5c1626f979212fdb11", "fusion_lat": 0.0, "name": "5226d7dd7ad9bc5c1626f979212fdb11", "is_reserved": 0, "rental_uris": {"android": "https://dc.lft.to/lastmile_qr_scan", "ios": "https://dc.lft.to/lastmile_qr_scan"}, "fusion_lon": 0.0}, {"lat": 38.90884233333333, "is_disabled": 0, "type": "electric_scooter", "lon": -77.034437, "bike_id": "ce1ca37956f637afe29308b8e50fcbb4", "fusion_lat": 0.0, "name": "ce1ca37956f637afe29308b8e50fcbb4", "is_reserved": 0, "rental_uris": {"android": "https://dc.lft.to/lastmile_qr_scan", "ios": "https://dc.lft.to/lastmile_qr_scan"}, "fusion_lon": 0.0}, {"lat": 38.91498383333333, "is_disabled": 0, "type": "electric_scooter", "lon": -76.98348983333334, "bike_id": "4d1e42e83eba961794c5720753e4130a", "fusion_lat": 0.0, "name": "4d1e42e83eba961794c5720753e4130a", "is_reserved": 0, "rental_uris": {"android": "https://dc.lft.to/lastmile_qr_scan", "ios": "https://dc.lft.to/lastmile_qr_scan"}, "fusion_lon": 0.0}, {"lat": 38.90548, "is_disabled": 0, "type": "electric_scooter", "lon": -77.005321, "bike_id": "336a14aeb4188d4e45f6a622c1a1c33b", "fusion_lat": 0.0, "name": "336a14aeb4188d4e45f6a622c1a1c33b", "is_reserved": 0, "rental_uris": {"android": "https://dc.lft.to/lastmile_qr_scan", "ios": "https://dc.lft.to/lastmile_qr_scan"}, "fusion_lon": 0.0}, {"lat": 38.93106083333333, "is_disabled": 0, "type": "electric_scooter", "lon": -77.03513116666667, "bike_id": "4fc5a7c4c4b9cd58fbc142943c5bf093", "fusion_lat": 0.0, "name": "4fc5a7c4c4b9cd58fbc142943c5bf093", "is_reserved": 0, "rental_uris": {"android": "https://dc.lft.to/lastmile_qr_scan", "ios": "https://dc.lft.to/lastmile_qr_scan"}, "fusion_lon": 0.0}, {"lat": 38.876326, "is_disabled": 0, "type": "electric_scooter", "lon": -76.96524966666667, "bike_id": "f212ab3e7cdc1aae1a1c3d879ab7f598", "fusion_lat": 0.0, "name": "f212ab3e7cdc1aae1a1c3d879ab7f598", "is_reserved": 0, "rental_uris": {"android": "https://dc.lft.to/lastmile_qr_scan", "ios": "https://dc.lft.to/lastmile_qr_scan"}, "fusion_lon": 0.0}, {"lat": 38.896304666666666, "is_disabled": 0, "type": "electric_scooter", "lon": -76.99850116666667, "bike_id": "c7290c7e26b9dc6876f70e2c7e6beb8a", "fusion_lat": 0.0, "name": "c7290c7e26b9dc6876f70e2c7e6beb8a", "is_reserved": 0, "rental_uris": {"android": "https://dc.lft.to/lastmile_qr_scan", "ios": "https://dc.lft.to/lastmile_qr_scan"}, "fusion_lon": 0.0}, {"lat": 38.922528666666665, "is_disabled": 0, "type": "electric_scooter", "lon": -77.04256216666667, "bike_id": "38129ec519591afba91e67ba5ebfcc87", "fusion_lat": 0.0, "name": "38129ec519591afba91e67ba5ebfcc87", "is_reserved": 0, "rental_uris": {"android": "https://dc.lft.to/lastmile_qr_scan", "ios": "https://dc.lft.to/lastmile_qr_scan"}, "fusion_lon": 0.0}, {"lat": 38.932094166666666, "is_disabled": 0, "type": "electric_scooter", "lon": -77.044318, "bike_id": "575a29ea5d6c868876c9add3b531ea62", "fusion_lat": 0.0, "name": "575a29ea5d6c868876c9add3b531ea62", "is_reserved": 0, "rental_uris": {"android": "https://dc.lft.to/lastmile_qr_scan", "ios": "https://dc.lft.to/lastmile_qr_scan"}, "fusion_lon": 0.0}, {"lat": 38.89325433333333, "is_disabled": 0, "type": "electric_scooter", "lon": -76.92991233333333, "bike_id": "c9ac25a0923863c2c9d424c31046f28b", "fusion_lat": 0.0, "name": "c9ac25a0923863c2c9d424c31046f28b", "is_reserved": 0, "rental_uris": {"android": "https://dc.lft.to/lastmile_qr_scan", "ios": "https://dc.lft.to/lastmile_qr_scan"}, "fusion_lon": 0.0}, {"lat": 38.92664583333333, "is_disabled": 0, "type": "electric_scooter", "lon": -77.05594866666667, "bike_id": "79995b11d19df056d85c68cc5aa711f1", "fusion_lat": 0.0, "name": "79995b11d19df056d85c68cc5aa711f1", "is_reserved": 0, "rental_uris": {"android": "https://dc.lft.to/lastmile_qr_scan", "ios": "https://dc.lft.to/lastmile_qr_scan"}, "fusion_lon": 0.0}, {"lat": 38.89556816666666, "is_disabled": 0, "type": "electric_scooter", "lon": -76.93367883333333, "bike_id": "4c387bf4d39d2d493e985bd2cc07d5f7", "fusion_lat": 0.0, "name": "4c387bf4d39d2d493e985bd2cc07d5f7", "is_reserved": 0, "rental_uris": {"android": "https://dc.lft.to/lastmile_qr_scan", "ios": "https://dc.lft.to/lastmile_qr_scan"}, "fusion_lon": 0.0}, {"lat": 38.89231366666667, "is_disabled": 0, "type": "electric_scooter", "lon": -77.0500285, "bike_id": "d79e057a8664b33502e0d3eb09b840e7", "fusion_lat": 0.0, "name": "d79e057a8664b33502e0d3eb09b840e7", "is_reserved": 0, "rental_uris": {"android": "https://dc.lft.to/lastmile_qr_scan", "ios": "https://dc.lft.to/lastmile_qr_scan"}, "fusion_lon": 0.0}, {"lat": 38.875367, "is_disabled": 0, "type": "electric_scooter", "lon": -77.005058, "bike_id": "f534c96812b40daad16de52155170a37", "fusion_lat": 0.0, "name": "f534c96812b40daad16de52155170a37", "is_reserved": 0, "rental_uris": {"android": "https://dc.lft.to/lastmile_qr_scan", "ios": "https://dc.lft.to/lastmile_qr_scan"}, "fusion_lon": 0.0}, {"lat": 38.9259775, "is_disabled": 0, "type": "electric_scooter", "lon": -77.02495566666667, "bike_id": "57aa850d048c29ac007e9a9b3045b939", "fusion_lat": 0.0, "name": "57aa850d048c29ac007e9a9b3045b939", "is_reserved": 0, "rental_uris": {"android": "https://dc.lft.to/lastmile_qr_scan", "ios": "https://dc.lft.to/lastmile_qr_scan"}, "fusion_lon": 0.0}, {"lat": 38.91875, "is_disabled": 0, "type": "electric_scooter", "lon": -77.03499, "bike_id": "62b6b827801597026cebcfcb5a9e92b1", "fusion_lat": 0.0, "name": "62b6b827801597026cebcfcb5a9e92b1", "is_reserved": 0, "rental_uris": {"android": "https://dc.lft.to/lastmile_qr_scan", "ios": "https://dc.lft.to/lastmile_qr_scan"}, "fusion_lon": 0.0}, {"lat": 38.89586933333333, "is_disabled": 0, "type": "electric_scooter", "lon": -77.04361583333333, "bike_id": "7e253e291f811473acd21429ba51b4da", "fusion_lat": 0.0, "name": "7e253e291f811473acd21429ba51b4da", "is_reserved": 0, "rental_uris": {"android": "https://dc.lft.to/lastmile_qr_scan", "ios": "https://dc.lft.to/lastmile_qr_scan"}, "fusion_lon": 0.0}, {"lat": 38.90216383333333, "is_disabled": 0, "type": "electric_scooter", "lon": -76.9884255, "bike_id": "b7b4168f30f80611a736ce4a53e2ac8c", "fusion_lat": 0.0, "name": "b7b4168f30f80611a736ce4a53e2ac8c", "is_reserved": 0, "rental_uris": {"android": "https://dc.lft.to/lastmile_qr_scan", "ios": "https://dc.lft.to/lastmile_qr_scan"}, "fusion_lon": 0.0}, {"lat": 38.90365966666667, "is_disabled": 0, "type": "electric_scooter", "lon": -76.97653666666666, "bike_id": "450a2097e6ed9f8f077e66d2bbaf21cb", "fusion_lat": 0.0, "name": "450a2097e6ed9f8f077e66d2bbaf21cb", "is_reserved": 0, "rental_uris": {"android": "https://dc.lft.to/lastmile_qr_scan", "ios": "https://dc.lft.to/lastmile_qr_scan"}, "fusion_lon": 0.0}, {"lat": 38.96074683333333, "is_disabled": 0, "type": "electric_scooter", "lon": -77.07291266666667, "bike_id": "e9454605f11a81b88f8a1414c81af200", "fusion_lat": 0.0, "name": "e9454605f11a81b88f8a1414c81af200", "is_reserved": 0, "rental_uris": {"android": "https://dc.lft.to/lastmile_qr_scan", "ios": "https://dc.lft.to/lastmile_qr_scan"}, "fusion_lon": 0.0}, {"lat": 38.914804833333335, "is_disabled": 0, "type": "electric_scooter", "lon": -77.03236683333333, "bike_id": "267c4ba21c3fd070eb41dd28f8a03b72", "fusion_lat": 0.0, "name": "267c4ba21c3fd070eb41dd28f8a03b72", "is_reserved": 0, "rental_uris": {"android": "https://dc.lft.to/lastmile_qr_scan", "ios": "https://dc.lft.to/lastmile_qr_scan"}, "fusion_lon": 0.0}, {"lat": 38.928626, "is_disabled": 0, "type": "electric_scooter", "lon": -77.03011766666667, "bike_id": "41355aea947e621c7b0bdf57ded568a0", "fusion_lat": 0.0, "name": "41355aea947e621c7b0bdf57ded568a0", "is_reserved": 0, "rental_uris": {"android": "https://dc.lft.to/lastmile_qr_scan", "ios": "https://dc.lft.to/lastmile_qr_scan"}, "fusion_lon": 0.0}, {"lat": 38.931137, "is_disabled": 0, "type": "electric_scooter", "lon": -77.02076783333334, "bike_id": "b5143f800928a529116ccd24d35bedbf", "fusion_lat": 0.0, "name": "b5143f800928a529116ccd24d35bedbf", "is_reserved": 0, "rental_uris": {"android": "https://dc.lft.to/lastmile_qr_scan", "ios": "https://dc.lft.to/lastmile_qr_scan"}, "fusion_lon": 0.0}, {"lat": 38.905679666666664, "is_disabled": 0, "type": "electric_scooter", "lon": -77.034526, "bike_id": "10a108dbf324efa31aa0396b6f846f1d", "fusion_lat": 0.0, "name": "10a108dbf324efa31aa0396b6f846f1d", "is_reserved": 0, "rental_uris": {"android": "https://dc.lft.to/lastmile_qr_scan", "ios": "https://dc.lft.to/lastmile_qr_scan"}, "fusion_lon": 0.0}, {"lat": 38.91134533333334, "is_disabled": 0, "type": "electric_scooter", "lon": -77.04361683333333, "bike_id": "fab4c7750ad0937f176f2c40fd157632", "fusion_lat": 0.0, "name": "fab4c7750ad0937f176f2c40fd157632", "is_reserved": 0, "rental_uris": {"android": "https://dc.lft.to/lastmile_qr_scan", "ios": "https://dc.lft.to/lastmile_qr_scan"}, "fusion_lon": 0.0}, {"lat": 38.87688833333333, "is_disabled": 0, "type": "electric_bike", "lon": -77.01614316666667, "bike_id": "5baa3fc5a396023a70593baf93f23a5b", "fusion_lat": 0.0, "name": "5baa3fc5a396023a70593baf93f23a5b", "is_reserved": 0, "rental_uris": {"android": "https://dc.lft.to/lastmile_qr_scan", "ios": "https://dc.lft.to/lastmile_qr_scan"}, "fusion_lon": 0.0}, {"lat": 38.934149166666664, "is_disabled": 0, "type": "electric_bike", "lon": -77.02509866666666, "bike_id": "6009e9aa3008b94257504a0493fe0740", "fusion_lat": 0.0, "name": "6009e9aa3008b94257504a0493fe0740", "is_reserved": 0, "rental_uris": {"android": "https://dc.lft.to/lastmile_qr_scan", "ios": "https://dc.lft.to/lastmile_qr_scan"}, "fusion_lon": 0.0}, {"lat": 38.928678166666664, "is_disabled": 0, "type": "electric_bike", "lon": -76.9893725, "bike_id": "9ef2efd594c30450b50f579958689edb", "fusion_lat": 0.0, "name": "9ef2efd594c30450b50f579958689edb", "is_reserved": 0, "rental_uris": {"android": "https://dc.lft.to/lastmile_qr_scan", "ios": "https://dc.lft.to/lastmile_qr_scan"}, "fusion_lon": 0.0}, {"lat": 38.90569883333333, "is_disabled": 0, "type": "electric_scooter", "lon": -77.04886816666667, "bike_id": "1c8b41e0ed4bbeeda321fb2dd78047fd", "fusion_lat": 0.0, "name": "1c8b41e0ed4bbeeda321fb2dd78047fd", "is_reserved": 0, "rental_uris": {"android": "https://dc.lft.to/lastmile_qr_scan", "ios": "https://dc.lft.to/lastmile_qr_scan"}, "fusion_lon": 0.0}, {"lat": 38.900963, "is_disabled": 0, "type": "electric_scooter", "lon": -77.0034065, "bike_id": "c69f98cc7d579faaf79cf6a6237c3cd8", "fusion_lat": 0.0, "name": "c69f98cc7d579faaf79cf6a6237c3cd8", "is_reserved": 0, "rental_uris": {"android": "https://dc.lft.to/lastmile_qr_scan", "ios": "https://dc.lft.to/lastmile_qr_scan"}, "fusion_lon": 0.0}, {"lat": 38.917896, "is_disabled": 0, "type": "electric_bike", "lon": -76.97185383333333, "bike_id": "2e470cd0f35b556b1e2b0813b04c4553", "fusion_lat": 0.0, "name": "2e470cd0f35b556b1e2b0813b04c4553", "is_reserved": 0, "rental_uris": {"android": "https://dc.lft.to/lastmile_qr_scan", "ios": "https://dc.lft.to/lastmile_qr_scan"}, "fusion_lon": 0.0}, {"lat": 38.921569166666664, "is_disabled": 0, "type": "electric_scooter", "lon": -77.0337745, "bike_id": "732878e7552f302515e1073026aa0c56", "fusion_lat": 0.0, "name": "732878e7552f302515e1073026aa0c56", "is_reserved": 0, "rental_uris": {"android": "https://dc.lft.to/lastmile_qr_scan", "ios": "https://dc.lft.to/lastmile_qr_scan"}, "fusion_lon": 0.0}, {"lat": 38.867066333333334, "is_disabled": 0, "type": "electric_scooter", "lon": -76.9871115, "bike_id": "8a15380bef8d926a459b353d90c982b5", "fusion_lat": 0.0, "name": "8a15380bef8d926a459b353d90c982b5", "is_reserved": 0, "rental_uris": {"android": "https://dc.lft.to/lastmile_qr_scan", "ios": "https://dc.lft.to/lastmile_qr_scan"}, "fusion_lon": 0.0}, {"lat": 38.861724833333334, "is_disabled": 0, "type": "electric_bike", "lon": -77.13144083333333, "bike_id": "ba81d2569a1a88344c9fa24e763d9e8c", "fusion_lat": 0.0, "name": "ba81d2569a1a88344c9fa24e763d9e8c", "is_reserved": 0, "rental_uris": {"android": "https://dc.lft.to/lastmile_qr_scan", "ios": "https://dc.lft.to/lastmile_qr_scan"}, "fusion_lon": 0.0}, {"lat": 38.907328166666666, "is_disabled": 0, "type": "electric_scooter", "lon": -76.99813733333333, "bike_id": "dd3a448de21b19d3afbaf0f5d9e0a598", "fusion_lat": 0.0, "name": "dd3a448de21b19d3afbaf0f5d9e0a598", "is_reserved": 0, "rental_uris": {"android": "https://dc.lft.to/lastmile_qr_scan", "ios": "https://dc.lft.to/lastmile_qr_scan"}, "fusion_lon": 0.0}, {"lat": 38.910145666666665, "is_disabled": 0, "type": "electric_scooter", "lon": -77.08894, "bike_id": "b4f95a9a90f63cd4fbe52f0a61495df5", "fusion_lat": 0.0, "name": "b4f95a9a90f63cd4fbe52f0a61495df5", "is_reserved": 0, "rental_uris": {"android": "https://dc.lft.to/lastmile_qr_scan", "ios": "https://dc.lft.to/lastmile_qr_scan"}, "fusion_lon": 0.0}, {"lat": 38.904892333333336, "is_disabled": 0, "type": "electric_scooter", "lon": -77.057376, "bike_id": "95b52b02e8341487613342c2f5dccca8", "fusion_lat": 0.0, "name": "95b52b02e8341487613342c2f5dccca8", "is_reserved": 0, "rental_uris": {"android": "https://dc.lft.to/lastmile_qr_scan", "ios": "https://dc.lft.to/lastmile_qr_scan"}, "fusion_lon": 0.0}, {"lat": 38.904612, "is_disabled": 0, "type": "electric_scooter", "lon": -77.04909066666667, "bike_id": "80625aee63e1f2575587cc0a7c3d438f", "fusion_lat": 0.0, "name": "80625aee63e1f2575587cc0a7c3d438f", "is_reserved": 0, "rental_uris": {"android": "https://dc.lft.to/lastmile_qr_scan", "ios": "https://dc.lft.to/lastmile_qr_scan"}, "fusion_lon": 0.0}, {"lat": 38.905642666666665, "is_disabled": 0, "type": "electric_scooter", "lon": -77.0362125, "bike_id": "38009601d5f206d5bd873af504280299", "fusion_lat": 0.0, "name": "38009601d5f206d5bd873af504280299", "is_reserved": 0, "rental_uris": {"android": "https://dc.lft.to/lastmile_qr_scan", "ios": "https://dc.lft.to/lastmile_qr_scan"}, "fusion_lon": 0.0}, {"lat": 38.965165166666665, "is_disabled": 0, "type": "electric_bike", "lon": -77.0351655, "bike_id": "d91fc49a2ebc8cf1efee695e8e1ee367", "fusion_lat": 0.0, "name": "d91fc49a2ebc8cf1efee695e8e1ee367", "is_reserved": 0, "rental_uris": {"android": "https://dc.lft.to/lastmile_qr_scan", "ios": "https://dc.lft.to/lastmile_qr_scan"}, "fusion_lon": 0.0}, {"lat": 38.921964, "is_disabled": 0, "type": "electric_scooter", "lon": -77.04251516666666, "bike_id": "2fe14b379220651cd669f8e7482a8b53", "fusion_lat": 0.0, "name": "2fe14b379220651cd669f8e7482a8b53", "is_reserved": 0, "rental_uris": {"android": "https://dc.lft.to/lastmile_qr_scan", "ios": "https://dc.lft.to/lastmile_qr_scan"}, "fusion_lon": 0.0}, {"lat": 38.917483833333335, "is_disabled": 0, "type": "electric_scooter", "lon": -77.02525416666667, "bike_id": "3b8266a9105a0364000b4778c8159c3d", "fusion_lat": 0.0, "name": "3b8266a9105a0364000b4778c8159c3d", "is_reserved": 0, "rental_uris": {"android": "https://dc.lft.to/lastmile_qr_scan", "ios": "https://dc.lft.to/lastmile_qr_scan"}, "fusion_lon": 0.0}, {"lat": 38.92412133333333, "is_disabled": 0, "type": "electric_scooter", "lon": -77.02982266666666, "bike_id": "191dba9db24afd570eb7db154f68b249", "fusion_lat": 0.0, "name": "191dba9db24afd570eb7db154f68b249", "is_reserved": 0, "rental_uris": {"android": "https://dc.lft.to/lastmile_qr_scan", "ios": "https://dc.lft.to/lastmile_qr_scan"}, "fusion_lon": 0.0}, {"lat": 38.896054, "is_disabled": 0, "type": "electric_scooter", "lon": -77.00918716666666, "bike_id": "a57cdf117164895ee13bea8213d3cb92", "fusion_lat": 0.0, "name": "a57cdf117164895ee13bea8213d3cb92", "is_reserved": 0, "rental_uris": {"android": "https://dc.lft.to/lastmile_qr_scan", "ios": "https://dc.lft.to/lastmile_qr_scan"}, "fusion_lon": 0.0}, {"lat": 38.927875, "is_disabled": 0, "type": "electric_scooter", "lon": -77.05264316666667, "bike_id": "ca9fbfc454480de2d583a41cfc81bc7b", "fusion_lat": 0.0, "name": "ca9fbfc454480de2d583a41cfc81bc7b", "is_reserved": 0, "rental_uris": {"android": "https://dc.lft.to/lastmile_qr_scan", "ios": "https://dc.lft.to/lastmile_qr_scan"}, "fusion_lon": 0.0}, {"lat": 38.91000183333333, "is_disabled": 0, "type": "electric_scooter", "lon": -77.0209525, "bike_id": "acff1d25ba8f4f4fe1ddefbbf86471ac", "fusion_lat": 0.0, "name": "acff1d25ba8f4f4fe1ddefbbf86471ac", "is_reserved": 0, "rental_uris": {"android": "https://dc.lft.to/lastmile_qr_scan", "ios": "https://dc.lft.to/lastmile_qr_scan"}, "fusion_lon": 0.0}, {"lat": 38.935730666666664, "is_disabled": 0, "type": "electric_scooter", "lon": -77.03262333333333, "bike_id": "3de16c31618c7d51c13d87f5c96f18ba", "fusion_lat": 0.0, "name": "3de16c31618c7d51c13d87f5c96f18ba", "is_reserved": 0, "rental_uris": {"android": "https://dc.lft.to/lastmile_qr_scan", "ios": "https://dc.lft.to/lastmile_qr_scan"}, "fusion_lon": 0.0}, {"lat": 38.93121283333333, "is_disabled": 0, "type": "electric_scooter", "lon": -77.0302245, "bike_id": "02ed366450578bca3cad4d15255b83d9", "fusion_lat": 0.0, "name": "02ed366450578bca3cad4d15255b83d9", "is_reserved": 0, "rental_uris": {"android": "https://dc.lft.to/lastmile_qr_scan", "ios": "https://dc.lft.to/lastmile_qr_scan"}, "fusion_lon": 0.0}, {"lat": 38.933848166666664, "is_disabled": 0, "type": "electric_scooter", "lon": -76.99512066666666, "bike_id": "72a9ee8e9670c6964cb59adeca34e5b7", "fusion_lat": 0.0, "name": "72a9ee8e9670c6964cb59adeca34e5b7", "is_reserved": 0, "rental_uris": {"android": "https://dc.lft.to/lastmile_qr_scan", "ios": "https://dc.lft.to/lastmile_qr_scan"}, "fusion_lon": 0.0}, {"lat": 38.92166916666667, "is_disabled": 0, "type": "electric_scooter", "lon": -77.0422745, "bike_id": "f052592e8c6edc9614e33e6f191346b3", "fusion_lat": 0.0, "name": "f052592e8c6edc9614e33e6f191346b3", "is_reserved": 0, "rental_uris": {"android": "https://dc.lft.to/lastmile_qr_scan", "ios": "https://dc.lft.to/lastmile_qr_scan"}, "fusion_lon": 0.0}, {"lat": 38.949769, "is_disabled": 0, "type": "electric_scooter", "lon": -77.06758466666666, "bike_id": "0f86a30a26654991fdb856438a6dc341", "fusion_lat": 0.0, "name": "0f86a30a26654991fdb856438a6dc341", "is_reserved": 0, "rental_uris": {"android": "https://dc.lft.to/lastmile_qr_scan", "ios": "https://dc.lft.to/lastmile_qr_scan"}, "fusion_lon": 0.0}, {"lat": 39.03055783333333, "is_disabled": 0, "type": "electric_bike", "lon": -77.09477633333333, "bike_id": "01ee358b617f01fce1879f9e780f3257", "fusion_lat": 0.0, "name": "01ee358b617f01fce1879f9e780f3257", "is_reserved": 0, "rental_uris": {"android": "https://dc.lft.to/lastmile_qr_scan", "ios": "https://dc.lft.to/lastmile_qr_scan"}, "fusion_lon": 0.0}, {"lat": 39.024303333333336, "is_disabled": 0, "type": "electric_bike", "lon": -77.13098483333333, "bike_id": "a4e94226c1eff0fb5a3773c32153d6ef", "fusion_lat": 0.0, "name": "a4e94226c1eff0fb5a3773c32153d6ef", "is_reserved": 0, "rental_uris": {"android": "https://dc.lft.to/lastmile_qr_scan", "ios": "https://dc.lft.to/lastmile_qr_scan"}, "fusion_lon": 0.0}, {"lat": 38.9171205, "is_disabled": 0, "type": "electric_scooter", "lon": -77.02501683333334, "bike_id": "075f11def8bdc9448419efaa381fabc6", "fusion_lat": 0.0, "name": "075f11def8bdc9448419efaa381fabc6", "is_reserved": 0, "rental_uris": {"android": "https://dc.lft.to/lastmile_qr_scan", "ios": "https://dc.lft.to/lastmile_qr_scan"}, "fusion_lon": 0.0}, {"lat": 38.95162333333333, "is_disabled": 0, "type": "electric_scooter", "lon": -77.06767883333333, "bike_id": "b2e10c3ce7c0ebca81e81729e857b17e", "fusion_lat": 0.0, "name": "b2e10c3ce7c0ebca81e81729e857b17e", "is_reserved": 0, "rental_uris": {"android": "https://dc.lft.to/lastmile_qr_scan", "ios": "https://dc.lft.to/lastmile_qr_scan"}, "fusion_lon": 0.0}, {"lat": 38.909783, "is_disabled": 0, "type": "electric_scooter", "lon": -77.02177716666667, "bike_id": "ad99f90c1d7608243de313665782e720", "fusion_lat": 0.0, "name": "ad99f90c1d7608243de313665782e720", "is_reserved": 0, "rental_uris": {"android": "https://dc.lft.to/lastmile_qr_scan", "ios": "https://dc.lft.to/lastmile_qr_scan"}, "fusion_lon": 0.0}, {"lat": 38.916862333333334, "is_disabled": 0, "type": "electric_scooter", "lon": -77.026955, "bike_id": "492bd565d47349bb709982c9c545d46f", "fusion_lat": 0.0, "name": "492bd565d47349bb709982c9c545d46f", "is_reserved": 0, "rental_uris": {"android": "https://dc.lft.to/lastmile_qr_scan", "ios": "https://dc.lft.to/lastmile_qr_scan"}, "fusion_lon": 0.0}, {"lat": 38.99825883333333, "is_disabled": 0, "type": "electric_bike", "lon": -76.88375616666667, "bike_id": "35f361f0c59dcaaab9d18df0ccb8e157", "fusion_lat": 0.0, "name": "35f361f0c59dcaaab9d18df0ccb8e157", "is_reserved": 0, "rental_uris": {"android": "https://dc.lft.to/lastmile_qr_scan", "ios": "https://dc.lft.to/lastmile_qr_scan"}, "fusion_lon": 0.0}, {"lat": 38.901434, "is_disabled": 0, "type": "electric_scooter", "lon": -77.02891816666667, "bike_id": "15c7986ea835f219f2d4d7003b9ab64e", "fusion_lat": 0.0, "name": "15c7986ea835f219f2d4d7003b9ab64e", "is_reserved": 0, "rental_uris": {"android": "https://dc.lft.to/lastmile_qr_scan", "ios": "https://dc.lft.to/lastmile_qr_scan"}, "fusion_lon": 0.0}, {"lat": 38.925679, "is_disabled": 0, "type": "electric_scooter", "lon": -77.03540233333334, "bike_id": "6760c81fb8f8a542088fb544b6efe4f5", "fusion_lat": 0.0, "name": "6760c81fb8f8a542088fb544b6efe4f5", "is_reserved": 0, "rental_uris": {"android": "https://dc.lft.to/lastmile_qr_scan", "ios": "https://dc.lft.to/lastmile_qr_scan"}, "fusion_lon": 0.0}, {"lat": 38.906511333333334, "is_disabled": 0, "type": "electric_scooter", "lon": -77.0415245, "bike_id": "ce96085af68c35ad0f616f918c6cc35f", "fusion_lat": 0.0, "name": "ce96085af68c35ad0f616f918c6cc35f", "is_reserved": 0, "rental_uris": {"android": "https://dc.lft.to/lastmile_qr_scan", "ios": "https://dc.lft.to/lastmile_qr_scan"}, "fusion_lon": 0.0}, {"lat": 38.903565666666665, "is_disabled": 0, "type": "electric_scooter", "lon": -77.05340483333333, "bike_id": "276cbf92d5723980572c84041184296a", "fusion_lat": 0.0, "name": "276cbf92d5723980572c84041184296a", "is_reserved": 0, "rental_uris": {"android": "https://dc.lft.to/lastmile_qr_scan", "ios": "https://dc.lft.to/lastmile_qr_scan"}, "fusion_lon": 0.0}, {"lat": 38.88065733333333, "is_disabled": 0, "type": "electric_bike", "lon": -77.10956166666666, "bike_id": "0ee41e0e749681f3fb35aaa6dad458f9", "fusion_lat": 0.0, "name": "0ee41e0e749681f3fb35aaa6dad458f9", "is_reserved": 0, "rental_uris": {"android": "https://dc.lft.to/lastmile_qr_scan", "ios": "https://dc.lft.to/lastmile_qr_scan"}, "fusion_lon": 0.0}, {"lat": 38.90816916666667, "is_disabled": 0, "type": "electric_scooter", "lon": -76.98278316666666, "bike_id": "bf7be20eb16f5d0ebaf67f634e572670", "fusion_lat": 0.0, "name": "bf7be20eb16f5d0ebaf67f634e572670", "is_reserved": 0, "rental_uris": {"android": "https://dc.lft.to/lastmile_qr_scan", "ios": "https://dc.lft.to/lastmile_qr_scan"}, "fusion_lon": 0.0}, {"lat": 38.9056725, "is_disabled": 0, "type": "electric_scooter", "lon": -77.0338645, "bike_id": "71617da7aee2524aba11d20cb7d4e245", "fusion_lat": 0.0, "name": "71617da7aee2524aba11d20cb7d4e245", "is_reserved": 0, "rental_uris": {"android": "https://dc.lft.to/lastmile_qr_scan", "ios": "https://dc.lft.to/lastmile_qr_scan"}, "fusion_lon": 0.0}, {"lat": 38.89465083333333, "is_disabled": 0, "type": "electric_scooter", "lon": -77.02114983333334, "bike_id": "1e2836f4ef2867cba1d0603af4a36db2", "fusion_lat": 0.0, "name": "1e2836f4ef2867cba1d0603af4a36db2", "is_reserved": 0, "rental_uris": {"android": "https://dc.lft.to/lastmile_qr_scan", "ios": "https://dc.lft.to/lastmile_qr_scan"}, "fusion_lon": 0.0}, {"lat": 38.89347983333333, "is_disabled": 0, "type": "electric_scooter", "lon": -76.9492855, "bike_id": "18089f083301db4181ff87573e01d2eb", "fusion_lat": 0.0, "name": "18089f083301db4181ff87573e01d2eb", "is_reserved": 0, "rental_uris": {"android": "https://dc.lft.to/lastmile_qr_scan", "ios": "https://dc.lft.to/lastmile_qr_scan"}, "fusion_lon": 0.0}, {"lat": 38.903512166666665, "is_disabled": 0, "type": "electric_scooter", "lon": -77.04258466666667, "bike_id": "f67b7cc433b4b650ab133953609eba58", "fusion_lat": 0.0, "name": "f67b7cc433b4b650ab133953609eba58", "is_reserved": 0, "rental_uris": {"android": "https://dc.lft.to/lastmile_qr_scan", "ios": "https://dc.lft.to/lastmile_qr_scan"}, "fusion_lon": 0.0}, {"lat": 38.92333, "is_disabled": 0, "type": "electric_scooter", "lon": -77.04174383333333, "bike_id": "2bcfbd3ff0f976b131aa79907b17299f", "fusion_lat": 0.0, "name": "2bcfbd3ff0f976b131aa79907b17299f", "is_reserved": 0, "rental_uris": {"android": "https://dc.lft.to/lastmile_qr_scan", "ios": "https://dc.lft.to/lastmile_qr_scan"}, "fusion_lon": 0.0}, {"lat": 38.902738, "is_disabled": 0, "type": "electric_scooter", "lon": -77.03935283333334, "bike_id": "76d590ec0954f4c29c64c67c922ee521", "fusion_lat": 0.0, "name": "76d590ec0954f4c29c64c67c922ee521", "is_reserved": 0, "rental_uris": {"android": "https://dc.lft.to/lastmile_qr_scan", "ios": "https://dc.lft.to/lastmile_qr_scan"}, "fusion_lon": 0.0}, {"lat": 38.97197833333333, "is_disabled": 0, "type": "electric_bike", "lon": -77.02715716666667, "bike_id": "5c33c56e83d1e5a5a9c7b19e23e8fe62", "fusion_lat": 0.0, "name": "5c33c56e83d1e5a5a9c7b19e23e8fe62", "is_reserved": 0, "rental_uris": {"android": "https://dc.lft.to/lastmile_qr_scan", "ios": "https://dc.lft.to/lastmile_qr_scan"}, "fusion_lon": 0.0}, {"lat": 38.90983633333333, "is_disabled": 0, "type": "electric_bike", "lon": -76.985138, "bike_id": "760080a782121dae1a35530caaf2cb7a", "fusion_lat": 0.0, "name": "760080a782121dae1a35530caaf2cb7a", "is_reserved": 0, "rental_uris": {"android": "https://dc.lft.to/lastmile_qr_scan", "ios": "https://dc.lft.to/lastmile_qr_scan"}, "fusion_lon": 0.0}, {"lat": 38.908012666666664, "is_disabled": 0, "type": "electric_scooter", "lon": -77.04331583333334, "bike_id": "c85e0af2a41c7ce24bf39290b423a667", "fusion_lat": 0.0, "name": "c85e0af2a41c7ce24bf39290b423a667", "is_reserved": 0, "rental_uris": {"android": "https://dc.lft.to/lastmile_qr_scan", "ios": "https://dc.lft.to/lastmile_qr_scan"}, "fusion_lon": 0.0}, {"lat": 38.901016166666665, "is_disabled": 0, "type": "electric_scooter", "lon": -77.049605, "bike_id": "a28c727871c32aab2ab1caeb5ba02a32", "fusion_lat": 0.0, "name": "a28c727871c32aab2ab1caeb5ba02a32", "is_reserved": 0, "rental_uris": {"android": "https://dc.lft.to/lastmile_qr_scan", "ios": "https://dc.lft.to/lastmile_qr_scan"}, "fusion_lon": 0.0}, {"lat": 38.90273783333333, "is_disabled": 0, "type": "electric_scooter", "lon": -77.03936616666667, "bike_id": "0768d3a620723892a9805a3f42c4670a", "fusion_lat": 0.0, "name": "0768d3a620723892a9805a3f42c4670a", "is_reserved": 0, "rental_uris": {"android": "https://dc.lft.to/lastmile_qr_scan", "ios": "https://dc.lft.to/lastmile_qr_scan"}, "fusion_lon": 0.0}, {"lat": 38.91446466666667, "is_disabled": 0, "type": "electric_scooter", "lon": -77.0228805, "bike_id": "553ce407794bd4faee92b2fcefdab1e9", "fusion_lat": 0.0, "name": "553ce407794bd4faee92b2fcefdab1e9", "is_reserved": 0, "rental_uris": {"android": "https://dc.lft.to/lastmile_qr_scan", "ios": "https://dc.lft.to/lastmile_qr_scan"}, "fusion_lon": 0.0}, {"lat": 38.916255, "is_disabled": 0, "type": "electric_scooter", "lon": -77.04294783333333, "bike_id": "e4b4077b665abf13f594fab06169ae43", "fusion_lat": 0.0, "name": "e4b4077b665abf13f594fab06169ae43", "is_reserved": 0, "rental_uris": {"android": "https://dc.lft.to/lastmile_qr_scan", "ios": "https://dc.lft.to/lastmile_qr_scan"}, "fusion_lon": 0.0}, {"lat": 38.90139883333333, "is_disabled": 0, "type": "electric_scooter", "lon": -77.01784083333334, "bike_id": "8bab7ecdf74c510a97ecd29b357db61a", "fusion_lat": 0.0, "name": "8bab7ecdf74c510a97ecd29b357db61a", "is_reserved": 0, "rental_uris": {"android": "https://dc.lft.to/lastmile_qr_scan", "ios": "https://dc.lft.to/lastmile_qr_scan"}, "fusion_lon": 0.0}, {"lat": 38.925713, "is_disabled": 0, "type": "electric_scooter", "lon": -77.057474, "bike_id": "ff0d6e7f384c317dce4c9cb5647bc5ed", "fusion_lat": 0.0, "name": "ff0d6e7f384c317dce4c9cb5647bc5ed", "is_reserved": 0, "rental_uris": {"android": "https://dc.lft.to/lastmile_qr_scan", "ios": "https://dc.lft.to/lastmile_qr_scan"}, "fusion_lon": 0.0}, {"lat": 38.90371066666667, "is_disabled": 0, "type": "electric_scooter", "lon": -77.03081483333334, "bike_id": "ff090f88f71427a3971b178c95417bb8", "fusion_lat": 0.0, "name": "ff090f88f71427a3971b178c95417bb8", "is_reserved": 0, "rental_uris": {"android": "https://dc.lft.to/lastmile_qr_scan", "ios": "https://dc.lft.to/lastmile_qr_scan"}, "fusion_lon": 0.0}, {"lat": 38.84279433333333, "is_disabled": 0, "type": "electric_bike", "lon": -76.988426, "bike_id": "3048ea16343864799da4dd31ab5aaffd", "fusion_lat": 0.0, "name": "3048ea16343864799da4dd31ab5aaffd", "is_reserved": 0, "rental_uris": {"android": "https://dc.lft.to/lastmile_qr_scan", "ios": "https://dc.lft.to/lastmile_qr_scan"}, "fusion_lon": 0.0}, {"lat": 38.901610833333336, "is_disabled": 0, "type": "electric_scooter", "lon": -76.98636716666667, "bike_id": "de667a475e8ba657e72028746991693c", "fusion_lat": 0.0, "name": "de667a475e8ba657e72028746991693c", "is_reserved": 0, "rental_uris": {"android": "https://dc.lft.to/lastmile_qr_scan", "ios": "https://dc.lft.to/lastmile_qr_scan"}, "fusion_lon": 0.0}, {"lat": 38.92754466666667, "is_disabled": 0, "type": "electric_scooter", "lon": -76.9970905, "bike_id": "58844cf1ea889560d9908055f79c07ba", "fusion_lat": 0.0, "name": "58844cf1ea889560d9908055f79c07ba", "is_reserved": 0, "rental_uris": {"android": "https://dc.lft.to/lastmile_qr_scan", "ios": "https://dc.lft.to/lastmile_qr_scan"}, "fusion_lon": 0.0}, {"lat": 38.95634483333333, "is_disabled": 0, "type": "electric_bike", "lon": -76.93876583333333, "bike_id": "b3fa850e365d3a3a9cf93dc1569a2703", "fusion_lat": 0.0, "name": "b3fa850e365d3a3a9cf93dc1569a2703", "is_reserved": 0, "rental_uris": {"android": "https://dc.lft.to/lastmile_qr_scan", "ios": "https://dc.lft.to/lastmile_qr_scan"}, "fusion_lon": 0.0}, {"lat": 38.89777733333333, "is_disabled": 0, "type": "electric_bike", "lon": -76.90441333333334, "bike_id": "7e8036b10b88ab89b3a806d381ae7f1d", "fusion_lat": 0.0, "name": "7e8036b10b88ab89b3a806d381ae7f1d", "is_reserved": 0, "rental_uris": {"android": "https://dc.lft.to/lastmile_qr_scan", "ios": "https://dc.lft.to/lastmile_qr_scan"}, "fusion_lon": 0.0}, {"lat": 38.888651, "is_disabled": 0, "type": "electric_scooter", "lon": -76.98014816666667, "bike_id": "691422b0c115e7e70f488d155f31abc4", "fusion_lat": 0.0, "name": "691422b0c115e7e70f488d155f31abc4", "is_reserved": 0, "rental_uris": {"android": "https://dc.lft.to/lastmile_qr_scan", "ios": "https://dc.lft.to/lastmile_qr_scan"}, "fusion_lon": 0.0}, {"lat": 38.923161666666665, "is_disabled": 0, "type": "electric_scooter", "lon": -77.035317, "bike_id": "829a8b3dec4c07cb6d5a6a2ff00ab45f", "fusion_lat": 0.0, "name": "829a8b3dec4c07cb6d5a6a2ff00ab45f", "is_reserved": 0, "rental_uris": {"android": "https://dc.lft.to/lastmile_qr_scan", "ios": "https://dc.lft.to/lastmile_qr_scan"}, "fusion_lon": 0.0}, {"lat": 38.901418, "is_disabled": 0, "type": "electric_scooter", "lon": -77.0329265, "bike_id": "ef7a33707456b76d4fc389abb62023cc", "fusion_lat": 0.0, "name": "ef7a33707456b76d4fc389abb62023cc", "is_reserved": 0, "rental_uris": {"android": "https://dc.lft.to/lastmile_qr_scan", "ios": "https://dc.lft.to/lastmile_qr_scan"}, "fusion_lon": 0.0}, {"lat": 38.923706833333334, "is_disabled": 0, "type": "electric_scooter", "lon": -77.029113, "bike_id": "c407a62a4bbdf7fbfe33e15397344e19", "fusion_lat": 0.0, "name": "c407a62a4bbdf7fbfe33e15397344e19", "is_reserved": 0, "rental_uris": {"android": "https://dc.lft.to/lastmile_qr_scan", "ios": "https://dc.lft.to/lastmile_qr_scan"}, "fusion_lon": 0.0}, {"lat": 38.994624, "is_disabled": 0, "type": "electric_bike", "lon": -77.03185433333333, "bike_id": "1f9530b9920c3d8734b79a871aa5b3c0", "fusion_lat": 0.0, "name": "1f9530b9920c3d8734b79a871aa5b3c0", "is_reserved": 0, "rental_uris": {"android": "https://dc.lft.to/lastmile_qr_scan", "ios": "https://dc.lft.to/lastmile_qr_scan"}, "fusion_lon": 0.0}, {"lat": 38.87782833333333, "is_disabled": 0, "type": "electric_scooter", "lon": -76.9950645, "bike_id": "fe60c43b5c8f408705d9e51c65a1f133", "fusion_lat": 0.0, "name": "fe60c43b5c8f408705d9e51c65a1f133", "is_reserved": 0, "rental_uris": {"android": "https://dc.lft.to/lastmile_qr_scan", "ios": "https://dc.lft.to/lastmile_qr_scan"}, "fusion_lon": 0.0}, {"lat": 38.89735116666667, "is_disabled": 0, "type": "electric_scooter", "lon": -77.04990233333334, "bike_id": "92d6650356a38b97158049237496b2c7", "fusion_lat": 0.0, "name": "92d6650356a38b97158049237496b2c7", "is_reserved": 0, "rental_uris": {"android": "https://dc.lft.to/lastmile_qr_scan", "ios": "https://dc.lft.to/lastmile_qr_scan"}, "fusion_lon": 0.0}, {"lat": 38.90159833333333, "is_disabled": 0, "type": "electric_scooter", "lon": -76.98030566666667, "bike_id": "28381feb26052e1da120238b58a9619b", "fusion_lat": 0.0, "name": "28381feb26052e1da120238b58a9619b", "is_reserved": 0, "rental_uris": {"android": "https://dc.lft.to/lastmile_qr_scan", "ios": "https://dc.lft.to/lastmile_qr_scan"}, "fusion_lon": 0.0}, {"lat": 38.88493583333333, "is_disabled": 0, "type": "electric_scooter", "lon": -77.00707783333333, "bike_id": "1dbf97c2b3d810039c69b980a37a6bcb", "fusion_lat": 0.0, "name": "1dbf97c2b3d810039c69b980a37a6bcb", "is_reserved": 0, "rental_uris": {"android": "https://dc.lft.to/lastmile_qr_scan", "ios": "https://dc.lft.to/lastmile_qr_scan"}, "fusion_lon": 0.0}, {"lat": 38.9001825, "is_disabled": 0, "type": "electric_scooter", "lon": -77.01199683333333, "bike_id": "bde7c25894e7fc5d6bda1ae5b939bff1", "fusion_lat": 0.0, "name": "bde7c25894e7fc5d6bda1ae5b939bff1", "is_reserved": 0, "rental_uris": {"android": "https://dc.lft.to/lastmile_qr_scan", "ios": "https://dc.lft.to/lastmile_qr_scan"}, "fusion_lon": 0.0}, {"lat": 38.91660683333333, "is_disabled": 0, "type": "electric_scooter", "lon": -77.04760266666666, "bike_id": "c43dfac32df34076add7b6eb758f1d87", "fusion_lat": 0.0, "name": "c43dfac32df34076add7b6eb758f1d87", "is_reserved": 0, "rental_uris": {"android": "https://dc.lft.to/lastmile_qr_scan", "ios": "https://dc.lft.to/lastmile_qr_scan"}, "fusion_lon": 0.0}, {"lat": 38.92577583333333, "is_disabled": 0, "type": "electric_scooter", "lon": -76.98606566666666, "bike_id": "7846a20a83e744c9e2de28b96d0d4e70", "fusion_lat": 0.0, "name": "7846a20a83e744c9e2de28b96d0d4e70", "is_reserved": 0, "rental_uris": {"android": "https://dc.lft.to/lastmile_qr_scan", "ios": "https://dc.lft.to/lastmile_qr_scan"}, "fusion_lon": 0.0}, {"lat": 38.842913, "is_disabled": 0, "type": "electric_scooter", "lon": -76.99949, "bike_id": "2b9ff9f28252ddfcb77d232818eb3d75", "fusion_lat": 0.0, "name": "2b9ff9f28252ddfcb77d232818eb3d75", "is_reserved": 0, "rental_uris": {"android": "https://dc.lft.to/lastmile_qr_scan", "ios": "https://dc.lft.to/lastmile_qr_scan"}, "fusion_lon": 0.0}, {"lat": 38.885501833333336, "is_disabled": 0, "type": "electric_bike", "lon": -77.11786983333333, "bike_id": "14ccdf7be376f33999d98b787bc99e37", "fusion_lat": 0.0, "name": "14ccdf7be376f33999d98b787bc99e37", "is_reserved": 0, "rental_uris": {"android": "https://dc.lft.to/lastmile_qr_scan", "ios": "https://dc.lft.to/lastmile_qr_scan"}, "fusion_lon": 0.0}, {"lat": 38.902766, "is_disabled": 0, "type": "electric_scooter", "lon": -77.01543166666667, "bike_id": "f37b94afce635b51a5683fc24e4c0d0a", "fusion_lat": 0.0, "name": "f37b94afce635b51a5683fc24e4c0d0a", "is_reserved": 0, "rental_uris": {"android": "https://dc.lft.to/lastmile_qr_scan", "ios": "https://dc.lft.to/lastmile_qr_scan"}, "fusion_lon": 0.0}, {"lat": 38.89993333333334, "is_disabled": 0, "type": "electric_scooter", "lon": -77.04227533333334, "bike_id": "f1eeacc17d78ab511b0a9724524cca4e", "fusion_lat": 0.0, "name": "f1eeacc17d78ab511b0a9724524cca4e", "is_reserved": 0, "rental_uris": {"android": "https://dc.lft.to/lastmile_qr_scan", "ios": "https://dc.lft.to/lastmile_qr_scan"}, "fusion_lon": 0.0}, {"lat": 38.93436666666667, "is_disabled": 0, "type": "electric_scooter", "lon": -76.96514433333333, "bike_id": "b17a3c89625733097e866510c9bf1d55", "fusion_lat": 0.0, "name": "b17a3c89625733097e866510c9bf1d55", "is_reserved": 0, "rental_uris": {"android": "https://dc.lft.to/lastmile_qr_scan", "ios": "https://dc.lft.to/lastmile_qr_scan"}, "fusion_lon": 0.0}, {"lat": 38.9482455, "is_disabled": 0, "type": "electric_scooter", "lon": -76.999028, "bike_id": "b05c0eef97b54508b7aae4be2473ac7d", "fusion_lat": 0.0, "name": "b05c0eef97b54508b7aae4be2473ac7d", "is_reserved": 0, "rental_uris": {"android": "https://dc.lft.to/lastmile_qr_scan", "ios": "https://dc.lft.to/lastmile_qr_scan"}, "fusion_lon": 0.0}, {"lat": 38.886773833333336, "is_disabled": 0, "type": "electric_bike", "lon": -77.16249566666667, "bike_id": "4d6570a620d9a08f6001f2b022bc90d9", "fusion_lat": 0.0, "name": "4d6570a620d9a08f6001f2b022bc90d9", "is_reserved": 0, "rental_uris": {"android": "https://dc.lft.to/lastmile_qr_scan", "ios": "https://dc.lft.to/lastmile_qr_scan"}, "fusion_lon": 0.0}, {"lat": 38.9064275, "is_disabled": 0, "type": "electric_scooter", "lon": -77.00826, "bike_id": "cb0d976bdae24ad7c2ab282008f35aec", "fusion_lat": 0.0, "name": "cb0d976bdae24ad7c2ab282008f35aec", "is_reserved": 0, "rental_uris": {"android": "https://dc.lft.to/lastmile_qr_scan", "ios": "https://dc.lft.to/lastmile_qr_scan"}, "fusion_lon": 0.0}, {"lat": 38.93382883333334, "is_disabled": 0, "type": "electric_scooter", "lon": -77.03544833333333, "bike_id": "097f7c3b3f34cd7980c92268506371ac", "fusion_lat": 0.0, "name": "097f7c3b3f34cd7980c92268506371ac", "is_reserved": 0, "rental_uris": {"android": "https://dc.lft.to/lastmile_qr_scan", "ios": "https://dc.lft.to/lastmile_qr_scan"}, "fusion_lon": 0.0}, {"lat": 38.8845125, "is_disabled": 0, "type": "electric_scooter", "lon": -76.92951766666667, "bike_id": "49cc0e35c26a0790e23ae3f28ff1a10f", "fusion_lat": 0.0, "name": "49cc0e35c26a0790e23ae3f28ff1a10f", "is_reserved": 0, "rental_uris": {"android": "https://dc.lft.to/lastmile_qr_scan", "ios": "https://dc.lft.to/lastmile_qr_scan"}, "fusion_lon": 0.0}, {"lat": 38.915389166666664, "is_disabled": 0, "type": "electric_scooter", "lon": -77.03204, "bike_id": "125cebeb934d10adc3a7d5e04545109c", "fusion_lat": 0.0, "name": "125cebeb934d10adc3a7d5e04545109c", "is_reserved": 0, "rental_uris": {"android": "https://dc.lft.to/lastmile_qr_scan", "ios": "https://dc.lft.to/lastmile_qr_scan"}, "fusion_lon": 0.0}, {"lat": 38.886025, "is_disabled": 0, "type": "electric_scooter", "lon": -77.018931, "bike_id": "161d063e1b2cde14c708b474e6a8904b", "fusion_lat": 0.0, "name": "161d063e1b2cde14c708b474e6a8904b", "is_reserved": 0, "rental_uris": {"android": "https://dc.lft.to/lastmile_qr_scan", "ios": "https://dc.lft.to/lastmile_qr_scan"}, "fusion_lon": 0.0}, {"lat": 38.91556833333333, "is_disabled": 0, "type": "electric_scooter", "lon": -77.032094, "bike_id": "934cb80ef0b2d6ad1293d0b00930ff37", "fusion_lat": 0.0, "name": "934cb80ef0b2d6ad1293d0b00930ff37", "is_reserved": 0, "rental_uris": {"android": "https://dc.lft.to/lastmile_qr_scan", "ios": "https://dc.lft.to/lastmile_qr_scan"}, "fusion_lon": 0.0}, {"lat": 38.919635, "is_disabled": 0, "type": "electric_scooter", "lon": -77.014391, "bike_id": "d260034a005d245423bbeb9009afe9ce", "fusion_lat": 0.0, "name": "d260034a005d245423bbeb9009afe9ce", "is_reserved": 0, "rental_uris": {"android": "https://dc.lft.to/lastmile_qr_scan", "ios": "https://dc.lft.to/lastmile_qr_scan"}, "fusion_lon": 0.0}, {"lat": 38.95706716666667, "is_disabled": 0, "type": "electric_scooter", "lon": -77.02397583333334, "bike_id": "5f7ac7d3c7cc9073ac9f83dd757611eb", "fusion_lat": 0.0, "name": "5f7ac7d3c7cc9073ac9f83dd757611eb", "is_reserved": 0, "rental_uris": {"android": "https://dc.lft.to/lastmile_qr_scan", "ios": "https://dc.lft.to/lastmile_qr_scan"}, "fusion_lon": 0.0}, {"lat": 38.91185333333333, "is_disabled": 0, "type": "electric_scooter", "lon": -77.032149, "bike_id": "f4fa4563862c51c4b02456e3730bf640", "fusion_lat": 0.0, "name": "f4fa4563862c51c4b02456e3730bf640", "is_reserved": 0, "rental_uris": {"android": "https://dc.lft.to/lastmile_qr_scan", "ios": "https://dc.lft.to/lastmile_qr_scan"}, "fusion_lon": 0.0}, {"lat": 38.91686883333333, "is_disabled": 0, "type": "electric_scooter", "lon": -77.03202716666667, "bike_id": "94ca63a510bda92a05781755f189ca6e", "fusion_lat": 0.0, "name": "94ca63a510bda92a05781755f189ca6e", "is_reserved": 0, "rental_uris": {"android": "https://dc.lft.to/lastmile_qr_scan", "ios": "https://dc.lft.to/lastmile_qr_scan"}, "fusion_lon": 0.0}, {"lat": 38.90258216666667, "is_disabled": 0, "type": "electric_scooter", "lon": -77.01918466666666, "bike_id": "648d98952ccf966dbe0423a6c86841f4", "fusion_lat": 0.0, "name": "648d98952ccf966dbe0423a6c86841f4", "is_reserved": 0, "rental_uris": {"android": "https://dc.lft.to/lastmile_qr_scan", "ios": "https://dc.lft.to/lastmile_qr_scan"}, "fusion_lon": 0.0}, {"lat": 38.891249, "is_disabled": 0, "type": "electric_scooter", "lon": -76.94090066666666, "bike_id": "03928494955f8b2b921ebc349e43a2a9", "fusion_lat": 0.0, "name": "03928494955f8b2b921ebc349e43a2a9", "is_reserved": 0, "rental_uris": {"android": "https://dc.lft.to/lastmile_qr_scan", "ios": "https://dc.lft.to/lastmile_qr_scan"}, "fusion_lon": 0.0}, {"lat": 38.93555383333333, "is_disabled": 0, "type": "electric_scooter", "lon": -77.05865516666667, "bike_id": "bf097b5478e229a721e5f04e70667d9a", "fusion_lat": 0.0, "name": "bf097b5478e229a721e5f04e70667d9a", "is_reserved": 0, "rental_uris": {"android": "https://dc.lft.to/lastmile_qr_scan", "ios": "https://dc.lft.to/lastmile_qr_scan"}, "fusion_lon": 0.0}, {"lat": 38.905358, "is_disabled": 0, "type": "electric_scooter", "lon": -77.02725233333334, "bike_id": "8a1168b92f623d0599705323c1b34783", "fusion_lat": 0.0, "name": "8a1168b92f623d0599705323c1b34783", "is_reserved": 0, "rental_uris": {"android": "https://dc.lft.to/lastmile_qr_scan", "ios": "https://dc.lft.to/lastmile_qr_scan"}, "fusion_lon": 0.0}, {"lat": 38.960986, "is_disabled": 0, "type": "electric_scooter", "lon": -77.08286333333334, "bike_id": "0712bf843295f02d94195e5d9f55b4e3", "fusion_lat": 0.0, "name": "0712bf843295f02d94195e5d9f55b4e3", "is_reserved": 0, "rental_uris": {"android": "https://dc.lft.to/lastmile_qr_scan", "ios": "https://dc.lft.to/lastmile_qr_scan"}, "fusion_lon": 0.0}, {"lat": 39.01596983333334, "is_disabled": 0, "type": "electric_bike", "lon": -77.04428966666667, "bike_id": "875f7e62e08a39eea8ac50d6e8ce79d0", "fusion_lat": 0.0, "name": "875f7e62e08a39eea8ac50d6e8ce79d0", "is_reserved": 0, "rental_uris": {"android": "https://dc.lft.to/lastmile_qr_scan", "ios": "https://dc.lft.to/lastmile_qr_scan"}, "fusion_lon": 0.0}, {"lat": 38.90008066666667, "is_disabled": 0, "type": "electric_scooter", "lon": -76.99851233333334, "bike_id": "bf2cd76107b27244c4484ccea8fa1f62", "fusion_lat": 0.0, "name": "bf2cd76107b27244c4484ccea8fa1f62", "is_reserved": 0, "rental_uris": {"android": "https://dc.lft.to/lastmile_qr_scan", "ios": "https://dc.lft.to/lastmile_qr_scan"}, "fusion_lon": 0.0}, {"lat": 38.944443166666666, "is_disabled": 0, "type": "electric_scooter", "lon": -77.0150345, "bike_id": "ce5671b61ce28c8bee6d8822a3018b60", "fusion_lat": 0.0, "name": "ce5671b61ce28c8bee6d8822a3018b60", "is_reserved": 0, "rental_uris": {"android": "https://dc.lft.to/lastmile_qr_scan", "ios": "https://dc.lft.to/lastmile_qr_scan"}, "fusion_lon": 0.0}, {"lat": 38.85518833333333, "is_disabled": 0, "type": "electric_bike", "lon": -77.120066, "bike_id": "f1abc14c3ba335d49b533dfd580ea7f7", "fusion_lat": 0.0, "name": "f1abc14c3ba335d49b533dfd580ea7f7", "is_reserved": 0, "rental_uris": {"android": "https://dc.lft.to/lastmile_qr_scan", "ios": "https://dc.lft.to/lastmile_qr_scan"}, "fusion_lon": 0.0}, {"lat": 38.900843333333334, "is_disabled": 0, "type": "electric_scooter", "lon": -77.0250655, "bike_id": "ee8cc91c6eb8104ca6c6ba3d67dc7850", "fusion_lat": 0.0, "name": "ee8cc91c6eb8104ca6c6ba3d67dc7850", "is_reserved": 0, "rental_uris": {"android": "https://dc.lft.to/lastmile_qr_scan", "ios": "https://dc.lft.to/lastmile_qr_scan"}, "fusion_lon": 0.0}, {"lat": 38.93192783333333, "is_disabled": 0, "type": "electric_scooter", "lon": -77.03656633333334, "bike_id": "e2aac6403352b424da3beebb199c4f8a", "fusion_lat": 0.0, "name": "e2aac6403352b424da3beebb199c4f8a", "is_reserved": 0, "rental_uris": {"android": "https://dc.lft.to/lastmile_qr_scan", "ios": "https://dc.lft.to/lastmile_qr_scan"}, "fusion_lon": 0.0}, {"lat": 38.897996666666664, "is_disabled": 0, "type": "electric_scooter", "lon": -77.01616966666667, "bike_id": "a49099386a794e6f4e3571749e9de6c3", "fusion_lat": 0.0, "name": "a49099386a794e6f4e3571749e9de6c3", "is_reserved": 0, "rental_uris": {"android": "https://dc.lft.to/lastmile_qr_scan", "ios": "https://dc.lft.to/lastmile_qr_scan"}, "fusion_lon": 0.0}, {"lat": 38.91482033333333, "is_disabled": 0, "type": "electric_scooter", "lon": -77.03206433333334, "bike_id": "dc47d6373827f697def30c827bf0f26e", "fusion_lat": 0.0, "name": "dc47d6373827f697def30c827bf0f26e", "is_reserved": 0, "rental_uris": {"android": "https://dc.lft.to/lastmile_qr_scan", "ios": "https://dc.lft.to/lastmile_qr_scan"}, "fusion_lon": 0.0}, {"lat": 38.85193533333333, "is_disabled": 0, "type": "electric_bike", "lon": -76.96105266666666, "bike_id": "87fd8fabcec61dbb018feb9f017c0b21", "fusion_lat": 0.0, "name": "87fd8fabcec61dbb018feb9f017c0b21", "is_reserved": 0, "rental_uris": {"android": "https://dc.lft.to/lastmile_qr_scan", "ios": "https://dc.lft.to/lastmile_qr_scan"}, "fusion_lon": 0.0}, {"lat": 38.91882733333333, "is_disabled": 0, "type": "electric_scooter", "lon": -77.03486633333333, "bike_id": "aaa6d3e590aa4b1c624cc62d49899f71", "fusion_lat": 0.0, "name": "aaa6d3e590aa4b1c624cc62d49899f71", "is_reserved": 0, "rental_uris": {"android": "https://dc.lft.to/lastmile_qr_scan", "ios": "https://dc.lft.to/lastmile_qr_scan"}, "fusion_lon": 0.0}, {"lat": 38.91110366666667, "is_disabled": 0, "type": "electric_scooter", "lon": -77.03711583333333, "bike_id": "a5d3ca36d30ec8f527fb346719b54078", "fusion_lat": 0.0, "name": "a5d3ca36d30ec8f527fb346719b54078", "is_reserved": 0, "rental_uris": {"android": "https://dc.lft.to/lastmile_qr_scan", "ios": "https://dc.lft.to/lastmile_qr_scan"}, "fusion_lon": 0.0}, {"lat": 38.99011083333333, "is_disabled": 0, "type": "electric_bike", "lon": -77.00442866666667, "bike_id": "48d396f6bcf35986f8fa67dff949c470", "fusion_lat": 0.0, "name": "48d396f6bcf35986f8fa67dff949c470", "is_reserved": 0, "rental_uris": {"android": "https://dc.lft.to/lastmile_qr_scan", "ios": "https://dc.lft.to/lastmile_qr_scan"}, "fusion_lon": 0.0}, {"lat": 38.82875383333333, "is_disabled": 0, "type": "electric_bike", "lon": -77.11218333333333, "bike_id": "5753f8b2ff6e15bee73b915af2a516f9", "fusion_lat": 0.0, "name": "5753f8b2ff6e15bee73b915af2a516f9", "is_reserved": 0, "rental_uris": {"android": "https://dc.lft.to/lastmile_qr_scan", "ios": "https://dc.lft.to/lastmile_qr_scan"}, "fusion_lon": 0.0}, {"lat": 38.956497666666664, "is_disabled": 0, "type": "electric_scooter", "lon": -77.01280283333334, "bike_id": "8a0d6d0aa9b5f175c49feac8c439e748", "fusion_lat": 0.0, "name": "8a0d6d0aa9b5f175c49feac8c439e748", "is_reserved": 0, "rental_uris": {"android": "https://dc.lft.to/lastmile_qr_scan", "ios": "https://dc.lft.to/lastmile_qr_scan"}, "fusion_lon": 0.0}, {"lat": 38.90565733333333, "is_disabled": 0, "type": "electric_scooter", "lon": -77.00714, "bike_id": "6df4ddf25deffbbf8515a5b5880b856c", "fusion_lat": 0.0, "name": "6df4ddf25deffbbf8515a5b5880b856c", "is_reserved": 0, "rental_uris": {"android": "https://dc.lft.to/lastmile_qr_scan", "ios": "https://dc.lft.to/lastmile_qr_scan"}, "fusion_lon": 0.0}, {"lat": 38.93250883333333, "is_disabled": 0, "type": "electric_scooter", "lon": -77.02943683333334, "bike_id": "8a5d4e80bfa0abde739124d8318d3c64", "fusion_lat": 0.0, "name": "8a5d4e80bfa0abde739124d8318d3c64", "is_reserved": 0, "rental_uris": {"android": "https://dc.lft.to/lastmile_qr_scan", "ios": "https://dc.lft.to/lastmile_qr_scan"}, "fusion_lon": 0.0}, {"lat": 38.9225815, "is_disabled": 0, "type": "electric_scooter", "lon": -77.0425575, "bike_id": "6d7ccb8329407d9a5f3a82c4586eeb81", "fusion_lat": 0.0, "name": "6d7ccb8329407d9a5f3a82c4586eeb81", "is_reserved": 0, "rental_uris": {"android": "https://dc.lft.to/lastmile_qr_scan", "ios": "https://dc.lft.to/lastmile_qr_scan"}, "fusion_lon": 0.0}, {"lat": 38.894036166666666, "is_disabled": 0, "type": "electric_scooter", "lon": -77.04996016666666, "bike_id": "f7e6cd9f8cd7789faf7796bd62f8d48b", "fusion_lat": 0.0, "name": "f7e6cd9f8cd7789faf7796bd62f8d48b", "is_reserved": 0, "rental_uris": {"android": "https://dc.lft.to/lastmile_qr_scan", "ios": "https://dc.lft.to/lastmile_qr_scan"}, "fusion_lon": 0.0}, {"lat": 38.90380533333333, "is_disabled": 0, "type": "electric_scooter", "lon": -77.03828716666666, "bike_id": "9a902bbf5e0cb7401e467906cf078ba8", "fusion_lat": 0.0, "name": "9a902bbf5e0cb7401e467906cf078ba8", "is_reserved": 0, "rental_uris": {"android": "https://dc.lft.to/lastmile_qr_scan", "ios": "https://dc.lft.to/lastmile_qr_scan"}, "fusion_lon": 0.0}, {"lat": 38.91711183333334, "is_disabled": 0, "type": "electric_scooter", "lon": -77.029286, "bike_id": "db96433ee7220cb97239ecfa8927269f", "fusion_lat": 0.0, "name": "db96433ee7220cb97239ecfa8927269f", "is_reserved": 0, "rental_uris": {"android": "https://dc.lft.to/lastmile_qr_scan", "ios": "https://dc.lft.to/lastmile_qr_scan"}, "fusion_lon": 0.0}, {"lat": 38.90993366666667, "is_disabled": 0, "type": "electric_scooter", "lon": -76.99734133333334, "bike_id": "e011bf379ea322a5a72f644c18e9b242", "fusion_lat": 0.0, "name": "e011bf379ea322a5a72f644c18e9b242", "is_reserved": 0, "rental_uris": {"android": "https://dc.lft.to/lastmile_qr_scan", "ios": "https://dc.lft.to/lastmile_qr_scan"}, "fusion_lon": 0.0}, {"lat": 39.004772333333335, "is_disabled": 0, "type": "electric_bike", "lon": -76.90125166666667, "bike_id": "b0615da7e6a9f02b05ff4e02b8cecb47", "fusion_lat": 0.0, "name": "b0615da7e6a9f02b05ff4e02b8cecb47", "is_reserved": 0, "rental_uris": {"android": "https://dc.lft.to/lastmile_qr_scan", "ios": "https://dc.lft.to/lastmile_qr_scan"}, "fusion_lon": 0.0}, {"lat": 38.9276105, "is_disabled": 0, "type": "electric_scooter", "lon": -77.03239633333334, "bike_id": "db3d2b110b17b01af7c0e99093e36719", "fusion_lat": 0.0, "name": "db3d2b110b17b01af7c0e99093e36719", "is_reserved": 0, "rental_uris": {"android": "https://dc.lft.to/lastmile_qr_scan", "ios": "https://dc.lft.to/lastmile_qr_scan"}, "fusion_lon": 0.0}, {"lat": 38.882958333333335, "is_disabled": 0, "type": "electric_scooter", "lon": -77.0174395, "bike_id": "9379f8760304482bab6b476c65925f9b", "fusion_lat": 0.0, "name": "9379f8760304482bab6b476c65925f9b", "is_reserved": 0, "rental_uris": {"android": "https://dc.lft.to/lastmile_qr_scan", "ios": "https://dc.lft.to/lastmile_qr_scan"}, "fusion_lon": 0.0}, {"lat": 38.91822666666667, "is_disabled": 0, "type": "electric_scooter", "lon": -77.0417755, "bike_id": "cef976c8b4d968c9a101b76e630bb088", "fusion_lat": 0.0, "name": "cef976c8b4d968c9a101b76e630bb088", "is_reserved": 0, "rental_uris": {"android": "https://dc.lft.to/lastmile_qr_scan", "ios": "https://dc.lft.to/lastmile_qr_scan"}, "fusion_lon": 0.0}, {"lat": 38.866656666666664, "is_disabled": 0, "type": "electric_scooter", "lon": -76.98905216666667, "bike_id": "c31757a87f87afc9d3df0b717142b623", "fusion_lat": 0.0, "name": "c31757a87f87afc9d3df0b717142b623", "is_reserved": 0, "rental_uris": {"android": "https://dc.lft.to/lastmile_qr_scan", "ios": "https://dc.lft.to/lastmile_qr_scan"}, "fusion_lon": 0.0}, {"lat": 38.91471683333333, "is_disabled": 0, "type": "electric_scooter", "lon": -77.06687933333333, "bike_id": "7e499f96f8534be6aa0e9ea7f03aa4f0", "fusion_lat": 0.0, "name": "7e499f96f8534be6aa0e9ea7f03aa4f0", "is_reserved": 0, "rental_uris": {"android": "https://dc.lft.to/lastmile_qr_scan", "ios": "https://dc.lft.to/lastmile_qr_scan"}, "fusion_lon": 0.0}, {"lat": 38.924472333333334, "is_disabled": 0, "type": "electric_scooter", "lon": -77.03355866666666, "bike_id": "63d51a164342fa1f35eb6340ca57a746", "fusion_lat": 0.0, "name": "63d51a164342fa1f35eb6340ca57a746", "is_reserved": 0, "rental_uris": {"android": "https://dc.lft.to/lastmile_qr_scan", "ios": "https://dc.lft.to/lastmile_qr_scan"}, "fusion_lon": 0.0}, {"lat": 38.93031583333333, "is_disabled": 0, "type": "electric_scooter", "lon": -77.0204585, "bike_id": "6206c2b36c117d9842de5014094834c8", "fusion_lat": 0.0, "name": "6206c2b36c117d9842de5014094834c8", "is_reserved": 0, "rental_uris": {"android": "https://dc.lft.to/lastmile_qr_scan", "ios": "https://dc.lft.to/lastmile_qr_scan"}, "fusion_lon": 0.0}, {"lat": 38.909943, "is_disabled": 0, "type": "electric_scooter", "lon": -76.997337, "bike_id": "a1ecb1eb5b06cd01ec7d1d063fb64316", "fusion_lat": 0.0, "name": "a1ecb1eb5b06cd01ec7d1d063fb64316", "is_reserved": 0, "rental_uris": {"android": "https://dc.lft.to/lastmile_qr_scan", "ios": "https://dc.lft.to/lastmile_qr_scan"}, "fusion_lon": 0.0}, {"lat": 38.9265735, "is_disabled": 0, "type": "electric_scooter", "lon": -77.02412483333333, "bike_id": "499147002c0baf5a5dc288dd0fa72095", "fusion_lat": 0.0, "name": "499147002c0baf5a5dc288dd0fa72095", "is_reserved": 0, "rental_uris": {"android": "https://dc.lft.to/lastmile_qr_scan", "ios": "https://dc.lft.to/lastmile_qr_scan"}, "fusion_lon": 0.0}, {"lat": 38.9314365, "is_disabled": 0, "type": "electric_scooter", "lon": -77.021407, "bike_id": "435a5864b638d1e9cc1e9b200970665f", "fusion_lat": 0.0, "name": "435a5864b638d1e9cc1e9b200970665f", "is_reserved": 0, "rental_uris": {"android": "https://dc.lft.to/lastmile_qr_scan", "ios": "https://dc.lft.to/lastmile_qr_scan"}, "fusion_lon": 0.0}, {"lat": 38.92410866666667, "is_disabled": 0, "type": "electric_scooter", "lon": -77.03413333333333, "bike_id": "9c7c23a687ed9a69d0d2ec528910d8c4", "fusion_lat": 0.0, "name": "9c7c23a687ed9a69d0d2ec528910d8c4", "is_reserved": 0, "rental_uris": {"android": "https://dc.lft.to/lastmile_qr_scan", "ios": "https://dc.lft.to/lastmile_qr_scan"}, "fusion_lon": 0.0}, {"lat": 38.91984216666667, "is_disabled": 0, "type": "electric_scooter", "lon": -77.04161366666666, "bike_id": "677e620bd367e3be135c6b0c65524006", "fusion_lat": 0.0, "name": "677e620bd367e3be135c6b0c65524006", "is_reserved": 0, "rental_uris": {"android": "https://dc.lft.to/lastmile_qr_scan", "ios": "https://dc.lft.to/lastmile_qr_scan"}, "fusion_lon": 0.0}, {"lat": 38.895533666666665, "is_disabled": 0, "type": "electric_scooter", "lon": -77.00444416666667, "bike_id": "ccae829dcf39f4958551a8437c2de43e", "fusion_lat": 0.0, "name": "ccae829dcf39f4958551a8437c2de43e", "is_reserved": 0, "rental_uris": {"android": "https://dc.lft.to/lastmile_qr_scan", "ios": "https://dc.lft.to/lastmile_qr_scan"}, "fusion_lon": 0.0}, {"lat": 38.915506, "is_disabled": 0, "type": "electric_scooter", "lon": -77.03786566666666, "bike_id": "97544a421f1013d75fcea9119e5d0fb8", "fusion_lat": 0.0, "name": "97544a421f1013d75fcea9119e5d0fb8", "is_reserved": 0, "rental_uris": {"android": "https://dc.lft.to/lastmile_qr_scan", "ios": "https://dc.lft.to/lastmile_qr_scan"}, "fusion_lon": 0.0}, {"lat": 38.9188095, "is_disabled": 0, "type": "electric_scooter", "lon": -77.044727, "bike_id": "3e94ea327e0e89224a6ac1a990c2f5cc", "fusion_lat": 0.0, "name": "3e94ea327e0e89224a6ac1a990c2f5cc", "is_reserved": 0, "rental_uris": {"android": "https://dc.lft.to/lastmile_qr_scan", "ios": "https://dc.lft.to/lastmile_qr_scan"}, "fusion_lon": 0.0}, {"lat": 38.890007833333335, "is_disabled": 0, "type": "electric_scooter", "lon": -76.95564383333334, "bike_id": "a160cc8026816cee5ca7b7dd0407db8e", "fusion_lat": 0.0, "name": "a160cc8026816cee5ca7b7dd0407db8e", "is_reserved": 0, "rental_uris": {"android": "https://dc.lft.to/lastmile_qr_scan", "ios": "https://dc.lft.to/lastmile_qr_scan"}, "fusion_lon": 0.0}, {"lat": 38.922539, "is_disabled": 0, "type": "electric_scooter", "lon": -77.04247833333334, "bike_id": "074072d1f6517d0f281e7fd42f1fa8d9", "fusion_lat": 0.0, "name": "074072d1f6517d0f281e7fd42f1fa8d9", "is_reserved": 0, "rental_uris": {"android": "https://dc.lft.to/lastmile_qr_scan", "ios": "https://dc.lft.to/lastmile_qr_scan"}, "fusion_lon": 0.0}, {"lat": 38.88494383333333, "is_disabled": 0, "type": "electric_scooter", "lon": -77.03472316666667, "bike_id": "1adb5a4a35eb424c27919b5edfe6cbbd", "fusion_lat": 0.0, "name": "1adb5a4a35eb424c27919b5edfe6cbbd", "is_reserved": 0, "rental_uris": {"android": "https://dc.lft.to/lastmile_qr_scan", "ios": "https://dc.lft.to/lastmile_qr_scan"}, "fusion_lon": 0.0}, {"lat": 38.92663433333333, "is_disabled": 0, "type": "electric_scooter", "lon": -76.99746733333333, "bike_id": "5d057d41ca2442d45b2a97e4c390cb83", "fusion_lat": 0.0, "name": "5d057d41ca2442d45b2a97e4c390cb83", "is_reserved": 0, "rental_uris": {"android": "https://dc.lft.to/lastmile_qr_scan", "ios": "https://dc.lft.to/lastmile_qr_scan"}, "fusion_lon": 0.0}, {"lat": 38.93417566666667, "is_disabled": 0, "type": "electric_scooter", "lon": -77.02463766666666, "bike_id": "b8b1440d689969edf630eb1bff4d66a6", "fusion_lat": 0.0, "name": "b8b1440d689969edf630eb1bff4d66a6", "is_reserved": 0, "rental_uris": {"android": "https://dc.lft.to/lastmile_qr_scan", "ios": "https://dc.lft.to/lastmile_qr_scan"}, "fusion_lon": 0.0}, {"lat": 38.837332333333336, "is_disabled": 0, "type": "electric_bike", "lon": -76.99759066666667, "bike_id": "f9c495da254e40d0d68bfe0bd89cfa83", "fusion_lat": 0.0, "name": "f9c495da254e40d0d68bfe0bd89cfa83", "is_reserved": 0, "rental_uris": {"android": "https://dc.lft.to/lastmile_qr_scan", "ios": "https://dc.lft.to/lastmile_qr_scan"}, "fusion_lon": 0.0}, {"lat": 38.865103833333336, "is_disabled": 0, "type": "electric_scooter", "lon": -76.99002933333334, "bike_id": "f32ba2b6c8143acb57c4f28f8634a0ee", "fusion_lat": 0.0, "name": "f32ba2b6c8143acb57c4f28f8634a0ee", "is_reserved": 0, "rental_uris": {"android": "https://dc.lft.to/lastmile_qr_scan", "ios": "https://dc.lft.to/lastmile_qr_scan"}, "fusion_lon": 0.0}, {"lat": 38.842795, "is_disabled": 0, "type": "electric_bike", "lon": -76.98845216666666, "bike_id": "a56c035c38682e543fd8f934fd5e599a", "fusion_lat": 0.0, "name": "a56c035c38682e543fd8f934fd5e599a", "is_reserved": 0, "rental_uris": {"android": "https://dc.lft.to/lastmile_qr_scan", "ios": "https://dc.lft.to/lastmile_qr_scan"}, "fusion_lon": 0.0}, {"lat": 38.916616166666664, "is_disabled": 0, "type": "electric_scooter", "lon": -77.047176, "bike_id": "ceda757ab5665d99d3281215b5f95144", "fusion_lat": 0.0, "name": "ceda757ab5665d99d3281215b5f95144", "is_reserved": 0, "rental_uris": {"android": "https://dc.lft.to/lastmile_qr_scan", "ios": "https://dc.lft.to/lastmile_qr_scan"}, "fusion_lon": 0.0}, {"lat": 38.982821666666666, "is_disabled": 0, "type": "electric_bike", "lon": -77.025442, "bike_id": "fd199f498b2735655813e8a06777f392", "fusion_lat": 0.0, "name": "fd199f498b2735655813e8a06777f392", "is_reserved": 0, "rental_uris": {"android": "https://dc.lft.to/lastmile_qr_scan", "ios": "https://dc.lft.to/lastmile_qr_scan"}, "fusion_lon": 0.0}, {"lat": 38.856760333333334, "is_disabled": 0, "type": "electric_scooter", "lon": -76.9816755, "bike_id": "e48b7b6cd1e6ade0dda97e2d7b46446b", "fusion_lat": 0.0, "name": "e48b7b6cd1e6ade0dda97e2d7b46446b", "is_reserved": 0, "rental_uris": {"android": "https://dc.lft.to/lastmile_qr_scan", "ios": "https://dc.lft.to/lastmile_qr_scan"}, "fusion_lon": 0.0}, {"lat": 39.075068, "is_disabled": 0, "type": "electric_bike", "lon": -77.11897916666666, "bike_id": "1e1460c3a6a230e89674cbf36821d6fb", "fusion_lat": 0.0, "name": "1e1460c3a6a230e89674cbf36821d6fb", "is_reserved": 0, "rental_uris": {"android": "https://dc.lft.to/lastmile_qr_scan", "ios": "https://dc.lft.to/lastmile_qr_scan"}, "fusion_lon": 0.0}, {"lat": 38.921105, "is_disabled": 0, "type": "electric_scooter", "lon": -77.045815, "bike_id": "c109790b2115914f9dbe49c4e7023980", "fusion_lat": 0.0, "name": "c109790b2115914f9dbe49c4e7023980", "is_reserved": 0, "rental_uris": {"android": "https://dc.lft.to/lastmile_qr_scan", "ios": "https://dc.lft.to/lastmile_qr_scan"}, "fusion_lon": 0.0}, {"lat": 38.90708983333333, "is_disabled": 0, "type": "electric_bike", "lon": -77.03587133333333, "bike_id": "ab7d26433fc84a52f9d428924f5cc0a2", "fusion_lat": 0.0, "name": "ab7d26433fc84a52f9d428924f5cc0a2", "is_reserved": 0, "rental_uris": {"android": "https://dc.lft.to/lastmile_qr_scan", "ios": "https://dc.lft.to/lastmile_qr_scan"}, "fusion_lon": 0.0}, {"lat": 38.92836483333333, "is_disabled": 0, "type": "electric_bike", "lon": -77.0328065, "bike_id": "ca7d84470b315241ee334a2b9544fd5c", "fusion_lat": 0.0, "name": "ca7d84470b315241ee334a2b9544fd5c", "is_reserved": 0, "rental_uris": {"android": "https://dc.lft.to/lastmile_qr_scan", "ios": "https://dc.lft.to/lastmile_qr_scan"}, "fusion_lon": 0.0}, {"lat": 38.8984655, "is_disabled": 0, "type": "electric_scooter", "lon": -76.94454933333333, "bike_id": "6b587bbf67bea3cf81a8f96453e7c637", "fusion_lat": 0.0, "name": "6b587bbf67bea3cf81a8f96453e7c637", "is_reserved": 0, "rental_uris": {"android": "https://dc.lft.to/lastmile_qr_scan", "ios": "https://dc.lft.to/lastmile_qr_scan"}, "fusion_lon": 0.0}, {"lat": 38.92583916666667, "is_disabled": 0, "type": "electric_scooter", "lon": -77.05282266666667, "bike_id": "a2eb111a8d78249385266c054460e900", "fusion_lat": 0.0, "name": "a2eb111a8d78249385266c054460e900", "is_reserved": 0, "rental_uris": {"android": "https://dc.lft.to/lastmile_qr_scan", "ios": "https://dc.lft.to/lastmile_qr_scan"}, "fusion_lon": 0.0}, {"lat": 38.928051333333336, "is_disabled": 0, "type": "electric_scooter", "lon": -77.05424816666667, "bike_id": "83028a30a23f0b989632fa969ce6f0ab", "fusion_lat": 0.0, "name": "83028a30a23f0b989632fa969ce6f0ab", "is_reserved": 0, "rental_uris": {"android": "https://dc.lft.to/lastmile_qr_scan", "ios": "https://dc.lft.to/lastmile_qr_scan"}, "fusion_lon": 0.0}, {"lat": 38.91684583333333, "is_disabled": 0, "type": "electric_scooter", "lon": -77.02282433333333, "bike_id": "eb4d2feff363789f3751d803db2c586a", "fusion_lat": 0.0, "name": "eb4d2feff363789f3751d803db2c586a", "is_reserved": 0, "rental_uris": {"android": "https://dc.lft.to/lastmile_qr_scan", "ios": "https://dc.lft.to/lastmile_qr_scan"}, "fusion_lon": 0.0}, {"lat": 38.862957333333334, "is_disabled": 0, "type": "electric_scooter", "lon": -76.9923715, "bike_id": "b48544759812a5e19974fc4d603f9ad3", "fusion_lat": 0.0, "name": "b48544759812a5e19974fc4d603f9ad3", "is_reserved": 0, "rental_uris": {"android": "https://dc.lft.to/lastmile_qr_scan", "ios": "https://dc.lft.to/lastmile_qr_scan"}, "fusion_lon": 0.0}, {"lat": 38.8811655, "is_disabled": 0, "type": "electric_scooter", "lon": -76.98332283333333, "bike_id": "177d707d0a0e6bea7621cd761bbc54e2", "fusion_lat": 0.0, "name": "177d707d0a0e6bea7621cd761bbc54e2", "is_reserved": 0, "rental_uris": {"android": "https://dc.lft.to/lastmile_qr_scan", "ios": "https://dc.lft.to/lastmile_qr_scan"}, "fusion_lon": 0.0}, {"lat": 38.91630266666667, "is_disabled": 0, "type": "electric_scooter", "lon": -77.032649, "bike_id": "c8d8f241d6aa03ac787c08229c58daca", "fusion_lat": 0.0, "name": "c8d8f241d6aa03ac787c08229c58daca", "is_reserved": 0, "rental_uris": {"android": "https://dc.lft.to/lastmile_qr_scan", "ios": "https://dc.lft.to/lastmile_qr_scan"}, "fusion_lon": 0.0}, {"lat": 38.8456945, "is_disabled": 0, "type": "electric_bike", "lon": -77.09621283333334, "bike_id": "a8b1c34f86fdfdfd5c0d707e0e949a94", "fusion_lat": 0.0, "name": "a8b1c34f86fdfdfd5c0d707e0e949a94", "is_reserved": 0, "rental_uris": {"android": "https://dc.lft.to/lastmile_qr_scan", "ios": "https://dc.lft.to/lastmile_qr_scan"}, "fusion_lon": 0.0}, {"lat": 38.93670083333333, "is_disabled": 0, "type": "electric_scooter", "lon": -77.05927383333334, "bike_id": "20289615065d6ccb2bf41201e6cc069d", "fusion_lat": 0.0, "name": "20289615065d6ccb2bf41201e6cc069d", "is_reserved": 0, "rental_uris": {"android": "https://dc.lft.to/lastmile_qr_scan", "ios": "https://dc.lft.to/lastmile_qr_scan"}, "fusion_lon": 0.0}, {"lat": 38.905507666666665, "is_disabled": 0, "type": "electric_scooter", "lon": -77.04330066666667, "bike_id": "c301073187a2940fce24e2bbb831196d", "fusion_lat": 0.0, "name": "c301073187a2940fce24e2bbb831196d", "is_reserved": 0, "rental_uris": {"android": "https://dc.lft.to/lastmile_qr_scan", "ios": "https://dc.lft.to/lastmile_qr_scan"}, "fusion_lon": 0.0}, {"lat": 38.867174, "is_disabled": 0, "type": "electric_scooter", "lon": -76.98725183333333, "bike_id": "ec6f6e544238478ac4dc1bbf0ec5a4ba", "fusion_lat": 0.0, "name": "ec6f6e544238478ac4dc1bbf0ec5a4ba", "is_reserved": 0, "rental_uris": {"android": "https://dc.lft.to/lastmile_qr_scan", "ios": "https://dc.lft.to/lastmile_qr_scan"}, "fusion_lon": 0.0}, {"lat": 38.922407166666666, "is_disabled": 0, "type": "electric_bike", "lon": -77.03523316666667, "bike_id": "950fc5ad7c24aa2111a83e8e73bc8a97", "fusion_lat": 0.0, "name": "950fc5ad7c24aa2111a83e8e73bc8a97", "is_reserved": 0, "rental_uris": {"android": "https://dc.lft.to/lastmile_qr_scan", "ios": "https://dc.lft.to/lastmile_qr_scan"}, "fusion_lon": 0.0}, {"lat": 38.927154, "is_disabled": 0, "type": "electric_scooter", "lon": -77.02076483333333, "bike_id": "2f2e6dc240e8294272f95a164070c131", "fusion_lat": 0.0, "name": "2f2e6dc240e8294272f95a164070c131", "is_reserved": 0, "rental_uris": {"android": "https://dc.lft.to/lastmile_qr_scan", "ios": "https://dc.lft.to/lastmile_qr_scan"}, "fusion_lon": 0.0}, {"lat": 38.837011333333336, "is_disabled": 0, "type": "electric_scooter", "lon": -77.10305916666667, "bike_id": "c3252427a412de05fd7398a0ac20a1c6", "fusion_lat": 0.0, "name": "c3252427a412de05fd7398a0ac20a1c6", "is_reserved": 0, "rental_uris": {"android": "https://dc.lft.to/lastmile_qr_scan", "ios": "https://dc.lft.to/lastmile_qr_scan"}, "fusion_lon": 0.0}, {"lat": 38.871494, "is_disabled": 0, "type": "electric_bike", "lon": -76.93702716666667, "bike_id": "17be124df7396c628d820e3d0ce0ee9d", "fusion_lat": 0.0, "name": "17be124df7396c628d820e3d0ce0ee9d", "is_reserved": 0, "rental_uris": {"android": "https://dc.lft.to/lastmile_qr_scan", "ios": "https://dc.lft.to/lastmile_qr_scan"}, "fusion_lon": 0.0}, {"lat": 38.93103966666666, "is_disabled": 0, "type": "electric_scooter", "lon": -77.02510783333334, "bike_id": "f6dc56bdbbf0e6c321b8ccc2a1d1ada8", "fusion_lat": 0.0, "name": "f6dc56bdbbf0e6c321b8ccc2a1d1ada8", "is_reserved": 0, "rental_uris": {"android": "https://dc.lft.to/lastmile_qr_scan", "ios": "https://dc.lft.to/lastmile_qr_scan"}, "fusion_lon": 0.0}, {"lat": 38.87237533333333, "is_disabled": 0, "type": "electric_scooter", "lon": -77.01206516666667, "bike_id": "0a38d42b2ad9930516d9b65a170b636c", "fusion_lat": 0.0, "name": "0a38d42b2ad9930516d9b65a170b636c", "is_reserved": 0, "rental_uris": {"android": "https://dc.lft.to/lastmile_qr_scan", "ios": "https://dc.lft.to/lastmile_qr_scan"}, "fusion_lon": 0.0}, {"lat": 38.90064016666667, "is_disabled": 0, "type": "electric_scooter", "lon": -77.05074833333333, "bike_id": "adb38fc76839bae9bf51b4f00f352810", "fusion_lat": 0.0, "name": "adb38fc76839bae9bf51b4f00f352810", "is_reserved": 0, "rental_uris": {"android": "https://dc.lft.to/lastmile_qr_scan", "ios": "https://dc.lft.to/lastmile_qr_scan"}, "fusion_lon": 0.0}, {"lat": 38.92596016666667, "is_disabled": 0, "type": "electric_scooter", "lon": -77.02277333333333, "bike_id": "d5e6b0c8e3374f9a2df747dfb6878631", "fusion_lat": 0.0, "name": "d5e6b0c8e3374f9a2df747dfb6878631", "is_reserved": 0, "rental_uris": {"android": "https://dc.lft.to/lastmile_qr_scan", "ios": "https://dc.lft.to/lastmile_qr_scan"}, "fusion_lon": 0.0}, {"lat": 38.92031766666667, "is_disabled": 0, "type": "electric_scooter", "lon": -77.03729933333334, "bike_id": "0ee428ca4654417c14d466f14cb6d5fe", "fusion_lat": 0.0, "name": "0ee428ca4654417c14d466f14cb6d5fe", "is_reserved": 0, "rental_uris": {"android": "https://dc.lft.to/lastmile_qr_scan", "ios": "https://dc.lft.to/lastmile_qr_scan"}, "fusion_lon": 0.0}, {"lat": 38.86251683333333, "is_disabled": 0, "type": "electric_scooter", "lon": -76.99262866666666, "bike_id": "2e76b90e91618cc95a12ddf51414d942", "fusion_lat": 0.0, "name": "2e76b90e91618cc95a12ddf51414d942", "is_reserved": 0, "rental_uris": {"android": "https://dc.lft.to/lastmile_qr_scan", "ios": "https://dc.lft.to/lastmile_qr_scan"}, "fusion_lon": 0.0}, {"lat": 38.9007715, "is_disabled": 0, "type": "electric_scooter", "lon": -77.04922883333333, "bike_id": "b39ef788c059900a77c62043ff98b6fc", "fusion_lat": 0.0, "name": "b39ef788c059900a77c62043ff98b6fc", "is_reserved": 0, "rental_uris": {"android": "https://dc.lft.to/lastmile_qr_scan", "ios": "https://dc.lft.to/lastmile_qr_scan"}, "fusion_lon": 0.0}, {"lat": 38.90783666666667, "is_disabled": 0, "type": "electric_scooter", "lon": -77.0385605, "bike_id": "5299890d8d298a806b68e48988a3be8a", "fusion_lat": 0.0, "name": "5299890d8d298a806b68e48988a3be8a", "is_reserved": 0, "rental_uris": {"android": "https://dc.lft.to/lastmile_qr_scan", "ios": "https://dc.lft.to/lastmile_qr_scan"}, "fusion_lon": 0.0}, {"lat": 38.93288616666667, "is_disabled": 0, "type": "electric_scooter", "lon": -77.03553533333333, "bike_id": "fee8918a20cafddbf92b28c294943d84", "fusion_lat": 0.0, "name": "fee8918a20cafddbf92b28c294943d84", "is_reserved": 0, "rental_uris": {"android": "https://dc.lft.to/lastmile_qr_scan", "ios": "https://dc.lft.to/lastmile_qr_scan"}, "fusion_lon": 0.0}, {"lat": 38.939744833333336, "is_disabled": 0, "type": "electric_scooter", "lon": -77.03589866666667, "bike_id": "24654bc70f55cc81047b1cc62cc276d1", "fusion_lat": 0.0, "name": "24654bc70f55cc81047b1cc62cc276d1", "is_reserved": 0, "rental_uris": {"android": "https://dc.lft.to/lastmile_qr_scan", "ios": "https://dc.lft.to/lastmile_qr_scan"}, "fusion_lon": 0.0}, {"lat": 38.9577695, "is_disabled": 0, "type": "electric_scooter", "lon": -77.02750166666667, "bike_id": "92caa0cc4b670dc4baa42414cb6a5064", "fusion_lat": 0.0, "name": "92caa0cc4b670dc4baa42414cb6a5064", "is_reserved": 0, "rental_uris": {"android": "https://dc.lft.to/lastmile_qr_scan", "ios": "https://dc.lft.to/lastmile_qr_scan"}, "fusion_lon": 0.0}, {"lat": 38.908795, "is_disabled": 0, "type": "electric_scooter", "lon": -77.03658133333333, "bike_id": "a06a01fd9c7db06e76b82bcf9e429fcb", "fusion_lat": 0.0, "name": "a06a01fd9c7db06e76b82bcf9e429fcb", "is_reserved": 0, "rental_uris": {"android": "https://dc.lft.to/lastmile_qr_scan", "ios": "https://dc.lft.to/lastmile_qr_scan"}, "fusion_lon": 0.0}, {"lat": 38.90032466666667, "is_disabled": 0, "type": "electric_scooter", "lon": -76.98373533333333, "bike_id": "8f6207ad03a94aa3e1202865523fbfe5", "fusion_lat": 0.0, "name": "8f6207ad03a94aa3e1202865523fbfe5", "is_reserved": 0, "rental_uris": {"android": "https://dc.lft.to/lastmile_qr_scan", "ios": "https://dc.lft.to/lastmile_qr_scan"}, "fusion_lon": 0.0}, {"lat": 38.934523666666664, "is_disabled": 0, "type": "electric_scooter", "lon": -77.03087, "bike_id": "4c33c13443d1f7592b2721a144e0d4e2", "fusion_lat": 0.0, "name": "4c33c13443d1f7592b2721a144e0d4e2", "is_reserved": 0, "rental_uris": {"android": "https://dc.lft.to/lastmile_qr_scan", "ios": "https://dc.lft.to/lastmile_qr_scan"}, "fusion_lon": 0.0}, {"lat": 38.859329, "is_disabled": 0, "type": "electric_scooter", "lon": -76.99719083333333, "bike_id": "c77ca9bb9dbc1887b67b60029539da2c", "fusion_lat": 0.0, "name": "c77ca9bb9dbc1887b67b60029539da2c", "is_reserved": 0, "rental_uris": {"android": "https://dc.lft.to/lastmile_qr_scan", "ios": "https://dc.lft.to/lastmile_qr_scan"}, "fusion_lon": 0.0}, {"lat": 38.86524433333334, "is_disabled": 0, "type": "electric_scooter", "lon": -76.9902555, "bike_id": "c1ec0e54ff33ba08390e7058081da929", "fusion_lat": 0.0, "name": "c1ec0e54ff33ba08390e7058081da929", "is_reserved": 0, "rental_uris": {"android": "https://dc.lft.to/lastmile_qr_scan", "ios": "https://dc.lft.to/lastmile_qr_scan"}, "fusion_lon": 0.0}, {"lat": 38.90500083333333, "is_disabled": 0, "type": "electric_scooter", "lon": -77.02952083333334, "bike_id": "df7e0233e8363ffba034514d3d9ddf28", "fusion_lat": 0.0, "name": "df7e0233e8363ffba034514d3d9ddf28", "is_reserved": 0, "rental_uris": {"android": "https://dc.lft.to/lastmile_qr_scan", "ios": "https://dc.lft.to/lastmile_qr_scan"}, "fusion_lon": 0.0}, {"lat": 38.870001, "is_disabled": 0, "type": "electric_bike", "lon": -77.06567316666667, "bike_id": "a4d29f6faca7fb918a850be5a4566e2c", "fusion_lat": 0.0, "name": "a4d29f6faca7fb918a850be5a4566e2c", "is_reserved": 0, "rental_uris": {"android": "https://dc.lft.to/lastmile_qr_scan", "ios": "https://dc.lft.to/lastmile_qr_scan"}, "fusion_lon": 0.0}, {"lat": 38.87484233333333, "is_disabled": 0, "type": "electric_scooter", "lon": -77.00271633333334, "bike_id": "c3b1ba101ea99f2ff6c5647afad1f887", "fusion_lat": 0.0, "name": "c3b1ba101ea99f2ff6c5647afad1f887", "is_reserved": 0, "rental_uris": {"android": "https://dc.lft.to/lastmile_qr_scan", "ios": "https://dc.lft.to/lastmile_qr_scan"}, "fusion_lon": 0.0}, {"lat": 38.92411416666667, "is_disabled": 0, "type": "electric_scooter", "lon": -77.02742333333333, "bike_id": "1015a6e8087b77ce0bf89b82ab5880cc", "fusion_lat": 0.0, "name": "1015a6e8087b77ce0bf89b82ab5880cc", "is_reserved": 0, "rental_uris": {"android": "https://dc.lft.to/lastmile_qr_scan", "ios": "https://dc.lft.to/lastmile_qr_scan"}, "fusion_lon": 0.0}, {"lat": 38.834232, "is_disabled": 0, "type": "electric_bike", "lon": -77.1037405, "bike_id": "1fdbc15dc2b72b0bff3744b1f146cb49", "fusion_lat": 0.0, "name": "1fdbc15dc2b72b0bff3744b1f146cb49", "is_reserved": 0, "rental_uris": {"android": "https://dc.lft.to/lastmile_qr_scan", "ios": "https://dc.lft.to/lastmile_qr_scan"}, "fusion_lon": 0.0}, {"lat": 38.90356166666667, "is_disabled": 0, "type": "electric_scooter", "lon": -77.04239783333334, "bike_id": "0eafefdb7dec8c3e0270e445bfd46ffc", "fusion_lat": 0.0, "name": "0eafefdb7dec8c3e0270e445bfd46ffc", "is_reserved": 0, "rental_uris": {"android": "https://dc.lft.to/lastmile_qr_scan", "ios": "https://dc.lft.to/lastmile_qr_scan"}, "fusion_lon": 0.0}, {"lat": 38.90614016666667, "is_disabled": 0, "type": "electric_scooter", "lon": -76.98978883333334, "bike_id": "7232254c3a0b5a05ea7608e70e9d163b", "fusion_lat": 0.0, "name": "7232254c3a0b5a05ea7608e70e9d163b", "is_reserved": 0, "rental_uris": {"android": "https://dc.lft.to/lastmile_qr_scan", "ios": "https://dc.lft.to/lastmile_qr_scan"}, "fusion_lon": 0.0}, {"lat": 38.84462833333333, "is_disabled": 0, "type": "electric_bike", "lon": -76.98758183333334, "bike_id": "ea730ae3007de92d5294880c2a8d412a", "fusion_lat": 0.0, "name": "ea730ae3007de92d5294880c2a8d412a", "is_reserved": 0, "rental_uris": {"android": "https://dc.lft.to/lastmile_qr_scan", "ios": "https://dc.lft.to/lastmile_qr_scan"}, "fusion_lon": 0.0}, {"lat": 38.87631616666667, "is_disabled": 0, "type": "electric_scooter", "lon": -76.9652315, "bike_id": "f132ee397d4865e1403d0b8443e1ecb7", "fusion_lat": 0.0, "name": "f132ee397d4865e1403d0b8443e1ecb7", "is_reserved": 0, "rental_uris": {"android": "https://dc.lft.to/lastmile_qr_scan", "ios": "https://dc.lft.to/lastmile_qr_scan"}, "fusion_lon": 0.0}, {"lat": 38.93329116666666, "is_disabled": 0, "type": "electric_scooter", "lon": -77.04362783333333, "bike_id": "bc08fe835fd91b50d3ad8cddca10ebe9", "fusion_lat": 0.0, "name": "bc08fe835fd91b50d3ad8cddca10ebe9", "is_reserved": 0, "rental_uris": {"android": "https://dc.lft.to/lastmile_qr_scan", "ios": "https://dc.lft.to/lastmile_qr_scan"}, "fusion_lon": 0.0}, {"lat": 38.91725783333333, "is_disabled": 0, "type": "electric_scooter", "lon": -77.04596316666667, "bike_id": "8d5645f9c5dc9f25687ad9a089c00def", "fusion_lat": 0.0, "name": "8d5645f9c5dc9f25687ad9a089c00def", "is_reserved": 0, "rental_uris": {"android": "https://dc.lft.to/lastmile_qr_scan", "ios": "https://dc.lft.to/lastmile_qr_scan"}, "fusion_lon": 0.0}, {"lat": 38.898473333333335, "is_disabled": 0, "type": "electric_scooter", "lon": -77.0302695, "bike_id": "d57260c9463fa216fff1f2b8f64db81d", "fusion_lat": 0.0, "name": "d57260c9463fa216fff1f2b8f64db81d", "is_reserved": 0, "rental_uris": {"android": "https://dc.lft.to/lastmile_qr_scan", "ios": "https://dc.lft.to/lastmile_qr_scan"}, "fusion_lon": 0.0}, {"lat": 38.91952116666667, "is_disabled": 0, "type": "electric_scooter", "lon": -76.98078983333333, "bike_id": "9bf13393d246c9dd8b6603ded447d1fc", "fusion_lat": 0.0, "name": "9bf13393d246c9dd8b6603ded447d1fc", "is_reserved": 0, "rental_uris": {"android": "https://dc.lft.to/lastmile_qr_scan", "ios": "https://dc.lft.to/lastmile_qr_scan"}, "fusion_lon": 0.0}, {"lat": 38.9846085, "is_disabled": 0, "type": "electric_bike", "lon": -76.994723, "bike_id": "d3d4580f48adb59f8ffa8398434f0fee", "fusion_lat": 0.0, "name": "d3d4580f48adb59f8ffa8398434f0fee", "is_reserved": 0, "rental_uris": {"android": "https://dc.lft.to/lastmile_qr_scan", "ios": "https://dc.lft.to/lastmile_qr_scan"}, "fusion_lon": 0.0}, {"lat": 38.85573616666667, "is_disabled": 0, "type": "electric_bike", "lon": -77.1113875, "bike_id": "dc775b560c54c0bd338e2811418f0fb6", "fusion_lat": 0.0, "name": "dc775b560c54c0bd338e2811418f0fb6", "is_reserved": 0, "rental_uris": {"android": "https://dc.lft.to/lastmile_qr_scan", "ios": "https://dc.lft.to/lastmile_qr_scan"}, "fusion_lon": 0.0}, {"lat": 38.896976333333335, "is_disabled": 0, "type": "electric_scooter", "lon": -77.00493466666667, "bike_id": "07582751d449d06de9c0211c474c6253", "fusion_lat": 0.0, "name": "07582751d449d06de9c0211c474c6253", "is_reserved": 0, "rental_uris": {"android": "https://dc.lft.to/lastmile_qr_scan", "ios": "https://dc.lft.to/lastmile_qr_scan"}, "fusion_lon": 0.0}, {"lat": 38.94311183333333, "is_disabled": 0, "type": "electric_scooter", "lon": -77.06137383333333, "bike_id": "b6b97acfd750847bdd32662ccf2b1540", "fusion_lat": 0.0, "name": "b6b97acfd750847bdd32662ccf2b1540", "is_reserved": 0, "rental_uris": {"android": "https://dc.lft.to/lastmile_qr_scan", "ios": "https://dc.lft.to/lastmile_qr_scan"}, "fusion_lon": 0.0}, {"lat": 38.924822666666664, "is_disabled": 0, "type": "electric_scooter", "lon": -77.03482533333333, "bike_id": "180b7bc61f667ad489a8d4fc83d0c865", "fusion_lat": 0.0, "name": "180b7bc61f667ad489a8d4fc83d0c865", "is_reserved": 0, "rental_uris": {"android": "https://dc.lft.to/lastmile_qr_scan", "ios": "https://dc.lft.to/lastmile_qr_scan"}, "fusion_lon": 0.0}, {"lat": 38.88645133333333, "is_disabled": 0, "type": "electric_scooter", "lon": -76.95487166666666, "bike_id": "0b6b42b440347f71febaee0c97a421dc", "fusion_lat": 0.0, "name": "0b6b42b440347f71febaee0c97a421dc", "is_reserved": 0, "rental_uris": {"android": "https://dc.lft.to/lastmile_qr_scan", "ios": "https://dc.lft.to/lastmile_qr_scan"}, "fusion_lon": 0.0},