{"data": {"bikes": [{"bike_id": "dcc77dd25e75995bb14c7bd7e49244e7", "type": "electric_scooter", "is_disabled": 0, "lat": 38.90556183333333, "rental_uris": {"ios": "https://dc.lft.to/lastmile_qr_scan", "android": "https://dc.lft.to/lastmile_qr_scan"}, "is_reserved": 0, "fusion_lon": 0.0, "fusion_lat": 0.0, "lon": -77.0281605, "name": "dcc77dd25e75995bb14c7bd7e49244e7"}, {"bike_id": "37ab0cb0f96bb3fe488ec66e10d60b64", "type": "electric_scooter", "is_disabled": 0, "lat": 38.97366016666667, "rental_uris": {"ios": "https://dc.lft.to/lastmile_qr_scan", "android": "https://dc.lft.to/lastmile_qr_scan"}, "is_reserved": 0, "fusion_lon": 0.0, "fusion_lat": 0.0, "lon": -77.01862383333334, "name": "37ab0cb0f96bb3fe488ec66e10d60b64"}, {"bike_id": "698cd890ffce7ed7afbd5b3e54e80f9b", "type": "electric_scooter", "is_disabled": 0, "lat": 38.8936685, "rental_uris": {"ios": "https://dc.lft.to/lastmile_qr_scan", "android": "https://dc.lft.to/lastmile_qr_scan"}, "is_reserved": 0, "fusion_lon": 0.0, "fusion_lat": 0.0, "lon": -76.94702816666667, "name": "698cd890ffce7ed7afbd5b3e54e80f9b"}, {"bike_id": "417c87ccbd0e4927d407e9684a61b895", "type": "electric_scooter", "is_disabled": 0, "lat": 38.90916383333333, "rental_uris": {"ios": "https://dc.lft.to/lastmile_qr_scan", "android": "https://dc.lft.to/lastmile_qr_scan"}, "is_reserved": 0, "fusion_lon": 0.0, "fusion_lat": 0.0, "lon": -77.031827, "name": "417c87ccbd0e4927d407e9684a61b895"}, {"bike_id": "84084fb3cad8526497f4a422ad39b0c7", "type": "electric_scooter", "is_disabled": 0, "lat": 38.912673, "rental_uris": {"ios": "https://dc.lft.to/lastmile_qr_scan", "android": "https://dc.lft.to/lastmile_qr_scan"}, "is_reserved": 0, "fusion_lon": 0.0, "fusion_lat": 0.0, "lon": -77.02953183333334, "name": "84084fb3cad8526497f4a422ad39b0c7"}, {"bike_id": "b14cfe096ff748677d9da5d66cf188f8", "type": "electric_scooter", "is_disabled": 0, "lat": 38.89705333333333, "rental_uris": {"ios": "https://dc.lft.to/lastmile_qr_scan", "android": "https://dc.lft.to/lastmile_qr_scan"}, "is_reserved": 0, "fusion_lon": 0.0, "fusion_lat": 0.0, "lon": -77.0488135, "name": "b14cfe096ff748677d9da5d66cf188f8"}, {"bike_id": "c2b964ea2ed36c110e54dcbf98118aea", "type": "electric_scooter", "is_disabled": 0, "lat": 38.915322, "rental_uris": {"ios": "https://dc.lft.to/lastmile_qr_scan", "android": "https://dc.lft.to/lastmile_qr_scan"}, "is_reserved": 0, "fusion_lon": 0.0, "fusion_lat": 0.0, "lon": -77.031813, "name": "c2b964ea2ed36c110e54dcbf98118aea"}, {"bike_id": "0a399980c9863e9f0e50fa52624836ae", "type": "electric_scooter", "is_disabled": 0, "lat": 38.947851666666665, "rental_uris": {"ios": "https://dc.lft.to/lastmile_qr_scan", "android": "https://dc.lft.to/lastmile_qr_scan"}, "is_reserved": 0, "fusion_lon": 0.0, "fusion_lat": 0.0, "lon": -77.0213355, "name": "0a399980c9863e9f0e50fa52624836ae"}, {"bike_id": "8027b129cc275aeb79fa15a17ffc594f", "type": "electric_scooter", "is_disabled": 0, "lat": 38.89189066666667, "rental_uris": {"ios": "https://dc.lft.to/lastmile_qr_scan", "android": "https://dc.lft.to/lastmile_qr_scan"}, "is_reserved": 0, "fusion_lon": 0.0, "fusion_lat": 0.0, "lon": -77.03638, "name": "8027b129cc275aeb79fa15a17ffc594f"}, {"bike_id": "89c91ad8b10f73a6ecada1890ad62455", "type": "electric_scooter", "is_disabled": 0, "lat": 38.913211833333335, "rental_uris": {"ios": "https://dc.lft.to/lastmile_qr_scan", "android": "https://dc.lft.to/lastmile_qr_scan"}, "is_reserved": 0, "fusion_lon": 0.0, "fusion_lat": 0.0, "lon": -77.03849066666666, "name": "89c91ad8b10f73a6ecada1890ad62455"}, {"bike_id": "647956099e06bacaa7b9f6065114c2e6", "type": "electric_scooter", "is_disabled": 0, "lat": 38.91683583333333, "rental_uris": {"ios": "https://dc.lft.to/lastmile_qr_scan", "android": "https://dc.lft.to/lastmile_qr_scan"}, "is_reserved": 0, "fusion_lon": 0.0, "fusion_lat": 0.0, "lon": -77.02953716666667, "name": "647956099e06bacaa7b9f6065114c2e6"}, {"bike_id": "a0e958ef60ffdfc84ab0ffe15158036e", "type": "electric_scooter", "is_disabled": 0, "lat": 38.958561, "rental_uris": {"ios": "https://dc.lft.to/lastmile_qr_scan", "android": "https://dc.lft.to/lastmile_qr_scan"}, "is_reserved": 0, "fusion_lon": 0.0, "fusion_lat": 0.0, "lon": -77.02798, "name": "a0e958ef60ffdfc84ab0ffe15158036e"}, {"bike_id": "d885218067939e37cd1878455b7560b6", "type": "electric_scooter", "is_disabled": 0, "lat": 38.914145500000004, "rental_uris": {"ios": "https://dc.lft.to/lastmile_qr_scan", "android": "https://dc.lft.to/lastmile_qr_scan"}, "is_reserved": 0, "fusion_lon": 0.0, "fusion_lat": 0.0, "lon": -77.02428666666667, "name": "d885218067939e37cd1878455b7560b6"}, {"bike_id": "09b4cc252ef1b71f6126008773cda3a6", "type": "electric_scooter", "is_disabled": 0, "lat": 38.914237166666666, "rental_uris": {"ios": "https://dc.lft.to/lastmile_qr_scan", "android": "https://dc.lft.to/lastmile_qr_scan"}, "is_reserved": 0, "fusion_lon": 0.0, "fusion_lat": 0.0, "lon": -77.02224783333334, "name": "09b4cc252ef1b71f6126008773cda3a6"}, {"bike_id": "650a088f50d6dc8c5be9e2876e7a7db8", "type": "electric_scooter", "is_disabled": 0, "lat": 38.91816333333333, "rental_uris": {"ios": "https://dc.lft.to/lastmile_qr_scan", "android": "https://dc.lft.to/lastmile_qr_scan"}, "is_reserved": 0, "fusion_lon": 0.0, "fusion_lat": 0.0, "lon": -77.02783083333334, "name": "650a088f50d6dc8c5be9e2876e7a7db8"}, {"bike_id": "4752d1ccd314b12b8d4874df88b6fe3d", "type": "electric_scooter", "is_disabled": 0, "lat": 38.9141715, "rental_uris": {"ios": "https://dc.lft.to/lastmile_qr_scan", "android": "https://dc.lft.to/lastmile_qr_scan"}, "is_reserved": 0, "fusion_lon": 0.0, "fusion_lat": 0.0, "lon": -77.02402716666667, "name": "4752d1ccd314b12b8d4874df88b6fe3d"}, {"bike_id": "c2255a77999e9cd6f2fce210064bf2ba", "type": "electric_scooter", "is_disabled": 0, "lat": 38.915717, "rental_uris": {"ios": "https://dc.lft.to/lastmile_qr_scan", "android": "https://dc.lft.to/lastmile_qr_scan"}, "is_reserved": 0, "fusion_lon": 0.0, "fusion_lat": 0.0, "lon": -77.01954116666667, "name": "c2255a77999e9cd6f2fce210064bf2ba"}, {"bike_id": "5394b62bc8d86a53b926b3beb6562a36", "type": "electric_scooter", "is_disabled": 0, "lat": 38.8978175, "rental_uris": {"ios": "https://dc.lft.to/lastmile_qr_scan", "android": "https://dc.lft.to/lastmile_qr_scan"}, "is_reserved": 0, "fusion_lon": 0.0, "fusion_lat": 0.0, "lon": -76.9473335, "name": "5394b62bc8d86a53b926b3beb6562a36"}, {"bike_id": "72456494f2ec5a50c0aa66947a9c6350", "type": "electric_scooter", "is_disabled": 0, "lat": 38.866937666666665, "rental_uris": {"ios": "https://dc.lft.to/lastmile_qr_scan", "android": "https://dc.lft.to/lastmile_qr_scan"}, "is_reserved": 0, "fusion_lon": 0.0, "fusion_lat": 0.0, "lon": -76.98540116666666, "name": "72456494f2ec5a50c0aa66947a9c6350"}, {"bike_id": "19ffd609c62a1a8d0e07c393218f3330", "type": "electric_scooter", "is_disabled": 0, "lat": 38.9011635, "rental_uris": {"ios": "https://dc.lft.to/lastmile_qr_scan", "android": "https://dc.lft.to/lastmile_qr_scan"}, "is_reserved": 0, "fusion_lon": 0.0, "fusion_lat": 0.0, "lon": -77.0432595, "name": "19ffd609c62a1a8d0e07c393218f3330"}, {"bike_id": "882a146cc712eaedec00693c3bbf147a", "type": "electric_scooter", "is_disabled": 0, "lat": 38.924664666666665, "rental_uris": {"ios": "https://dc.lft.to/lastmile_qr_scan", "android": "https://dc.lft.to/lastmile_qr_scan"}, "is_reserved": 0, "fusion_lon": 0.0, "fusion_lat": 0.0, "lon": -77.02832016666666, "name": "882a146cc712eaedec00693c3bbf147a"}, {"bike_id": "480f5a5968b4ceb72e7d552f8677ad40", "type": "electric_scooter", "is_disabled": 0, "lat": 38.908753833333336, "rental_uris": {"ios": "https://dc.lft.to/lastmile_qr_scan", "android": "https://dc.lft.to/lastmile_qr_scan"}, "is_reserved": 0, "fusion_lon": 0.0, "fusion_lat": 0.0, "lon": -77.0437, "name": "480f5a5968b4ceb72e7d552f8677ad40"}, {"bike_id": "71b078a7ac37218296334dba55afda23", "type": "electric_scooter", "is_disabled": 0, "lat": 38.92599633333333, "rental_uris": {"ios": "https://dc.lft.to/lastmile_qr_scan", "android": "https://dc.lft.to/lastmile_qr_scan"}, "is_reserved": 0, "fusion_lon": 0.0, "fusion_lat": 0.0, "lon": -77.02154366666667, "name": "71b078a7ac37218296334dba55afda23"}, {"bike_id": "af79ab0ff9e791722feededf126fac50", "type": "electric_scooter", "is_disabled": 0, "lat": 38.92158766666667, "rental_uris": {"ios": "https://dc.lft.to/lastmile_qr_scan", "android": "https://dc.lft.to/lastmile_qr_scan"}, "is_reserved": 0, "fusion_lon": 0.0, "fusion_lat": 0.0, "lon": -77.033364, "name": "af79ab0ff9e791722feededf126fac50"}, {"bike_id": "be1e394d5cffbdd0f6f343555ce0777d", "type": "electric_scooter", "is_disabled": 0, "lat": 38.90580933333333, "rental_uris": {"ios": "https://dc.lft.to/lastmile_qr_scan", "android": "https://dc.lft.to/lastmile_qr_scan"}, "is_reserved": 0, "fusion_lon": 0.0, "fusion_lat": 0.0, "lon": -77.05707133333334, "name": "be1e394d5cffbdd0f6f343555ce0777d"}, {"bike_id": "83554379598b1899297631ee543039ce", "type": "electric_scooter", "is_disabled": 0, "lat": 38.91714566666667, "rental_uris": {"ios": "https://dc.lft.to/lastmile_qr_scan", "android": "https://dc.lft.to/lastmile_qr_scan"}, "is_reserved": 0, "fusion_lon": 0.0, "fusion_lat": 0.0, "lon": -77.02954766666667, "name": "83554379598b1899297631ee543039ce"}, {"bike_id": "c2de459771a97429da8bd353a8bb5e6c", "type": "electric_scooter", "is_disabled": 0, "lat": 38.914999333333334, "rental_uris": {"ios": "https://dc.lft.to/lastmile_qr_scan", "android": "https://dc.lft.to/lastmile_qr_scan"}, "is_reserved": 0, "fusion_lon": 0.0, "fusion_lat": 0.0, "lon": -77.017745, "name": "c2de459771a97429da8bd353a8bb5e6c"}, {"bike_id": "9f5bb7045680e6ae5c8ea226fe1d7adf", "type": "electric_scooter", "is_disabled": 0, "lat": 38.91419333333333, "rental_uris": {"ios": "https://dc.lft.to/lastmile_qr_scan", "android": "https://dc.lft.to/lastmile_qr_scan"}, "is_reserved": 0, "fusion_lon": 0.0, "fusion_lat": 0.0, "lon": -77.0240945, "name": "9f5bb7045680e6ae5c8ea226fe1d7adf"}, {"bike_id": "b1c1567eb5f41224c3f10776183e31ea", "type": "electric_scooter", "is_disabled": 0, "lat": 38.8665295, "rental_uris": {"ios": "https://dc.lft.to/lastmile_qr_scan", "android": "https://dc.lft.to/lastmile_qr_scan"}, "is_reserved": 0, "fusion_lon": 0.0, "fusion_lat": 0.0, "lon": -76.98881383333334, "name": "b1c1567eb5f41224c3f10776183e31ea"}, {"bike_id": "83dd1b7fe1ee2d6a23fad788e6ec7c06", "type": "electric_scooter", "is_disabled": 0, "lat": 38.904095833333336, "rental_uris": {"ios": "https://dc.lft.to/lastmile_qr_scan", "android": "https://dc.lft.to/lastmile_qr_scan"}, "is_reserved": 0, "fusion_lon": 0.0, "fusion_lat": 0.0, "lon": -76.97328966666667, "name": "83dd1b7fe1ee2d6a23fad788e6ec7c06"}, {"bike_id": "abe5aa23558d18518e67d986d80525ca", "type": "electric_scooter", "is_disabled": 0, "lat": 38.922313333333335, "rental_uris": {"ios": "https://dc.lft.to/lastmile_qr_scan", "android": "https://dc.lft.to/lastmile_qr_scan"}, "is_reserved": 0, "fusion_lon": 0.0, "fusion_lat": 0.0, "lon": -77.03704333333333, "name": "abe5aa23558d18518e67d986d80525ca"}, {"bike_id": "110576463ca89f1b21c5381a327af7da", "type": "electric_bike", "is_disabled": 0, "lat": 38.947344333333334, "rental_uris": {"ios": "https://dc.lft.to/lastmile_qr_scan", "android": "https://dc.lft.to/lastmile_qr_scan"}, "is_reserved": 0, "fusion_lon": 0.0, "fusion_lat": 0.0, "lon": -76.9958395, "name": "110576463ca89f1b21c5381a327af7da"}, {"bike_id": "30a744819d296ad18ada371c0b204a47", "type": "electric_scooter", "is_disabled": 0, "lat": 38.90360033333333, "rental_uris": {"ios": "https://dc.lft.to/lastmile_qr_scan", "android": "https://dc.lft.to/lastmile_qr_scan"}, "is_reserved": 0, "fusion_lon": 0.0, "fusion_lat": 0.0, "lon": -77.02203033333333, "name": "30a744819d296ad18ada371c0b204a47"}, {"bike_id": "dbf832be8423918c28a7782766b5a67f", "type": "electric_scooter", "is_disabled": 0, "lat": 38.886391833333334, "rental_uris": {"ios": "https://dc.lft.to/lastmile_qr_scan", "android": "https://dc.lft.to/lastmile_qr_scan"}, "is_reserved": 0, "fusion_lon": 0.0, "fusion_lat": 0.0, "lon": -77.01365916666667, "name": "dbf832be8423918c28a7782766b5a67f"}, {"bike_id": "ffa73ee2f9f7a045d86c83b95c6f3653", "type": "electric_scooter", "is_disabled": 0, "lat": 38.892368166666664, "rental_uris": {"ios": "https://dc.lft.to/lastmile_qr_scan", "android": "https://dc.lft.to/lastmile_qr_scan"}, "is_reserved": 0, "fusion_lon": 0.0, "fusion_lat": 0.0, "lon": -77.043637, "name": "ffa73ee2f9f7a045d86c83b95c6f3653"}, {"bike_id": "39a7085412526093b9cf8c11c7346ea9", "type": "electric_scooter", "is_disabled": 0, "lat": 38.93508333333333, "rental_uris": {"ios": "https://dc.lft.to/lastmile_qr_scan", "android": "https://dc.lft.to/lastmile_qr_scan"}, "is_reserved": 0, "fusion_lon": 0.0, "fusion_lat": 0.0, "lon": -77.02544866666666, "name": "39a7085412526093b9cf8c11c7346ea9"}, {"bike_id": "85d1b2f404be0c2c17e2e2d8cb0fe1ed", "type": "electric_scooter", "is_disabled": 0, "lat": 38.9171035, "rental_uris": {"ios": "https://dc.lft.to/lastmile_qr_scan", "android": "https://dc.lft.to/lastmile_qr_scan"}, "is_reserved": 0, "fusion_lon": 0.0, "fusion_lat": 0.0, "lon": -77.039998, "name": "85d1b2f404be0c2c17e2e2d8cb0fe1ed"}, {"bike_id": "e19a40fc4d49b5579dbc66d0f9196b96", "type": "electric_scooter", "is_disabled": 0, "lat": 38.905504666666666, "rental_uris": {"ios": "https://dc.lft.to/lastmile_qr_scan", "android": "https://dc.lft.to/lastmile_qr_scan"}, "is_reserved": 0, "fusion_lon": 0.0, "fusion_lat": 0.0, "lon": -77.021815, "name": "e19a40fc4d49b5579dbc66d0f9196b96"}, {"bike_id": "f4893f9d2b600070c1c577ee3f052cea", "type": "electric_scooter", "is_disabled": 0, "lat": 38.915822, "rental_uris": {"ios": "https://dc.lft.to/lastmile_qr_scan", "android": "https://dc.lft.to/lastmile_qr_scan"}, "is_reserved": 0, "fusion_lon": 0.0, "fusion_lat": 0.0, "lon": -77.0398065, "name": "f4893f9d2b600070c1c577ee3f052cea"}, {"bike_id": "586022eb2ebeea39ad516b343aaabdcf", "type": "electric_scooter", "is_disabled": 0, "lat": 38.89967516666667, "rental_uris": {"ios": "https://dc.lft.to/lastmile_qr_scan", "android": "https://dc.lft.to/lastmile_qr_scan"}, "is_reserved": 0, "fusion_lon": 0.0, "fusion_lat": 0.0, "lon": -76.983027, "name": "586022eb2ebeea39ad516b343aaabdcf"}, {"bike_id": "cc47b0902f969ee317d04957a276dd6f", "type": "electric_scooter", "is_disabled": 0, "lat": 38.9398195, "rental_uris": {"ios": "https://dc.lft.to/lastmile_qr_scan", "android": "https://dc.lft.to/lastmile_qr_scan"}, "is_reserved": 0, "fusion_lon": 0.0, "fusion_lat": 0.0, "lon": -77.02876366666666, "name": "cc47b0902f969ee317d04957a276dd6f"}, {"bike_id": "023988cac3835b844a1ced03a1c0b765", "type": "electric_scooter", "is_disabled": 0, "lat": 38.94610633333333, "rental_uris": {"ios": "https://dc.lft.to/lastmile_qr_scan", "android": "https://dc.lft.to/lastmile_qr_scan"}, "is_reserved": 0, "fusion_lon": 0.0, "fusion_lat": 0.0, "lon": -77.02266483333334, "name": "023988cac3835b844a1ced03a1c0b765"}, {"bike_id": "6ef9711e48e5ad91d06156b3798af4f9", "type": "electric_scooter", "is_disabled": 0, "lat": 38.89854783333333, "rental_uris": {"ios": "https://dc.lft.to/lastmile_qr_scan", "android": "https://dc.lft.to/lastmile_qr_scan"}, "is_reserved": 0, "fusion_lon": 0.0, "fusion_lat": 0.0, "lon": -77.024017, "name": "6ef9711e48e5ad91d06156b3798af4f9"}, {"bike_id": "35de26133aee2a8184df6f37596d7bf3", "type": "electric_scooter", "is_disabled": 0, "lat": 38.89792166666667, "rental_uris": {"ios": "https://dc.lft.to/lastmile_qr_scan", "android": "https://dc.lft.to/lastmile_qr_scan"}, "is_reserved": 0, "fusion_lon": 0.0, "fusion_lat": 0.0, "lon": -77.03219166666666, "name": "35de26133aee2a8184df6f37596d7bf3"}, {"bike_id": "47f063a1894fffbe0c316d57b412aed5", "type": "electric_scooter", "is_disabled": 0, "lat": 38.92124866666666, "rental_uris": {"ios": "https://dc.lft.to/lastmile_qr_scan", "android": "https://dc.lft.to/lastmile_qr_scan"}, "is_reserved": 0, "fusion_lon": 0.0, "fusion_lat": 0.0, "lon": -77.02713616666666, "name": "47f063a1894fffbe0c316d57b412aed5"}, {"bike_id": "74f0c3c52e838c7ddb2470638387453a", "type": "electric_scooter", "is_disabled": 0, "lat": 38.866253666666665, "rental_uris": {"ios": "https://dc.lft.to/lastmile_qr_scan", "android": "https://dc.lft.to/lastmile_qr_scan"}, "is_reserved": 0, "fusion_lon": 0.0, "fusion_lat": 0.0, "lon": -76.9871615, "name": "74f0c3c52e838c7ddb2470638387453a"}, {"bike_id": "16865b2ed654ddb00a95bc60e6b528fe", "type": "electric_scooter", "is_disabled": 0, "lat": 38.8948385, "rental_uris": {"ios": "https://dc.lft.to/lastmile_qr_scan", "android": "https://dc.lft.to/lastmile_qr_scan"}, "is_reserved": 0, "fusion_lon": 0.0, "fusion_lat": 0.0, "lon": -76.98778733333333, "name": "16865b2ed654ddb00a95bc60e6b528fe"}, {"bike_id": "79c3713aaaa10b326d69972bca47dd75", "type": "electric_scooter", "is_disabled": 0, "lat": 38.908613833333334, "rental_uris": {"ios": "https://dc.lft.to/lastmile_qr_scan", "android": "https://dc.lft.to/lastmile_qr_scan"}, "is_reserved": 0, "fusion_lon": 0.0, "fusion_lat": 0.0, "lon": -76.999522, "name": "79c3713aaaa10b326d69972bca47dd75"}, {"bike_id": "857761b9c9fe9b16733f1c58c7379f5f", "type": "electric_bike", "is_disabled": 0, "lat": 38.94361583333333, "rental_uris": {"ios": "https://dc.lft.to/lastmile_qr_scan", "android": "https://dc.lft.to/lastmile_qr_scan"}, "is_reserved": 0, "fusion_lon": 0.0, "fusion_lat": 0.0, "lon": -77.0035225, "name": "857761b9c9fe9b16733f1c58c7379f5f"}, {"bike_id": "875141a23c04c028deeaf71c5ff94636", "type": "electric_scooter", "is_disabled": 0, "lat": 38.89701, "rental_uris": {"ios": "https://dc.lft.to/lastmile_qr_scan", "android": "https://dc.lft.to/lastmile_qr_scan"}, "is_reserved": 0, "fusion_lon": 0.0, "fusion_lat": 0.0, "lon": -77.022934, "name": "875141a23c04c028deeaf71c5ff94636"}, {"bike_id": "015fad866a0f9a914923cf3d73327ccb", "type": "electric_scooter", "is_disabled": 0, "lat": 38.9260235, "rental_uris": {"ios": "https://dc.lft.to/lastmile_qr_scan", "android": "https://dc.lft.to/lastmile_qr_scan"}, "is_reserved": 0, "fusion_lon": 0.0, "fusion_lat": 0.0, "lon": -77.0215455, "name": "015fad866a0f9a914923cf3d73327ccb"}, {"bike_id": "9ce6ebcf23fc7de1fe7f3dbf87e6a221", "type": "electric_scooter", "is_disabled": 0, "lat": 38.85808466666667, "rental_uris": {"ios": "https://dc.lft.to/lastmile_qr_scan", "android": "https://dc.lft.to/lastmile_qr_scan"}, "is_reserved": 0, "fusion_lon": 0.0, "fusion_lat": 0.0, "lon": -76.98921233333333, "name": "9ce6ebcf23fc7de1fe7f3dbf87e6a221"}, {"bike_id": "288f2dbf56d1d93a4dfadfe6c02e8700", "type": "electric_scooter", "is_disabled": 0, "lat": 38.870688, "rental_uris": {"ios": "https://dc.lft.to/lastmile_qr_scan", "android": "https://dc.lft.to/lastmile_qr_scan"}, "is_reserved": 0, "fusion_lon": 0.0, "fusion_lat": 0.0, "lon": -76.98130366666666, "name": "288f2dbf56d1d93a4dfadfe6c02e8700"}, {"bike_id": "c68fc87d37b839b815ba1657a06db96e", "type": "electric_scooter", "is_disabled": 0, "lat": 38.90790883333333, "rental_uris": {"ios": "https://dc.lft.to/lastmile_qr_scan", "android": "https://dc.lft.to/lastmile_qr_scan"}, "is_reserved": 0, "fusion_lon": 0.0, "fusion_lat": 0.0, "lon": -76.994156, "name": "c68fc87d37b839b815ba1657a06db96e"}, {"bike_id": "ad98f6fd2f47e6dde2fe1f977492b40a", "type": "electric_scooter", "is_disabled": 0, "lat": 38.87382316666667, "rental_uris": {"ios": "https://dc.lft.to/lastmile_qr_scan", "android": "https://dc.lft.to/lastmile_qr_scan"}, "is_reserved": 0, "fusion_lon": 0.0, "fusion_lat": 0.0, "lon": -77.04348483333334, "name": "ad98f6fd2f47e6dde2fe1f977492b40a"}, {"bike_id": "974c67764e12cc0a4c97c622f1dadff5", "type": "electric_bike", "is_disabled": 0, "lat": 38.8342515, "rental_uris": {"ios": "https://dc.lft.to/lastmile_qr_scan", "android": "https://dc.lft.to/lastmile_qr_scan"}, "is_reserved": 0, "fusion_lon": 0.0, "fusion_lat": 0.0, "lon": -77.0588145, "name": "974c67764e12cc0a4c97c622f1dadff5"}, {"bike_id": "7f70f88dd4f235c634dcacd607611eb4", "type": "electric_scooter", "is_disabled": 0, "lat": 38.92113066666667, "rental_uris": {"ios": "https://dc.lft.to/lastmile_qr_scan", "android": "https://dc.lft.to/lastmile_qr_scan"}, "is_reserved": 0, "fusion_lon": 0.0, "fusion_lat": 0.0, "lon": -77.0420995, "name": "7f70f88dd4f235c634dcacd607611eb4"}, {"bike_id": "f522931bfa5ce6439d5aa91e1e326bdb", "type": "electric_scooter", "is_disabled": 0, "lat": 38.900892999999996, "rental_uris": {"ios": "https://dc.lft.to/lastmile_qr_scan", "android": "https://dc.lft.to/lastmile_qr_scan"}, "is_reserved": 0, "fusion_lon": 0.0, "fusion_lat": 0.0, "lon": -76.9833645, "name": "f522931bfa5ce6439d5aa91e1e326bdb"}, {"bike_id": "3ed89dcc7b6330928ac0445dcd9c41a1", "type": "electric_scooter", "is_disabled": 0, "lat": 38.93667516666667, "rental_uris": {"ios": "https://dc.lft.to/lastmile_qr_scan", "android": "https://dc.lft.to/lastmile_qr_scan"}, "is_reserved": 0, "fusion_lon": 0.0, "fusion_lat": 0.0, "lon": -77.02462416666667, "name": "3ed89dcc7b6330928ac0445dcd9c41a1"}, {"bike_id": "22772d251c4f949541f92fc22efe9c2a", "type": "electric_scooter", "is_disabled": 0, "lat": 38.922439, "rental_uris": {"ios": "https://dc.lft.to/lastmile_qr_scan", "android": "https://dc.lft.to/lastmile_qr_scan"}, "is_reserved": 0, "fusion_lon": 0.0, "fusion_lat": 0.0, "lon": -77.04253116666666, "name": "22772d251c4f949541f92fc22efe9c2a"}, {"bike_id": "0b36562e8f62e49addc3c49b14711d2d", "type": "electric_scooter", "is_disabled": 0, "lat": 38.887444, "rental_uris": {"ios": "https://dc.lft.to/lastmile_qr_scan", "android": "https://dc.lft.to/lastmile_qr_scan"}, "is_reserved": 0, "fusion_lon": 0.0, "fusion_lat": 0.0, "lon": -77.02842133333333, "name": "0b36562e8f62e49addc3c49b14711d2d"}, {"bike_id": "633f97e287c5ff395f390ed26c8a3717", "type": "electric_scooter", "is_disabled": 0, "lat": 38.905552, "rental_uris": {"ios": "https://dc.lft.to/lastmile_qr_scan", "android": "https://dc.lft.to/lastmile_qr_scan"}, "is_reserved": 0, "fusion_lon": 0.0, "fusion_lat": 0.0, "lon": -77.04277366666666, "name": "633f97e287c5ff395f390ed26c8a3717"}, {"bike_id": "aafb6554558c4d5a089c131bd9613de3", "type": "electric_scooter", "is_disabled": 0, "lat": 38.901373166666666, "rental_uris": {"ios": "https://dc.lft.to/lastmile_qr_scan", "android": "https://dc.lft.to/lastmile_qr_scan"}, "is_reserved": 0, "fusion_lon": 0.0, "fusion_lat": 0.0, "lon": -77.06076566666667, "name": "aafb6554558c4d5a089c131bd9613de3"}, {"bike_id": "30ea53beafff2723018f2781363b62eb", "type": "electric_scooter", "is_disabled": 0, "lat": 38.918541166666664, "rental_uris": {"ios": "https://dc.lft.to/lastmile_qr_scan", "android": "https://dc.lft.to/lastmile_qr_scan"}, "is_reserved": 0, "fusion_lon": 0.0, "fusion_lat": 0.0, "lon": -77.041024, "name": "30ea53beafff2723018f2781363b62eb"}, {"bike_id": "e52e0b22fa10b9b02e2c04b846f6a13e", "type": "electric_scooter", "is_disabled": 0, "lat": 38.9223855, "rental_uris": {"ios": "https://dc.lft.to/lastmile_qr_scan", "android": "https://dc.lft.to/lastmile_qr_scan"}, "is_reserved": 0, "fusion_lon": 0.0, "fusion_lat": 0.0, "lon": -77.03666583333333, "name": "e52e0b22fa10b9b02e2c04b846f6a13e"}, {"bike_id": "5cc1670ef04fd8c67bd4ec22b32ecaf6", "type": "electric_scooter", "is_disabled": 0, "lat": 38.9190975, "rental_uris": {"ios": "https://dc.lft.to/lastmile_qr_scan", "android": "https://dc.lft.to/lastmile_qr_scan"}, "is_reserved": 0, "fusion_lon": 0.0, "fusion_lat": 0.0, "lon": -77.02404566666667, "name": "5cc1670ef04fd8c67bd4ec22b32ecaf6"}, {"bike_id": "3206af45ae66502bf60e565e8410c2fc", "type": "electric_scooter", "is_disabled": 0, "lat": 38.90080916666667, "rental_uris": {"ios": "https://dc.lft.to/lastmile_qr_scan", "android": "https://dc.lft.to/lastmile_qr_scan"}, "is_reserved": 0, "fusion_lon": 0.0, "fusion_lat": 0.0, "lon": -76.9801075, "name": "3206af45ae66502bf60e565e8410c2fc"}, {"bike_id": "b88de9fc712b27ba5428fd9ea529abd2", "type": "electric_scooter", "is_disabled": 0, "lat": 38.905270333333334, "rental_uris": {"ios": "https://dc.lft.to/lastmile_qr_scan", "android": "https://dc.lft.to/lastmile_qr_scan"}, "is_reserved": 0, "fusion_lon": 0.0, "fusion_lat": 0.0, "lon": -77.04879166666667, "name": "b88de9fc712b27ba5428fd9ea529abd2"}, {"bike_id": "8e7461882bde8cc52c544e44e21aa68c", "type": "electric_scooter", "is_disabled": 0, "lat": 38.939205333333334, "rental_uris": {"ios": "https://dc.lft.to/lastmile_qr_scan", "android": "https://dc.lft.to/lastmile_qr_scan"}, "is_reserved": 0, "fusion_lon": 0.0, "fusion_lat": 0.0, "lon": -77.06050466666667, "name": "8e7461882bde8cc52c544e44e21aa68c"}, {"bike_id": "814d4d3b98b489606e4a4f0164b5c984", "type": "electric_bike", "is_disabled": 0, "lat": 38.8427885, "rental_uris": {"ios": "https://dc.lft.to/lastmile_qr_scan", "android": "https://dc.lft.to/lastmile_qr_scan"}, "is_reserved": 0, "fusion_lon": 0.0, "fusion_lat": 0.0, "lon": -76.988431, "name": "814d4d3b98b489606e4a4f0164b5c984"}, {"bike_id": "210a88bcc2b6b5567a0cd966543e0469", "type": "electric_scooter", "is_disabled": 0, "lat": 38.9366195, "rental_uris": {"ios": "https://dc.lft.to/lastmile_qr_scan", "android": "https://dc.lft.to/lastmile_qr_scan"}, "is_reserved": 0, "fusion_lon": 0.0, "fusion_lat": 0.0, "lon": -77.02411816666667, "name": "210a88bcc2b6b5567a0cd966543e0469"}, {"bike_id": "afe7a191a99101404cfa2d09b3f262e7", "type": "electric_scooter", "is_disabled": 0, "lat": 38.916370666666666, "rental_uris": {"ios": "https://dc.lft.to/lastmile_qr_scan", "android": "https://dc.lft.to/lastmile_qr_scan"}, "is_reserved": 0, "fusion_lon": 0.0, "fusion_lat": 0.0, "lon": -77.0322185, "name": "afe7a191a99101404cfa2d09b3f262e7"}, {"bike_id": "49a48b1483882d64fa3961fa8a0e9ae4", "type": "electric_scooter", "is_disabled": 0, "lat": 38.8984325, "rental_uris": {"ios": "https://dc.lft.to/lastmile_qr_scan", "android": "https://dc.lft.to/lastmile_qr_scan"}, "is_reserved": 0, "fusion_lon": 0.0, "fusion_lat": 0.0, "lon": -77.031213, "name": "49a48b1483882d64fa3961fa8a0e9ae4"}, {"bike_id": "ff79244c07b4acdb1914026e396d2018", "type": "electric_scooter", "is_disabled": 0, "lat": 38.9203265, "rental_uris": {"ios": "https://dc.lft.to/lastmile_qr_scan", "android": "https://dc.lft.to/lastmile_qr_scan"}, "is_reserved": 0, "fusion_lon": 0.0, "fusion_lat": 0.0, "lon": -77.013085, "name": "ff79244c07b4acdb1914026e396d2018"}, {"bike_id": "920f88e68c3d0d1bd4ab5c9029360e05", "type": "electric_scooter", "is_disabled": 0, "lat": 38.923408, "rental_uris": {"ios": "https://dc.lft.to/lastmile_qr_scan", "android": "https://dc.lft.to/lastmile_qr_scan"}, "is_reserved": 0, "fusion_lon": 0.0, "fusion_lat": 0.0, "lon": -77.05116633333333, "name": "920f88e68c3d0d1bd4ab5c9029360e05"}, {"bike_id": "8ee594bdc75e10f2236968c3ad5237ac", "type": "electric_scooter", "is_disabled": 0, "lat": 38.925348666666665, "rental_uris": {"ios": "https://dc.lft.to/lastmile_qr_scan", "android": "https://dc.lft.to/lastmile_qr_scan"}, "is_reserved": 0, "fusion_lon": 0.0, "fusion_lat": 0.0, "lon": -77.03491166666667, "name": "8ee594bdc75e10f2236968c3ad5237ac"}, {"bike_id": "5045429a99ded22db66074c4a7192f27", "type": "electric_scooter", "is_disabled": 0, "lat": 38.916898333333336, "rental_uris": {"ios": "https://dc.lft.to/lastmile_qr_scan", "android": "https://dc.lft.to/lastmile_qr_scan"}, "is_reserved": 0, "fusion_lon": 0.0, "fusion_lat": 0.0, "lon": -77.02877583333333, "name": "5045429a99ded22db66074c4a7192f27"}, {"bike_id": "f2c550f1c1d6dada01f7996aa8f0e0f6", "type": "electric_scooter", "is_disabled": 0, "lat": 38.91879083333333, "rental_uris": {"ios": "https://dc.lft.to/lastmile_qr_scan", "android": "https://dc.lft.to/lastmile_qr_scan"}, "is_reserved": 0, "fusion_lon": 0.0, "fusion_lat": 0.0, "lon": -77.059401, "name": "f2c550f1c1d6dada01f7996aa8f0e0f6"}, {"bike_id": "060c6005bd14d25b31b8af5245126e0d", "type": "electric_scooter", "is_disabled": 0, "lat": 38.893884166666666, "rental_uris": {"ios": "https://dc.lft.to/lastmile_qr_scan", "android": "https://dc.lft.to/lastmile_qr_scan"}, "is_reserved": 0, "fusion_lon": 0.0, "fusion_lat": 0.0, "lon": -77.02271733333333, "name": "060c6005bd14d25b31b8af5245126e0d"}, {"bike_id": "b9e54300beb1e892c8e2042dc03c1946", "type": "electric_bike", "is_disabled": 0, "lat": 38.872992333333336, "rental_uris": {"ios": "https://dc.lft.to/lastmile_qr_scan", "android": "https://dc.lft.to/lastmile_qr_scan"}, "is_reserved": 0, "fusion_lon": 0.0, "fusion_lat": 0.0, "lon": -77.13920983333334, "name": "b9e54300beb1e892c8e2042dc03c1946"}, {"bike_id": "22fab2a069b6939e7d5491980abb56f8", "type": "electric_scooter", "is_disabled": 0, "lat": 38.889933, "rental_uris": {"ios": "https://dc.lft.to/lastmile_qr_scan", "android": "https://dc.lft.to/lastmile_qr_scan"}, "is_reserved": 0, "fusion_lon": 0.0, "fusion_lat": 0.0, "lon": -77.04917083333333, "name": "22fab2a069b6939e7d5491980abb56f8"}, {"bike_id": "4e3cad13c9aeda405f7629b94e581265", "type": "electric_scooter", "is_disabled": 0, "lat": 38.8923065, "rental_uris": {"ios": "https://dc.lft.to/lastmile_qr_scan", "android": "https://dc.lft.to/lastmile_qr_scan"}, "is_reserved": 0, "fusion_lon": 0.0, "fusion_lat": 0.0, "lon": -77.03169333333334, "name": "4e3cad13c9aeda405f7629b94e581265"}, {"bike_id": "fe71d0037aab4eda09b5a646ba512fcc", "type": "electric_scooter", "is_disabled": 0, "lat": 38.92221683333333, "rental_uris": {"ios": "https://dc.lft.to/lastmile_qr_scan", "android": "https://dc.lft.to/lastmile_qr_scan"}, "is_reserved": 0, "fusion_lon": 0.0, "fusion_lat": 0.0, "lon": -77.03455333333333, "name": "fe71d0037aab4eda09b5a646ba512fcc"}, {"bike_id": "1991ceb805ee98a1e1a99c2f36991d7d", "type": "electric_scooter", "is_disabled": 0, "lat": 38.9071045, "rental_uris": {"ios": "https://dc.lft.to/lastmile_qr_scan", "android": "https://dc.lft.to/lastmile_qr_scan"}, "is_reserved": 0, "fusion_lon": 0.0, "fusion_lat": 0.0, "lon": -77.02391016666667, "name": "1991ceb805ee98a1e1a99c2f36991d7d"}, {"bike_id": "fb0bec9cec97a73a6c0afd1be5e5bb5f", "type": "electric_scooter", "is_disabled": 0, "lat": 38.90255616666666, "rental_uris": {"ios": "https://dc.lft.to/lastmile_qr_scan", "android": "https://dc.lft.to/lastmile_qr_scan"}, "is_reserved": 0, "fusion_lon": 0.0, "fusion_lat": 0.0, "lon": -77.01744916666667, "name": "fb0bec9cec97a73a6c0afd1be5e5bb5f"}, {"bike_id": "fcaeb08a69afca6c27dea395c69b97ca", "type": "electric_scooter", "is_disabled": 0, "lat": 38.90752233333333, "rental_uris": {"ios": "https://dc.lft.to/lastmile_qr_scan", "android": "https://dc.lft.to/lastmile_qr_scan"}, "is_reserved": 0, "fusion_lon": 0.0, "fusion_lat": 0.0, "lon": -77.0422345, "name": "fcaeb08a69afca6c27dea395c69b97ca"}, {"bike_id": "b1c8b3e7151dd4091bef27277f5b68b2", "type": "electric_scooter", "is_disabled": 0, "lat": 38.916897, "rental_uris": {"ios": "https://dc.lft.to/lastmile_qr_scan", "android": "https://dc.lft.to/lastmile_qr_scan"}, "is_reserved": 0, "fusion_lon": 0.0, "fusion_lat": 0.0, "lon": -77.03775216666666, "name": "b1c8b3e7151dd4091bef27277f5b68b2"}, {"bike_id": "38bf43f33067ccc57b47e63c3456d6a2", "type": "electric_scooter", "is_disabled": 0, "lat": 38.914997166666666, "rental_uris": {"ios": "https://dc.lft.to/lastmile_qr_scan", "android": "https://dc.lft.to/lastmile_qr_scan"}, "is_reserved": 0, "fusion_lon": 0.0, "fusion_lat": 0.0, "lon": -77.0317455, "name": "38bf43f33067ccc57b47e63c3456d6a2"}, {"bike_id": "d0eb3ef9166dc663bd7840b348e9f0c4", "type": "electric_scooter", "is_disabled": 0, "lat": 38.922393166666666, "rental_uris": {"ios": "https://dc.lft.to/lastmile_qr_scan", "android": "https://dc.lft.to/lastmile_qr_scan"}, "is_reserved": 0, "fusion_lon": 0.0, "fusion_lat": 0.0, "lon": -77.03662433333334, "name": "d0eb3ef9166dc663bd7840b348e9f0c4"}, {"bike_id": "42164bfd3a769440dac15a3cc3203234", "type": "electric_scooter", "is_disabled": 0, "lat": 38.90918633333333, "rental_uris": {"ios": "https://dc.lft.to/lastmile_qr_scan", "android": "https://dc.lft.to/lastmile_qr_scan"}, "is_reserved": 0, "fusion_lon": 0.0, "fusion_lat": 0.0, "lon": -76.99971916666667, "name": "42164bfd3a769440dac15a3cc3203234"}, {"bike_id": "4042fe4517b9e8c16810b421834eb1c7", "type": "electric_scooter", "is_disabled": 0, "lat": 38.9007025, "rental_uris": {"ios": "https://dc.lft.to/lastmile_qr_scan", "android": "https://dc.lft.to/lastmile_qr_scan"}, "is_reserved": 0, "fusion_lon": 0.0, "fusion_lat": 0.0, "lon": -77.03641616666667, "name": "4042fe4517b9e8c16810b421834eb1c7"}, {"bike_id": "adcb94b7b2718dc9bb548e8c439341d7", "type": "electric_scooter", "is_disabled": 0, "lat": 38.91707383333333, "rental_uris": {"ios": "https://dc.lft.to/lastmile_qr_scan", "android": "https://dc.lft.to/lastmile_qr_scan"}, "is_reserved": 0, "fusion_lon": 0.0, "fusion_lat": 0.0, "lon": -77.04604633333334, "name": "adcb94b7b2718dc9bb548e8c439341d7"}, {"bike_id": "2630194c487f0c9c4971703d0b461b19", "type": "electric_scooter", "is_disabled": 0, "lat": 38.892958, "rental_uris": {"ios": "https://dc.lft.to/lastmile_qr_scan", "android": "https://dc.lft.to/lastmile_qr_scan"}, "is_reserved": 0, "fusion_lon": 0.0, "fusion_lat": 0.0, "lon": -77.04871083333333, "name": "2630194c487f0c9c4971703d0b461b19"}, {"bike_id": "6c008641585a738db441c06c60811615", "type": "electric_bike", "is_disabled": 0, "lat": 39.039911833333335, "rental_uris": {"ios": "https://dc.lft.to/lastmile_qr_scan", "android": "https://dc.lft.to/lastmile_qr_scan"}, "is_reserved": 0, "fusion_lon": 0.0, "fusion_lat": 0.0, "lon": -76.99924916666667, "name": "6c008641585a738db441c06c60811615"}, {"bike_id": "c66de8412ec6dec3680b0d3b9c8f6355", "type": "electric_scooter", "is_disabled": 0, "lat": 38.91624866666667, "rental_uris": {"ios": "https://dc.lft.to/lastmile_qr_scan", "android": "https://dc.lft.to/lastmile_qr_scan"}, "is_reserved": 0, "fusion_lon": 0.0, "fusion_lat": 0.0, "lon": -77.02279633333333, "name": "c66de8412ec6dec3680b0d3b9c8f6355"}, {"bike_id": "6bb13a502956a3943911a9fb499c6198", "type": "electric_scooter", "is_disabled": 0, "lat": 38.9327655, "rental_uris": {"ios": "https://dc.lft.to/lastmile_qr_scan", "android": "https://dc.lft.to/lastmile_qr_scan"}, "is_reserved": 0, "fusion_lon": 0.0, "fusion_lat": 0.0, "lon": -77.040341, "name": "6bb13a502956a3943911a9fb499c6198"}, {"bike_id": "fa571f2f494b0db1648bae696846bc83", "type": "electric_scooter", "is_disabled": 0, "lat": 38.90364916666667, "rental_uris": {"ios": "https://dc.lft.to/lastmile_qr_scan", "android": "https://dc.lft.to/lastmile_qr_scan"}, "is_reserved": 0, "fusion_lon": 0.0, "fusion_lat": 0.0, "lon": -77.01637116666667, "name": "fa571f2f494b0db1648bae696846bc83"}, {"bike_id": "c96713d0c4eeba1ea2678db49f3b1c0a", "type": "electric_scooter", "is_disabled": 0, "lat": 38.921552, "rental_uris": {"ios": "https://dc.lft.to/lastmile_qr_scan", "android": "https://dc.lft.to/lastmile_qr_scan"}, "is_reserved": 0, "fusion_lon": 0.0, "fusion_lat": 0.0, "lon": -77.03333066666667, "name": "c96713d0c4eeba1ea2678db49f3b1c0a"}, {"bike_id": "ede5b9df8cc7fe1af4cad8aef9b74fc9", "type": "electric_scooter", "is_disabled": 0, "lat": 38.90359333333333, "rental_uris": {"ios": "https://dc.lft.to/lastmile_qr_scan", "android": "https://dc.lft.to/lastmile_qr_scan"}, "is_reserved": 0, "fusion_lon": 0.0, "fusion_lat": 0.0, "lon": -77.03157933333334, "name": "ede5b9df8cc7fe1af4cad8aef9b74fc9"}, {"bike_id": "18bea7b4dce2a93e378efad9537d88a3", "type": "electric_scooter", "is_disabled": 0, "lat": 38.902302166666665, "rental_uris": {"ios": "https://dc.lft.to/lastmile_qr_scan", "android": "https://dc.lft.to/lastmile_qr_scan"}, "is_reserved": 0, "fusion_lon": 0.0, "fusion_lat": 0.0, "lon": -77.03252316666666, "name": "18bea7b4dce2a93e378efad9537d88a3"}, {"bike_id": "36079ef3bb1e5a5927d00f7a6e575a27", "type": "electric_scooter", "is_disabled": 0, "lat": 38.9149825, "rental_uris": {"ios": "https://dc.lft.to/lastmile_qr_scan", "android": "https://dc.lft.to/lastmile_qr_scan"}, "is_reserved": 0, "fusion_lon": 0.0, "fusion_lat": 0.0, "lon": -77.012218, "name": "36079ef3bb1e5a5927d00f7a6e575a27"}, {"bike_id": "6380113ccca69b822c1796e1fbd1096b", "type": "electric_scooter", "is_disabled": 0, "lat": 38.927131, "rental_uris": {"ios": "https://dc.lft.to/lastmile_qr_scan", "android": "https://dc.lft.to/lastmile_qr_scan"}, "is_reserved": 0, "fusion_lon": 0.0, "fusion_lat": 0.0, "lon": -77.020996, "name": "6380113ccca69b822c1796e1fbd1096b"}, {"bike_id": "949841baf1c45fc38ac17d1238906ecb", "type": "electric_scooter", "is_disabled": 0, "lat": 38.92318916666667, "rental_uris": {"ios": "https://dc.lft.to/lastmile_qr_scan", "android": "https://dc.lft.to/lastmile_qr_scan"}, "is_reserved": 0, "fusion_lon": 0.0, "fusion_lat": 0.0, "lon": -77.03674483333333, "name": "949841baf1c45fc38ac17d1238906ecb"}, {"bike_id": "974dd1223971178d9f52b0546f7fa38b", "type": "electric_scooter", "is_disabled": 0, "lat": 38.91411316666667, "rental_uris": {"ios": "https://dc.lft.to/lastmile_qr_scan", "android": "https://dc.lft.to/lastmile_qr_scan"}, "is_reserved": 0, "fusion_lon": 0.0, "fusion_lat": 0.0, "lon": -77.022577, "name": "974dd1223971178d9f52b0546f7fa38b"}, {"bike_id": "16f12998a3bed99fea6d74ab0125c31e", "type": "electric_scooter", "is_disabled": 0, "lat": 38.887002333333335, "rental_uris": {"ios": "https://dc.lft.to/lastmile_qr_scan", "android": "https://dc.lft.to/lastmile_qr_scan"}, "is_reserved": 0, "fusion_lon": 0.0, "fusion_lat": 0.0, "lon": -77.013699, "name": "16f12998a3bed99fea6d74ab0125c31e"}, {"bike_id": "838a25cf897e9164bc88df43c200f173", "type": "electric_scooter", "is_disabled": 0, "lat": 38.90723083333334, "rental_uris": {"ios": "https://dc.lft.to/lastmile_qr_scan", "android": "https://dc.lft.to/lastmile_qr_scan"}, "is_reserved": 0, "fusion_lon": 0.0, "fusion_lat": 0.0, "lon": -77.025505, "name": "838a25cf897e9164bc88df43c200f173"}, {"bike_id": "a0f8e2fe69c29cbc23d12cc6366dd00c", "type": "electric_scooter", "is_disabled": 0, "lat": 38.93909816666667, "rental_uris": {"ios": "https://dc.lft.to/lastmile_qr_scan", "android": "https://dc.lft.to/lastmile_qr_scan"}, "is_reserved": 0, "fusion_lon": 0.0, "fusion_lat": 0.0, "lon": -77.06046866666667, "name": "a0f8e2fe69c29cbc23d12cc6366dd00c"}, {"bike_id": "4447ab95195797d860d8b1f2baf6c2ac", "type": "electric_scooter", "is_disabled": 0, "lat": 38.8848075, "rental_uris": {"ios": "https://dc.lft.to/lastmile_qr_scan", "android": "https://dc.lft.to/lastmile_qr_scan"}, "is_reserved": 0, "fusion_lon": 0.0, "fusion_lat": 0.0, "lon": -76.99699116666666, "name": "4447ab95195797d860d8b1f2baf6c2ac"}, {"bike_id": "232709b270be47c18fa7db3ae0818a91", "type": "electric_scooter", "is_disabled": 0, "lat": 38.862516666666664, "rental_uris": {"ios": "https://dc.lft.to/lastmile_qr_scan", "android": "https://dc.lft.to/lastmile_qr_scan"}, "is_reserved": 0, "fusion_lon": 0.0, "fusion_lat": 0.0, "lon": -76.99265233333334, "name": "232709b270be47c18fa7db3ae0818a91"}, {"bike_id": "9872bd59bb7146475e5bb35cce427d2d", "type": "electric_scooter", "is_disabled": 0, "lat": 38.916316333333334, "rental_uris": {"ios": "https://dc.lft.to/lastmile_qr_scan", "android": "https://dc.lft.to/lastmile_qr_scan"}, "is_reserved": 0, "fusion_lon": 0.0, "fusion_lat": 0.0, "lon": -77.048123, "name": "9872bd59bb7146475e5bb35cce427d2d"}, {"bike_id": "520aefd48808854a62ecac46f21d55da", "type": "electric_scooter", "is_disabled": 0, "lat": 38.915779666666666, "rental_uris": {"ios": "https://dc.lft.to/lastmile_qr_scan", "android": "https://dc.lft.to/lastmile_qr_scan"}, "is_reserved": 0, "fusion_lon": 0.0, "fusion_lat": 0.0, "lon": -77.031779, "name": "520aefd48808854a62ecac46f21d55da"}, {"bike_id": "bf48a752e4ff1b3990340b4385551abf", "type": "electric_scooter", "is_disabled": 0, "lat": 38.926444333333336, "rental_uris": {"ios": "https://dc.lft.to/lastmile_qr_scan", "android": "https://dc.lft.to/lastmile_qr_scan"}, "is_reserved": 0, "fusion_lon": 0.0, "fusion_lat": 0.0, "lon": -77.03548566666667, "name": "bf48a752e4ff1b3990340b4385551abf"}, {"bike_id": "9d1ff77bb2189b022f785517989964ce", "type": "electric_bike", "is_disabled": 0, "lat": 38.872926166666666, "rental_uris": {"ios": "https://dc.lft.to/lastmile_qr_scan", "android": "https://dc.lft.to/lastmile_qr_scan"}, "is_reserved": 0, "fusion_lon": 0.0, "fusion_lat": 0.0, "lon": -76.96976216666667, "name": "9d1ff77bb2189b022f785517989964ce"}, {"bike_id": "3a4d2e5eda7ade161e3fae5a5e8587a2", "type": "electric_scooter", "is_disabled": 0, "lat": 38.86505916666667, "rental_uris": {"ios": "https://dc.lft.to/lastmile_qr_scan", "android": "https://dc.lft.to/lastmile_qr_scan"}, "is_reserved": 0, "fusion_lon": 0.0, "fusion_lat": 0.0, "lon": -76.99003533333334, "name": "3a4d2e5eda7ade161e3fae5a5e8587a2"}, {"bike_id": "f470effcb140c64da1edbec84a05df8c", "type": "electric_bike", "is_disabled": 0, "lat": 38.90828116666667, "rental_uris": {"ios": "https://dc.lft.to/lastmile_qr_scan", "android": "https://dc.lft.to/lastmile_qr_scan"}, "is_reserved": 0, "fusion_lon": 0.0, "fusion_lat": 0.0, "lon": -76.9415475, "name": "f470effcb140c64da1edbec84a05df8c"}, {"bike_id": "72e4de0959314ea5df2ac145de34aadf", "type": "electric_scooter", "is_disabled": 0, "lat": 38.86253333333333, "rental_uris": {"ios": "https://dc.lft.to/lastmile_qr_scan", "android": "https://dc.lft.to/lastmile_qr_scan"}, "is_reserved": 0, "fusion_lon": 0.0, "fusion_lat": 0.0, "lon": -76.995378, "name": "72e4de0959314ea5df2ac145de34aadf"}, {"bike_id": "07a505074c0f6786678d6ecc9bca62cf", "type": "electric_bike", "is_disabled": 0, "lat": 38.84933, "rental_uris": {"ios": "https://dc.lft.to/lastmile_qr_scan", "android": "https://dc.lft.to/lastmile_qr_scan"}, "is_reserved": 0, "fusion_lon": 0.0, "fusion_lat": 0.0, "lon": -77.10013916666666, "name": "07a505074c0f6786678d6ecc9bca62cf"}, {"bike_id": "ce39a13302c42e88ebc7f2c1bfb94a23", "type": "electric_scooter", "is_disabled": 0, "lat": 38.90615616666667, "rental_uris": {"ios": "https://dc.lft.to/lastmile_qr_scan", "android": "https://dc.lft.to/lastmile_qr_scan"}, "is_reserved": 0, "fusion_lon": 0.0, "fusion_lat": 0.0, "lon": -77.03991383333333, "name": "ce39a13302c42e88ebc7f2c1bfb94a23"}, {"bike_id": "44f53d7a4843e56f4d07f38b119f6f19", "type": "electric_scooter", "is_disabled": 0, "lat": 38.941792, "rental_uris": {"ios": "https://dc.lft.to/lastmile_qr_scan", "android": "https://dc.lft.to/lastmile_qr_scan"}, "is_reserved": 0, "fusion_lon": 0.0, "fusion_lat": 0.0, "lon": -77.02526716666667, "name": "44f53d7a4843e56f4d07f38b119f6f19"}, {"bike_id": "2d160f4607dbc9e646a1fe9cbb382794", "type": "electric_scooter", "is_disabled": 0, "lat": 38.86695, "rental_uris": {"ios": "https://dc.lft.to/lastmile_qr_scan", "android": "https://dc.lft.to/lastmile_qr_scan"}, "is_reserved": 0, "fusion_lon": 0.0, "fusion_lat": 0.0, "lon": -76.98710666666666, "name": "2d160f4607dbc9e646a1fe9cbb382794"}, {"bike_id": "819a496b51570f06e6349b6ae1d26640", "type": "electric_scooter", "is_disabled": 0, "lat": 38.935094166666666, "rental_uris": {"ios": "https://dc.lft.to/lastmile_qr_scan", "android": "https://dc.lft.to/lastmile_qr_scan"}, "is_reserved": 0, "fusion_lon": 0.0, "fusion_lat": 0.0, "lon": -77.03289016666666, "name": "819a496b51570f06e6349b6ae1d26640"}, {"bike_id": "b65ffb5314d6a93b6b687b74be45ec72", "type": "electric_scooter", "is_disabled": 0, "lat": 38.85748616666667, "rental_uris": {"ios": "https://dc.lft.to/lastmile_qr_scan", "android": "https://dc.lft.to/lastmile_qr_scan"}, "is_reserved": 0, "fusion_lon": 0.0, "fusion_lat": 0.0, "lon": -76.993009, "name": "b65ffb5314d6a93b6b687b74be45ec72"}, {"bike_id": "225c3c2f7159a1890e7ac1852e2e2ab7", "type": "electric_bike", "is_disabled": 0, "lat": 38.93077683333333, "rental_uris": {"ios": "https://dc.lft.to/lastmile_qr_scan", "android": "https://dc.lft.to/lastmile_qr_scan"}, "is_reserved": 0, "fusion_lon": 0.0, "fusion_lat": 0.0, "lon": -77.02003716666667, "name": "225c3c2f7159a1890e7ac1852e2e2ab7"}, {"bike_id": "3b3c75018d115ecd2269608d9bed2b74", "type": "electric_scooter", "is_disabled": 0, "lat": 38.85837383333333, "rental_uris": {"ios": "https://dc.lft.to/lastmile_qr_scan", "android": "https://dc.lft.to/lastmile_qr_scan"}, "is_reserved": 0, "fusion_lon": 0.0, "fusion_lat": 0.0, "lon": -76.987297, "name": "3b3c75018d115ecd2269608d9bed2b74"}, {"bike_id": "ad3dbdb15a5f34580f9ed18e0b2ede50", "type": "electric_scooter", "is_disabled": 0, "lat": 38.90531633333333, "rental_uris": {"ios": "https://dc.lft.to/lastmile_qr_scan", "android": "https://dc.lft.to/lastmile_qr_scan"}, "is_reserved": 0, "fusion_lon": 0.0, "fusion_lat": 0.0, "lon": -76.9862655, "name": "ad3dbdb15a5f34580f9ed18e0b2ede50"}, {"bike_id": "60034de8fdd323608611e3d7f744f323", "type": "electric_scooter", "is_disabled": 0, "lat": 38.921669666666666, "rental_uris": {"ios": "https://dc.lft.to/lastmile_qr_scan", "android": "https://dc.lft.to/lastmile_qr_scan"}, "is_reserved": 0, "fusion_lon": 0.0, "fusion_lat": 0.0, "lon": -77.0384695, "name": "60034de8fdd323608611e3d7f744f323"}, {"bike_id": "c39f77e69086dd8bbf48dbb303428d12", "type": "electric_scooter", "is_disabled": 0, "lat": 38.897173333333335, "rental_uris": {"ios": "https://dc.lft.to/lastmile_qr_scan", "android": "https://dc.lft.to/lastmile_qr_scan"}, "is_reserved": 0, "fusion_lon": 0.0, "fusion_lat": 0.0, "lon": -76.98832516666667, "name": "c39f77e69086dd8bbf48dbb303428d12"}, {"bike_id": "5f182c50dca44aca3f8ffae09afd20cc", "type": "electric_scooter", "is_disabled": 0, "lat": 38.92251266666667, "rental_uris": {"ios": "https://dc.lft.to/lastmile_qr_scan", "android": "https://dc.lft.to/lastmile_qr_scan"}, "is_reserved": 0, "fusion_lon": 0.0, "fusion_lat": 0.0, "lon": -77.019697, "name": "5f182c50dca44aca3f8ffae09afd20cc"}, {"bike_id": "1d5ce1a2c010f4c06cab7603952630ee", "type": "electric_scooter", "is_disabled": 0, "lat": 38.92256916666667, "rental_uris": {"ios": "https://dc.lft.to/lastmile_qr_scan", "android": "https://dc.lft.to/lastmile_qr_scan"}, "is_reserved": 0, "fusion_lon": 0.0, "fusion_lat": 0.0, "lon": -77.07370316666666, "name": "1d5ce1a2c010f4c06cab7603952630ee"}, {"bike_id": "f62b374802e044a240ea514b2664733e", "type": "electric_scooter", "is_disabled": 0, "lat": 38.89481333333333, "rental_uris": {"ios": "https://dc.lft.to/lastmile_qr_scan", "android": "https://dc.lft.to/lastmile_qr_scan"}, "is_reserved": 0, "fusion_lon": 0.0, "fusion_lat": 0.0, "lon": -76.9951565, "name": "f62b374802e044a240ea514b2664733e"}, {"bike_id": "f5c2841cf4cd7451c58f72fd1e03847c", "type": "electric_scooter", "is_disabled": 0, "lat": 38.931115, "rental_uris": {"ios": "https://dc.lft.to/lastmile_qr_scan", "android": "https://dc.lft.to/lastmile_qr_scan"}, "is_reserved": 0, "fusion_lon": 0.0, "fusion_lat": 0.0, "lon": -77.0303045, "name": "f5c2841cf4cd7451c58f72fd1e03847c"}, {"bike_id": "af799a3a493ddf4612f66c3af4dda6af", "type": "electric_scooter", "is_disabled": 0, "lat": 38.9333985, "rental_uris": {"ios": "https://dc.lft.to/lastmile_qr_scan", "android": "https://dc.lft.to/lastmile_qr_scan"}, "is_reserved": 0, "fusion_lon": 0.0, "fusion_lat": 0.0, "lon": -77.06197566666667, "name": "af799a3a493ddf4612f66c3af4dda6af"}, {"bike_id": "757e0e631d086ad35118aae7c2c4f500", "type": "electric_scooter", "is_disabled": 0, "lat": 38.914248, "rental_uris": {"ios": "https://dc.lft.to/lastmile_qr_scan", "android": "https://dc.lft.to/lastmile_qr_scan"}, "is_reserved": 0, "fusion_lon": 0.0, "fusion_lat": 0.0, "lon": -77.019858, "name": "757e0e631d086ad35118aae7c2c4f500"}, {"bike_id": "139954c4dd5bbaab84928a427663c1a0", "type": "electric_bike", "is_disabled": 0, "lat": 38.88674116666667, "rental_uris": {"ios": "https://dc.lft.to/lastmile_qr_scan", "android": "https://dc.lft.to/lastmile_qr_scan"}, "is_reserved": 0, "fusion_lon": 0.0, "fusion_lat": 0.0, "lon": -77.16236733333334, "name": "139954c4dd5bbaab84928a427663c1a0"}, {"bike_id": "55bc4b486e9dc61aa3c278eec3a9061b", "type": "electric_bike", "is_disabled": 0, "lat": 38.836071833333335, "rental_uris": {"ios": "https://dc.lft.to/lastmile_qr_scan", "android": "https://dc.lft.to/lastmile_qr_scan"}, "is_reserved": 0, "fusion_lon": 0.0, "fusion_lat": 0.0, "lon": -77.00381466666667, "name": "55bc4b486e9dc61aa3c278eec3a9061b"}, {"bike_id": "bcb64ef40ad0af7411d0ba7f338149d4", "type": "electric_scooter", "is_disabled": 0, "lat": 38.8983665, "rental_uris": {"ios": "https://dc.lft.to/lastmile_qr_scan", "android": "https://dc.lft.to/lastmile_qr_scan"}, "is_reserved": 0, "fusion_lon": 0.0, "fusion_lat": 0.0, "lon": -77.02253466666667, "name": "bcb64ef40ad0af7411d0ba7f338149d4"}, {"bike_id": "e4930e6af9f783faebf7a1ff9b7f4d59", "type": "electric_scooter", "is_disabled": 0, "lat": 38.91693883333333, "rental_uris": {"ios": "https://dc.lft.to/lastmile_qr_scan", "android": "https://dc.lft.to/lastmile_qr_scan"}, "is_reserved": 0, "fusion_lon": 0.0, "fusion_lat": 0.0, "lon": -77.04107733333333, "name": "e4930e6af9f783faebf7a1ff9b7f4d59"}, {"bike_id": "58e054d9d57db03fd005537f5b558f46", "type": "electric_scooter", "is_disabled": 0, "lat": 38.92236583333333, "rental_uris": {"ios": "https://dc.lft.to/lastmile_qr_scan", "android": "https://dc.lft.to/lastmile_qr_scan"}, "is_reserved": 0, "fusion_lon": 0.0, "fusion_lat": 0.0, "lon": -77.04251883333333, "name": "58e054d9d57db03fd005537f5b558f46"}, {"bike_id": "755c638bea5f276c1a2d8de29832bc11", "type": "electric_scooter", "is_disabled": 0, "lat": 38.9010825, "rental_uris": {"ios": "https://dc.lft.to/lastmile_qr_scan", "android": "https://dc.lft.to/lastmile_qr_scan"}, "is_reserved": 0, "fusion_lon": 0.0, "fusion_lat": 0.0, "lon": -77.03845183333334, "name": "755c638bea5f276c1a2d8de29832bc11"}, {"bike_id": "03ebedbd3076dde95e666a38361fbdac", "type": "electric_scooter", "is_disabled": 0, "lat": 38.906644666666665, "rental_uris": {"ios": "https://dc.lft.to/lastmile_qr_scan", "android": "https://dc.lft.to/lastmile_qr_scan"}, "is_reserved": 0, "fusion_lon": 0.0, "fusion_lat": 0.0, "lon": -77.02727483333334, "name": "03ebedbd3076dde95e666a38361fbdac"}, {"bike_id": "7a7c76aa668c0f5375cdecd33f89fedd", "type": "electric_scooter", "is_disabled": 0, "lat": 38.92237383333333, "rental_uris": {"ios": "https://dc.lft.to/lastmile_qr_scan", "android": "https://dc.lft.to/lastmile_qr_scan"}, "is_reserved": 0, "fusion_lon": 0.0, "fusion_lat": 0.0, "lon": -77.02981583333333, "name": "7a7c76aa668c0f5375cdecd33f89fedd"}, {"bike_id": "4f1b3b18f678a8591a506d2706e70854", "type": "electric_scooter", "is_disabled": 0, "lat": 38.939494833333335, "rental_uris": {"ios": "https://dc.lft.to/lastmile_qr_scan", "android": "https://dc.lft.to/lastmile_qr_scan"}, "is_reserved": 0, "fusion_lon": 0.0, "fusion_lat": 0.0, "lon": -77.07251283333333, "name": "4f1b3b18f678a8591a506d2706e70854"}, {"bike_id": "a1727b04c1a54cb9812e6c96369a5f5a", "type": "electric_scooter", "is_disabled": 0, "lat": 38.9125195, "rental_uris": {"ios": "https://dc.lft.to/lastmile_qr_scan", "android": "https://dc.lft.to/lastmile_qr_scan"}, "is_reserved": 0, "fusion_lon": 0.0, "fusion_lat": 0.0, "lon": -77.03169116666666, "name": "a1727b04c1a54cb9812e6c96369a5f5a"}, {"bike_id": "089eee01e94140a4c72a92ee11a7abc6", "type": "electric_scooter", "is_disabled": 0, "lat": 38.93400333333334, "rental_uris": {"ios": "https://dc.lft.to/lastmile_qr_scan", "android": "https://dc.lft.to/lastmile_qr_scan"}, "is_reserved": 0, "fusion_lon": 0.0, "fusion_lat": 0.0, "lon": -77.02209533333334, "name": "089eee01e94140a4c72a92ee11a7abc6"}, {"bike_id": "bd6e2ba77d677bffb0362cdce709f29a", "type": "electric_scooter", "is_disabled": 0, "lat": 38.86654083333333, "rental_uris": {"ios": "https://dc.lft.to/lastmile_qr_scan", "android": "https://dc.lft.to/lastmile_qr_scan"}, "is_reserved": 0, "fusion_lon": 0.0, "fusion_lat": 0.0, "lon": -76.98889166666666, "name": "bd6e2ba77d677bffb0362cdce709f29a"}, {"bike_id": "473bb5a0d9d9d6dcbb3b396685c39ca4", "type": "electric_scooter", "is_disabled": 0, "lat": 38.8697435, "rental_uris": {"ios": "https://dc.lft.to/lastmile_qr_scan", "android": "https://dc.lft.to/lastmile_qr_scan"}, "is_reserved": 0, "fusion_lon": 0.0, "fusion_lat": 0.0, "lon": -76.98171, "name": "473bb5a0d9d9d6dcbb3b396685c39ca4"}, {"bike_id": "e8ae968f38dda1ba144bbe907e0271cf", "type": "electric_scooter", "is_disabled": 0, "lat": 38.9184185, "rental_uris": {"ios": "https://dc.lft.to/lastmile_qr_scan", "android": "https://dc.lft.to/lastmile_qr_scan"}, "is_reserved": 0, "fusion_lon": 0.0, "fusion_lat": 0.0, "lon": -77.02511716666666, "name": "e8ae968f38dda1ba144bbe907e0271cf"}, {"bike_id": "2152b33231e7cd7ae58232d3366a4300", "type": "electric_scooter", "is_disabled": 0, "lat": 38.909444, "rental_uris": {"ios": "https://dc.lft.to/lastmile_qr_scan", "android": "https://dc.lft.to/lastmile_qr_scan"}, "is_reserved": 0, "fusion_lon": 0.0, "fusion_lat": 0.0, "lon": -77.04233266666667, "name": "2152b33231e7cd7ae58232d3366a4300"}, {"bike_id": "71dc08416f51c353f09c861f5ab75299", "type": "electric_scooter", "is_disabled": 0, "lat": 38.935195666666665, "rental_uris": {"ios": "https://dc.lft.to/lastmile_qr_scan", "android": "https://dc.lft.to/lastmile_qr_scan"}, "is_reserved": 0, "fusion_lon": 0.0, "fusion_lat": 0.0, "lon": -77.0338735, "name": "71dc08416f51c353f09c861f5ab75299"}, {"bike_id": "0973953e60564c7508c4f8dfbfbf65e7", "type": "electric_scooter", "is_disabled": 0, "lat": 38.9243625, "rental_uris": {"ios": "https://dc.lft.to/lastmile_qr_scan", "android": "https://dc.lft.to/lastmile_qr_scan"}, "is_reserved": 0, "fusion_lon": 0.0, "fusion_lat": 0.0, "lon": -77.04016283333333, "name": "0973953e60564c7508c4f8dfbfbf65e7"}, {"bike_id": "0f78fc26657fb5ad1ee60cb2a6e41260", "type": "electric_scooter", "is_disabled": 0, "lat": 38.899739333333336, "rental_uris": {"ios": "https://dc.lft.to/lastmile_qr_scan", "android": "https://dc.lft.to/lastmile_qr_scan"}, "is_reserved": 0, "fusion_lon": 0.0, "fusion_lat": 0.0, "lon": -77.03379933333333, "name": "0f78fc26657fb5ad1ee60cb2a6e41260"}, {"bike_id": "7cd15fc9ce3becfd32094f5a0f741b69", "type": "electric_bike", "is_disabled": 0, "lat": 38.910196166666665, "rental_uris": {"ios": "https://dc.lft.to/lastmile_qr_scan", "android": "https://dc.lft.to/lastmile_qr_scan"}, "is_reserved": 0, "fusion_lon": 0.0, "fusion_lat": 0.0, "lon": -77.22796333333334, "name": "7cd15fc9ce3becfd32094f5a0f741b69"}, {"bike_id": "00bbcadb2fc71fa23ffcabeabf0a476e", "type": "electric_scooter", "is_disabled": 0, "lat": 38.8977455, "rental_uris": {"ios": "https://dc.lft.to/lastmile_qr_scan", "android": "https://dc.lft.to/lastmile_qr_scan"}, "is_reserved": 0, "fusion_lon": 0.0, "fusion_lat": 0.0, "lon": -77.0014165, "name": "00bbcadb2fc71fa23ffcabeabf0a476e"}, {"bike_id": "056433d827202568dc64bbb22bece5c3", "type": "electric_scooter", "is_disabled": 0, "lat": 38.9072175, "rental_uris": {"ios": "https://dc.lft.to/lastmile_qr_scan", "android": "https://dc.lft.to/lastmile_qr_scan"}, "is_reserved": 0, "fusion_lon": 0.0, "fusion_lat": 0.0, "lon": -77.0006195, "name": "056433d827202568dc64bbb22bece5c3"}, {"bike_id": "0e9f2cc8f4d661cf48c8d44f46b5f750", "type": "electric_bike", "is_disabled": 0, "lat": 38.87270683333333, "rental_uris": {"ios": "https://dc.lft.to/lastmile_qr_scan", "android": "https://dc.lft.to/lastmile_qr_scan"}, "is_reserved": 0, "fusion_lon": 0.0, "fusion_lat": 0.0, "lon": -77.23247266666667, "name": "0e9f2cc8f4d661cf48c8d44f46b5f750"}, {"bike_id": "a1753860304e9d0ec42a8031612f2451", "type": "electric_bike", "is_disabled": 0, "lat": 38.883864, "rental_uris": {"ios": "https://dc.lft.to/lastmile_qr_scan", "android": "https://dc.lft.to/lastmile_qr_scan"}, "is_reserved": 0, "fusion_lon": 0.0, "fusion_lat": 0.0, "lon": -76.98552233333334, "name": "a1753860304e9d0ec42a8031612f2451"}, {"bike_id": "5e7f5e1ed3de79d9db9caae6c3b6af11", "type": "electric_scooter", "is_disabled": 0, "lat": 38.91418383333333, "rental_uris": {"ios": "https://dc.lft.to/lastmile_qr_scan", "android": "https://dc.lft.to/lastmile_qr_scan"}, "is_reserved": 0, "fusion_lon": 0.0, "fusion_lat": 0.0, "lon": -77.048079, "name": "5e7f5e1ed3de79d9db9caae6c3b6af11"}, {"bike_id": "430a4ecad304cc43b874b793247627d2", "type": "electric_scooter", "is_disabled": 0, "lat": 38.91301166666667, "rental_uris": {"ios": "https://dc.lft.to/lastmile_qr_scan", "android": "https://dc.lft.to/lastmile_qr_scan"}, "is_reserved": 0, "fusion_lon": 0.0, "fusion_lat": 0.0, "lon": -77.04559266666666, "name": "430a4ecad304cc43b874b793247627d2"}, {"bike_id": "b3609e5b72ea4e0a4534e745753ceed8", "type": "electric_scooter", "is_disabled": 0, "lat": 38.900194666666664, "rental_uris": {"ios": "https://dc.lft.to/lastmile_qr_scan", "android": "https://dc.lft.to/lastmile_qr_scan"}, "is_reserved": 0, "fusion_lon": 0.0, "fusion_lat": 0.0, "lon": -77.01158433333333, "name": "b3609e5b72ea4e0a4534e745753ceed8"}, {"bike_id": "cc1c337eb466148b48a4d0ba83a37a84", "type": "electric_scooter", "is_disabled": 0, "lat": 38.91416733333333, "rental_uris": {"ios": "https://dc.lft.to/lastmile_qr_scan", "android": "https://dc.lft.to/lastmile_qr_scan"}, "is_reserved": 0, "fusion_lon": 0.0, "fusion_lat": 0.0, "lon": -77.01989733333333, "name": "cc1c337eb466148b48a4d0ba83a37a84"}, {"bike_id": "1cc3724df9594e98eff568949a4b8935", "type": "electric_scooter", "is_disabled": 0, "lat": 38.919735833333334, "rental_uris": {"ios": "https://dc.lft.to/lastmile_qr_scan", "android": "https://dc.lft.to/lastmile_qr_scan"}, "is_reserved": 0, "fusion_lon": 0.0, "fusion_lat": 0.0, "lon": -77.0709255, "name": "1cc3724df9594e98eff568949a4b8935"}, {"bike_id": "1cf3644c30a98ec86bc0392c787eb792", "type": "electric_scooter", "is_disabled": 0, "lat": 38.916899, "rental_uris": {"ios": "https://dc.lft.to/lastmile_qr_scan", "android": "https://dc.lft.to/lastmile_qr_scan"}, "is_reserved": 0, "fusion_lon": 0.0, "fusion_lat": 0.0, "lon": -77.03314283333333, "name": "1cf3644c30a98ec86bc0392c787eb792"}, {"bike_id": "134540f269baab799d73525fd22fb4fd", "type": "electric_scooter", "is_disabled": 0, "lat": 38.924757, "rental_uris": {"ios": "https://dc.lft.to/lastmile_qr_scan", "android": "https://dc.lft.to/lastmile_qr_scan"}, "is_reserved": 0, "fusion_lon": 0.0, "fusion_lat": 0.0, "lon": -77.02248666666667, "name": "134540f269baab799d73525fd22fb4fd"}, {"bike_id": "cb926e0d93c7a9896d18a686970bd994", "type": "electric_scooter", "is_disabled": 0, "lat": 38.90832316666667, "rental_uris": {"ios": "https://dc.lft.to/lastmile_qr_scan", "android": "https://dc.lft.to/lastmile_qr_scan"}, "is_reserved": 0, "fusion_lon": 0.0, "fusion_lat": 0.0, "lon": -77.03192866666667, "name": "cb926e0d93c7a9896d18a686970bd994"}, {"bike_id": "14a1002c458dbc0805855aafdb148987", "type": "electric_scooter", "is_disabled": 0, "lat": 38.91324733333333, "rental_uris": {"ios": "https://dc.lft.to/lastmile_qr_scan", "android": "https://dc.lft.to/lastmile_qr_scan"}, "is_reserved": 0, "fusion_lon": 0.0, "fusion_lat": 0.0, "lon": -77.0318135, "name": "14a1002c458dbc0805855aafdb148987"}, {"bike_id": "aa811962e234569160458c2e648274c7", "type": "electric_scooter", "is_disabled": 0, "lat": 38.9244545, "rental_uris": {"ios": "https://dc.lft.to/lastmile_qr_scan", "android": "https://dc.lft.to/lastmile_qr_scan"}, "is_reserved": 0, "fusion_lon": 0.0, "fusion_lat": 0.0, "lon": -77.000033, "name": "aa811962e234569160458c2e648274c7"}, {"bike_id": "263ff2ec56f13cbe566a8c8d5f7bfffe", "type": "electric_scooter", "is_disabled": 0, "lat": 38.931461166666665, "rental_uris": {"ios": "https://dc.lft.to/lastmile_qr_scan", "android": "https://dc.lft.to/lastmile_qr_scan"}, "is_reserved": 0, "fusion_lon": 0.0, "fusion_lat": 0.0, "lon": -77.0335105, "name": "263ff2ec56f13cbe566a8c8d5f7bfffe"}, {"bike_id": "a3238effae4da2300ccaada40df2e35a", "type": "electric_scooter", "is_disabled": 0, "lat": 38.943268333333336, "rental_uris": {"ios": "https://dc.lft.to/lastmile_qr_scan", "android": "https://dc.lft.to/lastmile_qr_scan"}, "is_reserved": 0, "fusion_lon": 0.0, "fusion_lat": 0.0, "lon": -77.01476916666667, "name": "a3238effae4da2300ccaada40df2e35a"}, {"bike_id": "6da3bec55882aff3715a9ddc347731e3", "type": "electric_scooter", "is_disabled": 0, "lat": 38.898159166666666, "rental_uris": {"ios": "https://dc.lft.to/lastmile_qr_scan", "android": "https://dc.lft.to/lastmile_qr_scan"}, "is_reserved": 0, "fusion_lon": 0.0, "fusion_lat": 0.0, "lon": -77.02373516666667, "name": "6da3bec55882aff3715a9ddc347731e3"}, {"bike_id": "0f75309c6820d7b5f9f08ec93ae730d2", "type": "electric_scooter", "is_disabled": 0, "lat": 38.91807633333333, "rental_uris": {"ios": "https://dc.lft.to/lastmile_qr_scan", "android": "https://dc.lft.to/lastmile_qr_scan"}, "is_reserved": 0, "fusion_lon": 0.0, "fusion_lat": 0.0, "lon": -77.03435, "name": "0f75309c6820d7b5f9f08ec93ae730d2"}, {"bike_id": "41881464f6fc10346a4c5bb82faf6329", "type": "electric_scooter", "is_disabled": 0, "lat": 38.90571333333333, "rental_uris": {"ios": "https://dc.lft.to/lastmile_qr_scan", "android": "https://dc.lft.to/lastmile_qr_scan"}, "is_reserved": 0, "fusion_lon": 0.0, "fusion_lat": 0.0, "lon": -77.03096733333334, "name": "41881464f6fc10346a4c5bb82faf6329"}, {"bike_id": "7dd3c69b9dca0b57b88cd4c0fb0e652c", "type": "electric_scooter", "is_disabled": 0, "lat": 38.92931766666667, "rental_uris": {"ios": "https://dc.lft.to/lastmile_qr_scan", "android": "https://dc.lft.to/lastmile_qr_scan"}, "is_reserved": 0, "fusion_lon": 0.0, "fusion_lat": 0.0, "lon": -77.03269433333334, "name": "7dd3c69b9dca0b57b88cd4c0fb0e652c"}, {"bike_id": "d755bbd0e8eefd53a931f6364f96f2ce", "type": "electric_scooter", "is_disabled": 0, "lat": 38.9236965, "rental_uris": {"ios": "https://dc.lft.to/lastmile_qr_scan", "android": "https://dc.lft.to/lastmile_qr_scan"}, "is_reserved": 0, "fusion_lon": 0.0, "fusion_lat": 0.0, "lon": -77.03055066666667, "name": "d755bbd0e8eefd53a931f6364f96f2ce"}, {"bike_id": "b242b82841ea56e6c4dfdbaebed54547", "type": "electric_scooter", "is_disabled": 0, "lat": 38.896652333333336, "rental_uris": {"ios": "https://dc.lft.to/lastmile_qr_scan", "android": "https://dc.lft.to/lastmile_qr_scan"}, "is_reserved": 0, "fusion_lon": 0.0, "fusion_lat": 0.0, "lon": -76.93212283333334, "name": "b242b82841ea56e6c4dfdbaebed54547"}, {"bike_id": "228af18d3de7498dfda3dfd822dbfdb8", "type": "electric_scooter", "is_disabled": 0, "lat": 38.923688, "rental_uris": {"ios": "https://dc.lft.to/lastmile_qr_scan", "android": "https://dc.lft.to/lastmile_qr_scan"}, "is_reserved": 0, "fusion_lon": 0.0, "fusion_lat": 0.0, "lon": -77.03129516666667, "name": "228af18d3de7498dfda3dfd822dbfdb8"}, {"bike_id": "ad51aee98ac537c16f7fc40e7a1b8cc5", "type": "electric_scooter", "is_disabled": 0, "lat": 38.9266515, "rental_uris": {"ios": "https://dc.lft.to/lastmile_qr_scan", "android": "https://dc.lft.to/lastmile_qr_scan"}, "is_reserved": 0, "fusion_lon": 0.0, "fusion_lat": 0.0, "lon": -76.99536466666666, "name": "ad51aee98ac537c16f7fc40e7a1b8cc5"}, {"bike_id": "47d0fb1bbcb9c30e850340adf852217a", "type": "electric_scooter", "is_disabled": 0, "lat": 38.892179166666665, "rental_uris": {"ios": "https://dc.lft.to/lastmile_qr_scan", "android": "https://dc.lft.to/lastmile_qr_scan"}, "is_reserved": 0, "fusion_lon": 0.0, "fusion_lat": 0.0, "lon": -77.0397535, "name": "47d0fb1bbcb9c30e850340adf852217a"}, {"bike_id": "5275132c2bc1bab113c2fc348eee0f86", "type": "electric_scooter", "is_disabled": 0, "lat": 38.896082, "rental_uris": {"ios": "https://dc.lft.to/lastmile_qr_scan", "android": "https://dc.lft.to/lastmile_qr_scan"}, "is_reserved": 0, "fusion_lon": 0.0, "fusion_lat": 0.0, "lon": -77.026371, "name": "5275132c2bc1bab113c2fc348eee0f86"}, {"bike_id": "7ad26c8e762bdf3c4a01f7ec29d7a5d0", "type": "electric_scooter", "is_disabled": 0, "lat": 38.91705816666666, "rental_uris": {"ios": "https://dc.lft.to/lastmile_qr_scan", "android": "https://dc.lft.to/lastmile_qr_scan"}, "is_reserved": 0, "fusion_lon": 0.0, "fusion_lat": 0.0, "lon": -77.04123966666667, "name": "7ad26c8e762bdf3c4a01f7ec29d7a5d0"}, {"bike_id": "faa0e826ef7bd7b443e0641e81ff4d48", "type": "electric_scooter", "is_disabled": 0, "lat": 38.918142333333336, "rental_uris": {"ios": "https://dc.lft.to/lastmile_qr_scan", "android": "https://dc.lft.to/lastmile_qr_scan"}, "is_reserved": 0, "fusion_lon": 0.0, "fusion_lat": 0.0, "lon": -77.02474183333334, "name": "faa0e826ef7bd7b443e0641e81ff4d48"}, {"bike_id": "3f5f6eed0d48fbe98ef7115217baf660", "type": "electric_scooter", "is_disabled": 0, "lat": 38.921534666666666, "rental_uris": {"ios": "https://dc.lft.to/lastmile_qr_scan", "android": "https://dc.lft.to/lastmile_qr_scan"}, "is_reserved": 0, "fusion_lon": 0.0, "fusion_lat": 0.0, "lon": -77.0351905, "name": "3f5f6eed0d48fbe98ef7115217baf660"}, {"bike_id": "98a4a246d96d8123c81fd8f2118ef5c2", "type": "electric_scooter", "is_disabled": 0, "lat": 38.926551, "rental_uris": {"ios": "https://dc.lft.to/lastmile_qr_scan", "android": "https://dc.lft.to/lastmile_qr_scan"}, "is_reserved": 0, "fusion_lon": 0.0, "fusion_lat": 0.0, "lon": -77.0240545, "name": "98a4a246d96d8123c81fd8f2118ef5c2"}, {"bike_id": "af3fd77741fff1a0300dbe3287840513", "type": "electric_scooter", "is_disabled": 0, "lat": 38.887431166666666, "rental_uris": {"ios": "https://dc.lft.to/lastmile_qr_scan", "android": "https://dc.lft.to/lastmile_qr_scan"}, "is_reserved": 0, "fusion_lon": 0.0, "fusion_lat": 0.0, "lon": -77.01721383333333, "name": "af3fd77741fff1a0300dbe3287840513"}, {"bike_id": "5080eece8c16fc066b27e6a5dc3bf930", "type": "electric_scooter", "is_disabled": 0, "lat": 38.9112205, "rental_uris": {"ios": "https://dc.lft.to/lastmile_qr_scan", "android": "https://dc.lft.to/lastmile_qr_scan"}, "is_reserved": 0, "fusion_lon": 0.0, "fusion_lat": 0.0, "lon": -77.03176933333333, "name": "5080eece8c16fc066b27e6a5dc3bf930"}, {"bike_id": "05b5b6a4ff3ca4791fd68177c0cace5f", "type": "electric_scooter", "is_disabled": 0, "lat": 38.91692033333333, "rental_uris": {"ios": "https://dc.lft.to/lastmile_qr_scan", "android": "https://dc.lft.to/lastmile_qr_scan"}, "is_reserved": 0, "fusion_lon": 0.0, "fusion_lat": 0.0, "lon": -77.03342, "name": "05b5b6a4ff3ca4791fd68177c0cace5f"}, {"bike_id": "9547d4cfb687230718ccc0c99d87377e", "type": "electric_scooter", "is_disabled": 0, "lat": 38.87674366666667, "rental_uris": {"ios": "https://dc.lft.to/lastmile_qr_scan", "android": "https://dc.lft.to/lastmile_qr_scan"}, "is_reserved": 0, "fusion_lon": 0.0, "fusion_lat": 0.0, "lon": -77.00436533333334, "name": "9547d4cfb687230718ccc0c99d87377e"}, {"bike_id": "e729f8bae1a640722cf566c534e4be84", "type": "electric_scooter", "is_disabled": 0, "lat": 38.902316166666665, "rental_uris": {"ios": "https://dc.lft.to/lastmile_qr_scan", "android": "https://dc.lft.to/lastmile_qr_scan"}, "is_reserved": 0, "fusion_lon": 0.0, "fusion_lat": 0.0, "lon": -77.029349, "name": "e729f8bae1a640722cf566c534e4be84"}, {"bike_id": "690667be05fd0853a3d03533bf28e0ef", "type": "electric_scooter", "is_disabled": 0, "lat": 38.907971833333335, "rental_uris": {"ios": "https://dc.lft.to/lastmile_qr_scan", "android": "https://dc.lft.to/lastmile_qr_scan"}, "is_reserved": 0, "fusion_lon": 0.0, "fusion_lat": 0.0, "lon": -77.04167283333334, "name": "690667be05fd0853a3d03533bf28e0ef"}, {"bike_id": "4449858a974207cb4a77dceed439b1ad", "type": "electric_scooter", "is_disabled": 0, "lat": 38.942903333333334, "rental_uris": {"ios": "https://dc.lft.to/lastmile_qr_scan", "android": "https://dc.lft.to/lastmile_qr_scan"}, "is_reserved": 0, "fusion_lon": 0.0, "fusion_lat": 0.0, "lon": -77.021633, "name": "4449858a974207cb4a77dceed439b1ad"}, {"bike_id": "38cd753c06750b5e624cf9d58695ab28", "type": "electric_scooter", "is_disabled": 0, "lat": 38.916788, "rental_uris": {"ios": "https://dc.lft.to/lastmile_qr_scan", "android": "https://dc.lft.to/lastmile_qr_scan"}, "is_reserved": 0, "fusion_lon": 0.0, "fusion_lat": 0.0, "lon": -77.02392083333334, "name": "38cd753c06750b5e624cf9d58695ab28"}, {"bike_id": "1f40889dec50f6106471503ecce04eee", "type": "electric_scooter", "is_disabled": 0, "lat": 38.90719216666667, "rental_uris": {"ios": "https://dc.lft.to/lastmile_qr_scan", "android": "https://dc.lft.to/lastmile_qr_scan"}, "is_reserved": 0, "fusion_lon": 0.0, "fusion_lat": 0.0, "lon": -77.02626466666666, "name": "1f40889dec50f6106471503ecce04eee"}, {"bike_id": "53c08cee7dd76cd752de9f052a733fe4", "type": "electric_scooter", "is_disabled": 0, "lat": 38.89490716666667, "rental_uris": {"ios": "https://dc.lft.to/lastmile_qr_scan", "android": "https://dc.lft.to/lastmile_qr_scan"}, "is_reserved": 0, "fusion_lon": 0.0, "fusion_lat": 0.0, "lon": -77.01100133333334, "name": "53c08cee7dd76cd752de9f052a733fe4"}, {"bike_id": "f274a0c07bfbb24d850338b612c36cca", "type": "electric_scooter", "is_disabled": 0, "lat": 38.912371666666665, "rental_uris": {"ios": "https://dc.lft.to/lastmile_qr_scan", "android": "https://dc.lft.to/lastmile_qr_scan"}, "is_reserved": 0, "fusion_lon": 0.0, "fusion_lat": 0.0, "lon": -77.0221905, "name": "f274a0c07bfbb24d850338b612c36cca"}, {"bike_id": "7e38e6b31f7f90ca503173aa3585b5fe", "type": "electric_scooter", "is_disabled": 0, "lat": 38.940725, "rental_uris": {"ios": "https://dc.lft.to/lastmile_qr_scan", "android": "https://dc.lft.to/lastmile_qr_scan"}, "is_reserved": 0, "fusion_lon": 0.0, "fusion_lat": 0.0, "lon": -77.0611815, "name": "7e38e6b31f7f90ca503173aa3585b5fe"}, {"bike_id": "ca0c443e731bbbdd5e8a85202c1e4586", "type": "electric_scooter", "is_disabled": 0, "lat": 38.911933833333336, "rental_uris": {"ios": "https://dc.lft.to/lastmile_qr_scan", "android": "https://dc.lft.to/lastmile_qr_scan"}, "is_reserved": 0, "fusion_lon": 0.0, "fusion_lat": 0.0, "lon": -77.01906516666666, "name": "ca0c443e731bbbdd5e8a85202c1e4586"}, {"bike_id": "ecd27b9b5d64a1713ae7a64bcfc6ddc3", "type": "electric_scooter", "is_disabled": 0, "lat": 38.910350666666666, "rental_uris": {"ios": "https://dc.lft.to/lastmile_qr_scan", "android": "https://dc.lft.to/lastmile_qr_scan"}, "is_reserved": 0, "fusion_lon": 0.0, "fusion_lat": 0.0, "lon": -77.0380015, "name": "ecd27b9b5d64a1713ae7a64bcfc6ddc3"}, {"bike_id": "c403d4e551e86f647da2a8db19689594", "type": "electric_scooter", "is_disabled": 0, "lat": 38.91034666666667, "rental_uris": {"ios": "https://dc.lft.to/lastmile_qr_scan", "android": "https://dc.lft.to/lastmile_qr_scan"}, "is_reserved": 0, "fusion_lon": 0.0, "fusion_lat": 0.0, "lon": -77.03799033333334, "name": "c403d4e551e86f647da2a8db19689594"}, {"bike_id": "5983a0a9d2a1f5b519a1a7789371a5bb", "type": "electric_scooter", "is_disabled": 0, "lat": 38.919245833333335, "rental_uris": {"ios": "https://dc.lft.to/lastmile_qr_scan", "android": "https://dc.lft.to/lastmile_qr_scan"}, "is_reserved": 0, "fusion_lon": 0.0, "fusion_lat": 0.0, "lon": -77.03112216666666, "name": "5983a0a9d2a1f5b519a1a7789371a5bb"}, {"bike_id": "877e7c5541a827a96fde9d407c8afd49", "type": "electric_scooter", "is_disabled": 0, "lat": 38.957852833333334, "rental_uris": {"ios": "https://dc.lft.to/lastmile_qr_scan", "android": "https://dc.lft.to/lastmile_qr_scan"}, "is_reserved": 0, "fusion_lon": 0.0, "fusion_lat": 0.0, "lon": -77.0321685, "name": "877e7c5541a827a96fde9d407c8afd49"}, {"bike_id": "6ef866630c8546f4d85313e5c323119a", "type": "electric_scooter", "is_disabled": 0, "lat": 38.923433, "rental_uris": {"ios": "https://dc.lft.to/lastmile_qr_scan", "android": "https://dc.lft.to/lastmile_qr_scan"}, "is_reserved": 0, "fusion_lon": 0.0, "fusion_lat": 0.0, "lon": -77.0511585, "name": "6ef866630c8546f4d85313e5c323119a"}, {"bike_id": "a37b0d14ea06bd88064d2be333382319", "type": "electric_scooter", "is_disabled": 0, "lat": 38.92385483333333, "rental_uris": {"ios": "https://dc.lft.to/lastmile_qr_scan", "android": "https://dc.lft.to/lastmile_qr_scan"}, "is_reserved": 0, "fusion_lon": 0.0, "fusion_lat": 0.0, "lon": -77.02971583333333, "name": "a37b0d14ea06bd88064d2be333382319"}, {"bike_id": "0905681fecf1c861d0efbafa03e8680a", "type": "electric_scooter", "is_disabled": 0, "lat": 38.923295333333336, "rental_uris": {"ios": "https://dc.lft.to/lastmile_qr_scan", "android": "https://dc.lft.to/lastmile_qr_scan"}, "is_reserved": 0, "fusion_lon": 0.0, "fusion_lat": 0.0, "lon": -77.037867, "name": "0905681fecf1c861d0efbafa03e8680a"}, {"bike_id": "6ab3ff5290fd3e5458250c6c9f496251", "type": "electric_scooter", "is_disabled": 0, "lat": 38.9011895, "rental_uris": {"ios": "https://dc.lft.to/lastmile_qr_scan", "android": "https://dc.lft.to/lastmile_qr_scan"}, "is_reserved": 0, "fusion_lon": 0.0, "fusion_lat": 0.0, "lon": -76.9295235, "name": "6ab3ff5290fd3e5458250c6c9f496251"}, {"bike_id": "5b187a6bd37406b9d5037e34eb9eca21", "type": "electric_scooter", "is_disabled": 0, "lat": 38.88530333333333, "rental_uris": {"ios": "https://dc.lft.to/lastmile_qr_scan", "android": "https://dc.lft.to/lastmile_qr_scan"}, "is_reserved": 0, "fusion_lon": 0.0, "fusion_lat": 0.0, "lon": -76.99821266666666, "name": "5b187a6bd37406b9d5037e34eb9eca21"}, {"bike_id": "a2d30b6b81111307e399dc9e63071caf", "type": "electric_scooter", "is_disabled": 0, "lat": 38.9233195, "rental_uris": {"ios": "https://dc.lft.to/lastmile_qr_scan", "android": "https://dc.lft.to/lastmile_qr_scan"}, "is_reserved": 0, "fusion_lon": 0.0, "fusion_lat": 0.0, "lon": -77.0537615, "name": "a2d30b6b81111307e399dc9e63071caf"}, {"bike_id": "5466178f6bd3cd5a7a7c6cadddc56a9d", "type": "electric_scooter", "is_disabled": 0, "lat": 38.9128385, "rental_uris": {"ios": "https://dc.lft.to/lastmile_qr_scan", "android": "https://dc.lft.to/lastmile_qr_scan"}, "is_reserved": 0, "fusion_lon": 0.0, "fusion_lat": 0.0, "lon": -77.0237945, "name": "5466178f6bd3cd5a7a7c6cadddc56a9d"}, {"bike_id": "dd7a79cba004eacc058a9f05dcf9e770", "type": "electric_scooter", "is_disabled": 0, "lat": 38.8724335, "rental_uris": {"ios": "https://dc.lft.to/lastmile_qr_scan", "android": "https://dc.lft.to/lastmile_qr_scan"}, "is_reserved": 0, "fusion_lon": 0.0, "fusion_lat": 0.0, "lon": -76.9772455, "name": "dd7a79cba004eacc058a9f05dcf9e770"}, {"bike_id": "e5eaa698fa348318e8a0b30d5219a181", "type": "electric_bike", "is_disabled": 0, "lat": 38.973965666666665, "rental_uris": {"ios": "https://dc.lft.to/lastmile_qr_scan", "android": "https://dc.lft.to/lastmile_qr_scan"}, "is_reserved": 0, "fusion_lon": 0.0, "fusion_lat": 0.0, "lon": -77.06458133333334, "name": "e5eaa698fa348318e8a0b30d5219a181"}, {"bike_id": "6ec1d45151342081267d0249104a537b", "type": "electric_scooter", "is_disabled": 0, "lat": 38.916925166666665, "rental_uris": {"ios": "https://dc.lft.to/lastmile_qr_scan", "android": "https://dc.lft.to/lastmile_qr_scan"}, "is_reserved": 0, "fusion_lon": 0.0, "fusion_lat": 0.0, "lon": -77.0259605, "name": "6ec1d45151342081267d0249104a537b"}, {"bike_id": "2a01f65f62776c0f0a1de5e218119ba8", "type": "electric_scooter", "is_disabled": 0, "lat": 38.9031015, "rental_uris": {"ios": "https://dc.lft.to/lastmile_qr_scan", "android": "https://dc.lft.to/lastmile_qr_scan"}, "is_reserved": 0, "fusion_lon": 0.0, "fusion_lat": 0.0, "lon": -77.06516616666667, "name": "2a01f65f62776c0f0a1de5e218119ba8"}, {"bike_id": "c3b9bcfc402669f9e7d1ea5829080b54", "type": "electric_scooter", "is_disabled": 0, "lat": 38.8995585, "rental_uris": {"ios": "https://dc.lft.to/lastmile_qr_scan", "android": "https://dc.lft.to/lastmile_qr_scan"}, "is_reserved": 0, "fusion_lon": 0.0, "fusion_lat": 0.0, "lon": -77.01615783333334, "name": "c3b9bcfc402669f9e7d1ea5829080b54"}, {"bike_id": "56e729aeb06b9b605da52884fdcb872d", "type": "electric_scooter", "is_disabled": 0, "lat": 38.924811, "rental_uris": {"ios": "https://dc.lft.to/lastmile_qr_scan", "android": "https://dc.lft.to/lastmile_qr_scan"}, "is_reserved": 0, "fusion_lon": 0.0, "fusion_lat": 0.0, "lon": -77.031066, "name": "56e729aeb06b9b605da52884fdcb872d"}, {"bike_id": "ec27bb472e2b9340c79d011d802f5630", "type": "electric_bike", "is_disabled": 0, "lat": 38.93550616666667, "rental_uris": {"ios": "https://dc.lft.to/lastmile_qr_scan", "android": "https://dc.lft.to/lastmile_qr_scan"}, "is_reserved": 0, "fusion_lon": 0.0, "fusion_lat": 0.0, "lon": -76.93897466666667, "name": "ec27bb472e2b9340c79d011d802f5630"}, {"bike_id": "7f26fcc20e41aaffe30a7559ff9bf170", "type": "electric_scooter", "is_disabled": 0, "lat": 38.9159655, "rental_uris": {"ios": "https://dc.lft.to/lastmile_qr_scan", "android": "https://dc.lft.to/lastmile_qr_scan"}, "is_reserved": 0, "fusion_lon": 0.0, "fusion_lat": 0.0, "lon": -77.06807566666667, "name": "7f26fcc20e41aaffe30a7559ff9bf170"}, {"bike_id": "0ed251aa96d365df686a9259048fac62", "type": "electric_scooter", "is_disabled": 0, "lat": 38.9147525, "rental_uris": {"ios": "https://dc.lft.to/lastmile_qr_scan", "android": "https://dc.lft.to/lastmile_qr_scan"}, "is_reserved": 0, "fusion_lon": 0.0, "fusion_lat": 0.0, "lon": -77.045621, "name": "0ed251aa96d365df686a9259048fac62"}, {"bike_id": "9620c538107d0a6fd6736d82e966f90f", "type": "electric_scooter", "is_disabled": 0, "lat": 38.9126615, "rental_uris": {"ios": "https://dc.lft.to/lastmile_qr_scan", "android": "https://dc.lft.to/lastmile_qr_scan"}, "is_reserved": 0, "fusion_lon": 0.0, "fusion_lat": 0.0, "lon": -77.0295405, "name": "9620c538107d0a6fd6736d82e966f90f"}, {"bike_id": "289356be9737d98ef03bbce39a229bb4", "type": "electric_scooter", "is_disabled": 0, "lat": 38.90248316666667, "rental_uris": {"ios": "https://dc.lft.to/lastmile_qr_scan", "android": "https://dc.lft.to/lastmile_qr_scan"}, "is_reserved": 0, "fusion_lon": 0.0, "fusion_lat": 0.0, "lon": -77.0175415, "name": "289356be9737d98ef03bbce39a229bb4"}, {"bike_id": "42619cc7dc6a0faa3b0fa08f0b735f1f", "type": "electric_scooter", "is_disabled": 0, "lat": 38.88278316666667, "rental_uris": {"ios": "https://dc.lft.to/lastmile_qr_scan", "android": "https://dc.lft.to/lastmile_qr_scan"}, "is_reserved": 0, "fusion_lon": 0.0, "fusion_lat": 0.0, "lon": -76.9292075, "name": "42619cc7dc6a0faa3b0fa08f0b735f1f"}, {"bike_id": "58286ac36dba8d3ac03023692257b078", "type": "electric_scooter", "is_disabled": 0, "lat": 38.86704433333333, "rental_uris": {"ios": "https://dc.lft.to/lastmile_qr_scan", "android": "https://dc.lft.to/lastmile_qr_scan"}, "is_reserved": 0, "fusion_lon": 0.0, "fusion_lat": 0.0, "lon": -76.98712783333333, "name": "58286ac36dba8d3ac03023692257b078"}, {"bike_id": "901a9188c7a9f923070fc00854ec9fe6", "type": "electric_scooter", "is_disabled": 0, "lat": 38.912586833333336, "rental_uris": {"ios": "https://dc.lft.to/lastmile_qr_scan", "android": "https://dc.lft.to/lastmile_qr_scan"}, "is_reserved": 0, "fusion_lon": 0.0, "fusion_lat": 0.0, "lon": -77.03141333333333, "name": "901a9188c7a9f923070fc00854ec9fe6"}, {"bike_id": "ee4abc3c5bff487a8db287ff6371e1e8", "type": "electric_scooter", "is_disabled": 0, "lat": 38.90676833333333, "rental_uris": {"ios": "https://dc.lft.to/lastmile_qr_scan", "android": "https://dc.lft.to/lastmile_qr_scan"}, "is_reserved": 0, "fusion_lon": 0.0, "fusion_lat": 0.0, "lon": -77.02689633333334, "name": "ee4abc3c5bff487a8db287ff6371e1e8"}, {"bike_id": "b2afc6d82b85ec458348c894efa73c01", "type": "electric_scooter", "is_disabled": 0, "lat": 38.917015, "rental_uris": {"ios": "https://dc.lft.to/lastmile_qr_scan", "android": "https://dc.lft.to/lastmile_qr_scan"}, "is_reserved": 0, "fusion_lon": 0.0, "fusion_lat": 0.0, "lon": -77.0241055, "name": "b2afc6d82b85ec458348c894efa73c01"}, {"bike_id": "7364b3a2ba8b16e4732d1287b1570f57", "type": "electric_scooter", "is_disabled": 0, "lat": 38.904763333333335, "rental_uris": {"ios": "https://dc.lft.to/lastmile_qr_scan", "android": "https://dc.lft.to/lastmile_qr_scan"}, "is_reserved": 0, "fusion_lon": 0.0, "fusion_lat": 0.0, "lon": -77.04342966666667, "name": "7364b3a2ba8b16e4732d1287b1570f57"}, {"bike_id": "7426d96168e015b750fe9d45b8423d72", "type": "electric_scooter", "is_disabled": 0, "lat": 38.9057065, "rental_uris": {"ios": "https://dc.lft.to/lastmile_qr_scan", "android": "https://dc.lft.to/lastmile_qr_scan"}, "is_reserved": 0, "fusion_lon": 0.0, "fusion_lat": 0.0, "lon": -76.97624133333333, "name": "7426d96168e015b750fe9d45b8423d72"}, {"bike_id": "a86659399d202c175689ef5e62ca800e", "type": "electric_scooter", "is_disabled": 0, "lat": 38.8708595, "rental_uris": {"ios": "https://dc.lft.to/lastmile_qr_scan", "android": "https://dc.lft.to/lastmile_qr_scan"}, "is_reserved": 0, "fusion_lon": 0.0, "fusion_lat": 0.0, "lon": -77.01213333333334, "name": "a86659399d202c175689ef5e62ca800e"}, {"bike_id": "e586e026f01c4684e92c0ccdfa7d9c85", "type": "electric_scooter", "is_disabled": 0, "lat": 38.902432, "rental_uris": {"ios": "https://dc.lft.to/lastmile_qr_scan", "android": "https://dc.lft.to/lastmile_qr_scan"}, "is_reserved": 0, "fusion_lon": 0.0, "fusion_lat": 0.0, "lon": -77.01812916666667, "name": "e586e026f01c4684e92c0ccdfa7d9c85"}, {"bike_id": "39818190b69deb05eb1b8a712be334cc", "type": "electric_scooter", "is_disabled": 0, "lat": 38.8922205, "rental_uris": {"ios": "https://dc.lft.to/lastmile_qr_scan", "android": "https://dc.lft.to/lastmile_qr_scan"}, "is_reserved": 0, "fusion_lon": 0.0, "fusion_lat": 0.0, "lon": -77.03018016666667, "name": "39818190b69deb05eb1b8a712be334cc"}, {"bike_id": "3b097ee6be677970ab6e62640fbe458e", "type": "electric_scooter", "is_disabled": 0, "lat": 38.9002835, "rental_uris": {"ios": "https://dc.lft.to/lastmile_qr_scan", "android": "https://dc.lft.to/lastmile_qr_scan"}, "is_reserved": 0, "fusion_lon": 0.0, "fusion_lat": 0.0, "lon": -77.00203966666666, "name": "3b097ee6be677970ab6e62640fbe458e"}, {"bike_id": "7601d3e258a48553ae3372743b10aeef", "type": "electric_scooter", "is_disabled": 0, "lat": 38.904629666666665, "rental_uris": {"ios": "https://dc.lft.to/lastmile_qr_scan", "android": "https://dc.lft.to/lastmile_qr_scan"}, "is_reserved": 0, "fusion_lon": 0.0, "fusion_lat": 0.0, "lon": -77.02816433333334, "name": "7601d3e258a48553ae3372743b10aeef"}, {"bike_id": "8701fcdff55c735d91077d86d9e3cc23", "type": "electric_scooter", "is_disabled": 0, "lat": 38.904656333333335, "rental_uris": {"ios": "https://dc.lft.to/lastmile_qr_scan", "android": "https://dc.lft.to/lastmile_qr_scan"}, "is_reserved": 0, "fusion_lon": 0.0, "fusion_lat": 0.0, "lon": -76.97613083333333, "name": "8701fcdff55c735d91077d86d9e3cc23"}, {"bike_id": "c92993ce395626ca54b02f014b80089b", "type": "electric_scooter", "is_disabled": 0, "lat": 38.91607833333333, "rental_uris": {"ios": "https://dc.lft.to/lastmile_qr_scan", "android": "https://dc.lft.to/lastmile_qr_scan"}, "is_reserved": 0, "fusion_lon": 0.0, "fusion_lat": 0.0, "lon": -77.04874466666666, "name": "c92993ce395626ca54b02f014b80089b"}, {"bike_id": "6224abe2bf14364ab95a6ed37399cb12", "type": "electric_scooter", "is_disabled": 0, "lat": 38.906768166666666, "rental_uris": {"ios": "https://dc.lft.to/lastmile_qr_scan", "android": "https://dc.lft.to/lastmile_qr_scan"}, "is_reserved": 0, "fusion_lon": 0.0, "fusion_lat": 0.0, "lon": -76.97996883333333, "name": "6224abe2bf14364ab95a6ed37399cb12"}, {"bike_id": "370daaf4e1502d3d3d01ff19556070f7", "type": "electric_scooter", "is_disabled": 0, "lat": 38.9047035, "rental_uris": {"ios": "https://dc.lft.to/lastmile_qr_scan", "android": "https://dc.lft.to/lastmile_qr_scan"}, "is_reserved": 0, "fusion_lon": 0.0, "fusion_lat": 0.0, "lon": -77.043394, "name": "370daaf4e1502d3d3d01ff19556070f7"}, {"bike_id": "7859c948c5b2d6e44dead5aee7eea556", "type": "electric_scooter", "is_disabled": 0, "lat": 38.9296675, "rental_uris": {"ios": "https://dc.lft.to/lastmile_qr_scan", "android": "https://dc.lft.to/lastmile_qr_scan"}, "is_reserved": 0, "fusion_lon": 0.0, "fusion_lat": 0.0, "lon": -77.043717, "name": "7859c948c5b2d6e44dead5aee7eea556"}, {"bike_id": "6927518ea5f497a0c2560276d81a5b55", "type": "electric_scooter", "is_disabled": 0, "lat": 38.928716333333334, "rental_uris": {"ios": "https://dc.lft.to/lastmile_qr_scan", "android": "https://dc.lft.to/lastmile_qr_scan"}, "is_reserved": 0, "fusion_lon": 0.0, "fusion_lat": 0.0, "lon": -77.0277635, "name": "6927518ea5f497a0c2560276d81a5b55"}, {"bike_id": "46264e3dc54af33bdd83f3e26fc86adf", "type": "electric_scooter", "is_disabled": 0, "lat": 38.914264833333334, "rental_uris": {"ios": "https://dc.lft.to/lastmile_qr_scan", "android": "https://dc.lft.to/lastmile_qr_scan"}, "is_reserved": 0, "fusion_lon": 0.0, "fusion_lat": 0.0, "lon": -77.03206166666666, "name": "46264e3dc54af33bdd83f3e26fc86adf"}, {"bike_id": "5b58f18cf4f5cfea2ab871e65d086dfb", "type": "electric_scooter", "is_disabled": 0, "lat": 38.91076783333333, "rental_uris": {"ios": "https://dc.lft.to/lastmile_qr_scan", "android": "https://dc.lft.to/lastmile_qr_scan"}, "is_reserved": 0, "fusion_lon": 0.0, "fusion_lat": 0.0, "lon": -77.03716533333333, "name": "5b58f18cf4f5cfea2ab871e65d086dfb"}, {"bike_id": "254bdc271513db305a9f21868cd416f7", "type": "electric_scooter", "is_disabled": 0, "lat": 38.876601666666666, "rental_uris": {"ios": "https://dc.lft.to/lastmile_qr_scan", "android": "https://dc.lft.to/lastmile_qr_scan"}, "is_reserved": 0, "fusion_lon": 0.0, "fusion_lat": 0.0, "lon": -77.00439033333333, "name": "254bdc271513db305a9f21868cd416f7"}, {"bike_id": "1581deefba55354a39465fe10621117c", "type": "electric_scooter", "is_disabled": 0, "lat": 38.93142016666667, "rental_uris": {"ios": "https://dc.lft.to/lastmile_qr_scan", "android": "https://dc.lft.to/lastmile_qr_scan"}, "is_reserved": 0, "fusion_lon": 0.0, "fusion_lat": 0.0, "lon": -77.033499, "name": "1581deefba55354a39465fe10621117c"}, {"bike_id": "bf3c788151f049476170e1c97dbc4f7a", "type": "electric_scooter", "is_disabled": 0, "lat": 38.91706216666667, "rental_uris": {"ios": "https://dc.lft.to/lastmile_qr_scan", "android": "https://dc.lft.to/lastmile_qr_scan"}, "is_reserved": 0, "fusion_lon": 0.0, "fusion_lat": 0.0, "lon": -77.03465316666667, "name": "bf3c788151f049476170e1c97dbc4f7a"}, {"bike_id": "db50421480435b3b3f9d54b847fb0642", "type": "electric_bike", "is_disabled": 0, "lat": 38.882448, "rental_uris": {"ios": "https://dc.lft.to/lastmile_qr_scan", "android": "https://dc.lft.to/lastmile_qr_scan"}, "is_reserved": 0, "fusion_lon": 0.0, "fusion_lat": 0.0, "lon": -76.96259733333333, "name": "db50421480435b3b3f9d54b847fb0642"}, {"bike_id": "304a262690ebb2494e905c3289091737", "type": "electric_scooter", "is_disabled": 0, "lat": 38.90233283333333, "rental_uris": {"ios": "https://dc.lft.to/lastmile_qr_scan", "android": "https://dc.lft.to/lastmile_qr_scan"}, "is_reserved": 0, "fusion_lon": 0.0, "fusion_lat": 0.0, "lon": -77.00194883333333, "name": "304a262690ebb2494e905c3289091737"}, {"bike_id": "7e3b16a8a2f764f26fae97e4e0bd8f17", "type": "electric_scooter", "is_disabled": 0, "lat": 38.9247155, "rental_uris": {"ios": "https://dc.lft.to/lastmile_qr_scan", "android": "https://dc.lft.to/lastmile_qr_scan"}, "is_reserved": 0, "fusion_lon": 0.0, "fusion_lat": 0.0, "lon": -77.02713716666666, "name": "7e3b16a8a2f764f26fae97e4e0bd8f17"}, {"bike_id": "d022cd67048f411142bdd38d8e03d29f", "type": "electric_bike", "is_disabled": 0, "lat": 38.932253, "rental_uris": {"ios": "https://dc.lft.to/lastmile_qr_scan", "android": "https://dc.lft.to/lastmile_qr_scan"}, "is_reserved": 0, "fusion_lon": 0.0, "fusion_lat": 0.0, "lon": -77.18121283333333, "name": "d022cd67048f411142bdd38d8e03d29f"}, {"bike_id": "91f5275fce84f62e4796e0c75916c0b8", "type": "electric_scooter", "is_disabled": 0, "lat": 38.92150683333333, "rental_uris": {"ios": "https://dc.lft.to/lastmile_qr_scan", "android": "https://dc.lft.to/lastmile_qr_scan"}, "is_reserved": 0, "fusion_lon": 0.0, "fusion_lat": 0.0, "lon": -77.035146, "name": "91f5275fce84f62e4796e0c75916c0b8"}, {"bike_id": "25a3c2f983e46991a430fe78e9641903", "type": "electric_scooter", "is_disabled": 0, "lat": 38.91042083333333, "rental_uris": {"ios": "https://dc.lft.to/lastmile_qr_scan", "android": "https://dc.lft.to/lastmile_qr_scan"}, "is_reserved": 0, "fusion_lon": 0.0, "fusion_lat": 0.0, "lon": -77.03837166666666, "name": "25a3c2f983e46991a430fe78e9641903"}, {"bike_id": "e6b6fd03aa8fb779bbc438e31c775167", "type": "electric_scooter", "is_disabled": 0, "lat": 38.92239216666667, "rental_uris": {"ios": "https://dc.lft.to/lastmile_qr_scan", "android": "https://dc.lft.to/lastmile_qr_scan"}, "is_reserved": 0, "fusion_lon": 0.0, "fusion_lat": 0.0, "lon": -77.0389955, "name": "e6b6fd03aa8fb779bbc438e31c775167"}, {"bike_id": "f95337cb53d72fcea3b3536fa61a33fd", "type": "electric_scooter", "is_disabled": 0, "lat": 38.8668755, "rental_uris": {"ios": "https://dc.lft.to/lastmile_qr_scan", "android": "https://dc.lft.to/lastmile_qr_scan"}, "is_reserved": 0, "fusion_lon": 0.0, "fusion_lat": 0.0, "lon": -76.985773, "name": "f95337cb53d72fcea3b3536fa61a33fd"}, {"bike_id": "79c5ebd2f91a25710c5bf342d1d7b208", "type": "electric_scooter", "is_disabled": 0, "lat": 38.91477283333333, "rental_uris": {"ios": "https://dc.lft.to/lastmile_qr_scan", "android": "https://dc.lft.to/lastmile_qr_scan"}, "is_reserved": 0, "fusion_lon": 0.0, "fusion_lat": 0.0, "lon": -77.02191583333334, "name": "79c5ebd2f91a25710c5bf342d1d7b208"}, {"bike_id": "3fa92131a991472ba4673aabc19ae241", "type": "electric_scooter", "is_disabled": 0, "lat": 38.90845433333333, "rental_uris": {"ios": "https://dc.lft.to/lastmile_qr_scan", "android": "https://dc.lft.to/lastmile_qr_scan"}, "is_reserved": 0, "fusion_lon": 0.0, "fusion_lat": 0.0, "lon": -77.02691483333334, "name": "3fa92131a991472ba4673aabc19ae241"}, {"bike_id": "b12e94475876c39cc821b5d3eb7aa981", "type": "electric_bike", "is_disabled": 0, "lat": 38.9489155, "rental_uris": {"ios": "https://dc.lft.to/lastmile_qr_scan", "android": "https://dc.lft.to/lastmile_qr_scan"}, "is_reserved": 0, "fusion_lon": 0.0, "fusion_lat": 0.0, "lon": -76.96373516666667, "name": "b12e94475876c39cc821b5d3eb7aa981"}, {"bike_id": "8cdbdec57efdbe62de564b6bb3eabbab", "type": "electric_scooter", "is_disabled": 0, "lat": 38.92158, "rental_uris": {"ios": "https://dc.lft.to/lastmile_qr_scan", "android": "https://dc.lft.to/lastmile_qr_scan"}, "is_reserved": 0, "fusion_lon": 0.0, "fusion_lat": 0.0, "lon": -77.033798, "name": "8cdbdec57efdbe62de564b6bb3eabbab"}, {"bike_id": "ee1ecc9b85a0bfdc18634816b1510cc5", "type": "electric_scooter", "is_disabled": 0, "lat": 38.91784283333333, "rental_uris": {"ios": "https://dc.lft.to/lastmile_qr_scan", "android": "https://dc.lft.to/lastmile_qr_scan"}, "is_reserved": 0, "fusion_lon": 0.0, "fusion_lat": 0.0, "lon": -77.0458065, "name": "ee1ecc9b85a0bfdc18634816b1510cc5"}, {"bike_id": "175df0639c056dec49e635763e8be914", "type": "electric_scooter", "is_disabled": 0, "lat": 38.866785, "rental_uris": {"ios": "https://dc.lft.to/lastmile_qr_scan", "android": "https://dc.lft.to/lastmile_qr_scan"}, "is_reserved": 0, "fusion_lon": 0.0, "fusion_lat": 0.0, "lon": -76.9858815, "name": "175df0639c056dec49e635763e8be914"}, {"bike_id": "d5ae3a6a4c66feee0067a66fc19d810f", "type": "electric_scooter", "is_disabled": 0, "lat": 38.93350266666667, "rental_uris": {"ios": "https://dc.lft.to/lastmile_qr_scan", "android": "https://dc.lft.to/lastmile_qr_scan"}, "is_reserved": 0, "fusion_lon": 0.0, "fusion_lat": 0.0, "lon": -77.06201883333334, "name": "d5ae3a6a4c66feee0067a66fc19d810f"}, {"bike_id": "1d206ad6542252559ca11a165086a584", "type": "electric_scooter", "is_disabled": 0, "lat": 38.91698733333333, "rental_uris": {"ios": "https://dc.lft.to/lastmile_qr_scan", "android": "https://dc.lft.to/lastmile_qr_scan"}, "is_reserved": 0, "fusion_lon": 0.0, "fusion_lat": 0.0, "lon": -77.024734, "name": "1d206ad6542252559ca11a165086a584"}, {"bike_id": "10253d61f1e8a84d4076a06eba4647ca", "type": "electric_scooter", "is_disabled": 0, "lat": 38.937693833333334, "rental_uris": {"ios": "https://dc.lft.to/lastmile_qr_scan", "android": "https://dc.lft.to/lastmile_qr_scan"}, "is_reserved": 0, "fusion_lon": 0.0, "fusion_lat": 0.0, "lon": -76.99144683333333, "name": "10253d61f1e8a84d4076a06eba4647ca"}, {"bike_id": "259b0f0652e9334feaa94189b7450bff", "type": "electric_scooter", "is_disabled": 0, "lat": 38.900303, "rental_uris": {"ios": "https://dc.lft.to/lastmile_qr_scan", "android": "https://dc.lft.to/lastmile_qr_scan"}, "is_reserved": 0, "fusion_lon": 0.0, "fusion_lat": 0.0, "lon": -77.00030483333333, "name": "259b0f0652e9334feaa94189b7450bff"}, {"bike_id": "94034bcbfd48fbec821abaa80bb303cd", "type": "electric_bike", "is_disabled": 0, "lat": 38.87294166666667, "rental_uris": {"ios": "https://dc.lft.to/lastmile_qr_scan", "android": "https://dc.lft.to/lastmile_qr_scan"}, "is_reserved": 0, "fusion_lon": 0.0, "fusion_lat": 0.0, "lon": -77.13929083333333, "name": "94034bcbfd48fbec821abaa80bb303cd"}, {"bike_id": "19a3ad68e5ee190fcc0e23c194db6859", "type": "electric_scooter", "is_disabled": 0, "lat": 38.90668183333333, "rental_uris": {"ios": "https://dc.lft.to/lastmile_qr_scan", "android": "https://dc.lft.to/lastmile_qr_scan"}, "is_reserved": 0, "fusion_lon": 0.0, "fusion_lat": 0.0, "lon": -77.02705766666666, "name": "19a3ad68e5ee190fcc0e23c194db6859"}, {"bike_id": "1ea77446d6ac4e7841f2e72b45506eef", "type": "electric_scooter", "is_disabled": 0, "lat": 38.915653666666664, "rental_uris": {"ios": "https://dc.lft.to/lastmile_qr_scan", "android": "https://dc.lft.to/lastmile_qr_scan"}, "is_reserved": 0, "fusion_lon": 0.0, "fusion_lat": 0.0, "lon": -77.02710733333333, "name": "1ea77446d6ac4e7841f2e72b45506eef"}, {"bike_id": "32ae4cef0e08d53776a8c35e31375f74", "type": "electric_scooter", "is_disabled": 0, "lat": 38.92073666666667, "rental_uris": {"ios": "https://dc.lft.to/lastmile_qr_scan", "android": "https://dc.lft.to/lastmile_qr_scan"}, "is_reserved": 0, "fusion_lon": 0.0, "fusion_lat": 0.0, "lon": -77.02409783333333, "name": "32ae4cef0e08d53776a8c35e31375f74"}, {"bike_id": "2b6cd327176a28e8ab19b320cf738bbe", "type": "electric_scooter", "is_disabled": 0, "lat": 38.92427266666667, "rental_uris": {"ios": "https://dc.lft.to/lastmile_qr_scan", "android": "https://dc.lft.to/lastmile_qr_scan"}, "is_reserved": 0, "fusion_lon": 0.0, "fusion_lat": 0.0, "lon": -77.04244783333333, "name": "2b6cd327176a28e8ab19b320cf738bbe"}, {"bike_id": "14a43a9e929f893a8b466d9e78c459b0", "type": "electric_scooter", "is_disabled": 0, "lat": 38.8960695, "rental_uris": {"ios": "https://dc.lft.to/lastmile_qr_scan", "android": "https://dc.lft.to/lastmile_qr_scan"}, "is_reserved": 0, "fusion_lon": 0.0, "fusion_lat": 0.0, "lon": -77.04480683333334, "name": "14a43a9e929f893a8b466d9e78c459b0"}, {"bike_id": "fb393f1f015f546ba60717bde6bb033b", "type": "electric_scooter", "is_disabled": 0, "lat": 38.911399333333335, "rental_uris": {"ios": "https://dc.lft.to/lastmile_qr_scan", "android": "https://dc.lft.to/lastmile_qr_scan"}, "is_reserved": 0, "fusion_lon": 0.0, "fusion_lat": 0.0, "lon": -76.99011266666666, "name": "fb393f1f015f546ba60717bde6bb033b"}, {"bike_id": "14535d4764d6c9728a5fa4672c433e84", "type": "electric_scooter", "is_disabled": 0, "lat": 38.91817433333333, "rental_uris": {"ios": "https://dc.lft.to/lastmile_qr_scan", "android": "https://dc.lft.to/lastmile_qr_scan"}, "is_reserved": 0, "fusion_lon": 0.0, "fusion_lat": 0.0, "lon": -77.02530966666667, "name": "14535d4764d6c9728a5fa4672c433e84"}, {"bike_id": "be0c7deebb5a105b0988c021ee5e8b01", "type": "electric_bike", "is_disabled": 0, "lat": 38.931436, "rental_uris": {"ios": "https://dc.lft.to/lastmile_qr_scan", "android": "https://dc.lft.to/lastmile_qr_scan"}, "is_reserved": 0, "fusion_lon": 0.0, "fusion_lat": 0.0, "lon": -77.00075016666666, "name": "be0c7deebb5a105b0988c021ee5e8b01"}, {"bike_id": "ed4a6ce64cbc5aa90b213d81879f9981", "type": "electric_scooter", "is_disabled": 0, "lat": 38.91691483333334, "rental_uris": {"ios": "https://dc.lft.to/lastmile_qr_scan", "android": "https://dc.lft.to/lastmile_qr_scan"}, "is_reserved": 0, "fusion_lon": 0.0, "fusion_lat": 0.0, "lon": -77.03164033333333, "name": "ed4a6ce64cbc5aa90b213d81879f9981"}, {"bike_id": "81803c872bf7c173865af4a97835e1a6", "type": "electric_scooter", "is_disabled": 0, "lat": 38.923229666666664, "rental_uris": {"ios": "https://dc.lft.to/lastmile_qr_scan", "android": "https://dc.lft.to/lastmile_qr_scan"}, "is_reserved": 0, "fusion_lon": 0.0, "fusion_lat": 0.0, "lon": -77.021371, "name": "81803c872bf7c173865af4a97835e1a6"}, {"bike_id": "329e11197a4d336d5ce5088563f50535", "type": "electric_scooter", "is_disabled": 0, "lat": 38.922180833333336, "rental_uris": {"ios": "https://dc.lft.to/lastmile_qr_scan", "android": "https://dc.lft.to/lastmile_qr_scan"}, "is_reserved": 0, "fusion_lon": 0.0, "fusion_lat": 0.0, "lon": -77.04331266666667, "name": "329e11197a4d336d5ce5088563f50535"}, {"bike_id": "c2faa1e4ac5ffd02410b0cb4e5d61640", "type": "electric_bike", "is_disabled": 0, "lat": 38.902135666666666, "rental_uris": {"ios": "https://dc.lft.to/lastmile_qr_scan", "android": "https://dc.lft.to/lastmile_qr_scan"}, "is_reserved": 0, "fusion_lon": 0.0, "fusion_lat": 0.0, "lon": -77.0160545, "name": "c2faa1e4ac5ffd02410b0cb4e5d61640"}, {"bike_id": "ecf692c4c511352d0c3be6baec5d9239", "type": "electric_scooter", "is_disabled": 0, "lat": 38.910651666666666, "rental_uris": {"ios": "https://dc.lft.to/lastmile_qr_scan", "android": "https://dc.lft.to/lastmile_qr_scan"}, "is_reserved": 0, "fusion_lon": 0.0, "fusion_lat": 0.0, "lon": -77.04491416666667, "name": "ecf692c4c511352d0c3be6baec5d9239"}, {"bike_id": "afad61d3a400e65d530ec12aa0a6ae7b", "type": "electric_scooter", "is_disabled": 0, "lat": 38.89322966666667, "rental_uris": {"ios": "https://dc.lft.to/lastmile_qr_scan", "android": "https://dc.lft.to/lastmile_qr_scan"}, "is_reserved": 0, "fusion_lon": 0.0, "fusion_lat": 0.0, "lon": -77.03180383333333, "name": "afad61d3a400e65d530ec12aa0a6ae7b"}, {"bike_id": "a9804f8c59daa73e6d68eb4c844aa7ed", "type": "electric_scooter", "is_disabled": 0, "lat": 38.93818733333333, "rental_uris": {"ios": "https://dc.lft.to/lastmile_qr_scan", "android": "https://dc.lft.to/lastmile_qr_scan"}, "is_reserved": 0, "fusion_lon": 0.0, "fusion_lat": 0.0, "lon": -76.9904955, "name": "a9804f8c59daa73e6d68eb4c844aa7ed"}, {"bike_id": "dd0337a713459dccafe859c09965c004", "type": "electric_scooter", "is_disabled": 0, "lat": 38.91234083333333, "rental_uris": {"ios": "https://dc.lft.to/lastmile_qr_scan", "android": "https://dc.lft.to/lastmile_qr_scan"}, "is_reserved": 0, "fusion_lon": 0.0, "fusion_lat": 0.0, "lon": -77.04514633333334, "name": "dd0337a713459dccafe859c09965c004"}, {"bike_id": "210f88a5ba689f647b0c1d21f72a37f9", "type": "electric_scooter", "is_disabled": 0, "lat": 38.91177166666667, "rental_uris": {"ios": "https://dc.lft.to/lastmile_qr_scan", "android": "https://dc.lft.to/lastmile_qr_scan"}, "is_reserved": 0, "fusion_lon": 0.0, "fusion_lat": 0.0, "lon": -77.0385715, "name": "210f88a5ba689f647b0c1d21f72a37f9"}, {"bike_id": "8d41dd908fd63561bc12dbe01eb0be77", "type": "electric_scooter", "is_disabled": 0, "lat": 38.947868166666666, "rental_uris": {"ios": "https://dc.lft.to/lastmile_qr_scan", "android": "https://dc.lft.to/lastmile_qr_scan"}, "is_reserved": 0, "fusion_lon": 0.0, "fusion_lat": 0.0, "lon": -77.02139216666667, "name": "8d41dd908fd63561bc12dbe01eb0be77"}, {"bike_id": "eae5ec9552f0bf6e97d5e5c0a8f5ee84", "type": "electric_bike", "is_disabled": 0, "lat": 38.845273666666664, "rental_uris": {"ios": "https://dc.lft.to/lastmile_qr_scan", "android": "https://dc.lft.to/lastmile_qr_scan"}, "is_reserved": 0, "fusion_lon": 0.0, "fusion_lat": 0.0, "lon": -76.973956, "name": "eae5ec9552f0bf6e97d5e5c0a8f5ee84"}, {"bike_id": "15c69b367fb27a34f13dccef6f98e48e", "type": "electric_scooter", "is_disabled": 0, "lat": 38.92333, "rental_uris": {"ios": "https://dc.lft.to/lastmile_qr_scan", "android": "https://dc.lft.to/lastmile_qr_scan"}, "is_reserved": 0, "fusion_lon": 0.0, "fusion_lat": 0.0, "lon": -77.04311633333333, "name": "15c69b367fb27a34f13dccef6f98e48e"}, {"bike_id": "013973f2c240969b4b8ca9a0517563bf", "type": "electric_scooter", "is_disabled": 0, "lat": 38.91559516666667, "rental_uris": {"ios": "https://dc.lft.to/lastmile_qr_scan", "android": "https://dc.lft.to/lastmile_qr_scan"}, "is_reserved": 0, "fusion_lon": 0.0, "fusion_lat": 0.0, "lon": -77.04105216666666, "name": "013973f2c240969b4b8ca9a0517563bf"}, {"bike_id": "93f079dfdf01d01ec0e7eff182f344b3", "type": "electric_scooter", "is_disabled": 0, "lat": 38.89885366666667, "rental_uris": {"ios": "https://dc.lft.to/lastmile_qr_scan", "android": "https://dc.lft.to/lastmile_qr_scan"}, "is_reserved": 0, "fusion_lon": 0.0, "fusion_lat": 0.0, "lon": -76.976853, "name": "93f079dfdf01d01ec0e7eff182f344b3"}, {"bike_id": "abdde3a93377a5a7ef10ddf72c2dfad5", "type": "electric_scooter", "is_disabled": 0, "lat": 38.92197133333333, "rental_uris": {"ios": "https://dc.lft.to/lastmile_qr_scan", "android": "https://dc.lft.to/lastmile_qr_scan"}, "is_reserved": 0, "fusion_lon": 0.0, "fusion_lat": 0.0, "lon": -77.02023066666666, "name": "abdde3a93377a5a7ef10ddf72c2dfad5"}, {"bike_id": "b13d986cc5bced0267f67a275807c4a4", "type": "electric_scooter", "is_disabled": 0, "lat": 38.90523133333333, "rental_uris": {"ios": "https://dc.lft.to/lastmile_qr_scan", "android": "https://dc.lft.to/lastmile_qr_scan"},