{"data": {"bikes": [{"fusion_lat": 0.0, "type": "electric_bike", "name": "108acc29fb2d01e7cbcce5eda04cb10e", "fusion_lon": 0.0, "bike_id": "108acc29fb2d01e7cbcce5eda04cb10e", "is_reserved": 0, "rental_uris": {"android": "https://dc.lft.to/lastmile_qr_scan", "ios": "https://dc.lft.to/lastmile_qr_scan"}, "lat": 38.888146666666664, "is_disabled": 0, "lon": -77.03838016666667}, {"fusion_lat": 0.0, "type": "electric_scooter", "name": "5e8928f9615c9d49d1abd4ca07a67a59", "fusion_lon": 0.0, "bike_id": "5e8928f9615c9d49d1abd4ca07a67a59", "is_reserved": 0, "rental_uris": {"android": "https://dc.lft.to/lastmile_qr_scan", "ios": "https://dc.lft.to/lastmile_qr_scan"}, "lat": 38.900824666666665, "is_disabled": 0, "lon": -77.047453}, {"fusion_lat": 0.0, "type": "electric_scooter", "name": "2d34395802be5db1e6088e4255a7fc54", "fusion_lon": 0.0, "bike_id": "2d34395802be5db1e6088e4255a7fc54", "is_reserved": 0, "rental_uris": {"android": "https://dc.lft.to/lastmile_qr_scan", "ios": "https://dc.lft.to/lastmile_qr_scan"}, "lat": 38.90381933333333, "is_disabled": 0, "lon": -77.03835066666667}, {"fusion_lat": 0.0, "type": "electric_scooter", "name": "36ce5cb4fed3524f48f3df4e097ece39", "fusion_lon": 0.0, "bike_id": "36ce5cb4fed3524f48f3df4e097ece39", "is_reserved": 0, "rental_uris": {"android": "https://dc.lft.to/lastmile_qr_scan", "ios": "https://dc.lft.to/lastmile_qr_scan"}, "lat": 38.927254, "is_disabled": 0, "lon": -77.03684133333333}, {"fusion_lat": 0.0, "type": "electric_scooter", "name": "3296e6c2e4d496f3f7abeaad7b8055ba", "fusion_lon": 0.0, "bike_id": "3296e6c2e4d496f3f7abeaad7b8055ba", "is_reserved": 0, "rental_uris": {"android": "https://dc.lft.to/lastmile_qr_scan", "ios": "https://dc.lft.to/lastmile_qr_scan"}, "lat": 38.89239383333334, "is_disabled": 0, "lon": -77.04162233333334}, {"fusion_lat": 0.0, "type": "electric_bike", "name": "bca74504fbab0992fd211104812a2123", "fusion_lon": 0.0, "bike_id": "bca74504fbab0992fd211104812a2123", "is_reserved": 0, "rental_uris": {"android": "https://dc.lft.to/lastmile_qr_scan", "ios": "https://dc.lft.to/lastmile_qr_scan"}, "lat": 38.954905, "is_disabled": 0, "lon": -76.96440183333333}, {"fusion_lat": 0.0, "type": "electric_scooter", "name": "856d7c5a1a6b4618af62a4ff7929cecd", "fusion_lon": 0.0, "bike_id": "856d7c5a1a6b4618af62a4ff7929cecd", "is_reserved": 0, "rental_uris": {"android": "https://dc.lft.to/lastmile_qr_scan", "ios": "https://dc.lft.to/lastmile_qr_scan"}, "lat": 38.915534666666666, "is_disabled": 0, "lon": -77.031319}, {"fusion_lat": 0.0, "type": "electric_scooter", "name": "bc00b2472d160322d526f2dce7e32682", "fusion_lon": 0.0, "bike_id": "bc00b2472d160322d526f2dce7e32682", "is_reserved": 0, "rental_uris": {"android": "https://dc.lft.to/lastmile_qr_scan", "ios": "https://dc.lft.to/lastmile_qr_scan"}, "lat": 38.90007166666667, "is_disabled": 0, "lon": -76.951966}, {"fusion_lat": 0.0, "type": "electric_scooter", "name": "755317a21274034a8bf40109e7a36f29", "fusion_lon": 0.0, "bike_id": "755317a21274034a8bf40109e7a36f29", "is_reserved": 0, "rental_uris": {"android": "https://dc.lft.to/lastmile_qr_scan", "ios": "https://dc.lft.to/lastmile_qr_scan"}, "lat": 38.902604, "is_disabled": 0, "lon": -77.04566483333333}, {"fusion_lat": 0.0, "type": "electric_scooter", "name": "3cf26af708560b65c2b8d1f4729ea6ae", "fusion_lon": 0.0, "bike_id": "3cf26af708560b65c2b8d1f4729ea6ae", "is_reserved": 0, "rental_uris": {"android": "https://dc.lft.to/lastmile_qr_scan", "ios": "https://dc.lft.to/lastmile_qr_scan"}, "lat": 38.9005595, "is_disabled": 0, "lon": -77.012322}, {"fusion_lat": 0.0, "type": "electric_scooter", "name": "afcbe546e012e1be56095cae579630fb", "fusion_lon": 0.0, "bike_id": "afcbe546e012e1be56095cae579630fb", "is_reserved": 0, "rental_uris": {"android": "https://dc.lft.to/lastmile_qr_scan", "ios": "https://dc.lft.to/lastmile_qr_scan"}, "lat": 38.90143916666667, "is_disabled": 0, "lon": -77.03304566666667}, {"fusion_lat": 0.0, "type": "electric_scooter", "name": "77e026fed1759c5489e9c4c79a9d13ed", "fusion_lon": 0.0, "bike_id": "77e026fed1759c5489e9c4c79a9d13ed", "is_reserved": 0, "rental_uris": {"android": "https://dc.lft.to/lastmile_qr_scan", "ios": "https://dc.lft.to/lastmile_qr_scan"}, "lat": 38.90976916666666, "is_disabled": 0, "lon": -77.03332216666666}, {"fusion_lat": 0.0, "type": "electric_scooter", "name": "413f31c92fd3955ef406425d35d14a03", "fusion_lon": 0.0, "bike_id": "413f31c92fd3955ef406425d35d14a03", "is_reserved": 0, "rental_uris": {"android": "https://dc.lft.to/lastmile_qr_scan", "ios": "https://dc.lft.to/lastmile_qr_scan"}, "lat": 38.916772, "is_disabled": 0, "lon": -77.03687216666667}, {"fusion_lat": 0.0, "type": "electric_scooter", "name": "6ac69c9a7cee90e3f386ac16bad40f5c", "fusion_lon": 0.0, "bike_id": "6ac69c9a7cee90e3f386ac16bad40f5c", "is_reserved": 0, "rental_uris": {"android": "https://dc.lft.to/lastmile_qr_scan", "ios": "https://dc.lft.to/lastmile_qr_scan"}, "lat": 38.8833145, "is_disabled": 0, "lon": -77.01744066666667}, {"fusion_lat": 0.0, "type": "electric_scooter", "name": "f8c41756ca5237b22545c682a79bf085", "fusion_lon": 0.0, "bike_id": "f8c41756ca5237b22545c682a79bf085", "is_reserved": 0, "rental_uris": {"android": "https://dc.lft.to/lastmile_qr_scan", "ios": "https://dc.lft.to/lastmile_qr_scan"}, "lat": 38.88530166666666, "is_disabled": 0, "lon": -77.00580316666667}, {"fusion_lat": 0.0, "type": "electric_scooter", "name": "a5c80e2c40c3c00c95426cb936a173dd", "fusion_lon": 0.0, "bike_id": "a5c80e2c40c3c00c95426cb936a173dd", "is_reserved": 0, "rental_uris": {"android": "https://dc.lft.to/lastmile_qr_scan", "ios": "https://dc.lft.to/lastmile_qr_scan"}, "lat": 38.87695016666667, "is_disabled": 0, "lon": -77.00298466666666}, {"fusion_lat": 0.0, "type": "electric_bike", "name": "0878602cc3c2c88c497f8983d07c6a2f", "fusion_lon": 0.0, "bike_id": "0878602cc3c2c88c497f8983d07c6a2f", "is_reserved": 0, "rental_uris": {"android": "https://dc.lft.to/lastmile_qr_scan", "ios": "https://dc.lft.to/lastmile_qr_scan"}, "lat": 38.888664, "is_disabled": 0, "lon": -77.08170866666667}, {"fusion_lat": 0.0, "type": "electric_scooter", "name": "a6f5b0e5da03cee59318e08674b6331c", "fusion_lon": 0.0, "bike_id": "a6f5b0e5da03cee59318e08674b6331c", "is_reserved": 0, "rental_uris": {"android": "https://dc.lft.to/lastmile_qr_scan", "ios": "https://dc.lft.to/lastmile_qr_scan"}, "lat": 38.95338483333333, "is_disabled": 0, "lon": -76.99977383333334}, {"fusion_lat": 0.0, "type": "electric_scooter", "name": "abb0c17020247d8ca4ab8e9950070bf7", "fusion_lon": 0.0, "bike_id": "abb0c17020247d8ca4ab8e9950070bf7", "is_reserved": 0, "rental_uris": {"android": "https://dc.lft.to/lastmile_qr_scan", "ios": "https://dc.lft.to/lastmile_qr_scan"}, "lat": 38.90782183333334, "is_disabled": 0, "lon": -77.038598}, {"fusion_lat": 0.0, "type": "electric_scooter", "name": "a0892ca4cfc8ae508061804078234ac0", "fusion_lon": 0.0, "bike_id": "a0892ca4cfc8ae508061804078234ac0", "is_reserved": 0, "rental_uris": {"android": "https://dc.lft.to/lastmile_qr_scan", "ios": "https://dc.lft.to/lastmile_qr_scan"}, "lat": 38.933605166666666, "is_disabled": 0, "lon": -77.05730083333333}, {"fusion_lat": 0.0, "type": "electric_scooter", "name": "743caf0ba2984bf3d022935ed02037c4", "fusion_lon": 0.0, "bike_id": "743caf0ba2984bf3d022935ed02037c4", "is_reserved": 0, "rental_uris": {"android": "https://dc.lft.to/lastmile_qr_scan", "ios": "https://dc.lft.to/lastmile_qr_scan"}, "lat": 38.903691333333335, "is_disabled": 0, "lon": -77.038759}, {"fusion_lat": 0.0, "type": "electric_scooter", "name": "07a62848383af6f231315585e9b6f0ac", "fusion_lon": 0.0, "bike_id": "07a62848383af6f231315585e9b6f0ac", "is_reserved": 0, "rental_uris": {"android": "https://dc.lft.to/lastmile_qr_scan", "ios": "https://dc.lft.to/lastmile_qr_scan"}, "lat": 38.912984333333334, "is_disabled": 0, "lon": -77.04543983333333}, {"fusion_lat": 0.0, "type": "electric_scooter", "name": "c30c4a14604ff65109fd1f280f201065", "fusion_lon": 0.0, "bike_id": "c30c4a14604ff65109fd1f280f201065", "is_reserved": 0, "rental_uris": {"android": "https://dc.lft.to/lastmile_qr_scan", "ios": "https://dc.lft.to/lastmile_qr_scan"}, "lat": 38.877015666666665, "is_disabled": 0, "lon": -77.004134}, {"fusion_lat": 0.0, "type": "electric_scooter", "name": "4dadfaa9b8629d154bfcadf5fa29742a", "fusion_lon": 0.0, "bike_id": "4dadfaa9b8629d154bfcadf5fa29742a", "is_reserved": 0, "rental_uris": {"android": "https://dc.lft.to/lastmile_qr_scan", "ios": "https://dc.lft.to/lastmile_qr_scan"}, "lat": 38.902530666666664, "is_disabled": 0, "lon": -77.04366083333333}, {"fusion_lat": 0.0, "type": "electric_scooter", "name": "c00e1c8ccc2559ffc118a2761402d5b1", "fusion_lon": 0.0, "bike_id": "c00e1c8ccc2559ffc118a2761402d5b1", "is_reserved": 0, "rental_uris": {"android": "https://dc.lft.to/lastmile_qr_scan", "ios": "https://dc.lft.to/lastmile_qr_scan"}, "lat": 38.9057735, "is_disabled": 0, "lon": -77.04334783333333}, {"fusion_lat": 0.0, "type": "electric_scooter", "name": "c787db91bee4553c8d6f23aa901dbb83", "fusion_lon": 0.0, "bike_id": "c787db91bee4553c8d6f23aa901dbb83", "is_reserved": 0, "rental_uris": {"android": "https://dc.lft.to/lastmile_qr_scan", "ios": "https://dc.lft.to/lastmile_qr_scan"}, "lat": 38.864126666666664, "is_disabled": 0, "lon": -77.01224116666667}, {"fusion_lat": 0.0, "type": "electric_scooter", "name": "d831276c516f5fa68a5f6a8a3c79d67d", "fusion_lon": 0.0, "bike_id": "d831276c516f5fa68a5f6a8a3c79d67d", "is_reserved": 0, "rental_uris": {"android": "https://dc.lft.to/lastmile_qr_scan", "ios": "https://dc.lft.to/lastmile_qr_scan"}, "lat": 38.922458166666665, "is_disabled": 0, "lon": -77.00923583333334}, {"fusion_lat": 0.0, "type": "electric_scooter", "name": "9c98a13c760577554eec89e3a2117e3c", "fusion_lon": 0.0, "bike_id": "9c98a13c760577554eec89e3a2117e3c", "is_reserved": 0, "rental_uris": {"android": "https://dc.lft.to/lastmile_qr_scan", "ios": "https://dc.lft.to/lastmile_qr_scan"}, "lat": 38.8735505, "is_disabled": 0, "lon": -77.00606}, {"fusion_lat": 0.0, "type": "electric_scooter", "name": "6afeb630366d9f419121546ce2bd0c94", "fusion_lon": 0.0, "bike_id": "6afeb630366d9f419121546ce2bd0c94", "is_reserved": 0, "rental_uris": {"android": "https://dc.lft.to/lastmile_qr_scan", "ios": "https://dc.lft.to/lastmile_qr_scan"}, "lat": 38.915650166666666, "is_disabled": 0, "lon": -77.02586}, {"fusion_lat": 0.0, "type": "electric_scooter", "name": "9558e3bb224ab37d8258b7eb1c801d54", "fusion_lon": 0.0, "bike_id": "9558e3bb224ab37d8258b7eb1c801d54", "is_reserved": 0, "rental_uris": {"android": "https://dc.lft.to/lastmile_qr_scan", "ios": "https://dc.lft.to/lastmile_qr_scan"}, "lat": 38.878368, "is_disabled": 0, "lon": -76.995182}, {"fusion_lat": 0.0, "type": "electric_bike", "name": "eafdf94e31fc2ecf416974b5acddcba4", "fusion_lon": 0.0, "bike_id": "eafdf94e31fc2ecf416974b5acddcba4", "is_reserved": 0, "rental_uris": {"android": "https://dc.lft.to/lastmile_qr_scan", "ios": "https://dc.lft.to/lastmile_qr_scan"}, "lat": 38.852010666666665, "is_disabled": 0, "lon": -77.1012745}, {"fusion_lat": 0.0, "type": "electric_scooter", "name": "48eabb0493913a3fc621b962b1320807", "fusion_lon": 0.0, "bike_id": "48eabb0493913a3fc621b962b1320807", "is_reserved": 0, "rental_uris": {"android": "https://dc.lft.to/lastmile_qr_scan", "ios": "https://dc.lft.to/lastmile_qr_scan"}, "lat": 38.8936515, "is_disabled": 0, "lon": -76.9499365}, {"fusion_lat": 0.0, "type": "electric_scooter", "name": "9040f006f4b0079df30441d74061cc31", "fusion_lon": 0.0, "bike_id": "9040f006f4b0079df30441d74061cc31", "is_reserved": 0, "rental_uris": {"android": "https://dc.lft.to/lastmile_qr_scan", "ios": "https://dc.lft.to/lastmile_qr_scan"}, "lat": 38.907324833333334, "is_disabled": 0, "lon": -77.04334883333334}, {"fusion_lat": 0.0, "type": "electric_scooter", "name": "7bba7f7b3d7d55cd5dd0c807b0e036cb", "fusion_lon": 0.0, "bike_id": "7bba7f7b3d7d55cd5dd0c807b0e036cb", "is_reserved": 0, "rental_uris": {"android": "https://dc.lft.to/lastmile_qr_scan", "ios": "https://dc.lft.to/lastmile_qr_scan"}, "lat": 38.895642, "is_disabled": 0, "lon": -77.04679816666666}, {"fusion_lat": 0.0, "type": "electric_scooter", "name": "95d318e6eae8dc390f41ef5bdea38d43", "fusion_lon": 0.0, "bike_id": "95d318e6eae8dc390f41ef5bdea38d43", "is_reserved": 0, "rental_uris": {"android": "https://dc.lft.to/lastmile_qr_scan", "ios": "https://dc.lft.to/lastmile_qr_scan"}, "lat": 38.92144866666667, "is_disabled": 0, "lon": -77.03504183333334}, {"fusion_lat": 0.0, "type": "electric_scooter", "name": "d4940d7d3f0ab71bffcde99cd7548c69", "fusion_lon": 0.0, "bike_id": "d4940d7d3f0ab71bffcde99cd7548c69", "is_reserved": 0, "rental_uris": {"android": "https://dc.lft.to/lastmile_qr_scan", "ios": "https://dc.lft.to/lastmile_qr_scan"}, "lat": 38.887168833333334, "is_disabled": 0, "lon": -77.022039}, {"fusion_lat": 0.0, "type": "electric_scooter", "name": "fe1ad7425b7057274cc94be54160c1a4", "fusion_lon": 0.0, "bike_id": "fe1ad7425b7057274cc94be54160c1a4", "is_reserved": 0, "rental_uris": {"android": "https://dc.lft.to/lastmile_qr_scan", "ios": "https://dc.lft.to/lastmile_qr_scan"}, "lat": 38.95624183333334, "is_disabled": 0, "lon": -77.0245315}, {"fusion_lat": 0.0, "type": "electric_bike", "name": "c2a23c8972e934fd1312686f7bf84e9c", "fusion_lon": 0.0, "bike_id": "c2a23c8972e934fd1312686f7bf84e9c", "is_reserved": 0, "rental_uris": {"android": "https://dc.lft.to/lastmile_qr_scan", "ios": "https://dc.lft.to/lastmile_qr_scan"}, "lat": 38.94670433333334, "is_disabled": 0, "lon": -76.9830905}, {"fusion_lat": 0.0, "type": "electric_scooter", "name": "56e491911e204ce0d5a716cfe96e9258", "fusion_lon": 0.0, "bike_id": "56e491911e204ce0d5a716cfe96e9258", "is_reserved": 0, "rental_uris": {"android": "https://dc.lft.to/lastmile_qr_scan", "ios": "https://dc.lft.to/lastmile_qr_scan"}, "lat": 38.935701, "is_disabled": 0, "lon": -77.02121233333334}, {"fusion_lat": 0.0, "type": "electric_scooter", "name": "8387b535acd62145dfba37144d46d423", "fusion_lon": 0.0, "bike_id": "8387b535acd62145dfba37144d46d423", "is_reserved": 0, "rental_uris": {"android": "https://dc.lft.to/lastmile_qr_scan", "ios": "https://dc.lft.to/lastmile_qr_scan"}, "lat": 38.8991615, "is_disabled": 0, "lon": -76.93363866666667}, {"fusion_lat": 0.0, "type": "electric_scooter", "name": "7cd77c77a852633a8b743dce111a6cfe", "fusion_lon": 0.0, "bike_id": "7cd77c77a852633a8b743dce111a6cfe", "is_reserved": 0, "rental_uris": {"android": "https://dc.lft.to/lastmile_qr_scan", "ios": "https://dc.lft.to/lastmile_qr_scan"}, "lat": 38.90232433333333, "is_disabled": 0, "lon": -77.04344983333333}, {"fusion_lat": 0.0, "type": "electric_scooter", "name": "7894ac3c93335c60dad95791df8b6b1d", "fusion_lon": 0.0, "bike_id": "7894ac3c93335c60dad95791df8b6b1d", "is_reserved": 0, "rental_uris": {"android": "https://dc.lft.to/lastmile_qr_scan", "ios": "https://dc.lft.to/lastmile_qr_scan"}, "lat": 38.8922755, "is_disabled": 0, "lon": -77.02800483333333}, {"fusion_lat": 0.0, "type": "electric_scooter", "name": "5fa476e0924faba9b387030738b8c580", "fusion_lon": 0.0, "bike_id": "5fa476e0924faba9b387030738b8c580", "is_reserved": 0, "rental_uris": {"android": "https://dc.lft.to/lastmile_qr_scan", "ios": "https://dc.lft.to/lastmile_qr_scan"}, "lat": 38.86658333333333, "is_disabled": 0, "lon": -76.98877616666667}, {"fusion_lat": 0.0, "type": "electric_scooter", "name": "ae6280bdb9fd578261b10769d77d5956", "fusion_lon": 0.0, "bike_id": "ae6280bdb9fd578261b10769d77d5956", "is_reserved": 0, "rental_uris": {"android": "https://dc.lft.to/lastmile_qr_scan", "ios": "https://dc.lft.to/lastmile_qr_scan"}, "lat": 38.9574965, "is_disabled": 0, "lon": -77.02064383333334}, {"fusion_lat": 0.0, "type": "electric_scooter", "name": "27d7622ddad853395ca0d13c2808981b", "fusion_lon": 0.0, "bike_id": "27d7622ddad853395ca0d13c2808981b", "is_reserved": 0, "rental_uris": {"android": "https://dc.lft.to/lastmile_qr_scan", "ios": "https://dc.lft.to/lastmile_qr_scan"}, "lat": 38.891920999999996, "is_disabled": 0, "lon": -76.98859466666667}, {"fusion_lat": 0.0, "type": "electric_scooter", "name": "f563ccdc91781603581189126a5e9f2d", "fusion_lon": 0.0, "bike_id": "f563ccdc91781603581189126a5e9f2d", "is_reserved": 0, "rental_uris": {"android": "https://dc.lft.to/lastmile_qr_scan", "ios": "https://dc.lft.to/lastmile_qr_scan"}, "lat": 38.923814166666666, "is_disabled": 0, "lon": -77.03021916666667}, {"fusion_lat": 0.0, "type": "electric_scooter", "name": "4295a205c4a5e8998a899b1157d40a01", "fusion_lon": 0.0, "bike_id": "4295a205c4a5e8998a899b1157d40a01", "is_reserved": 0, "rental_uris": {"android": "https://dc.lft.to/lastmile_qr_scan", "ios": "https://dc.lft.to/lastmile_qr_scan"}, "lat": 38.916945166666665, "is_disabled": 0, "lon": -77.0349505}, {"fusion_lat": 0.0, "type": "electric_scooter", "name": "63abbee62b74cd1a135add7988a8b2e1", "fusion_lon": 0.0, "bike_id": "63abbee62b74cd1a135add7988a8b2e1", "is_reserved": 0, "rental_uris": {"android": "https://dc.lft.to/lastmile_qr_scan", "ios": "https://dc.lft.to/lastmile_qr_scan"}, "lat": 38.92438966666667, "is_disabled": 0, "lon": -77.03325966666667}, {"fusion_lat": 0.0, "type": "electric_scooter", "name": "0a15b74a735ca65f1ae9da9bce178491", "fusion_lon": 0.0, "bike_id": "0a15b74a735ca65f1ae9da9bce178491", "is_reserved": 0, "rental_uris": {"android": "https://dc.lft.to/lastmile_qr_scan", "ios": "https://dc.lft.to/lastmile_qr_scan"}, "lat": 38.873969333333335, "is_disabled": 0, "lon": -77.00190283333333}, {"fusion_lat": 0.0, "type": "electric_bike", "name": "a29a79c3ae2acf675a66f34e32f40561", "fusion_lon": 0.0, "bike_id": "a29a79c3ae2acf675a66f34e32f40561", "is_reserved": 0, "rental_uris": {"android": "https://dc.lft.to/lastmile_qr_scan", "ios": "https://dc.lft.to/lastmile_qr_scan"}, "lat": 38.9233785, "is_disabled": 0, "lon": -76.971416}, {"fusion_lat": 0.0, "type": "electric_scooter", "name": "acda1daed90d9bb53ed342db47f9999b", "fusion_lon": 0.0, "bike_id": "acda1daed90d9bb53ed342db47f9999b", "is_reserved": 0, "rental_uris": {"android": "https://dc.lft.to/lastmile_qr_scan", "ios": "https://dc.lft.to/lastmile_qr_scan"}, "lat": 38.875437, "is_disabled": 0, "lon": -77.0060685}, {"fusion_lat": 0.0, "type": "electric_scooter", "name": "8b4e332faefaffaada64e719931eefe2", "fusion_lon": 0.0, "bike_id": "8b4e332faefaffaada64e719931eefe2", "is_reserved": 0, "rental_uris": {"android": "https://dc.lft.to/lastmile_qr_scan", "ios": "https://dc.lft.to/lastmile_qr_scan"}, "lat": 38.8972375, "is_disabled": 0, "lon": -77.01375216666666}, {"fusion_lat": 0.0, "type": "electric_scooter", "name": "77391279a0c7472673778c631b5b5e4a", "fusion_lon": 0.0, "bike_id": "77391279a0c7472673778c631b5b5e4a", "is_reserved": 0, "rental_uris": {"android": "https://dc.lft.to/lastmile_qr_scan", "ios": "https://dc.lft.to/lastmile_qr_scan"}, "lat": 38.91504716666667, "is_disabled": 0, "lon": -77.0077335}, {"fusion_lat": 0.0, "type": "electric_bike", "name": "fec767022a1050a93f14f3f5a760b772", "fusion_lon": 0.0, "bike_id": "fec767022a1050a93f14f3f5a760b772", "is_reserved": 0, "rental_uris": {"android": "https://dc.lft.to/lastmile_qr_scan", "ios": "https://dc.lft.to/lastmile_qr_scan"}, "lat": 38.983638166666665, "is_disabled": 0, "lon": -76.97218783333334}, {"fusion_lat": 0.0, "type": "electric_scooter", "name": "4e6792cf6d05ecb29f49fc2b64d20fde", "fusion_lon": 0.0, "bike_id": "4e6792cf6d05ecb29f49fc2b64d20fde", "is_reserved": 0, "rental_uris": {"android": "https://dc.lft.to/lastmile_qr_scan", "ios": "https://dc.lft.to/lastmile_qr_scan"}, "lat": 38.899534333333335, "is_disabled": 0, "lon": -76.9753835}, {"fusion_lat": 0.0, "type": "electric_scooter", "name": "10ac394dd8e0ac323716d81fe57a9e79", "fusion_lon": 0.0, "bike_id": "10ac394dd8e0ac323716d81fe57a9e79", "is_reserved": 0, "rental_uris": {"android": "https://dc.lft.to/lastmile_qr_scan", "ios": "https://dc.lft.to/lastmile_qr_scan"}, "lat": 38.8861305, "is_disabled": 0, "lon": -76.99654466666667}, {"fusion_lat": 0.0, "type": "electric_bike", "name": "f97b00306853a65eedc61ab4836a6dcc", "fusion_lon": 0.0, "bike_id": "f97b00306853a65eedc61ab4836a6dcc", "is_reserved": 0, "rental_uris": {"android": "https://dc.lft.to/lastmile_qr_scan", "ios": "https://dc.lft.to/lastmile_qr_scan"}, "lat": 38.9455385, "is_disabled": 0, "lon": -76.89536466666667}, {"fusion_lat": 0.0, "type": "electric_scooter", "name": "e3085cb8c87ef48c44fd4c252beade15", "fusion_lon": 0.0, "bike_id": "e3085cb8c87ef48c44fd4c252beade15", "is_reserved": 0, "rental_uris": {"android": "https://dc.lft.to/lastmile_qr_scan", "ios": "https://dc.lft.to/lastmile_qr_scan"}, "lat": 38.903219, "is_disabled": 0, "lon": -77.02061216666667}, {"fusion_lat": 0.0, "type": "electric_scooter", "name": "8e0e3af664762e1543bd4fe38ee382b8", "fusion_lon": 0.0, "bike_id": "8e0e3af664762e1543bd4fe38ee382b8", "is_reserved": 0, "rental_uris": {"android": "https://dc.lft.to/lastmile_qr_scan", "ios": "https://dc.lft.to/lastmile_qr_scan"}, "lat": 38.921438333333334, "is_disabled": 0, "lon": -77.02065783333333}, {"fusion_lat": 0.0, "type": "electric_scooter", "name": "50dfaff913df4c5423f0fb13843dc137", "fusion_lon": 0.0, "bike_id": "50dfaff913df4c5423f0fb13843dc137", "is_reserved": 0, "rental_uris": {"android": "https://dc.lft.to/lastmile_qr_scan", "ios": "https://dc.lft.to/lastmile_qr_scan"}, "lat": 38.906091833333335, "is_disabled": 0, "lon": -77.04357266666666}, {"fusion_lat": 0.0, "type": "electric_scooter", "name": "32f8d7ac1f909c54717f9b3c409342f5", "fusion_lon": 0.0, "bike_id": "32f8d7ac1f909c54717f9b3c409342f5", "is_reserved": 0, "rental_uris": {"android": "https://dc.lft.to/lastmile_qr_scan", "ios": "https://dc.lft.to/lastmile_qr_scan"}, "lat": 38.91490533333333, "is_disabled": 0, "lon": -77.025679}, {"fusion_lat": 0.0, "type": "electric_scooter", "name": "a5f5a8a96fc6f969061b7261dc4e91f4", "fusion_lon": 0.0, "bike_id": "a5f5a8a96fc6f969061b7261dc4e91f4", "is_reserved": 0, "rental_uris": {"android": "https://dc.lft.to/lastmile_qr_scan", "ios": "https://dc.lft.to/lastmile_qr_scan"}, "lat": 38.929741, "is_disabled": 0, "lon": -77.05500016666667}, {"fusion_lat": 0.0, "type": "electric_scooter", "name": "7a42bf0aab1527b40ec76a8167b7a139", "fusion_lon": 0.0, "bike_id": "7a42bf0aab1527b40ec76a8167b7a139", "is_reserved": 0, "rental_uris": {"android": "https://dc.lft.to/lastmile_qr_scan", "ios": "https://dc.lft.to/lastmile_qr_scan"}, "lat": 38.925149, "is_disabled": 0, "lon": -77.0227985}, {"fusion_lat": 0.0, "type": "electric_scooter", "name": "4ffaf89032d18342f262fd5c919d12b4", "fusion_lon": 0.0, "bike_id": "4ffaf89032d18342f262fd5c919d12b4", "is_reserved": 0, "rental_uris": {"android": "https://dc.lft.to/lastmile_qr_scan", "ios": "https://dc.lft.to/lastmile_qr_scan"}, "lat": 38.914268, "is_disabled": 0, "lon": -77.01738833333333}, {"fusion_lat": 0.0, "type": "electric_bike", "name": "72dc7811804c5ca9000c67c7bfc6c831", "fusion_lon": 0.0, "bike_id": "72dc7811804c5ca9000c67c7bfc6c831", "is_reserved": 0, "rental_uris": {"android": "https://dc.lft.to/lastmile_qr_scan", "ios": "https://dc.lft.to/lastmile_qr_scan"}, "lat": 38.949708, "is_disabled": 0, "lon": -77.0738485}, {"fusion_lat": 0.0, "type": "electric_scooter", "name": "6415d050e40d7904865329e9e8f02c6f", "fusion_lon": 0.0, "bike_id": "6415d050e40d7904865329e9e8f02c6f", "is_reserved": 0, "rental_uris": {"android": "https://dc.lft.to/lastmile_qr_scan", "ios": "https://dc.lft.to/lastmile_qr_scan"}, "lat": 38.90967916666666, "is_disabled": 0, "lon": -77.04113283333334}, {"fusion_lat": 0.0, "type": "electric_scooter", "name": "42800261808675a5688ceab088641a5b", "fusion_lon": 0.0, "bike_id": "42800261808675a5688ceab088641a5b", "is_reserved": 0, "rental_uris": {"android": "https://dc.lft.to/lastmile_qr_scan", "ios": "https://dc.lft.to/lastmile_qr_scan"}, "lat": 38.899676, "is_disabled": 0, "lon": -77.01612133333333}, {"fusion_lat": 0.0, "type": "electric_scooter", "name": "54e9b3839b19dc0cf7146ffd0ba19f2c", "fusion_lon": 0.0, "bike_id": "54e9b3839b19dc0cf7146ffd0ba19f2c", "is_reserved": 0, "rental_uris": {"android": "https://dc.lft.to/lastmile_qr_scan", "ios": "https://dc.lft.to/lastmile_qr_scan"}, "lat": 38.906584333333335, "is_disabled": 0, "lon": -77.0314945}, {"fusion_lat": 0.0, "type": "electric_scooter", "name": "d955955a1420cd4e4a8e92549e48ddf0", "fusion_lon": 0.0, "bike_id": "d955955a1420cd4e4a8e92549e48ddf0", "is_reserved": 0, "rental_uris": {"android": "https://dc.lft.to/lastmile_qr_scan", "ios": "https://dc.lft.to/lastmile_qr_scan"}, "lat": 38.917017333333334, "is_disabled": 0, "lon": -77.04248633333333}, {"fusion_lat": 0.0, "type": "electric_scooter", "name": "f5d61fe785ef371fe28dd729ef041406", "fusion_lon": 0.0, "bike_id": "f5d61fe785ef371fe28dd729ef041406", "is_reserved": 0, "rental_uris": {"android": "https://dc.lft.to/lastmile_qr_scan", "ios": "https://dc.lft.to/lastmile_qr_scan"}, "lat": 38.898028833333335, "is_disabled": 0, "lon": -77.03923183333333}, {"fusion_lat": 0.0, "type": "electric_scooter", "name": "738ac63340b9ccc15e5f205cf46ef1ab", "fusion_lon": 0.0, "bike_id": "738ac63340b9ccc15e5f205cf46ef1ab", "is_reserved": 0, "rental_uris": {"android": "https://dc.lft.to/lastmile_qr_scan", "ios": "https://dc.lft.to/lastmile_qr_scan"}, "lat": 38.9292855, "is_disabled": 0, "lon": -77.037553}, {"fusion_lat": 0.0, "type": "electric_scooter", "name": "55e7505ee728021ba1d381dc43dab0a6", "fusion_lon": 0.0, "bike_id": "55e7505ee728021ba1d381dc43dab0a6", "is_reserved": 0, "rental_uris": {"android": "https://dc.lft.to/lastmile_qr_scan", "ios": "https://dc.lft.to/lastmile_qr_scan"}, "lat": 38.942687166666666, "is_disabled": 0, "lon": -77.02849083333334}, {"fusion_lat": 0.0, "type": "electric_scooter", "name": "9c62db420be2df4b77a339875bd9fb39", "fusion_lon": 0.0, "bike_id": "9c62db420be2df4b77a339875bd9fb39", "is_reserved": 0, "rental_uris": {"android": "https://dc.lft.to/lastmile_qr_scan", "ios": "https://dc.lft.to/lastmile_qr_scan"}, "lat": 38.89972133333333, "is_disabled": 0, "lon": -77.01575166666667}, {"fusion_lat": 0.0, "type": "electric_scooter", "name": "1d9dbc24c11625e90f62ab0a6857b3df", "fusion_lon": 0.0, "bike_id": "1d9dbc24c11625e90f62ab0a6857b3df", "is_reserved": 0, "rental_uris": {"android": "https://dc.lft.to/lastmile_qr_scan", "ios": "https://dc.lft.to/lastmile_qr_scan"}, "lat": 38.8949165, "is_disabled": 0, "lon": -77.01082416666667}, {"fusion_lat": 0.0, "type": "electric_scooter", "name": "1138b82e36409b512c30c1df2d8e3c28", "fusion_lon": 0.0, "bike_id": "1138b82e36409b512c30c1df2d8e3c28", "is_reserved": 0, "rental_uris": {"android": "https://dc.lft.to/lastmile_qr_scan", "ios": "https://dc.lft.to/lastmile_qr_scan"}, "lat": 38.890167166666664, "is_disabled": 0, "lon": -76.937309}, {"fusion_lat": 0.0, "type": "electric_scooter", "name": "d093e7cb9041cec7b267ab5979ffc537", "fusion_lon": 0.0, "bike_id": "d093e7cb9041cec7b267ab5979ffc537", "is_reserved": 0, "rental_uris": {"android": "https://dc.lft.to/lastmile_qr_scan", "ios": "https://dc.lft.to/lastmile_qr_scan"}, "lat": 38.887292, "is_disabled": 0, "lon": -77.0283235}, {"fusion_lat": 0.0, "type": "electric_scooter", "name": "245f366093b3275ce8fade461b44e8bb", "fusion_lon": 0.0, "bike_id": "245f366093b3275ce8fade461b44e8bb", "is_reserved": 0, "rental_uris": {"android": "https://dc.lft.to/lastmile_qr_scan", "ios": "https://dc.lft.to/lastmile_qr_scan"}, "lat": 38.881473166666666, "is_disabled": 0, "lon": -76.99485333333334}, {"fusion_lat": 0.0, "type": "electric_scooter", "name": "51acdb88783aa5f60ef3ecab7ecb0c83", "fusion_lon": 0.0, "bike_id": "51acdb88783aa5f60ef3ecab7ecb0c83", "is_reserved": 0, "rental_uris": {"android": "https://dc.lft.to/lastmile_qr_scan", "ios": "https://dc.lft.to/lastmile_qr_scan"}, "lat": 38.91702183333334, "is_disabled": 0, "lon": -77.04173866666666}, {"fusion_lat": 0.0, "type": "electric_scooter", "name": "9ee3d5db8d3ffab9336887f97d4f2c99", "fusion_lon": 0.0, "bike_id": "9ee3d5db8d3ffab9336887f97d4f2c99", "is_reserved": 0, "rental_uris": {"android": "https://dc.lft.to/lastmile_qr_scan", "ios": "https://dc.lft.to/lastmile_qr_scan"}, "lat": 38.8873645, "is_disabled": 0, "lon": -77.0221045}, {"fusion_lat": 0.0, "type": "electric_scooter", "name": "766ee15656cced613ee8c235133d14d6", "fusion_lon": 0.0, "bike_id": "766ee15656cced613ee8c235133d14d6", "is_reserved": 0, "rental_uris": {"android": "https://dc.lft.to/lastmile_qr_scan", "ios": "https://dc.lft.to/lastmile_qr_scan"}, "lat": 38.89745716666667, "is_disabled": 0, "lon": -77.0305845}, {"fusion_lat": 0.0, "type": "electric_scooter", "name": "cb6a4198009c03a08c9729cd74f11d86", "fusion_lon": 0.0, "bike_id": "cb6a4198009c03a08c9729cd74f11d86", "is_reserved": 0, "rental_uris": {"android": "https://dc.lft.to/lastmile_qr_scan", "ios": "https://dc.lft.to/lastmile_qr_scan"}, "lat": 38.93184483333334, "is_disabled": 0, "lon": -77.03655916666666}, {"fusion_lat": 0.0, "type": "electric_bike", "name": "370e96c317409c729b3091f1f5c9e1f1", "fusion_lon": 0.0, "bike_id": "370e96c317409c729b3091f1f5c9e1f1", "is_reserved": 0, "rental_uris": {"android": "https://dc.lft.to/lastmile_qr_scan", "ios": "https://dc.lft.to/lastmile_qr_scan"}, "lat": 38.837877166666665, "is_disabled": 0, "lon": -76.99753166666666}, {"fusion_lat": 0.0, "type": "electric_scooter", "name": "dc948f3081febec8fff0f9a5f3848c1b", "fusion_lon": 0.0, "bike_id": "dc948f3081febec8fff0f9a5f3848c1b", "is_reserved": 0, "rental_uris": {"android": "https://dc.lft.to/lastmile_qr_scan", "ios": "https://dc.lft.to/lastmile_qr_scan"}, "lat": 38.8349465, "is_disabled": 0, "lon": -77.006763}, {"fusion_lat": 0.0, "type": "electric_bike", "name": "e7acaa56bf05808ca3d7c7def1d39bab", "fusion_lon": 0.0, "bike_id": "e7acaa56bf05808ca3d7c7def1d39bab", "is_reserved": 0, "rental_uris": {"android": "https://dc.lft.to/lastmile_qr_scan", "ios": "https://dc.lft.to/lastmile_qr_scan"}, "lat": 38.9614105, "is_disabled": 0, "lon": -77.022952}, {"fusion_lat": 0.0, "type": "electric_scooter", "name": "19a3f6a22b17be7c4082066ff5c69a50", "fusion_lon": 0.0, "bike_id": "19a3f6a22b17be7c4082066ff5c69a50", "is_reserved": 0, "rental_uris": {"android": "https://dc.lft.to/lastmile_qr_scan", "ios": "https://dc.lft.to/lastmile_qr_scan"}, "lat": 38.927454, "is_disabled": 0, "lon": -77.03561316666666}, {"fusion_lat": 0.0, "type": "electric_scooter", "name": "229a6e151e1ac702bce01c0e84c16259", "fusion_lon": 0.0, "bike_id": "229a6e151e1ac702bce01c0e84c16259", "is_reserved": 0, "rental_uris": {"android": "https://dc.lft.to/lastmile_qr_scan", "ios": "https://dc.lft.to/lastmile_qr_scan"}, "lat": 38.900413666666665, "is_disabled": 0, "lon": -77.00539683333334}, {"fusion_lat": 0.0, "type": "electric_scooter", "name": "3f48eff14e2afb4631172e6e679f4aec", "fusion_lon": 0.0, "bike_id": "3f48eff14e2afb4631172e6e679f4aec", "is_reserved": 0, "rental_uris": {"android": "https://dc.lft.to/lastmile_qr_scan", "ios": "https://dc.lft.to/lastmile_qr_scan"}, "lat": 38.90419633333333, "is_disabled": 0, "lon": -77.05316466666666}, {"fusion_lat": 0.0, "type": "electric_scooter", "name": "b0aa9fa0775c135784fda5ac7e732b9a", "fusion_lon": 0.0, "bike_id": "b0aa9fa0775c135784fda5ac7e732b9a", "is_reserved": 0, "rental_uris": {"android": "https://dc.lft.to/lastmile_qr_scan", "ios": "https://dc.lft.to/lastmile_qr_scan"}, "lat": 38.86699516666667, "is_disabled": 0, "lon": -76.98592416666666}, {"fusion_lat": 0.0, "type": "electric_scooter", "name": "ae762cfa988906a4665a13d48d2cf5cf", "fusion_lon": 0.0, "bike_id": "ae762cfa988906a4665a13d48d2cf5cf", "is_reserved": 0, "rental_uris": {"android": "https://dc.lft.to/lastmile_qr_scan", "ios": "https://dc.lft.to/lastmile_qr_scan"}, "lat": 38.89858533333334, "is_disabled": 0, "lon": -77.03951416666666}, {"fusion_lat": 0.0, "type": "electric_scooter", "name": "eb2cae4fb11a1964e49338ef0096700a", "fusion_lon": 0.0, "bike_id": "eb2cae4fb11a1964e49338ef0096700a", "is_reserved": 0, "rental_uris": {"android": "https://dc.lft.to/lastmile_qr_scan", "ios": "https://dc.lft.to/lastmile_qr_scan"}, "lat": 38.89222066666667, "is_disabled": 0, "lon": -77.02369666666667}, {"fusion_lat": 0.0, "type": "electric_scooter", "name": "c9e2abcf97a02e655ff3864d6294ddf5", "fusion_lon": 0.0, "bike_id": "c9e2abcf97a02e655ff3864d6294ddf5", "is_reserved": 0, "rental_uris": {"android": "https://dc.lft.to/lastmile_qr_scan", "ios": "https://dc.lft.to/lastmile_qr_scan"}, "lat": 38.9206155, "is_disabled": 0, "lon": -77.0167055}, {"fusion_lat": 0.0, "type": "electric_scooter", "name": "387fbf596aca372bb01e2ed53000120e", "fusion_lon": 0.0, "bike_id": "387fbf596aca372bb01e2ed53000120e", "is_reserved": 0, "rental_uris": {"android": "https://dc.lft.to/lastmile_qr_scan", "ios": "https://dc.lft.to/lastmile_qr_scan"}, "lat": 38.88726183333333, "is_disabled": 0, "lon": -77.02823}, {"fusion_lat": 0.0, "type": "electric_scooter", "name": "5bece96d610511a26856d5601b981f30", "fusion_lon": 0.0, "bike_id": "5bece96d610511a26856d5601b981f30", "is_reserved": 0, "rental_uris": {"android": "https://dc.lft.to/lastmile_qr_scan", "ios": "https://dc.lft.to/lastmile_qr_scan"}, "lat": 38.9223905, "is_disabled": 0, "lon": -77.021128}, {"fusion_lat": 0.0, "type": "electric_bike", "name": "b5195918653ba96ffde2b15cca0c5a24", "fusion_lon": 0.0, "bike_id": "b5195918653ba96ffde2b15cca0c5a24", "is_reserved": 0, "rental_uris": {"android": "https://dc.lft.to/lastmile_qr_scan", "ios": "https://dc.lft.to/lastmile_qr_scan"}, "lat": 38.910177, "is_disabled": 0, "lon": -77.22801283333334}, {"fusion_lat": 0.0, "type": "electric_scooter", "name": "a610d90a9d997469681159734bf47941", "fusion_lon": 0.0, "bike_id": "a610d90a9d997469681159734bf47941", "is_reserved": 0, "rental_uris": {"android": "https://dc.lft.to/lastmile_qr_scan", "ios": "https://dc.lft.to/lastmile_qr_scan"}, "lat": 38.94205566666667, "is_disabled": 0, "lon": -77.025029}, {"fusion_lat": 0.0, "type": "electric_scooter", "name": "031e3815d8d1b137bf448a409178aec9", "fusion_lon": 0.0, "bike_id": "031e3815d8d1b137bf448a409178aec9", "is_reserved": 0, "rental_uris": {"android": "https://dc.lft.to/lastmile_qr_scan", "ios": "https://dc.lft.to/lastmile_qr_scan"}, "lat": 38.892216, "is_disabled": 0, "lon": -77.02234216666666}, {"fusion_lat": 0.0, "type": "electric_bike", "name": "ede2ef96366fb1952070ce7c3e130e8a", "fusion_lon": 0.0, "bike_id": "ede2ef96366fb1952070ce7c3e130e8a", "is_reserved": 0, "rental_uris": {"android": "https://dc.lft.to/lastmile_qr_scan", "ios": "https://dc.lft.to/lastmile_qr_scan"}, "lat": 38.94229766666667, "is_disabled": 0, "lon": -76.96619533333333}, {"fusion_lat": 0.0, "type": "electric_scooter", "name": "dd6834b28c8c62646681460908222d52", "fusion_lon": 0.0, "bike_id": "dd6834b28c8c62646681460908222d52", "is_reserved": 0, "rental_uris": {"android": "https://dc.lft.to/lastmile_qr_scan", "ios": "https://dc.lft.to/lastmile_qr_scan"}, "lat": 38.86544516666667, "is_disabled": 0, "lon": -76.98709516666666}, {"fusion_lat": 0.0, "type": "electric_scooter", "name": "260d8112183517cb7e5c4ada458e95e2", "fusion_lon": 0.0, "bike_id": "260d8112183517cb7e5c4ada458e95e2", "is_reserved": 0, "rental_uris": {"android": "https://dc.lft.to/lastmile_qr_scan", "ios": "https://dc.lft.to/lastmile_qr_scan"}, "lat": 38.9037055, "is_disabled": 0, "lon": -77.04475466666666}, {"fusion_lat": 0.0, "type": "electric_scooter", "name": "5e55273141189a0b2f95b3d5adfde4e4", "fusion_lon": 0.0, "bike_id": "5e55273141189a0b2f95b3d5adfde4e4", "is_reserved": 0, "rental_uris": {"android": "https://dc.lft.to/lastmile_qr_scan", "ios": "https://dc.lft.to/lastmile_qr_scan"}, "lat": 38.892222, "is_disabled": 0, "lon": -77.02625383333333}, {"fusion_lat": 0.0, "type": "electric_scooter", "name": "8bd58f0ef5386c168e6a9f81923404b1", "fusion_lon": 0.0, "bike_id": "8bd58f0ef5386c168e6a9f81923404b1", "is_reserved": 0, "rental_uris": {"android": "https://dc.lft.to/lastmile_qr_scan", "ios": "https://dc.lft.to/lastmile_qr_scan"}, "lat": 38.9258425, "is_disabled": 0, "lon": -77.03640366666667}, {"fusion_lat": 0.0, "type": "electric_scooter", "name": "bee43544be2ab6159f1a35cc87fc398b", "fusion_lon": 0.0, "bike_id": "bee43544be2ab6159f1a35cc87fc398b", "is_reserved": 0, "rental_uris": {"android": "https://dc.lft.to/lastmile_qr_scan", "ios": "https://dc.lft.to/lastmile_qr_scan"}, "lat": 38.90244833333333, "is_disabled": 0, "lon": -76.99885683333333}, {"fusion_lat": 0.0, "type": "electric_bike", "name": "806e8e61f2b4e930c560d73a1e9d501a", "fusion_lon": 0.0, "bike_id": "806e8e61f2b4e930c560d73a1e9d501a", "is_reserved": 0, "rental_uris": {"android": "https://dc.lft.to/lastmile_qr_scan", "ios": "https://dc.lft.to/lastmile_qr_scan"}, "lat": 38.96745766666667, "is_disabled": 0, "lon": -76.98192166666666}, {"fusion_lat": 0.0, "type": "electric_scooter", "name": "5ed219169974d317823135524fa78eed", "fusion_lon": 0.0, "bike_id": "5ed219169974d317823135524fa78eed", "is_reserved": 0, "rental_uris": {"android": "https://dc.lft.to/lastmile_qr_scan", "ios": "https://dc.lft.to/lastmile_qr_scan"}, "lat": 38.92469366666667, "is_disabled": 0, "lon": -77.02205583333334}, {"fusion_lat": 0.0, "type": "electric_scooter", "name": "7cd35bacc7d75c42841555de6065b7c4", "fusion_lon": 0.0, "bike_id": "7cd35bacc7d75c42841555de6065b7c4", "is_reserved": 0, "rental_uris": {"android": "https://dc.lft.to/lastmile_qr_scan", "ios": "https://dc.lft.to/lastmile_qr_scan"}, "lat": 38.891948, "is_disabled": 0, "lon": -77.02770183333334}, {"fusion_lat": 0.0, "type": "electric_scooter", "name": "81d59c5e840de9ce92e5a8c4650ebe31", "fusion_lon": 0.0, "bike_id": "81d59c5e840de9ce92e5a8c4650ebe31", "is_reserved": 0, "rental_uris": {"android": "https://dc.lft.to/lastmile_qr_scan", "ios": "https://dc.lft.to/lastmile_qr_scan"}, "lat": 38.9029735, "is_disabled": 0, "lon": -77.04369333333334}, {"fusion_lat": 0.0, "type": "electric_bike", "name": "e3c206397b854c341cd7aaf6f26c2ce8", "fusion_lon": 0.0, "bike_id": "e3c206397b854c341cd7aaf6f26c2ce8", "is_reserved": 0, "rental_uris": {"android": "https://dc.lft.to/lastmile_qr_scan", "ios": "https://dc.lft.to/lastmile_qr_scan"}, "lat": 39.0147925, "is_disabled": 0, "lon": -77.05487616666667}, {"fusion_lat": 0.0, "type": "electric_scooter", "name": "d99330d397b996e078504107337a32f3", "fusion_lon": 0.0, "bike_id": "d99330d397b996e078504107337a32f3", "is_reserved": 0, "rental_uris": {"android": "https://dc.lft.to/lastmile_qr_scan", "ios": "https://dc.lft.to/lastmile_qr_scan"}, "lat": 38.9155435, "is_disabled": 0, "lon": -77.031724}, {"fusion_lat": 0.0, "type": "electric_scooter", "name": "9e8cf992becca5bfb28b0761f67ff965", "fusion_lon": 0.0, "bike_id": "9e8cf992becca5bfb28b0761f67ff965", "is_reserved": 0, "rental_uris": {"android": "https://dc.lft.to/lastmile_qr_scan", "ios": "https://dc.lft.to/lastmile_qr_scan"}, "lat": 38.92881366666667, "is_disabled": 0, "lon": -77.03653816666667}, {"fusion_lat": 0.0, "type": "electric_scooter", "name": "352e5e6e33ead3ff556af289c632a58a", "fusion_lon": 0.0, "bike_id": "352e5e6e33ead3ff556af289c632a58a", "is_reserved": 0, "rental_uris": {"android": "https://dc.lft.to/lastmile_qr_scan", "ios": "https://dc.lft.to/lastmile_qr_scan"}, "lat": 38.92428183333333, "is_disabled": 0, "lon": -77.0518265}, {"fusion_lat": 0.0, "type": "electric_bike", "name": "ef39eee49a549621f9a3c60596c4aa4f", "fusion_lon": 0.0, "bike_id": "ef39eee49a549621f9a3c60596c4aa4f", "is_reserved": 0, "rental_uris": {"android": "https://dc.lft.to/lastmile_qr_scan", "ios": "https://dc.lft.to/lastmile_qr_scan"}, "lat": 38.874791, "is_disabled": 0, "lon": -76.96530233333333}, {"fusion_lat": 0.0, "type": "electric_scooter", "name": "7efb2cbe4cc204817cc580da2ad6f327", "fusion_lon": 0.0, "bike_id": "7efb2cbe4cc204817cc580da2ad6f327", "is_reserved": 0, "rental_uris": {"android": "https://dc.lft.to/lastmile_qr_scan", "ios": "https://dc.lft.to/lastmile_qr_scan"}, "lat": 38.88745616666667, "is_disabled": 0, "lon": -77.03164766666667}, {"fusion_lat": 0.0, "type": "electric_scooter", "name": "6aa941157f5b1487870972ce942850ae", "fusion_lon": 0.0, "bike_id": "6aa941157f5b1487870972ce942850ae", "is_reserved": 0, "rental_uris": {"android": "https://dc.lft.to/lastmile_qr_scan", "ios": "https://dc.lft.to/lastmile_qr_scan"}, "lat": 38.90274866666667, "is_disabled": 0, "lon": -77.02999666666666}, {"fusion_lat": 0.0, "type": "electric_scooter", "name": "f473a8441cd71fd0c268a941a5758ffa", "fusion_lon": 0.0, "bike_id": "f473a8441cd71fd0c268a941a5758ffa", "is_reserved": 0, "rental_uris": {"android": "https://dc.lft.to/lastmile_qr_scan", "ios": "https://dc.lft.to/lastmile_qr_scan"}, "lat": 38.9086445, "is_disabled": 0, "lon": -77.01358316666666}, {"fusion_lat": 0.0, "type": "electric_bike", "name": "aebb437f9dcb290c72a283b34de11ec9", "fusion_lon": 0.0, "bike_id": "aebb437f9dcb290c72a283b34de11ec9", "is_reserved": 0, "rental_uris": {"android": "https://dc.lft.to/lastmile_qr_scan", "ios": "https://dc.lft.to/lastmile_qr_scan"}, "lat": 38.96903266666666, "is_disabled": 0, "lon": -76.99494416666667}, {"fusion_lat": 0.0, "type": "electric_scooter", "name": "398ba3dcf782c8d5450674570f5c5a17", "fusion_lon": 0.0, "bike_id": "398ba3dcf782c8d5450674570f5c5a17", "is_reserved": 0, "rental_uris": {"android": "https://dc.lft.to/lastmile_qr_scan", "ios": "https://dc.lft.to/lastmile_qr_scan"}, "lat": 38.912800833333336, "is_disabled": 0, "lon": -77.02241766666667}, {"fusion_lat": 0.0, "type": "electric_bike", "name": "7248882a74f06c490c096f69a022cbfe", "fusion_lon": 0.0, "bike_id": "7248882a74f06c490c096f69a022cbfe", "is_reserved": 0, "rental_uris": {"android": "https://dc.lft.to/lastmile_qr_scan", "ios": "https://dc.lft.to/lastmile_qr_scan"}, "lat": 38.96320433333333, "is_disabled": 0, "lon": -76.97355816666666}, {"fusion_lat": 0.0, "type": "electric_scooter", "name": "4c29efdc8b9f7f2fe2febf49865413f7", "fusion_lon": 0.0, "bike_id": "4c29efdc8b9f7f2fe2febf49865413f7", "is_reserved": 0, "rental_uris": {"android": "https://dc.lft.to/lastmile_qr_scan", "ios": "https://dc.lft.to/lastmile_qr_scan"}, "lat": 38.90027766666667, "is_disabled": 0, "lon": -77.0119175}, {"fusion_lat": 0.0, "type": "electric_scooter", "name": "e44d57cd80d283fd04cebcf2934e8c92", "fusion_lon": 0.0, "bike_id": "e44d57cd80d283fd04cebcf2934e8c92", "is_reserved": 0, "rental_uris": {"android": "https://dc.lft.to/lastmile_qr_scan", "ios": "https://dc.lft.to/lastmile_qr_scan"}, "lat": 38.917053, "is_disabled": 0, "lon": -77.0341605}, {"fusion_lat": 0.0, "type": "electric_scooter", "name": "6f5bc9f22de1784af80281a7a3104875", "fusion_lon": 0.0, "bike_id": "6f5bc9f22de1784af80281a7a3104875", "is_reserved": 0, "rental_uris": {"android": "https://dc.lft.to/lastmile_qr_scan", "ios": "https://dc.lft.to/lastmile_qr_scan"}, "lat": 38.907636, "is_disabled": 0, "lon": -77.035746}, {"fusion_lat": 0.0, "type": "electric_scooter", "name": "0ba79c7094e6748d4204689a3ef59d53", "fusion_lon": 0.0, "bike_id": "0ba79c7094e6748d4204689a3ef59d53", "is_reserved": 0, "rental_uris": {"android": "https://dc.lft.to/lastmile_qr_scan", "ios": "https://dc.lft.to/lastmile_qr_scan"}, "lat": 38.907325666666665, "is_disabled": 0, "lon": -77.04154266666667}, {"fusion_lat": 0.0, "type": "electric_scooter", "name": "3d52aad49f8f059b37f9513ab5068045", "fusion_lon": 0.0, "bike_id": "3d52aad49f8f059b37f9513ab5068045", "is_reserved": 0, "rental_uris": {"android": "https://dc.lft.to/lastmile_qr_scan", "ios": "https://dc.lft.to/lastmile_qr_scan"}, "lat": 38.908667, "is_disabled": 0, "lon": -77.08595466666667}, {"fusion_lat": 0.0, "type": "electric_scooter", "name": "54015a6450b282eb9839d5b1da1bf83a", "fusion_lon": 0.0, "bike_id": "54015a6450b282eb9839d5b1da1bf83a", "is_reserved": 0, "rental_uris": {"android": "https://dc.lft.to/lastmile_qr_scan", "ios": "https://dc.lft.to/lastmile_qr_scan"}, "lat": 38.94102933333333, "is_disabled": 0, "lon": -77.021161}, {"fusion_lat": 0.0, "type": "electric_scooter", "name": "9809f1029df67f3a4a786998dfa540fe", "fusion_lon": 0.0, "bike_id": "9809f1029df67f3a4a786998dfa540fe", "is_reserved": 0, "rental_uris": {"android": "https://dc.lft.to/lastmile_qr_scan", "ios": "https://dc.lft.to/lastmile_qr_scan"}, "lat": 38.914582333333335, "is_disabled": 0, "lon": -77.01888216666667}, {"fusion_lat": 0.0, "type": "electric_bike", "name": "80e4a6c430cb03f70198188a662cd9e6", "fusion_lon": 0.0, "bike_id": "80e4a6c430cb03f70198188a662cd9e6", "is_reserved": 0, "rental_uris": {"android": "https://dc.lft.to/lastmile_qr_scan", "ios": "https://dc.lft.to/lastmile_qr_scan"}, "lat": 38.96813816666667, "is_disabled": 0, "lon": -77.07224766666667}, {"fusion_lat": 0.0, "type": "electric_scooter", "name": "1c52c9e4749bb949af54fd992d6e1fa0", "fusion_lon": 0.0, "bike_id": "1c52c9e4749bb949af54fd992d6e1fa0", "is_reserved": 0, "rental_uris": {"android": "https://dc.lft.to/lastmile_qr_scan", "ios": "https://dc.lft.to/lastmile_qr_scan"}, "lat": 38.916055166666666, "is_disabled": 0, "lon": -77.023905}, {"fusion_lat": 0.0, "type": "electric_scooter", "name": "3d1558aa727621a4dfb96a1872567035", "fusion_lon": 0.0, "bike_id": "3d1558aa727621a4dfb96a1872567035", "is_reserved": 0, "rental_uris": {"android": "https://dc.lft.to/lastmile_qr_scan", "ios": "https://dc.lft.to/lastmile_qr_scan"}, "lat": 38.90439416666667, "is_disabled": 0, "lon": -76.9849095}, {"fusion_lat": 0.0, "type": "electric_scooter", "name": "8fc631d345064fac0118f894cce59cf4", "fusion_lon": 0.0, "bike_id": "8fc631d345064fac0118f894cce59cf4", "is_reserved": 0, "rental_uris": {"android": "https://dc.lft.to/lastmile_qr_scan", "ios": "https://dc.lft.to/lastmile_qr_scan"}, "lat": 38.903109, "is_disabled": 0, "lon": -77.023654}, {"fusion_lat": 0.0, "type": "electric_scooter", "name": "811b9cc648a6307093638756732de734", "fusion_lon": 0.0, "bike_id": "811b9cc648a6307093638756732de734", "is_reserved": 0, "rental_uris": {"android": "https://dc.lft.to/lastmile_qr_scan", "ios": "https://dc.lft.to/lastmile_qr_scan"}, "lat": 38.907819833333335, "is_disabled": 0, "lon": -77.03858383333333}, {"fusion_lat": 0.0, "type": "electric_scooter", "name": "ddb9150bf396a34a5d849b48f6855704", "fusion_lon": 0.0, "bike_id": "ddb9150bf396a34a5d849b48f6855704", "is_reserved": 0, "rental_uris": {"android": "https://dc.lft.to/lastmile_qr_scan", "ios": "https://dc.lft.to/lastmile_qr_scan"}, "lat": 38.90693016666667, "is_disabled": 0, "lon": -77.0359245}, {"fusion_lat": 0.0, "type": "electric_scooter", "name": "d5071e142bd795b3ea46e57ed67ecf94", "fusion_lon": 0.0, "bike_id": "d5071e142bd795b3ea46e57ed67ecf94", "is_reserved": 0, "rental_uris": {"android": "https://dc.lft.to/lastmile_qr_scan", "ios": "https://dc.lft.to/lastmile_qr_scan"}, "lat": 38.92256583333333, "is_disabled": 0, "lon": -77.03520183333333}, {"fusion_lat": 0.0, "type": "electric_scooter", "name": "f2d9966bc772bc6d8ddea3c303ca1f23", "fusion_lon": 0.0, "bike_id": "f2d9966bc772bc6d8ddea3c303ca1f23", "is_reserved": 0, "rental_uris": {"android": "https://dc.lft.to/lastmile_qr_scan", "ios": "https://dc.lft.to/lastmile_qr_scan"}, "lat": 38.94916283333333, "is_disabled": 0, "lon": -77.07882983333333}, {"fusion_lat": 0.0, "type": "electric_bike", "name": "b731ee3c1f6ae1fa0731718d237bdbdd", "fusion_lon": 0.0, "bike_id": "b731ee3c1f6ae1fa0731718d237bdbdd", "is_reserved": 0, "rental_uris": {"android": "https://dc.lft.to/lastmile_qr_scan", "ios": "https://dc.lft.to/lastmile_qr_scan"}, "lat": 38.91860766666667, "is_disabled": 0, "lon": -76.960899}, {"fusion_lat": 0.0, "type": "electric_scooter", "name": "128481c5ddf5122a065e8850bf548712", "fusion_lon": 0.0, "bike_id": "128481c5ddf5122a065e8850bf548712", "is_reserved": 0, "rental_uris": {"android": "https://dc.lft.to/lastmile_qr_scan", "ios": "https://dc.lft.to/lastmile_qr_scan"}, "lat": 38.89607383333333, "is_disabled": 0, "lon": -77.0503765}, {"fusion_lat": 0.0, "type": "electric_scooter", "name": "19a8991cd3aa8a766e74edbe9a3d319d", "fusion_lon": 0.0, "bike_id": "19a8991cd3aa8a766e74edbe9a3d319d", "is_reserved": 0, "rental_uris": {"android": "https://dc.lft.to/lastmile_qr_scan", "ios": "https://dc.lft.to/lastmile_qr_scan"}, "lat": 38.922244666666664, "is_disabled": 0, "lon": -77.04248533333333}, {"fusion_lat": 0.0, "type": "electric_scooter", "name": "3a5a8934a1b6287b745c5bd33cb91676", "fusion_lon": 0.0, "bike_id": "3a5a8934a1b6287b745c5bd33cb91676", "is_reserved": 0, "rental_uris": {"android": "https://dc.lft.to/lastmile_qr_scan", "ios": "https://dc.lft.to/lastmile_qr_scan"}, "lat": 38.91718816666667, "is_disabled": 0, "lon": -77.04153583333333}, {"fusion_lat": 0.0, "type": "electric_scooter", "name": "3374634b6bfd02da045540fe0103d3b0", "fusion_lon": 0.0, "bike_id": "3374634b6bfd02da045540fe0103d3b0", "is_reserved": 0, "rental_uris": {"android": "https://dc.lft.to/lastmile_qr_scan", "ios": "https://dc.lft.to/lastmile_qr_scan"}, "lat": 38.8922445, "is_disabled": 0, "lon": -77.043779}, {"fusion_lat": 0.0, "type": "electric_scooter", "name": "e5e5514d0497594c6c2bed66860fcee7", "fusion_lon": 0.0, "bike_id": "e5e5514d0497594c6c2bed66860fcee7", "is_reserved": 0, "rental_uris": {"android": "https://dc.lft.to/lastmile_qr_scan", "ios": "https://dc.lft.to/lastmile_qr_scan"}, "lat": 38.942024833333335, "is_disabled": 0, "lon": -77.0250015}, {"fusion_lat": 0.0, "type": "electric_scooter", "name": "ce77f1506e35b503d18c2ad6cf310a49", "fusion_lon": 0.0, "bike_id": "ce77f1506e35b503d18c2ad6cf310a49", "is_reserved": 0, "rental_uris": {"android": "https://dc.lft.to/lastmile_qr_scan", "ios": "https://dc.lft.to/lastmile_qr_scan"}, "lat": 38.932735666666666, "is_disabled": 0, "lon": -77.03281083333333}, {"fusion_lat": 0.0, "type": "electric_scooter", "name": "897175a41796a61cb4e8f6047974ebd9", "fusion_lon": 0.0, "bike_id": "897175a41796a61cb4e8f6047974ebd9", "is_reserved": 0, "rental_uris": {"android": "https://dc.lft.to/lastmile_qr_scan", "ios": "https://dc.lft.to/lastmile_qr_scan"}, "lat": 38.901346, "is_disabled": 0, "lon": -77.03964166666667}, {"fusion_lat": 0.0, "type": "electric_scooter", "name": "6f1415e1292d69d9b77f9da386d66bee", "fusion_lon": 0.0, "bike_id": "6f1415e1292d69d9b77f9da386d66bee", "is_reserved": 0, "rental_uris": {"android": "https://dc.lft.to/lastmile_qr_scan", "ios": "https://dc.lft.to/lastmile_qr_scan"}, "lat": 38.90742916666667, "is_disabled": 0, "lon": -77.04187833333333}, {"fusion_lat": 0.0, "type": "electric_scooter", "name": "58a6b15d5885110ef353a49452be9b11", "fusion_lon": 0.0, "bike_id": "58a6b15d5885110ef353a49452be9b11", "is_reserved": 0, "rental_uris": {"android": "https://dc.lft.to/lastmile_qr_scan", "ios": "https://dc.lft.to/lastmile_qr_scan"}, "lat": 38.92921416666667, "is_disabled": 0, "lon": -77.03739383333334}, {"fusion_lat": 0.0, "type": "electric_bike", "name": "2e6274a541de56d39897037ea9e12d9d", "fusion_lon": 0.0, "bike_id": "2e6274a541de56d39897037ea9e12d9d", "is_reserved": 0, "rental_uris": {"android": "https://dc.lft.to/lastmile_qr_scan", "ios": "https://dc.lft.to/lastmile_qr_scan"}, "lat": 38.962217833333334, "is_disabled": 0, "lon": -76.93494816666667}, {"fusion_lat": 0.0, "type": "electric_scooter", "name": "63ff223589f4f1eeed4459ae2e326cc2", "fusion_lon": 0.0, "bike_id": "63ff223589f4f1eeed4459ae2e326cc2", "is_reserved": 0, "rental_uris": {"android": "https://dc.lft.to/lastmile_qr_scan", "ios": "https://dc.lft.to/lastmile_qr_scan"}, "lat": 38.905505166666664, "is_disabled": 0, "lon": -77.046317}, {"fusion_lat": 0.0, "type": "electric_scooter", "name": "d765ab160a9d5b15211336a64831efed", "fusion_lon": 0.0, "bike_id": "d765ab160a9d5b15211336a64831efed", "is_reserved": 0, "rental_uris": {"android": "https://dc.lft.to/lastmile_qr_scan", "ios": "https://dc.lft.to/lastmile_qr_scan"}, "lat": 38.96042033333333, "is_disabled": 0, "lon": -77.08549116666667}, {"fusion_lat": 0.0, "type": "electric_scooter", "name": "77e20f340c605aea2789162067009579", "fusion_lon": 0.0, "bike_id": "77e20f340c605aea2789162067009579", "is_reserved": 0, "rental_uris": {"android": "https://dc.lft.to/lastmile_qr_scan", "ios": "https://dc.lft.to/lastmile_qr_scan"}, "lat": 38.909001, "is_disabled": 0, "lon": -77.01889633333333}, {"fusion_lat": 0.0, "type": "electric_scooter", "name": "03addc4aae4ddbc05ef3d521e743ae32", "fusion_lon": 0.0, "bike_id": "03addc4aae4ddbc05ef3d521e743ae32", "is_reserved": 0, "rental_uris": {"android": "https://dc.lft.to/lastmile_qr_scan", "ios": "https://dc.lft.to/lastmile_qr_scan"}, "lat": 38.93863733333333, "is_disabled": 0, "lon": -77.0265015}, {"fusion_lat": 0.0, "type": "electric_scooter", "name": "0cd7bbc60a20beadc6a6584b9467177b", "fusion_lon": 0.0, "bike_id": "0cd7bbc60a20beadc6a6584b9467177b", "is_reserved": 0, "rental_uris": {"android": "https://dc.lft.to/lastmile_qr_scan", "ios": "https://dc.lft.to/lastmile_qr_scan"}, "lat": 38.9027735, "is_disabled": 0, "lon": -77.05334666666667}, {"fusion_lat": 0.0, "type": "electric_scooter", "name": "1ea2b0bb3dec5d3d45a331a69c0ac329", "fusion_lon": 0.0, "bike_id": "1ea2b0bb3dec5d3d45a331a69c0ac329", "is_reserved": 0, "rental_uris": {"android": "https://dc.lft.to/lastmile_qr_scan", "ios": "https://dc.lft.to/lastmile_qr_scan"}, "lat": 38.922574, "is_disabled": 0, "lon": -77.04296933333333}, {"fusion_lat": 0.0, "type": "electric_bike", "name": "6b18e4dbdb75770f0955aa0d36a8879e", "fusion_lon": 0.0, "bike_id": "6b18e4dbdb75770f0955aa0d36a8879e", "is_reserved": 0, "rental_uris": {"android": "https://dc.lft.to/lastmile_qr_scan", "ios": "https://dc.lft.to/lastmile_qr_scan"}, "lat": 38.865172, "is_disabled": 0, "lon": -76.9733245}, {"fusion_lat": 0.0, "type": "electric_scooter", "name": "2ff443823966bc7c85655133d40c8dd4", "fusion_lon": 0.0, "bike_id": "2ff443823966bc7c85655133d40c8dd4", "is_reserved": 0, "rental_uris": {"android": "https://dc.lft.to/lastmile_qr_scan", "ios": "https://dc.lft.to/lastmile_qr_scan"}, "lat": 38.93951083333333, "is_disabled": 0, "lon": -77.07256816666667}, {"fusion_lat": 0.0, "type": "electric_bike", "name": "9a2bc50750b907e9cb2fb05ec9866a24", "fusion_lon": 0.0, "bike_id": "9a2bc50750b907e9cb2fb05ec9866a24", "is_reserved": 0, "rental_uris": {"android": "https://dc.lft.to/lastmile_qr_scan", "ios": "https://dc.lft.to/lastmile_qr_scan"}, "lat": 38.86582633333333, "is_disabled": 0, "lon": -77.04760433333334}, {"fusion_lat": 0.0, "type": "electric_scooter", "name": "b12c302968b4b2f958b74de28c61343a", "fusion_lon": 0.0, "bike_id": "b12c302968b4b2f958b74de28c61343a", "is_reserved": 0, "rental_uris": {"android": "https://dc.lft.to/lastmile_qr_scan", "ios": "https://dc.lft.to/lastmile_qr_scan"}, "lat": 38.874787833333336, "is_disabled": 0, "lon": -77.00861883333333}, {"fusion_lat": 0.0, "type": "electric_scooter", "name": "80a01ac74a7d96a3601129d50ec02a1d", "fusion_lon": 0.0, "bike_id": "80a01ac74a7d96a3601129d50ec02a1d", "is_reserved": 0, "rental_uris": {"android": "https://dc.lft.to/lastmile_qr_scan", "ios": "https://dc.lft.to/lastmile_qr_scan"}, "lat": 38.865059333333335, "is_disabled": 0, "lon": -76.99002066666667}, {"fusion_lat": 0.0, "type": "electric_scooter", "name": "80343a55e57a436e336da2565d308dcc", "fusion_lon": 0.0, "bike_id": "80343a55e57a436e336da2565d308dcc", "is_reserved": 0, "rental_uris": {"android": "https://dc.lft.to/lastmile_qr_scan", "ios": "https://dc.lft.to/lastmile_qr_scan"}, "lat": 38.887441, "is_disabled": 0, "lon": -77.02735366666667}, {"fusion_lat": 0.0, "type": "electric_scooter", "name": "6ba9fabecf11dc42a42eabd497f4ede0", "fusion_lon": 0.0, "bike_id": "6ba9fabecf11dc42a42eabd497f4ede0", "is_reserved": 0, "rental_uris": {"android": "https://dc.lft.to/lastmile_qr_scan", "ios": "https://dc.lft.to/lastmile_qr_scan"}, "lat": 38.93912916666667, "is_disabled": 0, "lon": -77.02479933333333}, {"fusion_lat": 0.0, "type": "electric_scooter", "name": "ce3b27c1dc505355dffd83e59d736ed7", "fusion_lon": 0.0, "bike_id": "ce3b27c1dc505355dffd83e59d736ed7", "is_reserved": 0, "rental_uris": {"android": "https://dc.lft.to/lastmile_qr_scan", "ios": "https://dc.lft.to/lastmile_qr_scan"}, "lat": 38.906134333333334, "is_disabled": 0, "lon": -77.03986283333333}, {"fusion_lat": 0.0, "type": "electric_scooter", "name": "fc94e1db466bab61836514aab8fa0961", "fusion_lon": 0.0, "bike_id": "fc94e1db466bab61836514aab8fa0961", "is_reserved": 0, "rental_uris": {"android": "https://dc.lft.to/lastmile_qr_scan", "ios": "https://dc.lft.to/lastmile_qr_scan"}, "lat": 38.91280866666666, "is_disabled": 0, "lon": -77.02246366666667}, {"fusion_lat": 0.0, "type": "electric_scooter", "name": "9bc38fe06298ad6b2664c5a654f5b502", "fusion_lon": 0.0, "bike_id": "9bc38fe06298ad6b2664c5a654f5b502", "is_reserved": 0, "rental_uris": {"android": "https://dc.lft.to/lastmile_qr_scan", "ios": "https://dc.lft.to/lastmile_qr_scan"}, "lat": 38.906782, "is_disabled": 0, "lon": -77.03471866666666}, {"fusion_lat": 0.0, "type": "electric_scooter", "name": "85e2d60d8a18e2ec7e5cfc07f6be8d55", "fusion_lon": 0.0, "bike_id": "85e2d60d8a18e2ec7e5cfc07f6be8d55", "is_reserved": 0, "rental_uris": {"android": "https://dc.lft.to/lastmile_qr_scan", "ios": "https://dc.lft.to/lastmile_qr_scan"}, "lat": 38.904762, "is_disabled": 0, "lon": -77.04361466666667}, {"fusion_lat": 0.0, "type": "electric_scooter", "name": "465c19452bc02a8c2536f555fa2b44a5", "fusion_lon": 0.0, "bike_id": "465c19452bc02a8c2536f555fa2b44a5", "is_reserved": 0, "rental_uris": {"android": "https://dc.lft.to/lastmile_qr_scan", "ios": "https://dc.lft.to/lastmile_qr_scan"}, "lat": 38.89298133333333, "is_disabled": 0, "lon": -76.99820633333333}, {"fusion_lat": 0.0, "type": "electric_scooter", "name": "189496889e06cf8b66cb541a22258019", "fusion_lon": 0.0, "bike_id": "189496889e06cf8b66cb541a22258019", "is_reserved": 0, "rental_uris": {"android": "https://dc.lft.to/lastmile_qr_scan", "ios": "https://dc.lft.to/lastmile_qr_scan"}, "lat": 38.9271105, "is_disabled": 0, "lon": -77.02391733333333}, {"fusion_lat": 0.0, "type": "electric_scooter", "name": "ca88d970029338529a91dbcb126ee9fc", "fusion_lon": 0.0, "bike_id": "ca88d970029338529a91dbcb126ee9fc", "is_reserved": 0, "rental_uris": {"android": "https://dc.lft.to/lastmile_qr_scan", "ios": "https://dc.lft.to/lastmile_qr_scan"}, "lat": 38.89365933333333, "is_disabled": 0, "lon": -77.05491066666667}, {"fusion_lat": 0.0, "type": "electric_scooter", "name": "d4933826d5d5e2bb91103778d09612bc", "fusion_lon": 0.0, "bike_id": "d4933826d5d5e2bb91103778d09612bc", "is_reserved": 0, "rental_uris": {"android": "https://dc.lft.to/lastmile_qr_scan", "ios": "https://dc.lft.to/lastmile_qr_scan"}, "lat": 38.90232983333333, "is_disabled": 0, "lon": -77.0269515}, {"fusion_lat": 0.0, "type": "electric_scooter", "name": "14028a91ec69800be1d5ec8e60882d3c", "fusion_lon": 0.0, "bike_id": "14028a91ec69800be1d5ec8e60882d3c", "is_reserved": 0, "rental_uris": {"android": "https://dc.lft.to/lastmile_qr_scan", "ios": "https://dc.lft.to/lastmile_qr_scan"}, "lat": 38.8942915, "is_disabled": 0, "lon": -76.948798}, {"fusion_lat": 0.0, "type": "electric_scooter", "name": "ed80bb3cdd0d6e76ca41207ce55fdcf7", "fusion_lon": 0.0, "bike_id": "ed80bb3cdd0d6e76ca41207ce55fdcf7", "is_reserved": 0, "rental_uris": {"android": "https://dc.lft.to/lastmile_qr_scan", "ios": "https://dc.lft.to/lastmile_qr_scan"}, "lat": 38.934114, "is_disabled": 0, "lon": -77.032608}, {"fusion_lat": 0.0, "type": "electric_scooter", "name": "61235efa20b20379ac961c9c3e3dc0b6", "fusion_lon": 0.0, "bike_id": "61235efa20b20379ac961c9c3e3dc0b6", "is_reserved": 0, "rental_uris": {"android": "https://dc.lft.to/lastmile_qr_scan", "ios": "https://dc.lft.to/lastmile_qr_scan"}, "lat": 38.920128166666665, "is_disabled": 0, "lon": -77.02188416666667}, {"fusion_lat": 0.0, "type": "electric_scooter", "name": "a2b8ca2d84e9bcb876a12761c921918c", "fusion_lon": 0.0, "bike_id": "a2b8ca2d84e9bcb876a12761c921918c", "is_reserved": 0, "rental_uris": {"android": "https://dc.lft.to/lastmile_qr_scan", "ios": "https://dc.lft.to/lastmile_qr_scan"}, "lat": 38.88605533333333, "is_disabled": 0, "lon": -76.95582833333333}, {"fusion_lat": 0.0, "type": "electric_scooter", "name": "86f6b1ad9318ccff05a02b51032ef41d", "fusion_lon": 0.0, "bike_id": "86f6b1ad9318ccff05a02b51032ef41d", "is_reserved": 0, "rental_uris": {"android": "https://dc.lft.to/lastmile_qr_scan", "ios": "https://dc.lft.to/lastmile_qr_scan"}, "lat": 38.952623, "is_disabled": 0, "lon": -77.025675}, {"fusion_lat": 0.0, "type": "electric_scooter", "name": "615504ee617843e0541d14506e370deb", "fusion_lon": 0.0, "bike_id": "615504ee617843e0541d14506e370deb", "is_reserved": 0, "rental_uris": {"android": "https://dc.lft.to/lastmile_qr_scan", "ios": "https://dc.lft.to/lastmile_qr_scan"}, "lat": 38.89788383333333, "is_disabled": 0, "lon": -77.0247365}, {"fusion_lat": 0.0, "type": "electric_scooter", "name": "a5be35bee8a2cdf29c326f85ad5dd4d8", "fusion_lon": 0.0, "bike_id": "a5be35bee8a2cdf29c326f85ad5dd4d8", "is_reserved": 0, "rental_uris": {"android": "https://dc.lft.to/lastmile_qr_scan", "ios": "https://dc.lft.to/lastmile_qr_scan"}, "lat": 38.903165666666666, "is_disabled": 0, "lon": -77.04670816666666}, {"fusion_lat": 0.0, "type": "electric_scooter", "name": "1d47be3d3db0552735e5b34b244e5f6d", "fusion_lon": 0.0, "bike_id": "1d47be3d3db0552735e5b34b244e5f6d", "is_reserved": 0, "rental_uris": {"android": "https://dc.lft.to/lastmile_qr_scan", "ios": "https://dc.lft.to/lastmile_qr_scan"}, "lat": 38.90734966666667, "is_disabled": 0, "lon": -77.03439683333333}, {"fusion_lat": 0.0, "type": "electric_scooter", "name": "6cac5542bc617ae36d8333c310594f08", "fusion_lon": 0.0, "bike_id": "6cac5542bc617ae36d8333c310594f08", "is_reserved": 0, "rental_uris": {"android": "https://dc.lft.to/lastmile_qr_scan", "ios": "https://dc.lft.to/lastmile_qr_scan"}, "lat": 38.8966, "is_disabled": 0, "lon": -77.05021066666667}, {"fusion_lat": 0.0, "type": "electric_scooter", "name": "95b459920a200481edcf67c934446efa", "fusion_lon": 0.0, "bike_id": "95b459920a200481edcf67c934446efa", "is_reserved": 0, "rental_uris": {"android": "https://dc.lft.to/lastmile_qr_scan", "ios": "https://dc.lft.to/lastmile_qr_scan"}, "lat": 38.94463283333333, "is_disabled": 0, "lon": -77.060248}, {"fusion_lat": 0.0, "type": "electric_scooter", "name": "d6f486ac4f04d83aa8f8e7a23bc05ded", "fusion_lon": 0.0, "bike_id": "d6f486ac4f04d83aa8f8e7a23bc05ded", "is_reserved": 0, "rental_uris": {"android": "https://dc.lft.to/lastmile_qr_scan", "ios": "https://dc.lft.to/lastmile_qr_scan"}, "lat": 38.90030466666666, "is_disabled": 0, "lon": -77.00207816666666}, {"fusion_lat": 0.0, "type": "electric_scooter", "name": "c550d6882059a9d59cb1bea56e88d9aa", "fusion_lon": 0.0, "bike_id": "c550d6882059a9d59cb1bea56e88d9aa", "is_reserved": 0, "rental_uris": {"android": "https://dc.lft.to/lastmile_qr_scan", "ios": "https://dc.lft.to/lastmile_qr_scan"}, "lat": 38.8921895, "is_disabled": 0, "lon": -77.0322695}, {"fusion_lat": 0.0, "type": "electric_scooter", "name": "965b9b6168674e7002b91ca29a48f1bd", "fusion_lon": 0.0, "bike_id": "965b9b6168674e7002b91ca29a48f1bd", "is_reserved": 0, "rental_uris": {"android": "https://dc.lft.to/lastmile_qr_scan", "ios": "https://dc.lft.to/lastmile_qr_scan"}, "lat": 38.934392833333334, "is_disabled": 0, "lon": -76.99880166666667}, {"fusion_lat": 0.0, "type": "electric_scooter", "name": "8e068abbc529cbee371c93c70525f672", "fusion_lon": 0.0, "bike_id": "8e068abbc529cbee371c93c70525f672", "is_reserved": 0, "rental_uris": {"android": "https://dc.lft.to/lastmile_qr_scan", "ios": "https://dc.lft.to/lastmile_qr_scan"}, "lat": 38.910289666666664, "is_disabled": 0, "lon": -77.034385}, {"fusion_lat": 0.0, "type": "electric_scooter", "name": "6f0b9c194d24d9b1e96e8bb54fa6bae5", "fusion_lon": 0.0, "bike_id": "6f0b9c194d24d9b1e96e8bb54fa6bae5", "is_reserved": 0, "rental_uris": {"android": "https://dc.lft.to/lastmile_qr_scan", "ios": "https://dc.lft.to/lastmile_qr_scan"}, "lat": 38.89221283333333, "is_disabled": 0, "lon": -77.026303}, {"fusion_lat": 0.0, "type": "electric_scooter", "name": "352b29930288e47a4f503bdb7f7a8508", "fusion_lon": 0.0, "bike_id": "352b29930288e47a4f503bdb7f7a8508", "is_reserved": 0, "rental_uris": {"android": "https://dc.lft.to/lastmile_qr_scan", "ios": "https://dc.lft.to/lastmile_qr_scan"}, "lat": 38.94454566666667, "is_disabled": 0, "lon": -77.02803333333334}, {"fusion_lat": 0.0, "type": "electric_scooter", "name": "15692c5ad511c21a22442f9c7a0ad859", "fusion_lon": 0.0, "bike_id": "15692c5ad511c21a22442f9c7a0ad859", "is_reserved": 0, "rental_uris": {"android": "https://dc.lft.to/lastmile_qr_scan", "ios": "https://dc.lft.to/lastmile_qr_scan"}, "lat": 38.9147235, "is_disabled": 0, "lon": -77.06939683333333}, {"fusion_lat": 0.0, "type": "electric_scooter", "name": "8935960224b6ece9d991268222a9ffd7", "fusion_lon": 0.0, "bike_id": "8935960224b6ece9d991268222a9ffd7", "is_reserved": 0, "rental_uris": {"android": "https://dc.lft.to/lastmile_qr_scan", "ios": "https://dc.lft.to/lastmile_qr_scan"}, "lat": 38.911334333333336, "is_disabled": 0, "lon": -77.03657383333334}, {"fusion_lat": 0.0, "type": "electric_scooter", "name": "61dbc1aac27eb77a580e5bd06f2a27f5", "fusion_lon": 0.0, "bike_id": "61dbc1aac27eb77a580e5bd06f2a27f5", "is_reserved": 0, "rental_uris": {"android": "https://dc.lft.to/lastmile_qr_scan", "ios": "https://dc.lft.to/lastmile_qr_scan"}, "lat": 38.902752666666665, "is_disabled": 0, "lon": -77.05329616666667}, {"fusion_lat": 0.0, "type": "electric_scooter", "name": "4807ce6b29629e0b7a62c996e16404d0", "fusion_lon": 0.0, "bike_id": "4807ce6b29629e0b7a62c996e16404d0", "is_reserved": 0, "rental_uris": {"android": "https://dc.lft.to/lastmile_qr_scan", "ios": "https://dc.lft.to/lastmile_qr_scan"}, "lat": 38.862362, "is_disabled": 0, "lon": -76.99485583333333}, {"fusion_lat": 0.0, "type": "electric_scooter", "name": "693b9bd2aad6f110bf57b11c714b4076", "fusion_lon": 0.0, "bike_id": "693b9bd2aad6f110bf57b11c714b4076", "is_reserved": 0, "rental_uris": {"android": "https://dc.lft.to/lastmile_qr_scan", "ios": "https://dc.lft.to/lastmile_qr_scan"}, "lat": 38.920947166666664, "is_disabled": 0, "lon": -77.0438075}, {"fusion_lat": 0.0, "type": "electric_scooter", "name": "2e5ebbd73a7ea618d98594fced925896", "fusion_lon": 0.0, "bike_id": "2e5ebbd73a7ea618d98594fced925896", "is_reserved": 0, "rental_uris": {"android": "https://dc.lft.to/lastmile_qr_scan", "ios": "https://dc.lft.to/lastmile_qr_scan"}, "lat": 38.921535, "is_disabled": 0, "lon": -77.02100333333334}, {"fusion_lat": 0.0, "type": "electric_scooter", "name": "3f4b18b430315c67613dfc63ce31d2d2", "fusion_lon": 0.0, "bike_id": "3f4b18b430315c67613dfc63ce31d2d2", "is_reserved": 0, "rental_uris": {"android": "https://dc.lft.to/lastmile_qr_scan", "ios": "https://dc.lft.to/lastmile_qr_scan"}, "lat": 38.89397183333333, "is_disabled": 0, "lon": -76.94627916666667}, {"fusion_lat": 0.0, "type": "electric_scooter", "name": "9c355ba57b1c315b025eaa364d81d9e0", "fusion_lon": 0.0, "bike_id": "9c355ba57b1c315b025eaa364d81d9e0", "is_reserved": 0, "rental_uris": {"android": "https://dc.lft.to/lastmile_qr_scan", "ios": "https://dc.lft.to/lastmile_qr_scan"}, "lat": 38.892292, "is_disabled": 0, "lon": -77.03182266666667}, {"fusion_lat": 0.0, "type": "electric_scooter", "name": "784b60ee7bd09226793062df0732920c", "fusion_lon": 0.0, "bike_id": "784b60ee7bd09226793062df0732920c", "is_reserved": 0, "rental_uris": {"android": "https://dc.lft.to/lastmile_qr_scan", "ios": "https://dc.lft.to/lastmile_qr_scan"}, "lat": 38.91119366666667, "is_disabled": 0, "lon": -77.0652355}, {"fusion_lat": 0.0, "type": "electric_scooter", "name": "dbc8ab18663c5ff41ab550e8a5f8a721", "fusion_lon": 0.0, "bike_id": "dbc8ab18663c5ff41ab550e8a5f8a721", "is_reserved": 0, "rental_uris": {"android": "https://dc.lft.to/lastmile_qr_scan", "ios": "https://dc.lft.to/lastmile_qr_scan"}, "lat": 38.9041945, "is_disabled": 0, "lon": -77.02956566666667}, {"fusion_lat": 0.0, "type": "electric_scooter", "name": "431d5512ba3e71492b488f1c63d28303", "fusion_lon": 0.0, "bike_id": "431d5512ba3e71492b488f1c63d28303", "is_reserved": 0, "rental_uris": {"android": "https://dc.lft.to/lastmile_qr_scan", "ios": "https://dc.lft.to/lastmile_qr_scan"}, "lat": 38.89785966666667, "is_disabled": 0, "lon": -77.02830183333333}, {"fusion_lat": 0.0, "type": "electric_scooter", "name": "6221b122d72ec59a33b96a8c55bd1b44", "fusion_lon": 0.0, "bike_id": "6221b122d72ec59a33b96a8c55bd1b44", "is_reserved": 0, "rental_uris": {"android": "https://dc.lft.to/lastmile_qr_scan", "ios": "https://dc.lft.to/lastmile_qr_scan"}, "lat": 38.900769833333335, "is_disabled": 0, "lon": -77.02689383333333}, {"fusion_lat": 0.0, "type": "electric_scooter", "name": "c49082074c9f98a863ea51eeefef14c4", "fusion_lon": 0.0, "bike_id": "c49082074c9f98a863ea51eeefef14c4", "is_reserved": 0, "rental_uris": {"android": "https://dc.lft.to/lastmile_qr_scan", "ios": "https://dc.lft.to/lastmile_qr_scan"}, "lat": 38.895598, "is_disabled": 0, "lon": -77.04673633333333}, {"fusion_lat": 0.0, "type": "electric_scooter", "name": "e98113612abd7e15a0a083bca8fb026a", "fusion_lon": 0.0, "bike_id": "e98113612abd7e15a0a083bca8fb026a", "is_reserved": 0, "rental_uris": {"android": "https://dc.lft.to/lastmile_qr_scan", "ios": "https://dc.lft.to/lastmile_qr_scan"}, "lat": 38.851985166666665, "is_disabled": 0, "lon": -76.97073}, {"fusion_lat": 0.0, "type": "electric_scooter", "name": "c3a8a4060075bfbe18da9a98a2fb0abf", "fusion_lon": 0.0, "bike_id": "c3a8a4060075bfbe18da9a98a2fb0abf", "is_reserved": 0, "rental_uris": {"android": "https://dc.lft.to/lastmile_qr_scan", "ios": "https://dc.lft.to/lastmile_qr_scan"}, "lat": 38.920058166666664, "is_disabled": 0, "lon": -77.021419}, {"fusion_lat": 0.0, "type": "electric_bike", "name": "82bb7a262c6b39af1cfca853199dd932", "fusion_lon": 0.0, "bike_id": "82bb7a262c6b39af1cfca853199dd932", "is_reserved": 0, "rental_uris": {"android": "https://dc.lft.to/lastmile_qr_scan", "ios": "https://dc.lft.to/lastmile_qr_scan"}, "lat": 38.89809416666667, "is_disabled": 0, "lon": -76.99074933333333}, {"fusion_lat": 0.0, "type": "electric_scooter", "name": "a453f2945b366c3bacf1df1b1ffcc6ee", "fusion_lon": 0.0, "bike_id": "a453f2945b366c3bacf1df1b1ffcc6ee", "is_reserved": 0, "rental_uris": {"android": "https://dc.lft.to/lastmile_qr_scan", "ios": "https://dc.lft.to/lastmile_qr_scan"}, "lat": 38.902583, "is_disabled": 0, "lon": -77.04479783333333}, {"fusion_lat": 0.0, "type": "electric_scooter", "name": "895147655989f89b78be947eb2794047", "fusion_lon": 0.0, "bike_id": "895147655989f89b78be947eb2794047", "is_reserved": 0, "rental_uris": {"android": "https://dc.lft.to/lastmile_qr_scan", "ios": "https://dc.lft.to/lastmile_qr_scan"}, "lat": 38.91287883333333, "is_disabled": 0, "lon": -77.03188266666666}, {"fusion_lat": 0.0, "type": "electric_scooter", "name": "214d269f2e827ad2a5f72e095df36df9", "fusion_lon": 0.0, "bike_id": "214d269f2e827ad2a5f72e095df36df9", "is_reserved": 0, "rental_uris": {"android": "https://dc.lft.to/lastmile_qr_scan", "ios": "https://dc.lft.to/lastmile_qr_scan"}, "lat": 38.89220616666667, "is_disabled": 0, "lon": -77.03160866666667}, {"fusion_lat": 0.0, "type": "electric_scooter", "name": "015d34f3eef10babd3db2e0ba72a575c", "fusion_lon": 0.0, "bike_id": "015d34f3eef10babd3db2e0ba72a575c", "is_reserved": 0, "rental_uris": {"android": "https://dc.lft.to/lastmile_qr_scan", "ios": "https://dc.lft.to/lastmile_qr_scan"}, "lat": 38.864147333333335, "is_disabled": 0, "lon": -76.99130216666667}, {"fusion_lat": 0.0, "type": "electric_scooter", "name": "0b61d111b75955ad5447e1afbba0ee70", "fusion_lon": 0.0, "bike_id": "0b61d111b75955ad5447e1afbba0ee70", "is_reserved": 0, "rental_uris": {"android": "https://dc.lft.to/lastmile_qr_scan", "ios": "https://dc.lft.to/lastmile_qr_scan"}, "lat": 38.9215725, "is_disabled": 0, "lon": -77.03507166666667}, {"fusion_lat": 0.0, "type": "electric_scooter", "name": "2780aae11879788281570dbb2ad34bd4", "fusion_lon": 0.0, "bike_id": "2780aae11879788281570dbb2ad34bd4", "is_reserved": 0, "rental_uris": {"android": "https://dc.lft.to/lastmile_qr_scan", "ios": "https://dc.lft.to/lastmile_qr_scan"}, "lat": 38.9184055, "is_disabled": 0, "lon": -77.0595005}, {"fusion_lat": 0.0, "type": "electric_scooter", "name": "2fdb5ad1e2329b8fe64892b03b5d6976", "fusion_lon": 0.0, "bike_id": "2fdb5ad1e2329b8fe64892b03b5d6976", "is_reserved": 0, "rental_uris": {"android": "https://dc.lft.to/lastmile_qr_scan", "ios": "https://dc.lft.to/lastmile_qr_scan"}, "lat": 38.9241965, "is_disabled": 0, "lon": -77.02297483333334}, {"fusion_lat": 0.0, "type": "electric_scooter", "name": "2285faea32ad8f62f710021b58db3998", "fusion_lon": 0.0, "bike_id": "2285faea32ad8f62f710021b58db3998", "is_reserved": 0, "rental_uris": {"android": "https://dc.lft.to/lastmile_qr_scan", "ios": "https://dc.lft.to/lastmile_qr_scan"}, "lat": 38.9377355, "is_disabled": 0, "lon": -77.03260716666666}, {"fusion_lat": 0.0, "type": "electric_scooter", "name": "fac22eb113e5f9d44101c5e1f42a7219", "fusion_lon": 0.0, "bike_id": "fac22eb113e5f9d44101c5e1f42a7219", "is_reserved": 0, "rental_uris": {"android": "https://dc.lft.to/lastmile_qr_scan", "ios": "https://dc.lft.to/lastmile_qr_scan"}, "lat": 38.952015833333334, "is_disabled": 0, "lon": -77.02731633333333}, {"fusion_lat": 0.0, "type": "electric_scooter", "name": "66712d567f232ec775112016b3fcf836", "fusion_lon": 0.0, "bike_id": "66712d567f232ec775112016b3fcf836", "is_reserved": 0, "rental_uris": {"android": "https://dc.lft.to/lastmile_qr_scan", "ios": "https://dc.lft.to/lastmile_qr_scan"}, "lat": 38.887335666666665, "is_disabled": 0, "lon": -77.02579733333333}, {"fusion_lat": 0.0, "type": "electric_bike", "name": "8b058f951017a650fe05529b2e7d05ea", "fusion_lon": 0.0, "bike_id": "8b058f951017a650fe05529b2e7d05ea", "is_reserved": 0, "rental_uris": {"android": "https://dc.lft.to/lastmile_qr_scan", "ios": "https://dc.lft.to/lastmile_qr_scan"}, "lat": 38.955388666666664, "is_disabled": 0, "lon": -77.06934083333333}, {"fusion_lat": 0.0, "type": "electric_scooter", "name": "c70ce99e487c9044401c90e63d50299b", "fusion_lon": 0.0, "bike_id": "c70ce99e487c9044401c90e63d50299b", "is_reserved": 0, "rental_uris": {"android": "https://dc.lft.to/lastmile_qr_scan", "ios": "https://dc.lft.to/lastmile_qr_scan"}, "lat": 38.928634833333334, "is_disabled": 0, "lon": -77.03283466666667}, {"fusion_lat": 0.0, "type": "electric_scooter", "name": "721e55c73580982cf4990990869157ea", "fusion_lon": 0.0, "bike_id": "721e55c73580982cf4990990869157ea", "is_reserved": 0, "rental_uris": {"android": "https://dc.lft.to/lastmile_qr_scan", "ios": "https://dc.lft.to/lastmile_qr_scan"}, "lat": 38.9001135, "is_disabled": 0, "lon": -77.03184616666667}, {"fusion_lat": 0.0, "type": "electric_scooter", "name": "ce7c0aaae3365dcc33c59ee2ba9ea87a", "fusion_lon": 0.0, "bike_id": "ce7c0aaae3365dcc33c59ee2ba9ea87a", "is_reserved": 0, "rental_uris": {"android": "https://dc.lft.to/lastmile_qr_scan", "ios": "https://dc.lft.to/lastmile_qr_scan"}, "lat": 38.912464, "is_disabled": 0, "lon": -77.044802}, {"fusion_lat": 0.0, "type": "electric_scooter", "name": "879458ebcfff204bf460c848dbf904d5", "fusion_lon": 0.0, "bike_id": "879458ebcfff204bf460c848dbf904d5", "is_reserved": 0, "rental_uris": {"android": "https://dc.lft.to/lastmile_qr_scan", "ios": "https://dc.lft.to/lastmile_qr_scan"}, "lat": 38.9495875, "is_disabled": 0, "lon": -77.02721016666666}, {"fusion_lat": 0.0, "type": "electric_bike", "name": "89e261541b11ae163f58f04583f0a848", "fusion_lon": 0.0, "bike_id": "89e261541b11ae163f58f04583f0a848", "is_reserved": 0, "rental_uris": {"android": "https://dc.lft.to/lastmile_qr_scan", "ios": "https://dc.lft.to/lastmile_qr_scan"}, "lat": 38.930611999999996, "is_disabled": 0, "lon": -77.023192}, {"fusion_lat": 0.0, "type": "electric_scooter", "name": "c4471c1389d342ec85c340685a107b8c", "fusion_lon": 0.0, "bike_id": "c4471c1389d342ec85c340685a107b8c", "is_reserved": 0, "rental_uris": {"android": "https://dc.lft.to/lastmile_qr_scan", "ios": "https://dc.lft.to/lastmile_qr_scan"}, "lat": 38.91324683333333, "is_disabled": 0, "lon": -77.01512183333334}, {"fusion_lat": 0.0, "type": "electric_scooter", "name": "93100d8136e7d4aaed82793def44a998", "fusion_lon": 0.0, "bike_id": "93100d8136e7d4aaed82793def44a998", "is_reserved": 0, "rental_uris": {"android": "https://dc.lft.to/lastmile_qr_scan", "ios": "https://dc.lft.to/lastmile_qr_scan"}, "lat": 38.84427316666667, "is_disabled": 0, "lon": -76.99777}, {"fusion_lat": 0.0, "type": "electric_scooter", "name": "2825f871e98fa4290fdc5e925584493e", "fusion_lon": 0.0, "bike_id": "2825f871e98fa4290fdc5e925584493e", "is_reserved": 0, "rental_uris": {"android": "https://dc.lft.to/lastmile_qr_scan", "ios": "https://dc.lft.to/lastmile_qr_scan"}, "lat": 38.94839366666667, "is_disabled": 0, "lon": -77.02541766666667}, {"fusion_lat": 0.0, "type": "electric_scooter", "name": "6c510e5bb77c96d95b3571f54d1c28f0", "fusion_lon": 0.0, "bike_id": "6c510e5bb77c96d95b3571f54d1c28f0", "is_reserved": 0, "rental_uris": {"android": "https://dc.lft.to/lastmile_qr_scan", "ios": "https://dc.lft.to/lastmile_qr_scan"}, "lat": 38.9088095, "is_disabled": 0, "lon": -77.07170083333334}, {"fusion_lat": 0.0, "type": "electric_scooter", "name": "c92aa03b7af7708ba1b3fed89e97474d", "fusion_lon": 0.0, "bike_id": "c92aa03b7af7708ba1b3fed89e97474d", "is_reserved": 0, "rental_uris": {"android": "https://dc.lft.to/lastmile_qr_scan", "ios": "https://dc.lft.to/lastmile_qr_scan"}, "lat": 38.879750666666666, "is_disabled": 0, "lon": -77.01377483333333}, {"fusion_lat": 0.0, "type": "electric_scooter", "name": "777e6d7697e4c233c1124c5c22f19cfe", "fusion_lon": 0.0, "bike_id": "777e6d7697e4c233c1124c5c22f19cfe", "is_reserved": 0, "rental_uris": {"android": "https://dc.lft.to/lastmile_qr_scan", "ios": "https://dc.lft.to/lastmile_qr_scan"}, "lat": 38.92764866666667, "is_disabled": 0, "lon": -77.02298983333333}, {"fusion_lat": 0.0, "type": "electric_scooter", "name": "87fe0beb61aafbda0cf6dfe10d640d04", "fusion_lon": 0.0, "bike_id": "87fe0beb61aafbda0cf6dfe10d640d04", "is_reserved": 0, "rental_uris": {"android": "https://dc.lft.to/lastmile_qr_scan", "ios": "https://dc.lft.to/lastmile_qr_scan"}, "lat": 38.907781666666665, "is_disabled": 0, "lon": -77.0434635}, {"fusion_lat": 0.0, "type": "electric_scooter", "name": "d3215ef266fed3cc09ec00400dcad807", "fusion_lon": 0.0, "bike_id": "d3215ef266fed3cc09ec00400dcad807", "is_reserved": 0, "rental_uris": {"android": "https://dc.lft.to/lastmile_qr_scan", "ios": "https://dc.lft.to/lastmile_qr_scan"}, "lat": 38.911052, "is_disabled": 0, "lon": -77.04667116666667}, {"fusion_lat": 0.0, "type": "electric_scooter", "name": "75446d34850f7907c8acad699ff47a55", "fusion_lon": 0.0, "bike_id": "75446d34850f7907c8acad699ff47a55", "is_reserved": 0, "rental_uris": {"android": "https://dc.lft.to/lastmile_qr_scan", "ios": "https://dc.lft.to/lastmile_qr_scan"}, "lat": 38.907733, "is_disabled": 0, "lon": -77.07168816666666}, {"fusion_lat": 0.0, "type": "electric_bike", "name": "e9c01208584d4cef635cd9118a599a67", "fusion_lon": 0.0, "bike_id": "e9c01208584d4cef635cd9118a599a67", "is_reserved": 0, "rental_uris": {"android": "https://dc.lft.to/lastmile_qr_scan", "ios": "https://dc.lft.to/lastmile_qr_scan"}, "lat": 38.913865666666666, "is_disabled": 0, "lon": -77.08925116666667}, {"fusion_lat": 0.0, "type": "electric_scooter", "name": "2c98b69a73557da012c93fd2b1675288", "fusion_lon": 0.0, "bike_id": "2c98b69a73557da012c93fd2b1675288", "is_reserved": 0, "rental_uris": {"android": "https://dc.lft.to/lastmile_qr_scan", "ios": "https://dc.lft.to/lastmile_qr_scan"}, "lat": 38.897381, "is_disabled": 0, "lon": -76.947275}, {"fusion_lat": 0.0, "type": "electric_scooter", "name": "2a1b0b740f34a2ac6d790184a4bb8e48", "fusion_lon": 0.0, "bike_id": "2a1b0b740f34a2ac6d790184a4bb8e48", "is_reserved": 0, "rental_uris": {"android": "https://dc.lft.to/lastmile_qr_scan", "ios": "https://dc.lft.to/lastmile_qr_scan"}, "lat": 38.92613133333333, "is_disabled": 0, "lon": -77.04331333333333}, {"fusion_lat": 0.0, "type": "electric_scooter", "name": "343f7be7b7c49bc9f6a0b1ee9b2718d7", "fusion_lon": 0.0, "bike_id": "343f7be7b7c49bc9f6a0b1ee9b2718d7", "is_reserved": 0, "rental_uris": {"android": "https://dc.lft.to/lastmile_qr_scan", "ios": "https://dc.lft.to/lastmile_qr_scan"}, "lat": 38.9518445, "is_disabled": 0, "lon": -77.02615233333333}, {"fusion_lat": 0.0, "type": "electric_scooter", "name": "2c736ffac7986ad5cc20e0fc11f5e984", "fusion_lon": 0.0, "bike_id": "2c736ffac7986ad5cc20e0fc11f5e984", "is_reserved": 0, "rental_uris": {"android": "https://dc.lft.to/lastmile_qr_scan", "ios": "https://dc.lft.to/lastmile_qr_scan"}, "lat": 38.89226266666667, "is_disabled": 0, "lon": -77.05000833333334}, {"fusion_lat": 0.0, "type": "electric_scooter", "name": "6f642463339ead244d1cd4e69d29fa6e", "fusion_lon": 0.0, "bike_id": "6f642463339ead244d1cd4e69d29fa6e", "is_reserved": 0, "rental_uris": {"android": "https://dc.lft.to/lastmile_qr_scan", "ios": "https://dc.lft.to/lastmile_qr_scan"}, "lat": 38.921624, "is_disabled": 0, "lon": -77.03376883333334}, {"fusion_lat": 0.0, "type": "electric_scooter", "name": "489bb17c7cefea13ce95302a62d5c6aa", "fusion_lon": 0.0, "bike_id": "489bb17c7cefea13ce95302a62d5c6aa", "is_reserved": 0, "rental_uris": {"android": "https://dc.lft.to/lastmile_qr_scan", "ios": "https://dc.lft.to/lastmile_qr_scan"}, "lat": 38.918425, "is_disabled": 0, "lon": -77.05949116666666}, {"fusion_lat": 0.0, "type": "electric_scooter", "name": "fa33bbe37d54c2b9502c058547d2c8d1", "fusion_lon": 0.0, "bike_id": "fa33bbe37d54c2b9502c058547d2c8d1", "is_reserved": 0, "rental_uris": {"android": "https://dc.lft.to/lastmile_qr_scan", "ios": "https://dc.lft.to/lastmile_qr_scan"}, "lat": 38.89898633333333, "is_disabled": 0, "lon": -76.99381933333333}, {"fusion_lat": 0.0, "type": "electric_scooter", "name": "a45d89a47299dacc5a88059a28713f95", "fusion_lon": 0.0, "bike_id": "a45d89a47299dacc5a88059a28713f95", "is_reserved": 0, "rental_uris": {"android": "https://dc.lft.to/lastmile_qr_scan", "ios": "https://dc.lft.to/lastmile_qr_scan"}, "lat": 38.90032266666667, "is_disabled": 0, "lon": -77.03224683333333}, {"fusion_lat": 0.0, "type": "electric_scooter", "name": "cf6b7025a4a2ec3badd0ac7156742685", "fusion_lon": 0.0, "bike_id": "cf6b7025a4a2ec3badd0ac7156742685", "is_reserved": 0, "rental_uris": {"android": "https://dc.lft.to/lastmile_qr_scan", "ios": "https://dc.lft.to/lastmile_qr_scan"}, "lat": 38.90577066666667, "is_disabled": 0, "lon": -77.04609683333334}, {"fusion_lat": 0.0, "type": "electric_scooter", "name": "a9a9e410b960436446b5ad42ece19920", "fusion_lon": 0.0, "bike_id": "a9a9e410b960436446b5ad42ece19920", "is_reserved": 0, "rental_uris": {"android": "https://dc.lft.to/lastmile_qr_scan", "ios": "https://dc.lft.to/lastmile_qr_scan"}, "lat": 38.9137225, "is_disabled": 0, "lon": -77.0313935}, {"fusion_lat": 0.0, "type": "electric_scooter", "name": "993519c8931121513b27f73f70068410", "fusion_lon": 0.0, "bike_id": "993519c8931121513b27f73f70068410", "is_reserved": 0, "rental_uris": {"android": "https://dc.lft.to/lastmile_qr_scan", "ios": "https://dc.lft.to/lastmile_qr_scan"}, "lat": 38.91633, "is_disabled": 0, "lon": -77.047885}, {"fusion_lat": 0.0, "type": "electric_scooter", "name": "190eb0cc7f99950e52b6f6cac926cafc", "fusion_lon": 0.0, "bike_id": "190eb0cc7f99950e52b6f6cac926cafc", "is_reserved": 0, "rental_uris": {"android": "https://dc.lft.to/lastmile_qr_scan", "ios": "https://dc.lft.to/lastmile_qr_scan"}, "lat": 38.887436, "is_disabled": 0, "lon": -77.02229266666667}, {"fusion_lat": 0.0, "type": "electric_bike", "name": "a1c4cc7a7a9c3d37b3b85275137a7fe1", "fusion_lon": 0.0, "bike_id": "a1c4cc7a7a9c3d37b3b85275137a7fe1", "is_reserved": 0, "rental_uris": {"android": "https://dc.lft.to/lastmile_qr_scan", "ios": "https://dc.lft.to/lastmile_qr_scan"}, "lat": 38.953249166666666, "is_disabled": 0, "lon": -76.95434233333333}, {"fusion_lat": 0.0, "type": "electric_bike", "name": "5d68645c6531537a346520adb75259a3", "fusion_lon": 0.0, "bike_id": "5d68645c6531537a346520adb75259a3", "is_reserved": 0, "rental_uris": {"android": "https://dc.lft.to/lastmile_qr_scan", "ios": "https://dc.lft.to/lastmile_qr_scan"}, "lat": 38.932297, "is_disabled": 0, "lon": -77.18123833333334}, {"fusion_lat": 0.0, "type": "electric_scooter", "name": "13b01cf0f7a983f47e23050ae317545b", "fusion_lon": 0.0, "bike_id": "13b01cf0f7a983f47e23050ae317545b", "is_reserved": 0, "rental_uris": {"android": "https://dc.lft.to/lastmile_qr_scan", "ios": "https://dc.lft.to/lastmile_qr_scan"}, "lat": 38.89608533333333, "is_disabled": 0, "lon": -77.0498485}, {"fusion_lat": 0.0, "type": "electric_scooter", "name": "b7dc7ee876fabc678cb9a8914053ae28", "fusion_lon": 0.0, "bike_id": "b7dc7ee876fabc678cb9a8914053ae28", "is_reserved": 0, "rental_uris": {"android": "https://dc.lft.to/lastmile_qr_scan", "ios": "https://dc.lft.to/lastmile_qr_scan"}, "lat": 38.89634483333333, "is_disabled": 0, "lon": -77.0320485}, {"fusion_lat": 0.0, "type": "electric_scooter", "name": "7f4fa507282a3d47504dae94c0b525d4", "fusion_lon": 0.0, "bike_id": "7f4fa507282a3d47504dae94c0b525d4", "is_reserved": 0, "rental_uris": {"android": "https://dc.lft.to/lastmile_qr_scan", "ios": "https://dc.lft.to/lastmile_qr_scan"}, "lat": 38.92062466666667, "is_disabled": 0, "lon": -77.03652616666666}, {"fusion_lat": 0.0, "type": "electric_scooter", "name": "047210dbc5fdb046d731e73e18790dba", "fusion_lon": 0.0, "bike_id": "047210dbc5fdb046d731e73e18790dba", "is_reserved": 0, "rental_uris": {"android": "https://dc.lft.to/lastmile_qr_scan", "ios": "https://dc.lft.to/lastmile_qr_scan"}, "lat": 38.90063133333334, "is_disabled": 0, "lon": -77.04537816666667}, {"fusion_lat": 0.0, "type": "electric_scooter", "name": "5102b287b51e90cb4c78a979bf36d11a", "fusion_lon": 0.0, "bike_id": "5102b287b51e90cb4c78a979bf36d11a", "is_reserved": 0, "rental_uris": {"android": "https://dc.lft.to/lastmile_qr_scan", "ios": "https://dc.lft.to/lastmile_qr_scan"}, "lat": 38.9043665, "is_disabled": 0, "lon": -77.0433315}, {"fusion_lat": 0.0, "type": "electric_scooter", "name": "a6a6266b2dde2e4ef6ebac3cfffc7b7d", "fusion_lon": 0.0, "bike_id": "a6a6266b2dde2e4ef6ebac3cfffc7b7d", "is_reserved": 0, "rental_uris": {"android": "https://dc.lft.to/lastmile_qr_scan", "ios": "https://dc.lft.to/lastmile_qr_scan"}, "lat": 38.906366, "is_disabled": 0, "lon": -77.06900883333333}, {"fusion_lat": 0.0, "type": "electric_scooter", "name": "58c8ff72b8d1a129cf83a8c28b79e900", "fusion_lon": 0.0, "bike_id": "58c8ff72b8d1a129cf83a8c28b79e900", "is_reserved": 0, "rental_uris": {"android": "https://dc.lft.to/lastmile_qr_scan", "ios": "https://dc.lft.to/lastmile_qr_scan"}, "lat": 38.89941183333333, "is_disabled": 0, "lon": -77.014485}, {"fusion_lat": 0.0, "type": "electric_scooter", "name": "7054f426b5508545c5b40753c518fd3d", "fusion_lon": 0.0, "bike_id": "7054f426b5508545c5b40753c518fd3d", "is_reserved": 0, "rental_uris": {"android": "https://dc.lft.to/lastmile_qr_scan", "ios": "https://dc.lft.to/lastmile_qr_scan"}, "lat": 38.9170825, "is_disabled": 0, "lon": -77.033457}, {"fusion_lat": 0.0, "type": "electric_scooter", "name": "daf8a87dc8083f22559047d0e82ded99", "fusion_lon": 0.0, "bike_id": "daf8a87dc8083f22559047d0e82ded99", "is_reserved": 0, "rental_uris": {"android": "https://dc.lft.to/lastmile_qr_scan", "ios": "https://dc.lft.to/lastmile_qr_scan"}, "lat": 38.9342, "is_disabled": 0, "lon": -77.0440555}, {"fusion_lat": 0.0, "type": "electric_scooter", "name": "cdab1440ca072cd057d92486235254f8", "fusion_lon": 0.0, "bike_id": "cdab1440ca072cd057d92486235254f8", "is_reserved": 0, "rental_uris": {"android": "https://dc.lft.to/lastmile_qr_scan", "ios": "https://dc.lft.to/lastmile_qr_scan"}, "lat": 38.90626116666667, "is_disabled": 0, "lon": -77.05157883333334}, {"fusion_lat": 0.0, "type": "electric_scooter", "name": "e78e1ef7443238cb7f3ad301f1ad35fc", "fusion_lon": 0.0, "bike_id": "e78e1ef7443238cb7f3ad301f1ad35fc", "is_reserved": 0, "rental_uris": {"android": "https://dc.lft.to/lastmile_qr_scan", "ios": "https://dc.lft.to/lastmile_qr_scan"}, "lat": 38.943166166666664, "is_disabled": 0, "lon": -77.01724766666666}, {"fusion_lat": 0.0, "type": "electric_scooter", "name": "3d2dee551ad4167e35d256cc646fb412", "fusion_lon": 0.0, "bike_id": "3d2dee551ad4167e35d256cc646fb412", "is_reserved": 0, "rental_uris": {"android": "https://dc.lft.to/lastmile_qr_scan", "ios": "https://dc.lft.to/lastmile_qr_scan"}, "lat": 38.921079166666665, "is_disabled": 0, "lon": -77.0205335}, {"fusion_lat": 0.0, "type": "electric_scooter", "name": "5f84623bb3123d5adf3a9c2d4cf38851", "fusion_lon": 0.0, "bike_id": "5f84623bb3123d5adf3a9c2d4cf38851", "is_reserved": 0, "rental_uris": {"android": "https://dc.lft.to/lastmile_qr_scan", "ios": "https://dc.lft.to/lastmile_qr_scan"}, "lat": 38.900313, "is_disabled": 0, "lon": -77.01195333333334}, {"fusion_lat": 0.0, "type": "electric_bike", "name": "a23fe02b2aff8da2d4f98357ff87b02f", "fusion_lon": 0.0, "bike_id": "a23fe02b2aff8da2d4f98357ff87b02f", "is_reserved": 0, "rental_uris": {"android": "https://dc.lft.to/lastmile_qr_scan", "ios": "https://dc.lft.to/lastmile_qr_scan"}, "lat": 38.82913416666667, "is_disabled": 0, "lon": -76.99779166666667}, {"fusion_lat": 0.0, "type": "electric_scooter", "name": "0182f5fb5e65114e1bfcd0704d3031df", "fusion_lon": 0.0, "bike_id": "0182f5fb5e65114e1bfcd0704d3031df", "is_reserved": 0, "rental_uris": {"android": "https://dc.lft.to/lastmile_qr_scan", "ios": "https://dc.lft.to/lastmile_qr_scan"}, "lat": 38.904285333333334, "is_disabled": 0, "lon": -77.05318383333334}, {"fusion_lat": 0.0, "type": "electric_scooter", "name": "7716db572dec5d45208ec4c871923016", "fusion_lon": 0.0, "bike_id": "7716db572dec5d45208ec4c871923016", "is_reserved": 0, "rental_uris": {"android": "https://dc.lft.to/lastmile_qr_scan", "ios": "https://dc.lft.to/lastmile_qr_scan"}, "lat": 38.902692333333334, "is_disabled": 0, "lon": -77.018079}, {"fusion_lat": 0.0, "type": "electric_scooter", "name": "0ef57d1767b9857bee79a52891926f2b", "fusion_lon": 0.0, "bike_id": "0ef57d1767b9857bee79a52891926f2b", "is_reserved": 0, "rental_uris": {"android": "https://dc.lft.to/lastmile_qr_scan", "ios": "https://dc.lft.to/lastmile_qr_scan"}, "lat": 38.938809, "is_disabled": 0, "lon": -77.02484283333334}, {"fusion_lat": 0.0, "type": "electric_scooter", "name": "1c0ee69eaaa37e500c10b32bfb2cc943", "fusion_lon": 0.0, "bike_id": "1c0ee69eaaa37e500c10b32bfb2cc943", "is_reserved": 0, "rental_uris": {"android": "https://dc.lft.to/lastmile_qr_scan", "ios": "https://dc.lft.to/lastmile_qr_scan"}, "lat": 38.92105516666667, "is_disabled": 0, "lon": -77.07188016666667}, {"fusion_lat": 0.0, "type": "electric_scooter", "name": "08504fedc5bb3a18aea2696346f3bce2", "fusion_lon": 0.0, "bike_id": "08504fedc5bb3a18aea2696346f3bce2", "is_reserved": 0, "rental_uris": {"android": "https://dc.lft.to/lastmile_qr_scan", "ios": "https://dc.lft.to/lastmile_qr_scan"}, "lat": 38.907818666666664, "is_disabled": 0, "lon": -77.03803633333334}, {"fusion_lat": 0.0, "type": "electric_scooter", "name": "3cef6e292bbfc7d0065ef905bab3bf4a", "fusion_lon": 0.0, "bike_id": "3cef6e292bbfc7d0065ef905bab3bf4a", "is_reserved": 0, "rental_uris": {"android": "https://dc.lft.to/lastmile_qr_scan", "ios": "https://dc.lft.to/lastmile_qr_scan"}, "lat": 38.919317, "is_disabled": 0, "lon": -77.041535}, {"fusion_lat": 0.0, "type": "electric_scooter", "name": "4f165a23ea412ed3e24de72fc7ee2cd4", "fusion_lon": 0.0, "bike_id": "4f165a23ea412ed3e24de72fc7ee2cd4", "is_reserved": 0, "rental_uris": {"android": "https://dc.lft.to/lastmile_qr_scan", "ios": "https://dc.lft.to/lastmile_qr_scan"}, "lat": 38.903241, "is_disabled": 0, "lon": -77.0316595}, {"fusion_lat": 0.0, "type": "electric_scooter", "name": "a9c21037823c8644cb7c19b73509702c", "fusion_lon": 0.0, "bike_id": "a9c21037823c8644cb7c19b73509702c", "is_reserved": 0, "rental_uris": {"android": "https://dc.lft.to/lastmile_qr_scan", "ios": "https://dc.lft.to/lastmile_qr_scan"}, "lat": 38.88531966666667, "is_disabled": 0, "lon": -77.02170466666666}, {"fusion_lat": 0.0, "type": "electric_scooter", "name": "cbd5d0caf19a64e0f753cf4696875b68", "fusion_lon": 0.0, "bike_id": "cbd5d0caf19a64e0f753cf4696875b68", "is_reserved": 0, "rental_uris": {"android": "https://dc.lft.to/lastmile_qr_scan", "ios": "https://dc.lft.to/lastmile_qr_scan"}, "lat": 38.934201333333334, "is_disabled": 0, "lon": -77.044081}, {"fusion_lat": 0.0, "type": "electric_scooter", "name": "7dc1ea81ed17a7e3436814e3b3037236", "fusion_lon": 0.0, "bike_id": "7dc1ea81ed17a7e3436814e3b3037236", "is_reserved": 0, "rental_uris": {"android": "https://dc.lft.to/lastmile_qr_scan", "ios": "https://dc.lft.to/lastmile_qr_scan"}, "lat": 38.911227833333335, "is_disabled": 0, "lon": -77.04363983333333}, {"fusion_lat": 0.0, "type": "electric_scooter", "name": "af1f6832b394cafd215a341c4e1096df", "fusion_lon": 0.0, "bike_id": "af1f6832b394cafd215a341c4e1096df", "is_reserved": 0, "rental_uris": {"android": "https://dc.lft.to/lastmile_qr_scan", "ios": "https://dc.lft.to/lastmile_qr_scan"}, "lat": 38.893700833333334, "is_disabled": 0, "lon": -76.94996766666667}, {"fusion_lat": 0.0, "type": "electric_scooter", "name": "a3b8375cb49c5e8258c3093b1a0908f7", "fusion_lon": 0.0, "bike_id": "a3b8375cb49c5e8258c3093b1a0908f7", "is_reserved": 0, "rental_uris": {"android": "https://dc.lft.to/lastmile_qr_scan", "ios": "https://dc.lft.to/lastmile_qr_scan"}, "lat": 38.89963683333333, "is_disabled": 0, "lon": -77.04507466666666}, {"fusion_lat": 0.0, "type": "electric_scooter", "name": "ed2be9fb8d56bde397a0e8e0fb293c24", "fusion_lon": 0.0, "bike_id": "ed2be9fb8d56bde397a0e8e0fb293c24", "is_reserved": 0, "rental_uris": {"android": "https://dc.lft.to/lastmile_qr_scan", "ios": "https://dc.lft.to/lastmile_qr_scan"}, "lat": 38.900680666666666, "is_disabled": 0, "lon": -77.04678666666666}, {"fusion_lat": 0.0, "type": "electric_scooter", "name": "b3c4b17132c431a14fde6db302ab5eda", "fusion_lon": 0.0, "bike_id": "b3c4b17132c431a14fde6db302ab5eda", "is_reserved": 0, "rental_uris": {"android": "https://dc.lft.to/lastmile_qr_scan", "ios": "https://dc.lft.to/lastmile_qr_scan"}, "lat": 38.903827666666665, "is_disabled": 0, "lon": -77.044572}, {"fusion_lat": 0.0, "type": "electric_scooter", "name": "905add3d75db70143495fb4ef2da3c72", "fusion_lon": 0.0, "bike_id": "905add3d75db70143495fb4ef2da3c72", "is_reserved": 0, "rental_uris": {"android": "https://dc.lft.to/lastmile_qr_scan", "ios": "https://dc.lft.to/lastmile_qr_scan"}, "lat": 38.913333, "is_disabled": 0, "lon": -77.045794}, {"fusion_lat": 0.0, "type": "electric_scooter", "name": "3ff6c193691081dbba0ca383199ce659", "fusion_lon": 0.0, "bike_id": "3ff6c193691081dbba0ca383199ce659", "is_reserved": 0, "rental_uris": {"android": "https://dc.lft.to/lastmile_qr_scan", "ios": "https://dc.lft.to/lastmile_qr_scan"}, "lat": 38.89240183333333, "is_disabled": 0, "lon": -77.0320835}, {"fusion_lat": 0.0, "type": "electric_scooter", "name": "446f3ef0b89f3fc4a7cfb67d20903383", "fusion_lon": 0.0, "bike_id": "446f3ef0b89f3fc4a7cfb67d20903383", "is_reserved": 0, "rental_uris": {"android": "https://dc.lft.to/lastmile_qr_scan", "ios": "https://dc.lft.to/lastmile_qr_scan"}, "lat": 38.90722383333333, "is_disabled": 0, "lon": -77.047574}, {"fusion_lat": 0.0, "type": "electric_scooter", "name": "1f117c50b7d2d3bd547e628effd54f3c", "fusion_lon": 0.0, "bike_id": "1f117c50b7d2d3bd547e628effd54f3c", "is_reserved": 0, "rental_uris": {"android": "https://dc.lft.to/lastmile_qr_scan", "ios": "https://dc.lft.to/lastmile_qr_scan"}, "lat": 38.9678035, "is_disabled": 0, "lon": -77.01513533333333}, {"fusion_lat": 0.0, "type": "electric_scooter", "name": "472c17d84f6f0d5d8061f600af69c1e4", "fusion_lon": 0.0, "bike_id": "472c17d84f6f0d5d8061f600af69c1e4", "is_reserved": 0, "rental_uris": {"android": "https://dc.lft.to/lastmile_qr_scan", "ios": "https://dc.lft.to/lastmile_qr_scan"}, "lat": 38.89507783333333, "is_disabled": 0, "lon": -77.0465455}, {"fusion_lat": 0.0, "type": "electric_scooter", "name": "2dd3e83f0a3a64570910f97bf977f119", "fusion_lon": 0.0, "bike_id": "2dd3e83f0a3a64570910f97bf977f119", "is_reserved": 0, "rental_uris": {"android": "https://dc.lft.to/lastmile_qr_scan", "ios": "https://dc.lft.to/lastmile_qr_scan"}, "lat": 38.92073883333333, "is_disabled": 0, "lon": -77.0239035}, {"fusion_lat": 0.0, "type": "electric_scooter", "name": "4dc8ff0ba65c5d75c0b7265fb8ff9799", "fusion_lon": 0.0, "bike_id": "4dc8ff0ba65c5d75c0b7265fb8ff9799", "is_reserved": 0, "rental_uris": {"android": "https://dc.lft.to/lastmile_qr_scan", "ios": "https://dc.lft.to/lastmile_qr_scan"}, "lat": 38.915741833333335, "is_disabled": 0, "lon": -77.0319255}, {"fusion_lat": 0.0, "type": "electric_bike", "name": "f92d137f5530b64aa38d8d8edfa89341", "fusion_lon": 0.0, "bike_id": "f92d137f5530b64aa38d8d8edfa89341", "is_reserved": 0, "rental_uris": {"android": "https://dc.lft.to/lastmile_qr_scan", "ios": "https://dc.lft.to/lastmile_qr_scan"}, "lat": 38.953292, "is_disabled": 0, "lon": -76.9543405}, {"fusion_lat": 0.0, "type": "electric_scooter", "name": "571b19018b5fdd62243eb09179611708", "fusion_lon": 0.0, "bike_id": "571b19018b5fdd62243eb09179611708", "is_reserved": 0, "rental_uris": {"android": "https://dc.lft.to/lastmile_qr_scan", "ios": "https://dc.lft.to/lastmile_qr_scan"}, "lat": 38.9026145, "is_disabled": 0, "lon": -77.00739166666666}, {"fusion_lat": 0.0, "type": "electric_scooter", "name": "29f9a341330f227bc42a5962e5d76d8f", "fusion_lon": 0.0, "bike_id": "29f9a341330f227bc42a5962e5d76d8f", "is_reserved": 0, "rental_uris": {"android": "https://dc.lft.to/lastmile_qr_scan", "ios": "https://dc.lft.to/lastmile_qr_scan"}, "lat": 38.9068025, "is_disabled": 0, "lon": -77.03641433333334}, {"fusion_lat": 0.0, "type": "electric_scooter", "name": "c2d22789f89199f43f97fd8f2a3e919e", "fusion_lon": 0.0, "bike_id": "c2d22789f89199f43f97fd8f2a3e919e", "is_reserved": 0, "rental_uris": {"android": "https://dc.lft.to/lastmile_qr_scan", "ios": "https://dc.lft.to/lastmile_qr_scan"}, "lat": 38.892215, "is_disabled": 0, "lon": -77.03216516666667}, {"fusion_lat": 0.0, "type": "electric_scooter", "name": "47c587e5a6e8deef889875147a0e5d87", "fusion_lon": 0.0, "bike_id": "47c587e5a6e8deef889875147a0e5d87", "is_reserved": 0, "rental_uris": {"android": "https://dc.lft.to/lastmile_qr_scan", "ios": "https://dc.lft.to/lastmile_qr_scan"}, "lat": 38.89844866666667, "is_disabled": 0, "lon": -76.9463795}, {"fusion_lat": 0.0, "type": "electric_scooter", "name": "35eb6c64969023c7ee6083b7daa8eeeb", "fusion_lon": 0.0, "bike_id": "35eb6c64969023c7ee6083b7daa8eeeb", "is_reserved": 0, "rental_uris": {"android": "https://dc.lft.to/lastmile_qr_scan", "ios": "https://dc.lft.to/lastmile_qr_scan"}, "lat": 38.90779783333333, "is_disabled": 0, "lon": -77.07254733333333}, {"fusion_lat": 0.0, "type": "electric_scooter", "name": "6d63235b3778c4181d83289d7c0067f2", "fusion_lon": 0.0, "bike_id": "6d63235b3778c4181d83289d7c0067f2", "is_reserved": 0, "rental_uris": {"android": "https://dc.lft.to/lastmile_qr_scan", "ios": "https://dc.lft.to/lastmile_qr_scan"}, "lat": 38.90515966666667, "is_disabled": 0, "lon": -77.06888183333334}, {"fusion_lat": 0.0, "type": "electric_scooter", "name": "14f8bbac2e90dd66f5543ff732e4ce81", "fusion_lon": 0.0, "bike_id": "14f8bbac2e90dd66f5543ff732e4ce81", "is_reserved": 0, "rental_uris": {"android": "https://dc.lft.to/lastmile_qr_scan", "ios": "https://dc.lft.to/lastmile_qr_scan"}, "lat": 38.9042995, "is_disabled": 0, "lon": -77.04654983333333}, {"fusion_lat": 0.0, "type": "electric_scooter", "name": "0baf10e1a37e41c93715d33deeb8ce2e", "fusion_lon": 0.0, "bike_id": "0baf10e1a37e41c93715d33deeb8ce2e", "is_reserved": 0, "rental_uris": {"android": "https://dc.lft.to/lastmile_qr_scan", "ios": "https://dc.lft.to/lastmile_qr_scan"}, "lat": 38.9012095, "is_disabled": 0, "lon": -77.0498545}, {"fusion_lat": 0.0, "type": "electric_scooter", "name": "4d76a9232cf53cb70a273e0d4eced40f", "fusion_lon": 0.0, "bike_id": "4d76a9232cf53cb70a273e0d4eced40f", "is_reserved": 0, "rental_uris": {"android": "https://dc.lft.to/lastmile_qr_scan", "ios": "https://dc.lft.to/lastmile_qr_scan"}, "lat": 38.9096895, "is_disabled": 0, "lon": -77.04622983333333}, {"fusion_lat": 0.0, "type": "electric_scooter", "name": "f692fab12d74aaf633a8e878f4ffba6e", "fusion_lon": 0.0, "bike_id": "f692fab12d74aaf633a8e878f4ffba6e", "is_reserved": 0, "rental_uris": {"android": "https://dc.lft.to/lastmile_qr_scan", "ios": "https://dc.lft.to/lastmile_qr_scan"}, "lat": 38.93343433333333, "is_disabled": 0, "lon": -77.032804}, {"fusion_lat": 0.0, "type": "electric_scooter", "name": "dd1e24dfb2c971c8ad7e0f9d50064189", "fusion_lon": 0.0, "bike_id": "dd1e24dfb2c971c8ad7e0f9d50064189", "is_reserved": 0, "rental_uris": {"android": "https://dc.lft.to/lastmile_qr_scan", "ios": "https://dc.lft.to/lastmile_qr_scan"},