{"data": {"bikes": [{"rental_uris": {"android": "https://dc.lft.to/lastmile_qr_scan", "ios": "https://dc.lft.to/lastmile_qr_scan"}, "is_reserved": 0, "is_disabled": 0, "name": "ab21ed0122f133a497ed16ed04717c92", "bike_id": "ab21ed0122f133a497ed16ed04717c92", "fusion_lat": 0.0, "lon": -77.01335166666667, "type": "electric_scooter", "fusion_lon": 0.0, "lat": 38.881285}, {"rental_uris": {"android": "https://dc.lft.to/lastmile_qr_scan", "ios": "https://dc.lft.to/lastmile_qr_scan"}, "is_reserved": 0, "is_disabled": 0, "name": "e7d32775e47b5c41a663eb5d89998bb0", "bike_id": "e7d32775e47b5c41a663eb5d89998bb0", "fusion_lat": 0.0, "lon": -77.05342183333333, "type": "electric_scooter", "fusion_lon": 0.0, "lat": 38.9232465}, {"rental_uris": {"android": "https://dc.lft.to/lastmile_qr_scan", "ios": "https://dc.lft.to/lastmile_qr_scan"}, "is_reserved": 0, "is_disabled": 0, "name": "bfaf7eb5d2fcf23f1d908f9deec82990", "bike_id": "bfaf7eb5d2fcf23f1d908f9deec82990", "fusion_lat": 0.0, "lon": -77.03344116666666, "type": "electric_scooter", "fusion_lon": 0.0, "lat": 38.8975175}, {"rental_uris": {"android": "https://dc.lft.to/lastmile_qr_scan", "ios": "https://dc.lft.to/lastmile_qr_scan"}, "is_reserved": 0, "is_disabled": 0, "name": "7d49107ccad4c35154ea1b7f30a85511", "bike_id": "7d49107ccad4c35154ea1b7f30a85511", "fusion_lat": 0.0, "lon": -77.01627916666666, "type": "electric_scooter", "fusion_lon": 0.0, "lat": 38.91685316666667}, {"rental_uris": {"android": "https://dc.lft.to/lastmile_qr_scan", "ios": "https://dc.lft.to/lastmile_qr_scan"}, "is_reserved": 0, "is_disabled": 0, "name": "5f5c9e227592b0bca510d692d9e1f7b8", "bike_id": "5f5c9e227592b0bca510d692d9e1f7b8", "fusion_lat": 0.0, "lon": -76.97901666666667, "type": "electric_bike", "fusion_lon": 0.0, "lat": 38.926981}, {"rental_uris": {"android": "https://dc.lft.to/lastmile_qr_scan", "ios": "https://dc.lft.to/lastmile_qr_scan"}, "is_reserved": 0, "is_disabled": 0, "name": "9435aa3fca4edad8a91e0462a0ca7103", "bike_id": "9435aa3fca4edad8a91e0462a0ca7103", "fusion_lat": 0.0, "lon": -77.02090233333334, "type": "electric_scooter", "fusion_lon": 0.0, "lat": 38.907308}, {"rental_uris": {"android": "https://dc.lft.to/lastmile_qr_scan", "ios": "https://dc.lft.to/lastmile_qr_scan"}, "is_reserved": 0, "is_disabled": 0, "name": "c27a433a6edcc801a246823cfa9f5ca6", "bike_id": "c27a433a6edcc801a246823cfa9f5ca6", "fusion_lat": 0.0, "lon": -77.03078533333333, "type": "electric_scooter", "fusion_lon": 0.0, "lat": 38.89967466666667}, {"rental_uris": {"android": "https://dc.lft.to/lastmile_qr_scan", "ios": "https://dc.lft.to/lastmile_qr_scan"}, "is_reserved": 0, "is_disabled": 0, "name": "9f72c7050f3d52934452a12faf9279f8", "bike_id": "9f72c7050f3d52934452a12faf9279f8", "fusion_lat": 0.0, "lon": -76.9949385, "type": "electric_scooter", "fusion_lon": 0.0, "lat": 38.890111166666664}, {"rental_uris": {"android": "https://dc.lft.to/lastmile_qr_scan", "ios": "https://dc.lft.to/lastmile_qr_scan"}, "is_reserved": 0, "is_disabled": 0, "name": "b88ca64d5841eb332eb9c896fb443ed3", "bike_id": "b88ca64d5841eb332eb9c896fb443ed3", "fusion_lat": 0.0, "lon": -76.98376816666666, "type": "electric_scooter", "fusion_lon": 0.0, "lat": 38.860323666666666}, {"rental_uris": {"android": "https://dc.lft.to/lastmile_qr_scan", "ios": "https://dc.lft.to/lastmile_qr_scan"}, "is_reserved": 0, "is_disabled": 0, "name": "51184d7c80a0a36c226895aedc696f7f", "bike_id": "51184d7c80a0a36c226895aedc696f7f", "fusion_lat": 0.0, "lon": -76.99105233333333, "type": "electric_scooter", "fusion_lon": 0.0, "lat": 38.85723316666667}, {"rental_uris": {"android": "https://dc.lft.to/lastmile_qr_scan", "ios": "https://dc.lft.to/lastmile_qr_scan"}, "is_reserved": 0, "is_disabled": 0, "name": "c0f06cdbff8fe8cb4aa92eeb9e71424b", "bike_id": "c0f06cdbff8fe8cb4aa92eeb9e71424b", "fusion_lat": 0.0, "lon": -77.02491333333333, "type": "electric_scooter", "fusion_lon": 0.0, "lat": 38.9207245}, {"rental_uris": {"android": "https://dc.lft.to/lastmile_qr_scan", "ios": "https://dc.lft.to/lastmile_qr_scan"}, "is_reserved": 0, "is_disabled": 0, "name": "df01de73da41121b4d9878d1f94a2c56", "bike_id": "df01de73da41121b4d9878d1f94a2c56", "fusion_lat": 0.0, "lon": -77.0433335, "type": "electric_scooter", "fusion_lon": 0.0, "lat": 38.92224566666667}, {"rental_uris": {"android": "https://dc.lft.to/lastmile_qr_scan", "ios": "https://dc.lft.to/lastmile_qr_scan"}, "is_reserved": 0, "is_disabled": 0, "name": "ad20393d3fea585e453d552a391e3656", "bike_id": "ad20393d3fea585e453d552a391e3656", "fusion_lat": 0.0, "lon": -77.04537766666667, "type": "electric_scooter", "fusion_lon": 0.0, "lat": 38.896123}, {"rental_uris": {"android": "https://dc.lft.to/lastmile_qr_scan", "ios": "https://dc.lft.to/lastmile_qr_scan"}, "is_reserved": 0, "is_disabled": 0, "name": "6d7f114397f775ef07fbaa5724629a45", "bike_id": "6d7f114397f775ef07fbaa5724629a45", "fusion_lat": 0.0, "lon": -77.04251866666667, "type": "electric_scooter", "fusion_lon": 0.0, "lat": 38.91958433333333}, {"rental_uris": {"android": "https://dc.lft.to/lastmile_qr_scan", "ios": "https://dc.lft.to/lastmile_qr_scan"}, "is_reserved": 0, "is_disabled": 0, "name": "9ecf3968f988f867f53aff0073105dce", "bike_id": "9ecf3968f988f867f53aff0073105dce", "fusion_lat": 0.0, "lon": -77.02284033333333, "type": "electric_scooter", "fusion_lon": 0.0, "lat": 38.916352333333336}, {"rental_uris": {"android": "https://dc.lft.to/lastmile_qr_scan", "ios": "https://dc.lft.to/lastmile_qr_scan"}, "is_reserved": 0, "is_disabled": 0, "name": "3740a8cfad7b7195ae420bd6521b3458", "bike_id": "3740a8cfad7b7195ae420bd6521b3458", "fusion_lat": 0.0, "lon": -77.02370116666667, "type": "electric_scooter", "fusion_lon": 0.0, "lat": 38.8922255}, {"rental_uris": {"android": "https://dc.lft.to/lastmile_qr_scan", "ios": "https://dc.lft.to/lastmile_qr_scan"}, "is_reserved": 0, "is_disabled": 0, "name": "a28d8353f6467b33b5ca83a6474d31eb", "bike_id": "a28d8353f6467b33b5ca83a6474d31eb", "fusion_lat": 0.0, "lon": -77.04814833333333, "type": "electric_scooter", "fusion_lon": 0.0, "lat": 38.91623216666667}, {"rental_uris": {"android": "https://dc.lft.to/lastmile_qr_scan", "ios": "https://dc.lft.to/lastmile_qr_scan"}, "is_reserved": 0, "is_disabled": 0, "name": "c561299fbbc9e26027c6d35ab9d4097f", "bike_id": "c561299fbbc9e26027c6d35ab9d4097f", "fusion_lat": 0.0, "lon": -77.0060555, "type": "electric_scooter", "fusion_lon": 0.0, "lat": 38.90574983333333}, {"rental_uris": {"android": "https://dc.lft.to/lastmile_qr_scan", "ios": "https://dc.lft.to/lastmile_qr_scan"}, "is_reserved": 0, "is_disabled": 0, "name": "b463b2b97ae5732527ae7fa4fb78384a", "bike_id": "b463b2b97ae5732527ae7fa4fb78384a", "fusion_lat": 0.0, "lon": -77.034746, "type": "electric_scooter", "fusion_lon": 0.0, "lat": 38.90729116666667}, {"rental_uris": {"android": "https://dc.lft.to/lastmile_qr_scan", "ios": "https://dc.lft.to/lastmile_qr_scan"}, "is_reserved": 0, "is_disabled": 0, "name": "5e99ddbb152e754c77dcda9c6b81c759", "bike_id": "5e99ddbb152e754c77dcda9c6b81c759", "fusion_lat": 0.0, "lon": -76.98250066666667, "type": "electric_bike", "fusion_lon": 0.0, "lat": 38.9524465}, {"rental_uris": {"android": "https://dc.lft.to/lastmile_qr_scan", "ios": "https://dc.lft.to/lastmile_qr_scan"}, "is_reserved": 0, "is_disabled": 0, "name": "60385cb3a2bcbb74050a27b4a2cc754e", "bike_id": "60385cb3a2bcbb74050a27b4a2cc754e", "fusion_lat": 0.0, "lon": -77.05201166666667, "type": "electric_scooter", "fusion_lon": 0.0, "lat": 38.903088333333336}, {"rental_uris": {"android": "https://dc.lft.to/lastmile_qr_scan", "ios": "https://dc.lft.to/lastmile_qr_scan"}, "is_reserved": 0, "is_disabled": 0, "name": "11d6a1fe422da8b6c5f2a3baa52033af", "bike_id": "11d6a1fe422da8b6c5f2a3baa52033af", "fusion_lat": 0.0, "lon": -77.045018, "type": "electric_scooter", "fusion_lon": 0.0, "lat": 38.89219883333333}, {"rental_uris": {"android": "https://dc.lft.to/lastmile_qr_scan", "ios": "https://dc.lft.to/lastmile_qr_scan"}, "is_reserved": 0, "is_disabled": 0, "name": "8b4a48514a1875bd56a5ed57b871602e", "bike_id": "8b4a48514a1875bd56a5ed57b871602e", "fusion_lat": 0.0, "lon": -77.0332655, "type": "electric_scooter", "fusion_lon": 0.0, "lat": 38.9003555}, {"rental_uris": {"android": "https://dc.lft.to/lastmile_qr_scan", "ios": "https://dc.lft.to/lastmile_qr_scan"}, "is_reserved": 0, "is_disabled": 0, "name": "3f6f1ef59c0bfd1d60be908b6372a85c", "bike_id": "3f6f1ef59c0bfd1d60be908b6372a85c", "fusion_lat": 0.0, "lon": -77.0248855, "type": "electric_scooter", "fusion_lon": 0.0, "lat": 38.94185266666667}, {"rental_uris": {"android": "https://dc.lft.to/lastmile_qr_scan", "ios": "https://dc.lft.to/lastmile_qr_scan"}, "is_reserved": 0, "is_disabled": 0, "name": "283d5ae49172c5afa9a37a3abb75db30", "bike_id": "283d5ae49172c5afa9a37a3abb75db30", "fusion_lat": 0.0, "lon": -77.04660133333333, "type": "electric_scooter", "fusion_lon": 0.0, "lat": 38.893338166666666}, {"rental_uris": {"android": "https://dc.lft.to/lastmile_qr_scan", "ios": "https://dc.lft.to/lastmile_qr_scan"}, "is_reserved": 0, "is_disabled": 0, "name": "f5876bc43f2cd6bfc8d08ae65864ef91", "bike_id": "f5876bc43f2cd6bfc8d08ae65864ef91", "fusion_lat": 0.0, "lon": -77.05034383333333, "type": "electric_scooter", "fusion_lon": 0.0, "lat": 38.90388083333333}, {"rental_uris": {"android": "https://dc.lft.to/lastmile_qr_scan", "ios": "https://dc.lft.to/lastmile_qr_scan"}, "is_reserved": 0, "is_disabled": 0, "name": "ace5f3768edae156a0488f6e4a7acae5", "bike_id": "ace5f3768edae156a0488f6e4a7acae5", "fusion_lat": 0.0, "lon": -77.0316725, "type": "electric_scooter", "fusion_lon": 0.0, "lat": 38.914117}, {"rental_uris": {"android": "https://dc.lft.to/lastmile_qr_scan", "ios": "https://dc.lft.to/lastmile_qr_scan"}, "is_reserved": 0, "is_disabled": 0, "name": "6e08691bd4ff3856fc7d37597480cd94", "bike_id": "6e08691bd4ff3856fc7d37597480cd94", "fusion_lat": 0.0, "lon": -77.02098416666666, "type": "electric_scooter", "fusion_lon": 0.0, "lat": 38.93267066666667}, {"rental_uris": {"android": "https://dc.lft.to/lastmile_qr_scan", "ios": "https://dc.lft.to/lastmile_qr_scan"}, "is_reserved": 0, "is_disabled": 0, "name": "dddb315cae066e6017b71988ccfaa460", "bike_id": "dddb315cae066e6017b71988ccfaa460", "fusion_lat": 0.0, "lon": -77.033287, "type": "electric_scooter", "fusion_lon": 0.0, "lat": 38.89903483333333}, {"rental_uris": {"android": "https://dc.lft.to/lastmile_qr_scan", "ios": "https://dc.lft.to/lastmile_qr_scan"}, "is_reserved": 0, "is_disabled": 0, "name": "6c5c56ebec3a8524f8f704655f3e2f12", "bike_id": "6c5c56ebec3a8524f8f704655f3e2f12", "fusion_lat": 0.0, "lon": -77.04234166666667, "type": "electric_scooter", "fusion_lon": 0.0, "lat": 38.9110915}, {"rental_uris": {"android": "https://dc.lft.to/lastmile_qr_scan", "ios": "https://dc.lft.to/lastmile_qr_scan"}, "is_reserved": 0, "is_disabled": 0, "name": "b69231fb29613203ce3a22d80c46a0ba", "bike_id": "b69231fb29613203ce3a22d80c46a0ba", "fusion_lat": 0.0, "lon": -77.030097, "type": "electric_bike", "fusion_lon": 0.0, "lat": 38.90023566666667}, {"rental_uris": {"android": "https://dc.lft.to/lastmile_qr_scan", "ios": "https://dc.lft.to/lastmile_qr_scan"}, "is_reserved": 0, "is_disabled": 0, "name": "9924f2ff18ac97c2a48d258e4ae89a99", "bike_id": "9924f2ff18ac97c2a48d258e4ae89a99", "fusion_lat": 0.0, "lon": -77.02273916666667, "type": "electric_scooter", "fusion_lon": 0.0, "lat": 38.89990816666667}, {"rental_uris": {"android": "https://dc.lft.to/lastmile_qr_scan", "ios": "https://dc.lft.to/lastmile_qr_scan"}, "is_reserved": 0, "is_disabled": 0, "name": "253ad9dc9fa42339187952461606ec91", "bike_id": "253ad9dc9fa42339187952461606ec91", "fusion_lat": 0.0, "lon": -77.040188, "type": "electric_scooter", "fusion_lon": 0.0, "lat": 38.92183583333333}, {"rental_uris": {"android": "https://dc.lft.to/lastmile_qr_scan", "ios": "https://dc.lft.to/lastmile_qr_scan"}, "is_reserved": 0, "is_disabled": 0, "name": "ee7c9cdc19a6680f716663b5e617e241", "bike_id": "ee7c9cdc19a6680f716663b5e617e241", "fusion_lat": 0.0, "lon": -76.98016183333333, "type": "electric_bike", "fusion_lon": 0.0, "lat": 38.853174833333334}, {"rental_uris": {"android": "https://dc.lft.to/lastmile_qr_scan", "ios": "https://dc.lft.to/lastmile_qr_scan"}, "is_reserved": 0, "is_disabled": 0, "name": "7326b53d01d2f77b909cc446f57564e7", "bike_id": "7326b53d01d2f77b909cc446f57564e7", "fusion_lat": 0.0, "lon": -77.04981833333333, "type": "electric_scooter", "fusion_lon": 0.0, "lat": 38.90123633333333}, {"rental_uris": {"android": "https://dc.lft.to/lastmile_qr_scan", "ios": "https://dc.lft.to/lastmile_qr_scan"}, "is_reserved": 0, "is_disabled": 0, "name": "019b9f4be8514579c68865be216b45cb", "bike_id": "019b9f4be8514579c68865be216b45cb", "fusion_lat": 0.0, "lon": -76.988044, "type": "electric_scooter", "fusion_lon": 0.0, "lat": 38.893597666666665}, {"rental_uris": {"android": "https://dc.lft.to/lastmile_qr_scan", "ios": "https://dc.lft.to/lastmile_qr_scan"}, "is_reserved": 0, "is_disabled": 0, "name": "65bf75a10dbbfa05fc6810b89ed9291d", "bike_id": "65bf75a10dbbfa05fc6810b89ed9291d", "fusion_lat": 0.0, "lon": -77.04645366666666, "type": "electric_bike", "fusion_lon": 0.0, "lat": 38.815443}, {"rental_uris": {"android": "https://dc.lft.to/lastmile_qr_scan", "ios": "https://dc.lft.to/lastmile_qr_scan"}, "is_reserved": 0, "is_disabled": 0, "name": "3ba01a327c4478b10fd05f8f1eebd4d5", "bike_id": "3ba01a327c4478b10fd05f8f1eebd4d5", "fusion_lat": 0.0, "lon": -76.98335216666666, "type": "electric_scooter", "fusion_lon": 0.0, "lat": 38.8954315}, {"rental_uris": {"android": "https://dc.lft.to/lastmile_qr_scan", "ios": "https://dc.lft.to/lastmile_qr_scan"}, "is_reserved": 0, "is_disabled": 0, "name": "1f0fb440b680fa09d74fe3e9e445cd1a", "bike_id": "1f0fb440b680fa09d74fe3e9e445cd1a", "fusion_lat": 0.0, "lon": -77.02779166666667, "type": "electric_scooter", "fusion_lon": 0.0, "lat": 38.9266225}, {"rental_uris": {"android": "https://dc.lft.to/lastmile_qr_scan", "ios": "https://dc.lft.to/lastmile_qr_scan"}, "is_reserved": 0, "is_disabled": 0, "name": "aad82cd098d4093bb0f28d977307f882", "bike_id": "aad82cd098d4093bb0f28d977307f882", "fusion_lat": 0.0, "lon": -77.0233565, "type": "electric_scooter", "fusion_lon": 0.0, "lat": 38.930501}, {"rental_uris": {"android": "https://dc.lft.to/lastmile_qr_scan", "ios": "https://dc.lft.to/lastmile_qr_scan"}, "is_reserved": 0, "is_disabled": 0, "name": "eaade8f4b74f81c125b588e0d869dc16", "bike_id": "eaade8f4b74f81c125b588e0d869dc16", "fusion_lat": 0.0, "lon": -77.04458683333333, "type": "electric_scooter", "fusion_lon": 0.0, "lat": 38.918814833333336}, {"rental_uris": {"android": "https://dc.lft.to/lastmile_qr_scan", "ios": "https://dc.lft.to/lastmile_qr_scan"}, "is_reserved": 0, "is_disabled": 0, "name": "8bb8d85042d0768ae06a3ed0a8e277fb", "bike_id": "8bb8d85042d0768ae06a3ed0a8e277fb", "fusion_lat": 0.0, "lon": -76.9796055, "type": "electric_scooter", "fusion_lon": 0.0, "lat": 38.897890333333336}, {"rental_uris": {"android": "https://dc.lft.to/lastmile_qr_scan", "ios": "https://dc.lft.to/lastmile_qr_scan"}, "is_reserved": 0, "is_disabled": 0, "name": "5a2911c297db13d08a6bf2fc20d53941", "bike_id": "5a2911c297db13d08a6bf2fc20d53941", "fusion_lat": 0.0, "lon": -77.0000965, "type": "electric_scooter", "fusion_lon": 0.0, "lat": 38.87386683333333}, {"rental_uris": {"android": "https://dc.lft.to/lastmile_qr_scan", "ios": "https://dc.lft.to/lastmile_qr_scan"}, "is_reserved": 0, "is_disabled": 0, "name": "a694918c1361c52612369d5e4f138d54", "bike_id": "a694918c1361c52612369d5e4f138d54", "fusion_lat": 0.0, "lon": -77.02737133333333, "type": "electric_scooter", "fusion_lon": 0.0, "lat": 38.95202916666667}, {"rental_uris": {"android": "https://dc.lft.to/lastmile_qr_scan", "ios": "https://dc.lft.to/lastmile_qr_scan"}, "is_reserved": 0, "is_disabled": 0, "name": "cb333f9ec92c4664a2e04fed93a188b1", "bike_id": "cb333f9ec92c4664a2e04fed93a188b1", "fusion_lat": 0.0, "lon": -77.02324066666667, "type": "electric_scooter", "fusion_lon": 0.0, "lat": 38.907284}, {"rental_uris": {"android": "https://dc.lft.to/lastmile_qr_scan", "ios": "https://dc.lft.to/lastmile_qr_scan"}, "is_reserved": 0, "is_disabled": 0, "name": "85cab00193d791ed3358c9556c92efd0", "bike_id": "85cab00193d791ed3358c9556c92efd0", "fusion_lat": 0.0, "lon": -77.0222915, "type": "electric_scooter", "fusion_lon": 0.0, "lat": 38.912513}, {"rental_uris": {"android": "https://dc.lft.to/lastmile_qr_scan", "ios": "https://dc.lft.to/lastmile_qr_scan"}, "is_reserved": 0, "is_disabled": 0, "name": "0a6538c631f15952da70b6d68031650d", "bike_id": "0a6538c631f15952da70b6d68031650d", "fusion_lat": 0.0, "lon": -77.044691, "type": "electric_scooter", "fusion_lon": 0.0, "lat": 38.90264533333333}, {"rental_uris": {"android": "https://dc.lft.to/lastmile_qr_scan", "ios": "https://dc.lft.to/lastmile_qr_scan"}, "is_reserved": 0, "is_disabled": 0, "name": "87d48fd2c06b974658d50c1b56ed435e", "bike_id": "87d48fd2c06b974658d50c1b56ed435e", "fusion_lat": 0.0, "lon": -76.95247183333333, "type": "electric_bike", "fusion_lon": 0.0, "lat": 38.90695616666667}, {"rental_uris": {"android": "https://dc.lft.to/lastmile_qr_scan", "ios": "https://dc.lft.to/lastmile_qr_scan"}, "is_reserved": 0, "is_disabled": 0, "name": "ab4210c909785e034174e2ba98108e36", "bike_id": "ab4210c909785e034174e2ba98108e36", "fusion_lat": 0.0, "lon": -77.03180833333333, "type": "electric_scooter", "fusion_lon": 0.0, "lat": 38.919310833333334}, {"rental_uris": {"android": "https://dc.lft.to/lastmile_qr_scan", "ios": "https://dc.lft.to/lastmile_qr_scan"}, "is_reserved": 0, "is_disabled": 0, "name": "49f46fdeb71fbc55210ed61776b89981", "bike_id": "49f46fdeb71fbc55210ed61776b89981", "fusion_lat": 0.0, "lon": -77.03191116666666, "type": "electric_scooter", "fusion_lon": 0.0, "lat": 38.9074995}, {"rental_uris": {"android": "https://dc.lft.to/lastmile_qr_scan", "ios": "https://dc.lft.to/lastmile_qr_scan"}, "is_reserved": 0, "is_disabled": 0, "name": "ae3686397891e966fcfe0febc3f6ec9d", "bike_id": "ae3686397891e966fcfe0febc3f6ec9d", "fusion_lat": 0.0, "lon": -77.04040183333333, "type": "electric_scooter", "fusion_lon": 0.0, "lat": 38.905676}, {"rental_uris": {"android": "https://dc.lft.to/lastmile_qr_scan", "ios": "https://dc.lft.to/lastmile_qr_scan"}, "is_reserved": 0, "is_disabled": 0, "name": "166d02d55fcb0dff63106cea1797b8be", "bike_id": "166d02d55fcb0dff63106cea1797b8be", "fusion_lat": 0.0, "lon": -77.02730033333333, "type": "electric_scooter", "fusion_lon": 0.0, "lat": 38.918159}, {"rental_uris": {"android": "https://dc.lft.to/lastmile_qr_scan", "ios": "https://dc.lft.to/lastmile_qr_scan"}, "is_reserved": 0, "is_disabled": 0, "name": "130c393c1b672ef8b5deeb1361c94418", "bike_id": "130c393c1b672ef8b5deeb1361c94418", "fusion_lat": 0.0, "lon": -77.04332683333334, "type": "electric_scooter", "fusion_lon": 0.0, "lat": 38.92325616666667}, {"rental_uris": {"android": "https://dc.lft.to/lastmile_qr_scan", "ios": "https://dc.lft.to/lastmile_qr_scan"}, "is_reserved": 0, "is_disabled": 0, "name": "a8cb8e424e141d6ce8d38f08f61d693a", "bike_id": "a8cb8e424e141d6ce8d38f08f61d693a", "fusion_lat": 0.0, "lon": -77.03629433333333, "type": "electric_scooter", "fusion_lon": 0.0, "lat": 38.9037235}, {"rental_uris": {"android": "https://dc.lft.to/lastmile_qr_scan", "ios": "https://dc.lft.to/lastmile_qr_scan"}, "is_reserved": 0, "is_disabled": 0, "name": "dfb3d97802a0afe6b803090785a08dae", "bike_id": "dfb3d97802a0afe6b803090785a08dae", "fusion_lat": 0.0, "lon": -76.9295585, "type": "electric_scooter", "fusion_lon": 0.0, "lat": 38.88445816666667}, {"rental_uris": {"android": "https://dc.lft.to/lastmile_qr_scan", "ios": "https://dc.lft.to/lastmile_qr_scan"}, "is_reserved": 0, "is_disabled": 0, "name": "fbf0178f961d47500b89a46068f3eb30", "bike_id": "fbf0178f961d47500b89a46068f3eb30", "fusion_lat": 0.0, "lon": -77.002193, "type": "electric_scooter", "fusion_lon": 0.0, "lat": 38.9002375}, {"rental_uris": {"android": "https://dc.lft.to/lastmile_qr_scan", "ios": "https://dc.lft.to/lastmile_qr_scan"}, "is_reserved": 0, "is_disabled": 0, "name": "5433b9cafd6d6016c4ab32b2a4c26710", "bike_id": "5433b9cafd6d6016c4ab32b2a4c26710", "fusion_lat": 0.0, "lon": -77.0433505, "type": "electric_scooter", "fusion_lon": 0.0, "lat": 38.926157}, {"rental_uris": {"android": "https://dc.lft.to/lastmile_qr_scan", "ios": "https://dc.lft.to/lastmile_qr_scan"}, "is_reserved": 0, "is_disabled": 0, "name": "dbc36f5d4ee00d8f6d1541efeb47b220", "bike_id": "dbc36f5d4ee00d8f6d1541efeb47b220", "fusion_lat": 0.0, "lon": -77.03077766666667, "type": "electric_scooter", "fusion_lon": 0.0, "lat": 38.89973116666667}, {"rental_uris": {"android": "https://dc.lft.to/lastmile_qr_scan", "ios": "https://dc.lft.to/lastmile_qr_scan"}, "is_reserved": 0, "is_disabled": 0, "name": "46a86170fe0d39d8f1b78e05e11d08fb", "bike_id": "46a86170fe0d39d8f1b78e05e11d08fb", "fusion_lat": 0.0, "lon": -76.98369733333334, "type": "electric_scooter", "fusion_lon": 0.0, "lat": 38.8926385}, {"rental_uris": {"android": "https://dc.lft.to/lastmile_qr_scan", "ios": "https://dc.lft.to/lastmile_qr_scan"}, "is_reserved": 0, "is_disabled": 0, "name": "2a1863906f28be38660671cee2bb88aa", "bike_id": "2a1863906f28be38660671cee2bb88aa", "fusion_lat": 0.0, "lon": -76.98795266666667, "type": "electric_scooter", "fusion_lon": 0.0, "lat": 38.90023816666667}, {"rental_uris": {"android": "https://dc.lft.to/lastmile_qr_scan", "ios": "https://dc.lft.to/lastmile_qr_scan"}, "is_reserved": 0, "is_disabled": 0, "name": "13c4cd14a97fd06305c9768dd9f24e1d", "bike_id": "13c4cd14a97fd06305c9768dd9f24e1d", "fusion_lat": 0.0, "lon": -77.074903, "type": "electric_scooter", "fusion_lon": 0.0, "lat": 38.962096333333335}, {"rental_uris": {"android": "https://dc.lft.to/lastmile_qr_scan", "ios": "https://dc.lft.to/lastmile_qr_scan"}, "is_reserved": 0, "is_disabled": 0, "name": "42d9125f22213b86a1ac6c7ee73175d5", "bike_id": "42d9125f22213b86a1ac6c7ee73175d5", "fusion_lat": 0.0, "lon": -77.01324166666667, "type": "electric_scooter", "fusion_lon": 0.0, "lat": 38.8922225}, {"rental_uris": {"android": "https://dc.lft.to/lastmile_qr_scan", "ios": "https://dc.lft.to/lastmile_qr_scan"}, "is_reserved": 0, "is_disabled": 0, "name": "c63b17d05de31e9eef3111c4ff611b11", "bike_id": "c63b17d05de31e9eef3111c4ff611b11", "fusion_lat": 0.0, "lon": -76.9857435, "type": "electric_scooter", "fusion_lon": 0.0, "lat": 38.89627683333333}, {"rental_uris": {"android": "https://dc.lft.to/lastmile_qr_scan", "ios": "https://dc.lft.to/lastmile_qr_scan"}, "is_reserved": 0, "is_disabled": 0, "name": "0736c91296dafb6a34b49b90a5083448", "bike_id": "0736c91296dafb6a34b49b90a5083448", "fusion_lat": 0.0, "lon": -77.012215, "type": "electric_scooter", "fusion_lon": 0.0, "lat": 38.915179}, {"rental_uris": {"android": "https://dc.lft.to/lastmile_qr_scan", "ios": "https://dc.lft.to/lastmile_qr_scan"}, "is_reserved": 0, "is_disabled": 0, "name": "3979b0b5fce5e0ddfb71f0b4bfcf162b", "bike_id": "3979b0b5fce5e0ddfb71f0b4bfcf162b", "fusion_lat": 0.0, "lon": -77.04476633333333, "type": "electric_scooter", "fusion_lon": 0.0, "lat": 38.90258583333333}, {"rental_uris": {"android": "https://dc.lft.to/lastmile_qr_scan", "ios": "https://dc.lft.to/lastmile_qr_scan"}, "is_reserved": 0, "is_disabled": 0, "name": "99c657b64a340f3e4dd34ebd1de9b1d2", "bike_id": "99c657b64a340f3e4dd34ebd1de9b1d2", "fusion_lat": 0.0, "lon": -77.02826983333334, "type": "electric_scooter", "fusion_lon": 0.0, "lat": 38.887358166666665}, {"rental_uris": {"android": "https://dc.lft.to/lastmile_qr_scan", "ios": "https://dc.lft.to/lastmile_qr_scan"}, "is_reserved": 0, "is_disabled": 0, "name": "c2a2ea4d9fd450655e0f1e7eb78db30f", "bike_id": "c2a2ea4d9fd450655e0f1e7eb78db30f", "fusion_lat": 0.0, "lon": -77.02908216666667, "type": "electric_scooter", "fusion_lon": 0.0, "lat": 38.95293983333333}, {"rental_uris": {"android": "https://dc.lft.to/lastmile_qr_scan", "ios": "https://dc.lft.to/lastmile_qr_scan"}, "is_reserved": 0, "is_disabled": 0, "name": "14b8f9b0c303df3451df94d13a19dafc", "bike_id": "14b8f9b0c303df3451df94d13a19dafc", "fusion_lat": 0.0, "lon": -76.9294325, "type": "electric_scooter", "fusion_lon": 0.0, "lat": 38.9034995}, {"rental_uris": {"android": "https://dc.lft.to/lastmile_qr_scan", "ios": "https://dc.lft.to/lastmile_qr_scan"}, "is_reserved": 0, "is_disabled": 0, "name": "4dddabfaf0448bf8bb78fc32e2409c0f", "bike_id": "4dddabfaf0448bf8bb78fc32e2409c0f", "fusion_lat": 0.0, "lon": -77.0318845, "type": "electric_scooter", "fusion_lon": 0.0, "lat": 38.907273}, {"rental_uris": {"android": "https://dc.lft.to/lastmile_qr_scan", "ios": "https://dc.lft.to/lastmile_qr_scan"}, "is_reserved": 0, "is_disabled": 0, "name": "83e39d945a4bf6f2c42049f7c246502c", "bike_id": "83e39d945a4bf6f2c42049f7c246502c", "fusion_lat": 0.0, "lon": -77.02559033333333, "type": "electric_scooter", "fusion_lon": 0.0, "lat": 38.95394233333333}, {"rental_uris": {"android": "https://dc.lft.to/lastmile_qr_scan", "ios": "https://dc.lft.to/lastmile_qr_scan"}, "is_reserved": 0, "is_disabled": 0, "name": "63a319f392365b6d4e9f60360720b420", "bike_id": "63a319f392365b6d4e9f60360720b420", "fusion_lat": 0.0, "lon": -77.0216295, "type": "electric_scooter", "fusion_lon": 0.0, "lat": 38.92617833333333}, {"rental_uris": {"android": "https://dc.lft.to/lastmile_qr_scan", "ios": "https://dc.lft.to/lastmile_qr_scan"}, "is_reserved": 0, "is_disabled": 0, "name": "173ec41a7822ef841ec8e62e12efb297", "bike_id": "173ec41a7822ef841ec8e62e12efb297", "fusion_lat": 0.0, "lon": -77.03443116666666, "type": "electric_scooter", "fusion_lon": 0.0, "lat": 38.91792566666667}, {"rental_uris": {"android": "https://dc.lft.to/lastmile_qr_scan", "ios": "https://dc.lft.to/lastmile_qr_scan"}, "is_reserved": 0, "is_disabled": 0, "name": "1a050e75679e3cc94d0658c2790440d0", "bike_id": "1a050e75679e3cc94d0658c2790440d0", "fusion_lat": 0.0, "lon": -77.02179516666666, "type": "electric_scooter", "fusion_lon": 0.0, "lat": 38.8922945}, {"rental_uris": {"android": "https://dc.lft.to/lastmile_qr_scan", "ios": "https://dc.lft.to/lastmile_qr_scan"}, "is_reserved": 0, "is_disabled": 0, "name": "ee964a0a27cd45f63040eae201c660ca", "bike_id": "ee964a0a27cd45f63040eae201c660ca", "fusion_lat": 0.0, "lon": -76.96090933333333, "type": "electric_bike", "fusion_lon": 0.0, "lat": 38.9186065}, {"rental_uris": {"android": "https://dc.lft.to/lastmile_qr_scan", "ios": "https://dc.lft.to/lastmile_qr_scan"}, "is_reserved": 0, "is_disabled": 0, "name": "e85c4b1659730aed6777dce346c15c9e", "bike_id": "e85c4b1659730aed6777dce346c15c9e", "fusion_lat": 0.0, "lon": -77.04361466666667, "type": "electric_scooter", "fusion_lon": 0.0, "lat": 38.904785}, {"rental_uris": {"android": "https://dc.lft.to/lastmile_qr_scan", "ios": "https://dc.lft.to/lastmile_qr_scan"}, "is_reserved": 0, "is_disabled": 0, "name": "639d3a4dba863a0a6ac168d7671b489b", "bike_id": "639d3a4dba863a0a6ac168d7671b489b", "fusion_lat": 0.0, "lon": -77.03234533333334, "type": "electric_bike", "fusion_lon": 0.0, "lat": 38.9287295}, {"rental_uris": {"android": "https://dc.lft.to/lastmile_qr_scan", "ios": "https://dc.lft.to/lastmile_qr_scan"}, "is_reserved": 0, "is_disabled": 0, "name": "f7441d708b4dd83c7a8db893314d1a7c", "bike_id": "f7441d708b4dd83c7a8db893314d1a7c", "fusion_lat": 0.0, "lon": -77.0346095, "type": "electric_scooter", "fusion_lon": 0.0, "lat": 38.902661}, {"rental_uris": {"android": "https://dc.lft.to/lastmile_qr_scan", "ios": "https://dc.lft.to/lastmile_qr_scan"}, "is_reserved": 0, "is_disabled": 0, "name": "1e1b787ffd64ceebc5515335ff9c34ae", "bike_id": "1e1b787ffd64ceebc5515335ff9c34ae", "fusion_lat": 0.0, "lon": -76.91065466666667, "type": "electric_bike", "fusion_lon": 0.0, "lat": 39.01074933333334}, {"rental_uris": {"android": "https://dc.lft.to/lastmile_qr_scan", "ios": "https://dc.lft.to/lastmile_qr_scan"}, "is_reserved": 0, "is_disabled": 0, "name": "e542d07a99c1eca43797a714a58ad793", "bike_id": "e542d07a99c1eca43797a714a58ad793", "fusion_lat": 0.0, "lon": -77.0348075, "type": "electric_scooter", "fusion_lon": 0.0, "lat": 38.905791}, {"rental_uris": {"android": "https://dc.lft.to/lastmile_qr_scan", "ios": "https://dc.lft.to/lastmile_qr_scan"}, "is_reserved": 0, "is_disabled": 0, "name": "925a73dfdff286e58123d917dcb72cd3", "bike_id": "925a73dfdff286e58123d917dcb72cd3", "fusion_lat": 0.0, "lon": -77.059094, "type": "electric_scooter", "fusion_lon": 0.0, "lat": 38.9048205}, {"rental_uris": {"android": "https://dc.lft.to/lastmile_qr_scan", "ios": "https://dc.lft.to/lastmile_qr_scan"}, "is_reserved": 0, "is_disabled": 0, "name": "4b43cea126881dc2ade27e336d4454eb", "bike_id": "4b43cea126881dc2ade27e336d4454eb", "fusion_lat": 0.0, "lon": -77.047658, "type": "electric_scooter", "fusion_lon": 0.0, "lat": 38.9175015}, {"rental_uris": {"android": "https://dc.lft.to/lastmile_qr_scan", "ios": "https://dc.lft.to/lastmile_qr_scan"}, "is_reserved": 0, "is_disabled": 0, "name": "901032ffe2c3ca95be1d7316e0e5dc40", "bike_id": "901032ffe2c3ca95be1d7316e0e5dc40", "fusion_lat": 0.0, "lon": -77.01953216666666, "type": "electric_scooter", "fusion_lon": 0.0, "lat": 38.9319635}, {"rental_uris": {"android": "https://dc.lft.to/lastmile_qr_scan", "ios": "https://dc.lft.to/lastmile_qr_scan"}, "is_reserved": 0, "is_disabled": 0, "name": "8a547b558a22033efcd3850aa6e6e65d", "bike_id": "8a547b558a22033efcd3850aa6e6e65d", "fusion_lat": 0.0, "lon": -77.03278766666666, "type": "electric_bike", "fusion_lon": 0.0, "lat": 38.9612405}, {"rental_uris": {"android": "https://dc.lft.to/lastmile_qr_scan", "ios": "https://dc.lft.to/lastmile_qr_scan"}, "is_reserved": 0, "is_disabled": 0, "name": "1994d23af2795b414e9f79afa9bf77a1", "bike_id": "1994d23af2795b414e9f79afa9bf77a1", "fusion_lat": 0.0, "lon": -77.0232195, "type": "electric_scooter", "fusion_lon": 0.0, "lat": 38.908858333333335}, {"rental_uris": {"android": "https://dc.lft.to/lastmile_qr_scan", "ios": "https://dc.lft.to/lastmile_qr_scan"}, "is_reserved": 0, "is_disabled": 0, "name": "22f8d315b9665201c89bb5b21071fb76", "bike_id": "22f8d315b9665201c89bb5b21071fb76", "fusion_lat": 0.0, "lon": -77.03896666666667, "type": "electric_scooter", "fusion_lon": 0.0, "lat": 38.92213266666667}, {"rental_uris": {"android": "https://dc.lft.to/lastmile_qr_scan", "ios": "https://dc.lft.to/lastmile_qr_scan"}, "is_reserved": 0, "is_disabled": 0, "name": "fd31da22f97a26df40ce54ae511d9354", "bike_id": "fd31da22f97a26df40ce54ae511d9354", "fusion_lat": 0.0, "lon": -77.03841683333333, "type": "electric_scooter", "fusion_lon": 0.0, "lat": 38.9217155}, {"rental_uris": {"android": "https://dc.lft.to/lastmile_qr_scan", "ios": "https://dc.lft.to/lastmile_qr_scan"}, "is_reserved": 0, "is_disabled": 0, "name": "0c88c005a38dcbdc9d9f884add99af79", "bike_id": "0c88c005a38dcbdc9d9f884add99af79", "fusion_lat": 0.0, "lon": -77.02909066666666, "type": "electric_scooter", "fusion_lon": 0.0, "lat": 38.91660383333333}, {"rental_uris": {"android": "https://dc.lft.to/lastmile_qr_scan", "ios": "https://dc.lft.to/lastmile_qr_scan"}, "is_reserved": 0, "is_disabled": 0, "name": "11acf3ca993fa5a6f3d233ccd8246a69", "bike_id": "11acf3ca993fa5a6f3d233ccd8246a69", "fusion_lat": 0.0, "lon": -77.03280716666667, "type": "electric_scooter", "fusion_lon": 0.0, "lat": 38.898828333333334}, {"rental_uris": {"android": "https://dc.lft.to/lastmile_qr_scan", "ios": "https://dc.lft.to/lastmile_qr_scan"}, "is_reserved": 0, "is_disabled": 0, "name": "b997b78671948c89b0bc7b3f8f682fea", "bike_id": "b997b78671948c89b0bc7b3f8f682fea", "fusion_lat": 0.0, "lon": -76.96540416666667, "type": "electric_scooter", "fusion_lon": 0.0, "lat": 38.9185645}, {"rental_uris": {"android": "https://dc.lft.to/lastmile_qr_scan", "ios": "https://dc.lft.to/lastmile_qr_scan"}, "is_reserved": 0, "is_disabled": 0, "name": "9004b5ea3ed5942615d877b6ef42b078", "bike_id": "9004b5ea3ed5942615d877b6ef42b078", "fusion_lat": 0.0, "lon": -77.0320445, "type": "electric_scooter", "fusion_lon": 0.0, "lat": 38.903636166666665}, {"rental_uris": {"android": "https://dc.lft.to/lastmile_qr_scan", "ios": "https://dc.lft.to/lastmile_qr_scan"}, "is_reserved": 0, "is_disabled": 0, "name": "2de51d4a729926bf73b17d2fb9dd3c40", "bike_id": "2de51d4a729926bf73b17d2fb9dd3c40", "fusion_lat": 0.0, "lon": -77.0190035, "type": "electric_scooter", "fusion_lon": 0.0, "lat": 38.90552683333333}, {"rental_uris": {"android": "https://dc.lft.to/lastmile_qr_scan", "ios": "https://dc.lft.to/lastmile_qr_scan"}, "is_reserved": 0, "is_disabled": 0, "name": "0095d1717a81482e257691d1117326e0", "bike_id": "0095d1717a81482e257691d1117326e0", "fusion_lat": 0.0, "lon": -77.02946866666667, "type": "electric_scooter", "fusion_lon": 0.0, "lat": 38.90725}, {"rental_uris": {"android": "https://dc.lft.to/lastmile_qr_scan", "ios": "https://dc.lft.to/lastmile_qr_scan"}, "is_reserved": 0, "is_disabled": 0, "name": "bd1f5aec32074f134fadb61ad46afbdf", "bike_id": "bd1f5aec32074f134fadb61ad46afbdf", "fusion_lat": 0.0, "lon": -77.03945716666666, "type": "electric_scooter", "fusion_lon": 0.0, "lat": 38.908328166666664}, {"rental_uris": {"android": "https://dc.lft.to/lastmile_qr_scan", "ios": "https://dc.lft.to/lastmile_qr_scan"}, "is_reserved": 0, "is_disabled": 0, "name": "62def6cdb597bd5a5398f201aae4c64a", "bike_id": "62def6cdb597bd5a5398f201aae4c64a", "fusion_lat": 0.0, "lon": -77.07482666666667, "type": "electric_scooter", "fusion_lon": 0.0, "lat": 38.923097}, {"rental_uris": {"android": "https://dc.lft.to/lastmile_qr_scan", "ios": "https://dc.lft.to/lastmile_qr_scan"}, "is_reserved": 0, "is_disabled": 0, "name": "d0d7b968b4288a9880c3c0a8954fcf78", "bike_id": "d0d7b968b4288a9880c3c0a8954fcf78", "fusion_lat": 0.0, "lon": -77.00346616666667, "type": "electric_scooter", "fusion_lon": 0.0, "lat": 38.89466616666667}, {"rental_uris": {"android": "https://dc.lft.to/lastmile_qr_scan", "ios": "https://dc.lft.to/lastmile_qr_scan"}, "is_reserved": 0, "is_disabled": 0, "name": "0125297e90beb47d2e2512d4b38efdd4", "bike_id": "0125297e90beb47d2e2512d4b38efdd4", "fusion_lat": 0.0, "lon": -77.01721183333333, "type": "electric_scooter", "fusion_lon": 0.0, "lat": 38.97485966666667}, {"rental_uris": {"android": "https://dc.lft.to/lastmile_qr_scan", "ios": "https://dc.lft.to/lastmile_qr_scan"}, "is_reserved": 0, "is_disabled": 0, "name": "7b3d718935240871c121d0e19ca41e6c", "bike_id": "7b3d718935240871c121d0e19ca41e6c", "fusion_lat": 0.0, "lon": -77.048881, "type": "electric_scooter", "fusion_lon": 0.0, "lat": 38.900963}, {"rental_uris": {"android": "https://dc.lft.to/lastmile_qr_scan", "ios": "https://dc.lft.to/lastmile_qr_scan"}, "is_reserved": 0, "is_disabled": 0, "name": "0804022454320b96a6ec32aae0fce946", "bike_id": "0804022454320b96a6ec32aae0fce946", "fusion_lat": 0.0, "lon": -77.03189383333333, "type": "electric_scooter", "fusion_lon": 0.0, "lat": 38.897827166666666}, {"rental_uris": {"android": "https://dc.lft.to/lastmile_qr_scan", "ios": "https://dc.lft.to/lastmile_qr_scan"}, "is_reserved": 0, "is_disabled": 0, "name": "12241ca14002e4e0884d3005efa2e92b", "bike_id": "12241ca14002e4e0884d3005efa2e92b", "fusion_lat": 0.0, "lon": -77.036683, "type": "electric_scooter", "fusion_lon": 0.0, "lat": 38.92271683333333}, {"rental_uris": {"android": "https://dc.lft.to/lastmile_qr_scan", "ios": "https://dc.lft.to/lastmile_qr_scan"}, "is_reserved": 0, "is_disabled": 0, "name": "bd20643f643013d2397ad43c78190220", "bike_id": "bd20643f643013d2397ad43c78190220", "fusion_lat": 0.0, "lon": -77.0269475, "type": "electric_scooter", "fusion_lon": 0.0, "lat": 38.91672283333333}, {"rental_uris": {"android": "https://dc.lft.to/lastmile_qr_scan", "ios": "https://dc.lft.to/lastmile_qr_scan"}, "is_reserved": 0, "is_disabled": 0, "name": "7e17f6028995c997fa3173574cd7464a", "bike_id": "7e17f6028995c997fa3173574cd7464a", "fusion_lat": 0.0, "lon": -77.03614033333334, "type": "electric_scooter", "fusion_lon": 0.0, "lat": 38.92333566666667}, {"rental_uris": {"android": "https://dc.lft.to/lastmile_qr_scan", "ios": "https://dc.lft.to/lastmile_qr_scan"}, "is_reserved": 0, "is_disabled": 0, "name": "4afa2390da3d639eb642529dffb9725c", "bike_id": "4afa2390da3d639eb642529dffb9725c", "fusion_lat": 0.0, "lon": -77.02972016666666, "type": "electric_scooter", "fusion_lon": 0.0, "lat": 38.918809833333334}, {"rental_uris": {"android": "https://dc.lft.to/lastmile_qr_scan", "ios": "https://dc.lft.to/lastmile_qr_scan"}, "is_reserved": 0, "is_disabled": 0, "name": "64275dd34fc2e7e589e9b6670326d9bb", "bike_id": "64275dd34fc2e7e589e9b6670326d9bb", "fusion_lat": 0.0, "lon": -77.024128, "type": "electric_scooter", "fusion_lon": 0.0, "lat": 38.8963605}, {"rental_uris": {"android": "https://dc.lft.to/lastmile_qr_scan", "ios": "https://dc.lft.to/lastmile_qr_scan"}, "is_reserved": 0, "is_disabled": 0, "name": "f4576e69083cd7cd8c1ff0dfe3b9ad77", "bike_id": "f4576e69083cd7cd8c1ff0dfe3b9ad77", "fusion_lat": 0.0, "lon": -77.02419966666666, "type": "electric_scooter", "fusion_lon": 0.0, "lat": 38.926514833333336}, {"rental_uris": {"android": "https://dc.lft.to/lastmile_qr_scan", "ios": "https://dc.lft.to/lastmile_qr_scan"}, "is_reserved": 0, "is_disabled": 0, "name": "671376940872598b3a887d012c219b14", "bike_id": "671376940872598b3a887d012c219b14", "fusion_lat": 0.0, "lon": -77.0366465, "type": "electric_bike", "fusion_lon": 0.0, "lat": 38.9095355}, {"rental_uris": {"android": "https://dc.lft.to/lastmile_qr_scan", "ios": "https://dc.lft.to/lastmile_qr_scan"}, "is_reserved": 0, "is_disabled": 0, "name": "7224aa40d7aea4dd9f2ccf64818d45ea", "bike_id": "7224aa40d7aea4dd9f2ccf64818d45ea", "fusion_lat": 0.0, "lon": -77.03163483333333, "type": "electric_scooter", "fusion_lon": 0.0, "lat": 38.89217433333334}, {"rental_uris": {"android": "https://dc.lft.to/lastmile_qr_scan", "ios": "https://dc.lft.to/lastmile_qr_scan"}, "is_reserved": 0, "is_disabled": 0, "name": "a45554af91f01cdaec72c04d47773cd1", "bike_id": "a45554af91f01cdaec72c04d47773cd1", "fusion_lat": 0.0, "lon": -77.0221505, "type": "electric_scooter", "fusion_lon": 0.0, "lat": 38.89981133333333}, {"rental_uris": {"android": "https://dc.lft.to/lastmile_qr_scan", "ios": "https://dc.lft.to/lastmile_qr_scan"}, "is_reserved": 0, "is_disabled": 0, "name": "f9da835f31e5602005d5fce44553209e", "bike_id": "f9da835f31e5602005d5fce44553209e", "fusion_lat": 0.0, "lon": -77.04479733333334, "type": "electric_scooter", "fusion_lon": 0.0, "lat": 38.91114783333333}, {"rental_uris": {"android": "https://dc.lft.to/lastmile_qr_scan", "ios": "https://dc.lft.to/lastmile_qr_scan"}, "is_reserved": 0, "is_disabled": 0, "name": "07e4743a217edbffdc66a60ec2a0aa29", "bike_id": "07e4743a217edbffdc66a60ec2a0aa29", "fusion_lat": 0.0, "lon": -76.954487, "type": "electric_scooter", "fusion_lon": 0.0, "lat": 38.88390716666667}, {"rental_uris": {"android": "https://dc.lft.to/lastmile_qr_scan", "ios": "https://dc.lft.to/lastmile_qr_scan"}, "is_reserved": 0, "is_disabled": 0, "name": "bea234c4aacf5452290df0d9a87e664e", "bike_id": "bea234c4aacf5452290df0d9a87e664e", "fusion_lat": 0.0, "lon": -76.98702316666666, "type": "electric_scooter", "fusion_lon": 0.0, "lat": 38.85962933333333}, {"rental_uris": {"android": "https://dc.lft.to/lastmile_qr_scan", "ios": "https://dc.lft.to/lastmile_qr_scan"}, "is_reserved": 0, "is_disabled": 0, "name": "be800308b020ae0117618c0930407419", "bike_id": "be800308b020ae0117618c0930407419", "fusion_lat": 0.0, "lon": -77.04702616666667, "type": "electric_bike", "fusion_lon": 0.0, "lat": 38.916678}, {"rental_uris": {"android": "https://dc.lft.to/lastmile_qr_scan", "ios": "https://dc.lft.to/lastmile_qr_scan"}, "is_reserved": 0, "is_disabled": 0, "name": "d73066deaff1f5fb99ca1b35f6a5306b", "bike_id": "d73066deaff1f5fb99ca1b35f6a5306b", "fusion_lat": 0.0, "lon": -77.02833233333334, "type": "electric_scooter", "fusion_lon": 0.0, "lat": 38.93276183333333}, {"rental_uris": {"android": "https://dc.lft.to/lastmile_qr_scan", "ios": "https://dc.lft.to/lastmile_qr_scan"}, "is_reserved": 0, "is_disabled": 0, "name": "5724b48a4e3c4aa636e6acf1fcae9afc", "bike_id": "5724b48a4e3c4aa636e6acf1fcae9afc", "fusion_lat": 0.0, "lon": -77.0020345, "type": "electric_scooter", "fusion_lon": 0.0, "lat": 38.902378}, {"rental_uris": {"android": "https://dc.lft.to/lastmile_qr_scan", "ios": "https://dc.lft.to/lastmile_qr_scan"}, "is_reserved": 0, "is_disabled": 0, "name": "4d8b274bc9c63e39d237820663643a98", "bike_id": "4d8b274bc9c63e39d237820663643a98", "fusion_lat": 0.0, "lon": -77.03540233333334, "type": "electric_scooter", "fusion_lon": 0.0, "lat": 38.9234745}, {"rental_uris": {"android": "https://dc.lft.to/lastmile_qr_scan", "ios": "https://dc.lft.to/lastmile_qr_scan"}, "is_reserved": 0, "is_disabled": 0, "name": "ddf86b1f512cea592021108a16541bd1", "bike_id": "ddf86b1f512cea592021108a16541bd1", "fusion_lat": 0.0, "lon": -77.0184585, "type": "electric_scooter", "fusion_lon": 0.0, "lat": 38.90960533333333}, {"rental_uris": {"android": "https://dc.lft.to/lastmile_qr_scan", "ios": "https://dc.lft.to/lastmile_qr_scan"}, "is_reserved": 0, "is_disabled": 0, "name": "be10507b097bae57ea595a8eb6c837b1", "bike_id": "be10507b097bae57ea595a8eb6c837b1", "fusion_lat": 0.0, "lon": -77.03612883333334, "type": "electric_scooter", "fusion_lon": 0.0, "lat": 38.937435}, {"rental_uris": {"android": "https://dc.lft.to/lastmile_qr_scan", "ios": "https://dc.lft.to/lastmile_qr_scan"}, "is_reserved": 0, "is_disabled": 0, "name": "997ba70cca8521622d6b784c0c178e2f", "bike_id": "997ba70cca8521622d6b784c0c178e2f", "fusion_lat": 0.0, "lon": -77.02722383333334, "type": "electric_scooter", "fusion_lon": 0.0, "lat": 38.90669316666666}, {"rental_uris": {"android": "https://dc.lft.to/lastmile_qr_scan", "ios": "https://dc.lft.to/lastmile_qr_scan"}, "is_reserved": 0, "is_disabled": 0, "name": "ddba4cce86185870dcaa47d649dbd41a", "bike_id": "ddba4cce86185870dcaa47d649dbd41a", "fusion_lat": 0.0, "lon": -77.0281285, "type": "electric_scooter", "fusion_lon": 0.0, "lat": 38.881794166666666}, {"rental_uris": {"android": "https://dc.lft.to/lastmile_qr_scan", "ios": "https://dc.lft.to/lastmile_qr_scan"}, "is_reserved": 0, "is_disabled": 0, "name": "744871200e263517b5d2f06f6b283f4f", "bike_id": "744871200e263517b5d2f06f6b283f4f", "fusion_lat": 0.0, "lon": -77.00454483333333, "type": "electric_scooter", "fusion_lon": 0.0, "lat": 38.9114835}, {"rental_uris": {"android": "https://dc.lft.to/lastmile_qr_scan", "ios": "https://dc.lft.to/lastmile_qr_scan"}, "is_reserved": 0, "is_disabled": 0, "name": "974bd3a59a1b1aa4a0850d37a9075071", "bike_id": "974bd3a59a1b1aa4a0850d37a9075071", "fusion_lat": 0.0, "lon": -77.0404675, "type": "electric_scooter", "fusion_lon": 0.0, "lat": 38.90154016666666}, {"rental_uris": {"android": "https://dc.lft.to/lastmile_qr_scan", "ios": "https://dc.lft.to/lastmile_qr_scan"}, "is_reserved": 0, "is_disabled": 0, "name": "3e926273e90c3658dfe1c8c4237934eb", "bike_id": "3e926273e90c3658dfe1c8c4237934eb", "fusion_lat": 0.0, "lon": -77.08535816666667, "type": "electric_bike", "fusion_lon": 0.0, "lat": 38.856685666666664}, {"rental_uris": {"android": "https://dc.lft.to/lastmile_qr_scan", "ios": "https://dc.lft.to/lastmile_qr_scan"}, "is_reserved": 0, "is_disabled": 0, "name": "db95e8adbe0434407abfdd92e8c8f873", "bike_id": "db95e8adbe0434407abfdd92e8c8f873", "fusion_lat": 0.0, "lon": -77.03444633333334, "type": "electric_scooter", "fusion_lon": 0.0, "lat": 38.9222435}, {"rental_uris": {"android": "https://dc.lft.to/lastmile_qr_scan", "ios": "https://dc.lft.to/lastmile_qr_scan"}, "is_reserved": 0, "is_disabled": 0, "name": "64c96ebfe955b9af017fa9a447a8ab2f", "bike_id": "64c96ebfe955b9af017fa9a447a8ab2f", "fusion_lat": 0.0, "lon": -77.03247083333333, "type": "electric_scooter", "fusion_lon": 0.0, "lat": 38.91718083333333}, {"rental_uris": {"android": "https://dc.lft.to/lastmile_qr_scan", "ios": "https://dc.lft.to/lastmile_qr_scan"}, "is_reserved": 0, "is_disabled": 0, "name": "f25fa384916e53c1621ae56aac89d53c", "bike_id": "f25fa384916e53c1621ae56aac89d53c", "fusion_lat": 0.0, "lon": -77.03085016666667, "type": "electric_scooter", "fusion_lon": 0.0, "lat": 38.90000533333333}, {"rental_uris": {"android": "https://dc.lft.to/lastmile_qr_scan", "ios": "https://dc.lft.to/lastmile_qr_scan"}, "is_reserved": 0, "is_disabled": 0, "name": "067113571ae17152a7d2a051dd59dd96", "bike_id": "067113571ae17152a7d2a051dd59dd96", "fusion_lat": 0.0, "lon": -77.00222233333334, "type": "electric_scooter", "fusion_lon": 0.0, "lat": 38.90026783333333}, {"rental_uris": {"android": "https://dc.lft.to/lastmile_qr_scan", "ios": "https://dc.lft.to/lastmile_qr_scan"}, "is_reserved": 0, "is_disabled": 0, "name": "8b3a0f8c67916e79ad4416981dfd969f", "bike_id": "8b3a0f8c67916e79ad4416981dfd969f", "fusion_lat": 0.0, "lon": -77.00160066666666, "type": "electric_scooter", "fusion_lon": 0.0, "lat": 38.90780933333333}, {"rental_uris": {"android": "https://dc.lft.to/lastmile_qr_scan", "ios": "https://dc.lft.to/lastmile_qr_scan"}, "is_reserved": 0, "is_disabled": 0, "name": "ae78e60e00cfc2049cbd3707762b4af0", "bike_id": "ae78e60e00cfc2049cbd3707762b4af0", "fusion_lat": 0.0, "lon": -76.9734155, "type": "electric_bike", "fusion_lon": 0.0, "lat": 38.86521833333333}, {"rental_uris": {"android": "https://dc.lft.to/lastmile_qr_scan", "ios": "https://dc.lft.to/lastmile_qr_scan"}, "is_reserved": 0, "is_disabled": 0, "name": "c83e6e44f59939cd5ce51ae134147d96", "bike_id": "c83e6e44f59939cd5ce51ae134147d96", "fusion_lat": 0.0, "lon": -77.0144465, "type": "electric_scooter", "fusion_lon": 0.0, "lat": 38.917729333333334}, {"rental_uris": {"android": "https://dc.lft.to/lastmile_qr_scan", "ios": "https://dc.lft.to/lastmile_qr_scan"}, "is_reserved": 0, "is_disabled": 0, "name": "4d1ddb6f0a90029f1e8b00753b779e26", "bike_id": "4d1ddb6f0a90029f1e8b00753b779e26", "fusion_lat": 0.0, "lon": -77.04328883333334, "type": "electric_scooter", "fusion_lon": 0.0, "lat": 38.89223716666667}, {"rental_uris": {"android": "https://dc.lft.to/lastmile_qr_scan", "ios": "https://dc.lft.to/lastmile_qr_scan"}, "is_reserved": 0, "is_disabled": 0, "name": "99c44084976c864a402a4576f93add2b", "bike_id": "99c44084976c864a402a4576f93add2b", "fusion_lat": 0.0, "lon": -77.02168816666666, "type": "electric_scooter", "fusion_lon": 0.0, "lat": 38.924937666666665}, {"rental_uris": {"android": "https://dc.lft.to/lastmile_qr_scan", "ios": "https://dc.lft.to/lastmile_qr_scan"}, "is_reserved": 0, "is_disabled": 0, "name": "d39380a7ec2997ee342529bdaf37bbd1", "bike_id": "d39380a7ec2997ee342529bdaf37bbd1", "fusion_lat": 0.0, "lon": -77.02813633333334, "type": "electric_scooter", "fusion_lon": 0.0, "lat": 38.910398666666666}, {"rental_uris": {"android": "https://dc.lft.to/lastmile_qr_scan", "ios": "https://dc.lft.to/lastmile_qr_scan"}, "is_reserved": 0, "is_disabled": 0, "name": "bd350fa78dd10f71622aed589c88437a", "bike_id": "bd350fa78dd10f71622aed589c88437a", "fusion_lat": 0.0, "lon": -76.98839883333333, "type": "electric_scooter", "fusion_lon": 0.0, "lat": 38.900399}, {"rental_uris": {"android": "https://dc.lft.to/lastmile_qr_scan", "ios": "https://dc.lft.to/lastmile_qr_scan"}, "is_reserved": 0, "is_disabled": 0, "name": "9a348a49f833b09b7d35bd421e8bc169", "bike_id": "9a348a49f833b09b7d35bd421e8bc169", "fusion_lat": 0.0, "lon": -77.0432025, "type": "electric_bike", "fusion_lon": 0.0, "lat": 39.03422233333333}, {"rental_uris": {"android": "https://dc.lft.to/lastmile_qr_scan", "ios": "https://dc.lft.to/lastmile_qr_scan"}, "is_reserved": 0, "is_disabled": 0, "name": "edbe5e091d10ef76f24621e852b41fcc", "bike_id": "edbe5e091d10ef76f24621e852b41fcc", "fusion_lat": 0.0, "lon": -77.01861516666666, "type": "electric_scooter", "fusion_lon": 0.0, "lat": 38.929205}, {"rental_uris": {"android": "https://dc.lft.to/lastmile_qr_scan", "ios": "https://dc.lft.to/lastmile_qr_scan"}, "is_reserved": 0, "is_disabled": 0, "name": "1b710e841826338c7e73f8fd1227cd04", "bike_id": "1b710e841826338c7e73f8fd1227cd04", "fusion_lat": 0.0, "lon": -77.013519, "type": "electric_scooter", "fusion_lon": 0.0, "lat": 38.92861666666667}, {"rental_uris": {"android": "https://dc.lft.to/lastmile_qr_scan", "ios": "https://dc.lft.to/lastmile_qr_scan"}, "is_reserved": 0, "is_disabled": 0, "name": "320ddb511a8e8b561a412e1eca60de93", "bike_id": "320ddb511a8e8b561a412e1eca60de93", "fusion_lat": 0.0, "lon": -77.05278033333333, "type": "electric_scooter", "fusion_lon": 0.0, "lat": 38.910044166666665}, {"rental_uris": {"android": "https://dc.lft.to/lastmile_qr_scan", "ios": "https://dc.lft.to/lastmile_qr_scan"}, "is_reserved": 0, "is_disabled": 0, "name": "9fd500ce6ea7b5b82c1e20595ede47cf", "bike_id": "9fd500ce6ea7b5b82c1e20595ede47cf", "fusion_lat": 0.0, "lon": -76.97305483333334, "type": "electric_scooter", "fusion_lon": 0.0, "lat": 38.91986816666667}, {"rental_uris": {"android": "https://dc.lft.to/lastmile_qr_scan", "ios": "https://dc.lft.to/lastmile_qr_scan"}, "is_reserved": 0, "is_disabled": 0, "name": "4c7af37c45362a9ad65968dfdb67a26d", "bike_id": "4c7af37c45362a9ad65968dfdb67a26d", "fusion_lat": 0.0, "lon": -77.02487783333333, "type": "electric_scooter", "fusion_lon": 0.0, "lat": 38.920702666666664}, {"rental_uris": {"android": "https://dc.lft.to/lastmile_qr_scan", "ios": "https://dc.lft.to/lastmile_qr_scan"}, "is_reserved": 0, "is_disabled": 0, "name": "69823c67227188b64d7ee6ee4338e599", "bike_id": "69823c67227188b64d7ee6ee4338e599", "fusion_lat": 0.0, "lon": -77.03639316666667, "type": "electric_scooter", "fusion_lon": 0.0, "lat": 38.91340833333334}, {"rental_uris": {"android": "https://dc.lft.to/lastmile_qr_scan", "ios": "https://dc.lft.to/lastmile_qr_scan"}, "is_reserved": 0, "is_disabled": 0, "name": "1f1e4bbcfe2f0001b878561149e1df1d", "bike_id": "1f1e4bbcfe2f0001b878561149e1df1d", "fusion_lat": 0.0, "lon": -77.01765116666667, "type": "electric_scooter", "fusion_lon": 0.0, "lat": 38.876859}, {"rental_uris": {"android": "https://dc.lft.to/lastmile_qr_scan", "ios": "https://dc.lft.to/lastmile_qr_scan"}, "is_reserved": 0, "is_disabled": 0, "name": "6343e6fad47f892ecf7ec317e0f81c89", "bike_id": "6343e6fad47f892ecf7ec317e0f81c89", "fusion_lat": 0.0, "lon": -77.00364783333333, "type": "electric_scooter", "fusion_lon": 0.0, "lat": 38.91552933333333}, {"rental_uris": {"android": "https://dc.lft.to/lastmile_qr_scan", "ios": "https://dc.lft.to/lastmile_qr_scan"}, "is_reserved": 0, "is_disabled": 0, "name": "88e5396897ab559e6db5aa277fb09ad9", "bike_id": "88e5396897ab559e6db5aa277fb09ad9", "fusion_lat": 0.0, "lon": -76.990731, "type": "electric_bike", "fusion_lon": 0.0, "lat": 38.94261933333333}, {"rental_uris": {"android": "https://dc.lft.to/lastmile_qr_scan", "ios": "https://dc.lft.to/lastmile_qr_scan"}, "is_reserved": 0, "is_disabled": 0, "name": "703eef49e5cc950d07e627140153e9cf", "bike_id": "703eef49e5cc950d07e627140153e9cf", "fusion_lat": 0.0, "lon": -77.0397225, "type": "electric_scooter", "fusion_lon": 0.0, "lat": 38.901552}, {"rental_uris": {"android": "https://dc.lft.to/lastmile_qr_scan", "ios": "https://dc.lft.to/lastmile_qr_scan"}, "is_reserved": 0, "is_disabled": 0, "name": "40b4e61ad6f6f174cf75d3155e1f27da", "bike_id": "40b4e61ad6f6f174cf75d3155e1f27da", "fusion_lat": 0.0, "lon": -77.0481665, "type": "electric_scooter", "fusion_lon": 0.0, "lat": 38.91053483333334}, {"rental_uris": {"android": "https://dc.lft.to/lastmile_qr_scan", "ios": "https://dc.lft.to/lastmile_qr_scan"}, "is_reserved": 0, "is_disabled": 0, "name": "64e5dcd6227476178d6568c4921015b8", "bike_id": "64e5dcd6227476178d6568c4921015b8", "fusion_lat": 0.0, "lon": -77.0063085, "type": "electric_scooter", "fusion_lon": 0.0, "lat": 38.871750666666664}, {"rental_uris": {"android": "https://dc.lft.to/lastmile_qr_scan", "ios": "https://dc.lft.to/lastmile_qr_scan"}, "is_reserved": 0, "is_disabled": 0, "name": "070a0a9b540287a9a170738ddf1646db", "bike_id": "070a0a9b540287a9a170738ddf1646db", "fusion_lat": 0.0, "lon": -77.02187366666666, "type": "electric_scooter", "fusion_lon": 0.0, "lat": 38.9199075}, {"rental_uris": {"android": "https://dc.lft.to/lastmile_qr_scan", "ios": "https://dc.lft.to/lastmile_qr_scan"}, "is_reserved": 0, "is_disabled": 0, "name": "01c7e9e03f38d2cfc732286e9153e6d8", "bike_id": "01c7e9e03f38d2cfc732286e9153e6d8", "fusion_lat": 0.0, "lon": -77.0745175, "type": "electric_scooter", "fusion_lon": 0.0, "lat": 38.937828833333334}, {"rental_uris": {"android": "https://dc.lft.to/lastmile_qr_scan", "ios": "https://dc.lft.to/lastmile_qr_scan"}, "is_reserved": 0, "is_disabled": 0, "name": "b25388a4d750db61841bd45a75370cfc", "bike_id": "b25388a4d750db61841bd45a75370cfc", "fusion_lat": 0.0, "lon": -77.0245255, "type": "electric_scooter", "fusion_lon": 0.0, "lat": 38.93820266666667}, {"rental_uris": {"android": "https://dc.lft.to/lastmile_qr_scan", "ios": "https://dc.lft.to/lastmile_qr_scan"}, "is_reserved": 0, "is_disabled": 0, "name": "28cf1bd6f71a9fab9ec28ee9feb97f16", "bike_id": "28cf1bd6f71a9fab9ec28ee9feb97f16", "fusion_lat": 0.0, "lon": -77.01956233333334, "type": "electric_scooter", "fusion_lon": 0.0, "lat": 38.9233025}, {"rental_uris": {"android": "https://dc.lft.to/lastmile_qr_scan", "ios": "https://dc.lft.to/lastmile_qr_scan"}, "is_reserved": 0, "is_disabled": 0, "name": "baed0c871625f82e53cdcfe9ede168be", "bike_id": "baed0c871625f82e53cdcfe9ede168be", "fusion_lat": 0.0, "lon": -77.04336333333333, "type": "electric_scooter", "fusion_lon": 0.0, "lat": 38.9231905}, {"rental_uris": {"android": "https://dc.lft.to/lastmile_qr_scan", "ios": "https://dc.lft.to/lastmile_qr_scan"}, "is_reserved": 0, "is_disabled": 0, "name": "67949328cbf40f871127376e3e839ae6", "bike_id": "67949328cbf40f871127376e3e839ae6", "fusion_lat": 0.0, "lon": -77.02479416666667, "type": "electric_scooter", "fusion_lon": 0.0, "lat": 38.938538666666666}, {"rental_uris": {"android": "https://dc.lft.to/lastmile_qr_scan", "ios": "https://dc.lft.to/lastmile_qr_scan"}, "is_reserved": 0, "is_disabled": 0, "name": "c5ef8b19c1d80bfc381e8d3c3b30b7ac", "bike_id": "c5ef8b19c1d80bfc381e8d3c3b30b7ac", "fusion_lat": 0.0, "lon": -77.0072115, "type": "electric_bike", "fusion_lon": 0.0, "lat": 38.9950585}, {"rental_uris": {"android": "https://dc.lft.to/lastmile_qr_scan", "ios": "https://dc.lft.to/lastmile_qr_scan"}, "is_reserved": 0, "is_disabled": 0, "name": "123e97b07f6f63527eb54e2f18e88bdc", "bike_id": "123e97b07f6f63527eb54e2f18e88bdc", "fusion_lat": 0.0, "lon": -77.0280675, "type": "electric_scooter", "fusion_lon": 0.0, "lat": 38.9167175}, {"rental_uris": {"android": "https://dc.lft.to/lastmile_qr_scan", "ios": "https://dc.lft.to/lastmile_qr_scan"}, "is_reserved": 0, "is_disabled": 0, "name": "198f962531f1175334e113a31682fc7b", "bike_id": "198f962531f1175334e113a31682fc7b", "fusion_lat": 0.0, "lon": -77.0116765, "type": "electric_scooter", "fusion_lon": 0.0, "lat": 38.917104}, {"rental_uris": {"android": "https://dc.lft.to/lastmile_qr_scan", "ios": "https://dc.lft.to/lastmile_qr_scan"}, "is_reserved": 0, "is_disabled": 0, "name": "c61d9fe13caa6c36cb8660618208838c", "bike_id": "c61d9fe13caa6c36cb8660618208838c", "fusion_lat": 0.0, "lon": -76.99858116666667, "type": "electric_scooter", "fusion_lon": 0.0, "lat": 38.891896333333335}, {"rental_uris": {"android": "https://dc.lft.to/lastmile_qr_scan", "ios": "https://dc.lft.to/lastmile_qr_scan"}, "is_reserved": 0, "is_disabled": 0, "name": "34bebc4c69e12923f2ea5a87542afba2", "bike_id": "34bebc4c69e12923f2ea5a87542afba2", "fusion_lat": 0.0, "lon": -77.03263666666666, "type": "electric_scooter", "fusion_lon": 0.0, "lat": 38.9352305}, {"rental_uris": {"android": "https://dc.lft.to/lastmile_qr_scan", "ios": "https://dc.lft.to/lastmile_qr_scan"}, "is_reserved": 0, "is_disabled": 0, "name": "ea5a70ebcc47da4816101b4ac245c567", "bike_id": "ea5a70ebcc47da4816101b4ac245c567", "fusion_lat": 0.0, "lon": -77.03800716666667, "type": "electric_bike", "fusion_lon": 0.0, "lat": 38.99673933333333}, {"rental_uris": {"android": "https://dc.lft.to/lastmile_qr_scan", "ios": "https://dc.lft.to/lastmile_qr_scan"}, "is_reserved": 0, "is_disabled": 0, "name": "b75882dafd02494bcbf483d7d930ea4a", "bike_id": "b75882dafd02494bcbf483d7d930ea4a", "fusion_lat": 0.0, "lon": -77.052729, "type": "electric_bike", "fusion_lon": 0.0, "lat": 38.94086383333333}, {"rental_uris": {"android": "https://dc.lft.to/lastmile_qr_scan", "ios": "https://dc.lft.to/lastmile_qr_scan"}, "is_reserved": 0, "is_disabled": 0, "name": "5780f22115ee4ecb40a79c4acfcb6d22", "bike_id": "5780f22115ee4ecb40a79c4acfcb6d22", "fusion_lat": 0.0, "lon": -77.05206833333334, "type": "electric_scooter", "fusion_lon": 0.0, "lat": 38.92488983333333}, {"rental_uris": {"android": "https://dc.lft.to/lastmile_qr_scan", "ios": "https://dc.lft.to/lastmile_qr_scan"}, "is_reserved": 0, "is_disabled": 0, "name": "b7bdf30139d27c12c149269c4f3bb2dc", "bike_id": "b7bdf30139d27c12c149269c4f3bb2dc", "fusion_lat": 0.0, "lon": -77.0325405, "type": "electric_scooter", "fusion_lon": 0.0, "lat": 38.897474333333335}, {"rental_uris": {"android": "https://dc.lft.to/lastmile_qr_scan", "ios": "https://dc.lft.to/lastmile_qr_scan"}, "is_reserved": 0, "is_disabled": 0, "name": "eb60eb4221e328eb2941c0ca31f8ca3a", "bike_id": "eb60eb4221e328eb2941c0ca31f8ca3a", "fusion_lat": 0.0, "lon": -77.01096333333334, "type": "electric_scooter", "fusion_lon": 0.0, "lat": 38.89516883333334}, {"rental_uris": {"android": "https://dc.lft.to/lastmile_qr_scan", "ios": "https://dc.lft.to/lastmile_qr_scan"}, "is_reserved": 0, "is_disabled": 0, "name": "cc7235c065818163d4284fc2efefad61", "bike_id": "cc7235c065818163d4284fc2efefad61", "fusion_lat": 0.0, "lon": -77.08025466666666, "type": "electric_bike", "fusion_lon": 0.0, "lat": 38.957708}, {"rental_uris": {"android": "https://dc.lft.to/lastmile_qr_scan", "ios": "https://dc.lft.to/lastmile_qr_scan"}, "is_reserved": 0, "is_disabled": 0, "name": "c9097f91df19743233e88c55c84bd3ed", "bike_id": "c9097f91df19743233e88c55c84bd3ed", "fusion_lat": 0.0, "lon": -76.98692216666667, "type": "electric_bike", "fusion_lon": 0.0, "lat": 38.944624833333336}, {"rental_uris": {"android": "https://dc.lft.to/lastmile_qr_scan", "ios": "https://dc.lft.to/lastmile_qr_scan"}, "is_reserved": 0, "is_disabled": 0, "name": "566a97edeebf43bddf36f34a9d74b446", "bike_id": "566a97edeebf43bddf36f34a9d74b446", "fusion_lat": 0.0, "lon": -77.09830766666667, "type": "electric_bike", "fusion_lon": 0.0, "lat": 38.850183666666666}, {"rental_uris": {"android": "https://dc.lft.to/lastmile_qr_scan", "ios": "https://dc.lft.to/lastmile_qr_scan"}, "is_reserved": 0, "is_disabled": 0, "name": "68170e9665de38198b45348208d1ad0c", "bike_id": "68170e9665de38198b45348208d1ad0c", "fusion_lat": 0.0, "lon": -77.05116166666667, "type": "electric_scooter", "fusion_lon": 0.0, "lat": 38.923432}, {"rental_uris": {"android": "https://dc.lft.to/lastmile_qr_scan", "ios": "https://dc.lft.to/lastmile_qr_scan"}, "is_reserved": 0, "is_disabled": 0, "name": "556e5b1cf148c7116e869f1c6d90f9be", "bike_id": "556e5b1cf148c7116e869f1c6d90f9be", "fusion_lat": 0.0, "lon": -77.0331775, "type": "electric_scooter", "fusion_lon": 0.0, "lat": 38.921556}, {"rental_uris": {"android": "https://dc.lft.to/lastmile_qr_scan", "ios": "https://dc.lft.to/lastmile_qr_scan"}, "is_reserved": 0, "is_disabled": 0, "name": "dc3dcd7d6805ef8ebd615ac02d3a0585", "bike_id": "dc3dcd7d6805ef8ebd615ac02d3a0585", "fusion_lat": 0.0, "lon": -77.033814, "type": "electric_scooter", "fusion_lon": 0.0, "lat": 38.921486333333334}, {"rental_uris": {"android": "https://dc.lft.to/lastmile_qr_scan", "ios": "https://dc.lft.to/lastmile_qr_scan"}, "is_reserved": 0, "is_disabled": 0, "name": "1f095c3fddabefd07567c48bc80faa14", "bike_id": "1f095c3fddabefd07567c48bc80faa14", "fusion_lat": 0.0, "lon": -77.04285183333333, "type": "electric_scooter", "fusion_lon": 0.0, "lat": 38.917931833333334}, {"rental_uris": {"android": "https://dc.lft.to/lastmile_qr_scan", "ios": "https://dc.lft.to/lastmile_qr_scan"}, "is_reserved": 0, "is_disabled": 0, "name": "dcde57b01ab40984f9875bf18c3ee156", "bike_id": "dcde57b01ab40984f9875bf18c3ee156", "fusion_lat": 0.0, "lon": -77.0453375, "type": "electric_scooter", "fusion_lon": 0.0, "lat": 38.899580666666665}, {"rental_uris": {"android": "https://dc.lft.to/lastmile_qr_scan", "ios": "https://dc.lft.to/lastmile_qr_scan"}, "is_reserved": 0, "is_disabled": 0, "name": "ecac17a9e5606e5030d597482e333de6", "bike_id": "ecac17a9e5606e5030d597482e333de6", "fusion_lat": 0.0, "lon": -77.0040935, "type": "electric_bike", "fusion_lon": 0.0, "lat": 38.985430666666666}, {"rental_uris": {"android": "https://dc.lft.to/lastmile_qr_scan", "ios": "https://dc.lft.to/lastmile_qr_scan"}, "is_reserved": 0, "is_disabled": 0, "name": "297d946be9baba2da9aafe806b10d7ee", "bike_id": "297d946be9baba2da9aafe806b10d7ee", "fusion_lat": 0.0, "lon": -76.99097366666666, "type": "electric_bike", "fusion_lon": 0.0, "lat": 38.804799333333335}, {"rental_uris": {"android": "https://dc.lft.to/lastmile_qr_scan", "ios": "https://dc.lft.to/lastmile_qr_scan"}, "is_reserved": 0, "is_disabled": 0, "name": "e75e153a28b007e2b4c31ecfc3b3d528", "bike_id": "e75e153a28b007e2b4c31ecfc3b3d528", "fusion_lat": 0.0, "lon": -76.9320865, "type": "electric_scooter", "fusion_lon": 0.0, "lat": 38.89667983333333}, {"rental_uris": {"android": "https://dc.lft.to/lastmile_qr_scan", "ios": "https://dc.lft.to/lastmile_qr_scan"}, "is_reserved": 0, "is_disabled": 0, "name": "09b0233c80020c059ba1a30cd61aa796", "bike_id": "09b0233c80020c059ba1a30cd61aa796", "fusion_lat": 0.0, "lon": -76.98636733333333, "type": "electric_scooter", "fusion_lon": 0.0, "lat": 38.8803885}, {"rental_uris": {"android": "https://dc.lft.to/lastmile_qr_scan", "ios": "https://dc.lft.to/lastmile_qr_scan"}, "is_reserved": 0, "is_disabled": 0, "name": "4b9d7649449522fafbe4b776fdaea4ad", "bike_id": "4b9d7649449522fafbe4b776fdaea4ad", "fusion_lat": 0.0, "lon": -77.02788283333334, "type": "electric_scooter", "fusion_lon": 0.0, "lat": 38.96218233333333}, {"rental_uris": {"android": "https://dc.lft.to/lastmile_qr_scan", "ios": "https://dc.lft.to/lastmile_qr_scan"}, "is_reserved": 0, "is_disabled": 0, "name": "4e8a3f79543ba1f75c614fe32bda6952", "bike_id": "4e8a3f79543ba1f75c614fe32bda6952", "fusion_lat": 0.0, "lon": -77.02601033333333, "type": "electric_scooter", "fusion_lon": 0.0, "lat": 38.925898}, {"rental_uris": {"android": "https://dc.lft.to/lastmile_qr_scan", "ios": "https://dc.lft.to/lastmile_qr_scan"}, "is_reserved": 0, "is_disabled": 0, "name": "d76e54965472b1357c2b8ae20cacd074", "bike_id": "d76e54965472b1357c2b8ae20cacd074", "fusion_lat": 0.0, "lon": -77.08321483333333, "type": "electric_bike", "fusion_lon": 0.0, "lat": 38.933481666666665}, {"rental_uris": {"android": "https://dc.lft.to/lastmile_qr_scan", "ios": "https://dc.lft.to/lastmile_qr_scan"}, "is_reserved": 0, "is_disabled": 0, "name": "f9bec1b4146a285c905f7f3bc6e7d3d6", "bike_id": "f9bec1b4146a285c905f7f3bc6e7d3d6", "fusion_lat": 0.0, "lon": -76.98586866666666, "type": "electric_scooter", "fusion_lon": 0.0, "lat": 38.900293833333336}, {"rental_uris": {"android": "https://dc.lft.to/lastmile_qr_scan", "ios": "https://dc.lft.to/lastmile_qr_scan"}, "is_reserved": 0, "is_disabled": 0, "name": "9d8c2b8fbdad7e83e2e922bc226a27f0", "bike_id": "9d8c2b8fbdad7e83e2e922bc226a27f0", "fusion_lat": 0.0, "lon": -77.03447716666666, "type": "electric_scooter", "fusion_lon": 0.0, "lat": 38.90948516666667}, {"rental_uris": {"android": "https://dc.lft.to/lastmile_qr_scan", "ios": "https://dc.lft.to/lastmile_qr_scan"}, "is_reserved": 0, "is_disabled": 0, "name": "89f37e4bc3fd8edc93e5c4f092da9484", "bike_id": "89f37e4bc3fd8edc93e5c4f092da9484", "fusion_lat": 0.0, "lon": -77.02485883333334, "type": "electric_scooter", "fusion_lon": 0.0, "lat": 38.92064116666667}, {"rental_uris": {"android": "https://dc.lft.to/lastmile_qr_scan", "ios": "https://dc.lft.to/lastmile_qr_scan"}, "is_reserved": 0, "is_disabled": 0, "name": "2f0bc402430e539de4abd6cac9350b39", "bike_id": "2f0bc402430e539de4abd6cac9350b39", "fusion_lat": 0.0, "lon": -77.05597483333334, "type": "electric_scooter", "fusion_lon": 0.0, "lat": 38.89423683333333}, {"rental_uris": {"android": "https://dc.lft.to/lastmile_qr_scan", "ios": "https://dc.lft.to/lastmile_qr_scan"}, "is_reserved": 0, "is_disabled": 0, "name": "8fb78b57c57a6b6919268fde9148e15b", "bike_id": "8fb78b57c57a6b6919268fde9148e15b", "fusion_lat": 0.0, "lon": -77.03461833333333, "type": "electric_scooter", "fusion_lon": 0.0, "lat": 38.9178895}, {"rental_uris": {"android": "https://dc.lft.to/lastmile_qr_scan", "ios": "https://dc.lft.to/lastmile_qr_scan"}, "is_reserved": 0, "is_disabled": 0, "name": "e4809efa10864fcdc53e4935460a8f92", "bike_id": "e4809efa10864fcdc53e4935460a8f92", "fusion_lat": 0.0, "lon": -76.99519383333333, "type": "electric_scooter", "fusion_lon": 0.0, "lat": 38.902580666666665}, {"rental_uris": {"android": "https://dc.lft.to/lastmile_qr_scan", "ios": "https://dc.lft.to/lastmile_qr_scan"}, "is_reserved": 0, "is_disabled": 0, "name": "3a74b0710240b703c3bea88a0f73e7ad", "bike_id": "3a74b0710240b703c3bea88a0f73e7ad", "fusion_lat": 0.0, "lon": -77.01338933333334, "type": "electric_scooter", "fusion_lon": 0.0, "lat": 38.88120966666666}, {"rental_uris": {"android": "https://dc.lft.to/lastmile_qr_scan", "ios": "https://dc.lft.to/lastmile_qr_scan"}, "is_reserved": 0, "is_disabled": 0, "name": "6044ddb2fef26e05938c166a0a3de137", "bike_id": "6044ddb2fef26e05938c166a0a3de137", "fusion_lat": 0.0, "lon": -77.02909133333333, "type": "electric_scooter", "fusion_lon": 0.0, "lat": 38.93292816666667}, {"rental_uris": {"android": "https://dc.lft.to/lastmile_qr_scan", "ios": "https://dc.lft.to/lastmile_qr_scan"}, "is_reserved": 0, "is_disabled": 0, "name": "d05978e0aa7626930bca1d517636b378", "bike_id": "d05978e0aa7626930bca1d517636b378", "fusion_lat": 0.0, "lon": -77.03014033333334, "type": "electric_scooter", "fusion_lon": 0.0, "lat": 38.89516}, {"rental_uris": {"android": "https://dc.lft.to/lastmile_qr_scan", "ios": "https://dc.lft.to/lastmile_qr_scan"}, "is_reserved": 0, "is_disabled": 0, "name": "eccd90f3ef77ea10259bd00508e1dc9a", "bike_id": "eccd90f3ef77ea10259bd00508e1dc9a", "fusion_lat": 0.0, "lon": -77.02139316666667, "type": "electric_scooter", "fusion_lon": 0.0, "lat": 38.89419616666667}, {"rental_uris": {"android": "https://dc.lft.to/lastmile_qr_scan", "ios": "https://dc.lft.to/lastmile_qr_scan"}, "is_reserved": 0, "is_disabled": 0, "name": "f2b79f24feff4f00eadb03f55515ed03", "bike_id": "f2b79f24feff4f00eadb03f55515ed03", "fusion_lat": 0.0, "lon": -77.0303405, "type": "electric_scooter", "fusion_lon": 0.0, "lat": 38.90979816666667}, {"rental_uris": {"android": "https://dc.lft.to/lastmile_qr_scan", "ios": "https://dc.lft.to/lastmile_qr_scan"}, "is_reserved": 0, "is_disabled": 0, "name": "d14044a94a413777637de78b34d2c99c", "bike_id": "d14044a94a413777637de78b34d2c99c", "fusion_lat": 0.0, "lon": -77.0467995, "type": "electric_scooter", "fusion_lon": 0.0, "lat": 38.90250366666667}, {"rental_uris": {"android": "https://dc.lft.to/lastmile_qr_scan", "ios": "https://dc.lft.to/lastmile_qr_scan"}, "is_reserved": 0, "is_disabled": 0, "name": "5a157de469f726e533b381f3e1d5cb82", "bike_id": "5a157de469f726e533b381f3e1d5cb82", "fusion_lat": 0.0, "lon": -77.021083, "type": "electric_scooter", "fusion_lon": 0.0, "lat": 38.90560766666667}, {"rental_uris": {"android": "https://dc.lft.to/lastmile_qr_scan", "ios": "https://dc.lft.to/lastmile_qr_scan"}, "is_reserved": 0, "is_disabled": 0, "name": "4eeba0c7c2c89da1694f9ce1c6bcfcf0", "bike_id": "4eeba0c7c2c89da1694f9ce1c6bcfcf0", "fusion_lat": 0.0, "lon": -77.02262383333333, "type": "electric_scooter", "fusion_lon": 0.0, "lat": 38.893579833333334}, {"rental_uris": {"android": "https://dc.lft.to/lastmile_qr_scan", "ios": "https://dc.lft.to/lastmile_qr_scan"}, "is_reserved": 0, "is_disabled": 0, "name": "a08753bded8e0247d171821290207d3d", "bike_id": "a08753bded8e0247d171821290207d3d", "fusion_lat": 0.0, "lon": -77.04117433333333, "type": "electric_scooter", "fusion_lon": 0.0, "lat": 38.906125833333334}, {"rental_uris": {"android": "https://dc.lft.to/lastmile_qr_scan", "ios": "https://dc.lft.to/lastmile_qr_scan"}, "is_reserved": 0, "is_disabled": 0, "name": "3f683ab58155411d1b599550c6648d3e", "bike_id": "3f683ab58155411d1b599550c6648d3e", "fusion_lat": 0.0, "lon": -77.0252765, "type": "electric_scooter", "fusion_lon": 0.0, "lat": 38.9065205}, {"rental_uris": {"android": "https://dc.lft.to/lastmile_qr_scan", "ios": "https://dc.lft.to/lastmile_qr_scan"}, "is_reserved": 0, "is_disabled": 0, "name": "49a3e8e5c9384adc1765d728ee7a0ae7", "bike_id": "49a3e8e5c9384adc1765d728ee7a0ae7", "fusion_lat": 0.0, "lon": -77.021272, "type": "electric_scooter", "fusion_lon": 0.0, "lat": 38.92373883333333}, {"rental_uris": {"android": "https://dc.lft.to/lastmile_qr_scan", "ios": "https://dc.lft.to/lastmile_qr_scan"}, "is_reserved": 0, "is_disabled": 0, "name": "da6574aac61ab83d88a8d8050cf0a442", "bike_id": "da6574aac61ab83d88a8d8050cf0a442", "fusion_lat": 0.0, "lon": -77.04684233333333, "type": "electric_scooter", "fusion_lon": 0.0, "lat": 38.89959983333333}, {"rental_uris": {"android": "https://dc.lft.to/lastmile_qr_scan", "ios": "https://dc.lft.to/lastmile_qr_scan"}, "is_reserved": 0, "is_disabled": 0, "name": "a92c48d98612cef954ffa86768954d86", "bike_id": "a92c48d98612cef954ffa86768954d86", "fusion_lat": 0.0, "lon": -77.034519, "type": "electric_scooter", "fusion_lon": 0.0, "lat": 38.90810833333333}, {"rental_uris": {"android": "https://dc.lft.to/lastmile_qr_scan", "ios": "https://dc.lft.to/lastmile_qr_scan"}, "is_reserved": 0, "is_disabled": 0, "name": "fbec7acba5f59556768736d47b969791", "bike_id": "fbec7acba5f59556768736d47b969791", "fusion_lat": 0.0, "lon": -77.0402775, "type": "electric_scooter", "fusion_lon": 0.0, "lat": 38.918077833333335}, {"rental_uris": {"android": "https://dc.lft.to/lastmile_qr_scan", "ios": "https://dc.lft.to/lastmile_qr_scan"}, "is_reserved": 0, "is_disabled": 0, "name": "a8afd7337fca276f99a2587cc60001f8", "bike_id": "a8afd7337fca276f99a2587cc60001f8", "fusion_lat": 0.0, "lon": -77.04256366666667, "type": "electric_scooter", "fusion_lon": 0.0, "lat": 38.90934433333334}, {"rental_uris": {"android": "https://dc.lft.to/lastmile_qr_scan", "ios": "https://dc.lft.to/lastmile_qr_scan"}, "is_reserved": 0, "is_disabled": 0, "name": "ee72948a5b585e12871f203eb42cbbd5", "bike_id": "ee72948a5b585e12871f203eb42cbbd5", "fusion_lat": 0.0, "lon": -77.03459033333333, "type": "electric_scooter", "fusion_lon": 0.0, "lat": 38.917927}, {"rental_uris": {"android": "https://dc.lft.to/lastmile_qr_scan", "ios": "https://dc.lft.to/lastmile_qr_scan"}, "is_reserved": 0, "is_disabled": 0, "name": "fe15c0133aa0ef43a08382e1e07ebaf6", "bike_id": "fe15c0133aa0ef43a08382e1e07ebaf6", "fusion_lat": 0.0, "lon": -76.99455166666667, "type": "electric_scooter", "fusion_lon": 0.0, "lat": 38.827711666666666}, {"rental_uris": {"android": "https://dc.lft.to/lastmile_qr_scan", "ios": "https://dc.lft.to/lastmile_qr_scan"}, "is_reserved": 0, "is_disabled": 0, "name": "b61a2eae1d9563488fcdd330e8b98b8d", "bike_id": "b61a2eae1d9563488fcdd330e8b98b8d", "fusion_lat": 0.0, "lon": -77.06915966666666, "type": "electric_scooter", "fusion_lon": 0.0, "lat": 38.91657983333333}, {"rental_uris": {"android": "https://dc.lft.to/lastmile_qr_scan", "ios": "https://dc.lft.to/lastmile_qr_scan"}, "is_reserved": 0, "is_disabled": 0, "name": "d1c8bd21854ac0e60e2c2adeddda6c10", "bike_id": "d1c8bd21854ac0e60e2c2adeddda6c10", "fusion_lat": 0.0, "lon": -77.01876383333334, "type": "electric_scooter", "fusion_lon": 0.0, "lat": 38.9291035}, {"rental_uris": {"android": "https://dc.lft.to/lastmile_qr_scan", "ios": "https://dc.lft.to/lastmile_qr_scan"}, "is_reserved": 0, "is_disabled": 0, "name": "ac7a4b45499ffdb8701fbc47ea0462f1", "bike_id": "ac7a4b45499ffdb8701fbc47ea0462f1", "fusion_lat": 0.0, "lon": -77.02282766666667, "type": "electric_scooter", "fusion_lon": 0.0, "lat": 38.917821833333335}, {"rental_uris": {"android": "https://dc.lft.to/lastmile_qr_scan", "ios": "https://dc.lft.to/lastmile_qr_scan"}, "is_reserved": 0, "is_disabled": 0, "name": "2a8c54a12975f9113fe8f0b85b2a002b", "bike_id": "2a8c54a12975f9113fe8f0b85b2a002b", "fusion_lat": 0.0, "lon": -77.07277416666666, "type": "electric_scooter", "fusion_lon": 0.0, "lat": 38.934720166666665}, {"rental_uris": {"android": "https://dc.lft.to/lastmile_qr_scan", "ios": "https://dc.lft.to/lastmile_qr_scan"}, "is_reserved": 0, "is_disabled": 0, "name": "e927866a9fe84a2b5fd723897737556e", "bike_id": "e927866a9fe84a2b5fd723897737556e", "fusion_lat": 0.0, "lon": -76.99812283333333, "type": "electric_scooter", "fusion_lon": 0.0, "lat": 38.905599}, {"rental_uris": {"android": "https://dc.lft.to/lastmile_qr_scan", "ios": "https://dc.lft.to/lastmile_qr_scan"}, "is_reserved": 0, "is_disabled": 0, "name": "d8d5eed6b2be69788bc40f7849c3c4f6", "bike_id": "d8d5eed6b2be69788bc40f7849c3c4f6", "fusion_lat": 0.0, "lon": -77.04676333333333, "type": "electric_scooter", "fusion_lon": 0.0, "lat": 38.895516}, {"rental_uris": {"android": "https://dc.lft.to/lastmile_qr_scan", "ios": "https://dc.lft.to/lastmile_qr_scan"}, "is_reserved": 0, "is_disabled": 0, "name": "f66372cbcea1ae14920a6bd9c4236e20", "bike_id": "f66372cbcea1ae14920a6bd9c4236e20", "fusion_lat": 0.0, "lon": -77.12980516666667, "type": "electric_bike", "fusion_lon": 0.0, "lat": 38.79981083333333}, {"rental_uris": {"android": "https://dc.lft.to/lastmile_qr_scan", "ios": "https://dc.lft.to/lastmile_qr_scan"}, "is_reserved": 0, "is_disabled": 0, "name": "46490232cb6bdc088bdb389e5fea66cd", "bike_id": "46490232cb6bdc088bdb389e5fea66cd", "fusion_lat": 0.0, "lon": -77.02716833333334, "type": "electric_scooter", "fusion_lon": 0.0, "lat": 38.92462483333333}, {"rental_uris": {"android": "https://dc.lft.to/lastmile_qr_scan", "ios": "https://dc.lft.to/lastmile_qr_scan"}, "is_reserved": 0, "is_disabled": 0, "name": "31c25d73e405b86c6a0658c734588c37", "bike_id": "31c25d73e405b86c6a0658c734588c37", "fusion_lat": 0.0, "lon": -77.0282255, "type": "electric_scooter", "fusion_lon": 0.0, "lat": 38.9297345}, {"rental_uris": {"android": "https://dc.lft.to/lastmile_qr_scan", "ios": "https://dc.lft.to/lastmile_qr_scan"}, "is_reserved": 0, "is_disabled": 0, "name": "e2ffedf0464eb868bfd08020479fb6d0", "bike_id": "e2ffedf0464eb868bfd08020479fb6d0", "fusion_lat": 0.0, "lon": -77.02021283333333, "type": "electric_scooter", "fusion_lon": 0.0, "lat": 38.915657833333334}, {"rental_uris": {"android": "https://dc.lft.to/lastmile_qr_scan", "ios": "https://dc.lft.to/lastmile_qr_scan"}, "is_reserved": 0, "is_disabled": 0, "name": "c49a7de2f127fbcb41d9f08cb7a00c87", "bike_id": "c49a7de2f127fbcb41d9f08cb7a00c87", "fusion_lat": 0.0, "lon": -76.98765433333334, "type": "electric_bike", "fusion_lon": 0.0, "lat": 38.857622166666665}, {"rental_uris": {"android": "https://dc.lft.to/lastmile_qr_scan", "ios": "https://dc.lft.to/lastmile_qr_scan"}, "is_reserved": 0, "is_disabled": 0, "name": "036d0f466f34fc84aef4f06ce4b49444", "bike_id": "036d0f466f34fc84aef4f06ce4b49444", "fusion_lat": 0.0, "lon": -77.05897433333334, "type": "electric_scooter", "fusion_lon": 0.0, "lat": 38.936083833333335}, {"rental_uris": {"android": "https://dc.lft.to/lastmile_qr_scan", "ios": "https://dc.lft.to/lastmile_qr_scan"}, "is_reserved": 0, "is_disabled": 0, "name": "2bb796d1075a1a210422e74556cc493c", "bike_id": "2bb796d1075a1a210422e74556cc493c", "fusion_lat": 0.0, "lon": -77.030252, "type": "electric_scooter", "fusion_lon": 0.0, "lat": 38.87847416666666}, {"rental_uris": {"android": "https://dc.lft.to/lastmile_qr_scan", "ios": "https://dc.lft.to/lastmile_qr_scan"}, "is_reserved": 0, "is_disabled": 0, "name": "169367159e8fda1d41e4703e3dc36852", "bike_id": "169367159e8fda1d41e4703e3dc36852", "fusion_lat": 0.0, "lon": -77.02940983333333, "type": "electric_scooter", "fusion_lon": 0.0, "lat": 38.9072575}, {"rental_uris": {"android": "https://dc.lft.to/lastmile_qr_scan", "ios": "https://dc.lft.to/lastmile_qr_scan"}, "is_reserved": 0, "is_disabled": 0, "name": "a1256357c1a8b448520a396d4148d45d", "bike_id": "a1256357c1a8b448520a396d4148d45d", "fusion_lat": 0.0, "lon": -77.0217695, "type": "electric_scooter", "fusion_lon": 0.0, "lat": 38.91480683333333}, {"rental_uris": {"android": "https://dc.lft.to/lastmile_qr_scan", "ios": "https://dc.lft.to/lastmile_qr_scan"}, "is_reserved": 0, "is_disabled": 0, "name": "58eec26c233e88234495ad4e740374ec", "bike_id": "58eec26c233e88234495ad4e740374ec", "fusion_lat": 0.0, "lon": -77.02022133333334, "type": "electric_scooter", "fusion_lon": 0.0, "lat": 38.92437966666667}, {"rental_uris": {"android": "https://dc.lft.to/lastmile_qr_scan", "ios": "https://dc.lft.to/lastmile_qr_scan"}, "is_reserved": 0, "is_disabled": 0, "name": "0b04c7fcccebc2fe73fb7eeace28271a", "bike_id": "0b04c7fcccebc2fe73fb7eeace28271a", "fusion_lat": 0.0, "lon": -76.99573866666667, "type": "electric_bike", "fusion_lon": 0.0, "lat": 38.831598}, {"rental_uris": {"android": "https://dc.lft.to/lastmile_qr_scan", "ios": "https://dc.lft.to/lastmile_qr_scan"}, "is_reserved": 0, "is_disabled": 0, "name": "178ce7aa9f5206c63db78d6574bb88cb", "bike_id": "178ce7aa9f5206c63db78d6574bb88cb", "fusion_lat": 0.0, "lon": -77.02157866666667, "type": "electric_scooter", "fusion_lon": 0.0, "lat": 38.92456133333334}, {"rental_uris": {"android": "https://dc.lft.to/lastmile_qr_scan", "ios": "https://dc.lft.to/lastmile_qr_scan"}, "is_reserved": 0, "is_disabled": 0, "name": "2aa071a1806c89a90c126fab359841ef", "bike_id": "2aa071a1806c89a90c126fab359841ef", "fusion_lat": 0.0, "lon": -76.98094716666667, "type": "electric_bike", "fusion_lon": 0.0, "lat": 38.95351266666667}, {"rental_uris": {"android": "https://dc.lft.to/lastmile_qr_scan", "ios": "https://dc.lft.to/lastmile_qr_scan"}, "is_reserved": 0, "is_disabled": 0, "name": "5e9030d1cd5ce031fb2cd604155a033f", "bike_id": "5e9030d1cd5ce031fb2cd604155a033f", "fusion_lat": 0.0, "lon": -77.04660483333333, "type": "electric_scooter", "fusion_lon": 0.0, "lat": 38.893369666666665}, {"rental_uris": {"android": "https://dc.lft.to/lastmile_qr_scan", "ios": "https://dc.lft.to/lastmile_qr_scan"}, "is_reserved": 0, "is_disabled": 0, "name": "552d4bed92a7d3e4638642b4ebd5acfd", "bike_id": "552d4bed92a7d3e4638642b4ebd5acfd", "fusion_lat": 0.0, "lon": -77.03038233333334, "type": "electric_scooter", "fusion_lon": 0.0, "lat": 38.931065833333335}, {"rental_uris": {"android": "https://dc.lft.to/lastmile_qr_scan", "ios": "https://dc.lft.to/lastmile_qr_scan"}, "is_reserved": 0, "is_disabled": 0, "name": "a51a8fbc301718f0c648ed607e4435b0", "bike_id": "a51a8fbc301718f0c648ed607e4435b0", "fusion_lat": 0.0, "lon": -77.03887533333334, "type": "electric_scooter", "fusion_lon": 0.0, "lat": 38.91850433333333}, {"rental_uris": {"android": "https://dc.lft.to/lastmile_qr_scan", "ios": "https://dc.lft.to/lastmile_qr_scan"}, "is_reserved": 0, "is_disabled": 0, "name": "0ddb6cbc53f8531bfa0fa1dc03b2a69c", "bike_id": "0ddb6cbc53f8531bfa0fa1dc03b2a69c", "fusion_lat": 0.0, "lon": -77.04879116666666, "type": "electric_scooter", "fusion_lon": 0.0, "lat": 38.90035233333333}, {"rental_uris": {"android": "https://dc.lft.to/lastmile_qr_scan", "ios": "https://dc.lft.to/lastmile_qr_scan"}, "is_reserved": 0, "is_disabled": 0, "name": "d51591d49bef7741d6df013cab35d54f", "bike_id": "d51591d49bef7741d6df013cab35d54f", "fusion_lat": 0.0, "lon": -77.025497, "type": "electric_scooter", "fusion_lon": 0.0, "lat": 38.891999166666665}, {"rental_uris": {"android": "https://dc.lft.to/lastmile_qr_scan", "ios": "https://dc.lft.to/lastmile_qr_scan"}, "is_reserved": 0, "is_disabled": 0, "name": "b119f615b50ff3e84772d5d762c1eab7", "bike_id": "b119f615b50ff3e84772d5d762c1eab7", "fusion_lat": 0.0, "lon": -77.02608583333334, "type": "electric_scooter", "fusion_lon": 0.0, "lat": 38.904082}, {"rental_uris": {"android": "https://dc.lft.to/lastmile_qr_scan", "ios": "https://dc.lft.to/lastmile_qr_scan"}, "is_reserved": 0, "is_disabled": 0, "name": "0cb040334e7f70a88c15ea2f37a49b16", "bike_id": "0cb040334e7f70a88c15ea2f37a49b16", "fusion_lat": 0.0, "lon": -77.0151515, "type": "electric_scooter", "fusion_lon": 0.0, "lat": 38.88735883333333}, {"rental_uris": {"android": "https://dc.lft.to/lastmile_qr_scan", "ios": "https://dc.lft.to/lastmile_qr_scan"}, "is_reserved": 0, "is_disabled": 0, "name": "837f4f170ecdf421cdd396de6a75e948", "bike_id": "837f4f170ecdf421cdd396de6a75e948", "fusion_lat": 0.0, "lon": -77.02553583333334, "type": "electric_scooter", "fusion_lon": 0.0, "lat": 38.92091533333333}, {"rental_uris": {"android": "https://dc.lft.to/lastmile_qr_scan", "ios": "https://dc.lft.to/lastmile_qr_scan"}, "is_reserved": 0, "is_disabled": 0, "name": "ecffd850e53f20204104d4be9a207c6f", "bike_id": "ecffd850e53f20204104d4be9a207c6f", "fusion_lat": 0.0, "lon": -77.00198683333333, "type": "electric_scooter", "fusion_lon": 0.0, "lat": 38.90235716666667}, {"rental_uris": {"android": "https://dc.lft.to/lastmile_qr_scan", "ios": "https://dc.lft.to/lastmile_qr_scan"}, "is_reserved": 0, "is_disabled": 0, "name": "25aaef91fb1bb267250908550356e0a0", "bike_id": "25aaef91fb1bb267250908550356e0a0", "fusion_lat": 0.0, "lon": -77.03287983333334, "type": "electric_scooter", "fusion_lon": 0.0, "lat": 38.89880083333333}, {"rental_uris": {"android": "https://dc.lft.to/lastmile_qr_scan", "ios": "https://dc.lft.to/lastmile_qr_scan"}, "is_reserved": 0, "is_disabled": 0, "name": "74b6bc77f16831a483254f01db0b2e9c", "bike_id": "74b6bc77f16831a483254f01db0b2e9c", "fusion_lat": 0.0, "lon": -77.02801966666667, "type": "electric_scooter", "fusion_lon": 0.0, "lat": 38.89225166666667}, {"rental_uris": {"android": "https://dc.lft.to/lastmile_qr_scan", "ios": "https://dc.lft.to/lastmile_qr_scan"}, "is_reserved": 0, "is_disabled": 0, "name": "1ee27ad6a4ce9b2b08b7716bea989fe4", "bike_id": "1ee27ad6a4ce9b2b08b7716bea989fe4", "fusion_lat": 0.0, "lon": -77.04679783333333, "type": "electric_scooter", "fusion_lon": 0.0, "lat": 38.892206333333334}, {"rental_uris": {"android": "https://dc.lft.to/lastmile_qr_scan", "ios": "https://dc.lft.to/lastmile_qr_scan"}, "is_reserved": 0, "is_disabled": 0, "name": "781a3e3e6359d0c6c9676c54c63b3de4", "bike_id": "781a3e3e6359d0c6c9676c54c63b3de4", "fusion_lat": 0.0, "lon": -77.0469495, "type": "electric_scooter", "fusion_lon": 0.0, "lat": 38.89608783333333}, {"rental_uris": {"android": "https://dc.lft.to/lastmile_qr_scan", "ios": "https://dc.lft.to/lastmile_qr_scan"}, "is_reserved": 0, "is_disabled": 0, "name": "3c59dec93a6e7cf13518114ec9fb42a9", "bike_id": "3c59dec93a6e7cf13518114ec9fb42a9", "fusion_lat": 0.0, "lon": -77.09101783333334, "type": "electric_scooter", "fusion_lon": 0.0, "lat": 38.93102566666666}, {"rental_uris": {"android": "https://dc.lft.to/lastmile_qr_scan", "ios": "https://dc.lft.to/lastmile_qr_scan"}, "is_reserved": 0, "is_disabled": 0, "name": "c8616e79de114401840ce3ae0bee21ae", "bike_id": "c8616e79de114401840ce3ae0bee21ae", "fusion_lat": 0.0, "lon": -77.027915, "type": "electric_scooter", "fusion_lon": 0.0, "lat": 38.961295666666665}, {"rental_uris": {"android": "https://dc.lft.to/lastmile_qr_scan", "ios": "https://dc.lft.to/lastmile_qr_scan"}, "is_reserved": 0, "is_disabled": 0, "name": "6c4d09f561dbe70ec031f986e9d4207f", "bike_id": "6c4d09f561dbe70ec031f986e9d4207f", "fusion_lat": 0.0, "lon": -77.05341916666667, "type": "electric_scooter", "fusion_lon": 0.0, "lat": 38.906463333333335}, {"rental_uris": {"android": "https://dc.lft.to/lastmile_qr_scan", "ios": "https://dc.lft.to/lastmile_qr_scan"}, "is_reserved": 0, "is_disabled": 0, "name": "a908d86b14b01628e3f10b7317ec4260", "bike_id": "a908d86b14b01628e3f10b7317ec4260", "fusion_lat": 0.0, "lon": -76.94653616666666, "type": "electric_scooter", "fusion_lon": 0.0, "lat": 38.89826816666667}, {"rental_uris": {"android": "https://dc.lft.to/lastmile_qr_scan", "ios": "https://dc.lft.to/lastmile_qr_scan"}, "is_reserved": 0, "is_disabled": 0, "name": "abac8b66656c33d98c67ebb0f98ff5b8", "bike_id": "abac8b66656c33d98c67ebb0f98ff5b8", "fusion_lat": 0.0, "lon": -77.021917, "type": "electric_scooter", "fusion_lon": 0.0, "lat": 38.924803833333335}, {"rental_uris": {"android": "https://dc.lft.to/lastmile_qr_scan", "ios": "https://dc.lft.to/lastmile_qr_scan"}, "is_reserved": 0, "is_disabled": 0, "name": "94bf833e315a1d58b330510ebab4ca3e", "bike_id": "94bf833e315a1d58b330510ebab4ca3e", "fusion_lat": 0.0, "lon": -77.02149933333334, "type": "electric_scooter", "fusion_lon": 0.0, "lat": 38.941307333333334}, {"rental_uris": {"android": "https://dc.lft.to/lastmile_qr_scan", "ios": "https://dc.lft.to/lastmile_qr_scan"}, "is_reserved": 0, "is_disabled": 0, "name": "f2b54b2302721214ad7a795e431bcc4f", "bike_id": "f2b54b2302721214ad7a795e431bcc4f", "fusion_lat": 0.0, "lon": -77.02409483333334, "type": "electric_scooter", "fusion_lon": 0.0, "lat": 38.91567383333334}, {"rental_uris": {"android": "https://dc.lft.to/lastmile_qr_scan", "ios": "https://dc.lft.to/lastmile_qr_scan"}, "is_reserved": 0, "is_disabled": 0, "name": "2511e232a6e3c0a93d72bc62c85864bb", "bike_id": "2511e232a6e3c0a93d72bc62c85864bb", "fusion_lat": 0.0, "lon": -77.03169716666666, "type": "electric_scooter", "fusion_lon": 0.0, "lat": 38.915638}, {"rental_uris": {"android": "https://dc.lft.to/lastmile_qr_scan", "ios": "https://dc.lft.to/lastmile_qr_scan"}, "is_reserved": 0, "is_disabled": 0, "name": "ce971ba1d46d0aaaaad64c0b09471ed1", "bike_id": "ce971ba1d46d0aaaaad64c0b09471ed1", "fusion_lat": 0.0, "lon": -77.009552, "type": "electric_scooter", "fusion_lon": 0.0, "lat": 38.87460766666667}, {"rental_uris": {"android": "https://dc.lft.to/lastmile_qr_scan", "ios": "https://dc.lft.to/lastmile_qr_scan"}, "is_reserved": 0, "is_disabled": 0, "name": "da2215351985f048944ce8cfdff1c06c", "bike_id": "da2215351985f048944ce8cfdff1c06c", "fusion_lat": 0.0, "lon": -77.04167683333333, "type": "electric_scooter", "fusion_lon": 0.0, "lat": 38.907414833333334}, {"rental_uris": {"android": "https://dc.lft.to/lastmile_qr_scan", "ios": "https://dc.lft.to/lastmile_qr_scan"}, "is_reserved": 0, "is_disabled": 0, "name": "c43b1d680dba72528b9fac9be03006a7", "bike_id": "c43b1d680dba72528b9fac9be03006a7", "fusion_lat": 0.0, "lon": -77.03237666666666, "type": "electric_scooter", "fusion_lon": 0.0, "lat": 38.9156615}, {"rental_uris": {"android": "https://dc.lft.to/lastmile_qr_scan", "ios": "https://dc.lft.to/lastmile_qr_scan"}, "is_reserved": 0, "is_disabled": 0, "name": "d18179ea776dc9c044e9c89f65984875", "bike_id": "d18179ea776dc9c044e9c89f65984875", "fusion_lat": 0.0, "lon": -77.023594, "type": "electric_scooter", "fusion_lon": 0.0, "lat": 38.92075416666667}, {"rental_uris": {"android": "https://dc.lft.to/lastmile_qr_scan", "ios": "https://dc.lft.to/lastmile_qr_scan"}, "is_reserved": 0, "is_disabled": 0, "name": "637f98b3b01fded90b5e29ec87f8c2a3", "bike_id": "637f98b3b01fded90b5e29ec87f8c2a3", "fusion_lat": 0.0, "lon": -77.0320955, "type": "electric_scooter", "fusion_lon": 0.0, "lat": 38.907374}, {"rental_uris": {"android": "https://dc.lft.to/lastmile_qr_scan", "ios": "https://dc.lft.to/lastmile_qr_scan"}, "is_reserved": 0, "is_disabled": 0, "name": "bec8125c79b75859d468f230416065ba", "bike_id": "bec8125c79b75859d468f230416065ba", "fusion_lat": 0.0, "lon": -77.06868683333333, "type": "electric_scooter", "fusion_lon": 0.0, "lat": 38.93019983333333}, {"rental_uris": {"android": "https://dc.lft.to/lastmile_qr_scan", "ios": "https://dc.lft.to/lastmile_qr_scan"}, "is_reserved": 0, "is_disabled": 0, "name": "1fc5ba667b47388bdacdfb042baba0bb", "bike_id": "1fc5ba667b47388bdacdfb042baba0bb", "fusion_lat": 0.0, "lon": -77.0961825, "type": "electric_bike", "fusion_lon": 0.0, "lat": 38.974396}, {"rental_uris": {"android": "https://dc.lft.to/lastmile_qr_scan", "ios": "https://dc.lft.to/lastmile_qr_scan"}, "is_reserved": 0, "is_disabled": 0, "name": "c7189d02e99ec1f87da33c0bb5497e4d", "bike_id": "c7189d02e99ec1f87da33c0bb5497e4d", "fusion_lat": 0.0, "lon": -77.00231866666667, "type": "electric_scooter", "fusion_lon": 0.0, "lat": 38.87468783333333}, {"rental_uris": {"android": "https://dc.lft.to/lastmile_qr_scan", "ios": "https://dc.lft.to/lastmile_qr_scan"}, "is_reserved": 0, "is_disabled": 0, "name": "6f93b4c42897c8cffcff8c7b06e79552", "bike_id": "6f93b4c42897c8cffcff8c7b06e79552", "fusion_lat": 0.0, "lon": -76.953516, "type": "electric_bike", "fusion_lon": 0.0, "lat": 38.94170316666667}, {"rental_uris": {"android": "https://dc.lft.to/lastmile_qr_scan", "ios": "https://dc.lft.to/lastmile_qr_scan"}, "is_reserved": 0, "is_disabled": 0, "name": "ad127c4a450092e759f50b5f5e6cb8bd", "bike_id": "ad127c4a450092e759f50b5f5e6cb8bd", "fusion_lat": 0.0, "lon": -77.025709, "type": "electric_scooter", "fusion_lon": 0.0, "lat": 38.941946333333334}, {"rental_uris": {"android": "https://dc.lft.to/lastmile_qr_scan", "ios": "https://dc.lft.to/lastmile_qr_scan"}, "is_reserved": 0, "is_disabled": 0, "name": "98dde55218fc51a2543aa16d92d6c72d", "bike_id": "98dde55218fc51a2543aa16d92d6c72d", "fusion_lat": 0.0, "lon": -77.00203283333333, "type": "electric_scooter", "fusion_lon": 0.0, "lat": 38.902406166666665}, {"rental_uris": {"android": "https://dc.lft.to/lastmile_qr_scan", "ios": "https://dc.lft.to/lastmile_qr_scan"}, "is_reserved": 0, "is_disabled": 0, "name": "668cbc4dc18a1a8f9a300ccc5c1ac3fa", "bike_id": "668cbc4dc18a1a8f9a300ccc5c1ac3fa", "fusion_lat": 0.0, "lon": -77.03196833333334, "type": "electric_scooter", "fusion_lon": 0.0, "lat": 38.9073045}, {"rental_uris": {"android": "https://dc.lft.to/lastmile_qr_scan", "ios": "https://dc.lft.to/lastmile_qr_scan"}, "is_reserved": 0, "is_disabled": 0, "name": "ecb7fc4606e29a502e5cc879acef3c67", "bike_id": "ecb7fc4606e29a502e5cc879acef3c67", "fusion_lat": 0.0, "lon": -77.02414066666667, "type": "electric_scooter", "fusion_lon": 0.0, "lat": 38.93356933333333}, {"rental_uris": {"android": "https://dc.lft.to/lastmile_qr_scan", "ios": "https://dc.lft.to/lastmile_qr_scan"}, "is_reserved": 0, "is_disabled": 0, "name": "954a1fb946c9a725997eac24b1b5b78f", "bike_id": "954a1fb946c9a725997eac24b1b5b78f", "fusion_lat": 0.0, "lon": -77.05043416666666, "type": "electric_scooter", "fusion_lon": 0.0, "lat": 38.92360583333333}, {"rental_uris": {"android": "https://dc.lft.to/lastmile_qr_scan", "ios": "https://dc.lft.to/lastmile_qr_scan"}, "is_reserved": 0, "is_disabled": 0, "name": "fe255e9d996a09d38b073e8f1ae48fe6", "bike_id": "fe255e9d996a09d38b073e8f1ae48fe6", "fusion_lat": 0.0, "lon": -77.0223095, "type": "electric_scooter", "fusion_lon": 0.0, "lat": 38.912537666666665}, {"rental_uris": {"android": "https://dc.lft.to/lastmile_qr_scan", "ios": "https://dc.lft.to/lastmile_qr_scan"}, "is_reserved": 0, "is_disabled": 0, "name": "814e84538b23c2f1f027b2f176cf2726", "bike_id": "814e84538b23c2f1f027b2f176cf2726", "fusion_lat": 0.0, "lon": -77.03074766666667, "type": "electric_scooter", "fusion_lon": 0.0, "lat": 38.898469666666664}, {"rental_uris": {"android": "https://dc.lft.to/lastmile_qr_scan", "ios": "https://dc.lft.to/lastmile_qr_scan"}, "is_reserved": 0, "is_disabled": 0, "name": "f1b2e478656f8c750ffa647e51e259a1", "bike_id": "f1b2e478656f8c750ffa647e51e259a1", "fusion_lat": 0.0, "lon": -77.02423316666666, "type": "electric_scooter", "fusion_lon": 0.0, "lat": 38.91820833333333}, {"rental_uris": {"android": "https://dc.lft.to/lastmile_qr_scan", "ios": "https://dc.lft.to/lastmile_qr_scan"}, "is_reserved": 0, "is_disabled": 0, "name": "fc6537719670d51a5f830fc4fd24b809", "bike_id": "fc6537719670d51a5f830fc4fd24b809", "fusion_lat": 0.0, "lon": -77.04438916666666, "type": "electric_scooter", "fusion_lon": 0.0, "lat": 38.90583783333334}, {"rental_uris": {"android": "https://dc.lft.to/lastmile_qr_scan", "ios": "https://dc.lft.to/lastmile_qr_scan"}, "is_reserved": 0, "is_disabled": 0, "name": "43cce1bd3f439a645d83d693b185ffb5", "bike_id": "43cce1bd3f439a645d83d693b185ffb5", "fusion_lat": 0.0, "lon": -77.01558833333333, "type": "electric_scooter", "fusion_lon": 0.0, "lat": 38.918532666666664}, {"rental_uris": {"android": "https://dc.lft.to/lastmile_qr_scan", "ios": "https://dc.lft.to/lastmile_qr_scan"}, "is_reserved": 0, "is_disabled": 0, "name": "f8522558a798963fcdde983bbe3cb089", "bike_id": "f8522558a798963fcdde983bbe3cb089", "fusion_lat": 0.0, "lon": -77.0165415, "type": "electric_scooter", "fusion_lon": 0.0, "lat": 38.942077}, {"rental_uris": {"android": "https://dc.lft.to/lastmile_qr_scan", "ios": "https://dc.lft.to/lastmile_qr_scan"}, "is_reserved": 0, "is_disabled": 0, "name": "f1b0b63cac7babd3e4fde797f24fb156", "bike_id": "f1b0b63cac7babd3e4fde797f24fb156", "fusion_lat": 0.0, "lon": -77.003426, "type": "electric_scooter", "fusion_lon": 0.0, "lat": 38.8766085}, {"rental_uris": {"android": "https://dc.lft.to/lastmile_qr_scan", "ios": "https://dc.lft.to/lastmile_qr_scan"}, "is_reserved": 0, "is_disabled": 0, "name": "6991c979de9a24f46710b7a8ce9d9a33", "bike_id": "6991c979de9a24f46710b7a8ce9d9a33", "fusion_lat": 0.0, "lon": -76.99964766666666, "type": "electric_scooter", "fusion_lon": 0.0, "lat": 38.9070575}, {"rental_uris": {"android": "https://dc.lft.to/lastmile_qr_scan", "ios": "https://dc.lft.to/lastmile_qr_scan"}, "is_reserved": 0, "is_disabled": 0, "name": "fbe513ae69203c4819e6fa0dd76efd87", "bike_id": "fbe513ae69203c4819e6fa0dd76efd87", "fusion_lat": 0.0, "lon": -77.0256815, "type": "electric_scooter", "fusion_lon": 0.0, "lat": 38.941853333333334}, {"rental_uris": {"android": "https://dc.lft.to/lastmile_qr_scan", "ios": "https://dc.lft.to/lastmile_qr_scan"}, "is_reserved": 0, "is_disabled": 0, "name": "088b436699264100c9712ad24a78aabc", "bike_id": "088b436699264100c9712ad24a78aabc", "fusion_lat": 0.0, "lon": -76.9553095, "type": "electric_scooter", "fusion_lon": 0.0, "lat": 38.88783166666666}, {"rental_uris": {"android": "https://dc.lft.to/lastmile_qr_scan", "ios": "https://dc.lft.to/lastmile_qr_scan"}, "is_reserved": 0, "is_disabled": 0, "name": "1b9b8aa1951899b198c291cc80b4efc5", "bike_id": "1b9b8aa1951899b198c291cc80b4efc5", "fusion_lat": 0.0, "lon": -77.04642033333333, "type": "electric_scooter", "fusion_lon": 0.0, "lat": 38.892231833333334}, {"rental_uris": {"android": "https://dc.lft.to/lastmile_qr_scan", "ios": "https://dc.lft.to/lastmile_qr_scan"}, "is_reserved": 0, "is_disabled": 0, "name": "44d8a04d2d70a8f3cf8bfd08fc938ff8", "bike_id": "44d8a04d2d70a8f3cf8bfd08fc938ff8", "fusion_lat": 0.0, "lon": -77.0317795, "type": "electric_scooter", "fusion_lon": 0.0, "lat": 38.919312}, {"rental_uris": {"android": "https://dc.lft.to/lastmile_qr_scan", "ios": "https://dc.lft.to/lastmile_qr_scan"}, "is_reserved": 0, "is_disabled": 0, "name": "51b95592d0be41a99644061b65c5317b", "bike_id": "51b95592d0be41a99644061b65c5317b", "fusion_lat": 0.0, "lon": -77.0370485, "type": "electric_scooter", "fusion_lon": 0.0, "lat": 38.926297}, {"rental_uris": {"android": "https://dc.lft.to/lastmile_qr_scan", "ios": "https://dc.lft.to/lastmile_qr_scan"}, "is_reserved": 0, "is_disabled": 0, "name": "0689a3bf2c594f5618a51ab7c149349f", "bike_id": "0689a3bf2c594f5618a51ab7c149349f", "fusion_lat": 0.0, "lon": -77.02662133333334, "type": "electric_scooter", "fusion_lon": 0.0, "lat": 38.93099933333333}, {"rental_uris": {"android": "https://dc.lft.to/lastmile_qr_scan", "ios": "https://dc.lft.to/lastmile_qr_scan"}, "is_reserved": 0, "is_disabled": 0, "name": "27617e6e4c02be82b0c09ba6cda42bde", "bike_id": "27617e6e4c02be82b0c09ba6cda42bde", "fusion_lat": 0.0, "lon": -76.9985265, "type": "electric_scooter", "fusion_lon": 0.0, "lat": 38.89625383333333}, {"rental_uris": {"android": "https://dc.lft.to/lastmile_qr_scan", "ios": "https://dc.lft.to/lastmile_qr_scan"}, "is_reserved": 0, "is_disabled": 0, "name": "024f91c90a73791c606e3ecac0dc35e3", "bike_id": "024f91c90a73791c606e3ecac0dc35e3", "fusion_lat": 0.0, "lon": -77.052136, "type": "electric_scooter", "fusion_lon": 0.0, "lat": 38.90261366666667}, {"rental_uris": {"android": "https://dc.lft.to/lastmile_qr_scan", "ios": "https://dc.lft.to/lastmile_qr_scan"}, "is_reserved": 0, "is_disabled": 0, "name": "7530c97f17d4a6e9016b84cdfec3d6e8", "bike_id": "7530c97f17d4a6e9016b84cdfec3d6e8", "fusion_lat": 0.0, "lon": -77.01987083333333, "type": "electric_scooter", "fusion_lon": 0.0, "lat": 38.87602616666667}, {"rental_uris": {"android": "https://dc.lft.to/lastmile_qr_scan", "ios": "https://dc.lft.to/lastmile_qr_scan"}, "is_reserved": 0, "is_disabled": 0, "name": "f6d24fdf1508fbb4c3c38ca5a3c2f9b8", "bike_id": "f6d24fdf1508fbb4c3c38ca5a3c2f9b8", "fusion_lat": 0.0, "lon": -77.03383883333333, "type": "electric_scooter", "fusion_lon": 0.0, "lat": 38.902685166666664}, {"rental_uris": {"android": "https://dc.lft.to/lastmile_qr_scan", "ios": "https://dc.lft.to/lastmile_qr_scan"}, "is_reserved": 0, "is_disabled": 0, "name": "5c08b4c27600fceab3e97ca6d7cd6e87", "bike_id": "5c08b4c27600fceab3e97ca6d7cd6e87", "fusion_lat": 0.0, "lon": -77.04571716666666, "type": "electric_scooter", "fusion_lon": 0.0, "lat": 38.913888166666666}, {"rental_uris": {"android": "https://dc.lft.to/lastmile_qr_scan", "ios": "https://dc.lft.to/lastmile_qr_scan"}, "is_reserved": 0, "is_disabled": 0, "name": "9d1fad4cbefc4f635bdd0285f0d1e0d9", "bike_id": "9d1fad4cbefc4f635bdd0285f0d1e0d9", "fusion_lat": 0.0, "lon": -77.03476083333334, "type": "electric_scooter", "fusion_lon": 0.0, "lat": 38.9170325}, {"rental_uris": {"android": "https://dc.lft.to/lastmile_qr_scan", "ios": "https://dc.lft.to/lastmile_qr_scan"}, "is_reserved": 0, "is_disabled": 0, "name": "12c9603c01d1af53cf2f2162e6fb8083", "bike_id": "12c9603c01d1af53cf2f2162e6fb8083", "fusion_lat": 0.0, "lon": -77.045128, "type": "electric_scooter", "fusion_lon": 0.0, "lat": 38.905635}, {"rental_uris": {"android": "https://dc.lft.to/lastmile_qr_scan", "ios": "https://dc.lft.to/lastmile_qr_scan"}, "is_reserved": 0, "is_disabled": 0, "name": "baa7722b020bab0c2126b825858fe204", "bike_id": "baa7722b020bab0c2126b825858fe204", "fusion_lat": 0.0, "lon": -77.0263535, "type": "electric_scooter", "fusion_lon": 0.0, "lat": 38.93030433333333}, {"rental_uris": {"android": "https://dc.lft.to/lastmile_qr_scan", "ios": "https://dc.lft.to/lastmile_qr_scan"}, "is_reserved": 0, "is_disabled": 0, "name": "784af64960689b9bc90ec0c3003d799a", "bike_id": "784af64960689b9bc90ec0c3003d799a", "fusion_lat": 0.0, "lon": -77.06823083333333, "type": "electric_scooter", "fusion_lon": 0.0, "lat": 38.916581666666666}, {"rental_uris": {"android": "https://dc.lft.to/lastmile_qr_scan", "ios": "https://dc.lft.to/lastmile_qr_scan"}, "is_reserved": 0, "is_disabled": 0, "name": "2b2fbe026deb582026e5d6ea931bfde0", "bike_id": "2b2fbe026deb582026e5d6ea931bfde0", "fusion_lat": 0.0, "lon": -77.037795, "type": "electric_scooter", "fusion_lon": 0.0, "lat": 38.92926116666667}, {"rental_uris": {"android": "https://dc.lft.to/lastmile_qr_scan", "ios": "https://dc.lft.to/lastmile_qr_scan"}, "is_reserved": 0, "is_disabled": 0, "name": "bd03fe40fefa0d6b08a83eb40e52b170", "bike_id": "bd03fe40fefa0d6b08a83eb40e52b170", "fusion_lat": 0.0, "lon": -77.04176316666667, "type": "electric_scooter", "fusion_lon": 0.0, "lat": 38.917354333333336}, {"rental_uris": {"android": "https://dc.lft.to/lastmile_qr_scan", "ios": "https://dc.lft.to/lastmile_qr_scan"}, "is_reserved": 0, "is_disabled": 0, "name": "22c87061b547145fecedccc867e50d62", "bike_id": "22c87061b547145fecedccc867e50d62", "fusion_lat": 0.0, "lon": -77.01532533333334, "type": "electric_scooter", "fusion_lon": 0.0, "lat": 38.885819}, {"rental_uris": {"android": "https://dc.lft.to/lastmile_qr_scan", "ios": "https://dc.lft.to/lastmile_qr_scan"}, "is_reserved": 0, "is_disabled": 0, "name": "765a3271f8be9bf174f0104284194c1d", "bike_id": "765a3271f8be9bf174f0104284194c1d", "fusion_lat": 0.0, "lon": -77.02699883333334, "type": "electric_scooter", "fusion_lon": 0.0, "lat": 38.91673266666667}, {"rental_uris": {"android": "https://dc.lft.to/lastmile_qr_scan", "ios": "https://dc.lft.to/lastmile_qr_scan"}, "is_reserved": 0, "is_disabled": 0, "name": "7fe8bc65a737b8d0c6ce7519865fdeaa", "bike_id": "7fe8bc65a737b8d0c6ce7519865fdeaa", "fusion_lat": 0.0, "lon": -77.02255783333334, "type": "electric_scooter", "fusion_lon": 0.0, "lat": 38.928211833333336}, {"rental_uris": {"android": "https://dc.lft.to/lastmile_qr_scan", "ios": "https://dc.lft.to/lastmile_qr_scan"}, "is_reserved": 0, "is_disabled": 0, "name": "34f797d5215282a804025ebd2648a5b5", "bike_id": "34f797d5215282a804025ebd2648a5b5", "fusion_lat": 0.0, "lon": -77.06568583333333, "type": "electric_bike", "fusion_lon": 0.0, "lat": 38.93267316666667}, {"rental_uris": {"android": "https://dc.lft.to/lastmile_qr_scan", "ios": "https://dc.lft.to/lastmile_qr_scan"},