{"data": {"bikes": [{"is_disabled": 0, "is_reserved": 0, "fusion_lat": 0.0, "lat": 38.92129583333333, "fusion_lon": 0.0, "rental_uris": {"ios": "https://dc.lft.to/lastmile_qr_scan", "android": "https://dc.lft.to/lastmile_qr_scan"}, "lon": -77.00403316666667, "bike_id": "dc6924763203139d57260d521c0bc61d", "type": "electric_scooter", "name": "dc6924763203139d57260d521c0bc61d"}, {"is_disabled": 0, "is_reserved": 0, "fusion_lat": 0.0, "lat": 38.961231, "fusion_lon": 0.0, "rental_uris": {"ios": "https://dc.lft.to/lastmile_qr_scan", "android": "https://dc.lft.to/lastmile_qr_scan"}, "lon": -77.03271566666666, "bike_id": "2267d8670c8e181dbc4c9d4cd5cef324", "type": "electric_bike", "name": "2267d8670c8e181dbc4c9d4cd5cef324"}, {"is_disabled": 0, "is_reserved": 0, "fusion_lat": 0.0, "lat": 38.92811066666667, "fusion_lon": 0.0, "rental_uris": {"ios": "https://dc.lft.to/lastmile_qr_scan", "android": "https://dc.lft.to/lastmile_qr_scan"}, "lon": -77.043352, "bike_id": "0df7382cc975a7d1f4d708ffff8169e1", "type": "electric_scooter", "name": "0df7382cc975a7d1f4d708ffff8169e1"}, {"is_disabled": 0, "is_reserved": 0, "fusion_lat": 0.0, "lat": 38.95238966666667, "fusion_lon": 0.0, "rental_uris": {"ios": "https://dc.lft.to/lastmile_qr_scan", "android": "https://dc.lft.to/lastmile_qr_scan"}, "lon": -76.98245783333333, "bike_id": "f281dc590c05c31b9d117af656f9dd92", "type": "electric_bike", "name": "f281dc590c05c31b9d117af656f9dd92"}, {"is_disabled": 0, "is_reserved": 0, "fusion_lat": 0.0, "lat": 38.90062616666667, "fusion_lon": 0.0, "rental_uris": {"ios": "https://dc.lft.to/lastmile_qr_scan", "android": "https://dc.lft.to/lastmile_qr_scan"}, "lon": -76.94979566666666, "bike_id": "da0720d699e99d4682b4953562d9bdd9", "type": "electric_scooter", "name": "da0720d699e99d4682b4953562d9bdd9"}, {"is_disabled": 0, "is_reserved": 0, "fusion_lat": 0.0, "lat": 38.9250515, "fusion_lon": 0.0, "rental_uris": {"ios": "https://dc.lft.to/lastmile_qr_scan", "android": "https://dc.lft.to/lastmile_qr_scan"}, "lon": -77.024379, "bike_id": "654beb88006ee40a6fc9cff461c3d91e", "type": "electric_scooter", "name": "654beb88006ee40a6fc9cff461c3d91e"}, {"is_disabled": 0, "is_reserved": 0, "fusion_lat": 0.0, "lat": 38.92126533333333, "fusion_lon": 0.0, "rental_uris": {"ios": "https://dc.lft.to/lastmile_qr_scan", "android": "https://dc.lft.to/lastmile_qr_scan"}, "lon": -76.99359716666666, "bike_id": "35d4b9e12c2eb17469ed10a27aaa9bf8", "type": "electric_scooter", "name": "35d4b9e12c2eb17469ed10a27aaa9bf8"}, {"is_disabled": 0, "is_reserved": 0, "fusion_lat": 0.0, "lat": 38.92788183333333, "fusion_lon": 0.0, "rental_uris": {"ios": "https://dc.lft.to/lastmile_qr_scan", "android": "https://dc.lft.to/lastmile_qr_scan"}, "lon": -77.021308, "bike_id": "0d0ba89272d4e2a7f28415d370354198", "type": "electric_scooter", "name": "0d0ba89272d4e2a7f28415d370354198"}, {"is_disabled": 0, "is_reserved": 0, "fusion_lat": 0.0, "lat": 38.87612583333333, "fusion_lon": 0.0, "rental_uris": {"ios": "https://dc.lft.to/lastmile_qr_scan", "android": "https://dc.lft.to/lastmile_qr_scan"}, "lon": -77.00601533333334, "bike_id": "2c5771fdef79c67d5aa4fcf81450782f", "type": "electric_scooter", "name": "2c5771fdef79c67d5aa4fcf81450782f"}, {"is_disabled": 0, "is_reserved": 0, "fusion_lat": 0.0, "lat": 38.8242705, "fusion_lon": 0.0, "rental_uris": {"ios": "https://dc.lft.to/lastmile_qr_scan", "android": "https://dc.lft.to/lastmile_qr_scan"}, "lon": -77.12041766666667, "bike_id": "5a0bfd5d8443dc49a12dd68b0cfbc290", "type": "electric_bike", "name": "5a0bfd5d8443dc49a12dd68b0cfbc290"}, {"is_disabled": 0, "is_reserved": 0, "fusion_lat": 0.0, "lat": 38.8656475, "fusion_lon": 0.0, "rental_uris": {"ios": "https://dc.lft.to/lastmile_qr_scan", "android": "https://dc.lft.to/lastmile_qr_scan"}, "lon": -76.97471833333333, "bike_id": "6909836d110ec1f12852a7bef7f3678f", "type": "electric_bike", "name": "6909836d110ec1f12852a7bef7f3678f"}, {"is_disabled": 0, "is_reserved": 0, "fusion_lat": 0.0, "lat": 38.929367666666664, "fusion_lon": 0.0, "rental_uris": {"ios": "https://dc.lft.to/lastmile_qr_scan", "android": "https://dc.lft.to/lastmile_qr_scan"}, "lon": -77.05501133333334, "bike_id": "e93df9f27d2ffda30a092d6981d8a22f", "type": "electric_scooter", "name": "e93df9f27d2ffda30a092d6981d8a22f"}, {"is_disabled": 0, "is_reserved": 0, "fusion_lat": 0.0, "lat": 38.88216766666667, "fusion_lon": 0.0, "rental_uris": {"ios": "https://dc.lft.to/lastmile_qr_scan", "android": "https://dc.lft.to/lastmile_qr_scan"}, "lon": -76.997329, "bike_id": "e54833bf07377c086ae008efaaca0562", "type": "electric_scooter", "name": "e54833bf07377c086ae008efaaca0562"}, {"is_disabled": 0, "is_reserved": 0, "fusion_lat": 0.0, "lat": 38.85637916666667, "fusion_lon": 0.0, "rental_uris": {"ios": "https://dc.lft.to/lastmile_qr_scan", "android": "https://dc.lft.to/lastmile_qr_scan"}, "lon": -77.0683525, "bike_id": "6dcd0770f5e9906906ec7e2890a7a109", "type": "electric_bike", "name": "6dcd0770f5e9906906ec7e2890a7a109"}, {"is_disabled": 0, "is_reserved": 0, "fusion_lat": 0.0, "lat": 38.946021, "fusion_lon": 0.0, "rental_uris": {"ios": "https://dc.lft.to/lastmile_qr_scan", "android": "https://dc.lft.to/lastmile_qr_scan"}, "lon": -77.02668483333333, "bike_id": "bab650bd3f5bb191ba9ef7dd05783b3c", "type": "electric_scooter", "name": "bab650bd3f5bb191ba9ef7dd05783b3c"}, {"is_disabled": 0, "is_reserved": 0, "fusion_lat": 0.0, "lat": 38.899023166666666, "fusion_lon": 0.0, "rental_uris": {"ios": "https://dc.lft.to/lastmile_qr_scan", "android": "https://dc.lft.to/lastmile_qr_scan"}, "lon": -77.02163916666667, "bike_id": "bf760e8f0c8c2a9b9a8da2a689862e34", "type": "electric_scooter", "name": "bf760e8f0c8c2a9b9a8da2a689862e34"}, {"is_disabled": 0, "is_reserved": 0, "fusion_lat": 0.0, "lat": 38.89222066666667, "fusion_lon": 0.0, "rental_uris": {"ios": "https://dc.lft.to/lastmile_qr_scan", "android": "https://dc.lft.to/lastmile_qr_scan"}, "lon": -77.03339916666667, "bike_id": "48aaf7af150203401b90b46269a9eff2", "type": "electric_scooter", "name": "48aaf7af150203401b90b46269a9eff2"}, {"is_disabled": 0, "is_reserved": 0, "fusion_lat": 0.0, "lat": 38.9023385, "fusion_lon": 0.0, "rental_uris": {"ios": "https://dc.lft.to/lastmile_qr_scan", "android": "https://dc.lft.to/lastmile_qr_scan"}, "lon": -77.01504533333333, "bike_id": "37eb2f5a28a6fa951e9490e4aa4634b0", "type": "electric_scooter", "name": "37eb2f5a28a6fa951e9490e4aa4634b0"}, {"is_disabled": 0, "is_reserved": 0, "fusion_lat": 0.0, "lat": 38.82758666666667, "fusion_lon": 0.0, "rental_uris": {"ios": "https://dc.lft.to/lastmile_qr_scan", "android": "https://dc.lft.to/lastmile_qr_scan"}, "lon": -77.05028066666667, "bike_id": "fc7e933641ef2fe4c6615a90a5044e5a", "type": "electric_bike", "name": "fc7e933641ef2fe4c6615a90a5044e5a"}, {"is_disabled": 0, "is_reserved": 0, "fusion_lat": 0.0, "lat": 38.9188375, "fusion_lon": 0.0, "rental_uris": {"ios": "https://dc.lft.to/lastmile_qr_scan", "android": "https://dc.lft.to/lastmile_qr_scan"}, "lon": -77.0417615, "bike_id": "2bf8515d498febb9a17f195c84835f1e", "type": "electric_scooter", "name": "2bf8515d498febb9a17f195c84835f1e"}, {"is_disabled": 0, "is_reserved": 0, "fusion_lat": 0.0, "lat": 38.914759, "fusion_lon": 0.0, "rental_uris": {"ios": "https://dc.lft.to/lastmile_qr_scan", "android": "https://dc.lft.to/lastmile_qr_scan"}, "lon": -77.0428965, "bike_id": "418b037120d4ba89a731557188d639eb", "type": "electric_scooter", "name": "418b037120d4ba89a731557188d639eb"}, {"is_disabled": 0, "is_reserved": 0, "fusion_lat": 0.0, "lat": 38.919903, "fusion_lon": 0.0, "rental_uris": {"ios": "https://dc.lft.to/lastmile_qr_scan", "android": "https://dc.lft.to/lastmile_qr_scan"}, "lon": -77.03225766666667, "bike_id": "76b4eb3afaad6a427030e6790329c2e7", "type": "electric_scooter", "name": "76b4eb3afaad6a427030e6790329c2e7"}, {"is_disabled": 0, "is_reserved": 0, "fusion_lat": 0.0, "lat": 38.87851766666667, "fusion_lon": 0.0, "rental_uris": {"ios": "https://dc.lft.to/lastmile_qr_scan", "android": "https://dc.lft.to/lastmile_qr_scan"}, "lon": -77.00559233333334, "bike_id": "da91e8d7149dea4afa679c48fda3c776", "type": "electric_scooter", "name": "da91e8d7149dea4afa679c48fda3c776"}, {"is_disabled": 0, "is_reserved": 0, "fusion_lat": 0.0, "lat": 38.9176735, "fusion_lon": 0.0, "rental_uris": {"ios": "https://dc.lft.to/lastmile_qr_scan", "android": "https://dc.lft.to/lastmile_qr_scan"}, "lon": -77.02348033333334, "bike_id": "c92d4c06580c53849e975c4725751ea3", "type": "electric_scooter", "name": "c92d4c06580c53849e975c4725751ea3"}, {"is_disabled": 0, "is_reserved": 0, "fusion_lat": 0.0, "lat": 38.88122116666667, "fusion_lon": 0.0, "rental_uris": {"ios": "https://dc.lft.to/lastmile_qr_scan", "android": "https://dc.lft.to/lastmile_qr_scan"}, "lon": -77.017407, "bike_id": "bb83561db029bda548ed019a2da0fa16", "type": "electric_scooter", "name": "bb83561db029bda548ed019a2da0fa16"}, {"is_disabled": 0, "is_reserved": 0, "fusion_lat": 0.0, "lat": 38.9207055, "fusion_lon": 0.0, "rental_uris": {"ios": "https://dc.lft.to/lastmile_qr_scan", "android": "https://dc.lft.to/lastmile_qr_scan"}, "lon": -77.0256815, "bike_id": "4fb2ce65bceb6725147deac3c165e044", "type": "electric_scooter", "name": "4fb2ce65bceb6725147deac3c165e044"}, {"is_disabled": 0, "is_reserved": 0, "fusion_lat": 0.0, "lat": 38.9003905, "fusion_lon": 0.0, "rental_uris": {"ios": "https://dc.lft.to/lastmile_qr_scan", "android": "https://dc.lft.to/lastmile_qr_scan"}, "lon": -77.0557305, "bike_id": "dacc847b1424d9e29a100eaab2929230", "type": "electric_bike", "name": "dacc847b1424d9e29a100eaab2929230"}, {"is_disabled": 0, "is_reserved": 0, "fusion_lat": 0.0, "lat": 38.921550333333336, "fusion_lon": 0.0, "rental_uris": {"ios": "https://dc.lft.to/lastmile_qr_scan", "android": "https://dc.lft.to/lastmile_qr_scan"}, "lon": -77.03663316666666, "bike_id": "225c8bc684931f5e832ddd73e63b3648", "type": "electric_scooter", "name": "225c8bc684931f5e832ddd73e63b3648"}, {"is_disabled": 0, "is_reserved": 0, "fusion_lat": 0.0, "lat": 38.88771416666667, "fusion_lon": 0.0, "rental_uris": {"ios": "https://dc.lft.to/lastmile_qr_scan", "android": "https://dc.lft.to/lastmile_qr_scan"}, "lon": -76.93261966666667, "bike_id": "18a02eb021951850f5640219589ed066", "type": "electric_scooter", "name": "18a02eb021951850f5640219589ed066"}, {"is_disabled": 0, "is_reserved": 0, "fusion_lat": 0.0, "lat": 38.91113766666667, "fusion_lon": 0.0, "rental_uris": {"ios": "https://dc.lft.to/lastmile_qr_scan", "android": "https://dc.lft.to/lastmile_qr_scan"}, "lon": -77.03293216666667, "bike_id": "503089e0c7bc77f470c2483430feb736", "type": "electric_scooter", "name": "503089e0c7bc77f470c2483430feb736"}, {"is_disabled": 0, "is_reserved": 0, "fusion_lat": 0.0, "lat": 38.983661166666664, "fusion_lon": 0.0, "rental_uris": {"ios": "https://dc.lft.to/lastmile_qr_scan", "android": "https://dc.lft.to/lastmile_qr_scan"}, "lon": -76.98851616666667, "bike_id": "2b51b1805e409699ec84d0100a8acfde", "type": "electric_bike", "name": "2b51b1805e409699ec84d0100a8acfde"}, {"is_disabled": 0, "is_reserved": 0, "fusion_lat": 0.0, "lat": 38.954251666666664, "fusion_lon": 0.0, "rental_uris": {"ios": "https://dc.lft.to/lastmile_qr_scan", "android": "https://dc.lft.to/lastmile_qr_scan"}, "lon": -77.01852816666667, "bike_id": "49d16c16ea60aa268ce772657a5b4d8e", "type": "electric_scooter", "name": "49d16c16ea60aa268ce772657a5b4d8e"}, {"is_disabled": 0, "is_reserved": 0, "fusion_lat": 0.0, "lat": 38.8422385, "fusion_lon": 0.0, "rental_uris": {"ios": "https://dc.lft.to/lastmile_qr_scan", "android": "https://dc.lft.to/lastmile_qr_scan"}, "lon": -76.9489525, "bike_id": "3fb5dc4958a1c5bd817a34e7cdaab030", "type": "electric_bike", "name": "3fb5dc4958a1c5bd817a34e7cdaab030"}, {"is_disabled": 0, "is_reserved": 0, "fusion_lat": 0.0, "lat": 38.892011333333336, "fusion_lon": 0.0, "rental_uris": {"ios": "https://dc.lft.to/lastmile_qr_scan", "android": "https://dc.lft.to/lastmile_qr_scan"}, "lon": -76.99861266666667, "bike_id": "27645dc810d8259298b8deb865f4c146", "type": "electric_scooter", "name": "27645dc810d8259298b8deb865f4c146"}, {"is_disabled": 0, "is_reserved": 0, "fusion_lat": 0.0, "lat": 38.807336666666664, "fusion_lon": 0.0, "rental_uris": {"ios": "https://dc.lft.to/lastmile_qr_scan", "android": "https://dc.lft.to/lastmile_qr_scan"}, "lon": -76.99266166666666, "bike_id": "81c2e606b53df78a20e358e765c9cf55", "type": "electric_bike", "name": "81c2e606b53df78a20e358e765c9cf55"}, {"is_disabled": 0, "is_reserved": 0, "fusion_lat": 0.0, "lat": 38.9217075, "fusion_lon": 0.0, "rental_uris": {"ios": "https://dc.lft.to/lastmile_qr_scan", "android": "https://dc.lft.to/lastmile_qr_scan"}, "lon": -76.9985415, "bike_id": "3d68a1a38069f998284f94462e83f4cd", "type": "electric_scooter", "name": "3d68a1a38069f998284f94462e83f4cd"}, {"is_disabled": 0, "is_reserved": 0, "fusion_lat": 0.0, "lat": 38.89199, "fusion_lon": 0.0, "rental_uris": {"ios": "https://dc.lft.to/lastmile_qr_scan", "android": "https://dc.lft.to/lastmile_qr_scan"}, "lon": -77.002934, "bike_id": "d0b454882583b3eac17ed0d40d60e03f", "type": "electric_scooter", "name": "d0b454882583b3eac17ed0d40d60e03f"}, {"is_disabled": 0, "is_reserved": 0, "fusion_lat": 0.0, "lat": 38.93352383333333, "fusion_lon": 0.0, "rental_uris": {"ios": "https://dc.lft.to/lastmile_qr_scan", "android": "https://dc.lft.to/lastmile_qr_scan"}, "lon": -77.02562333333333, "bike_id": "be72f9b7caf5b868f945b0690e0018a0", "type": "electric_scooter", "name": "be72f9b7caf5b868f945b0690e0018a0"}, {"is_disabled": 0, "is_reserved": 0, "fusion_lat": 0.0, "lat": 38.9621495, "fusion_lon": 0.0, "rental_uris": {"ios": "https://dc.lft.to/lastmile_qr_scan", "android": "https://dc.lft.to/lastmile_qr_scan"}, "lon": -77.02625866666666, "bike_id": "febe43f1fde104963a11a5f8558f901d", "type": "electric_bike", "name": "febe43f1fde104963a11a5f8558f901d"}, {"is_disabled": 0, "is_reserved": 0, "fusion_lat": 0.0, "lat": 38.924472, "fusion_lon": 0.0, "rental_uris": {"ios": "https://dc.lft.to/lastmile_qr_scan", "android": "https://dc.lft.to/lastmile_qr_scan"}, "lon": -77.020387, "bike_id": "255bce577693741bd6145272479eb7ac", "type": "electric_scooter", "name": "255bce577693741bd6145272479eb7ac"}, {"is_disabled": 0, "is_reserved": 0, "fusion_lat": 0.0, "lat": 38.91906066666667, "fusion_lon": 0.0, "rental_uris": {"ios": "https://dc.lft.to/lastmile_qr_scan", "android": "https://dc.lft.to/lastmile_qr_scan"}, "lon": -77.06003133333333, "bike_id": "aabf1457304c5d4bfa39291c19b3e72f", "type": "electric_bike", "name": "aabf1457304c5d4bfa39291c19b3e72f"}, {"is_disabled": 0, "is_reserved": 0, "fusion_lat": 0.0, "lat": 38.8747065, "fusion_lon": 0.0, "rental_uris": {"ios": "https://dc.lft.to/lastmile_qr_scan", "android": "https://dc.lft.to/lastmile_qr_scan"}, "lon": -77.00515, "bike_id": "b7a15ae989f119538d67d5fccf2670a5", "type": "electric_scooter", "name": "b7a15ae989f119538d67d5fccf2670a5"}, {"is_disabled": 0, "is_reserved": 0, "fusion_lat": 0.0, "lat": 38.89229016666667, "fusion_lon": 0.0, "rental_uris": {"ios": "https://dc.lft.to/lastmile_qr_scan", "android": "https://dc.lft.to/lastmile_qr_scan"}, "lon": -77.02383416666666, "bike_id": "c51690409bef24dbf1f25070848b9a7a", "type": "electric_scooter", "name": "c51690409bef24dbf1f25070848b9a7a"}, {"is_disabled": 0, "is_reserved": 0, "fusion_lat": 0.0, "lat": 38.921669, "fusion_lon": 0.0, "rental_uris": {"ios": "https://dc.lft.to/lastmile_qr_scan", "android": "https://dc.lft.to/lastmile_qr_scan"}, "lon": -77.018008, "bike_id": "fdd168a327e8a03fd88a2153b34c35db", "type": "electric_scooter", "name": "fdd168a327e8a03fd88a2153b34c35db"}, {"is_disabled": 0, "is_reserved": 0, "fusion_lat": 0.0, "lat": 38.941759166666664, "fusion_lon": 0.0, "rental_uris": {"ios": "https://dc.lft.to/lastmile_qr_scan", "android": "https://dc.lft.to/lastmile_qr_scan"}, "lon": -77.03393533333333, "bike_id": "44d82de402910fa2abc4a8bc65af2f10", "type": "electric_scooter", "name": "44d82de402910fa2abc4a8bc65af2f10"}, {"is_disabled": 0, "is_reserved": 0, "fusion_lat": 0.0, "lat": 38.91504716666667, "fusion_lon": 0.0, "rental_uris": {"ios": "https://dc.lft.to/lastmile_qr_scan", "android": "https://dc.lft.to/lastmile_qr_scan"}, "lon": -76.98359483333333, "bike_id": "3af557c9ebbfae053c1afec8e034a4b9", "type": "electric_scooter", "name": "3af557c9ebbfae053c1afec8e034a4b9"}, {"is_disabled": 0, "is_reserved": 0, "fusion_lat": 0.0, "lat": 38.923383, "fusion_lon": 0.0, "rental_uris": {"ios": "https://dc.lft.to/lastmile_qr_scan", "android": "https://dc.lft.to/lastmile_qr_scan"}, "lon": -76.99874516666667, "bike_id": "d44f3f12621b47629771326190359604", "type": "electric_scooter", "name": "d44f3f12621b47629771326190359604"}, {"is_disabled": 0, "is_reserved": 0, "fusion_lat": 0.0, "lat": 38.92747, "fusion_lon": 0.0, "rental_uris": {"ios": "https://dc.lft.to/lastmile_qr_scan", "android": "https://dc.lft.to/lastmile_qr_scan"}, "lon": -77.02373816666666, "bike_id": "550bb9b462e32b7ca5246f029ae6f720", "type": "electric_scooter", "name": "550bb9b462e32b7ca5246f029ae6f720"}, {"is_disabled": 0, "is_reserved": 0, "fusion_lat": 0.0, "lat": 38.92774033333333, "fusion_lon": 0.0, "rental_uris": {"ios": "https://dc.lft.to/lastmile_qr_scan", "android": "https://dc.lft.to/lastmile_qr_scan"}, "lon": -77.05261383333334, "bike_id": "214d15eb52f39072b59f35f5f5e68c7b", "type": "electric_scooter", "name": "214d15eb52f39072b59f35f5f5e68c7b"}, {"is_disabled": 0, "is_reserved": 0, "fusion_lat": 0.0, "lat": 38.90746016666667, "fusion_lon": 0.0, "rental_uris": {"ios": "https://dc.lft.to/lastmile_qr_scan", "android": "https://dc.lft.to/lastmile_qr_scan"}, "lon": -77.0353765, "bike_id": "eb5f816004ca8b42154ee373378bfdd0", "type": "electric_scooter", "name": "eb5f816004ca8b42154ee373378bfdd0"}, {"is_disabled": 0, "is_reserved": 0, "fusion_lat": 0.0, "lat": 38.895600333333334, "fusion_lon": 0.0, "rental_uris": {"ios": "https://dc.lft.to/lastmile_qr_scan", "android": "https://dc.lft.to/lastmile_qr_scan"}, "lon": -77.12730566666667, "bike_id": "e5f1dcf9e9aa60a67e17e63908d08aa1", "type": "electric_bike", "name": "e5f1dcf9e9aa60a67e17e63908d08aa1"}, {"is_disabled": 0, "is_reserved": 0, "fusion_lat": 0.0, "lat": 38.92167216666667, "fusion_lon": 0.0, "rental_uris": {"ios": "https://dc.lft.to/lastmile_qr_scan", "android": "https://dc.lft.to/lastmile_qr_scan"}, "lon": -77.018222, "bike_id": "7dee16efb10f99681b36bdc3c4b8aa4b", "type": "electric_scooter", "name": "7dee16efb10f99681b36bdc3c4b8aa4b"}, {"is_disabled": 0, "is_reserved": 0, "fusion_lat": 0.0, "lat": 38.94100616666667, "fusion_lon": 0.0, "rental_uris": {"ios": "https://dc.lft.to/lastmile_qr_scan", "android": "https://dc.lft.to/lastmile_qr_scan"}, "lon": -76.9562395, "bike_id": "4419dc76b1e648ebdb7eb991454851be", "type": "electric_bike", "name": "4419dc76b1e648ebdb7eb991454851be"}, {"is_disabled": 0, "is_reserved": 0, "fusion_lat": 0.0, "lat": 38.9050985, "fusion_lon": 0.0, "rental_uris": {"ios": "https://dc.lft.to/lastmile_qr_scan", "android": "https://dc.lft.to/lastmile_qr_scan"}, "lon": -77.02510816666667, "bike_id": "7e9cec2321818e33abd96a832b9a9eb7", "type": "electric_scooter", "name": "7e9cec2321818e33abd96a832b9a9eb7"}, {"is_disabled": 0, "is_reserved": 0, "fusion_lat": 0.0, "lat": 38.91583116666666, "fusion_lon": 0.0, "rental_uris": {"ios": "https://dc.lft.to/lastmile_qr_scan", "android": "https://dc.lft.to/lastmile_qr_scan"}, "lon": -76.97721766666666, "bike_id": "b53b946dec06bbe4c437577ce66ab66e", "type": "electric_scooter", "name": "b53b946dec06bbe4c437577ce66ab66e"}, {"is_disabled": 0, "is_reserved": 0, "fusion_lat": 0.0, "lat": 38.90652466666667, "fusion_lon": 0.0, "rental_uris": {"ios": "https://dc.lft.to/lastmile_qr_scan", "android": "https://dc.lft.to/lastmile_qr_scan"}, "lon": -77.05318383333334, "bike_id": "71e4afa21ccf599996e21f75d9657b4b", "type": "electric_scooter", "name": "71e4afa21ccf599996e21f75d9657b4b"}, {"is_disabled": 0, "is_reserved": 0, "fusion_lat": 0.0, "lat": 38.92328033333333, "fusion_lon": 0.0, "rental_uris": {"ios": "https://dc.lft.to/lastmile_qr_scan", "android": "https://dc.lft.to/lastmile_qr_scan"}, "lon": -77.0351515, "bike_id": "dc18d9f98f4781f767d351c584a99af2", "type": "electric_scooter", "name": "dc18d9f98f4781f767d351c584a99af2"}, {"is_disabled": 0, "is_reserved": 0, "fusion_lat": 0.0, "lat": 38.967639166666665, "fusion_lon": 0.0, "rental_uris": {"ios": "https://dc.lft.to/lastmile_qr_scan", "android": "https://dc.lft.to/lastmile_qr_scan"}, "lon": -77.03425566666667, "bike_id": "de24cd4815f3379b2229aef505bb15a3", "type": "electric_scooter", "name": "de24cd4815f3379b2229aef505bb15a3"}, {"is_disabled": 0, "is_reserved": 0, "fusion_lat": 0.0, "lat": 38.90441966666667, "fusion_lon": 0.0, "rental_uris": {"ios": "https://dc.lft.to/lastmile_qr_scan", "android": "https://dc.lft.to/lastmile_qr_scan"}, "lon": -76.9730585, "bike_id": "d35710d819821926656811b7028fdd58", "type": "electric_scooter", "name": "d35710d819821926656811b7028fdd58"}, {"is_disabled": 0, "is_reserved": 0, "fusion_lat": 0.0, "lat": 38.84274416666667, "fusion_lon": 0.0, "rental_uris": {"ios": "https://dc.lft.to/lastmile_qr_scan", "android": "https://dc.lft.to/lastmile_qr_scan"}, "lon": -76.9883925, "bike_id": "a09f5783aa162a150d1764935c008a58", "type": "electric_scooter", "name": "a09f5783aa162a150d1764935c008a58"}, {"is_disabled": 0, "is_reserved": 0, "fusion_lat": 0.0, "lat": 38.87761733333333, "fusion_lon": 0.0, "rental_uris": {"ios": "https://dc.lft.to/lastmile_qr_scan", "android": "https://dc.lft.to/lastmile_qr_scan"}, "lon": -77.00443066666666, "bike_id": "36158d05278ffc1171d6a7b1d6f1ad8c", "type": "electric_scooter", "name": "36158d05278ffc1171d6a7b1d6f1ad8c"}, {"is_disabled": 0, "is_reserved": 0, "fusion_lat": 0.0, "lat": 38.9199525, "fusion_lon": 0.0, "rental_uris": {"ios": "https://dc.lft.to/lastmile_qr_scan", "android": "https://dc.lft.to/lastmile_qr_scan"}, "lon": -77.03221683333334, "bike_id": "60bda4c186ad6f91b93879ea432d2949", "type": "electric_scooter", "name": "60bda4c186ad6f91b93879ea432d2949"}, {"is_disabled": 0, "is_reserved": 0, "fusion_lat": 0.0, "lat": 38.9635265, "fusion_lon": 0.0, "rental_uris": {"ios": "https://dc.lft.to/lastmile_qr_scan", "android": "https://dc.lft.to/lastmile_qr_scan"}, "lon": -77.03445766666667, "bike_id": "57b8a06c69406251d231b2bfbb20d704", "type": "electric_scooter", "name": "57b8a06c69406251d231b2bfbb20d704"}, {"is_disabled": 0, "is_reserved": 0, "fusion_lat": 0.0, "lat": 38.89553866666667, "fusion_lon": 0.0, "rental_uris": {"ios": "https://dc.lft.to/lastmile_qr_scan", "android": "https://dc.lft.to/lastmile_qr_scan"}, "lon": -77.04660766666667, "bike_id": "0f17288dc889f9458f3d6609c0082006", "type": "electric_scooter", "name": "0f17288dc889f9458f3d6609c0082006"}, {"is_disabled": 0, "is_reserved": 0, "fusion_lat": 0.0, "lat": 38.96158416666667, "fusion_lon": 0.0, "rental_uris": {"ios": "https://dc.lft.to/lastmile_qr_scan", "android": "https://dc.lft.to/lastmile_qr_scan"}, "lon": -77.02788566666666, "bike_id": "1da5cff69d5a127ee59704238a7a2bad", "type": "electric_scooter", "name": "1da5cff69d5a127ee59704238a7a2bad"}, {"is_disabled": 0, "is_reserved": 0, "fusion_lat": 0.0, "lat": 38.9327, "fusion_lon": 0.0, "rental_uris": {"ios": "https://dc.lft.to/lastmile_qr_scan", "android": "https://dc.lft.to/lastmile_qr_scan"}, "lon": -77.02104183333333, "bike_id": "5709a6cf33339cb1bfee2343e4c5b1ff", "type": "electric_scooter", "name": "5709a6cf33339cb1bfee2343e4c5b1ff"}, {"is_disabled": 0, "is_reserved": 0, "fusion_lat": 0.0, "lat": 38.941407, "fusion_lon": 0.0, "rental_uris": {"ios": "https://dc.lft.to/lastmile_qr_scan", "android": "https://dc.lft.to/lastmile_qr_scan"}, "lon": -77.0232595, "bike_id": "ac166a973643c1ded3003b6e237fe55c", "type": "electric_scooter", "name": "ac166a973643c1ded3003b6e237fe55c"}, {"is_disabled": 0, "is_reserved": 0, "fusion_lat": 0.0, "lat": 38.804032, "fusion_lon": 0.0, "rental_uris": {"ios": "https://dc.lft.to/lastmile_qr_scan", "android": "https://dc.lft.to/lastmile_qr_scan"}, "lon": -77.11326, "bike_id": "1021169cdc3ff4a2a61394819034e148", "type": "electric_bike", "name": "1021169cdc3ff4a2a61394819034e148"}, {"is_disabled": 0, "is_reserved": 0, "fusion_lat": 0.0, "lat": 38.908046666666664, "fusion_lon": 0.0, "rental_uris": {"ios": "https://dc.lft.to/lastmile_qr_scan", "android": "https://dc.lft.to/lastmile_qr_scan"}, "lon": -77.03832766666666, "bike_id": "99d98da016c891ec4e13ca0d8f12ea63", "type": "electric_scooter", "name": "99d98da016c891ec4e13ca0d8f12ea63"}, {"is_disabled": 0, "is_reserved": 0, "fusion_lat": 0.0, "lat": 38.91813166666667, "fusion_lon": 0.0, "rental_uris": {"ios": "https://dc.lft.to/lastmile_qr_scan", "android": "https://dc.lft.to/lastmile_qr_scan"}, "lon": -77.0252555, "bike_id": "3eda1ba63de505598250a77c774da9ba", "type": "electric_scooter", "name": "3eda1ba63de505598250a77c774da9ba"}, {"is_disabled": 0, "is_reserved": 0, "fusion_lat": 0.0, "lat": 38.930504666666664, "fusion_lon": 0.0, "rental_uris": {"ios": "https://dc.lft.to/lastmile_qr_scan", "android": "https://dc.lft.to/lastmile_qr_scan"}, "lon": -77.02661466666666, "bike_id": "31dafc1a72865a2bf5b50fd2cbff1e46", "type": "electric_scooter", "name": "31dafc1a72865a2bf5b50fd2cbff1e46"}, {"is_disabled": 0, "is_reserved": 0, "fusion_lat": 0.0, "lat": 38.85593216666667, "fusion_lon": 0.0, "rental_uris": {"ios": "https://dc.lft.to/lastmile_qr_scan", "android": "https://dc.lft.to/lastmile_qr_scan"}, "lon": -76.97272066666666, "bike_id": "d16b1fa5cf2213d6b5b6e986a62b2bb9", "type": "electric_bike", "name": "d16b1fa5cf2213d6b5b6e986a62b2bb9"}, {"is_disabled": 0, "is_reserved": 0, "fusion_lat": 0.0, "lat": 38.90647516666667, "fusion_lon": 0.0, "rental_uris": {"ios": "https://dc.lft.to/lastmile_qr_scan", "android": "https://dc.lft.to/lastmile_qr_scan"}, "lon": -77.0116755, "bike_id": "5f24799fc12e810c26e0b30c236b5e96", "type": "electric_scooter", "name": "5f24799fc12e810c26e0b30c236b5e96"}, {"is_disabled": 0, "is_reserved": 0, "fusion_lat": 0.0, "lat": 38.917968, "fusion_lon": 0.0, "rental_uris": {"ios": "https://dc.lft.to/lastmile_qr_scan", "android": "https://dc.lft.to/lastmile_qr_scan"}, "lon": -77.03437966666667, "bike_id": "db7a9e8469ba095c428e8cd01f8b3988", "type": "electric_scooter", "name": "db7a9e8469ba095c428e8cd01f8b3988"}, {"is_disabled": 0, "is_reserved": 0, "fusion_lat": 0.0, "lat": 38.9203145, "fusion_lon": 0.0, "rental_uris": {"ios": "https://dc.lft.to/lastmile_qr_scan", "android": "https://dc.lft.to/lastmile_qr_scan"}, "lon": -77.01120716666667, "bike_id": "803585dd61ef1b2405e67f9e92ba54fe", "type": "electric_scooter", "name": "803585dd61ef1b2405e67f9e92ba54fe"}, {"is_disabled": 0, "is_reserved": 0, "fusion_lat": 0.0, "lat": 38.885429, "fusion_lon": 0.0, "rental_uris": {"ios": "https://dc.lft.to/lastmile_qr_scan", "android": "https://dc.lft.to/lastmile_qr_scan"}, "lon": -76.92374266666667, "bike_id": "4f2ad52c9c201cd4131d34806e9d126f", "type": "electric_scooter", "name": "4f2ad52c9c201cd4131d34806e9d126f"}, {"is_disabled": 0, "is_reserved": 0, "fusion_lat": 0.0, "lat": 38.9133125, "fusion_lon": 0.0, "rental_uris": {"ios": "https://dc.lft.to/lastmile_qr_scan", "android": "https://dc.lft.to/lastmile_qr_scan"}, "lon": -77.01619683333334, "bike_id": "550a23adb13dcc9c8113d50dbfdb6cc3", "type": "electric_scooter", "name": "550a23adb13dcc9c8113d50dbfdb6cc3"}, {"is_disabled": 0, "is_reserved": 0, "fusion_lat": 0.0, "lat": 38.894252333333334, "fusion_lon": 0.0, "rental_uris": {"ios": "https://dc.lft.to/lastmile_qr_scan", "android": "https://dc.lft.to/lastmile_qr_scan"}, "lon": -77.01081683333334, "bike_id": "5d324c643be73b6520e7a788f799073d", "type": "electric_scooter", "name": "5d324c643be73b6520e7a788f799073d"}, {"is_disabled": 0, "is_reserved": 0, "fusion_lat": 0.0, "lat": 38.922134, "fusion_lon": 0.0, "rental_uris": {"ios": "https://dc.lft.to/lastmile_qr_scan", "android": "https://dc.lft.to/lastmile_qr_scan"}, "lon": -77.08201066666666, "bike_id": "62a65b594ce0657605a84ec35f655d6c", "type": "electric_bike", "name": "62a65b594ce0657605a84ec35f655d6c"}, {"is_disabled": 0, "is_reserved": 0, "fusion_lat": 0.0, "lat": 38.885330833333335, "fusion_lon": 0.0, "rental_uris": {"ios": "https://dc.lft.to/lastmile_qr_scan", "android": "https://dc.lft.to/lastmile_qr_scan"}, "lon": -76.98056516666666, "bike_id": "330f5962480defa985372bab875d756b", "type": "electric_scooter", "name": "330f5962480defa985372bab875d756b"}, {"is_disabled": 0, "is_reserved": 0, "fusion_lat": 0.0, "lat": 38.95690333333334, "fusion_lon": 0.0, "rental_uris": {"ios": "https://dc.lft.to/lastmile_qr_scan", "android": "https://dc.lft.to/lastmile_qr_scan"}, "lon": -77.02231783333333, "bike_id": "bac0095a60506d5d2fbde7ea6c2cda31", "type": "electric_scooter", "name": "bac0095a60506d5d2fbde7ea6c2cda31"}, {"is_disabled": 0, "is_reserved": 0, "fusion_lat": 0.0, "lat": 38.95752233333333, "fusion_lon": 0.0, "rental_uris": {"ios": "https://dc.lft.to/lastmile_qr_scan", "android": "https://dc.lft.to/lastmile_qr_scan"}, "lon": -77.02209883333333, "bike_id": "0fe839e40dad348376a22fcb3bbeef1d", "type": "electric_scooter", "name": "0fe839e40dad348376a22fcb3bbeef1d"}, {"is_disabled": 0, "is_reserved": 0, "fusion_lat": 0.0, "lat": 38.87498166666666, "fusion_lon": 0.0, "rental_uris": {"ios": "https://dc.lft.to/lastmile_qr_scan", "android": "https://dc.lft.to/lastmile_qr_scan"}, "lon": -77.00079866666667, "bike_id": "27511ec1405511daceb85eba1d8c7959", "type": "electric_scooter", "name": "27511ec1405511daceb85eba1d8c7959"}, {"is_disabled": 0, "is_reserved": 0, "fusion_lat": 0.0, "lat": 38.896249833333336, "fusion_lon": 0.0, "rental_uris": {"ios": "https://dc.lft.to/lastmile_qr_scan", "android": "https://dc.lft.to/lastmile_qr_scan"}, "lon": -76.90752583333334, "bike_id": "07589c385d7ffac01f428806cc7eef54", "type": "electric_bike", "name": "07589c385d7ffac01f428806cc7eef54"}, {"is_disabled": 0, "is_reserved": 0, "fusion_lat": 0.0, "lat": 38.922883, "fusion_lon": 0.0, "rental_uris": {"ios": "https://dc.lft.to/lastmile_qr_scan", "android": "https://dc.lft.to/lastmile_qr_scan"}, "lon": -77.02973383333334, "bike_id": "7c2d48a405b5bbe4be6a2ce77972a4e2", "type": "electric_scooter", "name": "7c2d48a405b5bbe4be6a2ce77972a4e2"}, {"is_disabled": 0, "is_reserved": 0, "fusion_lat": 0.0, "lat": 38.91441233333333, "fusion_lon": 0.0, "rental_uris": {"ios": "https://dc.lft.to/lastmile_qr_scan", "android": "https://dc.lft.to/lastmile_qr_scan"}, "lon": -77.02289033333334, "bike_id": "c02fe20293036b09ee0a04f56bb24122", "type": "electric_scooter", "name": "c02fe20293036b09ee0a04f56bb24122"}, {"is_disabled": 0, "is_reserved": 0, "fusion_lat": 0.0, "lat": 38.875770333333335, "fusion_lon": 0.0, "rental_uris": {"ios": "https://dc.lft.to/lastmile_qr_scan", "android": "https://dc.lft.to/lastmile_qr_scan"}, "lon": -77.23410766666667, "bike_id": "df639af3891871d16ff622e72cf9290a", "type": "electric_bike", "name": "df639af3891871d16ff622e72cf9290a"}, {"is_disabled": 0, "is_reserved": 0, "fusion_lat": 0.0, "lat": 38.88043783333333, "fusion_lon": 0.0, "rental_uris": {"ios": "https://dc.lft.to/lastmile_qr_scan", "android": "https://dc.lft.to/lastmile_qr_scan"}, "lon": -76.927178, "bike_id": "1aa73afe54193c3aa61d1004c23124e9", "type": "electric_scooter", "name": "1aa73afe54193c3aa61d1004c23124e9"}, {"is_disabled": 0, "is_reserved": 0, "fusion_lat": 0.0, "lat": 38.93033883333333, "fusion_lon": 0.0, "rental_uris": {"ios": "https://dc.lft.to/lastmile_qr_scan", "android": "https://dc.lft.to/lastmile_qr_scan"}, "lon": -77.0607795, "bike_id": "49154df6a7ff9fb74e5f1d93c195e78d", "type": "electric_scooter", "name": "49154df6a7ff9fb74e5f1d93c195e78d"}, {"is_disabled": 0, "is_reserved": 0, "fusion_lat": 0.0, "lat": 38.87077283333333, "fusion_lon": 0.0, "rental_uris": {"ios": "https://dc.lft.to/lastmile_qr_scan", "android": "https://dc.lft.to/lastmile_qr_scan"}, "lon": -76.98134616666667, "bike_id": "b4bd90b2e30c216377328c5caf7d0d68", "type": "electric_scooter", "name": "b4bd90b2e30c216377328c5caf7d0d68"}, {"is_disabled": 0, "is_reserved": 0, "fusion_lat": 0.0, "lat": 38.8763075, "fusion_lon": 0.0, "rental_uris": {"ios": "https://dc.lft.to/lastmile_qr_scan", "android": "https://dc.lft.to/lastmile_qr_scan"}, "lon": -77.009527, "bike_id": "42fad6c6570013fbd4c9e2095725461e", "type": "electric_scooter", "name": "42fad6c6570013fbd4c9e2095725461e"}, {"is_disabled": 0, "is_reserved": 0, "fusion_lat": 0.0, "lat": 38.90715933333333, "fusion_lon": 0.0, "rental_uris": {"ios": "https://dc.lft.to/lastmile_qr_scan", "android": "https://dc.lft.to/lastmile_qr_scan"}, "lon": -77.02318066666666, "bike_id": "e05c5353f2d8651e93d4d653ba8479bd", "type": "electric_scooter", "name": "e05c5353f2d8651e93d4d653ba8479bd"}, {"is_disabled": 0, "is_reserved": 0, "fusion_lat": 0.0, "lat": 38.88508516666667, "fusion_lon": 0.0, "rental_uris": {"ios": "https://dc.lft.to/lastmile_qr_scan", "android": "https://dc.lft.to/lastmile_qr_scan"}, "lon": -77.02824016666666, "bike_id": "e13037e60a5871d0feaddd6a6ca1df32", "type": "electric_scooter", "name": "e13037e60a5871d0feaddd6a6ca1df32"}, {"is_disabled": 0, "is_reserved": 0, "fusion_lat": 0.0, "lat": 38.9160155, "fusion_lon": 0.0, "rental_uris": {"ios": "https://dc.lft.to/lastmile_qr_scan", "android": "https://dc.lft.to/lastmile_qr_scan"}, "lon": -77.03854433333333, "bike_id": "f102c6ab49593b02e28e26e740b101ae", "type": "electric_scooter", "name": "f102c6ab49593b02e28e26e740b101ae"}, {"is_disabled": 0, "is_reserved": 0, "fusion_lat": 0.0, "lat": 38.93450333333333, "fusion_lon": 0.0, "rental_uris": {"ios": "https://dc.lft.to/lastmile_qr_scan", "android": "https://dc.lft.to/lastmile_qr_scan"}, "lon": -77.02402233333333, "bike_id": "87e38d9189c1f4dc46cf2749dbac37c3", "type": "electric_scooter", "name": "87e38d9189c1f4dc46cf2749dbac37c3"}, {"is_disabled": 0, "is_reserved": 0, "fusion_lat": 0.0, "lat": 38.93746266666667, "fusion_lon": 0.0, "rental_uris": {"ios": "https://dc.lft.to/lastmile_qr_scan", "android": "https://dc.lft.to/lastmile_qr_scan"}, "lon": -77.03437383333333, "bike_id": "d2c2128e16a13004bd2838f36de8b1c0", "type": "electric_scooter", "name": "d2c2128e16a13004bd2838f36de8b1c0"}, {"is_disabled": 0, "is_reserved": 0, "fusion_lat": 0.0, "lat": 38.92051566666667, "fusion_lon": 0.0, "rental_uris": {"ios": "https://dc.lft.to/lastmile_qr_scan", "android": "https://dc.lft.to/lastmile_qr_scan"}, "lon": -76.99883366666667, "bike_id": "06e469693859ec25c3b016c6d56c2fd3", "type": "electric_scooter", "name": "06e469693859ec25c3b016c6d56c2fd3"}, {"is_disabled": 0, "is_reserved": 0, "fusion_lat": 0.0, "lat": 38.84810916666667, "fusion_lon": 0.0, "rental_uris": {"ios": "https://dc.lft.to/lastmile_qr_scan", "android": "https://dc.lft.to/lastmile_qr_scan"}, "lon": -77.08413716666666, "bike_id": "f5442495a82e20189e8ed87e1c1dfea7", "type": "electric_bike", "name": "f5442495a82e20189e8ed87e1c1dfea7"}, {"is_disabled": 0, "is_reserved": 0, "fusion_lat": 0.0, "lat": 38.909967333333334, "fusion_lon": 0.0, "rental_uris": {"ios": "https://dc.lft.to/lastmile_qr_scan", "android": "https://dc.lft.to/lastmile_qr_scan"}, "lon": -76.98609033333334, "bike_id": "e1381781df47a52775a96d6536579379", "type": "electric_scooter", "name": "e1381781df47a52775a96d6536579379"}, {"is_disabled": 0, "is_reserved": 0, "fusion_lat": 0.0, "lat": 38.9176755, "fusion_lon": 0.0, "rental_uris": {"ios": "https://dc.lft.to/lastmile_qr_scan", "android": "https://dc.lft.to/lastmile_qr_scan"}, "lon": -77.02338683333333, "bike_id": "59bec6bd435e2fa6b0d0c91d5b1ce968", "type": "electric_scooter", "name": "59bec6bd435e2fa6b0d0c91d5b1ce968"}, {"is_disabled": 0, "is_reserved": 0, "fusion_lat": 0.0, "lat": 38.90824766666667, "fusion_lon": 0.0, "rental_uris": {"ios": "https://dc.lft.to/lastmile_qr_scan", "android": "https://dc.lft.to/lastmile_qr_scan"}, "lon": -77.000826, "bike_id": "2db8149c1fd6c32ccbde7d40b036bdcb", "type": "electric_scooter", "name": "2db8149c1fd6c32ccbde7d40b036bdcb"}, {"is_disabled": 0, "is_reserved": 0, "fusion_lat": 0.0, "lat": 38.92470933333333, "fusion_lon": 0.0, "rental_uris": {"ios": "https://dc.lft.to/lastmile_qr_scan", "android": "https://dc.lft.to/lastmile_qr_scan"}, "lon": -77.03753666666667, "bike_id": "08128c0cde9274864ad319aa2df0e5d1", "type": "electric_scooter", "name": "08128c0cde9274864ad319aa2df0e5d1"}, {"is_disabled": 0, "is_reserved": 0, "fusion_lat": 0.0, "lat": 38.917879166666665, "fusion_lon": 0.0, "rental_uris": {"ios": "https://dc.lft.to/lastmile_qr_scan", "android": "https://dc.lft.to/lastmile_qr_scan"}, "lon": -77.03195583333333, "bike_id": "407d000c60b6db9341fc21ec0d205df2", "type": "electric_scooter", "name": "407d000c60b6db9341fc21ec0d205df2"}, {"is_disabled": 0, "is_reserved": 0, "fusion_lat": 0.0, "lat": 38.923823166666665, "fusion_lon": 0.0, "rental_uris": {"ios": "https://dc.lft.to/lastmile_qr_scan", "android": "https://dc.lft.to/lastmile_qr_scan"}, "lon": -77.04022366666666, "bike_id": "83e04d35effdd6cab08fdd8dd18cf929", "type": "electric_scooter", "name": "83e04d35effdd6cab08fdd8dd18cf929"}, {"is_disabled": 0, "is_reserved": 0, "fusion_lat": 0.0, "lat": 38.910478833333336, "fusion_lon": 0.0, "rental_uris": {"ios": "https://dc.lft.to/lastmile_qr_scan", "android": "https://dc.lft.to/lastmile_qr_scan"}, "lon": -77.01512, "bike_id": "bb0e45a40289ac903503777c3838040a", "type": "electric_scooter", "name": "bb0e45a40289ac903503777c3838040a"}, {"is_disabled": 0, "is_reserved": 0, "fusion_lat": 0.0, "lat": 38.806771499999996, "fusion_lon": 0.0, "rental_uris": {"ios": "https://dc.lft.to/lastmile_qr_scan", "android": "https://dc.lft.to/lastmile_qr_scan"}, "lon": -77.06913083333333, "bike_id": "0dafa6fc20834d8b65bd80d1ed9a781c", "type": "electric_bike", "name": "0dafa6fc20834d8b65bd80d1ed9a781c"}, {"is_disabled": 0, "is_reserved": 0, "fusion_lat": 0.0, "lat": 38.906384833333334, "fusion_lon": 0.0, "rental_uris": {"ios": "https://dc.lft.to/lastmile_qr_scan", "android": "https://dc.lft.to/lastmile_qr_scan"}, "lon": -77.04559366666666, "bike_id": "4d24d432bcc17b05b4204c86f46eee09", "type": "electric_scooter", "name": "4d24d432bcc17b05b4204c86f46eee09"}, {"is_disabled": 0, "is_reserved": 0, "fusion_lat": 0.0, "lat": 38.9342255, "fusion_lon": 0.0, "rental_uris": {"ios": "https://dc.lft.to/lastmile_qr_scan", "android": "https://dc.lft.to/lastmile_qr_scan"}, "lon": -77.043111, "bike_id": "427360766d96052461ceb6c8feedc1e8", "type": "electric_scooter", "name": "427360766d96052461ceb6c8feedc1e8"}, {"is_disabled": 0, "is_reserved": 0, "fusion_lat": 0.0, "lat": 38.946318, "fusion_lon": 0.0, "rental_uris": {"ios": "https://dc.lft.to/lastmile_qr_scan", "android": "https://dc.lft.to/lastmile_qr_scan"}, "lon": -77.01839883333334, "bike_id": "908fa20925ef7217a1acf0f66f21d47f", "type": "electric_scooter", "name": "908fa20925ef7217a1acf0f66f21d47f"}, {"is_disabled": 0, "is_reserved": 0, "fusion_lat": 0.0, "lat": 38.902944166666664, "fusion_lon": 0.0, "rental_uris": {"ios": "https://dc.lft.to/lastmile_qr_scan", "android": "https://dc.lft.to/lastmile_qr_scan"}, "lon": -77.012099, "bike_id": "dce18a188021077515e5819434a6b418", "type": "electric_scooter", "name": "dce18a188021077515e5819434a6b418"}, {"is_disabled": 0, "is_reserved": 0, "fusion_lat": 0.0, "lat": 38.9176665, "fusion_lon": 0.0, "rental_uris": {"ios": "https://dc.lft.to/lastmile_qr_scan", "android": "https://dc.lft.to/lastmile_qr_scan"}, "lon": -77.02338933333333, "bike_id": "9b4ab33c6c5f17f34a3038357985253b", "type": "electric_scooter", "name": "9b4ab33c6c5f17f34a3038357985253b"}, {"is_disabled": 0, "is_reserved": 0, "fusion_lat": 0.0, "lat": 38.92000683333333, "fusion_lon": 0.0, "rental_uris": {"ios": "https://dc.lft.to/lastmile_qr_scan", "android": "https://dc.lft.to/lastmile_qr_scan"}, "lon": -77.03149716666667, "bike_id": "3afa9ab7e530ef3f0245336fe19993cb", "type": "electric_scooter", "name": "3afa9ab7e530ef3f0245336fe19993cb"}, {"is_disabled": 0, "is_reserved": 0, "fusion_lat": 0.0, "lat": 38.885841666666664, "fusion_lon": 0.0, "rental_uris": {"ios": "https://dc.lft.to/lastmile_qr_scan", "android": "https://dc.lft.to/lastmile_qr_scan"}, "lon": -77.01997916666667, "bike_id": "770529e6a984726c4450f3b88450080f", "type": "electric_scooter", "name": "770529e6a984726c4450f3b88450080f"}, {"is_disabled": 0, "is_reserved": 0, "fusion_lat": 0.0, "lat": 38.94589916666666, "fusion_lon": 0.0, "rental_uris": {"ios": "https://dc.lft.to/lastmile_qr_scan", "android": "https://dc.lft.to/lastmile_qr_scan"}, "lon": -77.02035866666667, "bike_id": "8a45487fb4ad4d572970809ca07c748c", "type": "electric_scooter", "name": "8a45487fb4ad4d572970809ca07c748c"}, {"is_disabled": 0, "is_reserved": 0, "fusion_lat": 0.0, "lat": 38.842775333333336, "fusion_lon": 0.0, "rental_uris": {"ios": "https://dc.lft.to/lastmile_qr_scan", "android": "https://dc.lft.to/lastmile_qr_scan"}, "lon": -76.98839916666667, "bike_id": "87fcc3dc02719183839bfe70dc49cf1a", "type": "electric_bike", "name": "87fcc3dc02719183839bfe70dc49cf1a"}, {"is_disabled": 0, "is_reserved": 0, "fusion_lat": 0.0, "lat": 38.89453983333333, "fusion_lon": 0.0, "rental_uris": {"ios": "https://dc.lft.to/lastmile_qr_scan", "android": "https://dc.lft.to/lastmile_qr_scan"}, "lon": -76.93680733333333, "bike_id": "8becb9d7fc5aa4ba1697f37448a1be07", "type": "electric_bike", "name": "8becb9d7fc5aa4ba1697f37448a1be07"}, {"is_disabled": 0, "is_reserved": 0, "fusion_lat": 0.0, "lat": 38.91811533333333, "fusion_lon": 0.0, "rental_uris": {"ios": "https://dc.lft.to/lastmile_qr_scan", "android": "https://dc.lft.to/lastmile_qr_scan"}, "lon": -77.0271415, "bike_id": "56c59152d6498984b4fd782b4b04ea87", "type": "electric_scooter", "name": "56c59152d6498984b4fd782b4b04ea87"}, {"is_disabled": 0, "is_reserved": 0, "fusion_lat": 0.0, "lat": 38.876565, "fusion_lon": 0.0, "rental_uris": {"ios": "https://dc.lft.to/lastmile_qr_scan", "android": "https://dc.lft.to/lastmile_qr_scan"}, "lon": -77.0089045, "bike_id": "e84fbafee46063eb381eb706eb70716f", "type": "electric_scooter", "name": "e84fbafee46063eb381eb706eb70716f"}, {"is_disabled": 0, "is_reserved": 0, "fusion_lat": 0.0, "lat": 38.923091166666666, "fusion_lon": 0.0, "rental_uris": {"ios": "https://dc.lft.to/lastmile_qr_scan", "android": "https://dc.lft.to/lastmile_qr_scan"}, "lon": -77.03399833333333, "bike_id": "ce56ddbd41c04ada044a2bbbfa877ced", "type": "electric_scooter", "name": "ce56ddbd41c04ada044a2bbbfa877ced"}, {"is_disabled": 0, "is_reserved": 0, "fusion_lat": 0.0, "lat": 38.97440616666667, "fusion_lon": 0.0, "rental_uris": {"ios": "https://dc.lft.to/lastmile_qr_scan", "android": "https://dc.lft.to/lastmile_qr_scan"}, "lon": -77.09616466666667, "bike_id": "7737b5497303c24d4902b31dce6c5b95", "type": "electric_bike", "name": "7737b5497303c24d4902b31dce6c5b95"}, {"is_disabled": 0, "is_reserved": 0, "fusion_lat": 0.0, "lat": 38.89845733333333, "fusion_lon": 0.0, "rental_uris": {"ios": "https://dc.lft.to/lastmile_qr_scan", "android": "https://dc.lft.to/lastmile_qr_scan"}, "lon": -77.0020515, "bike_id": "bd329ae1bce5f3df37ac1ae174edca96", "type": "electric_scooter", "name": "bd329ae1bce5f3df37ac1ae174edca96"}, {"is_disabled": 0, "is_reserved": 0, "fusion_lat": 0.0, "lat": 38.89248716666667, "fusion_lon": 0.0, "rental_uris": {"ios": "https://dc.lft.to/lastmile_qr_scan", "android": "https://dc.lft.to/lastmile_qr_scan"}, "lon": -77.0395535, "bike_id": "2a240e4977c6072aa4f32e92f73a7ddf", "type": "electric_scooter", "name": "2a240e4977c6072aa4f32e92f73a7ddf"}, {"is_disabled": 0, "is_reserved": 0, "fusion_lat": 0.0, "lat": 38.915409, "fusion_lon": 0.0, "rental_uris": {"ios": "https://dc.lft.to/lastmile_qr_scan", "android": "https://dc.lft.to/lastmile_qr_scan"}, "lon": -77.00922883333334, "bike_id": "23cf707ffa25d23dadecb6f3b328adaa", "type": "electric_scooter", "name": "23cf707ffa25d23dadecb6f3b328adaa"}, {"is_disabled": 0, "is_reserved": 0, "fusion_lat": 0.0, "lat": 38.92811233333333, "fusion_lon": 0.0, "rental_uris": {"ios": "https://dc.lft.to/lastmile_qr_scan", "android": "https://dc.lft.to/lastmile_qr_scan"}, "lon": -77.0140865, "bike_id": "238f885f0ed59fd97a1660d91835266f", "type": "electric_scooter", "name": "238f885f0ed59fd97a1660d91835266f"}, {"is_disabled": 0, "is_reserved": 0, "fusion_lat": 0.0, "lat": 38.9146965, "fusion_lon": 0.0, "rental_uris": {"ios": "https://dc.lft.to/lastmile_qr_scan", "android": "https://dc.lft.to/lastmile_qr_scan"}, "lon": -77.00197983333334, "bike_id": "0575dd81fa3b0360ede3151760c178b2", "type": "electric_scooter", "name": "0575dd81fa3b0360ede3151760c178b2"}, {"is_disabled": 0, "is_reserved": 0, "fusion_lat": 0.0, "lat": 38.8960685, "fusion_lon": 0.0, "rental_uris": {"ios": "https://dc.lft.to/lastmile_qr_scan", "android": "https://dc.lft.to/lastmile_qr_scan"}, "lon": -76.99803566666667, "bike_id": "5d56575f9596d5026d5ed0048c5ccd89", "type": "electric_scooter", "name": "5d56575f9596d5026d5ed0048c5ccd89"}, {"is_disabled": 0, "is_reserved": 0, "fusion_lat": 0.0, "lat": 38.92891983333333, "fusion_lon": 0.0, "rental_uris": {"ios": "https://dc.lft.to/lastmile_qr_scan", "android": "https://dc.lft.to/lastmile_qr_scan"}, "lon": -77.0229005, "bike_id": "4d8e16c8cf21db74032fdd2f6197288e", "type": "electric_scooter", "name": "4d8e16c8cf21db74032fdd2f6197288e"}, {"is_disabled": 0, "is_reserved": 0, "fusion_lat": 0.0, "lat": 38.91108466666667, "fusion_lon": 0.0, "rental_uris": {"ios": "https://dc.lft.to/lastmile_qr_scan", "android": "https://dc.lft.to/lastmile_qr_scan"}, "lon": -77.011599, "bike_id": "804a2d4ebd1005d6daeff64b448b47f8", "type": "electric_scooter", "name": "804a2d4ebd1005d6daeff64b448b47f8"}, {"is_disabled": 0, "is_reserved": 0, "fusion_lat": 0.0, "lat": 38.92465983333334, "fusion_lon": 0.0, "rental_uris": {"ios": "https://dc.lft.to/lastmile_qr_scan", "android": "https://dc.lft.to/lastmile_qr_scan"}, "lon": -77.05235566666667, "bike_id": "7ad4fd87ac667e7611ff45775138834d", "type": "electric_scooter", "name": "7ad4fd87ac667e7611ff45775138834d"}, {"is_disabled": 0, "is_reserved": 0, "fusion_lat": 0.0, "lat": 38.9065125, "fusion_lon": 0.0, "rental_uris": {"ios": "https://dc.lft.to/lastmile_qr_scan", "android": "https://dc.lft.to/lastmile_qr_scan"}, "lon": -76.9794085, "bike_id": "27260bdc4d04b40c7944ae84401d32bf", "type": "electric_scooter", "name": "27260bdc4d04b40c7944ae84401d32bf"}, {"is_disabled": 0, "is_reserved": 0, "fusion_lat": 0.0, "lat": 38.941755, "fusion_lon": 0.0, "rental_uris": {"ios": "https://dc.lft.to/lastmile_qr_scan", "android": "https://dc.lft.to/lastmile_qr_scan"}, "lon": -77.02534533333333, "bike_id": "f56204dd20128c63f0ec2d288c72009f", "type": "electric_scooter", "name": "f56204dd20128c63f0ec2d288c72009f"}, {"is_disabled": 0, "is_reserved": 0, "fusion_lat": 0.0, "lat": 38.914069, "fusion_lon": 0.0, "rental_uris": {"ios": "https://dc.lft.to/lastmile_qr_scan", "android": "https://dc.lft.to/lastmile_qr_scan"}, "lon": -77.02113766666666, "bike_id": "21e3521573d246928ee61588eed0391c", "type": "electric_scooter", "name": "21e3521573d246928ee61588eed0391c"}, {"is_disabled": 0, "is_reserved": 0, "fusion_lat": 0.0, "lat": 38.91230066666667, "fusion_lon": 0.0, "rental_uris": {"ios": "https://dc.lft.to/lastmile_qr_scan", "android": "https://dc.lft.to/lastmile_qr_scan"}, "lon": -77.0639495, "bike_id": "2699cd93462d93030dfea8cb99230226", "type": "electric_scooter", "name": "2699cd93462d93030dfea8cb99230226"}, {"is_disabled": 0, "is_reserved": 0, "fusion_lat": 0.0, "lat": 38.90868233333333, "fusion_lon": 0.0, "rental_uris": {"ios": "https://dc.lft.to/lastmile_qr_scan", "android": "https://dc.lft.to/lastmile_qr_scan"}, "lon": -77.07434766666667, "bike_id": "5876dc0efe81e36915fd8e2be22f9f67", "type": "electric_scooter", "name": "5876dc0efe81e36915fd8e2be22f9f67"}, {"is_disabled": 0, "is_reserved": 0, "fusion_lat": 0.0, "lat": 38.895453, "fusion_lon": 0.0, "rental_uris": {"ios": "https://dc.lft.to/lastmile_qr_scan", "android": "https://dc.lft.to/lastmile_qr_scan"}, "lon": -77.00915966666666, "bike_id": "73032d955843e8c96c7fce487853a859", "type": "electric_scooter", "name": "73032d955843e8c96c7fce487853a859"}, {"is_disabled": 0, "is_reserved": 0, "fusion_lat": 0.0, "lat": 38.896312333333334, "fusion_lon": 0.0, "rental_uris": {"ios": "https://dc.lft.to/lastmile_qr_scan", "android": "https://dc.lft.to/lastmile_qr_scan"}, "lon": -76.92961916666667, "bike_id": "4f2b1de9f5740b523cbee9c194794f8a", "type": "electric_scooter", "name": "4f2b1de9f5740b523cbee9c194794f8a"}, {"is_disabled": 0, "is_reserved": 0, "fusion_lat": 0.0, "lat": 38.9018045, "fusion_lon": 0.0, "rental_uris": {"ios": "https://dc.lft.to/lastmile_qr_scan", "android": "https://dc.lft.to/lastmile_qr_scan"}, "lon": -76.976746, "bike_id": "c5cf8dc607a5cbb3151c0c9b0c9dccc9", "type": "electric_scooter", "name": "c5cf8dc607a5cbb3151c0c9b0c9dccc9"}, {"is_disabled": 0, "is_reserved": 0, "fusion_lat": 0.0, "lat": 38.9303235, "fusion_lon": 0.0, "rental_uris": {"ios": "https://dc.lft.to/lastmile_qr_scan", "android": "https://dc.lft.to/lastmile_qr_scan"}, "lon": -77.01996516666667, "bike_id": "797a6895726a5e7f229e3e33d2d53810", "type": "electric_scooter", "name": "797a6895726a5e7f229e3e33d2d53810"}, {"is_disabled": 0, "is_reserved": 0, "fusion_lat": 0.0, "lat": 38.9560165, "fusion_lon": 0.0, "rental_uris": {"ios": "https://dc.lft.to/lastmile_qr_scan", "android": "https://dc.lft.to/lastmile_qr_scan"}, "lon": -77.01007766666666, "bike_id": "e7aa123b4150b0da3807ed2490e63e35", "type": "electric_bike", "name": "e7aa123b4150b0da3807ed2490e63e35"}, {"is_disabled": 0, "is_reserved": 0, "fusion_lat": 0.0, "lat": 39.03477133333333, "fusion_lon": 0.0, "rental_uris": {"ios": "https://dc.lft.to/lastmile_qr_scan", "android": "https://dc.lft.to/lastmile_qr_scan"}, "lon": -77.04106466666667, "bike_id": "e482428003fdafa6ec01552cdcfecaba", "type": "electric_bike", "name": "e482428003fdafa6ec01552cdcfecaba"}, {"is_disabled": 0, "is_reserved": 0, "fusion_lat": 0.0, "lat": 38.880068333333334, "fusion_lon": 0.0, "rental_uris": {"ios": "https://dc.lft.to/lastmile_qr_scan", "android": "https://dc.lft.to/lastmile_qr_scan"}, "lon": -76.99834316666667, "bike_id": "e6c7adfee764e1bbc8b02b8cbddadf24", "type": "electric_scooter", "name": "e6c7adfee764e1bbc8b02b8cbddadf24"}, {"is_disabled": 0, "is_reserved": 0, "fusion_lat": 0.0, "lat": 38.88999366666667, "fusion_lon": 0.0, "rental_uris": {"ios": "https://dc.lft.to/lastmile_qr_scan", "android": "https://dc.lft.to/lastmile_qr_scan"}, "lon": -77.0489865, "bike_id": "1e52f5b9261016329566c6418153b7de", "type": "electric_scooter", "name": "1e52f5b9261016329566c6418153b7de"}, {"is_disabled": 0, "is_reserved": 0, "fusion_lat": 0.0, "lat": 38.92104116666667, "fusion_lon": 0.0, "rental_uris": {"ios": "https://dc.lft.to/lastmile_qr_scan", "android": "https://dc.lft.to/lastmile_qr_scan"}, "lon": -77.02083466666667, "bike_id": "ca7bbf36b6fbcf0ca9913f87b79709dd", "type": "electric_scooter", "name": "ca7bbf36b6fbcf0ca9913f87b79709dd"}, {"is_disabled": 0, "is_reserved": 0, "fusion_lat": 0.0, "lat": 38.91037383333333, "fusion_lon": 0.0, "rental_uris": {"ios": "https://dc.lft.to/lastmile_qr_scan", "android": "https://dc.lft.to/lastmile_qr_scan"}, "lon": -76.93837333333333, "bike_id": "94e88ee0174dd0453f35239447bd01f3", "type": "electric_scooter", "name": "94e88ee0174dd0453f35239447bd01f3"}, {"is_disabled": 0, "is_reserved": 0, "fusion_lat": 0.0, "lat": 38.899280166666664, "fusion_lon": 0.0, "rental_uris": {"ios": "https://dc.lft.to/lastmile_qr_scan", "android": "https://dc.lft.to/lastmile_qr_scan"}, "lon": -76.93766533333333, "bike_id": "87c03a0d309a70dd33d9b3599eb2a353", "type": "electric_scooter", "name": "87c03a0d309a70dd33d9b3599eb2a353"}, {"is_disabled": 0, "is_reserved": 0, "fusion_lat": 0.0, "lat": 39.00644483333333, "fusion_lon": 0.0, "rental_uris": {"ios": "https://dc.lft.to/lastmile_qr_scan", "android": "https://dc.lft.to/lastmile_qr_scan"}, "lon": -76.90023716666667, "bike_id": "1a18c723c45d719f2d53f7370593a891", "type": "electric_bike", "name": "1a18c723c45d719f2d53f7370593a891"}, {"is_disabled": 0, "is_reserved": 0, "fusion_lat": 0.0, "lat": 38.895292, "fusion_lon": 0.0, "rental_uris": {"ios": "https://dc.lft.to/lastmile_qr_scan", "android": "https://dc.lft.to/lastmile_qr_scan"}, "lon": -77.02278983333333, "bike_id": "ab6bb46b9615e87a7978d1239ea67f5f", "type": "electric_scooter", "name": "ab6bb46b9615e87a7978d1239ea67f5f"}, {"is_disabled": 0, "is_reserved": 0, "fusion_lat": 0.0, "lat": 38.91045416666667, "fusion_lon": 0.0, "rental_uris": {"ios": "https://dc.lft.to/lastmile_qr_scan", "android": "https://dc.lft.to/lastmile_qr_scan"}, "lon": -76.99799533333334, "bike_id": "285f029f28818edddbe6c12ace4e05a0", "type": "electric_scooter", "name": "285f029f28818edddbe6c12ace4e05a0"}, {"is_disabled": 0, "is_reserved": 0, "fusion_lat": 0.0, "lat": 38.915483333333334, "fusion_lon": 0.0, "rental_uris": {"ios": "https://dc.lft.to/lastmile_qr_scan", "android": "https://dc.lft.to/lastmile_qr_scan"}, "lon": -77.03852483333333, "bike_id": "c46e27615c111adeff77823a6b214802", "type": "electric_scooter", "name": "c46e27615c111adeff77823a6b214802"}, {"is_disabled": 0, "is_reserved": 0, "fusion_lat": 0.0, "lat": 38.914079, "fusion_lon": 0.0, "rental_uris": {"ios": "https://dc.lft.to/lastmile_qr_scan", "android": "https://dc.lft.to/lastmile_qr_scan"}, "lon": -77.02427933333334, "bike_id": "389b9eb25519a3f7698bca12c3a03bb3", "type": "electric_scooter", "name": "389b9eb25519a3f7698bca12c3a03bb3"}, {"is_disabled": 0, "is_reserved": 0, "fusion_lat": 0.0, "lat": 38.952144, "fusion_lon": 0.0, "rental_uris": {"ios": "https://dc.lft.to/lastmile_qr_scan", "android": "https://dc.lft.to/lastmile_qr_scan"}, "lon": -77.08864783333334, "bike_id": "267872e1696606785f30ed1794f07141", "type": "electric_scooter", "name": "267872e1696606785f30ed1794f07141"}, {"is_disabled": 0, "is_reserved": 0, "fusion_lat": 0.0, "lat": 38.92319066666667, "fusion_lon": 0.0, "rental_uris": {"ios": "https://dc.lft.to/lastmile_qr_scan", "android": "https://dc.lft.to/lastmile_qr_scan"}, "lon": -77.0291315, "bike_id": "04138a9827d75feba8ee5e5a62331e13", "type": "electric_scooter", "name": "04138a9827d75feba8ee5e5a62331e13"}, {"is_disabled": 0, "is_reserved": 0, "fusion_lat": 0.0, "lat": 38.8524515, "fusion_lon": 0.0, "rental_uris": {"ios": "https://dc.lft.to/lastmile_qr_scan", "android": "https://dc.lft.to/lastmile_qr_scan"}, "lon": -77.11404966666667, "bike_id": "7d9878be7d418058d62e0cf5727086f8", "type": "electric_bike", "name": "7d9878be7d418058d62e0cf5727086f8"}, {"is_disabled": 0, "is_reserved": 0, "fusion_lat": 0.0, "lat": 38.92570083333333, "fusion_lon": 0.0, "rental_uris": {"ios": "https://dc.lft.to/lastmile_qr_scan", "android": "https://dc.lft.to/lastmile_qr_scan"}, "lon": -77.03137216666667, "bike_id": "9da40e32df02f8856a7d9ef6808a85b8", "type": "electric_scooter", "name": "9da40e32df02f8856a7d9ef6808a85b8"}, {"is_disabled": 0, "is_reserved": 0, "fusion_lat": 0.0, "lat": 38.94328866666667, "fusion_lon": 0.0, "rental_uris": {"ios": "https://dc.lft.to/lastmile_qr_scan", "android": "https://dc.lft.to/lastmile_qr_scan"}, "lon": -77.01553533333333, "bike_id": "3fc82275d301dcdab5549f22fa95de4b", "type": "electric_scooter", "name": "3fc82275d301dcdab5549f22fa95de4b"}, {"is_disabled": 0, "is_reserved": 0, "fusion_lat": 0.0, "lat": 38.883032166666666, "fusion_lon": 0.0, "rental_uris": {"ios": "https://dc.lft.to/lastmile_qr_scan", "android": "https://dc.lft.to/lastmile_qr_scan"}, "lon": -76.934917, "bike_id": "3bdba66d7d4eac4f3cf2b5e92a6e2f4b", "type": "electric_scooter", "name": "3bdba66d7d4eac4f3cf2b5e92a6e2f4b"}, {"is_disabled": 0, "is_reserved": 0, "fusion_lat": 0.0, "lat": 38.84279033333333, "fusion_lon": 0.0, "rental_uris": {"ios": "https://dc.lft.to/lastmile_qr_scan", "android": "https://dc.lft.to/lastmile_qr_scan"}, "lon": -76.98842166666667, "bike_id": "c66e4c1ea097915c88064dfa8fd3b120", "type": "electric_scooter", "name": "c66e4c1ea097915c88064dfa8fd3b120"}, {"is_disabled": 0, "is_reserved": 0, "fusion_lat": 0.0, "lat": 38.89237, "fusion_lon": 0.0, "rental_uris": {"ios": "https://dc.lft.to/lastmile_qr_scan", "android": "https://dc.lft.to/lastmile_qr_scan"}, "lon": -77.03245783333334, "bike_id": "d4eca1f64ac21a44a9aa8e933963cf78", "type": "electric_scooter", "name": "d4eca1f64ac21a44a9aa8e933963cf78"}, {"is_disabled": 0, "is_reserved": 0, "fusion_lat": 0.0, "lat": 38.919941666666666, "fusion_lon": 0.0, "rental_uris": {"ios": "https://dc.lft.to/lastmile_qr_scan", "android": "https://dc.lft.to/lastmile_qr_scan"}, "lon": -77.0321645, "bike_id": "38d3f5d84cef787bc35ad12a0b217934", "type": "electric_scooter", "name": "38d3f5d84cef787bc35ad12a0b217934"}, {"is_disabled": 0, "is_reserved": 0, "fusion_lat": 0.0, "lat": 38.90642783333333, "fusion_lon": 0.0, "rental_uris": {"ios": "https://dc.lft.to/lastmile_qr_scan", "android": "https://dc.lft.to/lastmile_qr_scan"}, "lon": -77.04548566666666, "bike_id": "f0f88b7308df915339e1c0431eb88555", "type": "electric_scooter", "name": "f0f88b7308df915339e1c0431eb88555"}, {"is_disabled": 0, "is_reserved": 0, "fusion_lat": 0.0, "lat": 38.90685533333333, "fusion_lon": 0.0, "rental_uris": {"ios": "https://dc.lft.to/lastmile_qr_scan", "android": "https://dc.lft.to/lastmile_qr_scan"}, "lon": -77.0628705, "bike_id": "9c3f0d4bb5dfca5808ed9e668a90902e", "type": "electric_scooter", "name": "9c3f0d4bb5dfca5808ed9e668a90902e"}, {"is_disabled": 0, "is_reserved": 0, "fusion_lat": 0.0, "lat": 38.89662783333333, "fusion_lon": 0.0, "rental_uris": {"ios": "https://dc.lft.to/lastmile_qr_scan", "android": "https://dc.lft.to/lastmile_qr_scan"}, "lon": -77.04892066666666, "bike_id": "487fb8fa28086dcaad6218a8f41a4aa8", "type": "electric_scooter", "name": "487fb8fa28086dcaad6218a8f41a4aa8"}, {"is_disabled": 0, "is_reserved": 0, "fusion_lat": 0.0, "lat": 38.9013975, "fusion_lon": 0.0, "rental_uris": {"ios": "https://dc.lft.to/lastmile_qr_scan", "android": "https://dc.lft.to/lastmile_qr_scan"}, "lon": -76.92979866666667, "bike_id": "c018a0703d4424b3cb35a65c9f6d65d5", "type": "electric_scooter", "name": "c018a0703d4424b3cb35a65c9f6d65d5"}, {"is_disabled": 0, "is_reserved": 0, "fusion_lat": 0.0, "lat": 38.89694333333333, "fusion_lon": 0.0, "rental_uris": {"ios": "https://dc.lft.to/lastmile_qr_scan", "android": "https://dc.lft.to/lastmile_qr_scan"}, "lon": -77.04900583333334, "bike_id": "58413a60dae65a937634a913489276f4", "type": "electric_scooter", "name": "58413a60dae65a937634a913489276f4"}, {"is_disabled": 0, "is_reserved": 0, "fusion_lat": 0.0, "lat": 38.855094, "fusion_lon": 0.0, "rental_uris": {"ios": "https://dc.lft.to/lastmile_qr_scan", "android": "https://dc.lft.to/lastmile_qr_scan"}, "lon": -76.99151683333334, "bike_id": "1cfa813356fd751827fb6fb68502a531", "type": "electric_scooter", "name": "1cfa813356fd751827fb6fb68502a531"}, {"is_disabled": 0, "is_reserved": 0, "fusion_lat": 0.0, "lat": 38.92420033333333, "fusion_lon": 0.0, "rental_uris": {"ios": "https://dc.lft.to/lastmile_qr_scan", "android": "https://dc.lft.to/lastmile_qr_scan"}, "lon": -77.029726, "bike_id": "7ed1c145d6b7bb666507f0ed9b5cc3ec", "type": "electric_scooter", "name": "7ed1c145d6b7bb666507f0ed9b5cc3ec"}, {"is_disabled": 0, "is_reserved": 0, "fusion_lat": 0.0, "lat": 38.93020166666667, "fusion_lon": 0.0, "rental_uris": {"ios": "https://dc.lft.to/lastmile_qr_scan", "android": "https://dc.lft.to/lastmile_qr_scan"}, "lon": -77.03800983333333, "bike_id": "12191b0826ac26b8c44a86ecd1d30023", "type": "electric_scooter", "name": "12191b0826ac26b8c44a86ecd1d30023"}, {"is_disabled": 0, "is_reserved": 0, "fusion_lat": 0.0, "lat": 38.92214833333333, "fusion_lon": 0.0, "rental_uris": {"ios": "https://dc.lft.to/lastmile_qr_scan", "android": "https://dc.lft.to/lastmile_qr_scan"}, "lon": -77.03295133333333, "bike_id": "6a66ca865de83287a6499243517b5707", "type": "electric_scooter", "name": "6a66ca865de83287a6499243517b5707"}, {"is_disabled": 0, "is_reserved": 0, "fusion_lat": 0.0, "lat": 38.9047315, "fusion_lon": 0.0, "rental_uris": {"ios": "https://dc.lft.to/lastmile_qr_scan", "android": "https://dc.lft.to/lastmile_qr_scan"}, "lon": -76.95051433333333, "bike_id": "4d839a8ea911ff104901bde68782578c", "type": "electric_scooter", "name": "4d839a8ea911ff104901bde68782578c"}, {"is_disabled": 0, "is_reserved": 0, "fusion_lat": 0.0, "lat": 38.876932333333336, "fusion_lon": 0.0, "rental_uris": {"ios": "https://dc.lft.to/lastmile_qr_scan", "android": "https://dc.lft.to/lastmile_qr_scan"}, "lon": -76.9962525, "bike_id": "c309bfe06ee50dc07f7f5050367b300f", "type": "electric_scooter", "name": "c309bfe06ee50dc07f7f5050367b300f"}, {"is_disabled": 0, "is_reserved": 0, "fusion_lat": 0.0, "lat": 38.92242566666667, "fusion_lon": 0.0, "rental_uris": {"ios": "https://dc.lft.to/lastmile_qr_scan", "android": "https://dc.lft.to/lastmile_qr_scan"}, "lon": -77.03665433333333, "bike_id": "286dc839b545fad335e28123fd161027", "type": "electric_scooter", "name": "286dc839b545fad335e28123fd161027"}, {"is_disabled": 0, "is_reserved": 0, "fusion_lat": 0.0, "lat": 38.93863066666667, "fusion_lon": 0.0, "rental_uris": {"ios": "https://dc.lft.to/lastmile_qr_scan", "android": "https://dc.lft.to/lastmile_qr_scan"}, "lon": -77.0304515, "bike_id": "06b9dd854c89b1a9b66d7ef67b31df23", "type": "electric_scooter", "name": "06b9dd854c89b1a9b66d7ef67b31df23"}, {"is_disabled": 0, "is_reserved": 0, "fusion_lat": 0.0, "lat": 38.87450966666667, "fusion_lon": 0.0, "rental_uris": {"ios": "https://dc.lft.to/lastmile_qr_scan", "android": "https://dc.lft.to/lastmile_qr_scan"}, "lon": -77.0028205, "bike_id": "80c342937380c27b863021dbd5c9c6f4", "type": "electric_scooter", "name": "80c342937380c27b863021dbd5c9c6f4"}, {"is_disabled": 0, "is_reserved": 0, "fusion_lat": 0.0, "lat": 38.947111, "fusion_lon": 0.0, "rental_uris": {"ios": "https://dc.lft.to/lastmile_qr_scan", "android": "https://dc.lft.to/lastmile_qr_scan"}, "lon": -77.02614983333333, "bike_id": "9b4ea74cd6e05eaed35579cb64585fde", "type": "electric_scooter", "name": "9b4ea74cd6e05eaed35579cb64585fde"}, {"is_disabled": 0, "is_reserved": 0, "fusion_lat": 0.0, "lat": 38.844735, "fusion_lon": 0.0, "rental_uris": {"ios": "https://dc.lft.to/lastmile_qr_scan", "android": "https://dc.lft.to/lastmile_qr_scan"}, "lon": -76.99589733333333, "bike_id": "65b62f7db62f555f5481afc9e26536b3", "type": "electric_bike", "name": "65b62f7db62f555f5481afc9e26536b3"}, {"is_disabled": 0, "is_reserved": 0, "fusion_lat": 0.0, "lat": 38.90882633333333, "fusion_lon": 0.0, "rental_uris": {"ios": "https://dc.lft.to/lastmile_qr_scan", "android": "https://dc.lft.to/lastmile_qr_scan"}, "lon": -77.04662833333333, "bike_id": "06a6b90af194d79fb5d35dba7d123aa1", "type": "electric_scooter", "name": "06a6b90af194d79fb5d35dba7d123aa1"}, {"is_disabled": 0, "is_reserved": 0, "fusion_lat": 0.0, "lat": 38.90743783333333, "fusion_lon": 0.0, "rental_uris": {"ios": "https://dc.lft.to/lastmile_qr_scan", "android": "https://dc.lft.to/lastmile_qr_scan"}, "lon": -77.000124, "bike_id": "c9d18fbcb6c8885c0e6e8bd44247bebb", "type": "electric_scooter", "name": "c9d18fbcb6c8885c0e6e8bd44247bebb"}, {"is_disabled": 0, "is_reserved": 0, "fusion_lat": 0.0, "lat": 38.99851116666667, "fusion_lon": 0.0, "rental_uris": {"ios": "https://dc.lft.to/lastmile_qr_scan", "android": "https://dc.lft.to/lastmile_qr_scan"}, "lon": -77.00249233333334, "bike_id": "5f667fb200027a65d5bb5aecaa7f6bbd", "type": "electric_bike", "name": "5f667fb200027a65d5bb5aecaa7f6bbd"}, {"is_disabled": 0, "is_reserved": 0, "fusion_lat": 0.0, "lat": 38.91262583333334, "fusion_lon": 0.0, "rental_uris": {"ios": "https://dc.lft.to/lastmile_qr_scan", "android": "https://dc.lft.to/lastmile_qr_scan"}, "lon": -77.046561, "bike_id": "1c839eb2de553157c3a223fa330a924b", "type": "electric_scooter", "name": "1c839eb2de553157c3a223fa330a924b"}, {"is_disabled": 0, "is_reserved": 0, "fusion_lat": 0.0, "lat": 39.0423065, "fusion_lon": 0.0, "rental_uris": {"ios": "https://dc.lft.to/lastmile_qr_scan", "android": "https://dc.lft.to/lastmile_qr_scan"}, "lon": -76.99736283333333, "bike_id": "cd12a19a950bbe2dff1154236a6636eb", "type": "electric_bike", "name": "cd12a19a950bbe2dff1154236a6636eb"}, {"is_disabled": 0, "is_reserved": 0, "fusion_lat": 0.0, "lat": 38.95071566666667, "fusion_lon": 0.0, "rental_uris": {"ios": "https://dc.lft.to/lastmile_qr_scan", "android": "https://dc.lft.to/lastmile_qr_scan"}, "lon": -76.99600733333334, "bike_id": "2b8330142a6df49fa178096f56f5d497", "type": "electric_bike", "name": "2b8330142a6df49fa178096f56f5d497"}, {"is_disabled": 0, "is_reserved": 0, "fusion_lat": 0.0, "lat": 38.89470133333333, "fusion_lon": 0.0, "rental_uris": {"ios": "https://dc.lft.to/lastmile_qr_scan", "android": "https://dc.lft.to/lastmile_qr_scan"}, "lon": -77.00269166666666, "bike_id": "0620e9dd082dd0e7df4d699fa0621f4b", "type": "electric_scooter", "name": "0620e9dd082dd0e7df4d699fa0621f4b"}, {"is_disabled": 0, "is_reserved": 0, "fusion_lat": 0.0, "lat": 38.87563183333333, "fusion_lon": 0.0, "rental_uris": {"ios": "https://dc.lft.to/lastmile_qr_scan", "android": "https://dc.lft.to/lastmile_qr_scan"}, "lon": -77.0470875, "bike_id": "04c2cf585a62b560cd608337e14a2a81", "type": "electric_bike", "name": "04c2cf585a62b560cd608337e14a2a81"}, {"is_disabled": 0, "is_reserved": 0, "fusion_lat": 0.0, "lat": 38.90032333333333, "fusion_lon": 0.0, "rental_uris": {"ios": "https://dc.lft.to/lastmile_qr_scan", "android": "https://dc.lft.to/lastmile_qr_scan"}, "lon": -77.0037235, "bike_id": "78741aa21e6c6a1b4d38ab5c696c6a4c", "type": "electric_scooter", "name": "78741aa21e6c6a1b4d38ab5c696c6a4c"}, {"is_disabled": 0, "is_reserved": 0, "fusion_lat": 0.0, "lat": 38.926702666666664, "fusion_lon": 0.0, "rental_uris": {"ios": "https://dc.lft.to/lastmile_qr_scan", "android": "https://dc.lft.to/lastmile_qr_scan"}, "lon": -77.03034016666666, "bike_id": "b3d99ba0387fc747302778477caedba3", "type": "electric_scooter", "name": "b3d99ba0387fc747302778477caedba3"}, {"is_disabled": 0, "is_reserved": 0, "fusion_lat": 0.0, "lat": 38.872947833333335, "fusion_lon": 0.0, "rental_uris": {"ios": "https://dc.lft.to/lastmile_qr_scan", "android": "https://dc.lft.to/lastmile_qr_scan"}, "lon": -77.0098915, "bike_id": "536d7f7b1facdd1cf14abb7189407cfe", "type": "electric_scooter", "name": "536d7f7b1facdd1cf14abb7189407cfe"}, {"is_disabled": 0, "is_reserved": 0, "fusion_lat": 0.0, "lat": 38.935229666666665, "fusion_lon": 0.0, "rental_uris": {"ios": "https://dc.lft.to/lastmile_qr_scan", "android": "https://dc.lft.to/lastmile_qr_scan"}, "lon": -77.028443, "bike_id": "741f95e2dffd7381a884324c2b054145", "type": "electric_scooter", "name": "741f95e2dffd7381a884324c2b054145"}, {"is_disabled": 0, "is_reserved": 0, "fusion_lat": 0.0, "lat": 38.919087166666664, "fusion_lon": 0.0, "rental_uris": {"ios": "https://dc.lft.to/lastmile_qr_scan", "android": "https://dc.lft.to/lastmile_qr_scan"}, "lon": -77.02307583333334, "bike_id": "856f1f65ba4640b27242a7c509c07867", "type": "electric_scooter", "name": "856f1f65ba4640b27242a7c509c07867"}, {"is_disabled": 0, "is_reserved": 0, "fusion_lat": 0.0, "lat": 38.90503916666667, "fusion_lon": 0.0, "rental_uris": {"ios": "https://dc.lft.to/lastmile_qr_scan", "android": "https://dc.lft.to/lastmile_qr_scan"}, "lon": -77.06110133333334, "bike_id": "1807119a5d3c7f335ba56cd412eb00ff", "type": "electric_scooter", "name": "1807119a5d3c7f335ba56cd412eb00ff"}, {"is_disabled": 0, "is_reserved": 0, "fusion_lat": 0.0, "lat": 38.91128466666667, "fusion_lon": 0.0, "rental_uris": {"ios": "https://dc.lft.to/lastmile_qr_scan", "android": "https://dc.lft.to/lastmile_qr_scan"}, "lon": -76.9974725, "bike_id": "b26b2ec53afc9cb79e99733a8cd59cd1", "type": "electric_scooter", "name": "b26b2ec53afc9cb79e99733a8cd59cd1"}, {"is_disabled": 0, "is_reserved": 0, "fusion_lat": 0.0, "lat": 38.9677445, "fusion_lon": 0.0, "rental_uris": {"ios": "https://dc.lft.to/lastmile_qr_scan", "android": "https://dc.lft.to/lastmile_qr_scan"}, "lon": -76.996516, "bike_id": "63935b71c00992aed8d1325e8367cfd7", "type": "electric_bike", "name": "63935b71c00992aed8d1325e8367cfd7"}, {"is_disabled": 0, "is_reserved": 0, "fusion_lat": 0.0, "lat": 38.8651285, "fusion_lon": 0.0, "rental_uris": {"ios": "https://dc.lft.to/lastmile_qr_scan", "android": "https://dc.lft.to/lastmile_qr_scan"}, "lon": -76.97329416666666, "bike_id": "2ecd53e1e9fd4e0731240557bbd98026", "type": "electric_bike", "name": "2ecd53e1e9fd4e0731240557bbd98026"}, {"is_disabled": 0, "is_reserved": 0, "fusion_lat": 0.0, "lat": 38.885075666666665, "fusion_lon": 0.0, "rental_uris": {"ios": "https://dc.lft.to/lastmile_qr_scan", "android": "https://dc.lft.to/lastmile_qr_scan"}, "lon": -76.99606016666667, "bike_id": "7e361213ccae6d708373f2360149baf1", "type": "electric_scooter", "name": "7e361213ccae6d708373f2360149baf1"}, {"is_disabled": 0, "is_reserved": 0, "fusion_lat": 0.0, "lat": 39.00530916666666, "fusion_lon": 0.0, "rental_uris": {"ios": "https://dc.lft.to/lastmile_qr_scan", "android": "https://dc.lft.to/lastmile_qr_scan"}, "lon": -77.10402583333334, "bike_id": "377f4dcea1ade79636c0cd4c9fa2c0c8", "type": "electric_bike", "name": "377f4dcea1ade79636c0cd4c9fa2c0c8"}, {"is_disabled": 0, "is_reserved": 0, "fusion_lat": 0.0, "lat": 38.907748833333336, "fusion_lon": 0.0, "rental_uris": {"ios": "https://dc.lft.to/lastmile_qr_scan", "android": "https://dc.lft.to/lastmile_qr_scan"}, "lon": -77.0453015, "bike_id": "741dc2e6acae8d54c84c819f273cefda", "type": "electric_scooter", "name": "741dc2e6acae8d54c84c819f273cefda"}, {"is_disabled": 0, "is_reserved": 0, "fusion_lat": 0.0, "lat": 38.88102716666667, "fusion_lon": 0.0, "rental_uris": {"ios": "https://dc.lft.to/lastmile_qr_scan", "android": "https://dc.lft.to/lastmile_qr_scan"}, "lon": -77.01237266666666, "bike_id": "2568393b121f371af84e4dd7da09df83", "type": "electric_scooter", "name": "2568393b121f371af84e4dd7da09df83"}, {"is_disabled": 0, "is_reserved": 0, "fusion_lat": 0.0, "lat": 38.9119925, "fusion_lon": 0.0, "rental_uris": {"ios": "https://dc.lft.to/lastmile_qr_scan", "android": "https://dc.lft.to/lastmile_qr_scan"}, "lon": -77.00081233333333, "bike_id": "a0a6e88af38756d1a296596afc816696", "type": "electric_scooter", "name": "a0a6e88af38756d1a296596afc816696"}, {"is_disabled": 0, "is_reserved": 0, "fusion_lat": 0.0, "lat": 38.87737516666667, "fusion_lon": 0.0, "rental_uris": {"ios": "https://dc.lft.to/lastmile_qr_scan", "android": "https://dc.lft.to/lastmile_qr_scan"}, "lon": -77.14873083333333, "bike_id": "770b34104c9c64f3c62e4602bb7d3061", "type": "electric_bike", "name": "770b34104c9c64f3c62e4602bb7d3061"}, {"is_disabled": 0, "is_reserved": 0, "fusion_lat": 0.0, "lat": 38.91673566666667, "fusion_lon": 0.0, "rental_uris": {"ios": "https://dc.lft.to/lastmile_qr_scan", "android": "https://dc.lft.to/lastmile_qr_scan"}, "lon": -77.09573033333334, "bike_id": "2e1c6c99dfaae0dac6dd8ae9c43e549c", "type": "electric_scooter", "name": "2e1c6c99dfaae0dac6dd8ae9c43e549c"}, {"is_disabled": 0, "is_reserved": 0, "fusion_lat": 0.0, "lat": 38.9207935, "fusion_lon": 0.0, "rental_uris": {"ios": "https://dc.lft.to/lastmile_qr_scan", "android": "https://dc.lft.to/lastmile_qr_scan"}, "lon": -77.02359, "bike_id": "2d0799e753c4644472d9f6f51300c39a", "type": "electric_scooter", "name": "2d0799e753c4644472d9f6f51300c39a"}, {"is_disabled": 0, "is_reserved": 0, "fusion_lat": 0.0, "lat": 38.93971583333333, "fusion_lon": 0.0, "rental_uris": {"ios": "https://dc.lft.to/lastmile_qr_scan", "android": "https://dc.lft.to/lastmile_qr_scan"}, "lon": -77.03429216666666, "bike_id": "a992ebc162bf4fc7977e8df45ed4715a", "type": "electric_scooter", "name": "a992ebc162bf4fc7977e8df45ed4715a"}, {"is_disabled": 0, "is_reserved": 0, "fusion_lat": 0.0, "lat": 38.892267333333336, "fusion_lon": 0.0, "rental_uris": {"ios": "https://dc.lft.to/lastmile_qr_scan", "android": "https://dc.lft.to/lastmile_qr_scan"}, "lon": -77.05003633333334, "bike_id": "67f01f3fed274ed8ac55c79b052e8628", "type": "electric_scooter", "name": "67f01f3fed274ed8ac55c79b052e8628"}, {"is_disabled": 0, "is_reserved": 0, "fusion_lat": 0.0, "lat": 38.9203435, "fusion_lon": 0.0, "rental_uris": {"ios": "https://dc.lft.to/lastmile_qr_scan", "android": "https://dc.lft.to/lastmile_qr_scan"}, "lon": -76.979578, "bike_id": "332da2a21993248437caae35e8d5cb72", "type": "electric_bike", "name": "332da2a21993248437caae35e8d5cb72"}, {"is_disabled": 0, "is_reserved": 0, "fusion_lat": 0.0, "lat": 38.913362666666664, "fusion_lon": 0.0, "rental_uris": {"ios": "https://dc.lft.to/lastmile_qr_scan", "android": "https://dc.lft.to/lastmile_qr_scan"}, "lon": -77.04342066666666, "bike_id": "5ac9dc223d3d9df1cf789a8d53f337ae", "type": "electric_scooter", "name": "5ac9dc223d3d9df1cf789a8d53f337ae"}, {"is_disabled": 0, "is_reserved": 0, "fusion_lat": 0.0, "lat": 39.00377533333333, "fusion_lon": 0.0, "rental_uris": {"ios": "https://dc.lft.to/lastmile_qr_scan", "android": "https://dc.lft.to/lastmile_qr_scan"}, "lon": -77.012881, "bike_id": "ca758c2e8f0fd1479f26c638032940cf", "type": "electric_bike", "name": "ca758c2e8f0fd1479f26c638032940cf"}, {"is_disabled": 0, "is_reserved": 0, "fusion_lat": 0.0, "lat": 38.930823833333335, "fusion_lon": 0.0, "rental_uris": {"ios": "https://dc.lft.to/lastmile_qr_scan", "android": "https://dc.lft.to/lastmile_qr_scan"}, "lon": -77.077579, "bike_id": "efa427633af5458e75840921b5e08029", "type": "electric_scooter", "name": "efa427633af5458e75840921b5e08029"}, {"is_disabled": 0, "is_reserved": 0, "fusion_lat": 0.0, "lat": 38.92572933333334, "fusion_lon": 0.0, "rental_uris": {"ios": "https://dc.lft.to/lastmile_qr_scan", "android": "https://dc.lft.to/lastmile_qr_scan"}, "lon": -76.99503666666666, "bike_id": "64b1c30808229eeaadb8616fb83684f2", "type": "electric_scooter", "name": "64b1c30808229eeaadb8616fb83684f2"}, {"is_disabled": 0, "is_reserved": 0, "fusion_lat": 0.0, "lat": 38.90718666666667, "fusion_lon": 0.0, "rental_uris": {"ios": "https://dc.lft.to/lastmile_qr_scan", "android": "https://dc.lft.to/lastmile_qr_scan"}, "lon": -77.03503283333333, "bike_id": "0d4157e806c486ca306a8b14352e853e", "type": "electric_scooter", "name": "0d4157e806c486ca306a8b14352e853e"}, {"is_disabled": 0, "is_reserved": 0, "fusion_lat": 0.0, "lat": 38.914724, "fusion_lon": 0.0, "rental_uris": {"ios": "https://dc.lft.to/lastmile_qr_scan", "android": "https://dc.lft.to/lastmile_qr_scan"}, "lon": -77.00196133333333, "bike_id": "403bd50954b4145b64fa480bea472c41", "type": "electric_scooter", "name": "403bd50954b4145b64fa480bea472c41"}, {"is_disabled": 0, "is_reserved": 0, "fusion_lat": 0.0, "lat": 38.9280015, "fusion_lon": 0.0, "rental_uris": {"ios": "https://dc.lft.to/lastmile_qr_scan", "android": "https://dc.lft.to/lastmile_qr_scan"}, "lon": -76.97606433333333, "bike_id": "891f407b37ef5d5bf2815e9376860e99", "type": "electric_scooter", "name": "891f407b37ef5d5bf2815e9376860e99"}, {"is_disabled": 0, "is_reserved": 0, "fusion_lat": 0.0, "lat": 38.892615166666666, "fusion_lon": 0.0, "rental_uris": {"ios": "https://dc.lft.to/lastmile_qr_scan", "android": "https://dc.lft.to/lastmile_qr_scan"}, "lon": -77.04676783333333, "bike_id": "552e14cbb2478e74b448e5088df1d570", "type": "electric_scooter", "name": "552e14cbb2478e74b448e5088df1d570"}, {"is_disabled": 0, "is_reserved": 0, "fusion_lat": 0.0, "lat": 38.90491383333333, "fusion_lon": 0.0, "rental_uris": {"ios": "https://dc.lft.to/lastmile_qr_scan", "android": "https://dc.lft.to/lastmile_qr_scan"}, "lon": -77.04818266666666, "bike_id": "e44b6012327908aa147c9cf89c74c3d7", "type": "electric_scooter", "name": "e44b6012327908aa147c9cf89c74c3d7"}, {"is_disabled": 0, "is_reserved": 0, "fusion_lat": 0.0, "lat": 38.903590333333334, "fusion_lon": 0.0, "rental_uris": {"ios": "https://dc.lft.to/lastmile_qr_scan", "android": "https://dc.lft.to/lastmile_qr_scan"}, "lon": -77.01624516666666, "bike_id": "dc4e8fd13fbf75d342703878d31f2f29", "type": "electric_scooter", "name": "dc4e8fd13fbf75d342703878d31f2f29"}, {"is_disabled": 0, "is_reserved": 0, "fusion_lat": 0.0, "lat": 38.913965, "fusion_lon": 0.0, "rental_uris": {"ios": "https://dc.lft.to/lastmile_qr_scan", "android": "https://dc.lft.to/lastmile_qr_scan"}, "lon": -77.01067366666666, "bike_id": "c6d702f0f8e27d3a0efbe392ab4ceb06", "type": "electric_scooter", "name": "c6d702f0f8e27d3a0efbe392ab4ceb06"}, {"is_disabled": 0, "is_reserved": 0, "fusion_lat": 0.0, "lat": 38.886269, "fusion_lon": 0.0, "rental_uris": {"ios": "https://dc.lft.to/lastmile_qr_scan", "android": "https://dc.lft.to/lastmile_qr_scan"}, "lon": -76.99015566666667, "bike_id": "4717ea0170472f2513e948ac8885dd0c", "type": "electric_bike", "name": "4717ea0170472f2513e948ac8885dd0c"}, {"is_disabled": 0, "is_reserved": 0, "fusion_lat": 0.0, "lat": 38.892299333333334, "fusion_lon": 0.0, "rental_uris": {"ios": "https://dc.lft.to/lastmile_qr_scan", "android": "https://dc.lft.to/lastmile_qr_scan"}, "lon": -77.04998766666667, "bike_id": "e6cc3f7f394f9077a3f75a4adc8b7fb5", "type": "electric_scooter", "name": "e6cc3f7f394f9077a3f75a4adc8b7fb5"}, {"is_disabled": 0, "is_reserved": 0, "fusion_lat": 0.0, "lat": 38.9069485, "fusion_lon": 0.0, "rental_uris": {"ios": "https://dc.lft.to/lastmile_qr_scan", "android": "https://dc.lft.to/lastmile_qr_scan"}, "lon": -76.95253216666667, "bike_id": "088b629753c45dc41e6b0ccfb4d8c012", "type": "electric_bike", "name": "088b629753c45dc41e6b0ccfb4d8c012"}, {"is_disabled": 0, "is_reserved": 0, "fusion_lat": 0.0, "lat": 38.947147333333334, "fusion_lon": 0.0, "rental_uris": {"ios": "https://dc.lft.to/lastmile_qr_scan", "android": "https://dc.lft.to/lastmile_qr_scan"}, "lon": -77.06801283333333, "bike_id": "de7e8d9db8248b6fe6371cf644cb28da", "type": "electric_scooter", "name": "de7e8d9db8248b6fe6371cf644cb28da"}, {"is_disabled": 0, "is_reserved": 0, "fusion_lat": 0.0, "lat": 38.883556166666665, "fusion_lon": 0.0, "rental_uris": {"ios": "https://dc.lft.to/lastmile_qr_scan", "android": "https://dc.lft.to/lastmile_qr_scan"}, "lon": -76.95766933333333, "bike_id": "c6f68a828cb63b789fcbbf02f8dccb4e", "type": "electric_scooter", "name": "c6f68a828cb63b789fcbbf02f8dccb4e"}, {"is_disabled": 0, "is_reserved": 0, "fusion_lat": 0.0, "lat": 38.94260583333333, "fusion_lon": 0.0, "rental_uris": {"ios": "https://dc.lft.to/lastmile_qr_scan", "android": "https://dc.lft.to/lastmile_qr_scan"}, "lon": -76.98455266666667, "bike_id": "6fae151b2430855188d6e40ac423595e", "type": "electric_scooter", "name": "6fae151b2430855188d6e40ac423595e"}, {"is_disabled": 0, "is_reserved": 0, "fusion_lat": 0.0, "lat": 38.89649583333333, "fusion_lon": 0.0, "rental_uris": {"ios": "https://dc.lft.to/lastmile_qr_scan", "android": "https://dc.lft.to/lastmile_qr_scan"}, "lon": -77.05125883333334, "bike_id": "84fc1d936e5bafd70459e9335fa8bc88", "type": "electric_scooter", "name": "84fc1d936e5bafd70459e9335fa8bc88"}, {"is_disabled": 0, "is_reserved": 0, "fusion_lat": 0.0, "lat": 38.92349133333333, "fusion_lon": 0.0, "rental_uris": {"ios": "https://dc.lft.to/lastmile_qr_scan", "android": "https://dc.lft.to/lastmile_qr_scan"}, "lon": -77.03326, "bike_id": "3304249202cd566556fe500c2eda8468", "type": "electric_scooter", "name": "3304249202cd566556fe500c2eda8468"}, {"is_disabled": 0, "is_reserved": 0, "fusion_lat": 0.0, "lat": 38.9209905, "fusion_lon": 0.0, "rental_uris": {"ios": "https://dc.lft.to/lastmile_qr_scan", "android": "https://dc.lft.to/lastmile_qr_scan"}, "lon": -77.0174165, "bike_id": "0051cad20e5dbc146bba8c6218d0863e", "type": "electric_scooter", "name": "0051cad20e5dbc146bba8c6218d0863e"}, {"is_disabled": 0, "is_reserved": 0, "fusion_lat": 0.0, "lat": 38.87100783333333, "fusion_lon": 0.0, "rental_uris": {"ios": "https://dc.lft.to/lastmile_qr_scan", "android": "https://dc.lft.to/lastmile_qr_scan"}, "lon": -77.01213716666666, "bike_id": "dcdd1ca924dbcc83064f2863080ba07a", "type": "electric_scooter", "name": "dcdd1ca924dbcc83064f2863080ba07a"}, {"is_disabled": 0, "is_reserved": 0, "fusion_lat": 0.0, "lat": 38.884751, "fusion_lon": 0.0, "rental_uris": {"ios": "https://dc.lft.to/lastmile_qr_scan", "android": "https://dc.lft.to/lastmile_qr_scan"}, "lon": -77.023706, "bike_id": "036890955615d95f8c91490b37786239", "type": "electric_scooter", "name": "036890955615d95f8c91490b37786239"}, {"is_disabled": 0, "is_reserved": 0, "fusion_lat": 0.0, "lat": 38.94847816666667, "fusion_lon": 0.0, "rental_uris": {"ios": "https://dc.lft.to/lastmile_qr_scan", "android": "https://dc.lft.to/lastmile_qr_scan"}, "lon": -77.02109233333333, "bike_id": "f4f8d0dbd252b9665000badd323ac1b0", "type": "electric_scooter", "name": "f4f8d0dbd252b9665000badd323ac1b0"}, {"is_disabled": 0, "is_reserved": 0, "fusion_lat": 0.0, "lat": 38.89515433333333, "fusion_lon": 0.0, "rental_uris": {"ios": "https://dc.lft.to/lastmile_qr_scan", "android": "https://dc.lft.to/lastmile_qr_scan"}, "lon": -77.02278766666667, "bike_id": "d2a1d7be0ed2401552882b5f83c2ccf7", "type": "electric_scooter", "name": "d2a1d7be0ed2401552882b5f83c2ccf7"}, {"is_disabled": 0, "is_reserved": 0, "fusion_lat": 0.0, "lat": 38.92063616666667, "fusion_lon": 0.0, "rental_uris": {"ios": "https://dc.lft.to/lastmile_qr_scan", "android": "https://dc.lft.to/lastmile_qr_scan"}, "lon": -77.02565766666666, "bike_id": "998d0f8f5516ffab52c44a8ff492f9ad", "type": "electric_scooter", "name": "998d0f8f5516ffab52c44a8ff492f9ad"}, {"is_disabled": 0, "is_reserved": 0, "fusion_lat": 0.0, "lat": 38.912715166666665, "fusion_lon": 0.0, "rental_uris": {"ios": "https://dc.lft.to/lastmile_qr_scan", "android": "https://dc.lft.to/lastmile_qr_scan"}, "lon": -77.0450345, "bike_id": "639141e3bf9f373cf7f43383cd5aa576", "type": "electric_scooter", "name": "639141e3bf9f373cf7f43383cd5aa576"}, {"is_disabled": 0, "is_reserved": 0, "fusion_lat": 0.0, "lat": 38.90445733333333, "fusion_lon": 0.0, "rental_uris": {"ios": "https://dc.lft.to/lastmile_qr_scan", "android": "https://dc.lft.to/lastmile_qr_scan"}, "lon": -77.02878916666667, "bike_id": "a76b36f746199b5077de7afba684a545", "type": "electric_scooter", "name": "a76b36f746199b5077de7afba684a545"}, {"is_disabled": 0, "is_reserved": 0, "fusion_lat": 0.0, "lat": 38.9188005, "fusion_lon": 0.0, "rental_uris": {"ios": "https://dc.lft.to/lastmile_qr_scan", "android": "https://dc.lft.to/lastmile_qr_scan"}, "lon": -77.03492166666666, "bike_id": "ccb65e65a22666728d6914126b2a719e", "type": "electric_scooter", "name": "ccb65e65a22666728d6914126b2a719e"}, {"is_disabled": 0, "is_reserved": 0, "fusion_lat": 0.0, "lat": 38.89423716666667, "fusion_lon": 0.0, "rental_uris": {"ios": "https://dc.lft.to/lastmile_qr_scan", "android": "https://dc.lft.to/lastmile_qr_scan"}, "lon": -77.05596466666667, "bike_id": "60771089a69d4154c91293549492b24e", "type": "electric_scooter", "name": "60771089a69d4154c91293549492b24e"}, {"is_disabled": 0, "is_reserved": 0, "fusion_lat": 0.0, "lat": 38.9602765, "fusion_lon": 0.0, "rental_uris": {"ios": "https://dc.lft.to/lastmile_qr_scan", "android": "https://dc.lft.to/lastmile_qr_scan"}, "lon": -77.03393266666667, "bike_id": "a827600bbca1cd39aaf81579850545e4", "type": "electric_bike", "name": "a827600bbca1cd39aaf81579850545e4"}, {"is_disabled": 0, "is_reserved": 0, "fusion_lat": 0.0, "lat": 38.917637166666665, "fusion_lon": 0.0, "rental_uris": {"ios": "https://dc.lft.to/lastmile_qr_scan", "android": "https://dc.lft.to/lastmile_qr_scan"}, "lon": -77.0234675, "bike_id": "7d20b809a67108b04da6727160664520", "type": "electric_scooter", "name": "7d20b809a67108b04da6727160664520"}, {"is_disabled": 0, "is_reserved": 0, "fusion_lat": 0.0, "lat": 38.898105666666666, "fusion_lon": 0.0, "rental_uris": {"ios": "https://dc.lft.to/lastmile_qr_scan", "android": "https://dc.lft.to/lastmile_qr_scan"}, "lon": -77.0021185, "bike_id": "0fa888f7928371b44d97594ba7a6e805", "type": "electric_scooter", "name": "0fa888f7928371b44d97594ba7a6e805"}, {"is_disabled": 0, "is_reserved": 0, "fusion_lat": 0.0, "lat": 38.89251616666667, "fusion_lon": 0.0, "rental_uris": {"ios": "https://dc.lft.to/lastmile_qr_scan", "android": "https://dc.lft.to/lastmile_qr_scan"}, "lon": -77.03954483333334, "bike_id": "5e37f935da05c5aa76e14f54725921c4", "type": "electric_scooter", "name": "5e37f935da05c5aa76e14f54725921c4"}, {"is_disabled": 0, "is_reserved": 0, "fusion_lat": 0.0, "lat": 38.92439816666667, "fusion_lon": 0.0, "rental_uris": {"ios": "https://dc.lft.to/lastmile_qr_scan", "android": "https://dc.lft.to/lastmile_qr_scan"}, "lon": -77.03403783333333, "bike_id": "87a6705144b26a1ca2506e8be370b0b1", "type": "electric_scooter", "name": "87a6705144b26a1ca2506e8be370b0b1"}, {"is_disabled": 0, "is_reserved": 0, "fusion_lat": 0.0, "lat": 38.920691166666664, "fusion_lon": 0.0, "rental_uris": {"ios": "https://dc.lft.to/lastmile_qr_scan", "android": "https://dc.lft.to/lastmile_qr_scan"}, "lon": -77.02563383333333, "bike_id": "44e876c3c34be83a33810612c839cc63", "type": "electric_scooter", "name": "44e876c3c34be83a33810612c839cc63"}, {"is_disabled": 0, "is_reserved": 0, "fusion_lat": 0.0, "lat": 38.942015833333336, "fusion_lon": 0.0, "rental_uris": {"ios": "https://dc.lft.to/lastmile_qr_scan", "android": "https://dc.lft.to/lastmile_qr_scan"}, "lon": -77.02564983333333, "bike_id": "cd3bea69c93e0dfeb3c824c8978b7c0c", "type": "electric_scooter", "name": "cd3bea69c93e0dfeb3c824c8978b7c0c"}, {"is_disabled": 0, "is_reserved": 0, "fusion_lat": 0.0, "lat": 38.90639433333333, "fusion_lon": 0.0, "rental_uris": {"ios": "https://dc.lft.to/lastmile_qr_scan", "android": "https://dc.lft.to/lastmile_qr_scan"}, "lon": -77.048788, "bike_id": "becd5881644013954963593ab61dcae3", "type": "electric_scooter", "name": "becd5881644013954963593ab61dcae3"}, {"is_disabled": 0, "is_reserved": 0, "fusion_lat": 0.0, "lat": 38.8953995, "fusion_lon": 0.0, "rental_uris": {"ios": "https://dc.lft.to/lastmile_qr_scan", "android": "https://dc.lft.to/lastmile_qr_scan"}, "lon": -77.02180283333334, "bike_id": "4187972b02cebad2c5da2d02876163fc", "type": "electric_scooter", "name": "4187972b02cebad2c5da2d02876163fc"}, {"is_disabled": 0, "is_reserved": 0, "fusion_lat": 0.0, "lat": 38.879256166666664, "fusion_lon": 0.0, "rental_uris": {"ios": "https://dc.lft.to/lastmile_qr_scan", "android": "https://dc.lft.to/lastmile_qr_scan"}, "lon": -77.00763, "bike_id": "2947fd54e7420311c87d5e17403a9f1d", "type": "electric_scooter", "name": "2947fd54e7420311c87d5e17403a9f1d"}, {"is_disabled": 0, "is_reserved": 0, "fusion_lat": 0.0, "lat": 38.924216666666666, "fusion_lon": 0.0, "rental_uris": {"ios": "https://dc.lft.to/lastmile_qr_scan", "android": "https://dc.lft.to/lastmile_qr_scan"}, "lon": -77.04235916666667, "bike_id": "396078e1479c70b174d34c164fb5f003", "type": "electric_scooter", "name": "396078e1479c70b174d34c164fb5f003"}, {"is_disabled": 0, "is_reserved": 0, "fusion_lat": 0.0, "lat": 38.9165695, "fusion_lon": 0.0, "rental_uris": {"ios": "https://dc.lft.to/lastmile_qr_scan", "android": "https://dc.lft.to/lastmile_qr_scan"}, "lon": -77.00952266666667, "bike_id": "938dad6df3884b9554244d248f300422", "type": "electric_scooter", "name": "938dad6df3884b9554244d248f300422"}, {"is_disabled": 0, "is_reserved": 0, "fusion_lat": 0.0, "lat": 38.878471, "fusion_lon": 0.0, "rental_uris": {"ios": "https://dc.lft.to/lastmile_qr_scan", "android": "https://dc.lft.to/lastmile_qr_scan"}, "lon": -77.00739733333333, "bike_id": "68e83c93e080301119d98904b9db5dd5", "type": "electric_scooter", "name": "68e83c93e080301119d98904b9db5dd5"}, {"is_disabled": 0, "is_reserved": 0, "fusion_lat": 0.0, "lat": 38.8973425, "fusion_lon": 0.0, "rental_uris": {"ios": "https://dc.lft.to/lastmile_qr_scan", "android": "https://dc.lft.to/lastmile_qr_scan"}, "lon": -77.04639933333333, "bike_id": "a51eb9098a59291c5d8d89aeda507342", "type": "electric_scooter", "name": "a51eb9098a59291c5d8d89aeda507342"}, {"is_disabled": 0, "is_reserved": 0, "fusion_lat": 0.0, "lat": 38.86623433333333, "fusion_lon": 0.0, "rental_uris": {"ios": "https://dc.lft.to/lastmile_qr_scan", "android": "https://dc.lft.to/lastmile_qr_scan"}, "lon": -76.98995616666667, "bike_id": "533d465ac1718e5b9d3791e4f059c0bd", "type": "electric_bike", "name": "533d465ac1718e5b9d3791e4f059c0bd"}, {"is_disabled": 0, "is_reserved": 0, "fusion_lat": 0.0, "lat": 38.878727833333336, "fusion_lon": 0.0, "rental_uris": {"ios": "https://dc.lft.to/lastmile_qr_scan", "android": "https://dc.lft.to/lastmile_qr_scan"}, "lon": -77.02323233333334, "bike_id": "2a9caff9b2f428a5393ddc372411fbfe", "type": "electric_scooter", "name": "2a9caff9b2f428a5393ddc372411fbfe"}, {"is_disabled": 0, "is_reserved": 0, "fusion_lat": 0.0, "lat": 38.990989166666665, "fusion_lon": 0.0, "rental_uris": {"ios": "https://dc.lft.to/lastmile_qr_scan", "android": "https://dc.lft.to/lastmile_qr_scan"}, "lon": -76.99376466666666, "bike_id": "a36842b4f5078731fa464e1ca1d6bf3c", "type": "electric_bike", "name": "a36842b4f5078731fa464e1ca1d6bf3c"}, {"is_disabled": 0, "is_reserved": 0, "fusion_lat": 0.0, "lat": 38.908451, "fusion_lon": 0.0, "rental_uris": {"ios": "https://dc.lft.to/lastmile_qr_scan", "android": "https://dc.lft.to/lastmile_qr_scan"}, "lon": -77.0580985, "bike_id": "0e8709868c6d62db6fca4a219483b3f3", "type": "electric_scooter", "name": "0e8709868c6d62db6fca4a219483b3f3"}, {"is_disabled": 0, "is_reserved": 0, "fusion_lat": 0.0, "lat": 38.919535833333335, "fusion_lon": 0.0, "rental_uris": {"ios": "https://dc.lft.to/lastmile_qr_scan", "android": "https://dc.lft.to/lastmile_qr_scan"}, "lon": -77.0787145, "bike_id": "82f53ab56ce28ec49636cc0d1bcf43cb", "type": "electric_scooter", "name": "82f53ab56ce28ec49636cc0d1bcf43cb"}, {"is_disabled": 0, "is_reserved": 0, "fusion_lat": 0.0, "lat": 38.84855, "fusion_lon": 0.0, "rental_uris": {"ios": "https://dc.lft.to/lastmile_qr_scan", "android": "https://dc.lft.to/lastmile_qr_scan"}, "lon": -77.06829816666666, "bike_id": "c4b6043551f8cde3303e53d421ee4ed6", "type": "electric_bike", "name": "c4b6043551f8cde3303e53d421ee4ed6"}, {"is_disabled": 0, "is_reserved": 0, "fusion_lat": 0.0, "lat": 38.921146, "fusion_lon": 0.0, "rental_uris": {"ios": "https://dc.lft.to/lastmile_qr_scan", "android": "https://dc.lft.to/lastmile_qr_scan"}, "lon": -77.03162083333333, "bike_id": "49e276b300dc19cf42bba4c6dca03dae", "type": "electric_scooter", "name": "49e276b300dc19cf42bba4c6dca03dae"}, {"is_disabled": 0, "is_reserved": 0, "fusion_lat": 0.0, "lat": 38.895329, "fusion_lon": 0.0, "rental_uris": {"ios": "https://dc.lft.to/lastmile_qr_scan", "android": "https://dc.lft.to/lastmile_qr_scan"}, "lon": -76.94889516666667, "bike_id": "83952b4ecbcc132f52b85e5dc2d1bd37", "type": "electric_scooter", "name": "83952b4ecbcc132f52b85e5dc2d1bd37"}, {"is_disabled": 0, "is_reserved": 0, "fusion_lat": 0.0, "lat": 38.92446783333333, "fusion_lon": 0.0, "rental_uris": {"ios": "https://dc.lft.to/lastmile_qr_scan", "android": "https://dc.lft.to/lastmile_qr_scan"}, "lon": -77.0330015, "bike_id": "84617c0898ed039f4ca8398d12bb9605", "type": "electric_scooter", "name": "84617c0898ed039f4ca8398d12bb9605"}, {"is_disabled": 0, "is_reserved": 0, "fusion_lat": 0.0, "lat": 38.89499766666667, "fusion_lon": 0.0, "rental_uris": {"ios": "https://dc.lft.to/lastmile_qr_scan", "android": "https://dc.lft.to/lastmile_qr_scan"}, "lon": -77.039602, "bike_id": "cc841ac5761623491d1cc01a274e9b35", "type": "electric_scooter", "name": "cc841ac5761623491d1cc01a274e9b35"}, {"is_disabled": 0, "is_reserved": 0, "fusion_lat": 0.0, "lat": 38.9352075, "fusion_lon": 0.0, "rental_uris": {"ios": "https://dc.lft.to/lastmile_qr_scan", "android": "https://dc.lft.to/lastmile_qr_scan"}, "lon": -77.03817966666666, "bike_id": "e57b3e2be57616764498138ed4e5a0fc", "type": "electric_scooter", "name": "e57b3e2be57616764498138ed4e5a0fc"}, {"is_disabled": 0, "is_reserved": 0, "fusion_lat": 0.0, "lat": 38.943673, "fusion_lon": 0.0, "rental_uris": {"ios": "https://dc.lft.to/lastmile_qr_scan", "android": "https://dc.lft.to/lastmile_qr_scan"}, "lon": -77.0611765, "bike_id": "8d8d9066aa16a61af57e4a90c1ded3df", "type": "electric_scooter", "name": "8d8d9066aa16a61af57e4a90c1ded3df"}, {"is_disabled": 0, "is_reserved": 0, "fusion_lat": 0.0, "lat": 38.961728, "fusion_lon": 0.0, "rental_uris": {"ios": "https://dc.lft.to/lastmile_qr_scan", "android": "https://dc.lft.to/lastmile_qr_scan"}, "lon": -77.032266, "bike_id": "5e0bcd61d67fcaa19a745ad27d00bb84", "type": "electric_scooter", "name": "5e0bcd61d67fcaa19a745ad27d00bb84"}, {"is_disabled": 0, "is_reserved": 0, "fusion_lat": 0.0, "lat": 38.893723, "fusion_lon": 0.0, "rental_uris": {"ios": "https://dc.lft.to/lastmile_qr_scan", "android": "https://dc.lft.to/lastmile_qr_scan"}, "lon": -77.021261, "bike_id": "40b6d95432fc9879cf0b052f6f624d8e", "type": "electric_scooter", "name": "40b6d95432fc9879cf0b052f6f624d8e"}, {"is_disabled": 0, "is_reserved": 0, "fusion_lat": 0.0, "lat": 38.937027666666665, "fusion_lon": 0.0, "rental_uris": {"ios": "https://dc.lft.to/lastmile_qr_scan", "android": "https://dc.lft.to/lastmile_qr_scan"}, "lon": -77.056851, "bike_id": "3c5a174fde9d10c388687f3514e7b1c7", "type": "electric_scooter", "name": "3c5a174fde9d10c388687f3514e7b1c7"}, {"is_disabled": 0, "is_reserved": 0, "fusion_lat": 0.0, "lat": 38.94977133333333, "fusion_lon": 0.0, "rental_uris": {"ios": "https://dc.lft.to/lastmile_qr_scan", "android": "https://dc.lft.to/lastmile_qr_scan"}, "lon": -77.02447933333333, "bike_id": "1b68aff555233640f0a488bd7eaa8e39", "type": "electric_scooter", "name": "1b68aff555233640f0a488bd7eaa8e39"}, {"is_disabled": 0, "is_reserved": 0, "fusion_lat": 0.0, "lat": 38.93216783333333, "fusion_lon": 0.0, "rental_uris": {"ios": "https://dc.lft.to/lastmile_qr_scan", "android": "https://dc.lft.to/lastmile_qr_scan"}, "lon": -77.03660583333334, "bike_id": "9c9efa6b91b5f2e13dc798af2c980ab0", "type": "electric_scooter", "name": "9c9efa6b91b5f2e13dc798af2c980ab0"}, {"is_disabled": 0, "is_reserved": 0, "fusion_lat": 0.0, "lat": 38.92438583333333, "fusion_lon": 0.0, "rental_uris": {"ios": "https://dc.lft.to/lastmile_qr_scan", "android": "https://dc.lft.to/lastmile_qr_scan"}, "lon": -77.0328865, "bike_id": "ff93aaba0182a236a230543f6d362271", "type": "electric_scooter", "name": "ff93aaba0182a236a230543f6d362271"}, {"is_disabled": 0, "is_reserved": 0, "fusion_lat": 0.0, "lat": 38.894547, "fusion_lon": 0.0, "rental_uris": {"ios": "https://dc.lft.to/lastmile_qr_scan", "android": "https://dc.lft.to/lastmile_qr_scan"}, "lon": -77.01099533333333, "bike_id": "49d27c211e4465bc98a829ec0dd03b90", "type": "electric_scooter", "name": "49d27c211e4465bc98a829ec0dd03b90"}, {"is_disabled": 0, "is_reserved": 0, "fusion_lat": 0.0, "lat": 38.913633833333336, "fusion_lon": 0.0, "rental_uris": {"ios": "https://dc.lft.to/lastmile_qr_scan", "android": "https://dc.lft.to/lastmile_qr_scan"}, "lon": -77.04653133333333, "bike_id": "0037018f886752910fc1baa8fd9db81d", "type": "electric_scooter", "name": "0037018f886752910fc1baa8fd9db81d"}, {"is_disabled": 0, "is_reserved": 0, "fusion_lat": 0.0, "lat": 38.902430333333335, "fusion_lon": 0.0, "rental_uris": {"ios": "https://dc.lft.to/lastmile_qr_scan", "android": "https://dc.lft.to/lastmile_qr_scan"}, "lon": -77.03853583333333, "bike_id": "c48de4b3d326a1d27a9c06ef7e32bf08", "type": "electric_scooter", "name": "c48de4b3d326a1d27a9c06ef7e32bf08"}, {"is_disabled": 0, "is_reserved": 0, "fusion_lat": 0.0, "lat": 38.90638633333333, "fusion_lon": 0.0, "rental_uris": {"ios": "https://dc.lft.to/lastmile_qr_scan", "android": "https://dc.lft.to/lastmile_qr_scan"}, "lon": -77.00597683333334, "bike_id": "f44e2db3e0490c8cda3892549258e496", "type": "electric_scooter", "name": "f44e2db3e0490c8cda3892549258e496"}, {"is_disabled": 0, "is_reserved": 0, "fusion_lat": 0.0, "lat": 38.935234, "fusion_lon": 0.0, "rental_uris": {"ios": "https://dc.lft.to/lastmile_qr_scan", "android": "https://dc.lft.to/lastmile_qr_scan"}, "lon": -77.05450066666667, "bike_id": "c62ed0ca8eb785668a2ea7d35fedd596", "type": "electric_scooter", "name": "c62ed0ca8eb785668a2ea7d35fedd596"}, {"is_disabled": 0, "is_reserved": 0, "fusion_lat": 0.0, "lat": 38.85942516666667, "fusion_lon": 0.0, "rental_uris": {"ios": "https://dc.lft.to/lastmile_qr_scan", "android": "https://dc.lft.to/lastmile_qr_scan"}, "lon": -77.09429416666667, "bike_id": "3816aff290bdd3e93f0d097f23a68d73", "type": "electric_bike", "name": "3816aff290bdd3e93f0d097f23a68d73"}, {"is_disabled": 0, "is_reserved": 0, "fusion_lat": 0.0, "lat": 38.90554433333333, "fusion_lon": 0.0, "rental_uris": {"ios": "https://dc.lft.to/lastmile_qr_scan", "android": "https://dc.lft.to/lastmile_qr_scan"}, "lon": -77.02018766666667, "bike_id": "b97cb0c2e29465e6c41906129f7a457a", "type": "electric_scooter", "name": "b97cb0c2e29465e6c41906129f7a457a"}, {"is_disabled": 0, "is_reserved": 0, "fusion_lat": 0.0, "lat": 38.9642705, "fusion_lon": 0.0, "rental_uris": {"ios": "https://dc.lft.to/lastmile_qr_scan", "android": "https://dc.lft.to/lastmile_qr_scan"}, "lon": -77.07424783333333, "bike_id": "e4bc30fadeb59aa3b81ed3a5505808e8", "type": "electric_scooter", "name": "e4bc30fadeb59aa3b81ed3a5505808e8"}, {"is_disabled": 0, "is_reserved": 0, "fusion_lat": 0.0, "lat": 38.857129, "fusion_lon": 0.0, "rental_uris": {"ios": "https://dc.lft.to/lastmile_qr_scan", "android": "https://dc.lft.to/lastmile_qr_scan"}, "lon": -76.98096216666667, "bike_id": "c1a18aae8284420a6f8f2c4e14642ba8", "type": "electric_scooter", "name": "c1a18aae8284420a6f8f2c4e14642ba8"}, {"is_disabled": 0, "is_reserved": 0, "fusion_lat": 0.0, "lat": 38.892255166666665, "fusion_lon": 0.0, "rental_uris": {"ios": "https://dc.lft.to/lastmile_qr_scan", "android": "https://dc.lft.to/lastmile_qr_scan"}, "lon": -77.03322733333333, "bike_id": "a652b22e32262ceaa5fdd84d18e5342e", "type": "electric_bike", "name": "a652b22e32262ceaa5fdd84d18e5342e"}, {"is_disabled": 0, "is_reserved": 0, "fusion_lat": 0.0, "lat": 38.89870966666667, "fusion_lon": 0.0, "rental_uris": {"ios": "https://dc.lft.to/lastmile_qr_scan", "android": "https://dc.lft.to/lastmile_qr_scan"}, "lon": -76.93137516666667, "bike_id": "6d52aa3396778dad564a2302a64d5116", "type": "electric_scooter", "name": "6d52aa3396778dad564a2302a64d5116"}, {"is_disabled": 0, "is_reserved": 0, "fusion_lat": 0.0, "lat": 38.89604033333333, "fusion_lon": 0.0, "rental_uris": {"ios": "https://dc.lft.to/lastmile_qr_scan", "android": "https://dc.lft.to/lastmile_qr_scan"}, "lon": -77.00333816666667, "bike_id": "a42b7555f146fda7447e8e7a6313ca79", "type": "electric_scooter", "name": "a42b7555f146fda7447e8e7a6313ca79"}, {"is_disabled": 0, "is_reserved": 0, "fusion_lat": 0.0, "lat": 38.937366, "fusion_lon": 0.0, "rental_uris": {"ios": "https://dc.lft.to/lastmile_qr_scan", "android": "https://dc.lft.to/lastmile_qr_scan"}, "lon": -77.03431833333333, "bike_id": "7e126d1373b247921ebdde07c06f10f1", "type": "electric_scooter", "name": "7e126d1373b247921ebdde07c06f10f1"}, {"is_disabled": 0, "is_reserved": 0, "fusion_lat": 0.0, "lat": 38.9492165, "fusion_lon": 0.0, "rental_uris": {"ios": "https://dc.lft.to/lastmile_qr_scan", "android": "https://dc.lft.to/lastmile_qr_scan"}, "lon": -77.02313483333333, "bike_id": "930395c36239d859499aad86681b0ea0", "type": "electric_scooter", "name": "930395c36239d859499aad86681b0ea0"}, {"is_disabled": 0, "is_reserved": 0, "fusion_lat": 0.0, "lat": 38.905283, "fusion_lon": 0.0, "rental_uris": {"ios": "https://dc.lft.to/lastmile_qr_scan", "android": "https://dc.lft.to/lastmile_qr_scan"}, "lon": -77.05003616666667, "bike_id": "93d22cb891b58ebc71765800b146452d", "type": "electric_scooter", "name": "93d22cb891b58ebc71765800b146452d"}, {"is_disabled": 0, "is_reserved": 0, "fusion_lat": 0.0, "lat": 38.93074816666667, "fusion_lon": 0.0, "rental_uris": {"ios": "https://dc.lft.to/lastmile_qr_scan", "android": "https://dc.lft.to/lastmile_qr_scan"}, "lon": -77.02338283333333, "bike_id": "b46b65a788852811aa3dfa72dc1e5432", "type": "electric_scooter", "name": "b46b65a788852811aa3dfa72dc1e5432"}, {"is_disabled": 0, "is_reserved": 0, "fusion_lat": 0.0, "lat": 38.9025745, "fusion_lon": 0.0, "rental_uris": {"ios": "https://dc.lft.to/lastmile_qr_scan", "android": "https://dc.lft.to/lastmile_qr_scan"}, "lon": -77.03917583333333, "bike_id": "a02d2602cd8992e4a410b85d6f3fe073", "type": "electric_scooter", "name": "a02d2602cd8992e4a410b85d6f3fe073"}, {"is_disabled": 0, "is_reserved": 0, "fusion_lat": 0.0, "lat": 38.885402666666664, "fusion_lon": 0.0, "rental_uris": {"ios": "https://dc.lft.to/lastmile_qr_scan", "android": "https://dc.lft.to/lastmile_qr_scan"}, "lon": -76.97889533333333, "bike_id": "d7b1deebcac48e4189ab66468fcdb07d", "type": "electric_scooter", "name": "d7b1deebcac48e4189ab66468fcdb07d"},