{"data": {"bikes": [{"fusion_lon": 0.0, "bike_id": "484b25a17430c26378b8a1b5a7c9400d", "name": "484b25a17430c26378b8a1b5a7c9400d", "type": "electric_scooter", "lon": -77.07169266666666, "rental_uris": {"android": "https://dc.lft.to/lastmile_qr_scan", "ios": "https://dc.lft.to/lastmile_qr_scan"}, "lat": 38.907607666666664, "is_reserved": 0, "is_disabled": 0, "fusion_lat": 0.0}, {"fusion_lon": 0.0, "bike_id": "030ce444662267f4f6e04bfd8bafd21c", "name": "030ce444662267f4f6e04bfd8bafd21c", "type": "electric_scooter", "lon": -77.01095833333333, "rental_uris": {"android": "https://dc.lft.to/lastmile_qr_scan", "ios": "https://dc.lft.to/lastmile_qr_scan"}, "lat": 38.89477433333333, "is_reserved": 0, "is_disabled": 0, "fusion_lat": 0.0}, {"fusion_lon": 0.0, "bike_id": "29fa329ccc7e972d815aa5ccc22982fb", "name": "29fa329ccc7e972d815aa5ccc22982fb", "type": "electric_scooter", "lon": -77.0216995, "rental_uris": {"android": "https://dc.lft.to/lastmile_qr_scan", "ios": "https://dc.lft.to/lastmile_qr_scan"}, "lat": 38.94293833333333, "is_reserved": 0, "is_disabled": 0, "fusion_lat": 0.0}, {"fusion_lon": 0.0, "bike_id": "3c9dcf24dfa8e289f97caf8922e79a6c", "name": "3c9dcf24dfa8e289f97caf8922e79a6c", "type": "electric_scooter", "lon": -77.046394, "rental_uris": {"android": "https://dc.lft.to/lastmile_qr_scan", "ios": "https://dc.lft.to/lastmile_qr_scan"}, "lat": 38.904167, "is_reserved": 0, "is_disabled": 0, "fusion_lat": 0.0}, {"fusion_lon": 0.0, "bike_id": "7c74313b9a1ff5c3ee8221a2a4c662f3", "name": "7c74313b9a1ff5c3ee8221a2a4c662f3", "type": "electric_scooter", "lon": -77.02542916666667, "rental_uris": {"android": "https://dc.lft.to/lastmile_qr_scan", "ios": "https://dc.lft.to/lastmile_qr_scan"}, "lat": 38.900952833333335, "is_reserved": 0, "is_disabled": 0, "fusion_lat": 0.0}, {"fusion_lon": 0.0, "bike_id": "1df07261bb18095cff1269885833b658", "name": "1df07261bb18095cff1269885833b658", "type": "electric_bike", "lon": -77.13229733333333, "rental_uris": {"android": "https://dc.lft.to/lastmile_qr_scan", "ios": "https://dc.lft.to/lastmile_qr_scan"}, "lat": 38.86970133333333, "is_reserved": 0, "is_disabled": 0, "fusion_lat": 0.0}, {"fusion_lon": 0.0, "bike_id": "782e84bbed03f069630cffc90d3f7ec8", "name": "782e84bbed03f069630cffc90d3f7ec8", "type": "electric_scooter", "lon": -77.046185, "rental_uris": {"android": "https://dc.lft.to/lastmile_qr_scan", "ios": "https://dc.lft.to/lastmile_qr_scan"}, "lat": 38.905727166666665, "is_reserved": 0, "is_disabled": 0, "fusion_lat": 0.0}, {"fusion_lon": 0.0, "bike_id": "47fa905c44955e6d58ce31eceb0f575b", "name": "47fa905c44955e6d58ce31eceb0f575b", "type": "electric_scooter", "lon": -77.02712583333333, "rental_uris": {"android": "https://dc.lft.to/lastmile_qr_scan", "ios": "https://dc.lft.to/lastmile_qr_scan"}, "lat": 38.90747316666667, "is_reserved": 0, "is_disabled": 0, "fusion_lat": 0.0}, {"fusion_lon": 0.0, "bike_id": "f3bb06bccf3a059f26e3ee5eccacd37f", "name": "f3bb06bccf3a059f26e3ee5eccacd37f", "type": "electric_scooter", "lon": -77.000982, "rental_uris": {"android": "https://dc.lft.to/lastmile_qr_scan", "ios": "https://dc.lft.to/lastmile_qr_scan"}, "lat": 38.897346666666664, "is_reserved": 0, "is_disabled": 0, "fusion_lat": 0.0}, {"fusion_lon": 0.0, "bike_id": "e3e02d49c929b61cbb36c0a76b6a5246", "name": "e3e02d49c929b61cbb36c0a76b6a5246", "type": "electric_scooter", "lon": -77.0071935, "rental_uris": {"android": "https://dc.lft.to/lastmile_qr_scan", "ios": "https://dc.lft.to/lastmile_qr_scan"}, "lat": 38.87647783333333, "is_reserved": 0, "is_disabled": 0, "fusion_lat": 0.0}, {"fusion_lon": 0.0, "bike_id": "68b291f35344724f5116a65a90a1bce4", "name": "68b291f35344724f5116a65a90a1bce4", "type": "electric_scooter", "lon": -77.03208933333333, "rental_uris": {"android": "https://dc.lft.to/lastmile_qr_scan", "ios": "https://dc.lft.to/lastmile_qr_scan"}, "lat": 38.9192465, "is_reserved": 0, "is_disabled": 0, "fusion_lat": 0.0}, {"fusion_lon": 0.0, "bike_id": "da828006600b47516b7b223687b22f46", "name": "da828006600b47516b7b223687b22f46", "type": "electric_scooter", "lon": -77.02659883333334, "rental_uris": {"android": "https://dc.lft.to/lastmile_qr_scan", "ios": "https://dc.lft.to/lastmile_qr_scan"}, "lat": 38.9309415, "is_reserved": 0, "is_disabled": 0, "fusion_lat": 0.0}, {"fusion_lon": 0.0, "bike_id": "698caaf2eccebf762d28688c448ab774", "name": "698caaf2eccebf762d28688c448ab774", "type": "electric_scooter", "lon": -77.00583733333333, "rental_uris": {"android": "https://dc.lft.to/lastmile_qr_scan", "ios": "https://dc.lft.to/lastmile_qr_scan"}, "lat": 38.8751975, "is_reserved": 0, "is_disabled": 0, "fusion_lat": 0.0}, {"fusion_lon": 0.0, "bike_id": "639b2f124fbed19b3abf0809f3b3505d", "name": "639b2f124fbed19b3abf0809f3b3505d", "type": "electric_scooter", "lon": -77.00372683333333, "rental_uris": {"android": "https://dc.lft.to/lastmile_qr_scan", "ios": "https://dc.lft.to/lastmile_qr_scan"}, "lat": 38.877685, "is_reserved": 0, "is_disabled": 0, "fusion_lat": 0.0}, {"fusion_lon": 0.0, "bike_id": "14db9f1a3cbcbf422ee09c71bab944b5", "name": "14db9f1a3cbcbf422ee09c71bab944b5", "type": "electric_scooter", "lon": -77.016887, "rental_uris": {"android": "https://dc.lft.to/lastmile_qr_scan", "ios": "https://dc.lft.to/lastmile_qr_scan"}, "lat": 38.883232, "is_reserved": 0, "is_disabled": 0, "fusion_lat": 0.0}, {"fusion_lon": 0.0, "bike_id": "26c75acf3d8b1aa7b35c987686e07c47", "name": "26c75acf3d8b1aa7b35c987686e07c47", "type": "electric_bike", "lon": -77.069433, "rental_uris": {"android": "https://dc.lft.to/lastmile_qr_scan", "ios": "https://dc.lft.to/lastmile_qr_scan"}, "lat": 38.9903825, "is_reserved": 0, "is_disabled": 0, "fusion_lat": 0.0}, {"fusion_lon": 0.0, "bike_id": "6c68bd0960c6f1f11fb7d61cb90a0bf1", "name": "6c68bd0960c6f1f11fb7d61cb90a0bf1", "type": "electric_scooter", "lon": -77.00589983333333, "rental_uris": {"android": "https://dc.lft.to/lastmile_qr_scan", "ios": "https://dc.lft.to/lastmile_qr_scan"}, "lat": 38.90568483333333, "is_reserved": 0, "is_disabled": 0, "fusion_lat": 0.0}, {"fusion_lon": 0.0, "bike_id": "f0db4c74161a1609a38dc52c5368d7bf", "name": "f0db4c74161a1609a38dc52c5368d7bf", "type": "electric_scooter", "lon": -77.05029716666667, "rental_uris": {"android": "https://dc.lft.to/lastmile_qr_scan", "ios": "https://dc.lft.to/lastmile_qr_scan"}, "lat": 38.898269166666665, "is_reserved": 0, "is_disabled": 0, "fusion_lat": 0.0}, {"fusion_lon": 0.0, "bike_id": "1f78c8fbcc9927f1b86236de734cda18", "name": "1f78c8fbcc9927f1b86236de734cda18", "type": "electric_scooter", "lon": -77.023803, "rental_uris": {"android": "https://dc.lft.to/lastmile_qr_scan", "ios": "https://dc.lft.to/lastmile_qr_scan"}, "lat": 38.9058055, "is_reserved": 0, "is_disabled": 0, "fusion_lat": 0.0}, {"fusion_lon": 0.0, "bike_id": "13793adbf2b1be4ddba730f4196db37c", "name": "13793adbf2b1be4ddba730f4196db37c", "type": "electric_scooter", "lon": -76.99609683333334, "rental_uris": {"android": "https://dc.lft.to/lastmile_qr_scan", "ios": "https://dc.lft.to/lastmile_qr_scan"}, "lat": 38.8646675, "is_reserved": 0, "is_disabled": 0, "fusion_lat": 0.0}, {"fusion_lon": 0.0, "bike_id": "aeae79280367dc03d64e25ef814ee8b6", "name": "aeae79280367dc03d64e25ef814ee8b6", "type": "electric_scooter", "lon": -77.02403533333333, "rental_uris": {"android": "https://dc.lft.to/lastmile_qr_scan", "ios": "https://dc.lft.to/lastmile_qr_scan"}, "lat": 38.909792, "is_reserved": 0, "is_disabled": 0, "fusion_lat": 0.0}, {"fusion_lon": 0.0, "bike_id": "68a7b718c2b3873224b9ecff73afa690", "name": "68a7b718c2b3873224b9ecff73afa690", "type": "electric_scooter", "lon": -76.99496633333334, "rental_uris": {"android": "https://dc.lft.to/lastmile_qr_scan", "ios": "https://dc.lft.to/lastmile_qr_scan"}, "lat": 38.885795333333334, "is_reserved": 0, "is_disabled": 0, "fusion_lat": 0.0}, {"fusion_lon": 0.0, "bike_id": "debab75429ee989d81078d6d437f70fe", "name": "debab75429ee989d81078d6d437f70fe", "type": "electric_scooter", "lon": -77.00824266666666, "rental_uris": {"android": "https://dc.lft.to/lastmile_qr_scan", "ios": "https://dc.lft.to/lastmile_qr_scan"}, "lat": 38.8764225, "is_reserved": 0, "is_disabled": 0, "fusion_lat": 0.0}, {"fusion_lon": 0.0, "bike_id": "3d03da573313bead714b0736274a73f2", "name": "3d03da573313bead714b0736274a73f2", "type": "electric_scooter", "lon": -77.07078016666667, "rental_uris": {"android": "https://dc.lft.to/lastmile_qr_scan", "ios": "https://dc.lft.to/lastmile_qr_scan"}, "lat": 38.9390265, "is_reserved": 0, "is_disabled": 0, "fusion_lat": 0.0}, {"fusion_lon": 0.0, "bike_id": "6a94e537e87795f60a910298d888474c", "name": "6a94e537e87795f60a910298d888474c", "type": "electric_scooter", "lon": -77.016216, "rental_uris": {"android": "https://dc.lft.to/lastmile_qr_scan", "ios": "https://dc.lft.to/lastmile_qr_scan"}, "lat": 38.906013333333334, "is_reserved": 0, "is_disabled": 0, "fusion_lat": 0.0}, {"fusion_lon": 0.0, "bike_id": "e601a18b6a301bba154859d38e8c41b1", "name": "e601a18b6a301bba154859d38e8c41b1", "type": "electric_scooter", "lon": -77.013886, "rental_uris": {"android": "https://dc.lft.to/lastmile_qr_scan", "ios": "https://dc.lft.to/lastmile_qr_scan"}, "lat": 38.8802275, "is_reserved": 0, "is_disabled": 0, "fusion_lat": 0.0}, {"fusion_lon": 0.0, "bike_id": "c51596255874b427f49f6e2c7da29a25", "name": "c51596255874b427f49f6e2c7da29a25", "type": "electric_scooter", "lon": -77.05138066666666, "rental_uris": {"android": "https://dc.lft.to/lastmile_qr_scan", "ios": "https://dc.lft.to/lastmile_qr_scan"}, "lat": 38.9043655, "is_reserved": 0, "is_disabled": 0, "fusion_lat": 0.0}, {"fusion_lon": 0.0, "bike_id": "450aa6b17a2f85e94ac74741ce390de1", "name": "450aa6b17a2f85e94ac74741ce390de1", "type": "electric_scooter", "lon": -77.0174595, "rental_uris": {"android": "https://dc.lft.to/lastmile_qr_scan", "ios": "https://dc.lft.to/lastmile_qr_scan"}, "lat": 38.883842, "is_reserved": 0, "is_disabled": 0, "fusion_lat": 0.0}, {"fusion_lon": 0.0, "bike_id": "5d1f536dea6de33b5c1d378f49561ad7", "name": "5d1f536dea6de33b5c1d378f49561ad7", "type": "electric_scooter", "lon": -77.02724333333333, "rental_uris": {"android": "https://dc.lft.to/lastmile_qr_scan", "ios": "https://dc.lft.to/lastmile_qr_scan"}, "lat": 38.896149666666666, "is_reserved": 0, "is_disabled": 0, "fusion_lat": 0.0}, {"fusion_lon": 0.0, "bike_id": "5d4fa8c24284cad58e792b1907e26420", "name": "5d4fa8c24284cad58e792b1907e26420", "type": "electric_scooter", "lon": -77.06178033333333, "rental_uris": {"android": "https://dc.lft.to/lastmile_qr_scan", "ios": "https://dc.lft.to/lastmile_qr_scan"}, "lat": 38.94086266666667, "is_reserved": 0, "is_disabled": 0, "fusion_lat": 0.0}, {"fusion_lon": 0.0, "bike_id": "06c20b1525cc07aac3429bd7ffbeb051", "name": "06c20b1525cc07aac3429bd7ffbeb051", "type": "electric_scooter", "lon": -77.01597466666666, "rental_uris": {"android": "https://dc.lft.to/lastmile_qr_scan", "ios": "https://dc.lft.to/lastmile_qr_scan"}, "lat": 38.899703, "is_reserved": 0, "is_disabled": 0, "fusion_lat": 0.0}, {"fusion_lon": 0.0, "bike_id": "41a057792e8dc84c7fe31121f9280f95", "name": "41a057792e8dc84c7fe31121f9280f95", "type": "electric_scooter", "lon": -77.00967316666667, "rental_uris": {"android": "https://dc.lft.to/lastmile_qr_scan", "ios": "https://dc.lft.to/lastmile_qr_scan"}, "lat": 38.90779333333333, "is_reserved": 0, "is_disabled": 0, "fusion_lat": 0.0}, {"fusion_lon": 0.0, "bike_id": "fb855256f939f9d6aff61ba2913206ea", "name": "fb855256f939f9d6aff61ba2913206ea", "type": "electric_scooter", "lon": -77.02945766666667, "rental_uris": {"android": "https://dc.lft.to/lastmile_qr_scan", "ios": "https://dc.lft.to/lastmile_qr_scan"}, "lat": 38.91683966666667, "is_reserved": 0, "is_disabled": 0, "fusion_lat": 0.0}, {"fusion_lon": 0.0, "bike_id": "f4a31ec82b03205b5557a7f7ea63f9c9", "name": "f4a31ec82b03205b5557a7f7ea63f9c9", "type": "electric_scooter", "lon": -77.01923883333333, "rental_uris": {"android": "https://dc.lft.to/lastmile_qr_scan", "ios": "https://dc.lft.to/lastmile_qr_scan"}, "lat": 38.944745, "is_reserved": 0, "is_disabled": 0, "fusion_lat": 0.0}, {"fusion_lon": 0.0, "bike_id": "795b5cd16f614489bcfe1e3271882776", "name": "795b5cd16f614489bcfe1e3271882776", "type": "electric_scooter", "lon": -77.0682395, "rental_uris": {"android": "https://dc.lft.to/lastmile_qr_scan", "ios": "https://dc.lft.to/lastmile_qr_scan"}, "lat": 38.95234816666667, "is_reserved": 0, "is_disabled": 0, "fusion_lat": 0.0}, {"fusion_lon": 0.0, "bike_id": "2e9d2b0e1b34cdbc171b56f55434ed65", "name": "2e9d2b0e1b34cdbc171b56f55434ed65", "type": "electric_scooter", "lon": -77.04395183333334, "rental_uris": {"android": "https://dc.lft.to/lastmile_qr_scan", "ios": "https://dc.lft.to/lastmile_qr_scan"}, "lat": 38.90889966666667, "is_reserved": 0, "is_disabled": 0, "fusion_lat": 0.0}, {"fusion_lon": 0.0, "bike_id": "7ca3196d9d553ba587e94468133dff56", "name": "7ca3196d9d553ba587e94468133dff56", "type": "electric_scooter", "lon": -77.01479666666667, "rental_uris": {"android": "https://dc.lft.to/lastmile_qr_scan", "ios": "https://dc.lft.to/lastmile_qr_scan"}, "lat": 38.8764545, "is_reserved": 0, "is_disabled": 0, "fusion_lat": 0.0}, {"fusion_lon": 0.0, "bike_id": "49952b77baa5a68b8b55aef627fb7374", "name": "49952b77baa5a68b8b55aef627fb7374", "type": "electric_scooter", "lon": -76.97973583333334, "rental_uris": {"android": "https://dc.lft.to/lastmile_qr_scan", "ios": "https://dc.lft.to/lastmile_qr_scan"}, "lat": 38.887685, "is_reserved": 0, "is_disabled": 0, "fusion_lat": 0.0}, {"fusion_lon": 0.0, "bike_id": "b40b239e2379a0169c75dc03bd03bc18", "name": "b40b239e2379a0169c75dc03bd03bc18", "type": "electric_scooter", "lon": -77.01788283333333, "rental_uris": {"android": "https://dc.lft.to/lastmile_qr_scan", "ios": "https://dc.lft.to/lastmile_qr_scan"}, "lat": 38.9024365, "is_reserved": 0, "is_disabled": 0, "fusion_lat": 0.0}, {"fusion_lon": 0.0, "bike_id": "124fa42a1e19bc30be9dd8cd21db5471", "name": "124fa42a1e19bc30be9dd8cd21db5471", "type": "electric_scooter", "lon": -77.00225916666666, "rental_uris": {"android": "https://dc.lft.to/lastmile_qr_scan", "ios": "https://dc.lft.to/lastmile_qr_scan"}, "lat": 38.8909015, "is_reserved": 0, "is_disabled": 0, "fusion_lat": 0.0}, {"fusion_lon": 0.0, "bike_id": "edf760c1b4fe0e5274737c9c223f13b0", "name": "edf760c1b4fe0e5274737c9c223f13b0", "type": "electric_scooter", "lon": -77.05132066666667, "rental_uris": {"android": "https://dc.lft.to/lastmile_qr_scan", "ios": "https://dc.lft.to/lastmile_qr_scan"}, "lat": 38.90708883333333, "is_reserved": 0, "is_disabled": 0, "fusion_lat": 0.0}, {"fusion_lon": 0.0, "bike_id": "33031aeceaec5a21553f3269ca630465", "name": "33031aeceaec5a21553f3269ca630465", "type": "electric_scooter", "lon": -77.00342016666667, "rental_uris": {"android": "https://dc.lft.to/lastmile_qr_scan", "ios": "https://dc.lft.to/lastmile_qr_scan"}, "lat": 38.922671666666666, "is_reserved": 0, "is_disabled": 0, "fusion_lat": 0.0}, {"fusion_lon": 0.0, "bike_id": "e2cbbe1be6a6833fb37a842c7a06034f", "name": "e2cbbe1be6a6833fb37a842c7a06034f", "type": "electric_scooter", "lon": -77.02579483333334, "rental_uris": {"android": "https://dc.lft.to/lastmile_qr_scan", "ios": "https://dc.lft.to/lastmile_qr_scan"}, "lat": 38.92791666666667, "is_reserved": 0, "is_disabled": 0, "fusion_lat": 0.0}, {"fusion_lon": 0.0, "bike_id": "aaf8ebba8f5cbb9c7cca5f922279d454", "name": "aaf8ebba8f5cbb9c7cca5f922279d454", "type": "electric_scooter", "lon": -76.9424595, "rental_uris": {"android": "https://dc.lft.to/lastmile_qr_scan", "ios": "https://dc.lft.to/lastmile_qr_scan"}, "lat": 38.889965833333335, "is_reserved": 0, "is_disabled": 0, "fusion_lat": 0.0}, {"fusion_lon": 0.0, "bike_id": "bbfbbd7d875810defdbfb671b3f6ae2b", "name": "bbfbbd7d875810defdbfb671b3f6ae2b", "type": "electric_scooter", "lon": -77.036559, "rental_uris": {"android": "https://dc.lft.to/lastmile_qr_scan", "ios": "https://dc.lft.to/lastmile_qr_scan"}, "lat": 38.936273, "is_reserved": 0, "is_disabled": 0, "fusion_lat": 0.0}, {"fusion_lon": 0.0, "bike_id": "9b9c04574a25a916eed84e0750e0de0f", "name": "9b9c04574a25a916eed84e0750e0de0f", "type": "electric_scooter", "lon": -77.06260216666666, "rental_uris": {"android": "https://dc.lft.to/lastmile_qr_scan", "ios": "https://dc.lft.to/lastmile_qr_scan"}, "lat": 38.90527933333333, "is_reserved": 0, "is_disabled": 0, "fusion_lat": 0.0}, {"fusion_lon": 0.0, "bike_id": "588198c211449791736d0b7a6a7b963b", "name": "588198c211449791736d0b7a6a7b963b", "type": "electric_bike", "lon": -76.90973866666667, "rental_uris": {"android": "https://dc.lft.to/lastmile_qr_scan", "ios": "https://dc.lft.to/lastmile_qr_scan"}, "lat": 38.854268833333336, "is_reserved": 0, "is_disabled": 0, "fusion_lat": 0.0}, {"fusion_lon": 0.0, "bike_id": "7acbfe3189efad34ac750b71438d35ff", "name": "7acbfe3189efad34ac750b71438d35ff", "type": "electric_scooter", "lon": -77.03860583333334, "rental_uris": {"android": "https://dc.lft.to/lastmile_qr_scan", "ios": "https://dc.lft.to/lastmile_qr_scan"}, "lat": 38.912839166666664, "is_reserved": 0, "is_disabled": 0, "fusion_lat": 0.0}, {"fusion_lon": 0.0, "bike_id": "a44d351522d2ddbe528fb856ff6476b8", "name": "a44d351522d2ddbe528fb856ff6476b8", "type": "electric_scooter", "lon": -77.00749533333334, "rental_uris": {"android": "https://dc.lft.to/lastmile_qr_scan", "ios": "https://dc.lft.to/lastmile_qr_scan"}, "lat": 38.903643333333335, "is_reserved": 0, "is_disabled": 0, "fusion_lat": 0.0}, {"fusion_lon": 0.0, "bike_id": "b9e0407a4fb0f75a93c3ace9c8bda256", "name": "b9e0407a4fb0f75a93c3ace9c8bda256", "type": "electric_scooter", "lon": -77.041663, "rental_uris": {"android": "https://dc.lft.to/lastmile_qr_scan", "ios": "https://dc.lft.to/lastmile_qr_scan"}, "lat": 38.9134805, "is_reserved": 0, "is_disabled": 0, "fusion_lat": 0.0}, {"fusion_lon": 0.0, "bike_id": "961639e841a2c72f5cb5ee516b4d49c3", "name": "961639e841a2c72f5cb5ee516b4d49c3", "type": "electric_scooter", "lon": -77.0321365, "rental_uris": {"android": "https://dc.lft.to/lastmile_qr_scan", "ios": "https://dc.lft.to/lastmile_qr_scan"}, "lat": 38.887344, "is_reserved": 0, "is_disabled": 0, "fusion_lat": 0.0}, {"fusion_lon": 0.0, "bike_id": "7ed7cdd698c925c07b1b21eedd51ee81", "name": "7ed7cdd698c925c07b1b21eedd51ee81", "type": "electric_scooter", "lon": -77.06100083333334, "rental_uris": {"android": "https://dc.lft.to/lastmile_qr_scan", "ios": "https://dc.lft.to/lastmile_qr_scan"}, "lat": 38.943636166666664, "is_reserved": 0, "is_disabled": 0, "fusion_lat": 0.0}, {"fusion_lon": 0.0, "bike_id": "c720cfea1f68c3fdb440a7f4b83199be", "name": "c720cfea1f68c3fdb440a7f4b83199be", "type": "electric_scooter", "lon": -77.0306005, "rental_uris": {"android": "https://dc.lft.to/lastmile_qr_scan", "ios": "https://dc.lft.to/lastmile_qr_scan"}, "lat": 38.90133633333333, "is_reserved": 0, "is_disabled": 0, "fusion_lat": 0.0}, {"fusion_lon": 0.0, "bike_id": "a9af6d55ecfd32d7b2b1a636851864c3", "name": "a9af6d55ecfd32d7b2b1a636851864c3", "type": "electric_scooter", "lon": -77.00953666666666, "rental_uris": {"android": "https://dc.lft.to/lastmile_qr_scan", "ios": "https://dc.lft.to/lastmile_qr_scan"}, "lat": 38.87661533333333, "is_reserved": 0, "is_disabled": 0, "fusion_lat": 0.0}, {"fusion_lon": 0.0, "bike_id": "822c673b8e496a316bb16bfd04c559fe", "name": "822c673b8e496a316bb16bfd04c559fe", "type": "electric_scooter", "lon": -77.01420083333333, "rental_uris": {"android": "https://dc.lft.to/lastmile_qr_scan", "ios": "https://dc.lft.to/lastmile_qr_scan"}, "lat": 38.92861883333333, "is_reserved": 0, "is_disabled": 0, "fusion_lat": 0.0}, {"fusion_lon": 0.0, "bike_id": "4a5b6f0bc99acd2d49df03ba1344e89f", "name": "4a5b6f0bc99acd2d49df03ba1344e89f", "type": "electric_scooter", "lon": -77.0377305, "rental_uris": {"android": "https://dc.lft.to/lastmile_qr_scan", "ios": "https://dc.lft.to/lastmile_qr_scan"}, "lat": 38.93606416666667, "is_reserved": 0, "is_disabled": 0, "fusion_lat": 0.0}, {"fusion_lon": 0.0, "bike_id": "6e5c3e171e56fb6647efa84733cfcf06", "name": "6e5c3e171e56fb6647efa84733cfcf06", "type": "electric_scooter", "lon": -77.037586, "rental_uris": {"android": "https://dc.lft.to/lastmile_qr_scan", "ios": "https://dc.lft.to/lastmile_qr_scan"}, "lat": 38.90703833333333, "is_reserved": 0, "is_disabled": 0, "fusion_lat": 0.0}, {"fusion_lon": 0.0, "bike_id": "2beaacfbd42ae515bdaca16378a6c680", "name": "2beaacfbd42ae515bdaca16378a6c680", "type": "electric_scooter", "lon": -77.04678966666667, "rental_uris": {"android": "https://dc.lft.to/lastmile_qr_scan", "ios": "https://dc.lft.to/lastmile_qr_scan"}, "lat": 38.898265333333335, "is_reserved": 0, "is_disabled": 0, "fusion_lat": 0.0}, {"fusion_lon": 0.0, "bike_id": "7a1e8c127ae85500c1d7ec3b9cd4f7f9", "name": "7a1e8c127ae85500c1d7ec3b9cd4f7f9", "type": "electric_scooter", "lon": -77.034173, "rental_uris": {"android": "https://dc.lft.to/lastmile_qr_scan", "ios": "https://dc.lft.to/lastmile_qr_scan"}, "lat": 38.907994, "is_reserved": 0, "is_disabled": 0, "fusion_lat": 0.0}, {"fusion_lon": 0.0, "bike_id": "46572ec0175567f484ef076077538083", "name": "46572ec0175567f484ef076077538083", "type": "electric_scooter", "lon": -77.0372215, "rental_uris": {"android": "https://dc.lft.to/lastmile_qr_scan", "ios": "https://dc.lft.to/lastmile_qr_scan"}, "lat": 38.91803733333333, "is_reserved": 0, "is_disabled": 0, "fusion_lat": 0.0}, {"fusion_lon": 0.0, "bike_id": "b0f73c8b6d1b46a301882e802fa000bc", "name": "b0f73c8b6d1b46a301882e802fa000bc", "type": "electric_scooter", "lon": -77.00566583333334, "rental_uris": {"android": "https://dc.lft.to/lastmile_qr_scan", "ios": "https://dc.lft.to/lastmile_qr_scan"}, "lat": 38.905609, "is_reserved": 0, "is_disabled": 0, "fusion_lat": 0.0}, {"fusion_lon": 0.0, "bike_id": "c5b39c5a12013ab6cb8980c5efadf722", "name": "c5b39c5a12013ab6cb8980c5efadf722", "type": "electric_scooter", "lon": -77.08610316666666, "rental_uris": {"android": "https://dc.lft.to/lastmile_qr_scan", "ios": "https://dc.lft.to/lastmile_qr_scan"}, "lat": 38.958712, "is_reserved": 0, "is_disabled": 0, "fusion_lat": 0.0}, {"fusion_lon": 0.0, "bike_id": "24daef13d720a4b333a515b87400c74e", "name": "24daef13d720a4b333a515b87400c74e", "type": "electric_scooter", "lon": -77.00856683333333, "rental_uris": {"android": "https://dc.lft.to/lastmile_qr_scan", "ios": "https://dc.lft.to/lastmile_qr_scan"}, "lat": 38.87651816666666, "is_reserved": 0, "is_disabled": 0, "fusion_lat": 0.0}, {"fusion_lon": 0.0, "bike_id": "22a298176ff4749372257b508a2d0cde", "name": "22a298176ff4749372257b508a2d0cde", "type": "electric_scooter", "lon": -76.99901866666667, "rental_uris": {"android": "https://dc.lft.to/lastmile_qr_scan", "ios": "https://dc.lft.to/lastmile_qr_scan"}, "lat": 38.956509, "is_reserved": 0, "is_disabled": 0, "fusion_lat": 0.0}, {"fusion_lon": 0.0, "bike_id": "4f3e195bcdbffce0f36f92f17e5a5644", "name": "4f3e195bcdbffce0f36f92f17e5a5644", "type": "electric_scooter", "lon": -76.98656783333334, "rental_uris": {"android": "https://dc.lft.to/lastmile_qr_scan", "ios": "https://dc.lft.to/lastmile_qr_scan"}, "lat": 38.9131115, "is_reserved": 0, "is_disabled": 0, "fusion_lat": 0.0}, {"fusion_lon": 0.0, "bike_id": "b3624f0df8fcacda6cc4a8e34cc04d58", "name": "b3624f0df8fcacda6cc4a8e34cc04d58", "type": "electric_scooter", "lon": -77.0239695, "rental_uris": {"android": "https://dc.lft.to/lastmile_qr_scan", "ios": "https://dc.lft.to/lastmile_qr_scan"}, "lat": 38.9097325, "is_reserved": 0, "is_disabled": 0, "fusion_lat": 0.0}, {"fusion_lon": 0.0, "bike_id": "6a296b5efe96307e1b917e28823447a8", "name": "6a296b5efe96307e1b917e28823447a8", "type": "electric_scooter", "lon": -77.024046, "rental_uris": {"android": "https://dc.lft.to/lastmile_qr_scan", "ios": "https://dc.lft.to/lastmile_qr_scan"}, "lat": 38.90977183333333, "is_reserved": 0, "is_disabled": 0, "fusion_lat": 0.0}, {"fusion_lon": 0.0, "bike_id": "01eb2de0f3c354c790ea08c49a6b959a", "name": "01eb2de0f3c354c790ea08c49a6b959a", "type": "electric_scooter", "lon": -76.9980955, "rental_uris": {"android": "https://dc.lft.to/lastmile_qr_scan", "ios": "https://dc.lft.to/lastmile_qr_scan"}, "lat": 38.87682383333333, "is_reserved": 0, "is_disabled": 0, "fusion_lat": 0.0}, {"fusion_lon": 0.0, "bike_id": "491427388f4576cb8b87473d937907a8", "name": "491427388f4576cb8b87473d937907a8", "type": "electric_scooter", "lon": -76.94915316666666, "rental_uris": {"android": "https://dc.lft.to/lastmile_qr_scan", "ios": "https://dc.lft.to/lastmile_qr_scan"}, "lat": 38.895357, "is_reserved": 0, "is_disabled": 0, "fusion_lat": 0.0}, {"fusion_lon": 0.0, "bike_id": "76faa9f4ee5a0f5906b76a4df3c68fcc", "name": "76faa9f4ee5a0f5906b76a4df3c68fcc", "type": "electric_bike", "lon": -76.9599585, "rental_uris": {"android": "https://dc.lft.to/lastmile_qr_scan", "ios": "https://dc.lft.to/lastmile_qr_scan"}, "lat": 38.87002866666667, "is_reserved": 0, "is_disabled": 0, "fusion_lat": 0.0}, {"fusion_lon": 0.0, "bike_id": "e790718ae451183f9af6dd5047ffead1", "name": "e790718ae451183f9af6dd5047ffead1", "type": "electric_scooter", "lon": -77.03152466666667, "rental_uris": {"android": "https://dc.lft.to/lastmile_qr_scan", "ios": "https://dc.lft.to/lastmile_qr_scan"}, "lat": 38.88303783333333, "is_reserved": 0, "is_disabled": 0, "fusion_lat": 0.0}, {"fusion_lon": 0.0, "bike_id": "6b3345742690cd9fd197170ca1c3fb52", "name": "6b3345742690cd9fd197170ca1c3fb52", "type": "electric_scooter", "lon": -77.0527335, "rental_uris": {"android": "https://dc.lft.to/lastmile_qr_scan", "ios": "https://dc.lft.to/lastmile_qr_scan"}, "lat": 38.9101645, "is_reserved": 0, "is_disabled": 0, "fusion_lat": 0.0}, {"fusion_lon": 0.0, "bike_id": "3d6a0ddc0f069b880da0501dfe336f6c", "name": "3d6a0ddc0f069b880da0501dfe336f6c", "type": "electric_scooter", "lon": -77.04292666666667, "rental_uris": {"android": "https://dc.lft.to/lastmile_qr_scan", "ios": "https://dc.lft.to/lastmile_qr_scan"}, "lat": 38.917845166666666, "is_reserved": 0, "is_disabled": 0, "fusion_lat": 0.0}, {"fusion_lon": 0.0, "bike_id": "3ada4941db14b79e442ddcaf92797d86", "name": "3ada4941db14b79e442ddcaf92797d86", "type": "electric_scooter", "lon": -77.06532866666667, "rental_uris": {"android": "https://dc.lft.to/lastmile_qr_scan", "ios": "https://dc.lft.to/lastmile_qr_scan"}, "lat": 38.9506525, "is_reserved": 0, "is_disabled": 0, "fusion_lat": 0.0}, {"fusion_lon": 0.0, "bike_id": "eaf3aa0108d0d9c5edf8f6c995cccae0", "name": "eaf3aa0108d0d9c5edf8f6c995cccae0", "type": "electric_scooter", "lon": -77.0716335, "rental_uris": {"android": "https://dc.lft.to/lastmile_qr_scan", "ios": "https://dc.lft.to/lastmile_qr_scan"}, "lat": 38.907732333333335, "is_reserved": 0, "is_disabled": 0, "fusion_lat": 0.0}, {"fusion_lon": 0.0, "bike_id": "81401a6ac03866dfebb2974423051279", "name": "81401a6ac03866dfebb2974423051279", "type": "electric_scooter", "lon": -77.025954, "rental_uris": {"android": "https://dc.lft.to/lastmile_qr_scan", "ios": "https://dc.lft.to/lastmile_qr_scan"}, "lat": 38.916904, "is_reserved": 0, "is_disabled": 0, "fusion_lat": 0.0}, {"fusion_lon": 0.0, "bike_id": "4b93359cc0389d38d38815e02a107e32", "name": "4b93359cc0389d38d38815e02a107e32", "type": "electric_scooter", "lon": -77.03732533333333, "rental_uris": {"android": "https://dc.lft.to/lastmile_qr_scan", "ios": "https://dc.lft.to/lastmile_qr_scan"}, "lat": 38.928490333333336, "is_reserved": 0, "is_disabled": 0, "fusion_lat": 0.0}, {"fusion_lon": 0.0, "bike_id": "e8dd40223861f0a096017c9cae17afeb", "name": "e8dd40223861f0a096017c9cae17afeb", "type": "electric_scooter", "lon": -77.03306133333334, "rental_uris": {"android": "https://dc.lft.to/lastmile_qr_scan", "ios": "https://dc.lft.to/lastmile_qr_scan"}, "lat": 38.920658333333336, "is_reserved": 0, "is_disabled": 0, "fusion_lat": 0.0}, {"fusion_lon": 0.0, "bike_id": "a5ea51d2ac59c674f57aa91c88a78307", "name": "a5ea51d2ac59c674f57aa91c88a78307", "type": "electric_bike", "lon": -77.1779645, "rental_uris": {"android": "https://dc.lft.to/lastmile_qr_scan", "ios": "https://dc.lft.to/lastmile_qr_scan"}, "lat": 39.088407833333335, "is_reserved": 0, "is_disabled": 0, "fusion_lat": 0.0}, {"fusion_lon": 0.0, "bike_id": "8d164fe0f20c04f190274815042d59d4", "name": "8d164fe0f20c04f190274815042d59d4", "type": "electric_scooter", "lon": -77.04870116666666, "rental_uris": {"android": "https://dc.lft.to/lastmile_qr_scan", "ios": "https://dc.lft.to/lastmile_qr_scan"}, "lat": 38.8922665, "is_reserved": 0, "is_disabled": 0, "fusion_lat": 0.0}, {"fusion_lon": 0.0, "bike_id": "f3d15a0fa77c3f46f966c3f137014d01", "name": "f3d15a0fa77c3f46f966c3f137014d01", "type": "electric_scooter", "lon": -77.0554975, "rental_uris": {"android": "https://dc.lft.to/lastmile_qr_scan", "ios": "https://dc.lft.to/lastmile_qr_scan"}, "lat": 38.900101666666664, "is_reserved": 0, "is_disabled": 0, "fusion_lat": 0.0}, {"fusion_lon": 0.0, "bike_id": "0561a15acba240903e9d827a4efb7df1", "name": "0561a15acba240903e9d827a4efb7df1", "type": "electric_bike", "lon": -77.02807666666666, "rental_uris": {"android": "https://dc.lft.to/lastmile_qr_scan", "ios": "https://dc.lft.to/lastmile_qr_scan"}, "lat": 38.9660235, "is_reserved": 0, "is_disabled": 0, "fusion_lat": 0.0}, {"fusion_lon": 0.0, "bike_id": "6a3542c59122e77c7c290d5401ee3769", "name": "6a3542c59122e77c7c290d5401ee3769", "type": "electric_scooter", "lon": -76.987697, "rental_uris": {"android": "https://dc.lft.to/lastmile_qr_scan", "ios": "https://dc.lft.to/lastmile_qr_scan"}, "lat": 38.844769, "is_reserved": 0, "is_disabled": 0, "fusion_lat": 0.0}, {"fusion_lon": 0.0, "bike_id": "9beaa7e0e41a4d0bc7ed14b315ff4534", "name": "9beaa7e0e41a4d0bc7ed14b315ff4534", "type": "electric_scooter", "lon": -77.0204375, "rental_uris": {"android": "https://dc.lft.to/lastmile_qr_scan", "ios": "https://dc.lft.to/lastmile_qr_scan"}, "lat": 38.91554, "is_reserved": 0, "is_disabled": 0, "fusion_lat": 0.0}, {"fusion_lon": 0.0, "bike_id": "3951af53ec9c1c70068f58186217280e", "name": "3951af53ec9c1c70068f58186217280e", "type": "electric_scooter", "lon": -76.98878566666667, "rental_uris": {"android": "https://dc.lft.to/lastmile_qr_scan", "ios": "https://dc.lft.to/lastmile_qr_scan"}, "lat": 38.8667235, "is_reserved": 0, "is_disabled": 0, "fusion_lat": 0.0}, {"fusion_lon": 0.0, "bike_id": "5d825d84ec04bfcb87b233cb0667f382", "name": "5d825d84ec04bfcb87b233cb0667f382", "type": "electric_scooter", "lon": -76.995058, "rental_uris": {"android": "https://dc.lft.to/lastmile_qr_scan", "ios": "https://dc.lft.to/lastmile_qr_scan"}, "lat": 38.88579766666667, "is_reserved": 0, "is_disabled": 0, "fusion_lat": 0.0}, {"fusion_lon": 0.0, "bike_id": "21d8c83115211fca930d07e309d5503b", "name": "21d8c83115211fca930d07e309d5503b", "type": "electric_bike", "lon": -77.02714833333333, "rental_uris": {"android": "https://dc.lft.to/lastmile_qr_scan", "ios": "https://dc.lft.to/lastmile_qr_scan"}, "lat": 38.981901666666666, "is_reserved": 0, "is_disabled": 0, "fusion_lat": 0.0}, {"fusion_lon": 0.0, "bike_id": "f9b3fe4b4e94d1d943081ba15084a298", "name": "f9b3fe4b4e94d1d943081ba15084a298", "type": "electric_scooter", "lon": -77.019107, "rental_uris": {"android": "https://dc.lft.to/lastmile_qr_scan", "ios": "https://dc.lft.to/lastmile_qr_scan"}, "lat": 38.878783, "is_reserved": 0, "is_disabled": 0, "fusion_lat": 0.0}, {"fusion_lon": 0.0, "bike_id": "16f4a96ec11eab83123855daf768e6e6", "name": "16f4a96ec11eab83123855daf768e6e6", "type": "electric_scooter", "lon": -77.03936916666666, "rental_uris": {"android": "https://dc.lft.to/lastmile_qr_scan", "ios": "https://dc.lft.to/lastmile_qr_scan"}, "lat": 38.91809833333333, "is_reserved": 0, "is_disabled": 0, "fusion_lat": 0.0}, {"fusion_lon": 0.0, "bike_id": "b62c95caa9ff2cc7ff9bd96333bd39b4", "name": "b62c95caa9ff2cc7ff9bd96333bd39b4", "type": "electric_scooter", "lon": -77.03546766666666, "rental_uris": {"android": "https://dc.lft.to/lastmile_qr_scan", "ios": "https://dc.lft.to/lastmile_qr_scan"}, "lat": 38.92408266666666, "is_reserved": 0, "is_disabled": 0, "fusion_lat": 0.0}, {"fusion_lon": 0.0, "bike_id": "07240645cca3ee144b236f2697669889", "name": "07240645cca3ee144b236f2697669889", "type": "electric_scooter", "lon": -77.04639783333333, "rental_uris": {"android": "https://dc.lft.to/lastmile_qr_scan", "ios": "https://dc.lft.to/lastmile_qr_scan"}, "lat": 38.903325, "is_reserved": 0, "is_disabled": 0, "fusion_lat": 0.0}, {"fusion_lon": 0.0, "bike_id": "30e530234eeb6bb5a4c2a733d118a8c7", "name": "30e530234eeb6bb5a4c2a733d118a8c7", "type": "electric_bike", "lon": -77.12507033333333, "rental_uris": {"android": "https://dc.lft.to/lastmile_qr_scan", "ios": "https://dc.lft.to/lastmile_qr_scan"}, "lat": 39.02424033333333, "is_reserved": 0, "is_disabled": 0, "fusion_lat": 0.0}, {"fusion_lon": 0.0, "bike_id": "1f9cbfbdbbe7aee32720f29aba760853", "name": "1f9cbfbdbbe7aee32720f29aba760853", "type": "electric_scooter", "lon": -77.027545, "rental_uris": {"android": "https://dc.lft.to/lastmile_qr_scan", "ios": "https://dc.lft.to/lastmile_qr_scan"}, "lat": 38.954123, "is_reserved": 0, "is_disabled": 0, "fusion_lat": 0.0}, {"fusion_lon": 0.0, "bike_id": "44d6bbcbc6664d9164fe9fafda6c2d9e", "name": "44d6bbcbc6664d9164fe9fafda6c2d9e", "type": "electric_scooter", "lon": -77.03181966666666, "rental_uris": {"android": "https://dc.lft.to/lastmile_qr_scan", "ios": "https://dc.lft.to/lastmile_qr_scan"}, "lat": 38.892283166666665, "is_reserved": 0, "is_disabled": 0, "fusion_lat": 0.0}, {"fusion_lon": 0.0, "bike_id": "4bf9c89a4d40994ef8a9e5c4c37b19c7", "name": "4bf9c89a4d40994ef8a9e5c4c37b19c7", "type": "electric_scooter", "lon": -77.04662416666666, "rental_uris": {"android": "https://dc.lft.to/lastmile_qr_scan", "ios": "https://dc.lft.to/lastmile_qr_scan"}, "lat": 38.90367966666667, "is_reserved": 0, "is_disabled": 0, "fusion_lat": 0.0}, {"fusion_lon": 0.0, "bike_id": "264ad3e4e8505444e2824fb7a6a233b3", "name": "264ad3e4e8505444e2824fb7a6a233b3", "type": "electric_scooter", "lon": -77.02504216666667, "rental_uris": {"android": "https://dc.lft.to/lastmile_qr_scan", "ios": "https://dc.lft.to/lastmile_qr_scan"}, "lat": 38.92092366666667, "is_reserved": 0, "is_disabled": 0, "fusion_lat": 0.0}, {"fusion_lon": 0.0, "bike_id": "7b699ce4bc89a35efe4d71da8d7673fb", "name": "7b699ce4bc89a35efe4d71da8d7673fb", "type": "electric_scooter", "lon": -77.03859966666667, "rental_uris": {"android": "https://dc.lft.to/lastmile_qr_scan", "ios": "https://dc.lft.to/lastmile_qr_scan"}, "lat": 38.918369, "is_reserved": 0, "is_disabled": 0, "fusion_lat": 0.0}, {"fusion_lon": 0.0, "bike_id": "49c7d411ac2feaf4b4c589416e581532", "name": "49c7d411ac2feaf4b4c589416e581532", "type": "electric_scooter", "lon": -77.02819833333334, "rental_uris": {"android": "https://dc.lft.to/lastmile_qr_scan", "ios": "https://dc.lft.to/lastmile_qr_scan"}, "lat": 38.948283333333336, "is_reserved": 0, "is_disabled": 0, "fusion_lat": 0.0}, {"fusion_lon": 0.0, "bike_id": "154a4b8e78c4c098b3cf6b306ca926e5", "name": "154a4b8e78c4c098b3cf6b306ca926e5", "type": "electric_scooter", "lon": -77.05919116666666, "rental_uris": {"android": "https://dc.lft.to/lastmile_qr_scan", "ios": "https://dc.lft.to/lastmile_qr_scan"}, "lat": 38.9365035, "is_reserved": 0, "is_disabled": 0, "fusion_lat": 0.0}, {"fusion_lon": 0.0, "bike_id": "cf39f8d467cb631e42de4ea81ae11dcb", "name": "cf39f8d467cb631e42de4ea81ae11dcb", "type": "electric_scooter", "lon": -77.04170716666667, "rental_uris": {"android": "https://dc.lft.to/lastmile_qr_scan", "ios": "https://dc.lft.to/lastmile_qr_scan"}, "lat": 38.9161865, "is_reserved": 0, "is_disabled": 0, "fusion_lat": 0.0}, {"fusion_lon": 0.0, "bike_id": "75ff638dfa556493d95e8de9f4db897c", "name": "75ff638dfa556493d95e8de9f4db897c", "type": "electric_scooter", "lon": -77.057367, "rental_uris": {"android": "https://dc.lft.to/lastmile_qr_scan", "ios": "https://dc.lft.to/lastmile_qr_scan"}, "lat": 38.924271, "is_reserved": 0, "is_disabled": 0, "fusion_lat": 0.0}, {"fusion_lon": 0.0, "bike_id": "5d7e62adfa60d83fc532c42b6c0e3996", "name": "5d7e62adfa60d83fc532c42b6c0e3996", "type": "electric_scooter", "lon": -76.99477183333333, "rental_uris": {"android": "https://dc.lft.to/lastmile_qr_scan", "ios": "https://dc.lft.to/lastmile_qr_scan"}, "lat": 38.8621425, "is_reserved": 0, "is_disabled": 0, "fusion_lat": 0.0}, {"fusion_lon": 0.0, "bike_id": "d0e8a1bdb7fea4fe6a992d97094da6d6", "name": "d0e8a1bdb7fea4fe6a992d97094da6d6", "type": "electric_scooter", "lon": -76.93836033333334, "rental_uris": {"android": "https://dc.lft.to/lastmile_qr_scan", "ios": "https://dc.lft.to/lastmile_qr_scan"}, "lat": 38.89008833333333, "is_reserved": 0, "is_disabled": 0, "fusion_lat": 0.0}, {"fusion_lon": 0.0, "bike_id": "e0dbcfd0ab52db710e345fffad479e58", "name": "e0dbcfd0ab52db710e345fffad479e58", "type": "electric_scooter", "lon": -77.034625, "rental_uris": {"android": "https://dc.lft.to/lastmile_qr_scan", "ios": "https://dc.lft.to/lastmile_qr_scan"}, "lat": 38.917198, "is_reserved": 0, "is_disabled": 0, "fusion_lat": 0.0}, {"fusion_lon": 0.0, "bike_id": "2a00244e37ce0dcf4afd460470765f25", "name": "2a00244e37ce0dcf4afd460470765f25", "type": "electric_scooter", "lon": -77.04178466666667, "rental_uris": {"android": "https://dc.lft.to/lastmile_qr_scan", "ios": "https://dc.lft.to/lastmile_qr_scan"}, "lat": 38.912585666666665, "is_reserved": 0, "is_disabled": 0, "fusion_lat": 0.0}, {"fusion_lon": 0.0, "bike_id": "72e071a9fb7fd7a0299374c507cbcd4c", "name": "72e071a9fb7fd7a0299374c507cbcd4c", "type": "electric_scooter", "lon": -77.038294, "rental_uris": {"android": "https://dc.lft.to/lastmile_qr_scan", "ios": "https://dc.lft.to/lastmile_qr_scan"}, "lat": 38.91123133333333, "is_reserved": 0, "is_disabled": 0, "fusion_lat": 0.0}, {"fusion_lon": 0.0, "bike_id": "09e402c618ff7973489ebedb3be2e111", "name": "09e402c618ff7973489ebedb3be2e111", "type": "electric_scooter", "lon": -77.0393575, "rental_uris": {"android": "https://dc.lft.to/lastmile_qr_scan", "ios": "https://dc.lft.to/lastmile_qr_scan"}, "lat": 38.924948666666666, "is_reserved": 0, "is_disabled": 0, "fusion_lat": 0.0}, {"fusion_lon": 0.0, "bike_id": "991417265705088391606b8568fa1e18", "name": "991417265705088391606b8568fa1e18", "type": "electric_scooter", "lon": -77.01961683333333, "rental_uris": {"android": "https://dc.lft.to/lastmile_qr_scan", "ios": "https://dc.lft.to/lastmile_qr_scan"}, "lat": 38.930362833333334, "is_reserved": 0, "is_disabled": 0, "fusion_lat": 0.0}, {"fusion_lon": 0.0, "bike_id": "f5407cfad8bb88576f85c7fb73b39c40", "name": "f5407cfad8bb88576f85c7fb73b39c40", "type": "electric_scooter", "lon": -77.02890833333333, "rental_uris": {"android": "https://dc.lft.to/lastmile_qr_scan", "ios": "https://dc.lft.to/lastmile_qr_scan"}, "lat": 38.92465883333333, "is_reserved": 0, "is_disabled": 0, "fusion_lat": 0.0}, {"fusion_lon": 0.0, "bike_id": "4f3511f7fa7e5e772c448d35b9f36ec5", "name": "4f3511f7fa7e5e772c448d35b9f36ec5", "type": "electric_bike", "lon": -76.96875683333333, "rental_uris": {"android": "https://dc.lft.to/lastmile_qr_scan", "ios": "https://dc.lft.to/lastmile_qr_scan"}, "lat": 38.845970333333334, "is_reserved": 0, "is_disabled": 0, "fusion_lat": 0.0}, {"fusion_lon": 0.0, "bike_id": "efe9f021fb50c83cec025645219e3b47", "name": "efe9f021fb50c83cec025645219e3b47", "type": "electric_scooter", "lon": -77.05791183333334, "rental_uris": {"android": "https://dc.lft.to/lastmile_qr_scan", "ios": "https://dc.lft.to/lastmile_qr_scan"}, "lat": 38.93480066666667, "is_reserved": 0, "is_disabled": 0, "fusion_lat": 0.0}, {"fusion_lon": 0.0, "bike_id": "7c635013cf83a1dc44c72cd4a04e1ba8", "name": "7c635013cf83a1dc44c72cd4a04e1ba8", "type": "electric_scooter", "lon": -76.965261, "rental_uris": {"android": "https://dc.lft.to/lastmile_qr_scan", "ios": "https://dc.lft.to/lastmile_qr_scan"}, "lat": 38.87478333333333, "is_reserved": 0, "is_disabled": 0, "fusion_lat": 0.0}, {"fusion_lon": 0.0, "bike_id": "c1c9bdfa086e632f93393b6f7330108b", "name": "c1c9bdfa086e632f93393b6f7330108b", "type": "electric_scooter", "lon": -77.037511, "rental_uris": {"android": "https://dc.lft.to/lastmile_qr_scan", "ios": "https://dc.lft.to/lastmile_qr_scan"}, "lat": 38.92905183333333, "is_reserved": 0, "is_disabled": 0, "fusion_lat": 0.0}, {"fusion_lon": 0.0, "bike_id": "fc583e3547edd109ed58d715c7b1ca21", "name": "fc583e3547edd109ed58d715c7b1ca21", "type": "electric_scooter", "lon": -77.02305066666666, "rental_uris": {"android": "https://dc.lft.to/lastmile_qr_scan", "ios": "https://dc.lft.to/lastmile_qr_scan"}, "lat": 38.917902166666664, "is_reserved": 0, "is_disabled": 0, "fusion_lat": 0.0}, {"fusion_lon": 0.0, "bike_id": "5ef5240a8bf82d3c0a4d561225914bdb", "name": "5ef5240a8bf82d3c0a4d561225914bdb", "type": "electric_scooter", "lon": -77.0385595, "rental_uris": {"android": "https://dc.lft.to/lastmile_qr_scan", "ios": "https://dc.lft.to/lastmile_qr_scan"}, "lat": 38.918405, "is_reserved": 0, "is_disabled": 0, "fusion_lat": 0.0}, {"fusion_lon": 0.0, "bike_id": "0a6cb9cb0174bfa2b9c7a91121469eb7", "name": "0a6cb9cb0174bfa2b9c7a91121469eb7", "type": "electric_scooter", "lon": -76.982513, "rental_uris": {"android": "https://dc.lft.to/lastmile_qr_scan", "ios": "https://dc.lft.to/lastmile_qr_scan"}, "lat": 38.863534333333334, "is_reserved": 0, "is_disabled": 0, "fusion_lat": 0.0}, {"fusion_lon": 0.0, "bike_id": "0c8fbf129e94587a8d6a3950e88a7018", "name": "0c8fbf129e94587a8d6a3950e88a7018", "type": "electric_scooter", "lon": -77.0217195, "rental_uris": {"android": "https://dc.lft.to/lastmile_qr_scan", "ios": "https://dc.lft.to/lastmile_qr_scan"}, "lat": 38.91977216666667, "is_reserved": 0, "is_disabled": 0, "fusion_lat": 0.0}, {"fusion_lon": 0.0, "bike_id": "db9e5d6a06ea7e8c0e7bcfa5e713214c", "name": "db9e5d6a06ea7e8c0e7bcfa5e713214c", "type": "electric_scooter", "lon": -76.982692, "rental_uris": {"android": "https://dc.lft.to/lastmile_qr_scan", "ios": "https://dc.lft.to/lastmile_qr_scan"}, "lat": 38.88531433333333, "is_reserved": 0, "is_disabled": 0, "fusion_lat": 0.0}, {"fusion_lon": 0.0, "bike_id": "2e104f6f385ecd38076863d215762c48", "name": "2e104f6f385ecd38076863d215762c48", "type": "electric_scooter", "lon": -77.03210366666667, "rental_uris": {"android": "https://dc.lft.to/lastmile_qr_scan", "ios": "https://dc.lft.to/lastmile_qr_scan"}, "lat": 38.92582916666667, "is_reserved": 0, "is_disabled": 0, "fusion_lat": 0.0}, {"fusion_lon": 0.0, "bike_id": "dd0729859b8fe0b983e344492b88e372", "name": "dd0729859b8fe0b983e344492b88e372", "type": "electric_scooter", "lon": -77.0478395, "rental_uris": {"android": "https://dc.lft.to/lastmile_qr_scan", "ios": "https://dc.lft.to/lastmile_qr_scan"}, "lat": 38.902511833333335, "is_reserved": 0, "is_disabled": 0, "fusion_lat": 0.0}, {"fusion_lon": 0.0, "bike_id": "00d1c42418e8ad6b79edd4ef80d72d80", "name": "00d1c42418e8ad6b79edd4ef80d72d80", "type": "electric_scooter", "lon": -77.00121866666667, "rental_uris": {"android": "https://dc.lft.to/lastmile_qr_scan", "ios": "https://dc.lft.to/lastmile_qr_scan"}, "lat": 38.90750333333333, "is_reserved": 0, "is_disabled": 0, "fusion_lat": 0.0}, {"fusion_lon": 0.0, "bike_id": "ce0969e4b7e12e35da5c5a577848bd17", "name": "ce0969e4b7e12e35da5c5a577848bd17", "type": "electric_scooter", "lon": -77.06647533333333, "rental_uris": {"android": "https://dc.lft.to/lastmile_qr_scan", "ios": "https://dc.lft.to/lastmile_qr_scan"}, "lat": 38.9497765, "is_reserved": 0, "is_disabled": 0, "fusion_lat": 0.0}, {"fusion_lon": 0.0, "bike_id": "235dccfe37f9ee4e59c398f4169d0984", "name": "235dccfe37f9ee4e59c398f4169d0984", "type": "electric_scooter", "lon": -77.01883966666666, "rental_uris": {"android": "https://dc.lft.to/lastmile_qr_scan", "ios": "https://dc.lft.to/lastmile_qr_scan"}, "lat": 38.946402666666664, "is_reserved": 0, "is_disabled": 0, "fusion_lat": 0.0}, {"fusion_lon": 0.0, "bike_id": "db695b106c8c6cf282cab6f513dd21de", "name": "db695b106c8c6cf282cab6f513dd21de", "type": "electric_scooter", "lon": -77.04512016666666, "rental_uris": {"android": "https://dc.lft.to/lastmile_qr_scan", "ios": "https://dc.lft.to/lastmile_qr_scan"}, "lat": 38.921319833333335, "is_reserved": 0, "is_disabled": 0, "fusion_lat": 0.0}, {"fusion_lon": 0.0, "bike_id": "92b9f6ca5230aee126441f9b5f24319f", "name": "92b9f6ca5230aee126441f9b5f24319f", "type": "electric_scooter", "lon": -77.02706233333333, "rental_uris": {"android": "https://dc.lft.to/lastmile_qr_scan", "ios": "https://dc.lft.to/lastmile_qr_scan"}, "lat": 38.9097355, "is_reserved": 0, "is_disabled": 0, "fusion_lat": 0.0}, {"fusion_lon": 0.0, "bike_id": "c998edbd879ef8d45ce1179d898e7cd5", "name": "c998edbd879ef8d45ce1179d898e7cd5", "type": "electric_scooter", "lon": -77.01339133333333, "rental_uris": {"android": "https://dc.lft.to/lastmile_qr_scan", "ios": "https://dc.lft.to/lastmile_qr_scan"}, "lat": 38.907191833333336, "is_reserved": 0, "is_disabled": 0, "fusion_lat": 0.0}, {"fusion_lon": 0.0, "bike_id": "80a7359a81aaaeac82010fb73f4098c8", "name": "80a7359a81aaaeac82010fb73f4098c8", "type": "electric_scooter", "lon": -76.98949966666666, "rental_uris": {"android": "https://dc.lft.to/lastmile_qr_scan", "ios": "https://dc.lft.to/lastmile_qr_scan"}, "lat": 38.84404966666666, "is_reserved": 0, "is_disabled": 0, "fusion_lat": 0.0}, {"fusion_lon": 0.0, "bike_id": "4a3be3f4bea05a539cfc11e0b2673c70", "name": "4a3be3f4bea05a539cfc11e0b2673c70", "type": "electric_bike", "lon": -77.1142795, "rental_uris": {"android": "https://dc.lft.to/lastmile_qr_scan", "ios": "https://dc.lft.to/lastmile_qr_scan"}, "lat": 38.852451, "is_reserved": 0, "is_disabled": 0, "fusion_lat": 0.0}, {"fusion_lon": 0.0, "bike_id": "c340175c4eb12faf56f7ae6754de49b3", "name": "c340175c4eb12faf56f7ae6754de49b3", "type": "electric_bike", "lon": -76.99764116666667, "rental_uris": {"android": "https://dc.lft.to/lastmile_qr_scan", "ios": "https://dc.lft.to/lastmile_qr_scan"}, "lat": 39.00590666666667, "is_reserved": 0, "is_disabled": 0, "fusion_lat": 0.0}, {"fusion_lon": 0.0, "bike_id": "dd78e3f3631baf63f2623c9184ae6708", "name": "dd78e3f3631baf63f2623c9184ae6708", "type": "electric_scooter", "lon": -77.023888, "rental_uris": {"android": "https://dc.lft.to/lastmile_qr_scan", "ios": "https://dc.lft.to/lastmile_qr_scan"}, "lat": 38.92069633333333, "is_reserved": 0, "is_disabled": 0, "fusion_lat": 0.0}, {"fusion_lon": 0.0, "bike_id": "a9fd3021f1e130c057cc519d3d10b5b7", "name": "a9fd3021f1e130c057cc519d3d10b5b7", "type": "electric_scooter", "lon": -77.05510466666667, "rental_uris": {"android": "https://dc.lft.to/lastmile_qr_scan", "ios": "https://dc.lft.to/lastmile_qr_scan"}, "lat": 38.910540833333336, "is_reserved": 0, "is_disabled": 0, "fusion_lat": 0.0}, {"fusion_lon": 0.0, "bike_id": "938f20a3e045889e5ba9c25e1b9fb16f", "name": "938f20a3e045889e5ba9c25e1b9fb16f", "type": "electric_scooter", "lon": -76.99163333333334, "rental_uris": {"android": "https://dc.lft.to/lastmile_qr_scan", "ios": "https://dc.lft.to/lastmile_qr_scan"}, "lat": 38.897712, "is_reserved": 0, "is_disabled": 0, "fusion_lat": 0.0}, {"fusion_lon": 0.0, "bike_id": "82d0aadec27e04c20f1bbd4b52ead32f", "name": "82d0aadec27e04c20f1bbd4b52ead32f", "type": "electric_scooter", "lon": -77.03795966666667, "rental_uris": {"android": "https://dc.lft.to/lastmile_qr_scan", "ios": "https://dc.lft.to/lastmile_qr_scan"}, "lat": 38.93328666666667, "is_reserved": 0, "is_disabled": 0, "fusion_lat": 0.0}, {"fusion_lon": 0.0, "bike_id": "0a8bd24fe6641bb6df6c37c9d4d4e8ee", "name": "0a8bd24fe6641bb6df6c37c9d4d4e8ee", "type": "electric_scooter", "lon": -76.98768266666667, "rental_uris": {"android": "https://dc.lft.to/lastmile_qr_scan", "ios": "https://dc.lft.to/lastmile_qr_scan"}, "lat": 38.883143, "is_reserved": 0, "is_disabled": 0, "fusion_lat": 0.0}, {"fusion_lon": 0.0, "bike_id": "8e3b2b546577419f6f87e782be17ca21", "name": "8e3b2b546577419f6f87e782be17ca21", "type": "electric_scooter", "lon": -77.07259966666666, "rental_uris": {"android": "https://dc.lft.to/lastmile_qr_scan", "ios": "https://dc.lft.to/lastmile_qr_scan"}, "lat": 38.9129625, "is_reserved": 0, "is_disabled": 0, "fusion_lat": 0.0}, {"fusion_lon": 0.0, "bike_id": "9126be833b308ae889bbe81aac0ebdbc", "name": "9126be833b308ae889bbe81aac0ebdbc", "type": "electric_bike", "lon": -76.946138, "rental_uris": {"android": "https://dc.lft.to/lastmile_qr_scan", "ios": "https://dc.lft.to/lastmile_qr_scan"}, "lat": 38.832311, "is_reserved": 0, "is_disabled": 0, "fusion_lat": 0.0}, {"fusion_lon": 0.0, "bike_id": "cb657586a027a009f2d11f33a2a95429", "name": "cb657586a027a009f2d11f33a2a95429", "type": "electric_scooter", "lon": -76.99453216666667, "rental_uris": {"android": "https://dc.lft.to/lastmile_qr_scan", "ios": "https://dc.lft.to/lastmile_qr_scan"}, "lat": 38.92272366666667, "is_reserved": 0, "is_disabled": 0, "fusion_lat": 0.0}, {"fusion_lon": 0.0, "bike_id": "1355e5684986f7361a51f854e20b4855", "name": "1355e5684986f7361a51f854e20b4855", "type": "electric_scooter", "lon": -77.04675266666666, "rental_uris": {"android": "https://dc.lft.to/lastmile_qr_scan", "ios": "https://dc.lft.to/lastmile_qr_scan"}, "lat": 38.90715016666667, "is_reserved": 0, "is_disabled": 0, "fusion_lat": 0.0}, {"fusion_lon": 0.0, "bike_id": "50e6634696db91d26db44b063172639f", "name": "50e6634696db91d26db44b063172639f", "type": "electric_bike", "lon": -77.02983166666667, "rental_uris": {"android": "https://dc.lft.to/lastmile_qr_scan", "ios": "https://dc.lft.to/lastmile_qr_scan"}, "lat": 38.936998833333334, "is_reserved": 0, "is_disabled": 0, "fusion_lat": 0.0}, {"fusion_lon": 0.0, "bike_id": "f949e6e5ee8f8d025ce2756f08a8b276", "name": "f949e6e5ee8f8d025ce2756f08a8b276", "type": "electric_scooter", "lon": -76.98722433333333, "rental_uris": {"android": "https://dc.lft.to/lastmile_qr_scan", "ios": "https://dc.lft.to/lastmile_qr_scan"}, "lat": 38.86711066666667, "is_reserved": 0, "is_disabled": 0, "fusion_lat": 0.0}, {"fusion_lon": 0.0, "bike_id": "9d06d5c28346679c3d6568c824b75e39", "name": "9d06d5c28346679c3d6568c824b75e39", "type": "electric_scooter", "lon": -77.02321583333334, "rental_uris": {"android": "https://dc.lft.to/lastmile_qr_scan", "ios": "https://dc.lft.to/lastmile_qr_scan"}, "lat": 38.92407683333333, "is_reserved": 0, "is_disabled": 0, "fusion_lat": 0.0}, {"fusion_lon": 0.0, "bike_id": "6ec94afb665c23d6f834b54e88808f28", "name": "6ec94afb665c23d6f834b54e88808f28", "type": "electric_scooter", "lon": -76.97268733333334, "rental_uris": {"android": "https://dc.lft.to/lastmile_qr_scan", "ios": "https://dc.lft.to/lastmile_qr_scan"}, "lat": 38.930800833333336, "is_reserved": 0, "is_disabled": 0, "fusion_lat": 0.0}, {"fusion_lon": 0.0, "bike_id": "c9b1052b85071e7fb440d391a681ecec", "name": "c9b1052b85071e7fb440d391a681ecec", "type": "electric_bike", "lon": -77.00600283333333, "rental_uris": {"android": "https://dc.lft.to/lastmile_qr_scan", "ios": "https://dc.lft.to/lastmile_qr_scan"}, "lat": 38.89811916666667, "is_reserved": 0, "is_disabled": 0, "fusion_lat": 0.0}, {"fusion_lon": 0.0, "bike_id": "221f3a1ce600db16b4016c2c64801bce", "name": "221f3a1ce600db16b4016c2c64801bce", "type": "electric_scooter", "lon": -77.02414116666667, "rental_uris": {"android": "https://dc.lft.to/lastmile_qr_scan", "ios": "https://dc.lft.to/lastmile_qr_scan"}, "lat": 38.9574545, "is_reserved": 0, "is_disabled": 0, "fusion_lat": 0.0}, {"fusion_lon": 0.0, "bike_id": "2c5ef700dca60e4e4679a275c1180037", "name": "2c5ef700dca60e4e4679a275c1180037", "type": "electric_scooter", "lon": -76.94156466666666, "rental_uris": {"android": "https://dc.lft.to/lastmile_qr_scan", "ios": "https://dc.lft.to/lastmile_qr_scan"}, "lat": 38.883626666666665, "is_reserved": 0, "is_disabled": 0, "fusion_lat": 0.0}, {"fusion_lon": 0.0, "bike_id": "3fce977dceaeca68637eb4c263628e19", "name": "3fce977dceaeca68637eb4c263628e19", "type": "electric_scooter", "lon": -77.02884716666667, "rental_uris": {"android": "https://dc.lft.to/lastmile_qr_scan", "ios": "https://dc.lft.to/lastmile_qr_scan"}, "lat": 38.904361, "is_reserved": 0, "is_disabled": 0, "fusion_lat": 0.0}, {"fusion_lon": 0.0, "bike_id": "47de328cc17422bcac7e365e32380eea", "name": "47de328cc17422bcac7e365e32380eea", "type": "electric_scooter", "lon": -77.03119983333333, "rental_uris": {"android": "https://dc.lft.to/lastmile_qr_scan", "ios": "https://dc.lft.to/lastmile_qr_scan"}, "lat": 38.92018683333333, "is_reserved": 0, "is_disabled": 0, "fusion_lat": 0.0}, {"fusion_lon": 0.0, "bike_id": "d8f314577043b22b3ff8951b43346fc7", "name": "d8f314577043b22b3ff8951b43346fc7", "type": "electric_scooter", "lon": -77.02480266666667, "rental_uris": {"android": "https://dc.lft.to/lastmile_qr_scan", "ios": "https://dc.lft.to/lastmile_qr_scan"}, "lat": 38.880119, "is_reserved": 0, "is_disabled": 0, "fusion_lat": 0.0}, {"fusion_lon": 0.0, "bike_id": "d17692bb562d1aa8c27f6d42588f2f9a", "name": "d17692bb562d1aa8c27f6d42588f2f9a", "type": "electric_scooter", "lon": -76.99008466666666, "rental_uris": {"android": "https://dc.lft.to/lastmile_qr_scan", "ios": "https://dc.lft.to/lastmile_qr_scan"}, "lat": 38.90032083333333, "is_reserved": 0, "is_disabled": 0, "fusion_lat": 0.0}, {"fusion_lon": 0.0, "bike_id": "ee28de49579b04f87bcf346503ddc50f", "name": "ee28de49579b04f87bcf346503ddc50f", "type": "electric_scooter", "lon": -77.00712433333334, "rental_uris": {"android": "https://dc.lft.to/lastmile_qr_scan", "ios": "https://dc.lft.to/lastmile_qr_scan"}, "lat": 38.876768, "is_reserved": 0, "is_disabled": 0, "fusion_lat": 0.0}, {"fusion_lon": 0.0, "bike_id": "bf5655e5c1b015df1fbf8759ec67ba54", "name": "bf5655e5c1b015df1fbf8759ec67ba54", "type": "electric_scooter", "lon": -77.03459033333333, "rental_uris": {"android": "https://dc.lft.to/lastmile_qr_scan", "ios": "https://dc.lft.to/lastmile_qr_scan"}, "lat": 38.91490066666667, "is_reserved": 0, "is_disabled": 0, "fusion_lat": 0.0}, {"fusion_lon": 0.0, "bike_id": "919310d14f4e72ba3900a6984850c71f", "name": "919310d14f4e72ba3900a6984850c71f", "type": "electric_scooter", "lon": -77.02789816666666, "rental_uris": {"android": "https://dc.lft.to/lastmile_qr_scan", "ios": "https://dc.lft.to/lastmile_qr_scan"}, "lat": 38.902514333333336, "is_reserved": 0, "is_disabled": 0, "fusion_lat": 0.0}, {"fusion_lon": 0.0, "bike_id": "cc98c93147ffb9fb8e7998d6d7fe161c", "name": "cc98c93147ffb9fb8e7998d6d7fe161c", "type": "electric_scooter", "lon": -77.04155866666666, "rental_uris": {"android": "https://dc.lft.to/lastmile_qr_scan", "ios": "https://dc.lft.to/lastmile_qr_scan"}, "lat": 38.898820666666666, "is_reserved": 0, "is_disabled": 0, "fusion_lat": 0.0}, {"fusion_lon": 0.0, "bike_id": "f5a7b6e4f5b49658e334ac5c88bea703", "name": "f5a7b6e4f5b49658e334ac5c88bea703", "type": "electric_scooter", "lon": -77.05415983333333, "rental_uris": {"android": "https://dc.lft.to/lastmile_qr_scan", "ios": "https://dc.lft.to/lastmile_qr_scan"}, "lat": 38.9282725, "is_reserved": 0, "is_disabled": 0, "fusion_lat": 0.0}, {"fusion_lon": 0.0, "bike_id": "457eabe547fe8a49ccc8aa7cc2559833", "name": "457eabe547fe8a49ccc8aa7cc2559833", "type": "electric_scooter", "lon": -77.02980516666666, "rental_uris": {"android": "https://dc.lft.to/lastmile_qr_scan", "ios": "https://dc.lft.to/lastmile_qr_scan"}, "lat": 38.907216, "is_reserved": 0, "is_disabled": 0, "fusion_lat": 0.0}, {"fusion_lon": 0.0, "bike_id": "0e7c3c5c7965882d1d8197e008b73978", "name": "0e7c3c5c7965882d1d8197e008b73978", "type": "electric_scooter", "lon": -77.0363695, "rental_uris": {"android": "https://dc.lft.to/lastmile_qr_scan", "ios": "https://dc.lft.to/lastmile_qr_scan"}, "lat": 38.924114333333335, "is_reserved": 0, "is_disabled": 0, "fusion_lat": 0.0}, {"fusion_lon": 0.0, "bike_id": "7762aa0a010aeebd5cce82cb4ad04d6c", "name": "7762aa0a010aeebd5cce82cb4ad04d6c", "type": "electric_scooter", "lon": -77.00102516666666, "rental_uris": {"android": "https://dc.lft.to/lastmile_qr_scan", "ios": "https://dc.lft.to/lastmile_qr_scan"}, "lat": 38.91711683333333, "is_reserved": 0, "is_disabled": 0, "fusion_lat": 0.0}, {"fusion_lon": 0.0, "bike_id": "ce6758b3f0e3339e3fdfac3be75aa3d1", "name": "ce6758b3f0e3339e3fdfac3be75aa3d1", "type": "electric_scooter", "lon": -77.03273966666667, "rental_uris": {"android": "https://dc.lft.to/lastmile_qr_scan", "ios": "https://dc.lft.to/lastmile_qr_scan"}, "lat": 38.93751283333334, "is_reserved": 0, "is_disabled": 0, "fusion_lat": 0.0}, {"fusion_lon": 0.0, "bike_id": "a2a8d17057be999c5aa9799e5e8d3f89", "name": "a2a8d17057be999c5aa9799e5e8d3f89", "type": "electric_scooter", "lon": -77.00748866666666, "rental_uris": {"android": "https://dc.lft.to/lastmile_qr_scan", "ios": "https://dc.lft.to/lastmile_qr_scan"}, "lat": 38.903635, "is_reserved": 0, "is_disabled": 0, "fusion_lat": 0.0}, {"fusion_lon": 0.0, "bike_id": "4bf552ebbebfb087ae5ff8749c1f829b", "name": "4bf552ebbebfb087ae5ff8749c1f829b", "type": "electric_scooter", "lon": -77.041822, "rental_uris": {"android": "https://dc.lft.to/lastmile_qr_scan", "ios": "https://dc.lft.to/lastmile_qr_scan"}, "lat": 38.92332183333333, "is_reserved": 0, "is_disabled": 0, "fusion_lat": 0.0}, {"fusion_lon": 0.0, "bike_id": "9af3eb643ab9b785ba1f2eec737285a2", "name": "9af3eb643ab9b785ba1f2eec737285a2", "type": "electric_scooter", "lon": -77.03638983333333, "rental_uris": {"android": "https://dc.lft.to/lastmile_qr_scan", "ios": "https://dc.lft.to/lastmile_qr_scan"}, "lat": 38.917644833333334, "is_reserved": 0, "is_disabled": 0, "fusion_lat": 0.0}, {"fusion_lon": 0.0, "bike_id": "d17c08896e0c717d000798fc6ff4ef66", "name": "d17c08896e0c717d000798fc6ff4ef66", "type": "electric_scooter", "lon": -77.0551245, "rental_uris": {"android": "https://dc.lft.to/lastmile_qr_scan", "ios": "https://dc.lft.to/lastmile_qr_scan"}, "lat": 38.94416066666667, "is_reserved": 0, "is_disabled": 0, "fusion_lat": 0.0}, {"fusion_lon": 0.0, "bike_id": "b29a86f21b832a9fea6d34d3f5ead13e", "name": "b29a86f21b832a9fea6d34d3f5ead13e", "type": "electric_scooter", "lon": -77.0317955, "rental_uris": {"android": "https://dc.lft.to/lastmile_qr_scan", "ios": "https://dc.lft.to/lastmile_qr_scan"}, "lat": 38.905139, "is_reserved": 0, "is_disabled": 0, "fusion_lat": 0.0}, {"fusion_lon": 0.0, "bike_id": "e30bba086f0538acf88c6b73d831e13e", "name": "e30bba086f0538acf88c6b73d831e13e", "type": "electric_scooter", "lon": -77.011906, "rental_uris": {"android": "https://dc.lft.to/lastmile_qr_scan", "ios": "https://dc.lft.to/lastmile_qr_scan"}, "lat": 38.88769833333333, "is_reserved": 0, "is_disabled": 0, "fusion_lat": 0.0}, {"fusion_lon": 0.0, "bike_id": "16e537779be3dd8cf40050d28992e644", "name": "16e537779be3dd8cf40050d28992e644", "type": "electric_scooter", "lon": -77.02948383333333, "rental_uris": {"android": "https://dc.lft.to/lastmile_qr_scan", "ios": "https://dc.lft.to/lastmile_qr_scan"}, "lat": 38.90507, "is_reserved": 0, "is_disabled": 0, "fusion_lat": 0.0}, {"fusion_lon": 0.0, "bike_id": "ec6117a3824605f3563a2cbcb73ed33d", "name": "ec6117a3824605f3563a2cbcb73ed33d", "type": "electric_scooter", "lon": -77.00191866666667, "rental_uris": {"android": "https://dc.lft.to/lastmile_qr_scan", "ios": "https://dc.lft.to/lastmile_qr_scan"}, "lat": 38.899990833333334, "is_reserved": 0, "is_disabled": 0, "fusion_lat": 0.0}, {"fusion_lon": 0.0, "bike_id": "bb484598d53d81475c97b1e191bf45de", "name": "bb484598d53d81475c97b1e191bf45de", "type": "electric_scooter", "lon": -76.9890465, "rental_uris": {"android": "https://dc.lft.to/lastmile_qr_scan", "ios": "https://dc.lft.to/lastmile_qr_scan"}, "lat": 38.902249166666664, "is_reserved": 0, "is_disabled": 0, "fusion_lat": 0.0}, {"fusion_lon": 0.0, "bike_id": "48de01bb494a1c21b1af857978695e59", "name": "48de01bb494a1c21b1af857978695e59", "type": "electric_scooter", "lon": -76.94996783333333, "rental_uris": {"android": "https://dc.lft.to/lastmile_qr_scan", "ios": "https://dc.lft.to/lastmile_qr_scan"}, "lat": 38.89391783333333, "is_reserved": 0, "is_disabled": 0, "fusion_lat": 0.0}, {"fusion_lon": 0.0, "bike_id": "99e06429da121d0978a3f7fb49ff5bb1", "name": "99e06429da121d0978a3f7fb49ff5bb1", "type": "electric_scooter", "lon": -77.031497, "rental_uris": {"android": "https://dc.lft.to/lastmile_qr_scan", "ios": "https://dc.lft.to/lastmile_qr_scan"}, "lat": 38.887519166666664, "is_reserved": 0, "is_disabled": 0, "fusion_lat": 0.0}, {"fusion_lon": 0.0, "bike_id": "ca32159d6c3f89c1449249a96eebebda", "name": "ca32159d6c3f89c1449249a96eebebda", "type": "electric_scooter", "lon": -77.038276, "rental_uris": {"android": "https://dc.lft.to/lastmile_qr_scan", "ios": "https://dc.lft.to/lastmile_qr_scan"}, "lat": 38.9156295, "is_reserved": 0, "is_disabled": 0, "fusion_lat": 0.0}, {"fusion_lon": 0.0, "bike_id": "29bf87ff5983ea1273461b8d116bf170", "name": "29bf87ff5983ea1273461b8d116bf170", "type": "electric_scooter", "lon": -77.02451216666667, "rental_uris": {"android": "https://dc.lft.to/lastmile_qr_scan", "ios": "https://dc.lft.to/lastmile_qr_scan"}, "lat": 38.928936, "is_reserved": 0, "is_disabled": 0, "fusion_lat": 0.0}, {"fusion_lon": 0.0, "bike_id": "2f496f190f0c817645cf18ff2b44ab03", "name": "2f496f190f0c817645cf18ff2b44ab03", "type": "electric_scooter", "lon": -77.04163633333333, "rental_uris": {"android": "https://dc.lft.to/lastmile_qr_scan", "ios": "https://dc.lft.to/lastmile_qr_scan"}, "lat": 38.905091666666664, "is_reserved": 0, "is_disabled": 0, "fusion_lat": 0.0}, {"fusion_lon": 0.0, "bike_id": "d621cf96fd8decf820d26c4986cd3e43", "name": "d621cf96fd8decf820d26c4986cd3e43", "type": "electric_scooter", "lon": -77.04228366666666, "rental_uris": {"android": "https://dc.lft.to/lastmile_qr_scan", "ios": "https://dc.lft.to/lastmile_qr_scan"}, "lat": 38.916974333333336, "is_reserved": 0, "is_disabled": 0, "fusion_lat": 0.0}, {"fusion_lon": 0.0, "bike_id": "3d81dbdc3f0936107e400b66bcef9a49", "name": "3d81dbdc3f0936107e400b66bcef9a49", "type": "electric_bike", "lon": -76.98381966666666, "rental_uris": {"android": "https://dc.lft.to/lastmile_qr_scan", "ios": "https://dc.lft.to/lastmile_qr_scan"}, "lat": 38.91474933333333, "is_reserved": 0, "is_disabled": 0, "fusion_lat": 0.0}, {"fusion_lon": 0.0, "bike_id": "9e27abfde01b939c6b937db22a8edf67", "name": "9e27abfde01b939c6b937db22a8edf67", "type": "electric_scooter", "lon": -77.06025733333334, "rental_uris": {"android": "https://dc.lft.to/lastmile_qr_scan", "ios": "https://dc.lft.to/lastmile_qr_scan"}, "lat": 38.939342333333336, "is_reserved": 0, "is_disabled": 0, "fusion_lat": 0.0}, {"fusion_lon": 0.0, "bike_id": "856484b3e4c13fbaa1b00f6a66d87f47", "name": "856484b3e4c13fbaa1b00f6a66d87f47", "type": "electric_scooter", "lon": -77.039397, "rental_uris": {"android": "https://dc.lft.to/lastmile_qr_scan", "ios": "https://dc.lft.to/lastmile_qr_scan"}, "lat": 38.9095785, "is_reserved": 0, "is_disabled": 0, "fusion_lat": 0.0}, {"fusion_lon": 0.0, "bike_id": "95216829c55469da8088902436462606", "name": "95216829c55469da8088902436462606", "type": "electric_scooter", "lon": -77.02719133333333, "rental_uris": {"android": "https://dc.lft.to/lastmile_qr_scan", "ios": "https://dc.lft.to/lastmile_qr_scan"}, "lat": 38.94089566666667, "is_reserved": 0, "is_disabled": 0, "fusion_lat": 0.0}, {"fusion_lon": 0.0, "bike_id": "eb50a3f84eeca17b18bc4bd6e3f0c18c", "name": "eb50a3f84eeca17b18bc4bd6e3f0c18c", "type": "electric_scooter", "lon": -77.04785433333333, "rental_uris": {"android": "https://dc.lft.to/lastmile_qr_scan", "ios": "https://dc.lft.to/lastmile_qr_scan"}, "lat": 38.90277066666667, "is_reserved": 0, "is_disabled": 0, "fusion_lat": 0.0}, {"fusion_lon": 0.0, "bike_id": "feb3bec0613b3c41dc0be1f553bfbd3a", "name": "feb3bec0613b3c41dc0be1f553bfbd3a", "type": "electric_scooter", "lon": -77.07453266666667, "rental_uris": {"android": "https://dc.lft.to/lastmile_qr_scan", "ios": "https://dc.lft.to/lastmile_qr_scan"}, "lat": 38.9109575, "is_reserved": 0, "is_disabled": 0, "fusion_lat": 0.0}, {"fusion_lon": 0.0, "bike_id": "d8e380faae756c50d25afbf8c1b4a341", "name": "d8e380faae756c50d25afbf8c1b4a341", "type": "electric_bike", "lon": -77.12899033333333, "rental_uris": {"android": "https://dc.lft.to/lastmile_qr_scan", "ios": "https://dc.lft.to/lastmile_qr_scan"}, "lat": 38.863764, "is_reserved": 0, "is_disabled": 0, "fusion_lat": 0.0}, {"fusion_lon": 0.0, "bike_id": "24be5e5ae7155e76479479f7024ffcc2", "name": "24be5e5ae7155e76479479f7024ffcc2", "type": "electric_scooter", "lon": -77.03095716666667, "rental_uris": {"android": "https://dc.lft.to/lastmile_qr_scan", "ios": "https://dc.lft.to/lastmile_qr_scan"}, "lat": 38.917007, "is_reserved": 0, "is_disabled": 0, "fusion_lat": 0.0}, {"fusion_lon": 0.0, "bike_id": "0619f0fde1e6c71d911fac1c69fd9583", "name": "0619f0fde1e6c71d911fac1c69fd9583", "type": "electric_scooter", "lon": -77.009167, "rental_uris": {"android": "https://dc.lft.to/lastmile_qr_scan", "ios": "https://dc.lft.to/lastmile_qr_scan"}, "lat": 38.959525166666666, "is_reserved": 0, "is_disabled": 0, "fusion_lat": 0.0}, {"fusion_lon": 0.0, "bike_id": "59bfd26fbbac586ef522525eb40c5180", "name": "59bfd26fbbac586ef522525eb40c5180", "type": "electric_scooter", "lon": -76.99958933333333, "rental_uris": {"android": "https://dc.lft.to/lastmile_qr_scan", "ios": "https://dc.lft.to/lastmile_qr_scan"}, "lat": 38.9038385, "is_reserved": 0, "is_disabled": 0, "fusion_lat": 0.0}, {"fusion_lon": 0.0, "bike_id": "c2ab8bba3c8caddef268ebbce9fbe7a3", "name": "c2ab8bba3c8caddef268ebbce9fbe7a3", "type": "electric_scooter", "lon": -77.02894116666667, "rental_uris": {"android": "https://dc.lft.to/lastmile_qr_scan", "ios": "https://dc.lft.to/lastmile_qr_scan"}, "lat": 38.904436, "is_reserved": 0, "is_disabled": 0, "fusion_lat": 0.0}, {"fusion_lon": 0.0, "bike_id": "fa9c9b4ddff90d7f9c8c85b32e69c20d", "name": "fa9c9b4ddff90d7f9c8c85b32e69c20d", "type": "electric_scooter", "lon": -77.04702033333334, "rental_uris": {"android": "https://dc.lft.to/lastmile_qr_scan", "ios": "https://dc.lft.to/lastmile_qr_scan"}, "lat": 38.91674616666667, "is_reserved": 0, "is_disabled": 0, "fusion_lat": 0.0}, {"fusion_lon": 0.0, "bike_id": "6894cdc7f7559556ab49143f254cce2f", "name": "6894cdc7f7559556ab49143f254cce2f", "type": "electric_scooter", "lon": -77.03515816666666, "rental_uris": {"android": "https://dc.lft.to/lastmile_qr_scan", "ios": "https://dc.lft.to/lastmile_qr_scan"}, "lat": 38.9183675, "is_reserved": 0, "is_disabled": 0, "fusion_lat": 0.0}, {"fusion_lon": 0.0, "bike_id": "6d791068bae4741202f9b4f5d7b03c66", "name": "6d791068bae4741202f9b4f5d7b03c66", "type": "electric_scooter", "lon": -77.05095083333333, "rental_uris": {"android": "https://dc.lft.to/lastmile_qr_scan", "ios": "https://dc.lft.to/lastmile_qr_scan"}, "lat": 38.905254, "is_reserved": 0, "is_disabled": 0, "fusion_lat": 0.0}, {"fusion_lon": 0.0, "bike_id": "bd104d3379c92e442a4c08047d60dbc5", "name": "bd104d3379c92e442a4c08047d60dbc5", "type": "electric_scooter", "lon": -77.02586483333333, "rental_uris": {"android": "https://dc.lft.to/lastmile_qr_scan", "ios": "https://dc.lft.to/lastmile_qr_scan"}, "lat": 38.94211516666667, "is_reserved": 0, "is_disabled": 0, "fusion_lat": 0.0}, {"fusion_lon": 0.0, "bike_id": "375fb58ccf4812c2a8d312fb65e6b77d", "name": "375fb58ccf4812c2a8d312fb65e6b77d", "type": "electric_scooter", "lon": -77.03150183333334, "rental_uris": {"android": "https://dc.lft.to/lastmile_qr_scan", "ios": "https://dc.lft.to/lastmile_qr_scan"}, "lat": 38.92721683333333, "is_reserved": 0, "is_disabled": 0, "fusion_lat": 0.0}, {"fusion_lon": 0.0, "bike_id": "3530a81582443b44eb72430a6a17e19a", "name": "3530a81582443b44eb72430a6a17e19a", "type": "electric_scooter", "lon": -77.03856966666666, "rental_uris": {"android": "https://dc.lft.to/lastmile_qr_scan", "ios": "https://dc.lft.to/lastmile_qr_scan"}, "lat": 38.918070166666666, "is_reserved": 0, "is_disabled": 0, "fusion_lat": 0.0}, {"fusion_lon": 0.0, "bike_id": "f9f24986b6e68cecfaa34c3e1b7f8602", "name": "f9f24986b6e68cecfaa34c3e1b7f8602", "type": "electric_bike", "lon": -76.98194816666667, "rental_uris": {"android": "https://dc.lft.to/lastmile_qr_scan", "ios": "https://dc.lft.to/lastmile_qr_scan"}, "lat": 38.984962, "is_reserved": 0, "is_disabled": 0, "fusion_lat": 0.0}, {"fusion_lon": 0.0, "bike_id": "77beded7e6deec576a7227dd78af0423", "name": "77beded7e6deec576a7227dd78af0423", "type": "electric_scooter", "lon": -77.02691416666667, "rental_uris": {"android": "https://dc.lft.to/lastmile_qr_scan", "ios": "https://dc.lft.to/lastmile_qr_scan"}, "lat": 38.907377, "is_reserved": 0, "is_disabled": 0, "fusion_lat": 0.0}, {"fusion_lon": 0.0, "bike_id": "9f9b62168c30b252da61ca3f6be4e306", "name": "9f9b62168c30b252da61ca3f6be4e306", "type": "electric_scooter", "lon": -77.00726816666666, "rental_uris": {"android": "https://dc.lft.to/lastmile_qr_scan", "ios": "https://dc.lft.to/lastmile_qr_scan"}, "lat": 38.876487166666664, "is_reserved": 0, "is_disabled": 0, "fusion_lat": 0.0}, {"fusion_lon": 0.0, "bike_id": "202e5fdfbc5463f7ebf02b6c5c8a40c3", "name": "202e5fdfbc5463f7ebf02b6c5c8a40c3", "type": "electric_scooter", "lon": -77.03266316666667, "rental_uris": {"android": "https://dc.lft.to/lastmile_qr_scan", "ios": "https://dc.lft.to/lastmile_qr_scan"}, "lat": 38.93212483333333, "is_reserved": 0, "is_disabled": 0, "fusion_lat": 0.0}, {"fusion_lon": 0.0, "bike_id": "9dbb88a54a1c7173d629fa56a1b96e3f", "name": "9dbb88a54a1c7173d629fa56a1b96e3f", "type": "electric_scooter", "lon": -77.05427733333333, "rental_uris": {"android": "https://dc.lft.to/lastmile_qr_scan", "ios": "https://dc.lft.to/lastmile_qr_scan"}, "lat": 38.9280985, "is_reserved": 0, "is_disabled": 0, "fusion_lat": 0.0}, {"fusion_lon": 0.0, "bike_id": "4b890903fcae48e7fcfb47b00e2f95ae", "name": "4b890903fcae48e7fcfb47b00e2f95ae", "type": "electric_scooter", "lon": -77.00646633333334, "rental_uris": {"android": "https://dc.lft.to/lastmile_qr_scan", "ios": "https://dc.lft.to/lastmile_qr_scan"}, "lat": 38.9117955, "is_reserved": 0, "is_disabled": 0, "fusion_lat": 0.0}, {"fusion_lon": 0.0, "bike_id": "ae4236d9997f57f7c10a89127d3a8787", "name": "ae4236d9997f57f7c10a89127d3a8787", "type": "electric_scooter", "lon": -77.02757933333334, "rental_uris": {"android": "https://dc.lft.to/lastmile_qr_scan", "ios": "https://dc.lft.to/lastmile_qr_scan"}, "lat": 38.95414316666667, "is_reserved": 0, "is_disabled": 0, "fusion_lat": 0.0}, {"fusion_lon": 0.0, "bike_id": "1a2a631aa335ce0fd4222aa86045084d", "name": "1a2a631aa335ce0fd4222aa86045084d", "type": "electric_scooter", "lon": -77.04013666666667, "rental_uris": {"android": "https://dc.lft.to/lastmile_qr_scan", "ios": "https://dc.lft.to/lastmile_qr_scan"}, "lat": 38.9132775, "is_reserved": 0, "is_disabled": 0, "fusion_lat": 0.0}, {"fusion_lon": 0.0, "bike_id": "d67114f18b089a725c4f121b8a2f22dc", "name": "d67114f18b089a725c4f121b8a2f22dc", "type": "electric_bike", "lon": -76.93413533333333, "rental_uris": {"android": "https://dc.lft.to/lastmile_qr_scan", "ios": "https://dc.lft.to/lastmile_qr_scan"}, "lat": 38.94624616666667, "is_reserved": 0, "is_disabled": 0, "fusion_lat": 0.0}, {"fusion_lon": 0.0, "bike_id": "412f25ce803192dc00462c5cac26f29d", "name": "412f25ce803192dc00462c5cac26f29d", "type": "electric_scooter", "lon": -77.01254816666666, "rental_uris": {"android": "https://dc.lft.to/lastmile_qr_scan", "ios": "https://dc.lft.to/lastmile_qr_scan"}, "lat": 38.87630816666667, "is_reserved": 0, "is_disabled": 0, "fusion_lat": 0.0}, {"fusion_lon": 0.0, "bike_id": "a2fcb647c481af2a416cbe12d83a517f", "name": "a2fcb647c481af2a416cbe12d83a517f", "type": "electric_scooter", "lon": -77.02945516666666, "rental_uris": {"android": "https://dc.lft.to/lastmile_qr_scan", "ios": "https://dc.lft.to/lastmile_qr_scan"}, "lat": 38.905009166666666, "is_reserved": 0, "is_disabled": 0, "fusion_lat": 0.0}, {"fusion_lon": 0.0, "bike_id": "7696f0e88f555ee6f7b096a09aebf608", "name": "7696f0e88f555ee6f7b096a09aebf608", "type": "electric_scooter", "lon": -77.02216383333334, "rental_uris": {"android": "https://dc.lft.to/lastmile_qr_scan", "ios": "https://dc.lft.to/lastmile_qr_scan"}, "lat": 38.935477666666664, "is_reserved": 0, "is_disabled": 0, "fusion_lat": 0.0}, {"fusion_lon": 0.0, "bike_id": "3277610b922ff492f0d78e26c7e2cf16", "name": "3277610b922ff492f0d78e26c7e2cf16", "type": "electric_scooter", "lon": -77.012233, "rental_uris": {"android": "https://dc.lft.to/lastmile_qr_scan", "ios": "https://dc.lft.to/lastmile_qr_scan"}, "lat": 38.8671945, "is_reserved": 0, "is_disabled": 0, "fusion_lat": 0.0}, {"fusion_lon": 0.0, "bike_id": "01ceb747a110f794d0d9dfdc8f3f627e", "name": "01ceb747a110f794d0d9dfdc8f3f627e", "type": "electric_scooter", "lon": -76.96548616666666, "rental_uris": {"android": "https://dc.lft.to/lastmile_qr_scan", "ios": "https://dc.lft.to/lastmile_qr_scan"}, "lat": 38.91877, "is_reserved": 0, "is_disabled": 0, "fusion_lat": 0.0}, {"fusion_lon": 0.0, "bike_id": "ed3cf6c4811f5ea3b1887040fb20a07b", "name": "ed3cf6c4811f5ea3b1887040fb20a07b", "type": "electric_scooter", "lon": -76.93743983333333, "rental_uris": {"android": "https://dc.lft.to/lastmile_qr_scan", "ios": "https://dc.lft.to/lastmile_qr_scan"}, "lat": 38.890044833333334, "is_reserved": 0, "is_disabled": 0, "fusion_lat": 0.0}, {"fusion_lon": 0.0, "bike_id": "19a9451f64a696642942c3dc58148cea", "name": "19a9451f64a696642942c3dc58148cea", "type": "electric_scooter", "lon": -77.014696, "rental_uris": {"android": "https://dc.lft.to/lastmile_qr_scan", "ios": "https://dc.lft.to/lastmile_qr_scan"}, "lat": 38.9176795, "is_reserved": 0, "is_disabled": 0, "fusion_lat": 0.0}, {"fusion_lon": 0.0, "bike_id": "5e437ff06fd80f98493ffb932a3c5e62", "name": "5e437ff06fd80f98493ffb932a3c5e62", "type": "electric_scooter", "lon": -77.03098666666666, "rental_uris": {"android": "https://dc.lft.to/lastmile_qr_scan", "ios": "https://dc.lft.to/lastmile_qr_scan"}, "lat": 38.925701333333336, "is_reserved": 0, "is_disabled": 0, "fusion_lat": 0.0}, {"fusion_lon": 0.0, "bike_id": "a3576961cb7dbe1f795dad834bd82be8", "name": "a3576961cb7dbe1f795dad834bd82be8", "type": "electric_scooter", "lon": -77.0209765, "rental_uris": {"android": "https://dc.lft.to/lastmile_qr_scan", "ios": "https://dc.lft.to/lastmile_qr_scan"}, "lat": 38.911068, "is_reserved": 0, "is_disabled": 0, "fusion_lat": 0.0}, {"fusion_lon": 0.0, "bike_id": "d7c7a4a099977ae4ad037f9963378dd6", "name": "d7c7a4a099977ae4ad037f9963378dd6", "type": "electric_scooter", "lon": -77.0506215, "rental_uris": {"android": "https://dc.lft.to/lastmile_qr_scan", "ios": "https://dc.lft.to/lastmile_qr_scan"}, "lat": 38.90082133333333, "is_reserved": 0, "is_disabled": 0, "fusion_lat": 0.0}, {"fusion_lon": 0.0, "bike_id": "f87c267b3b84444a79d98bb04bc9a1d8", "name": "f87c267b3b84444a79d98bb04bc9a1d8", "type": "electric_scooter", "lon": -77.00966683333333, "rental_uris": {"android": "https://dc.lft.to/lastmile_qr_scan", "ios": "https://dc.lft.to/lastmile_qr_scan"}, "lat": 38.907848666666666, "is_reserved": 0, "is_disabled": 0, "fusion_lat": 0.0}, {"fusion_lon": 0.0, "bike_id": "aea15e325dd3ffa6b6f88b2a6dd55188", "name": "aea15e325dd3ffa6b6f88b2a6dd55188", "type": "electric_scooter", "lon": -77.00073233333333, "rental_uris": {"android": "https://dc.lft.to/lastmile_qr_scan", "ios": "https://dc.lft.to/lastmile_qr_scan"}, "lat": 38.901418166666666, "is_reserved": 0, "is_disabled": 0, "fusion_lat": 0.0}, {"fusion_lon": 0.0, "bike_id": "c0168cf6762b63825b2b0ed340edb650", "name": "c0168cf6762b63825b2b0ed340edb650", "type": "electric_scooter", "lon": -76.97907, "rental_uris": {"android": "https://dc.lft.to/lastmile_qr_scan", "ios": "https://dc.lft.to/lastmile_qr_scan"}, "lat": 38.89429333333333, "is_reserved": 0, "is_disabled": 0, "fusion_lat": 0.0}, {"fusion_lon": 0.0, "bike_id": "1defb91855642c85398f124c459cf60c", "name": "1defb91855642c85398f124c459cf60c", "type": "electric_scooter", "lon": -77.01394366666666, "rental_uris": {"android": "https://dc.lft.to/lastmile_qr_scan", "ios": "https://dc.lft.to/lastmile_qr_scan"}, "lat": 38.880265666666666, "is_reserved": 0, "is_disabled": 0, "fusion_lat": 0.0}, {"fusion_lon": 0.0, "bike_id": "c77593bf93adefb90637ad68d7462755", "name": "c77593bf93adefb90637ad68d7462755", "type": "electric_scooter", "lon": -77.04169416666667, "rental_uris": {"android": "https://dc.lft.to/lastmile_qr_scan", "ios": "https://dc.lft.to/lastmile_qr_scan"}, "lat": 38.913449166666666, "is_reserved": 0, "is_disabled": 0, "fusion_lat": 0.0}, {"fusion_lon": 0.0, "bike_id": "493c9d48aa08007ff28f8eef8cb83c77", "name": "493c9d48aa08007ff28f8eef8cb83c77", "type": "electric_bike", "lon": -76.98752866666666, "rental_uris": {"android": "https://dc.lft.to/lastmile_qr_scan", "ios": "https://dc.lft.to/lastmile_qr_scan"}, "lat": 38.857861, "is_reserved": 0, "is_disabled": 0, "fusion_lat": 0.0}, {"fusion_lon": 0.0, "bike_id": "a0b3d055f0cf404908e798ed1fdfd556", "name": "a0b3d055f0cf404908e798ed1fdfd556", "type": "electric_bike", "lon": -77.10684683333334, "rental_uris": {"android": "https://dc.lft.to/lastmile_qr_scan", "ios": "https://dc.lft.to/lastmile_qr_scan"}, "lat": 38.9358055, "is_reserved": 0, "is_disabled": 0, "fusion_lat": 0.0}, {"fusion_lon": 0.0, "bike_id": "f503574187b890aec82d116176b9d685", "name": "f503574187b890aec82d116176b9d685", "type": "electric_scooter", "lon": -77.036397, "rental_uris": {"android": "https://dc.lft.to/lastmile_qr_scan", "ios": "https://dc.lft.to/lastmile_qr_scan"}, "lat": 38.91223, "is_reserved": 0, "is_disabled": 0, "fusion_lat": 0.0}, {"fusion_lon": 0.0, "bike_id": "e633badbd87af9fbfac73a0bb52d29eb", "name": "e633badbd87af9fbfac73a0bb52d29eb", "type": "electric_scooter", "lon": -76.9782145, "rental_uris": {"android": "https://dc.lft.to/lastmile_qr_scan", "ios": "https://dc.lft.to/lastmile_qr_scan"}, "lat": 38.846125, "is_reserved": 0, "is_disabled": 0, "fusion_lat": 0.0}, {"fusion_lon": 0.0, "bike_id": "923512564f71035bd81e79cef56fef26", "name": "923512564f71035bd81e79cef56fef26", "type": "electric_scooter", "lon": -77.014405, "rental_uris": {"android": "https://dc.lft.to/lastmile_qr_scan", "ios": "https://dc.lft.to/lastmile_qr_scan"}, "lat": 38.91962566666667, "is_reserved": 0, "is_disabled": 0, "fusion_lat": 0.0}, {"fusion_lon": 0.0, "bike_id": "ad5de3180b27d607667ca6386e8acabd", "name": "ad5de3180b27d607667ca6386e8acabd", "type": "electric_bike", "lon": -76.87774883333333, "rental_uris": {"android": "https://dc.lft.to/lastmile_qr_scan", "ios": "https://dc.lft.to/lastmile_qr_scan"}, "lat": 38.99227333333333, "is_reserved": 0, "is_disabled": 0, "fusion_lat": 0.0}, {"fusion_lon": 0.0, "bike_id": "0366be70547bbf4ab4c64e6a8bab1833", "name": "0366be70547bbf4ab4c64e6a8bab1833", "type": "electric_bike", "lon": -76.9638775, "rental_uris": {"android": "https://dc.lft.to/lastmile_qr_scan", "ios": "https://dc.lft.to/lastmile_qr_scan"}, "lat": 38.975774666666666, "is_reserved": 0, "is_disabled": 0, "fusion_lat": 0.0}, {"fusion_lon": 0.0, "bike_id": "2f61971c2727c13076a6c5010ba15984", "name": "2f61971c2727c13076a6c5010ba15984", "type": "electric_bike", "lon": -76.94865083333333, "rental_uris": {"android": "https://dc.lft.to/lastmile_qr_scan", "ios": "https://dc.lft.to/lastmile_qr_scan"}, "lat": 38.889643, "is_reserved": 0, "is_disabled": 0, "fusion_lat": 0.0}, {"fusion_lon": 0.0, "bike_id": "280fe911c40e7d74632eaeb1965ef948", "name": "280fe911c40e7d74632eaeb1965ef948", "type": "electric_scooter", "lon": -77.04109083333333, "rental_uris": {"android": "https://dc.lft.to/lastmile_qr_scan", "ios": "https://dc.lft.to/lastmile_qr_scan"}, "lat": 38.90153766666667, "is_reserved": 0, "is_disabled": 0, "fusion_lat": 0.0}, {"fusion_lon": 0.0, "bike_id": "fcb50706723931c2e4aca97fccb13120", "name": "fcb50706723931c2e4aca97fccb13120", "type": "electric_scooter", "lon": -76.99527366666666, "rental_uris": {"android": "https://dc.lft.to/lastmile_qr_scan", "ios": "https://dc.lft.to/lastmile_qr_scan"}, "lat": 38.90026483333333, "is_reserved": 0, "is_disabled": 0, "fusion_lat": 0.0}, {"fusion_lon": 0.0, "bike_id": "e06eb8ea49617ade1d287ca9b95110cb", "name": "e06eb8ea49617ade1d287ca9b95110cb", "type": "electric_bike", "lon": -76.98475, "rental_uris": {"android": "https://dc.lft.to/lastmile_qr_scan", "ios": "https://dc.lft.to/lastmile_qr_scan"}, "lat": 38.891413166666666, "is_reserved": 0, "is_disabled": 0, "fusion_lat": 0.0}, {"fusion_lon": 0.0, "bike_id": "943407c4f735735828527d5b1f12e89d", "name": "943407c4f735735828527d5b1f12e89d", "type": "electric_bike", "lon": -76.9851955, "rental_uris": {"android": "https://dc.lft.to/lastmile_qr_scan", "ios": "https://dc.lft.to/lastmile_qr_scan"}, "lat": 38.919940833333335, "is_reserved": 0, "is_disabled": 0, "fusion_lat": 0.0}, {"fusion_lon": 0.0, "bike_id": "7ea6ac8050241303d5a9ccb437605880", "name": "7ea6ac8050241303d5a9ccb437605880", "type": "electric_scooter", "lon": -77.03464683333333, "rental_uris": {"android": "https://dc.lft.to/lastmile_qr_scan", "ios": "https://dc.lft.to/lastmile_qr_scan"}, "lat": 38.91806116666667, "is_reserved": 0, "is_disabled": 0, "fusion_lat": 0.0}, {"fusion_lon": 0.0, "bike_id": "d7b7c7d8ad4d7fe9dea4b58d97ec0bca", "name": "d7b7c7d8ad4d7fe9dea4b58d97ec0bca", "type": "electric_scooter", "lon": -77.02223283333333, "rental_uris": {"android": "https://dc.lft.to/lastmile_qr_scan", "ios": "https://dc.lft.to/lastmile_qr_scan"}, "lat": 38.912718166666664, "is_reserved": 0, "is_disabled": 0, "fusion_lat": 0.0}, {"fusion_lon": 0.0, "bike_id": "0995e1e07a30d334911ad48df6003e48", "name": "0995e1e07a30d334911ad48df6003e48", "type": "electric_scooter", "lon": -77.01764266666666, "rental_uris": {"android": "https://dc.lft.to/lastmile_qr_scan", "ios": "https://dc.lft.to/lastmile_qr_scan"}, "lat": 38.9026655, "is_reserved": 0, "is_disabled": 0, "fusion_lat": 0.0}, {"fusion_lon": 0.0, "bike_id": "d1b0094a912cac6ad35c65a25e5e7abd", "name": "d1b0094a912cac6ad35c65a25e5e7abd", "type": "electric_scooter", "lon": -77.02416233333334, "rental_uris": {"android": "https://dc.lft.to/lastmile_qr_scan", "ios": "https://dc.lft.to/lastmile_qr_scan"}, "lat": 38.918233, "is_reserved": 0, "is_disabled": 0, "fusion_lat": 0.0}, {"fusion_lon": 0.0, "bike_id": "ca6a722c6175b0e9520ec28940cb6ba1", "name": "ca6a722c6175b0e9520ec28940cb6ba1", "type": "electric_bike", "lon": -77.17842383333333, "rental_uris": {"android": "https://dc.lft.to/lastmile_qr_scan", "ios": "https://dc.lft.to/lastmile_qr_scan"}, "lat": 39.08902, "is_reserved": 0, "is_disabled": 0, "fusion_lat": 0.0}, {"fusion_lon": 0.0, "bike_id": "b4911bd4fadf5e5bed0dd2de4024ff1c", "name": "b4911bd4fadf5e5bed0dd2de4024ff1c", "type": "electric_scooter", "lon": -76.98656366666667, "rental_uris": {"android": "https://dc.lft.to/lastmile_qr_scan", "ios": "https://dc.lft.to/lastmile_qr_scan"}, "lat": 38.901369333333335, "is_reserved": 0, "is_disabled": 0, "fusion_lat": 0.0}, {"fusion_lon": 0.0, "bike_id": "bbe5a5685adca7accd44daf818b307ca", "name": "bbe5a5685adca7accd44daf818b307ca", "type": "electric_scooter", "lon": -77.04208466666667, "rental_uris": {"android": "https://dc.lft.to/lastmile_qr_scan", "ios": "https://dc.lft.to/lastmile_qr_scan"}, "lat": 38.917096666666666, "is_reserved": 0, "is_disabled": 0, "fusion_lat": 0.0}, {"fusion_lon": 0.0, "bike_id": "27497ccd3fc568e1cfaa054083187c7e", "name": "27497ccd3fc568e1cfaa054083187c7e", "type": "electric_scooter", "lon": -77.07297033333333, "rental_uris": {"android": "https://dc.lft.to/lastmile_qr_scan", "ios": "https://dc.lft.to/lastmile_qr_scan"}, "lat": 38.92157816666667, "is_reserved": 0, "is_disabled": 0, "fusion_lat": 0.0}, {"fusion_lon": 0.0, "bike_id": "a7847d6df238dfc7a9ec31ac0c051538", "name": "a7847d6df238dfc7a9ec31ac0c051538", "type": "electric_scooter", "lon": -77.01817083333333, "rental_uris": {"android": "https://dc.lft.to/lastmile_qr_scan", "ios": "https://dc.lft.to/lastmile_qr_scan"}, "lat": 38.9220575, "is_reserved": 0, "is_disabled": 0, "fusion_lat": 0.0}, {"fusion_lon": 0.0, "bike_id": "3d1a1e5d7a34bc693ad4e363a163cc53", "name": "3d1a1e5d7a34bc693ad4e363a163cc53", "type": "electric_bike", "lon": -77.0430615, "rental_uris": {"android": "https://dc.lft.to/lastmile_qr_scan", "ios": "https://dc.lft.to/lastmile_qr_scan"}, "lat": 39.05449083333333, "is_reserved": 0, "is_disabled": 0, "fusion_lat": 0.0}, {"fusion_lon": 0.0, "bike_id": "9d3d1c313c27145037d24714bdd2d47e", "name": "9d3d1c313c27145037d24714bdd2d47e", "type": "electric_scooter", "lon": -77.00558783333334, "rental_uris": {"android": "https://dc.lft.to/lastmile_qr_scan", "ios": "https://dc.lft.to/lastmile_qr_scan"}, "lat": 38.905663, "is_reserved": 0, "is_disabled": 0, "fusion_lat": 0.0}, {"fusion_lon": 0.0, "bike_id": "c2ffbe8bfe24cc8a3fa63badc5be0542", "name": "c2ffbe8bfe24cc8a3fa63badc5be0542", "type": "electric_scooter", "lon": -76.99861383333334, "rental_uris": {"android": "https://dc.lft.to/lastmile_qr_scan", "ios": "https://dc.lft.to/lastmile_qr_scan"}, "lat": 38.908959833333334, "is_reserved": 0, "is_disabled": 0, "fusion_lat": 0.0}, {"fusion_lon": 0.0, "bike_id": "13b17a185204ec050e4903546056907f", "name": "13b17a185204ec050e4903546056907f", "type": "electric_bike", "lon": -77.0894585, "rental_uris": {"android": "https://dc.lft.to/lastmile_qr_scan", "ios": "https://dc.lft.to/lastmile_qr_scan"}, "lat": 38.84108283333333, "is_reserved": 0, "is_disabled": 0, "fusion_lat": 0.0}, {"fusion_lon": 0.0, "bike_id": "926e54ab3f291a2490e115114e119f23", "name": "926e54ab3f291a2490e115114e119f23", "type": "electric_scooter", "lon": -76.9986915, "rental_uris": {"android": "https://dc.lft.to/lastmile_qr_scan", "ios": "https://dc.lft.to/lastmile_qr_scan"}, "lat": 38.900287166666665, "is_reserved": 0, "is_disabled": 0, "fusion_lat": 0.0}, {"fusion_lon": 0.0, "bike_id": "330684c4d62f711984e921af14258978", "name": "330684c4d62f711984e921af14258978", "type": "electric_scooter", "lon": -76.98338583333333, "rental_uris": {"android": "https://dc.lft.to/lastmile_qr_scan", "ios": "https://dc.lft.to/lastmile_qr_scan"}, "lat": 38.8625025, "is_reserved": 0, "is_disabled": 0, "fusion_lat": 0.0}, {"fusion_lon": 0.0, "bike_id": "34088e20d81541ec9d8be9d366cab47a", "name": "34088e20d81541ec9d8be9d366cab47a", "type": "electric_scooter", "lon": -77.0383, "rental_uris": {"android": "https://dc.lft.to/lastmile_qr_scan", "ios": "https://dc.lft.to/lastmile_qr_scan"}, "lat": 38.91562416666667, "is_reserved": 0, "is_disabled": 0, "fusion_lat": 0.0}, {"fusion_lon": 0.0, "bike_id": "abb61493505edaff954c5080e8c4806b", "name": "abb61493505edaff954c5080e8c4806b", "type": "electric_scooter", "lon": -77.0346085, "rental_uris": {"android": "https://dc.lft.to/lastmile_qr_scan", "ios": "https://dc.lft.to/lastmile_qr_scan"}, "lat": 38.91719233333333, "is_reserved": 0, "is_disabled": 0, "fusion_lat": 0.0}, {"fusion_lon": 0.0, "bike_id": "d491bd21fbaf6459999c901f7723051f", "name": "d491bd21fbaf6459999c901f7723051f", "type": "electric_scooter", "lon": -76.94281216666667, "rental_uris": {"android": "https://dc.lft.to/lastmile_qr_scan", "ios": "https://dc.lft.to/lastmile_qr_scan"}, "lat": 38.88301533333333, "is_reserved": 0, "is_disabled": 0, "fusion_lat": 0.0}, {"fusion_lon": 0.0, "bike_id": "9ead6c19b0d854d84bc5c7cbf428a24d", "name": "9ead6c19b0d854d84bc5c7cbf428a24d", "type": "electric_scooter", "lon": -77.0618685, "rental_uris": {"android": "https://dc.lft.to/lastmile_qr_scan", "ios": "https://dc.lft.to/lastmile_qr_scan"}, "lat": 38.930087666666665, "is_reserved": 0, "is_disabled": 0, "fusion_lat": 0.0}, {"fusion_lon": 0.0, "bike_id": "0dcfec94b8762dbfb53a58e1721ec8d8", "name": "0dcfec94b8762dbfb53a58e1721ec8d8", "type": "electric_scooter", "lon": -77.03520816666666, "rental_uris": {"android": "https://dc.lft.to/lastmile_qr_scan", "ios": "https://dc.lft.to/lastmile_qr_scan"}, "lat": 38.92728483333333, "is_reserved": 0, "is_disabled": 0, "fusion_lat": 0.0}, {"fusion_lon": 0.0, "bike_id": "f3d65be043151317329880620677ac64", "name": "f3d65be043151317329880620677ac64", "type": "electric_scooter", "lon": -77.03409983333333, "rental_uris": {"android": "https://dc.lft.to/lastmile_qr_scan", "ios": "https://dc.lft.to/lastmile_qr_scan"}, "lat": 38.919283, "is_reserved": 0, "is_disabled": 0, "fusion_lat": 0.0}, {"fusion_lon": 0.0, "bike_id": "b519f159f1c94383050d5e61a57f2030", "name": "b519f159f1c94383050d5e61a57f2030", "type": "electric_scooter", "lon": -77.01368833333333, "rental_uris": {"android": "https://dc.lft.to/lastmile_qr_scan", "ios": "https://dc.lft.to/lastmile_qr_scan"}, "lat": 38.886374833333335, "is_reserved": 0, "is_disabled": 0, "fusion_lat": 0.0}, {"fusion_lon": 0.0, "bike_id": "9bee51c86e7601ea4c0aa9987d23764d", "name": "9bee51c86e7601ea4c0aa9987d23764d", "type": "electric_bike", "lon": -77.14329033333334, "rental_uris": {"android": "https://dc.lft.to/lastmile_qr_scan", "ios": "https://dc.lft.to/lastmile_qr_scan"}, "lat": 39.054576833333336, "is_reserved": 0, "is_disabled": 0, "fusion_lat": 0.0}, {"fusion_lon": 0.0, "bike_id": "3051fcd43bacf73edd62f846a16d4cf1", "name": "3051fcd43bacf73edd62f846a16d4cf1", "type": "electric_bike", "lon": -77.34409683333334, "rental_uris": {"android": "https://dc.lft.to/lastmile_qr_scan", "ios": "https://dc.lft.to/lastmile_qr_scan"}, "lat": 38.94588666666667, "is_reserved": 0, "is_disabled": 0, "fusion_lat": 0.0}, {"fusion_lon": 0.0, "bike_id": "d272d9d0f7b4fecd197aec4230c3c771", "name": "d272d9d0f7b4fecd197aec4230c3c771", "type": "electric_scooter", "lon": -77.028465, "rental_uris": {"android": "https://dc.lft.to/lastmile_qr_scan", "ios": "https://dc.lft.to/lastmile_qr_scan"}, "lat": 38.9238005, "is_reserved": 0, "is_disabled": 0, "fusion_lat": 0.0}, {"fusion_lon": 0.0, "bike_id": "97e5734a7e7f3613f13df91cee0bbb4c", "name": "97e5734a7e7f3613f13df91cee0bbb4c", "type": "electric_scooter", "lon": -77.00605533333334, "rental_uris": {"android": "https://dc.lft.to/lastmile_qr_scan", "ios": "https://dc.lft.to/lastmile_qr_scan"}, "lat": 38.91117033333333, "is_reserved": 0, "is_disabled": 0, "fusion_lat": 0.0}, {"fusion_lon": 0.0, "bike_id": "d02c2239f10d7d73cc0bdd0b0e61c46d", "name": "d02c2239f10d7d73cc0bdd0b0e61c46d", "type": "electric_scooter", "lon": -77.037634, "rental_uris": {"android": "https://dc.lft.to/lastmile_qr_scan", "ios": "https://dc.lft.to/lastmile_qr_scan"}, "lat": 38.93602633333333, "is_reserved": 0, "is_disabled": 0, "fusion_lat": 0.0}, {"fusion_lon": 0.0, "bike_id": "877efe5822f94bf620693285e8fcf854", "name": "877efe5822f94bf620693285e8fcf854", "type": "electric_scooter", "lon": -77.001952, "rental_uris": {"android": "https://dc.lft.to/lastmile_qr_scan", "ios": "https://dc.lft.to/lastmile_qr_scan"}, "lat": 38.900362333333334, "is_reserved": 0, "is_disabled": 0, "fusion_lat": 0.0}, {"fusion_lon": 0.0, "bike_id": "4f3021470253d8e55031b509b4ff9b2f", "name": "4f3021470253d8e55031b509b4ff9b2f", "type": "electric_scooter", "lon": -76.98882066666667, "rental_uris": {"android": "https://dc.lft.to/lastmile_qr_scan", "ios": "https://dc.lft.to/lastmile_qr_scan"}, "lat": 38.866704166666665, "is_reserved": 0, "is_disabled": 0, "fusion_lat": 0.0}, {"fusion_lon": 0.0, "bike_id": "ce3b75a9f023791e37038c284ac640b2", "name": "ce3b75a9f023791e37038c284ac640b2", "type": "electric_scooter", "lon": -76.94853216666667, "rental_uris": {"android": "https://dc.lft.to/lastmile_qr_scan", "ios": "https://dc.lft.to/lastmile_qr_scan"}, "lat": 38.882994333333336, "is_reserved": 0, "is_disabled": 0, "fusion_lat": 0.0}, {"fusion_lon": 0.0, "bike_id": "29ea05fb47d636b41eaa28613dd5c8b0", "name": "29ea05fb47d636b41eaa28613dd5c8b0", "type": "electric_scooter", "lon": -76.99019216666667, "rental_uris": {"android": "https://dc.lft.to/lastmile_qr_scan", "ios": "https://dc.lft.to/lastmile_qr_scan"}, "lat": 38.86072733333334, "is_reserved": 0, "is_disabled": 0, "fusion_lat": 0.0}, {"fusion_lon": 0.0, "bike_id": "e8758a6ff524310c902ba0ec471d2bcd", "name": "e8758a6ff524310c902ba0ec471d2bcd", "type": "electric_scooter", "lon": -77.01767633333333, "rental_uris": {"android": "https://dc.lft.to/lastmile_qr_scan", "ios": "https://dc.lft.to/lastmile_qr_scan"}, "lat": 38.90256216666667, "is_reserved": 0, "is_disabled": 0, "fusion_lat": 0.0}, {"fusion_lon": 0.0, "bike_id": "ce160fdf619c169caf57eed9990c7372", "name": "ce160fdf619c169caf57eed9990c7372", "type": "electric_scooter", "lon": -77.03282483333334, "rental_uris": {"android": "https://dc.lft.to/lastmile_qr_scan", "ios": "https://dc.lft.to/lastmile_qr_scan"}, "lat": 38.917083, "is_reserved": 0, "is_disabled": 0, "fusion_lat": 0.0}, {"fusion_lon": 0.0, "bike_id": "c0f23ebb98eca3d3d65a1a1d54c0bf57", "name": "c0f23ebb98eca3d3d65a1a1d54c0bf57", "type": "electric_scooter", "lon": -76.99629016666667, "rental_uris": {"android": "https://dc.lft.to/lastmile_qr_scan", "ios": "https://dc.lft.to/lastmile_qr_scan"}, "lat": 38.84619933333333, "is_reserved": 0, "is_disabled": 0, "fusion_lat": 0.0}, {"fusion_lon": 0.0, "bike_id": "9d45f0f2486ce35dc7097c2c796da1b6", "name": "9d45f0f2486ce35dc7097c2c796da1b6", "type": "electric_scooter", "lon": -77.02853666666667, "rental_uris": {"android": "https://dc.lft.to/lastmile_qr_scan", "ios": "https://dc.lft.to/lastmile_qr_scan"}, "lat": 38.93586533333333, "is_reserved": 0, "is_disabled": 0, "fusion_lat": 0.0}, {"fusion_lon": 0.0, "bike_id": "0e214751d6ea4f41f2825941458c7dc9", "name": "0e214751d6ea4f41f2825941458c7dc9", "type": "electric_scooter", "lon": -77.00583266666666, "rental_uris": {"android": "https://dc.lft.to/lastmile_qr_scan", "ios": "https://dc.lft.to/lastmile_qr_scan"}, "lat": 38.905281, "is_reserved": 0, "is_disabled": 0, "fusion_lat": 0.0}, {"fusion_lon": 0.0, "bike_id": "618f2a10834a581ac4e489225e0d24e1", "name": "618f2a10834a581ac4e489225e0d24e1", "type": "electric_scooter", "lon": -77.05015433333334, "rental_uris": {"android": "https://dc.lft.to/lastmile_qr_scan", "ios": "https://dc.lft.to/lastmile_qr_scan"}, "lat": 38.895503, "is_reserved": 0, "is_disabled": 0, "fusion_lat": 0.0}, {"fusion_lon": 0.0, "bike_id": "3f1b347b47bd07455e26e672227db53c", "name": "3f1b347b47bd07455e26e672227db53c", "type": "electric_scooter", "lon": -76.93743233333333, "rental_uris": {"android": "https://dc.lft.to/lastmile_qr_scan", "ios": "https://dc.lft.to/lastmile_qr_scan"}, "lat": 38.89004583333333, "is_reserved": 0, "is_disabled": 0, "fusion_lat": 0.0}, {"fusion_lon": 0.0, "bike_id": "406fd1f873ef4a310ce20eadc194eda4", "name": "406fd1f873ef4a310ce20eadc194eda4", "type": "electric_scooter", "lon": -77.0220725, "rental_uris": {"android": "https://dc.lft.to/lastmile_qr_scan", "ios": "https://dc.lft.to/lastmile_qr_scan"}, "lat": 38.905733, "is_reserved": 0, "is_disabled": 0, "fusion_lat": 0.0}, {"fusion_lon": 0.0, "bike_id": "4f5c9de7560bdc1b83875cf40d423076", "name": "4f5c9de7560bdc1b83875cf40d423076", "type": "electric_scooter", "lon": -77.032509, "rental_uris": {"android": "https://dc.lft.to/lastmile_qr_scan", "ios": "https://dc.lft.to/lastmile_qr_scan"}, "lat": 38.91567166666667, "is_reserved": 0, "is_disabled": 0, "fusion_lat": 0.0}, {"fusion_lon": 0.0, "bike_id": "8988da73e48a17b11951bfd66ca4817a", "name": "8988da73e48a17b11951bfd66ca4817a", "type": "electric_scooter", "lon": -77.036602, "rental_uris": {"android": "https://dc.lft.to/lastmile_qr_scan", "ios": "https://dc.lft.to/lastmile_qr_scan"}, "lat": 38.92076016666667, "is_reserved": 0, "is_disabled": 0, "fusion_lat": 0.0}, {"fusion_lon": 0.0, "bike_id": "e799f756628502a16f377d14ef7003b4", "name": "e799f756628502a16f377d14ef7003b4", "type": "electric_scooter", "lon": -77.021084, "rental_uris": {"android": "https://dc.lft.to/lastmile_qr_scan", "ios": "https://dc.lft.to/lastmile_qr_scan"}, "lat": 38.940979, "is_reserved": 0, "is_disabled": 0, "fusion_lat": 0.0}, {"fusion_lon": 0.0, "bike_id": "9d037f79f57d1840695248d6beda93ba", "name": "9d037f79f57d1840695248d6beda93ba", "type": "electric_scooter", "lon": -76.965057, "rental_uris": {"android": "https://dc.lft.to/lastmile_qr_scan", "ios": "https://dc.lft.to/lastmile_qr_scan"}, "lat": 38.87645466666667, "is_reserved": 0, "is_disabled": 0, "fusion_lat": 0.0}, {"fusion_lon": 0.0, "bike_id": "66a50e55216cf7e4ea89daa2f9fd44a2", "name": "66a50e55216cf7e4ea89daa2f9fd44a2", "type": "electric_scooter", "lon": -77.021456, "rental_uris": {"android": "https://dc.lft.to/lastmile_qr_scan", "ios": "https://dc.lft.to/lastmile_qr_scan"}, "lat": 38.9291715, "is_reserved": 0, "is_disabled": 0, "fusion_lat": 0.0}, {"fusion_lon": 0.0, "bike_id": "756834a6aa4369ebc7ceb8a5a225a12f", "name": "756834a6aa4369ebc7ceb8a5a225a12f", "type": "electric_scooter", "lon": -77.039969, "rental_uris": {"android": "https://dc.lft.to/lastmile_qr_scan", "ios": "https://dc.lft.to/lastmile_qr_scan"}, "lat": 38.9325525, "is_reserved": 0, "is_disabled": 0, "fusion_lat": 0.0}, {"fusion_lon": 0.0, "bike_id": "c2e89f9930b71da68dca2731751bdb24", "name": "c2e89f9930b71da68dca2731751bdb24", "type": "electric_scooter", "lon": -77.03184766666666, "rental_uris": {"android": "https://dc.lft.to/lastmile_qr_scan", "ios": "https://dc.lft.to/lastmile_qr_scan"}, "lat": 38.907349833333335, "is_reserved": 0, "is_disabled": 0, "fusion_lat": 0.0}, {"fusion_lon": 0.0, "bike_id": "9fc4b8637cfb2c39043c28666cdbef0f", "name": "9fc4b8637cfb2c39043c28666cdbef0f", "type": "electric_scooter", "lon": -77.02401383333333, "rental_uris": {"android": "https://dc.lft.to/lastmile_qr_scan", "ios": "https://dc.lft.to/lastmile_qr_scan"}, "lat": 38.93099016666667, "is_reserved": 0, "is_disabled": 0, "fusion_lat": 0.0}, {"fusion_lon": 0.0, "bike_id": "16389e8cc4047d07ad65ed380b4095e4", "name": "16389e8cc4047d07ad65ed380b4095e4", "type": "electric_scooter", "lon": -77.052652, "rental_uris": {"android": "https://dc.lft.to/lastmile_qr_scan", "ios": "https://dc.lft.to/lastmile_qr_scan"}, "lat": 38.92563833333333, "is_reserved": 0, "is_disabled": 0, "fusion_lat": 0.0}, {"fusion_lon": 0.0, "bike_id": "1c0a56d62c2301b4cdd827e1e7146fb1", "name": "1c0a56d62c2301b4cdd827e1e7146fb1", "type": "electric_scooter", "lon": -77.02383066666667, "rental_uris": {"android": "https://dc.lft.to/lastmile_qr_scan", "ios": "https://dc.lft.to/lastmile_qr_scan"}, "lat": 38.90746033333333, "is_reserved": 0, "is_disabled": 0, "fusion_lat": 0.0}, {"fusion_lon": 0.0, "bike_id": "72cfb284cf4fc87f9e51e1f9b742bd5d", "name": "72cfb284cf4fc87f9e51e1f9b742bd5d", "type": "electric_bike", "lon": -77.03983283333334, "rental_uris": {"android": "https://dc.lft.to/lastmile_qr_scan", "ios": "https://dc.lft.to/lastmile_qr_scan"}, "lat": 38.8029945, "is_reserved": 0, "is_disabled": 0, "fusion_lat": 0.0}, {"fusion_lon": 0.0, "bike_id": "9fd645f89ff2696c8ec871419a2c7418", "name": "9fd645f89ff2696c8ec871419a2c7418", "type": "electric_scooter", "lon": -77.04169416666667, "rental_uris": {"android": "https://dc.lft.to/lastmile_qr_scan", "ios": "https://dc.lft.to/lastmile_qr_scan"}, "lat": 38.907269166666666, "is_reserved": 0, "is_disabled": 0, "fusion_lat": 0.0}, {"fusion_lon": 0.0, "bike_id": "2c4159ca1fd79372911ff82599773240", "name": "2c4159ca1fd79372911ff82599773240", "type": "electric_scooter", "lon": -77.00126583333333, "rental_uris": {"android": "https://dc.lft.to/lastmile_qr_scan", "ios": "https://dc.lft.to/lastmile_qr_scan"}, "lat": 38.90748133333334, "is_reserved": 0, "is_disabled": 0, "fusion_lat": 0.0}, {"fusion_lon": 0.0, "bike_id": "861f3a37e6255db9a6773994664a3aaa", "name": "861f3a37e6255db9a6773994664a3aaa", "type": "electric_scooter", "lon": -76.9861315, "rental_uris": {"android": "https://dc.lft.to/lastmile_qr_scan", "ios": "https://dc.lft.to/lastmile_qr_scan"}, "lat": 38.85460283333333, "is_reserved": 0, "is_disabled": 0, "fusion_lat": 0.0}, {"fusion_lon": 0.0, "bike_id": "4c6da82901b0b4c72d87903bf23fbae4", "name": "4c6da82901b0b4c72d87903bf23fbae4", "type": "electric_scooter", "lon": -77.04556216666667, "rental_uris": {"android": "https://dc.lft.to/lastmile_qr_scan", "ios": "https://dc.lft.to/lastmile_qr_scan"}, "lat": 38.92067933333333, "is_reserved": 0, "is_disabled": 0, "fusion_lat": 0.0}, {"fusion_lon": 0.0, "bike_id": "52c6086411eab74d026075ccbb474925", "name": "52c6086411eab74d026075ccbb474925", "type": "electric_scooter", "lon": -77.00713683333333, "rental_uris": {"android": "https://dc.lft.to/lastmile_qr_scan", "ios": "https://dc.lft.to/lastmile_qr_scan"}, "lat": 38.884883, "is_reserved": 0, "is_disabled": 0, "fusion_lat": 0.0}, {"fusion_lon": 0.0, "bike_id": "636077b2afe171facc0298f86ff8bccf", "name": "636077b2afe171facc0298f86ff8bccf", "type": "electric_scooter", "lon": -77.04874866666667, "rental_uris": {"android": "https://dc.lft.to/lastmile_qr_scan", "ios": "https://dc.lft.to/lastmile_qr_scan"}, "lat": 38.903625, "is_reserved": 0, "is_disabled": 0, "fusion_lat": 0.0},