{"data": {"bikes": [{"bike_id": "500c77afa653e5b75ba9c4b3a7ee8e16", "fusion_lon": 0.0, "lon": -77.032636, "name": "500c77afa653e5b75ba9c4b3a7ee8e16", "is_disabled": 0, "rental_uris": {"android": "https://dc.lft.to/lastmile_qr_scan", "ios": "https://dc.lft.to/lastmile_qr_scan"}, "type": "electric_scooter", "lat": 38.93403966666666, "is_reserved": 0, "fusion_lat": 0.0}, {"bike_id": "9a1d827770c02283d6e0d980d5fb8ad7", "fusion_lon": 0.0, "lon": -77.02299716666667, "name": "9a1d827770c02283d6e0d980d5fb8ad7", "is_disabled": 0, "rental_uris": {"android": "https://dc.lft.to/lastmile_qr_scan", "ios": "https://dc.lft.to/lastmile_qr_scan"}, "type": "electric_scooter", "lat": 38.9154765, "is_reserved": 0, "fusion_lat": 0.0}, {"bike_id": "0b572e4d7c6568255ec764e58f73403c", "fusion_lon": 0.0, "lon": -77.04009183333334, "name": "0b572e4d7c6568255ec764e58f73403c", "is_disabled": 0, "rental_uris": {"android": "https://dc.lft.to/lastmile_qr_scan", "ios": "https://dc.lft.to/lastmile_qr_scan"}, "type": "electric_scooter", "lat": 38.92271733333333, "is_reserved": 0, "fusion_lat": 0.0}, {"bike_id": "1144db75d028c3568d1991e1c4b95f37", "fusion_lon": 0.0, "lon": -77.00207516666667, "name": "1144db75d028c3568d1991e1c4b95f37", "is_disabled": 0, "rental_uris": {"android": "https://dc.lft.to/lastmile_qr_scan", "ios": "https://dc.lft.to/lastmile_qr_scan"}, "type": "electric_bike", "lat": 38.81937516666667, "is_reserved": 0, "fusion_lat": 0.0}, {"bike_id": "1b426713369b1d5cf414ce505ef80273", "fusion_lon": 0.0, "lon": -77.034199, "name": "1b426713369b1d5cf414ce505ef80273", "is_disabled": 0, "rental_uris": {"android": "https://dc.lft.to/lastmile_qr_scan", "ios": "https://dc.lft.to/lastmile_qr_scan"}, "type": "electric_scooter", "lat": 38.91921983333334, "is_reserved": 0, "fusion_lat": 0.0}, {"bike_id": "61c1f2e5fdac24af2e1ef3b81502faf3", "fusion_lon": 0.0, "lon": -77.02170083333333, "name": "61c1f2e5fdac24af2e1ef3b81502faf3", "is_disabled": 0, "rental_uris": {"android": "https://dc.lft.to/lastmile_qr_scan", "ios": "https://dc.lft.to/lastmile_qr_scan"}, "type": "electric_scooter", "lat": 38.92492633333333, "is_reserved": 0, "fusion_lat": 0.0}, {"bike_id": "2163518e472b43ebae75d08556dfcb8c", "fusion_lon": 0.0, "lon": -77.04850233333333, "name": "2163518e472b43ebae75d08556dfcb8c", "is_disabled": 0, "rental_uris": {"android": "https://dc.lft.to/lastmile_qr_scan", "ios": "https://dc.lft.to/lastmile_qr_scan"}, "type": "electric_scooter", "lat": 38.9118545, "is_reserved": 0, "fusion_lat": 0.0}, {"bike_id": "a34b6c831e9b5d7ac5a8522cae6dfe0e", "fusion_lon": 0.0, "lon": -77.04118866666667, "name": "a34b6c831e9b5d7ac5a8522cae6dfe0e", "is_disabled": 0, "rental_uris": {"android": "https://dc.lft.to/lastmile_qr_scan", "ios": "https://dc.lft.to/lastmile_qr_scan"}, "type": "electric_scooter", "lat": 38.92136983333333, "is_reserved": 0, "fusion_lat": 0.0}, {"bike_id": "1a61a5a95446bb5bd0c3a65cd3c0a2d0", "fusion_lon": 0.0, "lon": -77.022844, "name": "1a61a5a95446bb5bd0c3a65cd3c0a2d0", "is_disabled": 0, "rental_uris": {"android": "https://dc.lft.to/lastmile_qr_scan", "ios": "https://dc.lft.to/lastmile_qr_scan"}, "type": "electric_scooter", "lat": 38.91614233333333, "is_reserved": 0, "fusion_lat": 0.0}, {"bike_id": "12a3ff0a9020ae33de4985931c4edd49", "fusion_lon": 0.0, "lon": -77.029553, "name": "12a3ff0a9020ae33de4985931c4edd49", "is_disabled": 0, "rental_uris": {"android": "https://dc.lft.to/lastmile_qr_scan", "ios": "https://dc.lft.to/lastmile_qr_scan"}, "type": "electric_scooter", "lat": 38.9228595, "is_reserved": 0, "fusion_lat": 0.0}, {"bike_id": "1fdf3f50270214b81750f1ec4632ea33", "fusion_lon": 0.0, "lon": -77.00606433333333, "name": "1fdf3f50270214b81750f1ec4632ea33", "is_disabled": 0, "rental_uris": {"android": "https://dc.lft.to/lastmile_qr_scan", "ios": "https://dc.lft.to/lastmile_qr_scan"}, "type": "electric_scooter", "lat": 38.877645333333334, "is_reserved": 0, "fusion_lat": 0.0}, {"bike_id": "eec66e9c5684f19d223ee47d999bda27", "fusion_lon": 0.0, "lon": -77.04134416666666, "name": "eec66e9c5684f19d223ee47d999bda27", "is_disabled": 0, "rental_uris": {"android": "https://dc.lft.to/lastmile_qr_scan", "ios": "https://dc.lft.to/lastmile_qr_scan"}, "type": "electric_bike", "lat": 38.804948833333334, "is_reserved": 0, "fusion_lat": 0.0}, {"bike_id": "fb17bb30c7c9ea31da7fe31dbb324351", "fusion_lon": 0.0, "lon": -76.9509555, "name": "fb17bb30c7c9ea31da7fe31dbb324351", "is_disabled": 0, "rental_uris": {"android": "https://dc.lft.to/lastmile_qr_scan", "ios": "https://dc.lft.to/lastmile_qr_scan"}, "type": "electric_scooter", "lat": 38.88448733333333, "is_reserved": 0, "fusion_lat": 0.0}, {"bike_id": "4649d5f2d1f183fdfff8ada13914b079", "fusion_lon": 0.0, "lon": -77.0400735, "name": "4649d5f2d1f183fdfff8ada13914b079", "is_disabled": 0, "rental_uris": {"android": "https://dc.lft.to/lastmile_qr_scan", "ios": "https://dc.lft.to/lastmile_qr_scan"}, "type": "electric_scooter", "lat": 38.90465316666667, "is_reserved": 0, "fusion_lat": 0.0}, {"bike_id": "fc4d58745e869fcc359bb1de61827cd6", "fusion_lon": 0.0, "lon": -77.02695133333333, "name": "fc4d58745e869fcc359bb1de61827cd6", "is_disabled": 0, "rental_uris": {"android": "https://dc.lft.to/lastmile_qr_scan", "ios": "https://dc.lft.to/lastmile_qr_scan"}, "type": "electric_scooter", "lat": 38.895979833333335, "is_reserved": 0, "fusion_lat": 0.0}, {"bike_id": "e2f7901f451d52137b566d2c6864d945", "fusion_lon": 0.0, "lon": -77.02946433333334, "name": "e2f7901f451d52137b566d2c6864d945", "is_disabled": 0, "rental_uris": {"android": "https://dc.lft.to/lastmile_qr_scan", "ios": "https://dc.lft.to/lastmile_qr_scan"}, "type": "electric_scooter", "lat": 38.904875, "is_reserved": 0, "fusion_lat": 0.0}, {"bike_id": "30bea14089a3d278d0aea3faa6b11ad2", "fusion_lon": 0.0, "lon": -77.0303625, "name": "30bea14089a3d278d0aea3faa6b11ad2", "is_disabled": 0, "rental_uris": {"android": "https://dc.lft.to/lastmile_qr_scan", "ios": "https://dc.lft.to/lastmile_qr_scan"}, "type": "electric_scooter", "lat": 38.883985833333334, "is_reserved": 0, "fusion_lat": 0.0}, {"bike_id": "077c63690e38994014a6668489f4be71", "fusion_lon": 0.0, "lon": -77.041606, "name": "077c63690e38994014a6668489f4be71", "is_disabled": 0, "rental_uris": {"android": "https://dc.lft.to/lastmile_qr_scan", "ios": "https://dc.lft.to/lastmile_qr_scan"}, "type": "electric_scooter", "lat": 38.9165105, "is_reserved": 0, "fusion_lat": 0.0}, {"bike_id": "ee9619026042ac263792f3a26809b89e", "fusion_lon": 0.0, "lon": -76.98279433333333, "name": "ee9619026042ac263792f3a26809b89e", "is_disabled": 0, "rental_uris": {"android": "https://dc.lft.to/lastmile_qr_scan", "ios": "https://dc.lft.to/lastmile_qr_scan"}, "type": "electric_scooter", "lat": 38.90427866666667, "is_reserved": 0, "fusion_lat": 0.0}, {"bike_id": "35236a610281baf168275e3077ebd072", "fusion_lon": 0.0, "lon": -76.99558033333334, "name": "35236a610281baf168275e3077ebd072", "is_disabled": 0, "rental_uris": {"android": "https://dc.lft.to/lastmile_qr_scan", "ios": "https://dc.lft.to/lastmile_qr_scan"}, "type": "electric_scooter", "lat": 38.862540833333334, "is_reserved": 0, "fusion_lat": 0.0}, {"bike_id": "4881df8863183b5f9c67bcaf0eb4d46b", "fusion_lon": 0.0, "lon": -77.02255016666666, "name": "4881df8863183b5f9c67bcaf0eb4d46b", "is_disabled": 0, "rental_uris": {"android": "https://dc.lft.to/lastmile_qr_scan", "ios": "https://dc.lft.to/lastmile_qr_scan"}, "type": "electric_scooter", "lat": 38.92307733333333, "is_reserved": 0, "fusion_lat": 0.0}, {"bike_id": "a75265d2acafd4b7f15a066bb2020b85", "fusion_lon": 0.0, "lon": -77.03968766666667, "name": "a75265d2acafd4b7f15a066bb2020b85", "is_disabled": 0, "rental_uris": {"android": "https://dc.lft.to/lastmile_qr_scan", "ios": "https://dc.lft.to/lastmile_qr_scan"}, "type": "electric_scooter", "lat": 38.90267383333333, "is_reserved": 0, "fusion_lat": 0.0}, {"bike_id": "0eab750b9c0fef006e4dcda1417d5647", "fusion_lon": 0.0, "lon": -76.99555216666667, "name": "0eab750b9c0fef006e4dcda1417d5647", "is_disabled": 0, "rental_uris": {"android": "https://dc.lft.to/lastmile_qr_scan", "ios": "https://dc.lft.to/lastmile_qr_scan"}, "type": "electric_scooter", "lat": 38.882686166666666, "is_reserved": 0, "fusion_lat": 0.0}, {"bike_id": "c44a1819e6c0421f19d997108a7f6c0a", "fusion_lon": 0.0, "lon": -76.99778966666666, "name": "c44a1819e6c0421f19d997108a7f6c0a", "is_disabled": 0, "rental_uris": {"android": "https://dc.lft.to/lastmile_qr_scan", "ios": "https://dc.lft.to/lastmile_qr_scan"}, "type": "electric_scooter", "lat": 38.844316, "is_reserved": 0, "fusion_lat": 0.0}, {"bike_id": "1b7112f79d8ed6829c897875cd7069b3", "fusion_lon": 0.0, "lon": -76.98312366666667, "name": "1b7112f79d8ed6829c897875cd7069b3", "is_disabled": 0, "rental_uris": {"android": "https://dc.lft.to/lastmile_qr_scan", "ios": "https://dc.lft.to/lastmile_qr_scan"}, "type": "electric_scooter", "lat": 38.86882933333333, "is_reserved": 0, "fusion_lat": 0.0}, {"bike_id": "9e83d2d925a36c1939d0901e3cd66369", "fusion_lon": 0.0, "lon": -77.04337133333334, "name": "9e83d2d925a36c1939d0901e3cd66369", "is_disabled": 0, "rental_uris": {"android": "https://dc.lft.to/lastmile_qr_scan", "ios": "https://dc.lft.to/lastmile_qr_scan"}, "type": "electric_scooter", "lat": 38.921417, "is_reserved": 0, "fusion_lat": 0.0}, {"bike_id": "755e26265cddaed66df9f4f73da93ef2", "fusion_lon": 0.0, "lon": -76.97240916666667, "name": "755e26265cddaed66df9f4f73da93ef2", "is_disabled": 0, "rental_uris": {"android": "https://dc.lft.to/lastmile_qr_scan", "ios": "https://dc.lft.to/lastmile_qr_scan"}, "type": "electric_bike", "lat": 38.85460833333333, "is_reserved": 0, "fusion_lat": 0.0}, {"bike_id": "ec6f6f4503bf0ab2368e057e0b84b840", "fusion_lon": 0.0, "lon": -77.04140666666666, "name": "ec6f6f4503bf0ab2368e057e0b84b840", "is_disabled": 0, "rental_uris": {"android": "https://dc.lft.to/lastmile_qr_scan", "ios": "https://dc.lft.to/lastmile_qr_scan"}, "type": "electric_scooter", "lat": 38.922691, "is_reserved": 0, "fusion_lat": 0.0}, {"bike_id": "055428adaae6f71aab9e54dab246b3de", "fusion_lon": 0.0, "lon": -77.031754, "name": "055428adaae6f71aab9e54dab246b3de", "is_disabled": 0, "rental_uris": {"android": "https://dc.lft.to/lastmile_qr_scan", "ios": "https://dc.lft.to/lastmile_qr_scan"}, "type": "electric_scooter", "lat": 38.904417333333335, "is_reserved": 0, "fusion_lat": 0.0}, {"bike_id": "80f548d54996e988ede85ecd2040b16a", "fusion_lon": 0.0, "lon": -77.04045566666667, "name": "80f548d54996e988ede85ecd2040b16a", "is_disabled": 0, "rental_uris": {"android": "https://dc.lft.to/lastmile_qr_scan", "ios": "https://dc.lft.to/lastmile_qr_scan"}, "type": "electric_scooter", "lat": 38.89082633333334, "is_reserved": 0, "fusion_lat": 0.0}, {"bike_id": "4db404bf0686115d460ca8aa055d75d0", "fusion_lon": 0.0, "lon": -77.03870783333333, "name": "4db404bf0686115d460ca8aa055d75d0", "is_disabled": 0, "rental_uris": {"android": "https://dc.lft.to/lastmile_qr_scan", "ios": "https://dc.lft.to/lastmile_qr_scan"}, "type": "electric_scooter", "lat": 38.93246516666667, "is_reserved": 0, "fusion_lat": 0.0}, {"bike_id": "9c4224f10f17bad06861cc0b20714c01", "fusion_lon": 0.0, "lon": -76.97961733333334, "name": "9c4224f10f17bad06861cc0b20714c01", "is_disabled": 0, "rental_uris": {"android": "https://dc.lft.to/lastmile_qr_scan", "ios": "https://dc.lft.to/lastmile_qr_scan"}, "type": "electric_bike", "lat": 38.953684, "is_reserved": 0, "fusion_lat": 0.0}, {"bike_id": "f47b3b272d4a6b661cfe66ccf6620454", "fusion_lon": 0.0, "lon": -76.994825, "name": "f47b3b272d4a6b661cfe66ccf6620454", "is_disabled": 0, "rental_uris": {"android": "https://dc.lft.to/lastmile_qr_scan", "ios": "https://dc.lft.to/lastmile_qr_scan"}, "type": "electric_scooter", "lat": 38.909823833333334, "is_reserved": 0, "fusion_lat": 0.0}, {"bike_id": "b6d43fe7161c9a9b61a8ccd1964c349b", "fusion_lon": 0.0, "lon": -77.03890083333333, "name": "b6d43fe7161c9a9b61a8ccd1964c349b", "is_disabled": 0, "rental_uris": {"android": "https://dc.lft.to/lastmile_qr_scan", "ios": "https://dc.lft.to/lastmile_qr_scan"}, "type": "electric_scooter", "lat": 38.921946166666665, "is_reserved": 0, "fusion_lat": 0.0}, {"bike_id": "9014ede57c949020bfcf7cee4cb6fd46", "fusion_lon": 0.0, "lon": -77.02782116666667, "name": "9014ede57c949020bfcf7cee4cb6fd46", "is_disabled": 0, "rental_uris": {"android": "https://dc.lft.to/lastmile_qr_scan", "ios": "https://dc.lft.to/lastmile_qr_scan"}, "type": "electric_scooter", "lat": 38.899226, "is_reserved": 0, "fusion_lat": 0.0}, {"bike_id": "f6ef1613c851cc81511252b85dd7a643", "fusion_lon": 0.0, "lon": -77.04187483333334, "name": "f6ef1613c851cc81511252b85dd7a643", "is_disabled": 0, "rental_uris": {"android": "https://dc.lft.to/lastmile_qr_scan", "ios": "https://dc.lft.to/lastmile_qr_scan"}, "type": "electric_scooter", "lat": 38.92031083333333, "is_reserved": 0, "fusion_lat": 0.0}, {"bike_id": "2f06e1534226b6e8f6b42f664ac37b47", "fusion_lon": 0.0, "lon": -77.008394, "name": "2f06e1534226b6e8f6b42f664ac37b47", "is_disabled": 0, "rental_uris": {"android": "https://dc.lft.to/lastmile_qr_scan", "ios": "https://dc.lft.to/lastmile_qr_scan"}, "type": "electric_bike", "lat": 38.829066166666664, "is_reserved": 0, "fusion_lat": 0.0}, {"bike_id": "3002488412a6e101353c21a75cc1c38f", "fusion_lon": 0.0, "lon": -76.995336, "name": "3002488412a6e101353c21a75cc1c38f", "is_disabled": 0, "rental_uris": {"android": "https://dc.lft.to/lastmile_qr_scan", "ios": "https://dc.lft.to/lastmile_qr_scan"}, "type": "electric_scooter", "lat": 38.86243966666667, "is_reserved": 0, "fusion_lat": 0.0}, {"bike_id": "0de490675256e3f0970384db8779ecfe", "fusion_lon": 0.0, "lon": -77.043629, "name": "0de490675256e3f0970384db8779ecfe", "is_disabled": 0, "rental_uris": {"android": "https://dc.lft.to/lastmile_qr_scan", "ios": "https://dc.lft.to/lastmile_qr_scan"}, "type": "electric_scooter", "lat": 38.90274266666667, "is_reserved": 0, "fusion_lat": 0.0}, {"bike_id": "5b863fe9bcdbe02ab492cc0c5c2fdfda", "fusion_lon": 0.0, "lon": -77.00204616666667, "name": "5b863fe9bcdbe02ab492cc0c5c2fdfda", "is_disabled": 0, "rental_uris": {"android": "https://dc.lft.to/lastmile_qr_scan", "ios": "https://dc.lft.to/lastmile_qr_scan"}, "type": "electric_scooter", "lat": 38.900735166666664, "is_reserved": 0, "fusion_lat": 0.0}, {"bike_id": "5ada9ac0c15b60eecc0c494bd963e8a7", "fusion_lon": 0.0, "lon": -76.987194, "name": "5ada9ac0c15b60eecc0c494bd963e8a7", "is_disabled": 0, "rental_uris": {"android": "https://dc.lft.to/lastmile_qr_scan", "ios": "https://dc.lft.to/lastmile_qr_scan"}, "type": "electric_scooter", "lat": 38.86630916666667, "is_reserved": 0, "fusion_lat": 0.0}, {"bike_id": "747605bc94994fd577182b24d1016245", "fusion_lon": 0.0, "lon": -77.04639633333333, "name": "747605bc94994fd577182b24d1016245", "is_disabled": 0, "rental_uris": {"android": "https://dc.lft.to/lastmile_qr_scan", "ios": "https://dc.lft.to/lastmile_qr_scan"}, "type": "electric_scooter", "lat": 38.895303, "is_reserved": 0, "fusion_lat": 0.0}, {"bike_id": "8c327ec26e05532b9d0229ca80cee3f5", "fusion_lon": 0.0, "lon": -77.03303233333334, "name": "8c327ec26e05532b9d0229ca80cee3f5", "is_disabled": 0, "rental_uris": {"android": "https://dc.lft.to/lastmile_qr_scan", "ios": "https://dc.lft.to/lastmile_qr_scan"}, "type": "electric_scooter", "lat": 38.907203, "is_reserved": 0, "fusion_lat": 0.0}, {"bike_id": "1392584935dae63416e92db2037e8c2a", "fusion_lon": 0.0, "lon": -77.02166833333334, "name": "1392584935dae63416e92db2037e8c2a", "is_disabled": 0, "rental_uris": {"android": "https://dc.lft.to/lastmile_qr_scan", "ios": "https://dc.lft.to/lastmile_qr_scan"}, "type": "electric_scooter", "lat": 38.89724566666666, "is_reserved": 0, "fusion_lat": 0.0}, {"bike_id": "de11e37a6e255faf90c8ed6814370870", "fusion_lon": 0.0, "lon": -77.02277483333333, "name": "de11e37a6e255faf90c8ed6814370870", "is_disabled": 0, "rental_uris": {"android": "https://dc.lft.to/lastmile_qr_scan", "ios": "https://dc.lft.to/lastmile_qr_scan"}, "type": "electric_scooter", "lat": 38.916115833333336, "is_reserved": 0, "fusion_lat": 0.0}, {"bike_id": "2981b90a230cb502d92b70178d817955", "fusion_lon": 0.0, "lon": -77.031796, "name": "2981b90a230cb502d92b70178d817955", "is_disabled": 0, "rental_uris": {"android": "https://dc.lft.to/lastmile_qr_scan", "ios": "https://dc.lft.to/lastmile_qr_scan"}, "type": "electric_scooter", "lat": 38.90944066666667, "is_reserved": 0, "fusion_lat": 0.0}, {"bike_id": "af732112ab7c9000235650c7f8e94876", "fusion_lon": 0.0, "lon": -77.0218385, "name": "af732112ab7c9000235650c7f8e94876", "is_disabled": 0, "rental_uris": {"android": "https://dc.lft.to/lastmile_qr_scan", "ios": "https://dc.lft.to/lastmile_qr_scan"}, "type": "electric_scooter", "lat": 38.884899833333336, "is_reserved": 0, "fusion_lat": 0.0}, {"bike_id": "b6ac3c0785ba3d883715823194464ea5", "fusion_lon": 0.0, "lon": -77.03130416666667, "name": "b6ac3c0785ba3d883715823194464ea5", "is_disabled": 0, "rental_uris": {"android": "https://dc.lft.to/lastmile_qr_scan", "ios": "https://dc.lft.to/lastmile_qr_scan"}, "type": "electric_scooter", "lat": 38.9155655, "is_reserved": 0, "fusion_lat": 0.0}, {"bike_id": "35dd109d229bcce9ebf88daa58f6d0ac", "fusion_lon": 0.0, "lon": -76.92507283333333, "name": "35dd109d229bcce9ebf88daa58f6d0ac", "is_disabled": 0, "rental_uris": {"android": "https://dc.lft.to/lastmile_qr_scan", "ios": "https://dc.lft.to/lastmile_qr_scan"}, "type": "electric_bike", "lat": 38.95891533333333, "is_reserved": 0, "fusion_lat": 0.0}, {"bike_id": "1b283ffb1f9ecca068c1354424fb767c", "fusion_lon": 0.0, "lon": -77.00602166666667, "name": "1b283ffb1f9ecca068c1354424fb767c", "is_disabled": 0, "rental_uris": {"android": "https://dc.lft.to/lastmile_qr_scan", "ios": "https://dc.lft.to/lastmile_qr_scan"}, "type": "electric_scooter", "lat": 38.90649833333333, "is_reserved": 0, "fusion_lat": 0.0}, {"bike_id": "1dafb06c2aa7522c6c418e3f39073e30", "fusion_lon": 0.0, "lon": -77.030854, "name": "1dafb06c2aa7522c6c418e3f39073e30", "is_disabled": 0, "rental_uris": {"android": "https://dc.lft.to/lastmile_qr_scan", "ios": "https://dc.lft.to/lastmile_qr_scan"}, "type": "electric_scooter", "lat": 38.897497666666666, "is_reserved": 0, "fusion_lat": 0.0}, {"bike_id": "661cda4ede003068112c4c45140823e4", "fusion_lon": 0.0, "lon": -77.03248633333334, "name": "661cda4ede003068112c4c45140823e4", "is_disabled": 0, "rental_uris": {"android": "https://dc.lft.to/lastmile_qr_scan", "ios": "https://dc.lft.to/lastmile_qr_scan"}, "type": "electric_scooter", "lat": 38.92857, "is_reserved": 0, "fusion_lat": 0.0}, {"bike_id": "8050c648035fe2addf691c52703ef67f", "fusion_lon": 0.0, "lon": -77.01607016666667, "name": "8050c648035fe2addf691c52703ef67f", "is_disabled": 0, "rental_uris": {"android": "https://dc.lft.to/lastmile_qr_scan", "ios": "https://dc.lft.to/lastmile_qr_scan"}, "type": "electric_scooter", "lat": 38.90586833333333, "is_reserved": 0, "fusion_lat": 0.0}, {"bike_id": "39504a8970ac3b261b3acabebdc1bcd2", "fusion_lon": 0.0, "lon": -77.03501566666667, "name": "39504a8970ac3b261b3acabebdc1bcd2", "is_disabled": 0, "rental_uris": {"android": "https://dc.lft.to/lastmile_qr_scan", "ios": "https://dc.lft.to/lastmile_qr_scan"}, "type": "electric_scooter", "lat": 38.918789, "is_reserved": 0, "fusion_lat": 0.0}, {"bike_id": "d7c2020de1b703eeae7c46ddad1a39b3", "fusion_lon": 0.0, "lon": -77.03445133333334, "name": "d7c2020de1b703eeae7c46ddad1a39b3", "is_disabled": 0, "rental_uris": {"android": "https://dc.lft.to/lastmile_qr_scan", "ios": "https://dc.lft.to/lastmile_qr_scan"}, "type": "electric_scooter", "lat": 38.91816083333333, "is_reserved": 0, "fusion_lat": 0.0}, {"bike_id": "48762d2aba3e4f4766f227e725043406", "fusion_lon": 0.0, "lon": -77.03402883333334, "name": "48762d2aba3e4f4766f227e725043406", "is_disabled": 0, "rental_uris": {"android": "https://dc.lft.to/lastmile_qr_scan", "ios": "https://dc.lft.to/lastmile_qr_scan"}, "type": "electric_scooter", "lat": 38.93129016666666, "is_reserved": 0, "fusion_lat": 0.0}, {"bike_id": "496cf77c372d5fdf23aedd1ce92c72b5", "fusion_lon": 0.0, "lon": -77.027246, "name": "496cf77c372d5fdf23aedd1ce92c72b5", "is_disabled": 0, "rental_uris": {"android": "https://dc.lft.to/lastmile_qr_scan", "ios": "https://dc.lft.to/lastmile_qr_scan"}, "type": "electric_scooter", "lat": 38.916741, "is_reserved": 0, "fusion_lat": 0.0}, {"bike_id": "211996f55639feaeb502f07f774bd74c", "fusion_lon": 0.0, "lon": -77.134647, "name": "211996f55639feaeb502f07f774bd74c", "is_disabled": 0, "rental_uris": {"android": "https://dc.lft.to/lastmile_qr_scan", "ios": "https://dc.lft.to/lastmile_qr_scan"}, "type": "electric_bike", "lat": 38.85355233333333, "is_reserved": 0, "fusion_lat": 0.0}, {"bike_id": "0248030e59a85bb8d7c3360855060a1b", "fusion_lon": 0.0, "lon": -77.00906166666667, "name": "0248030e59a85bb8d7c3360855060a1b", "is_disabled": 0, "rental_uris": {"android": "https://dc.lft.to/lastmile_qr_scan", "ios": "https://dc.lft.to/lastmile_qr_scan"}, "type": "electric_scooter", "lat": 38.90831266666667, "is_reserved": 0, "fusion_lat": 0.0}, {"bike_id": "842be75978733cb5eced6bd793ee236e", "fusion_lon": 0.0, "lon": -77.03984716666666, "name": "842be75978733cb5eced6bd793ee236e", "is_disabled": 0, "rental_uris": {"android": "https://dc.lft.to/lastmile_qr_scan", "ios": "https://dc.lft.to/lastmile_qr_scan"}, "type": "electric_scooter", "lat": 38.91752566666667, "is_reserved": 0, "fusion_lat": 0.0}, {"bike_id": "872621f2738316b4bfe9a517e414b8bb", "fusion_lon": 0.0, "lon": -77.04508583333333, "name": "872621f2738316b4bfe9a517e414b8bb", "is_disabled": 0, "rental_uris": {"android": "https://dc.lft.to/lastmile_qr_scan", "ios": "https://dc.lft.to/lastmile_qr_scan"}, "type": "electric_scooter", "lat": 38.886011333333336, "is_reserved": 0, "fusion_lat": 0.0}, {"bike_id": "1c188ec24b2c7366ddbd2ab4616e7860", "fusion_lon": 0.0, "lon": -77.0312595, "name": "1c188ec24b2c7366ddbd2ab4616e7860", "is_disabled": 0, "rental_uris": {"android": "https://dc.lft.to/lastmile_qr_scan", "ios": "https://dc.lft.to/lastmile_qr_scan"}, "type": "electric_scooter", "lat": 38.91921033333333, "is_reserved": 0, "fusion_lat": 0.0}, {"bike_id": "7037518c4b263711fb7de93e8c423d80", "fusion_lon": 0.0, "lon": -77.01951616666666, "name": "7037518c4b263711fb7de93e8c423d80", "is_disabled": 0, "rental_uris": {"android": "https://dc.lft.to/lastmile_qr_scan", "ios": "https://dc.lft.to/lastmile_qr_scan"}, "type": "electric_scooter", "lat": 38.87837833333333, "is_reserved": 0, "fusion_lat": 0.0}, {"bike_id": "0fa694c009b6bf3eb27fe6aa2ff4a643", "fusion_lon": 0.0, "lon": -76.995799, "name": "0fa694c009b6bf3eb27fe6aa2ff4a643", "is_disabled": 0, "rental_uris": {"android": "https://dc.lft.to/lastmile_qr_scan", "ios": "https://dc.lft.to/lastmile_qr_scan"}, "type": "electric_scooter", "lat": 38.8517975, "is_reserved": 0, "fusion_lat": 0.0}, {"bike_id": "627b474569fff9faccb8daf4a4c14ba2", "fusion_lon": 0.0, "lon": -77.05754133333333, "name": "627b474569fff9faccb8daf4a4c14ba2", "is_disabled": 0, "rental_uris": {"android": "https://dc.lft.to/lastmile_qr_scan", "ios": "https://dc.lft.to/lastmile_qr_scan"}, "type": "electric_scooter", "lat": 38.9245485, "is_reserved": 0, "fusion_lat": 0.0}, {"bike_id": "3268248f91e0f424388902b96260fa07", "fusion_lon": 0.0, "lon": -77.05989666666666, "name": "3268248f91e0f424388902b96260fa07", "is_disabled": 0, "rental_uris": {"android": "https://dc.lft.to/lastmile_qr_scan", "ios": "https://dc.lft.to/lastmile_qr_scan"}, "type": "electric_scooter", "lat": 38.938186333333334, "is_reserved": 0, "fusion_lat": 0.0}, {"bike_id": "b1f398d9f06d7da34179efe6426d5653", "fusion_lon": 0.0, "lon": -77.01533766666667, "name": "b1f398d9f06d7da34179efe6426d5653", "is_disabled": 0, "rental_uris": {"android": "https://dc.lft.to/lastmile_qr_scan", "ios": "https://dc.lft.to/lastmile_qr_scan"}, "type": "electric_scooter", "lat": 38.887387, "is_reserved": 0, "fusion_lat": 0.0}, {"bike_id": "dbf8d89100d6d7a47e5b32730e677b3f", "fusion_lon": 0.0, "lon": -77.0081135, "name": "dbf8d89100d6d7a47e5b32730e677b3f", "is_disabled": 0, "rental_uris": {"android": "https://dc.lft.to/lastmile_qr_scan", "ios": "https://dc.lft.to/lastmile_qr_scan"}, "type": "electric_scooter", "lat": 38.913613166666664, "is_reserved": 0, "fusion_lat": 0.0}, {"bike_id": "0a4643480396f1e49c080641f8e308a0", "fusion_lon": 0.0, "lon": -77.04904483333334, "name": "0a4643480396f1e49c080641f8e308a0", "is_disabled": 0, "rental_uris": {"android": "https://dc.lft.to/lastmile_qr_scan", "ios": "https://dc.lft.to/lastmile_qr_scan"}, "type": "electric_scooter", "lat": 38.889990166666664, "is_reserved": 0, "fusion_lat": 0.0}, {"bike_id": "74bf1dbd183cf74b98b53aeb6c5c73a5", "fusion_lon": 0.0, "lon": -77.0531745, "name": "74bf1dbd183cf74b98b53aeb6c5c73a5", "is_disabled": 0, "rental_uris": {"android": "https://dc.lft.to/lastmile_qr_scan", "ios": "https://dc.lft.to/lastmile_qr_scan"}, "type": "electric_scooter", "lat": 38.90263216666666, "is_reserved": 0, "fusion_lat": 0.0}, {"bike_id": "0aa20f8bb798cbed269f51324dda71ff", "fusion_lon": 0.0, "lon": -77.0370725, "name": "0aa20f8bb798cbed269f51324dda71ff", "is_disabled": 0, "rental_uris": {"android": "https://dc.lft.to/lastmile_qr_scan", "ios": "https://dc.lft.to/lastmile_qr_scan"}, "type": "electric_scooter", "lat": 38.926181166666666, "is_reserved": 0, "fusion_lat": 0.0}, {"bike_id": "b9f36f95ff54573b267ada2dd4d539ff", "fusion_lon": 0.0, "lon": -76.98570783333334, "name": "b9f36f95ff54573b267ada2dd4d539ff", "is_disabled": 0, "rental_uris": {"android": "https://dc.lft.to/lastmile_qr_scan", "ios": "https://dc.lft.to/lastmile_qr_scan"}, "type": "electric_scooter", "lat": 38.906372166666664, "is_reserved": 0, "fusion_lat": 0.0}, {"bike_id": "6fed6e6140f8222d0e3a80930d6a7f2a", "fusion_lon": 0.0, "lon": -77.0217055, "name": "6fed6e6140f8222d0e3a80930d6a7f2a", "is_disabled": 0, "rental_uris": {"android": "https://dc.lft.to/lastmile_qr_scan", "ios": "https://dc.lft.to/lastmile_qr_scan"}, "type": "electric_scooter", "lat": 38.91289733333333, "is_reserved": 0, "fusion_lat": 0.0}, {"bike_id": "822982cacb482e54520c2ed3f6e009a5", "fusion_lon": 0.0, "lon": -77.01761333333333, "name": "822982cacb482e54520c2ed3f6e009a5", "is_disabled": 0, "rental_uris": {"android": "https://dc.lft.to/lastmile_qr_scan", "ios": "https://dc.lft.to/lastmile_qr_scan"}, "type": "electric_scooter", "lat": 38.881407833333334, "is_reserved": 0, "fusion_lat": 0.0}, {"bike_id": "17ad17d8204f21234b620c50b06ca1c3", "fusion_lon": 0.0, "lon": -77.02280183333333, "name": "17ad17d8204f21234b620c50b06ca1c3", "is_disabled": 0, "rental_uris": {"android": "https://dc.lft.to/lastmile_qr_scan", "ios": "https://dc.lft.to/lastmile_qr_scan"}, "type": "electric_scooter", "lat": 38.9016825, "is_reserved": 0, "fusion_lat": 0.0}, {"bike_id": "12545a9997d0295b58729d181d899dfb", "fusion_lon": 0.0, "lon": -77.01937116666667, "name": "12545a9997d0295b58729d181d899dfb", "is_disabled": 0, "rental_uris": {"android": "https://dc.lft.to/lastmile_qr_scan", "ios": "https://dc.lft.to/lastmile_qr_scan"}, "type": "electric_scooter", "lat": 38.92414866666667, "is_reserved": 0, "fusion_lat": 0.0}, {"bike_id": "1bac62f9bc5a118039d46de8adb3f507", "fusion_lon": 0.0, "lon": -77.03528816666666, "name": "1bac62f9bc5a118039d46de8adb3f507", "is_disabled": 0, "rental_uris": {"android": "https://dc.lft.to/lastmile_qr_scan", "ios": "https://dc.lft.to/lastmile_qr_scan"}, "type": "electric_scooter", "lat": 38.92412066666667, "is_reserved": 0, "fusion_lat": 0.0}, {"bike_id": "4ed99bf5511c103437ba3c9382d3012f", "fusion_lon": 0.0, "lon": -76.98521533333333, "name": "4ed99bf5511c103437ba3c9382d3012f", "is_disabled": 0, "rental_uris": {"android": "https://dc.lft.to/lastmile_qr_scan", "ios": "https://dc.lft.to/lastmile_qr_scan"}, "type": "electric_scooter", "lat": 38.866694333333335, "is_reserved": 0, "fusion_lat": 0.0}, {"bike_id": "fe6a1f5485d82925ac0c3a18e7664705", "fusion_lon": 0.0, "lon": -77.051569, "name": "fe6a1f5485d82925ac0c3a18e7664705", "is_disabled": 0, "rental_uris": {"android": "https://dc.lft.to/lastmile_qr_scan", "ios": "https://dc.lft.to/lastmile_qr_scan"}, "type": "electric_scooter", "lat": 38.90525, "is_reserved": 0, "fusion_lat": 0.0}, {"bike_id": "dce6842631341af30f056534e0d0f060", "fusion_lon": 0.0, "lon": -76.93199933333334, "name": "dce6842631341af30f056534e0d0f060", "is_disabled": 0, "rental_uris": {"android": "https://dc.lft.to/lastmile_qr_scan", "ios": "https://dc.lft.to/lastmile_qr_scan"}, "type": "electric_scooter", "lat": 38.8987955, "is_reserved": 0, "fusion_lat": 0.0}, {"bike_id": "fb44560585fa90feb3379b6c23f8921c", "fusion_lon": 0.0, "lon": -76.93542566666666, "name": "fb44560585fa90feb3379b6c23f8921c", "is_disabled": 0, "rental_uris": {"android": "https://dc.lft.to/lastmile_qr_scan", "ios": "https://dc.lft.to/lastmile_qr_scan"}, "type": "electric_bike", "lat": 38.955486666666665, "is_reserved": 0, "fusion_lat": 0.0}, {"bike_id": "3fcd16700970c9b7c7bda4e79748bf0e", "fusion_lon": 0.0, "lon": -77.0292555, "name": "3fcd16700970c9b7c7bda4e79748bf0e", "is_disabled": 0, "rental_uris": {"android": "https://dc.lft.to/lastmile_qr_scan", "ios": "https://dc.lft.to/lastmile_qr_scan"}, "type": "electric_scooter", "lat": 38.90527566666667, "is_reserved": 0, "fusion_lat": 0.0}, {"bike_id": "54d287a55200216f7f4d80118dbd9d44", "fusion_lon": 0.0, "lon": -77.00202383333334, "name": "54d287a55200216f7f4d80118dbd9d44", "is_disabled": 0, "rental_uris": {"android": "https://dc.lft.to/lastmile_qr_scan", "ios": "https://dc.lft.to/lastmile_qr_scan"}, "type": "electric_scooter", "lat": 38.900254, "is_reserved": 0, "fusion_lat": 0.0}, {"bike_id": "28ef3bfd9b9db2625d8bdb6758042337", "fusion_lon": 0.0, "lon": -77.04477166666666, "name": "28ef3bfd9b9db2625d8bdb6758042337", "is_disabled": 0, "rental_uris": {"android": "https://dc.lft.to/lastmile_qr_scan", "ios": "https://dc.lft.to/lastmile_qr_scan"}, "type": "electric_scooter", "lat": 38.922337666666664, "is_reserved": 0, "fusion_lat": 0.0}, {"bike_id": "6d0affffb8a2ff05ae07f1487a7e379b", "fusion_lon": 0.0, "lon": -77.01580016666666, "name": "6d0affffb8a2ff05ae07f1487a7e379b", "is_disabled": 0, "rental_uris": {"android": "https://dc.lft.to/lastmile_qr_scan", "ios": "https://dc.lft.to/lastmile_qr_scan"}, "type": "electric_scooter", "lat": 38.891802, "is_reserved": 0, "fusion_lat": 0.0}, {"bike_id": "28c003099d15096b832db12acb2bf95a", "fusion_lon": 0.0, "lon": -77.00207933333333, "name": "28c003099d15096b832db12acb2bf95a", "is_disabled": 0, "rental_uris": {"android": "https://dc.lft.to/lastmile_qr_scan", "ios": "https://dc.lft.to/lastmile_qr_scan"}, "type": "electric_scooter", "lat": 38.900239, "is_reserved": 0, "fusion_lat": 0.0}, {"bike_id": "f0b540760c26de880812f761df56c5f3", "fusion_lon": 0.0, "lon": -77.0472035, "name": "f0b540760c26de880812f761df56c5f3", "is_disabled": 0, "rental_uris": {"android": "https://dc.lft.to/lastmile_qr_scan", "ios": "https://dc.lft.to/lastmile_qr_scan"}, "type": "electric_scooter", "lat": 38.9059115, "is_reserved": 0, "fusion_lat": 0.0}, {"bike_id": "a66cac26aa0a0357acb167481bbf5bc5", "fusion_lon": 0.0, "lon": -77.02211733333333, "name": "a66cac26aa0a0357acb167481bbf5bc5", "is_disabled": 0, "rental_uris": {"android": "https://dc.lft.to/lastmile_qr_scan", "ios": "https://dc.lft.to/lastmile_qr_scan"}, "type": "electric_scooter", "lat": 38.91566016666667, "is_reserved": 0, "fusion_lat": 0.0}, {"bike_id": "48879aa9fabb90ce8b1f83a3d8de26f9", "fusion_lon": 0.0, "lon": -77.0730535, "name": "48879aa9fabb90ce8b1f83a3d8de26f9", "is_disabled": 0, "rental_uris": {"android": "https://dc.lft.to/lastmile_qr_scan", "ios": "https://dc.lft.to/lastmile_qr_scan"}, "type": "electric_scooter", "lat": 38.93571283333333, "is_reserved": 0, "fusion_lat": 0.0}, {"bike_id": "005296c622f2ae6efc8280c00bfd29d8", "fusion_lon": 0.0, "lon": -77.0433545, "name": "005296c622f2ae6efc8280c00bfd29d8", "is_disabled": 0, "rental_uris": {"android": "https://dc.lft.to/lastmile_qr_scan", "ios": "https://dc.lft.to/lastmile_qr_scan"}, "type": "electric_scooter", "lat": 38.8952765, "is_reserved": 0, "fusion_lat": 0.0}, {"bike_id": "cbac53f20694a975049cec604131107c", "fusion_lon": 0.0, "lon": -77.0859385, "name": "cbac53f20694a975049cec604131107c", "is_disabled": 0, "rental_uris": {"android": "https://dc.lft.to/lastmile_qr_scan", "ios": "https://dc.lft.to/lastmile_qr_scan"}, "type": "electric_scooter", "lat": 38.9087005, "is_reserved": 0, "fusion_lat": 0.0}, {"bike_id": "d7a55a4eb7d32ddbebbc5319a1305b93", "fusion_lon": 0.0, "lon": -76.99947033333333, "name": "d7a55a4eb7d32ddbebbc5319a1305b93", "is_disabled": 0, "rental_uris": {"android": "https://dc.lft.to/lastmile_qr_scan", "ios": "https://dc.lft.to/lastmile_qr_scan"}, "type": "electric_scooter", "lat": 38.84292683333334, "is_reserved": 0, "fusion_lat": 0.0}, {"bike_id": "2d92b43abe982de547388ad03010e537", "fusion_lon": 0.0, "lon": -77.04298766666666, "name": "2d92b43abe982de547388ad03010e537", "is_disabled": 0, "rental_uris": {"android": "https://dc.lft.to/lastmile_qr_scan", "ios": "https://dc.lft.to/lastmile_qr_scan"}, "type": "electric_scooter", "lat": 38.91056366666667, "is_reserved": 0, "fusion_lat": 0.0}, {"bike_id": "d010acceec6d4ab45f363f110826d911", "fusion_lon": 0.0, "lon": -77.04395533333333, "name": "d010acceec6d4ab45f363f110826d911", "is_disabled": 0, "rental_uris": {"android": "https://dc.lft.to/lastmile_qr_scan", "ios": "https://dc.lft.to/lastmile_qr_scan"}, "type": "electric_scooter", "lat": 38.910884333333335, "is_reserved": 0, "fusion_lat": 0.0}, {"bike_id": "8926935034fcec636218db64b4c705b9", "fusion_lon": 0.0, "lon": -77.04458933333333, "name": "8926935034fcec636218db64b4c705b9", "is_disabled": 0, "rental_uris": {"android": "https://dc.lft.to/lastmile_qr_scan", "ios": "https://dc.lft.to/lastmile_qr_scan"}, "type": "electric_scooter", "lat": 38.91181733333333, "is_reserved": 0, "fusion_lat": 0.0}, {"bike_id": "81b65daa5c82b60f31841c594a8f5c8c", "fusion_lon": 0.0, "lon": -76.96465266666667, "name": "81b65daa5c82b60f31841c594a8f5c8c", "is_disabled": 0, "rental_uris": {"android": "https://dc.lft.to/lastmile_qr_scan", "ios": "https://dc.lft.to/lastmile_qr_scan"}, "type": "electric_scooter", "lat": 38.934463, "is_reserved": 0, "fusion_lat": 0.0}, {"bike_id": "35f962a7bf11d60c78fbb161a49792ce", "fusion_lon": 0.0, "lon": -77.03189116666667, "name": "35f962a7bf11d60c78fbb161a49792ce", "is_disabled": 0, "rental_uris": {"android": "https://dc.lft.to/lastmile_qr_scan", "ios": "https://dc.lft.to/lastmile_qr_scan"}, "type": "electric_scooter", "lat": 38.92494466666667, "is_reserved": 0, "fusion_lat": 0.0}, {"bike_id": "4d0ca760b0ee9fd4dec9ec0d80d910aa", "fusion_lon": 0.0, "lon": -77.01846733333333, "name": "4d0ca760b0ee9fd4dec9ec0d80d910aa", "is_disabled": 0, "rental_uris": {"android": "https://dc.lft.to/lastmile_qr_scan", "ios": "https://dc.lft.to/lastmile_qr_scan"}, "type": "electric_scooter", "lat": 38.877168166666664, "is_reserved": 0, "fusion_lat": 0.0}, {"bike_id": "467de48da7b288ddf8490796618c092a", "fusion_lon": 0.0, "lon": -77.02469083333334, "name": "467de48da7b288ddf8490796618c092a", "is_disabled": 0, "rental_uris": {"android": "https://dc.lft.to/lastmile_qr_scan", "ios": "https://dc.lft.to/lastmile_qr_scan"}, "type": "electric_scooter", "lat": 38.903288333333336, "is_reserved": 0, "fusion_lat": 0.0}, {"bike_id": "b1704e1b560dfd29c64232edc13f0726", "fusion_lon": 0.0, "lon": -76.995954, "name": "b1704e1b560dfd29c64232edc13f0726", "is_disabled": 0, "rental_uris": {"android": "https://dc.lft.to/lastmile_qr_scan", "ios": "https://dc.lft.to/lastmile_qr_scan"}, "type": "electric_bike", "lat": 38.95070483333333, "is_reserved": 0, "fusion_lat": 0.0}, {"bike_id": "c0666cf693e39e33fb198ea7ab3ffe23", "fusion_lon": 0.0, "lon": -77.02800683333334, "name": "c0666cf693e39e33fb198ea7ab3ffe23", "is_disabled": 0, "rental_uris": {"android": "https://dc.lft.to/lastmile_qr_scan", "ios": "https://dc.lft.to/lastmile_qr_scan"}, "type": "electric_scooter", "lat": 38.91686283333333, "is_reserved": 0, "fusion_lat": 0.0}, {"bike_id": "e005c19e58c548cf4e4da04973f7f7a6", "fusion_lon": 0.0, "lon": -77.0109105, "name": "e005c19e58c548cf4e4da04973f7f7a6", "is_disabled": 0, "rental_uris": {"android": "https://dc.lft.to/lastmile_qr_scan", "ios": "https://dc.lft.to/lastmile_qr_scan"}, "type": "electric_scooter", "lat": 38.89517416666666, "is_reserved": 0, "fusion_lat": 0.0}, {"bike_id": "df9d4649623922c4744f0ae14cd197fd", "fusion_lon": 0.0, "lon": -77.02691666666666, "name": "df9d4649623922c4744f0ae14cd197fd", "is_disabled": 0, "rental_uris": {"android": "https://dc.lft.to/lastmile_qr_scan", "ios": "https://dc.lft.to/lastmile_qr_scan"}, "type": "electric_scooter", "lat": 38.906805166666665, "is_reserved": 0, "fusion_lat": 0.0}, {"bike_id": "a9b1a5fe00c0c277f2f886add394b1a7", "fusion_lon": 0.0, "lon": -77.02520916666667, "name": "a9b1a5fe00c0c277f2f886add394b1a7", "is_disabled": 0, "rental_uris": {"android": "https://dc.lft.to/lastmile_qr_scan", "ios": "https://dc.lft.to/lastmile_qr_scan"}, "type": "electric_scooter", "lat": 38.914824833333334, "is_reserved": 0, "fusion_lat": 0.0}, {"bike_id": "4f016ac513be2f2528c4a1bdb70762ba", "fusion_lon": 0.0, "lon": -77.04003766666666, "name": "4f016ac513be2f2528c4a1bdb70762ba", "is_disabled": 0, "rental_uris": {"android": "https://dc.lft.to/lastmile_qr_scan", "ios": "https://dc.lft.to/lastmile_qr_scan"}, "type": "electric_bike", "lat": 38.90567583333333, "is_reserved": 0, "fusion_lat": 0.0}, {"bike_id": "f2730698d2c0fe4c881cf30c572d6f9c", "fusion_lon": 0.0, "lon": -76.96525833333334, "name": "f2730698d2c0fe4c881cf30c572d6f9c", "is_disabled": 0, "rental_uris": {"android": "https://dc.lft.to/lastmile_qr_scan", "ios": "https://dc.lft.to/lastmile_qr_scan"}, "type": "electric_bike", "lat": 38.874772, "is_reserved": 0, "fusion_lat": 0.0}, {"bike_id": "80575b03ea6fa10945aa3bca3ebc58f8", "fusion_lon": 0.0, "lon": -77.2222225, "name": "80575b03ea6fa10945aa3bca3ebc58f8", "is_disabled": 0, "rental_uris": {"android": "https://dc.lft.to/lastmile_qr_scan", "ios": "https://dc.lft.to/lastmile_qr_scan"}, "type": "electric_bike", "lat": 38.928561333333334, "is_reserved": 0, "fusion_lat": 0.0}, {"bike_id": "9aa2f1a9860d7daf808c6dcb9fca06d5", "fusion_lon": 0.0, "lon": -77.02326116666667, "name": "9aa2f1a9860d7daf808c6dcb9fca06d5", "is_disabled": 0, "rental_uris": {"android": "https://dc.lft.to/lastmile_qr_scan", "ios": "https://dc.lft.to/lastmile_qr_scan"}, "type": "electric_scooter", "lat": 38.896772666666664, "is_reserved": 0, "fusion_lat": 0.0}, {"bike_id": "1b721521054f18794e3492cb38392ee1", "fusion_lon": 0.0, "lon": -76.978887, "name": "1b721521054f18794e3492cb38392ee1", "is_disabled": 0, "rental_uris": {"android": "https://dc.lft.to/lastmile_qr_scan", "ios": "https://dc.lft.to/lastmile_qr_scan"}, "type": "electric_bike", "lat": 38.915838666666666, "is_reserved": 0, "fusion_lat": 0.0}, {"bike_id": "8f52d5f9d46e6d37b9d6333a347690fb", "fusion_lon": 0.0, "lon": -76.93986433333333, "name": "8f52d5f9d46e6d37b9d6333a347690fb", "is_disabled": 0, "rental_uris": {"android": "https://dc.lft.to/lastmile_qr_scan", "ios": "https://dc.lft.to/lastmile_qr_scan"}, "type": "electric_scooter", "lat": 38.8998075, "is_reserved": 0, "fusion_lat": 0.0}, {"bike_id": "4a4dc064ab37938656b384982030844a", "fusion_lon": 0.0, "lon": -77.17840166666667, "name": "4a4dc064ab37938656b384982030844a", "is_disabled": 0, "rental_uris": {"android": "https://dc.lft.to/lastmile_qr_scan", "ios": "https://dc.lft.to/lastmile_qr_scan"}, "type": "electric_bike", "lat": 39.088573833333335, "is_reserved": 0, "fusion_lat": 0.0}, {"bike_id": "d8bb4f1d286a9ea14d82024f85dcf8b2", "fusion_lon": 0.0, "lon": -77.0317205, "name": "d8bb4f1d286a9ea14d82024f85dcf8b2", "is_disabled": 0, "rental_uris": {"android": "https://dc.lft.to/lastmile_qr_scan", "ios": "https://dc.lft.to/lastmile_qr_scan"}, "type": "electric_scooter", "lat": 38.918239, "is_reserved": 0, "fusion_lat": 0.0}, {"bike_id": "15d4db046a34aabe78e18516ac1b8bad", "fusion_lon": 0.0, "lon": -77.02205266666667, "name": "15d4db046a34aabe78e18516ac1b8bad", "is_disabled": 0, "rental_uris": {"android": "https://dc.lft.to/lastmile_qr_scan", "ios": "https://dc.lft.to/lastmile_qr_scan"}, "type": "electric_scooter", "lat": 38.910952333333334, "is_reserved": 0, "fusion_lat": 0.0}, {"bike_id": "cfdf3a1526d475eb4b9aca6eb5968de5", "fusion_lon": 0.0, "lon": -77.03201683333333, "name": "cfdf3a1526d475eb4b9aca6eb5968de5", "is_disabled": 0, "rental_uris": {"android": "https://dc.lft.to/lastmile_qr_scan", "ios": "https://dc.lft.to/lastmile_qr_scan"}, "type": "electric_scooter", "lat": 38.923799333333335, "is_reserved": 0, "fusion_lat": 0.0}, {"bike_id": "8c068df66d125cafd254b22dc10b2f18", "fusion_lon": 0.0, "lon": -77.03259416666667, "name": "8c068df66d125cafd254b22dc10b2f18", "is_disabled": 0, "rental_uris": {"android": "https://dc.lft.to/lastmile_qr_scan", "ios": "https://dc.lft.to/lastmile_qr_scan"}, "type": "electric_scooter", "lat": 38.94271966666667, "is_reserved": 0, "fusion_lat": 0.0}, {"bike_id": "3b7b96fe63a962c2535c555dc9385bca", "fusion_lon": 0.0, "lon": -76.9837715, "name": "3b7b96fe63a962c2535c555dc9385bca", "is_disabled": 0, "rental_uris": {"android": "https://dc.lft.to/lastmile_qr_scan", "ios": "https://dc.lft.to/lastmile_qr_scan"}, "type": "electric_scooter", "lat": 38.86123716666667, "is_reserved": 0, "fusion_lat": 0.0}, {"bike_id": "23ad84125db975f92d80d95535515439", "fusion_lon": 0.0, "lon": -76.98115616666666, "name": "23ad84125db975f92d80d95535515439", "is_disabled": 0, "rental_uris": {"android": "https://dc.lft.to/lastmile_qr_scan", "ios": "https://dc.lft.to/lastmile_qr_scan"}, "type": "electric_scooter", "lat": 38.914664333333334, "is_reserved": 0, "fusion_lat": 0.0}, {"bike_id": "6f5abf82d7efb521c7faec1e1d6d0e35", "fusion_lon": 0.0, "lon": -77.01198416666666, "name": "6f5abf82d7efb521c7faec1e1d6d0e35", "is_disabled": 0, "rental_uris": {"android": "https://dc.lft.to/lastmile_qr_scan", "ios": "https://dc.lft.to/lastmile_qr_scan"}, "type": "electric_scooter", "lat": 38.900068833333336, "is_reserved": 0, "fusion_lat": 0.0}, {"bike_id": "f3ba3cbf71df33c526eca74892641975", "fusion_lon": 0.0, "lon": -77.0019585, "name": "f3ba3cbf71df33c526eca74892641975", "is_disabled": 0, "rental_uris": {"android": "https://dc.lft.to/lastmile_qr_scan", "ios": "https://dc.lft.to/lastmile_qr_scan"}, "type": "electric_scooter", "lat": 38.9006595, "is_reserved": 0, "fusion_lat": 0.0}, {"bike_id": "46ab69eb3d4d6211b62abaab32870e70", "fusion_lon": 0.0, "lon": -77.03195066666666, "name": "46ab69eb3d4d6211b62abaab32870e70", "is_disabled": 0, "rental_uris": {"android": "https://dc.lft.to/lastmile_qr_scan", "ios": "https://dc.lft.to/lastmile_qr_scan"}, "type": "electric_scooter", "lat": 38.909462166666664, "is_reserved": 0, "fusion_lat": 0.0}, {"bike_id": "f269695a158f5fe978e047ff79134790", "fusion_lon": 0.0, "lon": -77.0179995, "name": "f269695a158f5fe978e047ff79134790", "is_disabled": 0, "rental_uris": {"android": "https://dc.lft.to/lastmile_qr_scan", "ios": "https://dc.lft.to/lastmile_qr_scan"}, "type": "electric_scooter", "lat": 38.8767575, "is_reserved": 0, "fusion_lat": 0.0}, {"bike_id": "3aadb24dc18d66608952b287b1744034", "fusion_lon": 0.0, "lon": -77.04107933333333, "name": "3aadb24dc18d66608952b287b1744034", "is_disabled": 0, "rental_uris": {"android": "https://dc.lft.to/lastmile_qr_scan", "ios": "https://dc.lft.to/lastmile_qr_scan"}, "type": "electric_scooter", "lat": 38.90574566666667, "is_reserved": 0, "fusion_lat": 0.0}, {"bike_id": "65308d9d926c093d21206b7ed3d8d07d", "fusion_lon": 0.0, "lon": -77.01320483333333, "name": "65308d9d926c093d21206b7ed3d8d07d", "is_disabled": 0, "rental_uris": {"android": "https://dc.lft.to/lastmile_qr_scan", "ios": "https://dc.lft.to/lastmile_qr_scan"}, "type": "electric_scooter", "lat": 38.90053133333333, "is_reserved": 0, "fusion_lat": 0.0}, {"bike_id": "c78aab0fd3518621b2c74e9ea96a83a6", "fusion_lon": 0.0, "lon": -77.02721733333334, "name": "c78aab0fd3518621b2c74e9ea96a83a6", "is_disabled": 0, "rental_uris": {"android": "https://dc.lft.to/lastmile_qr_scan", "ios": "https://dc.lft.to/lastmile_qr_scan"}, "type": "electric_scooter", "lat": 38.949616166666665, "is_reserved": 0, "fusion_lat": 0.0}, {"bike_id": "339d820bd49ef020e4e13f54ed1d0aa6", "fusion_lon": 0.0, "lon": -77.0308125, "name": "339d820bd49ef020e4e13f54ed1d0aa6", "is_disabled": 0, "rental_uris": {"android": "https://dc.lft.to/lastmile_qr_scan", "ios": "https://dc.lft.to/lastmile_qr_scan"}, "type": "electric_bike", "lat": 38.933179, "is_reserved": 0, "fusion_lat": 0.0}, {"bike_id": "b72c0012bcf379410c306df54f7f2dde", "fusion_lon": 0.0, "lon": -77.03848933333333, "name": "b72c0012bcf379410c306df54f7f2dde", "is_disabled": 0, "rental_uris": {"android": "https://dc.lft.to/lastmile_qr_scan", "ios": "https://dc.lft.to/lastmile_qr_scan"}, "type": "electric_scooter", "lat": 38.91553416666667, "is_reserved": 0, "fusion_lat": 0.0}, {"bike_id": "3a54f0bfda792cc5394ac5c0f2f7c122", "fusion_lon": 0.0, "lon": -77.1170975, "name": "3a54f0bfda792cc5394ac5c0f2f7c122", "is_disabled": 0, "rental_uris": {"android": "https://dc.lft.to/lastmile_qr_scan", "ios": "https://dc.lft.to/lastmile_qr_scan"}, "type": "electric_bike", "lat": 38.86746633333333, "is_reserved": 0, "fusion_lat": 0.0}, {"bike_id": "879392b2f1167b6b69d90513479e6cc0", "fusion_lon": 0.0, "lon": -77.02304383333333, "name": "879392b2f1167b6b69d90513479e6cc0", "is_disabled": 0, "rental_uris": {"android": "https://dc.lft.to/lastmile_qr_scan", "ios": "https://dc.lft.to/lastmile_qr_scan"}, "type": "electric_scooter", "lat": 38.927617166666664, "is_reserved": 0, "fusion_lat": 0.0}, {"bike_id": "23ce1bce8390d7bd4fc4ee8c9c08f859", "fusion_lon": 0.0, "lon": -77.05014666666666, "name": "23ce1bce8390d7bd4fc4ee8c9c08f859", "is_disabled": 0, "rental_uris": {"android": "https://dc.lft.to/lastmile_qr_scan", "ios": "https://dc.lft.to/lastmile_qr_scan"}, "type": "electric_scooter", "lat": 38.90634683333333, "is_reserved": 0, "fusion_lat": 0.0}, {"bike_id": "03daa3e54c2b4e3ddddfa9efa0cfdb83", "fusion_lon": 0.0, "lon": -77.05151216666667, "name": "03daa3e54c2b4e3ddddfa9efa0cfdb83", "is_disabled": 0, "rental_uris": {"android": "https://dc.lft.to/lastmile_qr_scan", "ios": "https://dc.lft.to/lastmile_qr_scan"}, "type": "electric_scooter", "lat": 38.905356, "is_reserved": 0, "fusion_lat": 0.0}, {"bike_id": "c190a561a32aa3cb2a78c989175b5f76", "fusion_lon": 0.0, "lon": -77.026192, "name": "c190a561a32aa3cb2a78c989175b5f76", "is_disabled": 0, "rental_uris": {"android": "https://dc.lft.to/lastmile_qr_scan", "ios": "https://dc.lft.to/lastmile_qr_scan"}, "type": "electric_scooter", "lat": 38.9281295, "is_reserved": 0, "fusion_lat": 0.0}, {"bike_id": "615bbee9fce21e297c8a471a09b9c63f", "fusion_lon": 0.0, "lon": -77.0232795, "name": "615bbee9fce21e297c8a471a09b9c63f", "is_disabled": 0, "rental_uris": {"android": "https://dc.lft.to/lastmile_qr_scan", "ios": "https://dc.lft.to/lastmile_qr_scan"}, "type": "electric_scooter", "lat": 38.92939883333333, "is_reserved": 0, "fusion_lat": 0.0}, {"bike_id": "8de9640b1441cd640c3d52eba51628b3", "fusion_lon": 0.0, "lon": -77.031085, "name": "8de9640b1441cd640c3d52eba51628b3", "is_disabled": 0, "rental_uris": {"android": "https://dc.lft.to/lastmile_qr_scan", "ios": "https://dc.lft.to/lastmile_qr_scan"}, "type": "electric_scooter", "lat": 38.946549833333336, "is_reserved": 0, "fusion_lat": 0.0}, {"bike_id": "afed572078804694f7f555d42fb110c3", "fusion_lon": 0.0, "lon": -77.0373245, "name": "afed572078804694f7f555d42fb110c3", "is_disabled": 0, "rental_uris": {"android": "https://dc.lft.to/lastmile_qr_scan", "ios": "https://dc.lft.to/lastmile_qr_scan"}, "type": "electric_scooter", "lat": 38.9037465, "is_reserved": 0, "fusion_lat": 0.0}, {"bike_id": "3c97db57b3ac70da2263683dc346a422", "fusion_lon": 0.0, "lon": -76.9951555, "name": "3c97db57b3ac70da2263683dc346a422", "is_disabled": 0, "rental_uris": {"android": "https://dc.lft.to/lastmile_qr_scan", "ios": "https://dc.lft.to/lastmile_qr_scan"}, "type": "electric_scooter", "lat": 38.90980166666667, "is_reserved": 0, "fusion_lat": 0.0}, {"bike_id": "b75533d6f8eb1ce0f7a8ac7d3e98a42a", "fusion_lon": 0.0, "lon": -77.031711, "name": "b75533d6f8eb1ce0f7a8ac7d3e98a42a", "is_disabled": 0, "rental_uris": {"android": "https://dc.lft.to/lastmile_qr_scan", "ios": "https://dc.lft.to/lastmile_qr_scan"}, "type": "electric_scooter", "lat": 38.892241166666665, "is_reserved": 0, "fusion_lat": 0.0}, {"bike_id": "9aca6f33807a9f9cd809a9edde3c011c", "fusion_lon": 0.0, "lon": -77.03862583333333, "name": "9aca6f33807a9f9cd809a9edde3c011c", "is_disabled": 0, "rental_uris": {"android": "https://dc.lft.to/lastmile_qr_scan", "ios": "https://dc.lft.to/lastmile_qr_scan"}, "type": "electric_scooter", "lat": 38.907838, "is_reserved": 0, "fusion_lat": 0.0}, {"bike_id": "190a9f20401c161aabadde14a3a6bb9e", "fusion_lon": 0.0, "lon": -77.00376433333334, "name": "190a9f20401c161aabadde14a3a6bb9e", "is_disabled": 0, "rental_uris": {"android": "https://dc.lft.to/lastmile_qr_scan", "ios": "https://dc.lft.to/lastmile_qr_scan"}, "type": "electric_scooter", "lat": 38.88269716666667, "is_reserved": 0, "fusion_lat": 0.0}, {"bike_id": "584aa79d7a1575229f47c4f26199262c", "fusion_lon": 0.0, "lon": -77.0065935, "name": "584aa79d7a1575229f47c4f26199262c", "is_disabled": 0, "rental_uris": {"android": "https://dc.lft.to/lastmile_qr_scan", "ios": "https://dc.lft.to/lastmile_qr_scan"}, "type": "electric_scooter", "lat": 38.94461483333333, "is_reserved": 0, "fusion_lat": 0.0}, {"bike_id": "e271348db31f3b58f59409643db947cc", "fusion_lon": 0.0, "lon": -76.9884165, "name": "e271348db31f3b58f59409643db947cc", "is_disabled": 0, "rental_uris": {"android": "https://dc.lft.to/lastmile_qr_scan", "ios": "https://dc.lft.to/lastmile_qr_scan"}, "type": "electric_bike", "lat": 38.842749833333336, "is_reserved": 0, "fusion_lat": 0.0}, {"bike_id": "96c006ebc860e9c5098cf992c295598b", "fusion_lon": 0.0, "lon": -77.0414285, "name": "96c006ebc860e9c5098cf992c295598b", "is_disabled": 0, "rental_uris": {"android": "https://dc.lft.to/lastmile_qr_scan", "ios": "https://dc.lft.to/lastmile_qr_scan"}, "type": "electric_scooter", "lat": 38.893595, "is_reserved": 0, "fusion_lat": 0.0}, {"bike_id": "19beed32a5bce70f190b5cea66c644de", "fusion_lon": 0.0, "lon": -77.04831816666666, "name": "19beed32a5bce70f190b5cea66c644de", "is_disabled": 0, "rental_uris": {"android": "https://dc.lft.to/lastmile_qr_scan", "ios": "https://dc.lft.to/lastmile_qr_scan"}, "type": "electric_scooter", "lat": 38.91037583333333, "is_reserved": 0, "fusion_lat": 0.0}, {"bike_id": "69cb23d0340b91eb9e81af0f81f358a6", "fusion_lon": 0.0, "lon": -77.02965533333334, "name": "69cb23d0340b91eb9e81af0f81f358a6", "is_disabled": 0, "rental_uris": {"android": "https://dc.lft.to/lastmile_qr_scan", "ios": "https://dc.lft.to/lastmile_qr_scan"}, "type": "electric_scooter", "lat": 38.906244666666666, "is_reserved": 0, "fusion_lat": 0.0}, {"bike_id": "7d42097b40eaf883c9e7b636866c94b9", "fusion_lon": 0.0, "lon": -77.023811, "name": "7d42097b40eaf883c9e7b636866c94b9", "is_disabled": 0, "rental_uris": {"android": "https://dc.lft.to/lastmile_qr_scan", "ios": "https://dc.lft.to/lastmile_qr_scan"}, "type": "electric_scooter", "lat": 38.909524833333336, "is_reserved": 0, "fusion_lat": 0.0}, {"bike_id": "ece469158ec3ef62471a2997550c4daf", "fusion_lon": 0.0, "lon": -76.99705633333333, "name": "ece469158ec3ef62471a2997550c4daf", "is_disabled": 0, "rental_uris": {"android": "https://dc.lft.to/lastmile_qr_scan", "ios": "https://dc.lft.to/lastmile_qr_scan"}, "type": "electric_scooter", "lat": 38.84426333333333, "is_reserved": 0, "fusion_lat": 0.0}, {"bike_id": "bd3307a1e7ce8ed8fbf861cb223592fb", "fusion_lon": 0.0, "lon": -76.99860233333334, "name": "bd3307a1e7ce8ed8fbf861cb223592fb", "is_disabled": 0, "rental_uris": {"android": "https://dc.lft.to/lastmile_qr_scan", "ios": "https://dc.lft.to/lastmile_qr_scan"}, "type": "electric_scooter", "lat": 38.90016766666667, "is_reserved": 0, "fusion_lat": 0.0}, {"bike_id": "65c4337ab7af09cd473692ab279abb02", "fusion_lon": 0.0, "lon": -76.98068766666667, "name": "65c4337ab7af09cd473692ab279abb02", "is_disabled": 0, "rental_uris": {"android": "https://dc.lft.to/lastmile_qr_scan", "ios": "https://dc.lft.to/lastmile_qr_scan"}, "type": "electric_bike", "lat": 38.901703, "is_reserved": 0, "fusion_lat": 0.0}, {"bike_id": "3ed30b5b511c1bf71d7496570440dafe", "fusion_lon": 0.0, "lon": -77.0345335, "name": "3ed30b5b511c1bf71d7496570440dafe", "is_disabled": 0, "rental_uris": {"android": "https://dc.lft.to/lastmile_qr_scan", "ios": "https://dc.lft.to/lastmile_qr_scan"}, "type": "electric_scooter", "lat": 38.90804216666667, "is_reserved": 0, "fusion_lat": 0.0}, {"bike_id": "678e655d3ef2f7bad65fe77e5e7691f9", "fusion_lon": 0.0, "lon": -76.93345966666666, "name": "678e655d3ef2f7bad65fe77e5e7691f9", "is_disabled": 0, "rental_uris": {"android": "https://dc.lft.to/lastmile_qr_scan", "ios": "https://dc.lft.to/lastmile_qr_scan"}, "type": "electric_scooter", "lat": 38.89909983333333, "is_reserved": 0, "fusion_lat": 0.0}, {"bike_id": "1223bdb01d3f39403cde5354b1e1d29d", "fusion_lon": 0.0, "lon": -77.02693783333333, "name": "1223bdb01d3f39403cde5354b1e1d29d", "is_disabled": 0, "rental_uris": {"android": "https://dc.lft.to/lastmile_qr_scan", "ios": "https://dc.lft.to/lastmile_qr_scan"}, "type": "electric_scooter", "lat": 38.911238, "is_reserved": 0, "fusion_lat": 0.0}, {"bike_id": "4a446468fd047f7a27cd181b6f952443", "fusion_lon": 0.0, "lon": -77.01772783333334, "name": "4a446468fd047f7a27cd181b6f952443", "is_disabled": 0, "rental_uris": {"android": "https://dc.lft.to/lastmile_qr_scan", "ios": "https://dc.lft.to/lastmile_qr_scan"}, "type": "electric_scooter", "lat": 38.9026455, "is_reserved": 0, "fusion_lat": 0.0}, {"bike_id": "cd723aefc9d960a3936347f1c5a16e45", "fusion_lon": 0.0, "lon": -77.04329983333334, "name": "cd723aefc9d960a3936347f1c5a16e45", "is_disabled": 0, "rental_uris": {"android": "https://dc.lft.to/lastmile_qr_scan", "ios": "https://dc.lft.to/lastmile_qr_scan"}, "type": "electric_scooter", "lat": 38.8922055, "is_reserved": 0, "fusion_lat": 0.0}, {"bike_id": "e98538d7a02344f560facd182016ba3a", "fusion_lon": 0.0, "lon": -77.04160883333333, "name": "e98538d7a02344f560facd182016ba3a", "is_disabled": 0, "rental_uris": {"android": "https://dc.lft.to/lastmile_qr_scan", "ios": "https://dc.lft.to/lastmile_qr_scan"}, "type": "electric_scooter", "lat": 38.918622166666665, "is_reserved": 0, "fusion_lat": 0.0}, {"bike_id": "cbc182ded6b9243c752eae26114a867f", "fusion_lon": 0.0, "lon": -77.0326155, "name": "cbc182ded6b9243c752eae26114a867f", "is_disabled": 0, "rental_uris": {"android": "https://dc.lft.to/lastmile_qr_scan", "ios": "https://dc.lft.to/lastmile_qr_scan"}, "type": "electric_scooter", "lat": 38.937682833333334, "is_reserved": 0, "fusion_lat": 0.0}, {"bike_id": "b706b39041e6d9069ddb1d70e7d4f9a9", "fusion_lon": 0.0, "lon": -77.03187833333334, "name": "b706b39041e6d9069ddb1d70e7d4f9a9", "is_disabled": 0, "rental_uris": {"android": "https://dc.lft.to/lastmile_qr_scan", "ios": "https://dc.lft.to/lastmile_qr_scan"}, "type": "electric_scooter", "lat": 38.9248095, "is_reserved": 0, "fusion_lat": 0.0}, {"bike_id": "de747a2b08373da1f18789919830a171", "fusion_lon": 0.0, "lon": -77.02903633333334, "name": "de747a2b08373da1f18789919830a171", "is_disabled": 0, "rental_uris": {"android": "https://dc.lft.to/lastmile_qr_scan", "ios": "https://dc.lft.to/lastmile_qr_scan"}, "type": "electric_scooter", "lat": 38.928164, "is_reserved": 0, "fusion_lat": 0.0}, {"bike_id": "19632db362ed7b2df2fbd3d13c8b0d5d", "fusion_lon": 0.0, "lon": -77.03739133333333, "name": "19632db362ed7b2df2fbd3d13c8b0d5d", "is_disabled": 0, "rental_uris": {"android": "https://dc.lft.to/lastmile_qr_scan", "ios": "https://dc.lft.to/lastmile_qr_scan"}, "type": "electric_scooter", "lat": 38.92588516666667, "is_reserved": 0, "fusion_lat": 0.0}, {"bike_id": "5e79384301fa008daa04f051e7589d21", "fusion_lon": 0.0, "lon": -77.0092665, "name": "5e79384301fa008daa04f051e7589d21", "is_disabled": 0, "rental_uris": {"android": "https://dc.lft.to/lastmile_qr_scan", "ios": "https://dc.lft.to/lastmile_qr_scan"}, "type": "electric_scooter", "lat": 38.89728866666667, "is_reserved": 0, "fusion_lat": 0.0}, {"bike_id": "ec1432d4ba30ff0065b6d298ac1aeb5e", "fusion_lon": 0.0, "lon": -77.00915033333334, "name": "ec1432d4ba30ff0065b6d298ac1aeb5e", "is_disabled": 0, "rental_uris": {"android": "https://dc.lft.to/lastmile_qr_scan", "ios": "https://dc.lft.to/lastmile_qr_scan"}, "type": "electric_scooter", "lat": 38.8278335, "is_reserved": 0, "fusion_lat": 0.0}, {"bike_id": "eb5228882e0a1aa7d284617352b3bc75", "fusion_lon": 0.0, "lon": -76.99708133333333, "name": "eb5228882e0a1aa7d284617352b3bc75", "is_disabled": 0, "rental_uris": {"android": "https://dc.lft.to/lastmile_qr_scan", "ios": "https://dc.lft.to/lastmile_qr_scan"}, "type": "electric_bike", "lat": 38.910960333333335, "is_reserved": 0, "fusion_lat": 0.0}, {"bike_id": "affc3c5c447ede3bb207e39d99a42804", "fusion_lon": 0.0, "lon": -76.995064, "name": "affc3c5c447ede3bb207e39d99a42804", "is_disabled": 0, "rental_uris": {"android": "https://dc.lft.to/lastmile_qr_scan", "ios": "https://dc.lft.to/lastmile_qr_scan"}, "type": "electric_scooter", "lat": 38.891627666666665, "is_reserved": 0, "fusion_lat": 0.0}, {"bike_id": "a6a73610f47326ab6abf051ebf53404f", "fusion_lon": 0.0, "lon": -77.03470616666667, "name": "a6a73610f47326ab6abf051ebf53404f", "is_disabled": 0, "rental_uris": {"android": "https://dc.lft.to/lastmile_qr_scan", "ios": "https://dc.lft.to/lastmile_qr_scan"}, "type": "electric_scooter", "lat": 38.90752916666667, "is_reserved": 0, "fusion_lat": 0.0}, {"bike_id": "96dfeb50b01403d82dc1d06f01801b7e", "fusion_lon": 0.0, "lon": -77.02709266666666, "name": "96dfeb50b01403d82dc1d06f01801b7e", "is_disabled": 0, "rental_uris": {"android": "https://dc.lft.to/lastmile_qr_scan", "ios": "https://dc.lft.to/lastmile_qr_scan"}, "type": "electric_scooter", "lat": 38.92875516666667, "is_reserved": 0, "fusion_lat": 0.0}, {"bike_id": "5cbcef82e6c2f54eb36fe00058851ef5", "fusion_lon": 0.0, "lon": -76.99776933333334, "name": "5cbcef82e6c2f54eb36fe00058851ef5", "is_disabled": 0, "rental_uris": {"android": "https://dc.lft.to/lastmile_qr_scan", "ios": "https://dc.lft.to/lastmile_qr_scan"}, "type": "electric_scooter", "lat": 38.84428666666667, "is_reserved": 0, "fusion_lat": 0.0}, {"bike_id": "9530e74b08707fd3adeb8d63635c9320", "fusion_lon": 0.0, "lon": -76.9463785, "name": "9530e74b08707fd3adeb8d63635c9320", "is_disabled": 0, "rental_uris": {"android": "https://dc.lft.to/lastmile_qr_scan", "ios": "https://dc.lft.to/lastmile_qr_scan"}, "type": "electric_scooter", "lat": 38.89844983333333, "is_reserved": 0, "fusion_lat": 0.0}, {"bike_id": "ae3fb07833cc47092269bba1c43fd30b", "fusion_lon": 0.0, "lon": -76.95755816666667, "name": "ae3fb07833cc47092269bba1c43fd30b", "is_disabled": 0, "rental_uris": {"android": "https://dc.lft.to/lastmile_qr_scan", "ios": "https://dc.lft.to/lastmile_qr_scan"}, "type": "electric_scooter", "lat": 38.884294, "is_reserved": 0, "fusion_lat": 0.0}, {"bike_id": "f2a6f402a5446886b74e4c4c63f37d6d", "fusion_lon": 0.0, "lon": -77.00335983333333, "name": "f2a6f402a5446886b74e4c4c63f37d6d", "is_disabled": 0, "rental_uris": {"android": "https://dc.lft.to/lastmile_qr_scan", "ios": "https://dc.lft.to/lastmile_qr_scan"}, "type": "electric_scooter", "lat": 38.895224, "is_reserved": 0, "fusion_lat": 0.0}, {"bike_id": "ebb4ddb9bc748b7c9e84a82d04ebce65", "fusion_lon": 0.0, "lon": -76.9977895, "name": "ebb4ddb9bc748b7c9e84a82d04ebce65", "is_disabled": 0, "rental_uris": {"android": "https://dc.lft.to/lastmile_qr_scan", "ios": "https://dc.lft.to/lastmile_qr_scan"}, "type": "electric_scooter", "lat": 38.844319166666665, "is_reserved": 0, "fusion_lat": 0.0}, {"bike_id": "f30bb90b8a4a70f793745e2557c305b1", "fusion_lon": 0.0, "lon": -77.0203225, "name": "f30bb90b8a4a70f793745e2557c305b1", "is_disabled": 0, "rental_uris": {"android": "https://dc.lft.to/lastmile_qr_scan", "ios": "https://dc.lft.to/lastmile_qr_scan"}, "type": "electric_scooter", "lat": 38.924142333333336, "is_reserved": 0, "fusion_lat": 0.0}, {"bike_id": "34d63a736cf29bf4e6e8727e96d21c85", "fusion_lon": 0.0, "lon": -77.050195, "name": "34d63a736cf29bf4e6e8727e96d21c85", "is_disabled": 0, "rental_uris": {"android": "https://dc.lft.to/lastmile_qr_scan", "ios": "https://dc.lft.to/lastmile_qr_scan"}, "type": "electric_scooter", "lat": 38.90083933333333, "is_reserved": 0, "fusion_lat": 0.0}, {"bike_id": "b01e37c06c2dd1e3d29de4a7f2583800", "fusion_lon": 0.0, "lon": -76.971587, "name": "b01e37c06c2dd1e3d29de4a7f2583800", "is_disabled": 0, "rental_uris": {"android": "https://dc.lft.to/lastmile_qr_scan", "ios": "https://dc.lft.to/lastmile_qr_scan"}, "type": "electric_bike", "lat": 38.85728966666667, "is_reserved": 0, "fusion_lat": 0.0}, {"bike_id": "ccd33afdf3b02579bd2c9a95938fe191", "fusion_lon": 0.0, "lon": -76.93751433333334, "name": "ccd33afdf3b02579bd2c9a95938fe191", "is_disabled": 0, "rental_uris": {"android": "https://dc.lft.to/lastmile_qr_scan", "ios": "https://dc.lft.to/lastmile_qr_scan"}, "type": "electric_scooter", "lat": 38.89040416666667, "is_reserved": 0, "fusion_lat": 0.0}, {"bike_id": "2f2210606a56eede6fa6b9132e3ad3e2", "fusion_lon": 0.0, "lon": -77.1582215, "name": "2f2210606a56eede6fa6b9132e3ad3e2", "is_disabled": 0, "rental_uris": {"android": "https://dc.lft.to/lastmile_qr_scan", "ios": "https://dc.lft.to/lastmile_qr_scan"}, "type": "electric_bike", "lat": 38.89449583333333, "is_reserved": 0, "fusion_lat": 0.0}, {"bike_id": "e7f4296dc5d51b0b0d7bc84b4b7b568a", "fusion_lon": 0.0, "lon": -77.0352765, "name": "e7f4296dc5d51b0b0d7bc84b4b7b568a", "is_disabled": 0, "rental_uris": {"android": "https://dc.lft.to/lastmile_qr_scan", "ios": "https://dc.lft.to/lastmile_qr_scan"}, "type": "electric_scooter", "lat": 38.924716, "is_reserved": 0, "fusion_lat": 0.0}, {"bike_id": "3eef740cb13dd3a1aa43564fc11609a1", "fusion_lon": 0.0, "lon": -77.05861516666667, "name": "3eef740cb13dd3a1aa43564fc11609a1", "is_disabled": 0, "rental_uris": {"android": "https://dc.lft.to/lastmile_qr_scan", "ios": "https://dc.lft.to/lastmile_qr_scan"}, "type": "electric_scooter", "lat": 38.935982833333334, "is_reserved": 0, "fusion_lat": 0.0}, {"bike_id": "10884bdba9970d7e7ef90f8896d3cbb0", "fusion_lon": 0.0, "lon": -77.04487316666666, "name": "10884bdba9970d7e7ef90f8896d3cbb0", "is_disabled": 0, "rental_uris": {"android": "https://dc.lft.to/lastmile_qr_scan", "ios": "https://dc.lft.to/lastmile_qr_scan"}, "type": "electric_scooter", "lat": 38.903636166666665, "is_reserved": 0, "fusion_lat": 0.0}, {"bike_id": "4bb12a01f6eb6603ceec1d65e5e00257", "fusion_lon": 0.0, "lon": -77.03161083333333, "name": "4bb12a01f6eb6603ceec1d65e5e00257", "is_disabled": 0, "rental_uris": {"android": "https://dc.lft.to/lastmile_qr_scan", "ios": "https://dc.lft.to/lastmile_qr_scan"}, "type": "electric_scooter", "lat": 38.89224, "is_reserved": 0, "fusion_lat": 0.0}, {"bike_id": "d6b640f4b747c97a12b0e636b7ed8714", "fusion_lon": 0.0, "lon": -77.03877866666667, "name": "d6b640f4b747c97a12b0e636b7ed8714", "is_disabled": 0, "rental_uris": {"android": "https://dc.lft.to/lastmile_qr_scan", "ios": "https://dc.lft.to/lastmile_qr_scan"}, "type": "electric_scooter", "lat": 38.931256833333336, "is_reserved": 0, "fusion_lat": 0.0}, {"bike_id": "29c6035907fa34b71c4440e8ca355cfe", "fusion_lon": 0.0, "lon": -77.0278275, "name": "29c6035907fa34b71c4440e8ca355cfe", "is_disabled": 0, "rental_uris": {"android": "https://dc.lft.to/lastmile_qr_scan", "ios": "https://dc.lft.to/lastmile_qr_scan"}, "type": "electric_scooter", "lat": 38.894940166666665, "is_reserved": 0, "fusion_lat": 0.0}, {"bike_id": "f255e0d1f483bc2c9a086454fd78b293", "fusion_lon": 0.0, "lon": -77.03461833333333, "name": "f255e0d1f483bc2c9a086454fd78b293", "is_disabled": 0, "rental_uris": {"android": "https://dc.lft.to/lastmile_qr_scan", "ios": "https://dc.lft.to/lastmile_qr_scan"}, "type": "electric_scooter", "lat": 38.93543783333333, "is_reserved": 0, "fusion_lat": 0.0}, {"bike_id": "cbc76d7461baf6c0f3303f2de5727ef2", "fusion_lon": 0.0, "lon": -77.06521766666667, "name": "cbc76d7461baf6c0f3303f2de5727ef2", "is_disabled": 0, "rental_uris": {"android": "https://dc.lft.to/lastmile_qr_scan", "ios": "https://dc.lft.to/lastmile_qr_scan"}, "type": "electric_scooter", "lat": 38.90585883333333, "is_reserved": 0, "fusion_lat": 0.0}, {"bike_id": "d9e26447c8384244e8f29deb64924aed", "fusion_lon": 0.0, "lon": -77.041275, "name": "d9e26447c8384244e8f29deb64924aed", "is_disabled": 0, "rental_uris": {"android": "https://dc.lft.to/lastmile_qr_scan", "ios": "https://dc.lft.to/lastmile_qr_scan"}, "type": "electric_scooter", "lat": 38.93372566666667, "is_reserved": 0, "fusion_lat": 0.0}, {"bike_id": "becc502f539eeaf28cfe3f4dbdc91251", "fusion_lon": 0.0, "lon": -76.9936385, "name": "becc502f539eeaf28cfe3f4dbdc91251", "is_disabled": 0, "rental_uris": {"android": "https://dc.lft.to/lastmile_qr_scan", "ios": "https://dc.lft.to/lastmile_qr_scan"}, "type": "electric_scooter", "lat": 38.92835783333334, "is_reserved": 0, "fusion_lat": 0.0}, {"bike_id": "dbb49ed1460b5962ee7d1b2691b36074", "fusion_lon": 0.0, "lon": -77.02385016666666, "name": "dbb49ed1460b5962ee7d1b2691b36074", "is_disabled": 0, "rental_uris": {"android": "https://dc.lft.to/lastmile_qr_scan", "ios": "https://dc.lft.to/lastmile_qr_scan"}, "type": "electric_scooter", "lat": 38.91983883333333, "is_reserved": 0, "fusion_lat": 0.0}, {"bike_id": "740e6ea95f7a01ad8d3319ede810efff", "fusion_lon": 0.0, "lon": -77.04181566666666, "name": "740e6ea95f7a01ad8d3319ede810efff", "is_disabled": 0, "rental_uris": {"android": "https://dc.lft.to/lastmile_qr_scan", "ios": "https://dc.lft.to/lastmile_qr_scan"}, "type": "electric_scooter", "lat": 38.89303366666667, "is_reserved": 0, "fusion_lat": 0.0}, {"bike_id": "bb6f057098a9b97cc8c57a15ac5c6932", "fusion_lon": 0.0, "lon": -77.01133666666666, "name": "bb6f057098a9b97cc8c57a15ac5c6932", "is_disabled": 0, "rental_uris": {"android": "https://dc.lft.to/lastmile_qr_scan", "ios": "https://dc.lft.to/lastmile_qr_scan"}, "type": "electric_scooter", "lat": 38.90731133333333, "is_reserved": 0, "fusion_lat": 0.0}, {"bike_id": "4320d90ad5781de8d99cdad03bfc618c", "fusion_lon": 0.0, "lon": -77.021732, "name": "4320d90ad5781de8d99cdad03bfc618c", "is_disabled": 0, "rental_uris": {"android": "https://dc.lft.to/lastmile_qr_scan", "ios": "https://dc.lft.to/lastmile_qr_scan"}, "type": "electric_scooter", "lat": 38.9059015, "is_reserved": 0, "fusion_lat": 0.0}, {"bike_id": "17521589ebcb818eb2e7190e0e9d8659", "fusion_lon": 0.0, "lon": -77.02587633333333, "name": "17521589ebcb818eb2e7190e0e9d8659", "is_disabled": 0, "rental_uris": {"android": "https://dc.lft.to/lastmile_qr_scan", "ios": "https://dc.lft.to/lastmile_qr_scan"}, "type": "electric_scooter", "lat": 38.9050565, "is_reserved": 0, "fusion_lat": 0.0}, {"bike_id": "067ba2035434aa167f86a3a563a1c55d", "fusion_lon": 0.0, "lon": -77.01967666666667, "name": "067ba2035434aa167f86a3a563a1c55d", "is_disabled": 0, "rental_uris": {"android": "https://dc.lft.to/lastmile_qr_scan", "ios": "https://dc.lft.to/lastmile_qr_scan"}, "type": "electric_scooter", "lat": 38.956485666666666, "is_reserved": 0, "fusion_lat": 0.0}, {"bike_id": "b2fd7fd10030bd495ddcae0bc2f2f20e", "fusion_lon": 0.0, "lon": -77.045304, "name": "b2fd7fd10030bd495ddcae0bc2f2f20e", "is_disabled": 0, "rental_uris": {"android": "https://dc.lft.to/lastmile_qr_scan", "ios": "https://dc.lft.to/lastmile_qr_scan"}, "type": "electric_scooter", "lat": 38.90376783333333, "is_reserved": 0, "fusion_lat": 0.0}, {"bike_id": "be53c12c14570e1581114030a9a5a291", "fusion_lon": 0.0, "lon": -77.12729316666666, "name": "be53c12c14570e1581114030a9a5a291", "is_disabled": 0, "rental_uris": {"android": "https://dc.lft.to/lastmile_qr_scan", "ios": "https://dc.lft.to/lastmile_qr_scan"}, "type": "electric_bike", "lat": 38.895597333333335, "is_reserved": 0, "fusion_lat": 0.0}, {"bike_id": "02d87f7798d0cebc86bc7eadeefed5df", "fusion_lon": 0.0, "lon": -77.0269455, "name": "02d87f7798d0cebc86bc7eadeefed5df", "is_disabled": 0, "rental_uris": {"android": "https://dc.lft.to/lastmile_qr_scan", "ios": "https://dc.lft.to/lastmile_qr_scan"}, "type": "electric_scooter", "lat": 38.91123183333333, "is_reserved": 0, "fusion_lat": 0.0}, {"bike_id": "8ce9b2d11bda5ee54d504fb95e70cb66", "fusion_lon": 0.0, "lon": -77.05266433333334, "name": "8ce9b2d11bda5ee54d504fb95e70cb66", "is_disabled": 0, "rental_uris": {"android": "https://dc.lft.to/lastmile_qr_scan", "ios": "https://dc.lft.to/lastmile_qr_scan"}, "type": "electric_scooter", "lat": 38.92533183333333, "is_reserved": 0, "fusion_lat": 0.0}, {"bike_id": "0a203ae3419a5a58a02427bb896d2b47", "fusion_lon": 0.0, "lon": -77.02206566666666, "name": "0a203ae3419a5a58a02427bb896d2b47", "is_disabled": 0, "rental_uris": {"android": "https://dc.lft.to/lastmile_qr_scan", "ios": "https://dc.lft.to/lastmile_qr_scan"}, "type": "electric_scooter", "lat": 38.87891183333333, "is_reserved": 0, "fusion_lat": 0.0}, {"bike_id": "068d21606e43fae2b3bcc96f19883670", "fusion_lon": 0.0, "lon": -77.02727483333334, "name": "068d21606e43fae2b3bcc96f19883670", "is_disabled": 0, "rental_uris": {"android": "https://dc.lft.to/lastmile_qr_scan", "ios": "https://dc.lft.to/lastmile_qr_scan"}, "type": "electric_scooter", "lat": 38.928316, "is_reserved": 0, "fusion_lat": 0.0}, {"bike_id": "91d0ecee24b66047141ddba234abb445", "fusion_lon": 0.0, "lon": -76.98886666666667, "name": "91d0ecee24b66047141ddba234abb445", "is_disabled": 0, "rental_uris": {"android": "https://dc.lft.to/lastmile_qr_scan", "ios": "https://dc.lft.to/lastmile_qr_scan"}, "type": "electric_scooter", "lat": 38.86653316666667, "is_reserved": 0, "fusion_lat": 0.0}, {"bike_id": "44cbba90c539f3cc1155546bc0c3f1c9", "fusion_lon": 0.0, "lon": -77.04143583333334, "name": "44cbba90c539f3cc1155546bc0c3f1c9", "is_disabled": 0, "rental_uris": {"android": "https://dc.lft.to/lastmile_qr_scan", "ios": "https://dc.lft.to/lastmile_qr_scan"}, "type": "electric_scooter", "lat": 38.915555499999996, "is_reserved": 0, "fusion_lat": 0.0}, {"bike_id": "7fc8f2e09a90add49eb09ad43201a926", "fusion_lon": 0.0, "lon": -76.9996435, "name": "7fc8f2e09a90add49eb09ad43201a926", "is_disabled": 0, "rental_uris": {"android": "https://dc.lft.to/lastmile_qr_scan", "ios": "https://dc.lft.to/lastmile_qr_scan"}, "type": "electric_bike", "lat": 38.92148733333333, "is_reserved": 0, "fusion_lat": 0.0}, {"bike_id": "57db04a024abe40751184b00b00c2a5e", "fusion_lon": 0.0, "lon": -76.98686616666667, "name": "57db04a024abe40751184b00b00c2a5e", "is_disabled": 0, "rental_uris": {"android": "https://dc.lft.to/lastmile_qr_scan", "ios": "https://dc.lft.to/lastmile_qr_scan"}, "type": "electric_bike", "lat": 38.94473283333333, "is_reserved": 0, "fusion_lat": 0.0}, {"bike_id": "437ee220a6373a7d163f2396f90bd7e4", "fusion_lon": 0.0, "lon": -77.0599295, "name": "437ee220a6373a7d163f2396f90bd7e4", "is_disabled": 0, "rental_uris": {"android": "https://dc.lft.to/lastmile_qr_scan", "ios": "https://dc.lft.to/lastmile_qr_scan"}, "type": "electric_scooter", "lat": 38.901755333333334, "is_reserved": 0, "fusion_lat": 0.0}, {"bike_id": "1ccf41aef9c711c2ee7e248d39b5d5d7", "fusion_lon": 0.0, "lon": -77.024078, "name": "1ccf41aef9c711c2ee7e248d39b5d5d7", "is_disabled": 0, "rental_uris": {"android": "https://dc.lft.to/lastmile_qr_scan", "ios": "https://dc.lft.to/lastmile_qr_scan"}, "type": "electric_scooter", "lat": 38.915274833333335, "is_reserved": 0, "fusion_lat": 0.0}, {"bike_id": "538ec40fcf9358a9961098e162b93736", "fusion_lon": 0.0, "lon": -77.014128, "name": "538ec40fcf9358a9961098e162b93736", "is_disabled": 0, "rental_uris": {"android": "https://dc.lft.to/lastmile_qr_scan", "ios": "https://dc.lft.to/lastmile_qr_scan"}, "type": "electric_scooter", "lat": 38.92807716666667, "is_reserved": 0, "fusion_lat": 0.0}, {"bike_id": "6fa1b553adc60ed4350cd6caa023c8f3", "fusion_lon": 0.0, "lon": -77.0271535, "name": "6fa1b553adc60ed4350cd6caa023c8f3", "is_disabled": 0, "rental_uris": {"android": "https://dc.lft.to/lastmile_qr_scan", "ios": "https://dc.lft.to/lastmile_qr_scan"}, "type": "electric_scooter", "lat": 38.90953366666667, "is_reserved": 0, "fusion_lat": 0.0}, {"bike_id": "37e62744ed36404197a43f1eaadf3fe3", "fusion_lon": 0.0, "lon": -76.99901666666666, "name": "37e62744ed36404197a43f1eaadf3fe3", "is_disabled": 0, "rental_uris": {"android": "https://dc.lft.to/lastmile_qr_scan", "ios": "https://dc.lft.to/lastmile_qr_scan"}, "type": "electric_scooter", "lat": 38.94825433333333, "is_reserved": 0, "fusion_lat": 0.0}, {"bike_id": "84dd7baad2a4dd8b633996192a95214c", "fusion_lon": 0.0, "lon": -76.98712083333334, "name": "84dd7baad2a4dd8b633996192a95214c", "is_disabled": 0, "rental_uris": {"android": "https://dc.lft.to/lastmile_qr_scan", "ios": "https://dc.lft.to/lastmile_qr_scan"}, "type": "electric_scooter", "lat": 38.90068333333333, "is_reserved": 0, "fusion_lat": 0.0}, {"bike_id": "bfa9f4372e56acfc0f82d0617fb7e4a3", "fusion_lon": 0.0, "lon": -77.02489683333333, "name": "bfa9f4372e56acfc0f82d0617fb7e4a3", "is_disabled": 0, "rental_uris": {"android": "https://dc.lft.to/lastmile_qr_scan", "ios": "https://dc.lft.to/lastmile_qr_scan"}, "type": "electric_scooter", "lat": 38.94310333333333, "is_reserved": 0, "fusion_lat": 0.0}, {"bike_id": "a56572de817e7802d228e855d18c7a17", "fusion_lon": 0.0, "lon": -77.05129866666667, "name": "a56572de817e7802d228e855d18c7a17", "is_disabled": 0, "rental_uris": {"android": "https://dc.lft.to/lastmile_qr_scan", "ios": "https://dc.lft.to/lastmile_qr_scan"}, "type": "electric_scooter", "lat": 38.90514066666667, "is_reserved": 0, "fusion_lat": 0.0}, {"bike_id": "1d5e509998a07f7733902a3ba8b802e6", "fusion_lon": 0.0, "lon": -77.0244695, "name": "1d5e509998a07f7733902a3ba8b802e6", "is_disabled": 0, "rental_uris": {"android": "https://dc.lft.to/lastmile_qr_scan", "ios": "https://dc.lft.to/lastmile_qr_scan"}, "type": "electric_scooter", "lat": 38.91265516666667, "is_reserved": 0, "fusion_lat": 0.0}, {"bike_id": "f8564914e8f19e0fdd2b19d9e8953837", "fusion_lon": 0.0, "lon": -77.055427, "name": "f8564914e8f19e0fdd2b19d9e8953837", "is_disabled": 0, "rental_uris": {"android": "https://dc.lft.to/lastmile_qr_scan", "ios": "https://dc.lft.to/lastmile_qr_scan"}, "type": "electric_scooter", "lat": 38.93006616666667, "is_reserved": 0, "fusion_lat": 0.0}, {"bike_id": "d4951e4141c4f667127a9e4e121536a7", "fusion_lon": 0.0, "lon": -76.98826833333334, "name": "d4951e4141c4f667127a9e4e121536a7", "is_disabled": 0, "rental_uris": {"android": "https://dc.lft.to/lastmile_qr_scan", "ios": "https://dc.lft.to/lastmile_qr_scan"}, "type": "electric_scooter", "lat": 38.892542166666665, "is_reserved": 0, "fusion_lat": 0.0}, {"bike_id": "8d0905348b56f94aeb8935e94a1b389f", "fusion_lon": 0.0, "lon": -77.03260133333333, "name": "8d0905348b56f94aeb8935e94a1b389f", "is_disabled": 0, "rental_uris": {"android": "https://dc.lft.to/lastmile_qr_scan", "ios": "https://dc.lft.to/lastmile_qr_scan"}, "type": "electric_scooter", "lat": 38.914053333333335, "is_reserved": 0, "fusion_lat": 0.0}, {"bike_id": "7be18173b6f9075b3d11370ab0975361", "fusion_lon": 0.0, "lon": -77.0250485, "name": "7be18173b6f9075b3d11370ab0975361", "is_disabled": 0, "rental_uris": {"android": "https://dc.lft.to/lastmile_qr_scan", "ios": "https://dc.lft.to/lastmile_qr_scan"}, "type": "electric_scooter", "lat": 38.90402, "is_reserved": 0, "fusion_lat": 0.0}, {"bike_id": "632add29c0560fc354e8e4c02ac22079", "fusion_lon": 0.0, "lon": -76.98715566666667, "name": "632add29c0560fc354e8e4c02ac22079", "is_disabled": 0, "rental_uris": {"android": "https://dc.lft.to/lastmile_qr_scan", "ios": "https://dc.lft.to/lastmile_qr_scan"}, "type": "electric_scooter", "lat": 38.866954166666666, "is_reserved": 0, "fusion_lat": 0.0}, {"bike_id": "2f2097d30cd9a9147603b6dbdb47ce02", "fusion_lon": 0.0, "lon": -77.02094266666667, "name": "2f2097d30cd9a9147603b6dbdb47ce02", "is_disabled": 0, "rental_uris": {"android": "https://dc.lft.to/lastmile_qr_scan", "ios": "https://dc.lft.to/lastmile_qr_scan"}, "type": "electric_scooter", "lat": 38.931147, "is_reserved": 0, "fusion_lat": 0.0}, {"bike_id": "66a51ce6c1bd8c401f02ca24d54fba44", "fusion_lon": 0.0, "lon": -77.01456316666666, "name": "66a51ce6c1bd8c401f02ca24d54fba44", "is_disabled": 0, "rental_uris": {"android": "https://dc.lft.to/lastmile_qr_scan", "ios": "https://dc.lft.to/lastmile_qr_scan"}, "type": "electric_scooter", "lat": 38.91823483333334, "is_reserved": 0, "fusion_lat": 0.0}, {"bike_id": "ea86dac08e5285375dd9895f1660d562", "fusion_lon": 0.0, "lon": -76.999019, "name": "ea86dac08e5285375dd9895f1660d562", "is_disabled": 0, "rental_uris": {"android": "https://dc.lft.to/lastmile_qr_scan", "ios": "https://dc.lft.to/lastmile_qr_scan"}, "type": "electric_scooter", "lat": 38.94689616666667, "is_reserved": 0, "fusion_lat": 0.0}, {"bike_id": "c916f6810c5e69aa9939f13729327d65", "fusion_lon": 0.0, "lon": -77.0270775, "name": "c916f6810c5e69aa9939f13729327d65", "is_disabled": 0, "rental_uris": {"android": "https://dc.lft.to/lastmile_qr_scan", "ios": "https://dc.lft.to/lastmile_qr_scan"}, "type": "electric_scooter", "lat": 38.90667916666666, "is_reserved": 0, "fusion_lat": 0.0}, {"bike_id": "45b1162d151a847772747f42e01b496b", "fusion_lon": 0.0, "lon": -77.03248233333333, "name": "45b1162d151a847772747f42e01b496b", "is_disabled": 0, "rental_uris": {"android": "https://dc.lft.to/lastmile_qr_scan", "ios": "https://dc.lft.to/lastmile_qr_scan"}, "type": "electric_scooter", "lat": 38.9191865, "is_reserved": 0, "fusion_lat": 0.0}, {"bike_id": "d6b8a008007dd1efd10ff6148a47b5ed", "fusion_lon": 0.0, "lon": -77.07721016666666, "name": "d6b8a008007dd1efd10ff6148a47b5ed", "is_disabled": 0, "rental_uris": {"android": "https://dc.lft.to/lastmile_qr_scan", "ios": "https://dc.lft.to/lastmile_qr_scan"}, "type": "electric_scooter", "lat": 38.95766783333333, "is_reserved": 0, "fusion_lat": 0.0}, {"bike_id": "dde8914b9ab5dfaf0edc068ec813fca0", "fusion_lon": 0.0, "lon": -77.02344716666667, "name": "dde8914b9ab5dfaf0edc068ec813fca0", "is_disabled": 0, "rental_uris": {"android": "https://dc.lft.to/lastmile_qr_scan", "ios": "https://dc.lft.to/lastmile_qr_scan"}, "type": "electric_scooter", "lat": 38.946128333333334, "is_reserved": 0, "fusion_lat": 0.0}, {"bike_id": "34d1a9055bf8cdbd1a421c4744deee27", "fusion_lon": 0.0, "lon": -77.052234, "name": "34d1a9055bf8cdbd1a421c4744deee27", "is_disabled": 0, "rental_uris": {"android": "https://dc.lft.to/lastmile_qr_scan", "ios": "https://dc.lft.to/lastmile_qr_scan"}, "type": "electric_scooter", "lat": 38.9245845, "is_reserved": 0, "fusion_lat": 0.0}, {"bike_id": "35745586fe1cb9e3fcc54e77408674f4", "fusion_lon": 0.0, "lon": -77.04331966666666, "name": "35745586fe1cb9e3fcc54e77408674f4", "is_disabled": 0, "rental_uris": {"android": "https://dc.lft.to/lastmile_qr_scan", "ios": "https://dc.lft.to/lastmile_qr_scan"}, "type": "electric_scooter", "lat": 38.89220783333333, "is_reserved": 0, "fusion_lat": 0.0}, {"bike_id": "d475d6c9d047a68446524b3136c17862", "fusion_lon": 0.0, "lon": -76.99565533333333, "name": "d475d6c9d047a68446524b3136c17862", "is_disabled": 0, "rental_uris": {"android": "https://dc.lft.to/lastmile_qr_scan", "ios": "https://dc.lft.to/lastmile_qr_scan"}, "type": "electric_scooter", "lat": 38.92019166666667, "is_reserved": 0, "fusion_lat": 0.0}, {"bike_id": "0ff903a846d456301c283e39022f5bd4", "fusion_lon": 0.0, "lon": -77.02805016666667, "name": "0ff903a846d456301c283e39022f5bd4", "is_disabled": 0, "rental_uris": {"android": "https://dc.lft.to/lastmile_qr_scan", "ios": "https://dc.lft.to/lastmile_qr_scan"}, "type": "electric_scooter", "lat": 38.916873333333335, "is_reserved": 0, "fusion_lat": 0.0}, {"bike_id": "160191f78fea76ef6f5a445d571d859f", "fusion_lon": 0.0, "lon": -77.0543535, "name": "160191f78fea76ef6f5a445d571d859f", "is_disabled": 0, "rental_uris": {"android": "https://dc.lft.to/lastmile_qr_scan", "ios": "https://dc.lft.to/lastmile_qr_scan"}, "type": "electric_scooter", "lat": 38.896004833333336, "is_reserved": 0, "fusion_lat": 0.0}, {"bike_id": "b38799b9fbf08785363285ff66c40f59", "fusion_lon": 0.0, "lon": -76.909671, "name": "b38799b9fbf08785363285ff66c40f59", "is_disabled": 0, "rental_uris": {"android": "https://dc.lft.to/lastmile_qr_scan", "ios": "https://dc.lft.to/lastmile_qr_scan"}, "type": "electric_bike", "lat": 38.854201, "is_reserved": 0, "fusion_lat": 0.0}, {"bike_id": "64a375107268f7e5e060276c0d0d81bc", "fusion_lon": 0.0, "lon": -77.0409815, "name": "64a375107268f7e5e060276c0d0d81bc", "is_disabled": 0, "rental_uris": {"android": "https://dc.lft.to/lastmile_qr_scan", "ios": "https://dc.lft.to/lastmile_qr_scan"}, "type": "electric_scooter", "lat": 38.91773666666667, "is_reserved": 0, "fusion_lat": 0.0}, {"bike_id": "8e0663a6a812a23f85d4ba2c482229b1", "fusion_lon": 0.0, "lon": -77.042011, "name": "8e0663a6a812a23f85d4ba2c482229b1", "is_disabled": 0, "rental_uris": {"android": "https://dc.lft.to/lastmile_qr_scan", "ios": "https://dc.lft.to/lastmile_qr_scan"}, "type": "electric_scooter", "lat": 38.91124516666667, "is_reserved": 0, "fusion_lat": 0.0}, {"bike_id": "c0fef7902cfc145a3b72a5b1f36e7713", "fusion_lon": 0.0, "lon": -77.038384, "name": "c0fef7902cfc145a3b72a5b1f36e7713", "is_disabled": 0, "rental_uris": {"android": "https://dc.lft.to/lastmile_qr_scan", "ios": "https://dc.lft.to/lastmile_qr_scan"}, "type": "electric_scooter", "lat": 38.9316045, "is_reserved": 0, "fusion_lat": 0.0}, {"bike_id": "dabef7d40c529cea7833cfd8aaa1a3f1", "fusion_lon": 0.0, "lon": -77.02768983333333, "name": "dabef7d40c529cea7833cfd8aaa1a3f1", "is_disabled": 0, "rental_uris": {"android": "https://dc.lft.to/lastmile_qr_scan", "ios": "https://dc.lft.to/lastmile_qr_scan"}, "type": "electric_scooter", "lat": 38.954253, "is_reserved": 0, "fusion_lat": 0.0}, {"bike_id": "7e2a15f6324f1dbab68fe43dda4d6383", "fusion_lon": 0.0, "lon": -77.0351025, "name": "7e2a15f6324f1dbab68fe43dda4d6383", "is_disabled": 0, "rental_uris": {"android": "https://dc.lft.to/lastmile_qr_scan", "ios": "https://dc.lft.to/lastmile_qr_scan"}, "type": "electric_scooter", "lat": 38.921490666666664, "is_reserved": 0, "fusion_lat": 0.0}, {"bike_id": "e6fa6927d1da3cadbec960f56ecb0ab7", "fusion_lon": 0.0, "lon": -76.96524066666667, "name": "e6fa6927d1da3cadbec960f56ecb0ab7", "is_disabled": 0, "rental_uris": {"android": "https://dc.lft.to/lastmile_qr_scan", "ios": "https://dc.lft.to/lastmile_qr_scan"}, "type": "electric_scooter", "lat": 38.87626433333333, "is_reserved": 0, "fusion_lat": 0.0}, {"bike_id": "90c9859d6c36f31ea56b031c763e417a", "fusion_lon": 0.0, "lon": -77.02689666666667, "name": "90c9859d6c36f31ea56b031c763e417a", "is_disabled": 0, "rental_uris": {"android": "https://dc.lft.to/lastmile_qr_scan", "ios": "https://dc.lft.to/lastmile_qr_scan"}, "type": "electric_scooter", "lat": 38.881552166666665, "is_reserved": 0, "fusion_lat": 0.0}, {"bike_id": "64fc6ab2d756d7695d0bae1bfffa0422", "fusion_lon": 0.0, "lon": -77.0575185, "name": "64fc6ab2d756d7695d0bae1bfffa0422", "is_disabled": 0, "rental_uris": {"android": "https://dc.lft.to/lastmile_qr_scan", "ios": "https://dc.lft.to/lastmile_qr_scan"}, "type": "electric_scooter", "lat": 38.92488983333333, "is_reserved": 0, "fusion_lat": 0.0}, {"bike_id": "faaba550293af4d8a922ffab8221c094", "fusion_lon": 0.0, "lon": -77.019981, "name": "faaba550293af4d8a922ffab8221c094", "is_disabled": 0, "rental_uris": {"android": "https://dc.lft.to/lastmile_qr_scan", "ios": "https://dc.lft.to/lastmile_qr_scan"}, "type": "electric_scooter", "lat": 38.96626583333333, "is_reserved": 0, "fusion_lat": 0.0}, {"bike_id": "167b42f7167e92a8660e9cfc8633d847", "fusion_lon": 0.0, "lon": -77.04981733333334, "name": "167b42f7167e92a8660e9cfc8633d847", "is_disabled": 0, "rental_uris": {"android": "https://dc.lft.to/lastmile_qr_scan", "ios": "https://dc.lft.to/lastmile_qr_scan"}, "type": "electric_bike", "lat": 39.0629955, "is_reserved": 0, "fusion_lat": 0.0}, {"bike_id": "0c3bc5757876ac94bfc762c3b03b504f", "fusion_lon": 0.0, "lon": -77.008841, "name": "0c3bc5757876ac94bfc762c3b03b504f", "is_disabled": 0, "rental_uris": {"android": "https://dc.lft.to/lastmile_qr_scan", "ios": "https://dc.lft.to/lastmile_qr_scan"}, "type": "electric_scooter", "lat": 38.92483816666667, "is_reserved": 0, "fusion_lat": 0.0}, {"bike_id": "c6da3249c37a185103fe361e7fe00aa6", "fusion_lon": 0.0, "lon": -77.048942, "name": "c6da3249c37a185103fe361e7fe00aa6", "is_disabled": 0, "rental_uris": {"android": "https://dc.lft.to/lastmile_qr_scan", "ios": "https://dc.lft.to/lastmile_qr_scan"}, "type": "electric_scooter", "lat": 38.8900295, "is_reserved": 0, "fusion_lat": 0.0}, {"bike_id": "178d2bbb0f8d4fef44c338d163a2588c", "fusion_lon": 0.0, "lon": -76.98414066666666, "name": "178d2bbb0f8d4fef44c338d163a2588c", "is_disabled": 0, "rental_uris": {"android": "https://dc.lft.to/lastmile_qr_scan", "ios": "https://dc.lft.to/lastmile_qr_scan"}, "type": "electric_bike", "lat": 38.855077333333334, "is_reserved": 0, "fusion_lat": 0.0}, {"bike_id": "deea7b7f676074befe6c558d41507b91", "fusion_lon": 0.0, "lon": -77.03212733333334, "name": "deea7b7f676074befe6c558d41507b91", "is_disabled": 0, "rental_uris": {"android": "https://dc.lft.to/lastmile_qr_scan", "ios": "https://dc.lft.to/lastmile_qr_scan"}, "type": "electric_scooter", "lat": 38.895279333333335, "is_reserved": 0, "fusion_lat": 0.0}, {"bike_id": "3ac372704b5acd21da26e051b0b5db33", "fusion_lon": 0.0, "lon": -77.02375816666667, "name": "3ac372704b5acd21da26e051b0b5db33", "is_disabled": 0, "rental_uris": {"android": "https://dc.lft.to/lastmile_qr_scan", "ios": "https://dc.lft.to/lastmile_qr_scan"}, "type": "electric_scooter", "lat": 38.901887, "is_reserved": 0, "fusion_lat": 0.0}, {"bike_id": "5a89285bae9913b0998d26dc1688dec0", "fusion_lon": 0.0, "lon": -77.00238633333333, "name": "5a89285bae9913b0998d26dc1688dec0", "is_disabled": 0, "rental_uris": {"android": "https://dc.lft.to/lastmile_qr_scan", "ios": "https://dc.lft.to/lastmile_qr_scan"}, "type": "electric_scooter", "lat": 38.88510766666667, "is_reserved": 0, "fusion_lat": 0.0}, {"bike_id": "6bf4898e67f9ec3a85e899690af7e833", "fusion_lon": 0.0, "lon": -77.0396145, "name": "6bf4898e67f9ec3a85e899690af7e833", "is_disabled": 0, "rental_uris": {"android": "https://dc.lft.to/lastmile_qr_scan", "ios": "https://dc.lft.to/lastmile_qr_scan"}, "type": "electric_scooter", "lat": 38.90266, "is_reserved": 0, "fusion_lat": 0.0}, {"bike_id": "849e24447248557e1a79a332ab6183f7", "fusion_lon": 0.0, "lon": -77.02547633333333, "name": "849e24447248557e1a79a332ab6183f7", "is_disabled": 0, "rental_uris": {"android": "https://dc.lft.to/lastmile_qr_scan", "ios": "https://dc.lft.to/lastmile_qr_scan"}, "type": "electric_scooter", "lat": 38.91635633333333, "is_reserved": 0, "fusion_lat": 0.0}, {"bike_id": "2a643f23e80af5e863c8dc9df2772abe", "fusion_lon": 0.0, "lon": -76.98770266666666, "name": "2a643f23e80af5e863c8dc9df2772abe", "is_disabled": 0, "rental_uris": {"android": "https://dc.lft.to/lastmile_qr_scan", "ios": "https://dc.lft.to/lastmile_qr_scan"}, "type": "electric_bike", "lat": 38.85771883333334, "is_reserved": 0, "fusion_lat": 0.0}, {"bike_id": "92a77db1cf96b4cb291ae26828d7a943", "fusion_lon": 0.0, "lon": -77.01024716666667, "name": "92a77db1cf96b4cb291ae26828d7a943", "is_disabled": 0, "rental_uris": {"android": "https://dc.lft.to/lastmile_qr_scan", "ios": "https://dc.lft.to/lastmile_qr_scan"}, "type": "electric_scooter", "lat": 38.91703366666667, "is_reserved": 0, "fusion_lat": 0.0}, {"bike_id": "9fd78da00b56892665c3759f12f68503", "fusion_lon": 0.0, "lon": -76.99124816666667, "name": "9fd78da00b56892665c3759f12f68503", "is_disabled": 0, "rental_uris": {"android": "https://dc.lft.to/lastmile_qr_scan", "ios": "https://dc.lft.to/lastmile_qr_scan"}, "type": "electric_scooter", "lat": 38.862051666666666, "is_reserved": 0, "fusion_lat": 0.0}, {"bike_id": "889bd0e68c7da0a4a430b47f90e27b75", "fusion_lon": 0.0, "lon": -77.0331745, "name": "889bd0e68c7da0a4a430b47f90e27b75", "is_disabled": 0, "rental_uris": {"android": "https://dc.lft.to/lastmile_qr_scan", "ios": "https://dc.lft.to/lastmile_qr_scan"}, "type": "electric_scooter", "lat": 38.913578, "is_reserved": 0, "fusion_lat": 0.0}, {"bike_id": "ae286f5f75c89583370d3f0610ad6cde", "fusion_lon": 0.0, "lon": -77.04336883333333, "name": "ae286f5f75c89583370d3f0610ad6cde", "is_disabled": 0, "rental_uris": {"android": "https://dc.lft.to/lastmile_qr_scan", "ios": "https://dc.lft.to/lastmile_qr_scan"}, "type": "electric_scooter", "lat": 38.903991500000004, "is_reserved": 0, "fusion_lat": 0.0}, {"bike_id": "81a39c29ee58450dddc6ec50a76c4731", "fusion_lon": 0.0, "lon": -77.03909616666667, "name": "81a39c29ee58450dddc6ec50a76c4731", "is_disabled": 0, "rental_uris": {"android": "https://dc.lft.to/lastmile_qr_scan", "ios": "https://dc.lft.to/lastmile_qr_scan"}, "type": "electric_scooter", "lat": 38.914153166666665, "is_reserved": 0, "fusion_lat": 0.0}, {"bike_id": "3a7a9e0b1f7ea036565808128f34faed", "fusion_lon": 0.0, "lon": -77.0440625, "name": "3a7a9e0b1f7ea036565808128f34faed", "is_disabled": 0, "rental_uris": {"android": "https://dc.lft.to/lastmile_qr_scan", "ios": "https://dc.lft.to/lastmile_qr_scan"}, "type": "electric_scooter", "lat": 38.9089855, "is_reserved": 0, "fusion_lat": 0.0}, {"bike_id": "11ffa41a58e3bba696642d4f2a58f751", "fusion_lon": 0.0, "lon": -77.02724733333334, "name": "11ffa41a58e3bba696642d4f2a58f751", "is_disabled": 0, "rental_uris": {"android": "https://dc.lft.to/lastmile_qr_scan", "ios": "https://dc.lft.to/lastmile_qr_scan"}, "type": "electric_scooter", "lat": 38.92482866666667, "is_reserved": 0, "fusion_lat": 0.0}, {"bike_id": "08924966410c918fe3870ece24ccf555", "fusion_lon": 0.0, "lon": -77.00573066666666, "name": "08924966410c918fe3870ece24ccf555", "is_disabled": 0, "rental_uris": {"android": "https://dc.lft.to/lastmile_qr_scan", "ios": "https://dc.lft.to/lastmile_qr_scan"}, "type": "electric_scooter", "lat": 38.8731575, "is_reserved": 0, "fusion_lat": 0.0}, {"bike_id": "8326c39c5ac14aedbe0ddb1b0b1cf06d", "fusion_lon": 0.0, "lon": -77.02716116666667, "name": "8326c39c5ac14aedbe0ddb1b0b1cf06d", "is_disabled": 0, "rental_uris": {"android": "https://dc.lft.to/lastmile_qr_scan", "ios": "https://dc.lft.to/lastmile_qr_scan"}, "type": "electric_scooter", "lat": 38.916928, "is_reserved": 0, "fusion_lat": 0.0}, {"bike_id": "b6ff41d1c9c3fcdf27db8a4b9546fc8a", "fusion_lon": 0.0, "lon": -77.03293666666667, "name": "b6ff41d1c9c3fcdf27db8a4b9546fc8a", "is_disabled": 0, "rental_uris": {"android": "https://dc.lft.to/lastmile_qr_scan", "ios": "https://dc.lft.to/lastmile_qr_scan"}, "type": "electric_scooter", "lat": 38.947145166666665, "is_reserved": 0, "fusion_lat": 0.0}, {"bike_id": "08a411d532acb08520e5cf6a9b5824e4", "fusion_lon": 0.0, "lon": -77.04011366666667, "name": "08a411d532acb08520e5cf6a9b5824e4", "is_disabled": 0, "rental_uris": {"android": "https://dc.lft.to/lastmile_qr_scan", "ios": "https://dc.lft.to/lastmile_qr_scan"}, "type": "electric_scooter", "lat": 38.918223, "is_reserved": 0, "fusion_lat": 0.0}, {"bike_id": "19bb49c8ab079fac2cebc5bba74c42d2", "fusion_lon": 0.0, "lon": -77.04177133333333, "name": "19bb49c8ab079fac2cebc5bba74c42d2", "is_disabled": 0, "rental_uris": {"android": "https://dc.lft.to/lastmile_qr_scan", "ios": "https://dc.lft.to/lastmile_qr_scan"}, "type": "electric_scooter", "lat": 38.89289616666667, "is_reserved": 0, "fusion_lat": 0.0}, {"bike_id": "ac572d04d677c7ca9e2d37e3de7a735f", "fusion_lon": 0.0, "lon": -77.0248915, "name": "ac572d04d677c7ca9e2d37e3de7a735f", "is_disabled": 0, "rental_uris": {"android": "https://dc.lft.to/lastmile_qr_scan", "ios": "https://dc.lft.to/lastmile_qr_scan"}, "type": "electric_scooter", "lat": 38.94183616666667, "is_reserved": 0, "fusion_lat": 0.0}, {"bike_id": "ef98d6b05e3a383461311e9846c71d8b", "fusion_lon": 0.0, "lon": -77.02989883333333, "name": "ef98d6b05e3a383461311e9846c71d8b", "is_disabled": 0, "rental_uris": {"android": "https://dc.lft.to/lastmile_qr_scan", "ios": "https://dc.lft.to/lastmile_qr_scan"}, "type": "electric_scooter", "lat": 38.923740333333335, "is_reserved": 0, "fusion_lat": 0.0}, {"bike_id": "da6da0e52b41b7285e75d378ec660180", "fusion_lon": 0.0, "lon": -76.98130116666667, "name": "da6da0e52b41b7285e75d378ec660180", "is_disabled": 0, "rental_uris": {"android": "https://dc.lft.to/lastmile_qr_scan", "ios": "https://dc.lft.to/lastmile_qr_scan"}, "type": "electric_scooter", "lat": 38.905019333333335, "is_reserved": 0, "fusion_lat": 0.0}, {"bike_id": "ce8b45e00c2aac7c01a00e13ed7c7822", "fusion_lon": 0.0, "lon": -77.03371266666667, "name": "ce8b45e00c2aac7c01a00e13ed7c7822", "is_disabled": 0, "rental_uris": {"android": "https://dc.lft.to/lastmile_qr_scan", "ios": "https://dc.lft.to/lastmile_qr_scan"}, "type": "electric_scooter", "lat": 38.89838, "is_reserved": 0, "fusion_lat": 0.0}, {"bike_id": "1d07f6f76121abbd4c85079cb62a1f8a", "fusion_lon": 0.0, "lon": -77.01609766666667, "name": "1d07f6f76121abbd4c85079cb62a1f8a", "is_disabled": 0, "rental_uris": {"android": "https://dc.lft.to/lastmile_qr_scan", "ios": "https://dc.lft.to/lastmile_qr_scan"}, "type": "electric_scooter", "lat": 38.89974183333333, "is_reserved": 0, "fusion_lat": 0.0}, {"bike_id": "7af3923fc251fe161ca0a51bb7759055", "fusion_lon": 0.0, "lon": -77.03293166666667, "name": "7af3923fc251fe161ca0a51bb7759055", "is_disabled": 0, "rental_uris": {"android": "https://dc.lft.to/lastmile_qr_scan", "ios": "https://dc.lft.to/lastmile_qr_scan"}, "type": "electric_scooter", "lat": 38.9198595, "is_reserved": 0, "fusion_lat": 0.0}, {"bike_id": "69e655519e17c8571ed0313d3801369f", "fusion_lon": 0.0, "lon": -77.00338933333333, "name": "69e655519e17c8571ed0313d3801369f", "is_disabled": 0, "rental_uris": {"android": "https://dc.lft.to/lastmile_qr_scan", "ios": "https://dc.lft.to/lastmile_qr_scan"}, "type": "electric_scooter", "lat": 38.901193166666665, "is_reserved": 0, "fusion_lat": 0.0}, {"bike_id": "30604eb34aa9f20aa402b353ab48e67f", "fusion_lon": 0.0, "lon": -77.120772, "name": "30604eb34aa9f20aa402b353ab48e67f", "is_disabled": 0, "rental_uris": {"android": "https://dc.lft.to/lastmile_qr_scan", "ios": "https://dc.lft.to/lastmile_qr_scan"}, "type": "electric_bike", "lat": 38.854246333333336, "is_reserved": 0, "fusion_lat": 0.0}, {"bike_id": "88e981b855ff0c5ac4f9b904f92dfa03", "fusion_lon": 0.0, "lon": -77.05397366666666, "name": "88e981b855ff0c5ac4f9b904f92dfa03", "is_disabled": 0, "rental_uris": {"android": "https://dc.lft.to/lastmile_qr_scan", "ios": "https://dc.lft.to/lastmile_qr_scan"}, "type": "electric_scooter", "lat": 38.928108333333334, "is_reserved": 0, "fusion_lat": 0.0}, {"bike_id": "0d9a1719daeb39045ba9739151b6ae40", "fusion_lon": 0.0, "lon": -77.04322716666667, "name": "0d9a1719daeb39045ba9739151b6ae40", "is_disabled": 0, "rental_uris": {"android": "https://dc.lft.to/lastmile_qr_scan", "ios": "https://dc.lft.to/lastmile_qr_scan"}, "type": "electric_bike", "lat": 38.906510833333336, "is_reserved": 0, "fusion_lat": 0.0}, {"bike_id": "1fbc47ce69a2d1d303de63633788b8c3", "fusion_lon": 0.0, "lon": -77.0310995, "name": "1fbc47ce69a2d1d303de63633788b8c3", "is_disabled": 0, "rental_uris": {"android": "https://dc.lft.to/lastmile_qr_scan", "ios": "https://dc.lft.to/lastmile_qr_scan"}, "type": "electric_scooter", "lat": 38.8984135, "is_reserved": 0, "fusion_lat": 0.0}, {"bike_id": "684c0a6e851bd3f2dcc4270b22a2078c", "fusion_lon": 0.0, "lon": -77.01738416666667, "name": "684c0a6e851bd3f2dcc4270b22a2078c", "is_disabled": 0, "rental_uris": {"android": "https://dc.lft.to/lastmile_qr_scan", "ios": "https://dc.lft.to/lastmile_qr_scan"}, "type": "electric_scooter", "lat": 38.911138, "is_reserved": 0, "fusion_lat": 0.0}, {"bike_id": "19e7b377137b1adb16709d051c8da1f0", "fusion_lon": 0.0, "lon": -77.01218566666667, "name": "19e7b377137b1adb16709d051c8da1f0", "is_disabled": 0, "rental_uris": {"android": "https://dc.lft.to/lastmile_qr_scan", "ios": "https://dc.lft.to/lastmile_qr_scan"}, "type": "electric_scooter", "lat": 38.91530183333333, "is_reserved": 0, "fusion_lat": 0.0}, {"bike_id": "f4ffaf971a586090ce18ba1543745b38", "fusion_lon": 0.0, "lon": -76.95410416666667, "name": "f4ffaf971a586090ce18ba1543745b38", "is_disabled": 0, "rental_uris": {"android": "https://dc.lft.to/lastmile_qr_scan", "ios": "https://dc.lft.to/lastmile_qr_scan"}, "type": "electric_bike", "lat": 38.88998316666667, "is_reserved": 0, "fusion_lat": 0.0}, {"bike_id": "f5b6d0f2412723566c6de45de8ce016b", "fusion_lon": 0.0, "lon": -77.038263, "name": "f5b6d0f2412723566c6de45de8ce016b", "is_disabled": 0, "rental_uris": {"android": "https://dc.lft.to/lastmile_qr_scan", "ios": "https://dc.lft.to/lastmile_qr_scan"}, "type": "electric_scooter", "lat": 38.9068165, "is_reserved": 0, "fusion_lat": 0.0}, {"bike_id": "7bc27e77f31d250f1622c6019e12a704", "fusion_lon": 0.0, "lon": -77.01592416666666, "name": "7bc27e77f31d250f1622c6019e12a704", "is_disabled": 0, "rental_uris": {"android": "https://dc.lft.to/lastmile_qr_scan", "ios": "https://dc.lft.to/lastmile_qr_scan"}, "type": "electric_scooter", "lat": 38.9493685, "is_reserved": 0, "fusion_lat": 0.0}, {"bike_id": "61940204f59775ad82f653357d6df2dc", "fusion_lon": 0.0, "lon": -77.02424766666667, "name": "61940204f59775ad82f653357d6df2dc", "is_disabled": 0, "rental_uris": {"android": "https://dc.lft.to/lastmile_qr_scan", "ios": "https://dc.lft.to/lastmile_qr_scan"}, "type": "electric_scooter", "lat": 38.93717916666667, "is_reserved": 0, "fusion_lat": 0.0}, {"bike_id": "75267fdc6d1dd572b6e48fe78531e864", "fusion_lon": 0.0, "lon": -76.98104833333333, "name": "75267fdc6d1dd572b6e48fe78531e864", "is_disabled": 0, "rental_uris": {"android": "https://dc.lft.to/lastmile_qr_scan", "ios": "https://dc.lft.to/lastmile_qr_scan"}, "type": "electric_bike", "lat": 38.877294166666665, "is_reserved": 0, "fusion_lat": 0.0}, {"bike_id": "baff0313d6af18103650859508aeda99", "fusion_lon": 0.0, "lon": -77.05523733333334, "name": "baff0313d6af18103650859508aeda99", "is_disabled": 0, "rental_uris": {"android": "https://dc.lft.to/lastmile_qr_scan", "ios": "https://dc.lft.to/lastmile_qr_scan"}, "type": "electric_scooter", "lat": 38.930138666666664, "is_reserved": 0, "fusion_lat": 0.0}, {"bike_id": "0590d0fd203feeeaee870e671a4e19f8", "fusion_lon": 0.0, "lon": -77.03843683333334, "name": "0590d0fd203feeeaee870e671a4e19f8", "is_disabled": 0, "rental_uris": {"android": "https://dc.lft.to/lastmile_qr_scan", "ios": "https://dc.lft.to/lastmile_qr_scan"}, "type": "electric_scooter", "lat": 38.915513, "is_reserved": 0, "fusion_lat": 0.0}, {"bike_id": "49803db935a335e7884fee91be36f1cd", "fusion_lon": 0.0, "lon": -77.02718266666666, "name": "49803db935a335e7884fee91be36f1cd", "is_disabled": 0, "rental_uris": {"android": "https://dc.lft.to/lastmile_qr_scan", "ios": "https://dc.lft.to/lastmile_qr_scan"}, "type": "electric_scooter", "lat": 38.949596, "is_reserved": 0, "fusion_lat": 0.0}, {"bike_id": "15a83ab10cf00dd01d7f832fc95a9bbd", "fusion_lon": 0.0, "lon": -77.01865583333333, "name": "15a83ab10cf00dd01d7f832fc95a9bbd", "is_disabled": 0, "rental_uris": {"android": "https://dc.lft.to/lastmile_qr_scan", "ios": "https://dc.lft.to/lastmile_qr_scan"}, "type": "electric_scooter", "lat": 38.9736875, "is_reserved": 0, "fusion_lat": 0.0}, {"bike_id": "80ce8a8221eb12e43dcb5e05ba7dc81e", "fusion_lon": 0.0, "lon": -77.03424333333334, "name": "80ce8a8221eb12e43dcb5e05ba7dc81e", "is_disabled": 0, "rental_uris": {"android": "https://dc.lft.to/lastmile_qr_scan", "ios": "https://dc.lft.to/lastmile_qr_scan"}, "type": "electric_scooter", "lat": 38.903972833333334, "is_reserved": 0, "fusion_lat": 0.0}, {"bike_id": "cb3d7ae2cdac5b17b0dc6d69d3af57da", "fusion_lon": 0.0, "lon": -77.058545, "name": "cb3d7ae2cdac5b17b0dc6d69d3af57da", "is_disabled": 0, "rental_uris": {"android": "https://dc.lft.to/lastmile_qr_scan", "ios": "https://dc.lft.to/lastmile_qr_scan"}, "type": "electric_scooter", "lat": 38.936019333333334, "is_reserved": 0, "fusion_lat": 0.0}, {"bike_id": "2b7f4a62925f9861d2b530fe2e91ef78", "fusion_lon": 0.0, "lon": -77.02934366666666, "name": "2b7f4a62925f9861d2b530fe2e91ef78", "is_disabled": 0, "rental_uris": {"android": "https://dc.lft.to/lastmile_qr_scan", "ios": "https://dc.lft.to/lastmile_qr_scan"}, "type": "electric_scooter", "lat": 38.90530233333333, "is_reserved": 0, "fusion_lat": 0.0},