{"data": {"bikes": [{"type": "electric_bike", "rental_uris": {"android": "https://dc.lft.to/lastmile_qr_scan", "ios": "https://dc.lft.to/lastmile_qr_scan"}, "fusion_lat": 0.0, "name": "4d081bd97af2324f03cf0784e8dada68", "lon": -76.99582866666667, "is_disabled": 0, "is_reserved": 0, "fusion_lon": 0.0, "bike_id": "4d081bd97af2324f03cf0784e8dada68", "lat": 38.852931833333336}, {"type": "electric_scooter", "rental_uris": {"android": "https://dc.lft.to/lastmile_qr_scan", "ios": "https://dc.lft.to/lastmile_qr_scan"}, "fusion_lat": 0.0, "name": "c7ca7faa3f9b5c09756948193658e9c1", "lon": -77.02472916666666, "is_disabled": 0, "is_reserved": 0, "fusion_lon": 0.0, "bike_id": "c7ca7faa3f9b5c09756948193658e9c1", "lat": 38.9330075}, {"type": "electric_scooter", "rental_uris": {"android": "https://dc.lft.to/lastmile_qr_scan", "ios": "https://dc.lft.to/lastmile_qr_scan"}, "fusion_lat": 0.0, "name": "b24aea768a78387a414dbd37b733fa77", "lon": -77.033437, "is_disabled": 0, "is_reserved": 0, "fusion_lon": 0.0, "bike_id": "b24aea768a78387a414dbd37b733fa77", "lat": 38.902537}, {"type": "electric_scooter", "rental_uris": {"android": "https://dc.lft.to/lastmile_qr_scan", "ios": "https://dc.lft.to/lastmile_qr_scan"}, "fusion_lat": 0.0, "name": "5441b8af0ddd7c91accc4743efee026a", "lon": -77.029755, "is_disabled": 0, "is_reserved": 0, "fusion_lon": 0.0, "bike_id": "5441b8af0ddd7c91accc4743efee026a", "lat": 38.916798166666666}, {"type": "electric_scooter", "rental_uris": {"android": "https://dc.lft.to/lastmile_qr_scan", "ios": "https://dc.lft.to/lastmile_qr_scan"}, "fusion_lat": 0.0, "name": "80025492060d0bfa5842c47f405900ff", "lon": -77.00914566666667, "is_disabled": 0, "is_reserved": 0, "fusion_lon": 0.0, "bike_id": "80025492060d0bfa5842c47f405900ff", "lat": 38.8955855}, {"type": "electric_scooter", "rental_uris": {"android": "https://dc.lft.to/lastmile_qr_scan", "ios": "https://dc.lft.to/lastmile_qr_scan"}, "fusion_lat": 0.0, "name": "883c8a01acaf07247b8c4cd42b8835d8", "lon": -77.00938833333333, "is_disabled": 0, "is_reserved": 0, "fusion_lon": 0.0, "bike_id": "883c8a01acaf07247b8c4cd42b8835d8", "lat": 38.88314033333333}, {"type": "electric_scooter", "rental_uris": {"android": "https://dc.lft.to/lastmile_qr_scan", "ios": "https://dc.lft.to/lastmile_qr_scan"}, "fusion_lat": 0.0, "name": "f3489408351788fd892ff097e4012cd7", "lon": -77.025941, "is_disabled": 0, "is_reserved": 0, "fusion_lon": 0.0, "bike_id": "f3489408351788fd892ff097e4012cd7", "lat": 38.90030683333333}, {"type": "electric_scooter", "rental_uris": {"android": "https://dc.lft.to/lastmile_qr_scan", "ios": "https://dc.lft.to/lastmile_qr_scan"}, "fusion_lat": 0.0, "name": "6e4d6c04fe8d95cc29aae8587da00684", "lon": -77.04116066666667, "is_disabled": 0, "is_reserved": 0, "fusion_lon": 0.0, "bike_id": "6e4d6c04fe8d95cc29aae8587da00684", "lat": 38.9281315}, {"type": "electric_scooter", "rental_uris": {"android": "https://dc.lft.to/lastmile_qr_scan", "ios": "https://dc.lft.to/lastmile_qr_scan"}, "fusion_lat": 0.0, "name": "9797b075fc1e78bb696af0bcc41c8228", "lon": -77.02200233333333, "is_disabled": 0, "is_reserved": 0, "fusion_lon": 0.0, "bike_id": "9797b075fc1e78bb696af0bcc41c8228", "lat": 38.91710783333333}, {"type": "electric_scooter", "rental_uris": {"android": "https://dc.lft.to/lastmile_qr_scan", "ios": "https://dc.lft.to/lastmile_qr_scan"}, "fusion_lat": 0.0, "name": "fc7a77a793b221efa0ae65821e92cecb", "lon": -77.00200733333334, "is_disabled": 0, "is_reserved": 0, "fusion_lon": 0.0, "bike_id": "fc7a77a793b221efa0ae65821e92cecb", "lat": 38.902401166666664}, {"type": "electric_scooter", "rental_uris": {"android": "https://dc.lft.to/lastmile_qr_scan", "ios": "https://dc.lft.to/lastmile_qr_scan"}, "fusion_lat": 0.0, "name": "d43fc181497062089147a8f05705c7d3", "lon": -77.02747133333334, "is_disabled": 0, "is_reserved": 0, "fusion_lon": 0.0, "bike_id": "d43fc181497062089147a8f05705c7d3", "lat": 38.89719816666667}, {"type": "electric_scooter", "rental_uris": {"android": "https://dc.lft.to/lastmile_qr_scan", "ios": "https://dc.lft.to/lastmile_qr_scan"}, "fusion_lat": 0.0, "name": "14135218ca41a59f8cdb7c55d11353b1", "lon": -76.99841283333333, "is_disabled": 0, "is_reserved": 0, "fusion_lon": 0.0, "bike_id": "14135218ca41a59f8cdb7c55d11353b1", "lat": 38.900012833333335}, {"type": "electric_scooter", "rental_uris": {"android": "https://dc.lft.to/lastmile_qr_scan", "ios": "https://dc.lft.to/lastmile_qr_scan"}, "fusion_lat": 0.0, "name": "f4ad613ff681f872432a3bafc810123e", "lon": -77.04149416666667, "is_disabled": 0, "is_reserved": 0, "fusion_lon": 0.0, "bike_id": "f4ad613ff681f872432a3bafc810123e", "lat": 38.923536}, {"type": "electric_scooter", "rental_uris": {"android": "https://dc.lft.to/lastmile_qr_scan", "ios": "https://dc.lft.to/lastmile_qr_scan"}, "fusion_lat": 0.0, "name": "ff293611127eb3bb68eff925bdd73891", "lon": -77.0615815, "is_disabled": 0, "is_reserved": 0, "fusion_lon": 0.0, "bike_id": "ff293611127eb3bb68eff925bdd73891", "lat": 38.90269833333333}, {"type": "electric_scooter", "rental_uris": {"android": "https://dc.lft.to/lastmile_qr_scan", "ios": "https://dc.lft.to/lastmile_qr_scan"}, "fusion_lat": 0.0, "name": "392a2db716d0a340399406d4a1b506ff", "lon": -76.9853775, "is_disabled": 0, "is_reserved": 0, "fusion_lon": 0.0, "bike_id": "392a2db716d0a340399406d4a1b506ff", "lat": 38.9045345}, {"type": "electric_bike", "rental_uris": {"android": "https://dc.lft.to/lastmile_qr_scan", "ios": "https://dc.lft.to/lastmile_qr_scan"}, "fusion_lat": 0.0, "name": "d9f6f12b98a2deb11715627ab51db695", "lon": -77.01532433333334, "is_disabled": 0, "is_reserved": 0, "fusion_lon": 0.0, "bike_id": "d9f6f12b98a2deb11715627ab51db695", "lat": 38.884784833333335}, {"type": "electric_bike", "rental_uris": {"android": "https://dc.lft.to/lastmile_qr_scan", "ios": "https://dc.lft.to/lastmile_qr_scan"}, "fusion_lat": 0.0, "name": "197c2d25a0cda39093d5340dd4011a89", "lon": -77.11259016666666, "is_disabled": 0, "is_reserved": 0, "fusion_lon": 0.0, "bike_id": "197c2d25a0cda39093d5340dd4011a89", "lat": 38.85649566666667}, {"type": "electric_scooter", "rental_uris": {"android": "https://dc.lft.to/lastmile_qr_scan", "ios": "https://dc.lft.to/lastmile_qr_scan"}, "fusion_lat": 0.0, "name": "14879785717544faebbd019dc3ddae8d", "lon": -77.01988816666666, "is_disabled": 0, "is_reserved": 0, "fusion_lon": 0.0, "bike_id": "14879785717544faebbd019dc3ddae8d", "lat": 38.901767166666666}, {"type": "electric_scooter", "rental_uris": {"android": "https://dc.lft.to/lastmile_qr_scan", "ios": "https://dc.lft.to/lastmile_qr_scan"}, "fusion_lat": 0.0, "name": "193304886d5fbe9abc41b7fcfad34be1", "lon": -77.03275183333334, "is_disabled": 0, "is_reserved": 0, "fusion_lon": 0.0, "bike_id": "193304886d5fbe9abc41b7fcfad34be1", "lat": 38.9284705}, {"type": "electric_scooter", "rental_uris": {"android": "https://dc.lft.to/lastmile_qr_scan", "ios": "https://dc.lft.to/lastmile_qr_scan"}, "fusion_lat": 0.0, "name": "eadf2acce66c814b57f1c1574d0b43ff", "lon": -77.06178983333334, "is_disabled": 0, "is_reserved": 0, "fusion_lon": 0.0, "bike_id": "eadf2acce66c814b57f1c1574d0b43ff", "lat": 38.94326233333334}, {"type": "electric_scooter", "rental_uris": {"android": "https://dc.lft.to/lastmile_qr_scan", "ios": "https://dc.lft.to/lastmile_qr_scan"}, "fusion_lat": 0.0, "name": "7363552f53ebc877d57964661e8dad25", "lon": -77.03275316666667, "is_disabled": 0, "is_reserved": 0, "fusion_lon": 0.0, "bike_id": "7363552f53ebc877d57964661e8dad25", "lat": 38.928263}, {"type": "electric_scooter", "rental_uris": {"android": "https://dc.lft.to/lastmile_qr_scan", "ios": "https://dc.lft.to/lastmile_qr_scan"}, "fusion_lat": 0.0, "name": "e18e3cf024840d6a54833954b51a7b19", "lon": -77.01764766666666, "is_disabled": 0, "is_reserved": 0, "fusion_lon": 0.0, "bike_id": "e18e3cf024840d6a54833954b51a7b19", "lat": 38.876885333333334}, {"type": "electric_scooter", "rental_uris": {"android": "https://dc.lft.to/lastmile_qr_scan", "ios": "https://dc.lft.to/lastmile_qr_scan"}, "fusion_lat": 0.0, "name": "da038a98bbcea758d8cc076fa0807ae5", "lon": -77.040218, "is_disabled": 0, "is_reserved": 0, "fusion_lon": 0.0, "bike_id": "da038a98bbcea758d8cc076fa0807ae5", "lat": 38.91836933333333}, {"type": "electric_scooter", "rental_uris": {"android": "https://dc.lft.to/lastmile_qr_scan", "ios": "https://dc.lft.to/lastmile_qr_scan"}, "fusion_lat": 0.0, "name": "01db812b2607bc68726500161577ed4d", "lon": -77.007471, "is_disabled": 0, "is_reserved": 0, "fusion_lon": 0.0, "bike_id": "01db812b2607bc68726500161577ed4d", "lat": 38.89819466666667}, {"type": "electric_bike", "rental_uris": {"android": "https://dc.lft.to/lastmile_qr_scan", "ios": "https://dc.lft.to/lastmile_qr_scan"}, "fusion_lat": 0.0, "name": "c7966ade2ea37cb6ecb7928268f9cd9a", "lon": -77.11710783333334, "is_disabled": 0, "is_reserved": 0, "fusion_lon": 0.0, "bike_id": "c7966ade2ea37cb6ecb7928268f9cd9a", "lat": 38.867495}, {"type": "electric_scooter", "rental_uris": {"android": "https://dc.lft.to/lastmile_qr_scan", "ios": "https://dc.lft.to/lastmile_qr_scan"}, "fusion_lat": 0.0, "name": "5e784f6dfb6c541e926c223a384e18d3", "lon": -77.02586266666667, "is_disabled": 0, "is_reserved": 0, "fusion_lon": 0.0, "bike_id": "5e784f6dfb6c541e926c223a384e18d3", "lat": 38.898565166666664}, {"type": "electric_scooter", "rental_uris": {"android": "https://dc.lft.to/lastmile_qr_scan", "ios": "https://dc.lft.to/lastmile_qr_scan"}, "fusion_lat": 0.0, "name": "e50f82dd79a44d37cef1bef6445e7dc4", "lon": -77.02012533333334, "is_disabled": 0, "is_reserved": 0, "fusion_lon": 0.0, "bike_id": "e50f82dd79a44d37cef1bef6445e7dc4", "lat": 38.894466666666666}, {"type": "electric_scooter", "rental_uris": {"android": "https://dc.lft.to/lastmile_qr_scan", "ios": "https://dc.lft.to/lastmile_qr_scan"}, "fusion_lat": 0.0, "name": "4eeb92c53106822dee8f7860c92e64ef", "lon": -77.03861183333333, "is_disabled": 0, "is_reserved": 0, "fusion_lon": 0.0, "bike_id": "4eeb92c53106822dee8f7860c92e64ef", "lat": 38.90360166666667}, {"type": "electric_scooter", "rental_uris": {"android": "https://dc.lft.to/lastmile_qr_scan", "ios": "https://dc.lft.to/lastmile_qr_scan"}, "fusion_lat": 0.0, "name": "ee0b6515bf41e40fd1ca939d8b8b0c13", "lon": -77.00113733333333, "is_disabled": 0, "is_reserved": 0, "fusion_lon": 0.0, "bike_id": "ee0b6515bf41e40fd1ca939d8b8b0c13", "lat": 38.87497116666667}, {"type": "electric_scooter", "rental_uris": {"android": "https://dc.lft.to/lastmile_qr_scan", "ios": "https://dc.lft.to/lastmile_qr_scan"}, "fusion_lat": 0.0, "name": "48fe638af81dfa6918828894781c24f7", "lon": -77.02689883333333, "is_disabled": 0, "is_reserved": 0, "fusion_lon": 0.0, "bike_id": "48fe638af81dfa6918828894781c24f7", "lat": 38.909374}, {"type": "electric_scooter", "rental_uris": {"android": "https://dc.lft.to/lastmile_qr_scan", "ios": "https://dc.lft.to/lastmile_qr_scan"}, "fusion_lat": 0.0, "name": "c07f38de61e1ef4b5ea9f186fd58b742", "lon": -77.0250695, "is_disabled": 0, "is_reserved": 0, "fusion_lon": 0.0, "bike_id": "c07f38de61e1ef4b5ea9f186fd58b742", "lat": 38.9041785}, {"type": "electric_scooter", "rental_uris": {"android": "https://dc.lft.to/lastmile_qr_scan", "ios": "https://dc.lft.to/lastmile_qr_scan"}, "fusion_lat": 0.0, "name": "c9509a3fd038b5c512912ea4e9e1b110", "lon": -77.03374866666667, "is_disabled": 0, "is_reserved": 0, "fusion_lon": 0.0, "bike_id": "c9509a3fd038b5c512912ea4e9e1b110", "lat": 38.93223883333334}, {"type": "electric_scooter", "rental_uris": {"android": "https://dc.lft.to/lastmile_qr_scan", "ios": "https://dc.lft.to/lastmile_qr_scan"}, "fusion_lat": 0.0, "name": "2136c504f86ec097492a0d84420170c8", "lon": -77.03188016666667, "is_disabled": 0, "is_reserved": 0, "fusion_lon": 0.0, "bike_id": "2136c504f86ec097492a0d84420170c8", "lat": 38.91568766666666}, {"type": "electric_scooter", "rental_uris": {"android": "https://dc.lft.to/lastmile_qr_scan", "ios": "https://dc.lft.to/lastmile_qr_scan"}, "fusion_lat": 0.0, "name": "8256000ea49fd7cfb578a2e8f0853236", "lon": -77.03254066666666, "is_disabled": 0, "is_reserved": 0, "fusion_lon": 0.0, "bike_id": "8256000ea49fd7cfb578a2e8f0853236", "lat": 38.929231333333334}, {"type": "electric_scooter", "rental_uris": {"android": "https://dc.lft.to/lastmile_qr_scan", "ios": "https://dc.lft.to/lastmile_qr_scan"}, "fusion_lat": 0.0, "name": "a524b87df92cb59f74cb3a2ada54d2cd", "lon": -76.93366083333333, "is_disabled": 0, "is_reserved": 0, "fusion_lon": 0.0, "bike_id": "a524b87df92cb59f74cb3a2ada54d2cd", "lat": 38.89916733333333}, {"type": "electric_scooter", "rental_uris": {"android": "https://dc.lft.to/lastmile_qr_scan", "ios": "https://dc.lft.to/lastmile_qr_scan"}, "fusion_lat": 0.0, "name": "0425a94b1b318c2537185a69f254cc0a", "lon": -77.03207233333333, "is_disabled": 0, "is_reserved": 0, "fusion_lon": 0.0, "bike_id": "0425a94b1b318c2537185a69f254cc0a", "lat": 38.90949466666667}, {"type": "electric_scooter", "rental_uris": {"android": "https://dc.lft.to/lastmile_qr_scan", "ios": "https://dc.lft.to/lastmile_qr_scan"}, "fusion_lat": 0.0, "name": "90205ccf6490e3beacfde1331272a39f", "lon": -76.98373066666667, "is_disabled": 0, "is_reserved": 0, "fusion_lon": 0.0, "bike_id": "90205ccf6490e3beacfde1331272a39f", "lat": 38.9149615}, {"type": "electric_scooter", "rental_uris": {"android": "https://dc.lft.to/lastmile_qr_scan", "ios": "https://dc.lft.to/lastmile_qr_scan"}, "fusion_lat": 0.0, "name": "08c27f5eaca2a0c0a7711c1478ea9b73", "lon": -77.04327116666667, "is_disabled": 0, "is_reserved": 0, "fusion_lon": 0.0, "bike_id": "08c27f5eaca2a0c0a7711c1478ea9b73", "lat": 38.90857066666667}, {"type": "electric_scooter", "rental_uris": {"android": "https://dc.lft.to/lastmile_qr_scan", "ios": "https://dc.lft.to/lastmile_qr_scan"}, "fusion_lat": 0.0, "name": "a824c284395cecff500520491c095276", "lon": -77.0326445, "is_disabled": 0, "is_reserved": 0, "fusion_lon": 0.0, "bike_id": "a824c284395cecff500520491c095276", "lat": 38.93523916666667}, {"type": "electric_scooter", "rental_uris": {"android": "https://dc.lft.to/lastmile_qr_scan", "ios": "https://dc.lft.to/lastmile_qr_scan"}, "fusion_lat": 0.0, "name": "d588ed70a28c83518cf9418a5a2a07e9", "lon": -76.97711733333334, "is_disabled": 0, "is_reserved": 0, "fusion_lon": 0.0, "bike_id": "d588ed70a28c83518cf9418a5a2a07e9", "lat": 38.887790833333334}, {"type": "electric_scooter", "rental_uris": {"android": "https://dc.lft.to/lastmile_qr_scan", "ios": "https://dc.lft.to/lastmile_qr_scan"}, "fusion_lat": 0.0, "name": "c46fcdb671d51679ebf9ff4d207ff99e", "lon": -76.99523016666667, "is_disabled": 0, "is_reserved": 0, "fusion_lon": 0.0, "bike_id": "c46fcdb671d51679ebf9ff4d207ff99e", "lat": 38.89544766666667}, {"type": "electric_scooter", "rental_uris": {"android": "https://dc.lft.to/lastmile_qr_scan", "ios": "https://dc.lft.to/lastmile_qr_scan"}, "fusion_lat": 0.0, "name": "0314088913b39eb6dc577774efb43962", "lon": -77.01884816666667, "is_disabled": 0, "is_reserved": 0, "fusion_lon": 0.0, "bike_id": "0314088913b39eb6dc577774efb43962", "lat": 38.89735233333333}, {"type": "electric_scooter", "rental_uris": {"android": "https://dc.lft.to/lastmile_qr_scan", "ios": "https://dc.lft.to/lastmile_qr_scan"}, "fusion_lat": 0.0, "name": "b03ee491ee175c5c6462f6685dcc3b82", "lon": -77.00794816666667, "is_disabled": 0, "is_reserved": 0, "fusion_lon": 0.0, "bike_id": "b03ee491ee175c5c6462f6685dcc3b82", "lat": 38.896457166666664}, {"type": "electric_scooter", "rental_uris": {"android": "https://dc.lft.to/lastmile_qr_scan", "ios": "https://dc.lft.to/lastmile_qr_scan"}, "fusion_lat": 0.0, "name": "fb504e5ebdae6c42c9ab183ac7196bfe", "lon": -77.07239633333333, "is_disabled": 0, "is_reserved": 0, "fusion_lon": 0.0, "bike_id": "fb504e5ebdae6c42c9ab183ac7196bfe", "lat": 38.94008566666667}, {"type": "electric_scooter", "rental_uris": {"android": "https://dc.lft.to/lastmile_qr_scan", "ios": "https://dc.lft.to/lastmile_qr_scan"}, "fusion_lat": 0.0, "name": "8ed2e065f5c34baf378ac8044534908f", "lon": -76.96777616666667, "is_disabled": 0, "is_reserved": 0, "fusion_lon": 0.0, "bike_id": "8ed2e065f5c34baf378ac8044534908f", "lat": 38.85922933333333}, {"type": "electric_scooter", "rental_uris": {"android": "https://dc.lft.to/lastmile_qr_scan", "ios": "https://dc.lft.to/lastmile_qr_scan"}, "fusion_lat": 0.0, "name": "c12c62f8099f31cacc11a048a6c894c2", "lon": -77.00192333333334, "is_disabled": 0, "is_reserved": 0, "fusion_lon": 0.0, "bike_id": "c12c62f8099f31cacc11a048a6c894c2", "lat": 38.90562633333333}, {"type": "electric_scooter", "rental_uris": {"android": "https://dc.lft.to/lastmile_qr_scan", "ios": "https://dc.lft.to/lastmile_qr_scan"}, "fusion_lat": 0.0, "name": "7998e0f4df34b49d002f3d576a831e3c", "lon": -77.0274515, "is_disabled": 0, "is_reserved": 0, "fusion_lon": 0.0, "bike_id": "7998e0f4df34b49d002f3d576a831e3c", "lat": 38.89708016666667}, {"type": "electric_scooter", "rental_uris": {"android": "https://dc.lft.to/lastmile_qr_scan", "ios": "https://dc.lft.to/lastmile_qr_scan"}, "fusion_lat": 0.0, "name": "0e8f475954d941d402a11afbf7fb8e2f", "lon": -77.026557, "is_disabled": 0, "is_reserved": 0, "fusion_lon": 0.0, "bike_id": "0e8f475954d941d402a11afbf7fb8e2f", "lat": 38.978166}, {"type": "electric_scooter", "rental_uris": {"android": "https://dc.lft.to/lastmile_qr_scan", "ios": "https://dc.lft.to/lastmile_qr_scan"}, "fusion_lat": 0.0, "name": "ea73b232072a61a91832aeb1867ee6e6", "lon": -77.04881383333333, "is_disabled": 0, "is_reserved": 0, "fusion_lon": 0.0, "bike_id": "ea73b232072a61a91832aeb1867ee6e6", "lat": 38.9012475}, {"type": "electric_scooter", "rental_uris": {"android": "https://dc.lft.to/lastmile_qr_scan", "ios": "https://dc.lft.to/lastmile_qr_scan"}, "fusion_lat": 0.0, "name": "463370685252afc93d135d33eddc8262", "lon": -76.99035533333333, "is_disabled": 0, "is_reserved": 0, "fusion_lon": 0.0, "bike_id": "463370685252afc93d135d33eddc8262", "lat": 38.900383166666664}, {"type": "electric_bike", "rental_uris": {"android": "https://dc.lft.to/lastmile_qr_scan", "ios": "https://dc.lft.to/lastmile_qr_scan"}, "fusion_lat": 0.0, "name": "8bba1895a0cbcb66e21f55d2b2f2d1a4", "lon": -77.0877355, "is_disabled": 0, "is_reserved": 0, "fusion_lon": 0.0, "bike_id": "8bba1895a0cbcb66e21f55d2b2f2d1a4", "lat": 38.83901183333333}, {"type": "electric_scooter", "rental_uris": {"android": "https://dc.lft.to/lastmile_qr_scan", "ios": "https://dc.lft.to/lastmile_qr_scan"}, "fusion_lat": 0.0, "name": "271ccbaa69868e23fce10745d9a92799", "lon": -77.03587216666666, "is_disabled": 0, "is_reserved": 0, "fusion_lon": 0.0, "bike_id": "271ccbaa69868e23fce10745d9a92799", "lat": 38.91694366666667}, {"type": "electric_scooter", "rental_uris": {"android": "https://dc.lft.to/lastmile_qr_scan", "ios": "https://dc.lft.to/lastmile_qr_scan"}, "fusion_lat": 0.0, "name": "62bf5c252551eb64701c38a936fbc97a", "lon": -77.0318855, "is_disabled": 0, "is_reserved": 0, "fusion_lon": 0.0, "bike_id": "62bf5c252551eb64701c38a936fbc97a", "lat": 38.90878716666667}, {"type": "electric_scooter", "rental_uris": {"android": "https://dc.lft.to/lastmile_qr_scan", "ios": "https://dc.lft.to/lastmile_qr_scan"}, "fusion_lat": 0.0, "name": "303cd02deb0d755d9eba9d6922c57c8e", "lon": -76.98376283333333, "is_disabled": 0, "is_reserved": 0, "fusion_lon": 0.0, "bike_id": "303cd02deb0d755d9eba9d6922c57c8e", "lat": 38.86116916666667}, {"type": "electric_scooter", "rental_uris": {"android": "https://dc.lft.to/lastmile_qr_scan", "ios": "https://dc.lft.to/lastmile_qr_scan"}, "fusion_lat": 0.0, "name": "cc20ba19212a0c5d22fb42018cfe160a", "lon": -77.0328225, "is_disabled": 0, "is_reserved": 0, "fusion_lon": 0.0, "bike_id": "cc20ba19212a0c5d22fb42018cfe160a", "lat": 38.9282555}, {"type": "electric_scooter", "rental_uris": {"android": "https://dc.lft.to/lastmile_qr_scan", "ios": "https://dc.lft.to/lastmile_qr_scan"}, "fusion_lat": 0.0, "name": "ce610f00526f7adfe1bfb2362968c4a3", "lon": -76.9786655, "is_disabled": 0, "is_reserved": 0, "fusion_lon": 0.0, "bike_id": "ce610f00526f7adfe1bfb2362968c4a3", "lat": 38.883043666666666}, {"type": "electric_scooter", "rental_uris": {"android": "https://dc.lft.to/lastmile_qr_scan", "ios": "https://dc.lft.to/lastmile_qr_scan"}, "fusion_lat": 0.0, "name": "6c7468528bffa5e34d386668d52f46b9", "lon": -76.97619033333334, "is_disabled": 0, "is_reserved": 0, "fusion_lon": 0.0, "bike_id": "6c7468528bffa5e34d386668d52f46b9", "lat": 38.899595166666664}, {"type": "electric_scooter", "rental_uris": {"android": "https://dc.lft.to/lastmile_qr_scan", "ios": "https://dc.lft.to/lastmile_qr_scan"}, "fusion_lat": 0.0, "name": "fadc8380e9772c38297377993bdca09e", "lon": -77.032011, "is_disabled": 0, "is_reserved": 0, "fusion_lon": 0.0, "bike_id": "fadc8380e9772c38297377993bdca09e", "lat": 38.908500833333335}, {"type": "electric_scooter", "rental_uris": {"android": "https://dc.lft.to/lastmile_qr_scan", "ios": "https://dc.lft.to/lastmile_qr_scan"}, "fusion_lat": 0.0, "name": "dc4daa8f1911edd6e111e171f2a232ff", "lon": -76.996287, "is_disabled": 0, "is_reserved": 0, "fusion_lon": 0.0, "bike_id": "dc4daa8f1911edd6e111e171f2a232ff", "lat": 38.90027333333333}, {"type": "electric_scooter", "rental_uris": {"android": "https://dc.lft.to/lastmile_qr_scan", "ios": "https://dc.lft.to/lastmile_qr_scan"}, "fusion_lat": 0.0, "name": "d358c78a088bab2768705681eb2323a2", "lon": -77.02552633333333, "is_disabled": 0, "is_reserved": 0, "fusion_lon": 0.0, "bike_id": "d358c78a088bab2768705681eb2323a2", "lat": 38.941377}, {"type": "electric_bike", "rental_uris": {"android": "https://dc.lft.to/lastmile_qr_scan", "ios": "https://dc.lft.to/lastmile_qr_scan"}, "fusion_lat": 0.0, "name": "498ad76d818f680dc50711aa2d507057", "lon": -77.06334733333334, "is_disabled": 0, "is_reserved": 0, "fusion_lon": 0.0, "bike_id": "498ad76d818f680dc50711aa2d507057", "lat": 38.920964166666664}, {"type": "electric_scooter", "rental_uris": {"android": "https://dc.lft.to/lastmile_qr_scan", "ios": "https://dc.lft.to/lastmile_qr_scan"}, "fusion_lat": 0.0, "name": "395c05942f09a8049671783ac4227b4e", "lon": -77.01868383333333, "is_disabled": 0, "is_reserved": 0, "fusion_lon": 0.0, "bike_id": "395c05942f09a8049671783ac4227b4e", "lat": 38.97373433333333}, {"type": "electric_scooter", "rental_uris": {"android": "https://dc.lft.to/lastmile_qr_scan", "ios": "https://dc.lft.to/lastmile_qr_scan"}, "fusion_lat": 0.0, "name": "7b6a7e5e8a90e22008698988b0ace466", "lon": -77.01077033333334, "is_disabled": 0, "is_reserved": 0, "fusion_lon": 0.0, "bike_id": "7b6a7e5e8a90e22008698988b0ace466", "lat": 38.917638833333335}, {"type": "electric_scooter", "rental_uris": {"android": "https://dc.lft.to/lastmile_qr_scan", "ios": "https://dc.lft.to/lastmile_qr_scan"}, "fusion_lat": 0.0, "name": "efde394847d39e10872f8945847678cd", "lon": -76.99937183333333, "is_disabled": 0, "is_reserved": 0, "fusion_lon": 0.0, "bike_id": "efde394847d39e10872f8945847678cd", "lat": 38.8430145}, {"type": "electric_scooter", "rental_uris": {"android": "https://dc.lft.to/lastmile_qr_scan", "ios": "https://dc.lft.to/lastmile_qr_scan"}, "fusion_lat": 0.0, "name": "89100d25f61e552fc2006e13fdd6fef4", "lon": -76.99749333333334, "is_disabled": 0, "is_reserved": 0, "fusion_lon": 0.0, "bike_id": "89100d25f61e552fc2006e13fdd6fef4", "lat": 38.899939333333336}, {"type": "electric_scooter", "rental_uris": {"android": "https://dc.lft.to/lastmile_qr_scan", "ios": "https://dc.lft.to/lastmile_qr_scan"}, "fusion_lat": 0.0, "name": "17e718f9070a970b8adbc3f2e34b69e5", "lon": -77.00337883333333, "is_disabled": 0, "is_reserved": 0, "fusion_lon": 0.0, "bike_id": "17e718f9070a970b8adbc3f2e34b69e5", "lat": 38.89525883333334}, {"type": "electric_scooter", "rental_uris": {"android": "https://dc.lft.to/lastmile_qr_scan", "ios": "https://dc.lft.to/lastmile_qr_scan"}, "fusion_lat": 0.0, "name": "bf96bef1c44fc91a3092ecaeb6bc9b71", "lon": -76.94877116666666, "is_disabled": 0, "is_reserved": 0, "fusion_lon": 0.0, "bike_id": "bf96bef1c44fc91a3092ecaeb6bc9b71", "lat": 38.89544316666667}, {"type": "electric_scooter", "rental_uris": {"android": "https://dc.lft.to/lastmile_qr_scan", "ios": "https://dc.lft.to/lastmile_qr_scan"}, "fusion_lat": 0.0, "name": "8546c5e90b17f172abb369d8fd59e791", "lon": -77.07006166666666, "is_disabled": 0, "is_reserved": 0, "fusion_lon": 0.0, "bike_id": "8546c5e90b17f172abb369d8fd59e791", "lat": 38.958492}, {"type": "electric_scooter", "rental_uris": {"android": "https://dc.lft.to/lastmile_qr_scan", "ios": "https://dc.lft.to/lastmile_qr_scan"}, "fusion_lat": 0.0, "name": "e750af4011e0a5ac8f12e9b1f52fbe0c", "lon": -77.03829766666667, "is_disabled": 0, "is_reserved": 0, "fusion_lon": 0.0, "bike_id": "e750af4011e0a5ac8f12e9b1f52fbe0c", "lat": 38.911142}, {"type": "electric_bike", "rental_uris": {"android": "https://dc.lft.to/lastmile_qr_scan", "ios": "https://dc.lft.to/lastmile_qr_scan"}, "fusion_lat": 0.0, "name": "e285c0fd79c7d1c54a5570897f3fbfec", "lon": -76.99376983333333, "is_disabled": 0, "is_reserved": 0, "fusion_lon": 0.0, "bike_id": "e285c0fd79c7d1c54a5570897f3fbfec", "lat": 38.97183483333333}, {"type": "electric_scooter", "rental_uris": {"android": "https://dc.lft.to/lastmile_qr_scan", "ios": "https://dc.lft.to/lastmile_qr_scan"}, "fusion_lat": 0.0, "name": "6cbbeba5ff03fe000aa9078b42d82286", "lon": -77.04201716666667, "is_disabled": 0, "is_reserved": 0, "fusion_lon": 0.0, "bike_id": "6cbbeba5ff03fe000aa9078b42d82286", "lat": 38.919685}, {"type": "electric_scooter", "rental_uris": {"android": "https://dc.lft.to/lastmile_qr_scan", "ios": "https://dc.lft.to/lastmile_qr_scan"}, "fusion_lat": 0.0, "name": "32283c27c8eea73518d1327bb2b7a598", "lon": -77.03159716666667, "is_disabled": 0, "is_reserved": 0, "fusion_lon": 0.0, "bike_id": "32283c27c8eea73518d1327bb2b7a598", "lat": 38.936029}, {"type": "electric_scooter", "rental_uris": {"android": "https://dc.lft.to/lastmile_qr_scan", "ios": "https://dc.lft.to/lastmile_qr_scan"}, "fusion_lat": 0.0, "name": "ce76f5b9530cbbbf46e3d6524a570d68", "lon": -76.996846, "is_disabled": 0, "is_reserved": 0, "fusion_lon": 0.0, "bike_id": "ce76f5b9530cbbbf46e3d6524a570d68", "lat": 38.8813595}, {"type": "electric_scooter", "rental_uris": {"android": "https://dc.lft.to/lastmile_qr_scan", "ios": "https://dc.lft.to/lastmile_qr_scan"}, "fusion_lat": 0.0, "name": "8a20082f3767d226b6c0450c1acb2119", "lon": -77.02635416666666, "is_disabled": 0, "is_reserved": 0, "fusion_lon": 0.0, "bike_id": "8a20082f3767d226b6c0450c1acb2119", "lat": 38.9024105}, {"type": "electric_scooter", "rental_uris": {"android": "https://dc.lft.to/lastmile_qr_scan", "ios": "https://dc.lft.to/lastmile_qr_scan"}, "fusion_lat": 0.0, "name": "ff6cefae43cb8ecec5bde34d2354ca63", "lon": -77.03481783333334, "is_disabled": 0, "is_reserved": 0, "fusion_lon": 0.0, "bike_id": "ff6cefae43cb8ecec5bde34d2354ca63", "lat": 38.9065245}, {"type": "electric_scooter", "rental_uris": {"android": "https://dc.lft.to/lastmile_qr_scan", "ios": "https://dc.lft.to/lastmile_qr_scan"}, "fusion_lat": 0.0, "name": "eb974514f1bc685107b118905c03b999", "lon": -77.07575216666666, "is_disabled": 0, "is_reserved": 0, "fusion_lon": 0.0, "bike_id": "eb974514f1bc685107b118905c03b999", "lat": 38.91272433333334}, {"type": "electric_scooter", "rental_uris": {"android": "https://dc.lft.to/lastmile_qr_scan", "ios": "https://dc.lft.to/lastmile_qr_scan"}, "fusion_lat": 0.0, "name": "d811d8869159d41d7b05fb04bec99663", "lon": -77.0074175, "is_disabled": 0, "is_reserved": 0, "fusion_lon": 0.0, "bike_id": "d811d8869159d41d7b05fb04bec99663", "lat": 38.903586}, {"type": "electric_scooter", "rental_uris": {"android": "https://dc.lft.to/lastmile_qr_scan", "ios": "https://dc.lft.to/lastmile_qr_scan"}, "fusion_lat": 0.0, "name": "09091fb529e62917575e47a54ff2c32c", "lon": -77.04148716666667, "is_disabled": 0, "is_reserved": 0, "fusion_lon": 0.0, "bike_id": "09091fb529e62917575e47a54ff2c32c", "lat": 38.91706416666667}, {"type": "electric_scooter", "rental_uris": {"android": "https://dc.lft.to/lastmile_qr_scan", "ios": "https://dc.lft.to/lastmile_qr_scan"}, "fusion_lat": 0.0, "name": "44b321b6d38ac6e7c477758b9b5a4600", "lon": -77.03477583333333, "is_disabled": 0, "is_reserved": 0, "fusion_lon": 0.0, "bike_id": "44b321b6d38ac6e7c477758b9b5a4600", "lat": 38.90550783333333}, {"type": "electric_scooter", "rental_uris": {"android": "https://dc.lft.to/lastmile_qr_scan", "ios": "https://dc.lft.to/lastmile_qr_scan"}, "fusion_lat": 0.0, "name": "85ec2c88abf874ce73b262044e3c886a", "lon": -76.93760683333333, "is_disabled": 0, "is_reserved": 0, "fusion_lon": 0.0, "bike_id": "85ec2c88abf874ce73b262044e3c886a", "lat": 38.89051416666667}, {"type": "electric_scooter", "rental_uris": {"android": "https://dc.lft.to/lastmile_qr_scan", "ios": "https://dc.lft.to/lastmile_qr_scan"}, "fusion_lat": 0.0, "name": "4671016d41a8124b0db31cd693d04247", "lon": -77.03773466666667, "is_disabled": 0, "is_reserved": 0, "fusion_lon": 0.0, "bike_id": "4671016d41a8124b0db31cd693d04247", "lat": 38.916907333333334}, {"type": "electric_scooter", "rental_uris": {"android": "https://dc.lft.to/lastmile_qr_scan", "ios": "https://dc.lft.to/lastmile_qr_scan"}, "fusion_lat": 0.0, "name": "fc47e2d5119875f68cf7566e519b9893", "lon": -77.04906483333333, "is_disabled": 0, "is_reserved": 0, "fusion_lon": 0.0, "bike_id": "fc47e2d5119875f68cf7566e519b9893", "lat": 38.888395333333335}, {"type": "electric_scooter", "rental_uris": {"android": "https://dc.lft.to/lastmile_qr_scan", "ios": "https://dc.lft.to/lastmile_qr_scan"}, "fusion_lat": 0.0, "name": "9bb6e77b54ba148b7094f6573fa64286", "lon": -76.9197255, "is_disabled": 0, "is_reserved": 0, "fusion_lon": 0.0, "bike_id": "9bb6e77b54ba148b7094f6573fa64286", "lat": 38.9002775}, {"type": "electric_scooter", "rental_uris": {"android": "https://dc.lft.to/lastmile_qr_scan", "ios": "https://dc.lft.to/lastmile_qr_scan"}, "fusion_lat": 0.0, "name": "37cc19d3c8eb67e2ce12110845c4611a", "lon": -77.0239745, "is_disabled": 0, "is_reserved": 0, "fusion_lon": 0.0, "bike_id": "37cc19d3c8eb67e2ce12110845c4611a", "lat": 38.90700666666667}, {"type": "electric_scooter", "rental_uris": {"android": "https://dc.lft.to/lastmile_qr_scan", "ios": "https://dc.lft.to/lastmile_qr_scan"}, "fusion_lat": 0.0, "name": "33668f368dcb54a839a62f01b5038675", "lon": -77.039206, "is_disabled": 0, "is_reserved": 0, "fusion_lon": 0.0, "bike_id": "33668f368dcb54a839a62f01b5038675", "lat": 38.924186666666664}, {"type": "electric_scooter", "rental_uris": {"android": "https://dc.lft.to/lastmile_qr_scan", "ios": "https://dc.lft.to/lastmile_qr_scan"}, "fusion_lat": 0.0, "name": "5a799eea160dde4876c3fde61f15f421", "lon": -77.02828866666667, "is_disabled": 0, "is_reserved": 0, "fusion_lon": 0.0, "bike_id": "5a799eea160dde4876c3fde61f15f421", "lat": 38.89825366666667}, {"type": "electric_scooter", "rental_uris": {"android": "https://dc.lft.to/lastmile_qr_scan", "ios": "https://dc.lft.to/lastmile_qr_scan"}, "fusion_lat": 0.0, "name": "e09528fd25d7886d3113f2f819f1a69f", "lon": -77.01966266666666, "is_disabled": 0, "is_reserved": 0, "fusion_lon": 0.0, "bike_id": "e09528fd25d7886d3113f2f819f1a69f", "lat": 38.876387333333334}, {"type": "electric_scooter", "rental_uris": {"android": "https://dc.lft.to/lastmile_qr_scan", "ios": "https://dc.lft.to/lastmile_qr_scan"}, "fusion_lat": 0.0, "name": "9aa820c8f64f8242dd6a3e0ab96e917e", "lon": -77.04385483333333, "is_disabled": 0, "is_reserved": 0, "fusion_lon": 0.0, "bike_id": "9aa820c8f64f8242dd6a3e0ab96e917e", "lat": 38.906986}, {"type": "electric_scooter", "rental_uris": {"android": "https://dc.lft.to/lastmile_qr_scan", "ios": "https://dc.lft.to/lastmile_qr_scan"}, "fusion_lat": 0.0, "name": "a1b346f0d19ccbd0e1c2b8cf709ac7e3", "lon": -77.00059116666667, "is_disabled": 0, "is_reserved": 0, "fusion_lon": 0.0, "bike_id": "a1b346f0d19ccbd0e1c2b8cf709ac7e3", "lat": 38.896383166666666}, {"type": "electric_scooter", "rental_uris": {"android": "https://dc.lft.to/lastmile_qr_scan", "ios": "https://dc.lft.to/lastmile_qr_scan"}, "fusion_lat": 0.0, "name": "8f8c6cf2a9c873d33df870b26cb92374", "lon": -77.02445516666667, "is_disabled": 0, "is_reserved": 0, "fusion_lon": 0.0, "bike_id": "8f8c6cf2a9c873d33df870b26cb92374", "lat": 38.900011666666664}, {"type": "electric_scooter", "rental_uris": {"android": "https://dc.lft.to/lastmile_qr_scan", "ios": "https://dc.lft.to/lastmile_qr_scan"}, "fusion_lat": 0.0, "name": "b5bc06b25a2851406e6e5bc9ac1fe20c", "lon": -77.03835616666667, "is_disabled": 0, "is_reserved": 0, "fusion_lon": 0.0, "bike_id": "b5bc06b25a2851406e6e5bc9ac1fe20c", "lat": 38.902635833333335}, {"type": "electric_scooter", "rental_uris": {"android": "https://dc.lft.to/lastmile_qr_scan", "ios": "https://dc.lft.to/lastmile_qr_scan"}, "fusion_lat": 0.0, "name": "064f68e2b35a6d46cb23df81e99c315e", "lon": -77.02895783333334, "is_disabled": 0, "is_reserved": 0, "fusion_lon": 0.0, "bike_id": "064f68e2b35a6d46cb23df81e99c315e", "lat": 38.916897666666664}, {"type": "electric_scooter", "rental_uris": {"android": "https://dc.lft.to/lastmile_qr_scan", "ios": "https://dc.lft.to/lastmile_qr_scan"}, "fusion_lat": 0.0, "name": "f233859b4586a998aeb6c7202627ece7", "lon": -76.99546766666667, "is_disabled": 0, "is_reserved": 0, "fusion_lon": 0.0, "bike_id": "f233859b4586a998aeb6c7202627ece7", "lat": 38.86256933333333}, {"type": "electric_scooter", "rental_uris": {"android": "https://dc.lft.to/lastmile_qr_scan", "ios": "https://dc.lft.to/lastmile_qr_scan"}, "fusion_lat": 0.0, "name": "41c57b91966f13cf0427bf65be7bd511", "lon": -77.05022583333333, "is_disabled": 0, "is_reserved": 0, "fusion_lon": 0.0, "bike_id": "41c57b91966f13cf0427bf65be7bd511", "lat": 38.8967345}, {"type": "electric_scooter", "rental_uris": {"android": "https://dc.lft.to/lastmile_qr_scan", "ios": "https://dc.lft.to/lastmile_qr_scan"}, "fusion_lat": 0.0, "name": "9fd7f6fb8448895c925e886e0394b844", "lon": -77.0086375, "is_disabled": 0, "is_reserved": 0, "fusion_lon": 0.0, "bike_id": "9fd7f6fb8448895c925e886e0394b844", "lat": 38.90639983333333}, {"type": "electric_scooter", "rental_uris": {"android": "https://dc.lft.to/lastmile_qr_scan", "ios": "https://dc.lft.to/lastmile_qr_scan"}, "fusion_lat": 0.0, "name": "602fd0388ef65fb567ee07a098a0a0e5", "lon": -77.035509, "is_disabled": 0, "is_reserved": 0, "fusion_lon": 0.0, "bike_id": "602fd0388ef65fb567ee07a098a0a0e5", "lat": 38.91703183333333}, {"type": "electric_scooter", "rental_uris": {"android": "https://dc.lft.to/lastmile_qr_scan", "ios": "https://dc.lft.to/lastmile_qr_scan"}, "fusion_lat": 0.0, "name": "98518fcce3e119f1c460ba85e18bd461", "lon": -77.00375633333333, "is_disabled": 0, "is_reserved": 0, "fusion_lon": 0.0, "bike_id": "98518fcce3e119f1c460ba85e18bd461", "lat": 38.897293166666664}, {"type": "electric_scooter", "rental_uris": {"android": "https://dc.lft.to/lastmile_qr_scan", "ios": "https://dc.lft.to/lastmile_qr_scan"}, "fusion_lat": 0.0, "name": "1e06a8ef0d99cbbcf3168059421d7238", "lon": -77.04485616666666, "is_disabled": 0, "is_reserved": 0, "fusion_lon": 0.0, "bike_id": "1e06a8ef0d99cbbcf3168059421d7238", "lat": 38.910597833333334}, {"type": "electric_bike", "rental_uris": {"android": "https://dc.lft.to/lastmile_qr_scan", "ios": "https://dc.lft.to/lastmile_qr_scan"}, "fusion_lat": 0.0, "name": "47f68030795f9638688f8f0a51ac1582", "lon": -76.99458466666667, "is_disabled": 0, "is_reserved": 0, "fusion_lon": 0.0, "bike_id": "47f68030795f9638688f8f0a51ac1582", "lat": 38.966225666666666}, {"type": "electric_scooter", "rental_uris": {"android": "https://dc.lft.to/lastmile_qr_scan", "ios": "https://dc.lft.to/lastmile_qr_scan"}, "fusion_lat": 0.0, "name": "f7bcd64d63875041d595ab85122002df", "lon": -77.01774733333333, "is_disabled": 0, "is_reserved": 0, "fusion_lon": 0.0, "bike_id": "f7bcd64d63875041d595ab85122002df", "lat": 38.88311616666667}, {"type": "electric_scooter", "rental_uris": {"android": "https://dc.lft.to/lastmile_qr_scan", "ios": "https://dc.lft.to/lastmile_qr_scan"}, "fusion_lat": 0.0, "name": "c79054684302755b2fb942032d0f91b5", "lon": -77.013192, "is_disabled": 0, "is_reserved": 0, "fusion_lon": 0.0, "bike_id": "c79054684302755b2fb942032d0f91b5", "lat": 38.871436833333334}, {"type": "electric_scooter", "rental_uris": {"android": "https://dc.lft.to/lastmile_qr_scan", "ios": "https://dc.lft.to/lastmile_qr_scan"}, "fusion_lat": 0.0, "name": "385438e9a5d6201285fc166d526b674f", "lon": -77.03078383333333, "is_disabled": 0, "is_reserved": 0, "fusion_lon": 0.0, "bike_id": "385438e9a5d6201285fc166d526b674f", "lat": 38.923838}, {"type": "electric_scooter", "rental_uris": {"android": "https://dc.lft.to/lastmile_qr_scan", "ios": "https://dc.lft.to/lastmile_qr_scan"}, "fusion_lat": 0.0, "name": "d0564e45b8e00d7981dcf819639e7046", "lon": -77.04308733333333, "is_disabled": 0, "is_reserved": 0, "fusion_lon": 0.0, "bike_id": "d0564e45b8e00d7981dcf819639e7046", "lat": 38.923282}, {"type": "electric_scooter", "rental_uris": {"android": "https://dc.lft.to/lastmile_qr_scan", "ios": "https://dc.lft.to/lastmile_qr_scan"}, "fusion_lat": 0.0, "name": "952caa2f4efb6707763655aa9446b656", "lon": -77.02413283333334, "is_disabled": 0, "is_reserved": 0, "fusion_lon": 0.0, "bike_id": "952caa2f4efb6707763655aa9446b656", "lat": 38.919364}, {"type": "electric_bike", "rental_uris": {"android": "https://dc.lft.to/lastmile_qr_scan", "ios": "https://dc.lft.to/lastmile_qr_scan"}, "fusion_lat": 0.0, "name": "7289f3051bdc7c9288a8c5d3ce235376", "lon": -76.99162716666666, "is_disabled": 0, "is_reserved": 0, "fusion_lon": 0.0, "bike_id": "7289f3051bdc7c9288a8c5d3ce235376", "lat": 38.887703333333334}, {"type": "electric_scooter", "rental_uris": {"android": "https://dc.lft.to/lastmile_qr_scan", "ios": "https://dc.lft.to/lastmile_qr_scan"}, "fusion_lat": 0.0, "name": "21b6aab2c5b904c6a15feb129a7148e2", "lon": -77.02363666666666, "is_disabled": 0, "is_reserved": 0, "fusion_lon": 0.0, "bike_id": "21b6aab2c5b904c6a15feb129a7148e2", "lat": 38.930801833333334}, {"type": "electric_scooter", "rental_uris": {"android": "https://dc.lft.to/lastmile_qr_scan", "ios": "https://dc.lft.to/lastmile_qr_scan"}, "fusion_lat": 0.0, "name": "fec36a17ee76d5e7ecafd9ce601617ee", "lon": -77.00061116666667, "is_disabled": 0, "is_reserved": 0, "fusion_lon": 0.0, "bike_id": "fec36a17ee76d5e7ecafd9ce601617ee", "lat": 38.89925816666667}, {"type": "electric_scooter", "rental_uris": {"android": "https://dc.lft.to/lastmile_qr_scan", "ios": "https://dc.lft.to/lastmile_qr_scan"}, "fusion_lat": 0.0, "name": "ec9ee8353282415df1bb42c338fbe0f2", "lon": -77.0322655, "is_disabled": 0, "is_reserved": 0, "fusion_lon": 0.0, "bike_id": "ec9ee8353282415df1bb42c338fbe0f2", "lat": 38.9140385}, {"type": "electric_scooter", "rental_uris": {"android": "https://dc.lft.to/lastmile_qr_scan", "ios": "https://dc.lft.to/lastmile_qr_scan"}, "fusion_lat": 0.0, "name": "cdefa3554f3c98237c385191bec91fa4", "lon": -76.98716833333333, "is_disabled": 0, "is_reserved": 0, "fusion_lon": 0.0, "bike_id": "cdefa3554f3c98237c385191bec91fa4", "lat": 38.86628066666667}, {"type": "electric_scooter", "rental_uris": {"android": "https://dc.lft.to/lastmile_qr_scan", "ios": "https://dc.lft.to/lastmile_qr_scan"}, "fusion_lat": 0.0, "name": "60f0dd83f6b652fb2dd016385fc5fff5", "lon": -77.0242775, "is_disabled": 0, "is_reserved": 0, "fusion_lon": 0.0, "bike_id": "60f0dd83f6b652fb2dd016385fc5fff5", "lat": 38.91406766666667}, {"type": "electric_scooter", "rental_uris": {"android": "https://dc.lft.to/lastmile_qr_scan", "ios": "https://dc.lft.to/lastmile_qr_scan"}, "fusion_lat": 0.0, "name": "2a61494af0887769c0bfe479af5f9e2c", "lon": -77.0399785, "is_disabled": 0, "is_reserved": 0, "fusion_lon": 0.0, "bike_id": "2a61494af0887769c0bfe479af5f9e2c", "lat": 38.9052515}, {"type": "electric_scooter", "rental_uris": {"android": "https://dc.lft.to/lastmile_qr_scan", "ios": "https://dc.lft.to/lastmile_qr_scan"}, "fusion_lat": 0.0, "name": "2bc76b199a57a6724ed894ebfbfbb08c", "lon": -77.0073735, "is_disabled": 0, "is_reserved": 0, "fusion_lon": 0.0, "bike_id": "2bc76b199a57a6724ed894ebfbfbb08c", "lat": 38.91621833333333}, {"type": "electric_scooter", "rental_uris": {"android": "https://dc.lft.to/lastmile_qr_scan", "ios": "https://dc.lft.to/lastmile_qr_scan"}, "fusion_lat": 0.0, "name": "f5059032e71acd8abdc3d097a7afa236", "lon": -77.03259916666667, "is_disabled": 0, "is_reserved": 0, "fusion_lon": 0.0, "bike_id": "f5059032e71acd8abdc3d097a7afa236", "lat": 38.93561016666666}, {"type": "electric_bike", "rental_uris": {"android": "https://dc.lft.to/lastmile_qr_scan", "ios": "https://dc.lft.to/lastmile_qr_scan"}, "fusion_lat": 0.0, "name": "d5517897bc52cfaf006e293d585e34d9", "lon": -77.0743395, "is_disabled": 0, "is_reserved": 0, "fusion_lon": 0.0, "bike_id": "d5517897bc52cfaf006e293d585e34d9", "lat": 38.9994755}, {"type": "electric_scooter", "rental_uris": {"android": "https://dc.lft.to/lastmile_qr_scan", "ios": "https://dc.lft.to/lastmile_qr_scan"}, "fusion_lat": 0.0, "name": "9ee8c7c0b0203574383b83b18ae01069", "lon": -76.99898266666666, "is_disabled": 0, "is_reserved": 0, "fusion_lon": 0.0, "bike_id": "9ee8c7c0b0203574383b83b18ae01069", "lat": 38.907367}, {"type": "electric_scooter", "rental_uris": {"android": "https://dc.lft.to/lastmile_qr_scan", "ios": "https://dc.lft.to/lastmile_qr_scan"}, "fusion_lat": 0.0, "name": "0131942a810f39bd871bbac5d2df66d8", "lon": -76.98197033333334, "is_disabled": 0, "is_reserved": 0, "fusion_lon": 0.0, "bike_id": "0131942a810f39bd871bbac5d2df66d8", "lat": 38.899476}, {"type": "electric_scooter", "rental_uris": {"android": "https://dc.lft.to/lastmile_qr_scan", "ios": "https://dc.lft.to/lastmile_qr_scan"}, "fusion_lat": 0.0, "name": "4059f0f356c2ef2645eebd418fc4aa23", "lon": -77.02418533333334, "is_disabled": 0, "is_reserved": 0, "fusion_lon": 0.0, "bike_id": "4059f0f356c2ef2645eebd418fc4aa23", "lat": 38.8800045}, {"type": "electric_scooter", "rental_uris": {"android": "https://dc.lft.to/lastmile_qr_scan", "ios": "https://dc.lft.to/lastmile_qr_scan"}, "fusion_lat": 0.0, "name": "418d003f0a46aa161ae425938a486754", "lon": -77.02839166666666, "is_disabled": 0, "is_reserved": 0, "fusion_lon": 0.0, "bike_id": "418d003f0a46aa161ae425938a486754", "lat": 38.8922035}, {"type": "electric_scooter", "rental_uris": {"android": "https://dc.lft.to/lastmile_qr_scan", "ios": "https://dc.lft.to/lastmile_qr_scan"}, "fusion_lat": 0.0, "name": "0f51d5cf6e774e50ce4e683c1fd15840", "lon": -76.99820483333333, "is_disabled": 0, "is_reserved": 0, "fusion_lon": 0.0, "bike_id": "0f51d5cf6e774e50ce4e683c1fd15840", "lat": 38.90040466666667}, {"type": "electric_scooter", "rental_uris": {"android": "https://dc.lft.to/lastmile_qr_scan", "ios": "https://dc.lft.to/lastmile_qr_scan"}, "fusion_lat": 0.0, "name": "25edbb318896659ed76211134c06ecf1", "lon": -77.03211683333333, "is_disabled": 0, "is_reserved": 0, "fusion_lon": 0.0, "bike_id": "25edbb318896659ed76211134c06ecf1", "lat": 38.90845783333333}, {"type": "electric_bike", "rental_uris": {"android": "https://dc.lft.to/lastmile_qr_scan", "ios": "https://dc.lft.to/lastmile_qr_scan"}, "fusion_lat": 0.0, "name": "84038ea0e2f317c1f5a0df2c632dddc8", "lon": -77.01680116666667, "is_disabled": 0, "is_reserved": 0, "fusion_lon": 0.0, "bike_id": "84038ea0e2f317c1f5a0df2c632dddc8", "lat": 38.881164}, {"type": "electric_scooter", "rental_uris": {"android": "https://dc.lft.to/lastmile_qr_scan", "ios": "https://dc.lft.to/lastmile_qr_scan"}, "fusion_lat": 0.0, "name": "60b521d178bb48ebdd017bf5df1f1082", "lon": -76.951882, "is_disabled": 0, "is_reserved": 0, "fusion_lon": 0.0, "bike_id": "60b521d178bb48ebdd017bf5df1f1082", "lat": 38.90736416666667}, {"type": "electric_scooter", "rental_uris": {"android": "https://dc.lft.to/lastmile_qr_scan", "ios": "https://dc.lft.to/lastmile_qr_scan"}, "fusion_lat": 0.0, "name": "028a54ee1edd05794ab29e1e016365b5", "lon": -77.02197983333333, "is_disabled": 0, "is_reserved": 0, "fusion_lon": 0.0, "bike_id": "028a54ee1edd05794ab29e1e016365b5", "lat": 38.91929666666667}, {"type": "electric_scooter", "rental_uris": {"android": "https://dc.lft.to/lastmile_qr_scan", "ios": "https://dc.lft.to/lastmile_qr_scan"}, "fusion_lat": 0.0, "name": "ebbfd1c3fe795837d0cdce5ab3a66f52", "lon": -77.023205, "is_disabled": 0, "is_reserved": 0, "fusion_lon": 0.0, "bike_id": "ebbfd1c3fe795837d0cdce5ab3a66f52", "lat": 38.902157833333334}, {"type": "electric_scooter", "rental_uris": {"android": "https://dc.lft.to/lastmile_qr_scan", "ios": "https://dc.lft.to/lastmile_qr_scan"}, "fusion_lat": 0.0, "name": "2392e89df4f2ffce6a36445e8246496a", "lon": -76.98371116666667, "is_disabled": 0, "is_reserved": 0, "fusion_lon": 0.0, "bike_id": "2392e89df4f2ffce6a36445e8246496a", "lat": 38.906489}, {"type": "electric_scooter", "rental_uris": {"android": "https://dc.lft.to/lastmile_qr_scan", "ios": "https://dc.lft.to/lastmile_qr_scan"}, "fusion_lat": 0.0, "name": "0402d96045eed1abf9b24f42734a5e78", "lon": -77.04375833333333, "is_disabled": 0, "is_reserved": 0, "fusion_lon": 0.0, "bike_id": "0402d96045eed1abf9b24f42734a5e78", "lat": 38.892207666666664}, {"type": "electric_scooter", "rental_uris": {"android": "https://dc.lft.to/lastmile_qr_scan", "ios": "https://dc.lft.to/lastmile_qr_scan"}, "fusion_lat": 0.0, "name": "657b047daa3fb53c5d30d9bf166f05f7", "lon": -76.987175, "is_disabled": 0, "is_reserved": 0, "fusion_lon": 0.0, "bike_id": "657b047daa3fb53c5d30d9bf166f05f7", "lat": 38.866303333333335}, {"type": "electric_scooter", "rental_uris": {"android": "https://dc.lft.to/lastmile_qr_scan", "ios": "https://dc.lft.to/lastmile_qr_scan"}, "fusion_lat": 0.0, "name": "627458b042836a3a40639d311f15dc36", "lon": -76.98962633333333, "is_disabled": 0, "is_reserved": 0, "fusion_lon": 0.0, "bike_id": "627458b042836a3a40639d311f15dc36", "lat": 38.8568575}, {"type": "electric_scooter", "rental_uris": {"android": "https://dc.lft.to/lastmile_qr_scan", "ios": "https://dc.lft.to/lastmile_qr_scan"}, "fusion_lat": 0.0, "name": "fadd3c5bb524f6323b49caea6a65d0e3", "lon": -77.03545016666666, "is_disabled": 0, "is_reserved": 0, "fusion_lon": 0.0, "bike_id": "fadd3c5bb524f6323b49caea6a65d0e3", "lat": 38.91831716666667}, {"type": "electric_scooter", "rental_uris": {"android": "https://dc.lft.to/lastmile_qr_scan", "ios": "https://dc.lft.to/lastmile_qr_scan"}, "fusion_lat": 0.0, "name": "091e5cc5d5104484faf98d524735ac51", "lon": -77.03550316666667, "is_disabled": 0, "is_reserved": 0, "fusion_lon": 0.0, "bike_id": "091e5cc5d5104484faf98d524735ac51", "lat": 38.918290166666665}, {"type": "electric_scooter", "rental_uris": {"android": "https://dc.lft.to/lastmile_qr_scan", "ios": "https://dc.lft.to/lastmile_qr_scan"}, "fusion_lat": 0.0, "name": "2573eb54f3502a8fadee70cbb2ee50dc", "lon": -76.93767566666666, "is_disabled": 0, "is_reserved": 0, "fusion_lon": 0.0, "bike_id": "2573eb54f3502a8fadee70cbb2ee50dc", "lat": 38.878592833333336}, {"type": "electric_scooter", "rental_uris": {"android": "https://dc.lft.to/lastmile_qr_scan", "ios": "https://dc.lft.to/lastmile_qr_scan"}, "fusion_lat": 0.0, "name": "278acc31179c7f662435272977d976c0", "lon": -76.99015616666667, "is_disabled": 0, "is_reserved": 0, "fusion_lon": 0.0, "bike_id": "278acc31179c7f662435272977d976c0", "lat": 38.946015833333334}, {"type": "electric_bike", "rental_uris": {"android": "https://dc.lft.to/lastmile_qr_scan", "ios": "https://dc.lft.to/lastmile_qr_scan"}, "fusion_lat": 0.0, "name": "a1c6e51456bae52db18daf5ea451ab8e", "lon": -76.9450715, "is_disabled": 0, "is_reserved": 0, "fusion_lon": 0.0, "bike_id": "a1c6e51456bae52db18daf5ea451ab8e", "lat": 38.86482783333334}, {"type": "electric_scooter", "rental_uris": {"android": "https://dc.lft.to/lastmile_qr_scan", "ios": "https://dc.lft.to/lastmile_qr_scan"}, "fusion_lat": 0.0, "name": "61bce063b69e5344365d14d0905308f1", "lon": -76.99862516666667, "is_disabled": 0, "is_reserved": 0, "fusion_lon": 0.0, "bike_id": "61bce063b69e5344365d14d0905308f1", "lat": 38.894140166666666}, {"type": "electric_scooter", "rental_uris": {"android": "https://dc.lft.to/lastmile_qr_scan", "ios": "https://dc.lft.to/lastmile_qr_scan"}, "fusion_lat": 0.0, "name": "35f827001df66106763ae4a5e63c9cbc", "lon": -77.0012625, "is_disabled": 0, "is_reserved": 0, "fusion_lon": 0.0, "bike_id": "35f827001df66106763ae4a5e63c9cbc", "lat": 38.90503533333333}, {"type": "electric_scooter", "rental_uris": {"android": "https://dc.lft.to/lastmile_qr_scan", "ios": "https://dc.lft.to/lastmile_qr_scan"}, "fusion_lat": 0.0, "name": "abb33ee3483dbb4c4551e09b33d01a42", "lon": -77.00575516666666, "is_disabled": 0, "is_reserved": 0, "fusion_lon": 0.0, "bike_id": "abb33ee3483dbb4c4551e09b33d01a42", "lat": 38.903665333333336}, {"type": "electric_bike", "rental_uris": {"android": "https://dc.lft.to/lastmile_qr_scan", "ios": "https://dc.lft.to/lastmile_qr_scan"}, "fusion_lat": 0.0, "name": "611ecbbe3796a47915284674e800e998", "lon": -77.04981433333333, "is_disabled": 0, "is_reserved": 0, "fusion_lon": 0.0, "bike_id": "611ecbbe3796a47915284674e800e998", "lat": 39.06295866666667}, {"type": "electric_scooter", "rental_uris": {"android": "https://dc.lft.to/lastmile_qr_scan", "ios": "https://dc.lft.to/lastmile_qr_scan"}, "fusion_lat": 0.0, "name": "1687a1868ab0a18edce307af476db4c0", "lon": -77.02801333333333, "is_disabled": 0, "is_reserved": 0, "fusion_lon": 0.0, "bike_id": "1687a1868ab0a18edce307af476db4c0", "lat": 38.91964083333333}, {"type": "electric_scooter", "rental_uris": {"android": "https://dc.lft.to/lastmile_qr_scan", "ios": "https://dc.lft.to/lastmile_qr_scan"}, "fusion_lat": 0.0, "name": "5e76961777081b61bd2afa589922fa1a", "lon": -76.93772966666667, "is_disabled": 0, "is_reserved": 0, "fusion_lon": 0.0, "bike_id": "5e76961777081b61bd2afa589922fa1a", "lat": 38.89969216666667}, {"type": "electric_scooter", "rental_uris": {"android": "https://dc.lft.to/lastmile_qr_scan", "ios": "https://dc.lft.to/lastmile_qr_scan"}, "fusion_lat": 0.0, "name": "b761e818ccf639fba3c3102139a6b170", "lon": -77.04521833333334, "is_disabled": 0, "is_reserved": 0, "fusion_lon": 0.0, "bike_id": "b761e818ccf639fba3c3102139a6b170", "lat": 38.90368316666667}, {"type": "electric_scooter", "rental_uris": {"android": "https://dc.lft.to/lastmile_qr_scan", "ios": "https://dc.lft.to/lastmile_qr_scan"}, "fusion_lat": 0.0, "name": "a1bbf472e677c4cb99a498a4206f0584", "lon": -77.03059866666666, "is_disabled": 0, "is_reserved": 0, "fusion_lon": 0.0, "bike_id": "a1bbf472e677c4cb99a498a4206f0584", "lat": 38.89829316666667}, {"type": "electric_scooter", "rental_uris": {"android": "https://dc.lft.to/lastmile_qr_scan", "ios": "https://dc.lft.to/lastmile_qr_scan"}, "fusion_lat": 0.0, "name": "706e66c74901b472e96ccc030307a25c", "lon": -77.02324183333333, "is_disabled": 0, "is_reserved": 0, "fusion_lon": 0.0, "bike_id": "706e66c74901b472e96ccc030307a25c", "lat": 38.9088455}, {"type": "electric_scooter", "rental_uris": {"android": "https://dc.lft.to/lastmile_qr_scan", "ios": "https://dc.lft.to/lastmile_qr_scan"}, "fusion_lat": 0.0, "name": "fce50cc76959d981e540af12676950ae", "lon": -77.04598916666667, "is_disabled": 0, "is_reserved": 0, "fusion_lon": 0.0, "bike_id": "fce50cc76959d981e540af12676950ae", "lat": 38.896063}, {"type": "electric_scooter", "rental_uris": {"android": "https://dc.lft.to/lastmile_qr_scan", "ios": "https://dc.lft.to/lastmile_qr_scan"}, "fusion_lat": 0.0, "name": "b365a0e57ef8ce4c9c61896bc7580c20", "lon": -77.03283016666667, "is_disabled": 0, "is_reserved": 0, "fusion_lon": 0.0, "bike_id": "b365a0e57ef8ce4c9c61896bc7580c20", "lat": 38.93643733333333}, {"type": "electric_scooter", "rental_uris": {"android": "https://dc.lft.to/lastmile_qr_scan", "ios": "https://dc.lft.to/lastmile_qr_scan"}, "fusion_lat": 0.0, "name": "1b799419475a8d970747ad0b4416b33f", "lon": -77.041045, "is_disabled": 0, "is_reserved": 0, "fusion_lon": 0.0, "bike_id": "1b799419475a8d970747ad0b4416b33f", "lat": 38.91855283333334}, {"type": "electric_bike", "rental_uris": {"android": "https://dc.lft.to/lastmile_qr_scan", "ios": "https://dc.lft.to/lastmile_qr_scan"}, "fusion_lat": 0.0, "name": "418852f5742f44797dabb6970b9068dd", "lon": -77.05939333333333, "is_disabled": 0, "is_reserved": 0, "fusion_lon": 0.0, "bike_id": "418852f5742f44797dabb6970b9068dd", "lat": 38.911941166666665}, {"type": "electric_scooter", "rental_uris": {"android": "https://dc.lft.to/lastmile_qr_scan", "ios": "https://dc.lft.to/lastmile_qr_scan"}, "fusion_lat": 0.0, "name": "68fe78f256092df97b30b75da8e82e90", "lon": -76.95663816666666, "is_disabled": 0, "is_reserved": 0, "fusion_lon": 0.0, "bike_id": "68fe78f256092df97b30b75da8e82e90", "lat": 38.895470833333334}, {"type": "electric_scooter", "rental_uris": {"android": "https://dc.lft.to/lastmile_qr_scan", "ios": "https://dc.lft.to/lastmile_qr_scan"}, "fusion_lat": 0.0, "name": "54e1438eefbbb082d7f5ff3d8afd8780", "lon": -77.01406233333333, "is_disabled": 0, "is_reserved": 0, "fusion_lon": 0.0, "bike_id": "54e1438eefbbb082d7f5ff3d8afd8780", "lat": 38.88746583333333}, {"type": "electric_scooter", "rental_uris": {"android": "https://dc.lft.to/lastmile_qr_scan", "ios": "https://dc.lft.to/lastmile_qr_scan"}, "fusion_lat": 0.0, "name": "4a5d91bde3eb7d5e0479f093e8c1951c", "lon": -77.034232, "is_disabled": 0, "is_reserved": 0, "fusion_lon": 0.0, "bike_id": "4a5d91bde3eb7d5e0479f093e8c1951c", "lat": 38.9041265}, {"type": "electric_bike", "rental_uris": {"android": "https://dc.lft.to/lastmile_qr_scan", "ios": "https://dc.lft.to/lastmile_qr_scan"}, "fusion_lat": 0.0, "name": "d66710f02b71049f20b12b9bf340b335", "lon": -77.17842116666667, "is_disabled": 0, "is_reserved": 0, "fusion_lon": 0.0, "bike_id": "d66710f02b71049f20b12b9bf340b335", "lat": 39.08860966666666}, {"type": "electric_scooter", "rental_uris": {"android": "https://dc.lft.to/lastmile_qr_scan", "ios": "https://dc.lft.to/lastmile_qr_scan"}, "fusion_lat": 0.0, "name": "59571fa7e407a7a4d77db40c380d0181", "lon": -76.99941533333333, "is_disabled": 0, "is_reserved": 0, "fusion_lon": 0.0, "bike_id": "59571fa7e407a7a4d77db40c380d0181", "lat": 38.8973945}, {"type": "electric_scooter", "rental_uris": {"android": "https://dc.lft.to/lastmile_qr_scan", "ios": "https://dc.lft.to/lastmile_qr_scan"}, "fusion_lat": 0.0, "name": "d5b46ea4704221f466069492dd975068", "lon": -76.99008283333333, "is_disabled": 0, "is_reserved": 0, "fusion_lon": 0.0, "bike_id": "d5b46ea4704221f466069492dd975068", "lat": 38.90395616666667}, {"type": "electric_scooter", "rental_uris": {"android": "https://dc.lft.to/lastmile_qr_scan", "ios": "https://dc.lft.to/lastmile_qr_scan"}, "fusion_lat": 0.0, "name": "813ac124232cf8d5aea64f0f41bae95a", "lon": -76.991643, "is_disabled": 0, "is_reserved": 0, "fusion_lon": 0.0, "bike_id": "813ac124232cf8d5aea64f0f41bae95a", "lat": 38.9096595}, {"type": "electric_scooter", "rental_uris": {"android": "https://dc.lft.to/lastmile_qr_scan", "ios": "https://dc.lft.to/lastmile_qr_scan"}, "fusion_lat": 0.0, "name": "e3f85897ec536d787519b771a659d54d", "lon": -77.05267783333333, "is_disabled": 0, "is_reserved": 0, "fusion_lon": 0.0, "bike_id": "e3f85897ec536d787519b771a659d54d", "lat": 38.92772266666667}, {"type": "electric_scooter", "rental_uris": {"android": "https://dc.lft.to/lastmile_qr_scan", "ios": "https://dc.lft.to/lastmile_qr_scan"}, "fusion_lat": 0.0, "name": "dcd194b8e49fe8eff04ae766d68d0147", "lon": -77.01475933333333, "is_disabled": 0, "is_reserved": 0, "fusion_lon": 0.0, "bike_id": "dcd194b8e49fe8eff04ae766d68d0147", "lat": 38.92674316666667}, {"type": "electric_bike", "rental_uris": {"android": "https://dc.lft.to/lastmile_qr_scan", "ios": "https://dc.lft.to/lastmile_qr_scan"}, "fusion_lat": 0.0, "name": "b81a36400f5e51320c02fc9a5a855db4", "lon": -76.99355816666667, "is_disabled": 0, "is_reserved": 0, "fusion_lon": 0.0, "bike_id": "b81a36400f5e51320c02fc9a5a855db4", "lat": 38.845052}, {"type": "electric_scooter", "rental_uris": {"android": "https://dc.lft.to/lastmile_qr_scan", "ios": "https://dc.lft.to/lastmile_qr_scan"}, "fusion_lat": 0.0, "name": "a43bb1d96198c8068af2de92cd84c0eb", "lon": -77.04588383333333, "is_disabled": 0, "is_reserved": 0, "fusion_lon": 0.0, "bike_id": "a43bb1d96198c8068af2de92cd84c0eb", "lat": 38.92128666666667}, {"type": "electric_scooter", "rental_uris": {"android": "https://dc.lft.to/lastmile_qr_scan", "ios": "https://dc.lft.to/lastmile_qr_scan"}, "fusion_lat": 0.0, "name": "8d8849b37471d8a1048f46c0f3c000bd", "lon": -77.0066255, "is_disabled": 0, "is_reserved": 0, "fusion_lon": 0.0, "bike_id": "8d8849b37471d8a1048f46c0f3c000bd", "lat": 38.900352}, {"type": "electric_scooter", "rental_uris": {"android": "https://dc.lft.to/lastmile_qr_scan", "ios": "https://dc.lft.to/lastmile_qr_scan"}, "fusion_lat": 0.0, "name": "fd3ea85b48c51ccc94e4beb7d9a438a7", "lon": -76.99830783333333, "is_disabled": 0, "is_reserved": 0, "fusion_lon": 0.0, "bike_id": "fd3ea85b48c51ccc94e4beb7d9a438a7", "lat": 38.88326966666666}, {"type": "electric_scooter", "rental_uris": {"android": "https://dc.lft.to/lastmile_qr_scan", "ios": "https://dc.lft.to/lastmile_qr_scan"}, "fusion_lat": 0.0, "name": "765c96a8ea528722a7e165592fe9c8f2", "lon": -77.048749, "is_disabled": 0, "is_reserved": 0, "fusion_lon": 0.0, "bike_id": "765c96a8ea528722a7e165592fe9c8f2", "lat": 38.90516616666667}, {"type": "electric_scooter", "rental_uris": {"android": "https://dc.lft.to/lastmile_qr_scan", "ios": "https://dc.lft.to/lastmile_qr_scan"}, "fusion_lat": 0.0, "name": "d78a381ce73a564a659351a4af35fe68", "lon": -77.0417205, "is_disabled": 0, "is_reserved": 0, "fusion_lon": 0.0, "bike_id": "d78a381ce73a564a659351a4af35fe68", "lat": 38.9165385}, {"type": "electric_bike", "rental_uris": {"android": "https://dc.lft.to/lastmile_qr_scan", "ios": "https://dc.lft.to/lastmile_qr_scan"}, "fusion_lat": 0.0, "name": "cd6b1f4c553bed409bc379725940d942", "lon": -77.3609575, "is_disabled": 0, "is_reserved": 0, "fusion_lon": 0.0, "bike_id": "cd6b1f4c553bed409bc379725940d942", "lat": 38.93952566666667}, {"type": "electric_scooter", "rental_uris": {"android": "https://dc.lft.to/lastmile_qr_scan", "ios": "https://dc.lft.to/lastmile_qr_scan"}, "fusion_lat": 0.0, "name": "b8fa18ea088af727b424baa02e058dff", "lon": -77.00210083333333, "is_disabled": 0, "is_reserved": 0, "fusion_lon": 0.0, "bike_id": "b8fa18ea088af727b424baa02e058dff", "lat": 38.88125316666667}, {"type": "electric_scooter", "rental_uris": {"android": "https://dc.lft.to/lastmile_qr_scan", "ios": "https://dc.lft.to/lastmile_qr_scan"}, "fusion_lat": 0.0, "name": "35e0e7f07504f2a091e71e77e46c5582", "lon": -77.038796, "is_disabled": 0, "is_reserved": 0, "fusion_lon": 0.0, "bike_id": "35e0e7f07504f2a091e71e77e46c5582", "lat": 38.90256516666667}, {"type": "electric_scooter", "rental_uris": {"android": "https://dc.lft.to/lastmile_qr_scan", "ios": "https://dc.lft.to/lastmile_qr_scan"}, "fusion_lat": 0.0, "name": "4391601501f37c10388bf1fb21f733a4", "lon": -76.98615666666667, "is_disabled": 0, "is_reserved": 0, "fusion_lon": 0.0, "bike_id": "4391601501f37c10388bf1fb21f733a4", "lat": 38.93828666666667}, {"type": "electric_scooter", "rental_uris": {"android": "https://dc.lft.to/lastmile_qr_scan", "ios": "https://dc.lft.to/lastmile_qr_scan"}, "fusion_lat": 0.0, "name": "6258b6e7c4f26271084d6170d67c94d3", "lon": -77.01675933333334, "is_disabled": 0, "is_reserved": 0, "fusion_lon": 0.0, "bike_id": "6258b6e7c4f26271084d6170d67c94d3", "lat": 38.900717}, {"type": "electric_bike", "rental_uris": {"android": "https://dc.lft.to/lastmile_qr_scan", "ios": "https://dc.lft.to/lastmile_qr_scan"}, "fusion_lat": 0.0, "name": "73455d806cd6c29b147c21dcb19de64c", "lon": -76.97705, "is_disabled": 0, "is_reserved": 0, "fusion_lon": 0.0, "bike_id": "73455d806cd6c29b147c21dcb19de64c", "lat": 38.949153}, {"type": "electric_bike", "rental_uris": {"android": "https://dc.lft.to/lastmile_qr_scan", "ios": "https://dc.lft.to/lastmile_qr_scan"}, "fusion_lat": 0.0, "name": "c412cbe0bf633de5bc65b757b9bab0d6", "lon": -76.98033083333334, "is_disabled": 0, "is_reserved": 0, "fusion_lon": 0.0, "bike_id": "c412cbe0bf633de5bc65b757b9bab0d6", "lat": 38.9008935}, {"type": "electric_scooter", "rental_uris": {"android": "https://dc.lft.to/lastmile_qr_scan", "ios": "https://dc.lft.to/lastmile_qr_scan"}, "fusion_lat": 0.0, "name": "63b3266e96b17597423db2c47ec53c9e", "lon": -77.023995, "is_disabled": 0, "is_reserved": 0, "fusion_lon": 0.0, "bike_id": "63b3266e96b17597423db2c47ec53c9e", "lat": 38.905859166666666}, {"type": "electric_scooter", "rental_uris": {"android": "https://dc.lft.to/lastmile_qr_scan", "ios": "https://dc.lft.to/lastmile_qr_scan"}, "fusion_lat": 0.0, "name": "52af590d3b6593660b2ae6926bfa547b", "lon": -77.00361383333333, "is_disabled": 0, "is_reserved": 0, "fusion_lon": 0.0, "bike_id": "52af590d3b6593660b2ae6926bfa547b", "lat": 38.898994}, {"type": "electric_scooter", "rental_uris": {"android": "https://dc.lft.to/lastmile_qr_scan", "ios": "https://dc.lft.to/lastmile_qr_scan"}, "fusion_lat": 0.0, "name": "f57fd77bb818c7f9d71209888a65b47e", "lon": -77.02396616666667, "is_disabled": 0, "is_reserved": 0, "fusion_lon": 0.0, "bike_id": "f57fd77bb818c7f9d71209888a65b47e", "lat": 38.9141805}, {"type": "electric_bike", "rental_uris": {"android": "https://dc.lft.to/lastmile_qr_scan", "ios": "https://dc.lft.to/lastmile_qr_scan"}, "fusion_lat": 0.0, "name": "29259435d31aea8d1b9d8f7b2a7e3512", "lon": -76.90612, "is_disabled": 0, "is_reserved": 0, "fusion_lon": 0.0, "bike_id": "29259435d31aea8d1b9d8f7b2a7e3512", "lat": 39.004610666666665}, {"type": "electric_scooter", "rental_uris": {"android": "https://dc.lft.to/lastmile_qr_scan", "ios": "https://dc.lft.to/lastmile_qr_scan"}, "fusion_lat": 0.0, "name": "34d08f0e349e9ade9b595d4c63b98073", "lon": -77.03637816666667, "is_disabled": 0, "is_reserved": 0, "fusion_lon": 0.0, "bike_id": "34d08f0e349e9ade9b595d4c63b98073", "lat": 38.90382233333333}, {"type": "electric_scooter", "rental_uris": {"android": "https://dc.lft.to/lastmile_qr_scan", "ios": "https://dc.lft.to/lastmile_qr_scan"}, "fusion_lat": 0.0, "name": "802baecbe7500a339414a071b3bc37d5", "lon": -77.03247383333333, "is_disabled": 0, "is_reserved": 0, "fusion_lon": 0.0, "bike_id": "802baecbe7500a339414a071b3bc37d5", "lat": 38.9156785}, {"type": "electric_scooter", "rental_uris": {"android": "https://dc.lft.to/lastmile_qr_scan", "ios": "https://dc.lft.to/lastmile_qr_scan"}, "fusion_lat": 0.0, "name": "90ecc3c0a62075f8b62173818a43437e", "lon": -77.02614333333334, "is_disabled": 0, "is_reserved": 0, "fusion_lon": 0.0, "bike_id": "90ecc3c0a62075f8b62173818a43437e", "lat": 38.9140505}, {"type": "electric_scooter", "rental_uris": {"android": "https://dc.lft.to/lastmile_qr_scan", "ios": "https://dc.lft.to/lastmile_qr_scan"}, "fusion_lat": 0.0, "name": "8ec94467ed89365123e9267164c291f8", "lon": -77.0285175, "is_disabled": 0, "is_reserved": 0, "fusion_lon": 0.0, "bike_id": "8ec94467ed89365123e9267164c291f8", "lat": 38.9324245}, {"type": "electric_scooter", "rental_uris": {"android": "https://dc.lft.to/lastmile_qr_scan", "ios": "https://dc.lft.to/lastmile_qr_scan"}, "fusion_lat": 0.0, "name": "a6a3292b884fca560e8c8194d0bbf2f6", "lon": -76.99955133333333, "is_disabled": 0, "is_reserved": 0, "fusion_lon": 0.0, "bike_id": "a6a3292b884fca560e8c8194d0bbf2f6", "lat": 38.9086455}, {"type": "electric_scooter", "rental_uris": {"android": "https://dc.lft.to/lastmile_qr_scan", "ios": "https://dc.lft.to/lastmile_qr_scan"}, "fusion_lat": 0.0, "name": "ce43839dcea1c2e73e8e9270c3e962ec", "lon": -77.02609983333333, "is_disabled": 0, "is_reserved": 0, "fusion_lon": 0.0, "bike_id": "ce43839dcea1c2e73e8e9270c3e962ec", "lat": 38.91403916666667}, {"type": "electric_scooter", "rental_uris": {"android": "https://dc.lft.to/lastmile_qr_scan", "ios": "https://dc.lft.to/lastmile_qr_scan"}, "fusion_lat": 0.0, "name": "dfb5e2b3f0b4b988c28a66a540ce0d49", "lon": -77.024003, "is_disabled": 0, "is_reserved": 0, "fusion_lon": 0.0, "bike_id": "dfb5e2b3f0b4b988c28a66a540ce0d49", "lat": 38.907024}, {"type": "electric_scooter", "rental_uris": {"android": "https://dc.lft.to/lastmile_qr_scan", "ios": "https://dc.lft.to/lastmile_qr_scan"}, "fusion_lat": 0.0, "name": "98b966e27e1192a28b56752faa599bf1", "lon": -77.0297415, "is_disabled": 0, "is_reserved": 0, "fusion_lon": 0.0, "bike_id": "98b966e27e1192a28b56752faa599bf1", "lat": 38.90683583333333}, {"type": "electric_scooter", "rental_uris": {"android": "https://dc.lft.to/lastmile_qr_scan", "ios": "https://dc.lft.to/lastmile_qr_scan"}, "fusion_lat": 0.0, "name": "0e95195eff3cc14ef788e86d21e44d9c", "lon": -77.00379066666666, "is_disabled": 0, "is_reserved": 0, "fusion_lon": 0.0, "bike_id": "0e95195eff3cc14ef788e86d21e44d9c", "lat": 38.897352833333336}, {"type": "electric_scooter", "rental_uris": {"android": "https://dc.lft.to/lastmile_qr_scan", "ios": "https://dc.lft.to/lastmile_qr_scan"}, "fusion_lat": 0.0, "name": "34fd80a061ba892b8c45d64d70e139bc", "lon": -77.03582216666666, "is_disabled": 0, "is_reserved": 0, "fusion_lon": 0.0, "bike_id": "34fd80a061ba892b8c45d64d70e139bc", "lat": 38.907593}, {"type": "electric_scooter", "rental_uris": {"android": "https://dc.lft.to/lastmile_qr_scan", "ios": "https://dc.lft.to/lastmile_qr_scan"}, "fusion_lat": 0.0, "name": "4c8e95b1fd60378b53380dfb625969b0", "lon": -77.00984633333333, "is_disabled": 0, "is_reserved": 0, "fusion_lon": 0.0, "bike_id": "4c8e95b1fd60378b53380dfb625969b0", "lat": 38.872837833333335}, {"type": "electric_bike", "rental_uris": {"android": "https://dc.lft.to/lastmile_qr_scan", "ios": "https://dc.lft.to/lastmile_qr_scan"}, "fusion_lat": 0.0, "name": "f23efc3342a9d2a02219215ef3e50e78", "lon": -76.93878716666667, "is_disabled": 0, "is_reserved": 0, "fusion_lon": 0.0, "bike_id": "f23efc3342a9d2a02219215ef3e50e78", "lat": 38.956252}, {"type": "electric_scooter", "rental_uris": {"android": "https://dc.lft.to/lastmile_qr_scan", "ios": "https://dc.lft.to/lastmile_qr_scan"}, "fusion_lat": 0.0, "name": "6b8bde3df3560c4ee91d21c0afae2878", "lon": -77.0454025, "is_disabled": 0, "is_reserved": 0, "fusion_lon": 0.0, "bike_id": "6b8bde3df3560c4ee91d21c0afae2878", "lat": 38.913256833333335}, {"type": "electric_scooter", "rental_uris": {"android": "https://dc.lft.to/lastmile_qr_scan", "ios": "https://dc.lft.to/lastmile_qr_scan"}, "fusion_lat": 0.0, "name": "591e2ab8b9fc5a2126dbb73f4571158c", "lon": -77.01806183333333, "is_disabled": 0, "is_reserved": 0, "fusion_lon": 0.0, "bike_id": "591e2ab8b9fc5a2126dbb73f4571158c", "lat": 38.90968516666667}, {"type": "electric_scooter", "rental_uris": {"android": "https://dc.lft.to/lastmile_qr_scan", "ios": "https://dc.lft.to/lastmile_qr_scan"}, "fusion_lat": 0.0, "name": "9286b98bc6194c1404efbd17d51b382f", "lon": -77.026308, "is_disabled": 0, "is_reserved": 0, "fusion_lon": 0.0, "bike_id": "9286b98bc6194c1404efbd17d51b382f", "lat": 38.897882}, {"type": "electric_scooter", "rental_uris": {"android": "https://dc.lft.to/lastmile_qr_scan", "ios": "https://dc.lft.to/lastmile_qr_scan"}, "fusion_lat": 0.0, "name": "89773ff69d266bbe66c66c2463b03eff", "lon": -77.07265283333334, "is_disabled": 0, "is_reserved": 0, "fusion_lon": 0.0, "bike_id": "89773ff69d266bbe66c66c2463b03eff", "lat": 38.912718}, {"type": "electric_scooter", "rental_uris": {"android": "https://dc.lft.to/lastmile_qr_scan", "ios": "https://dc.lft.to/lastmile_qr_scan"}, "fusion_lat": 0.0, "name": "ff64dad79ea385dabe26f83042055259", "lon": -76.98248183333334, "is_disabled": 0, "is_reserved": 0, "fusion_lon": 0.0, "bike_id": "ff64dad79ea385dabe26f83042055259", "lat": 38.86456316666667}, {"type": "electric_scooter", "rental_uris": {"android": "https://dc.lft.to/lastmile_qr_scan", "ios": "https://dc.lft.to/lastmile_qr_scan"}, "fusion_lat": 0.0, "name": "9a7200162eb4305167801781005d4520", "lon": -77.00565216666666, "is_disabled": 0, "is_reserved": 0, "fusion_lon": 0.0, "bike_id": "9a7200162eb4305167801781005d4520", "lat": 38.900395}, {"type": "electric_scooter", "rental_uris": {"android": "https://dc.lft.to/lastmile_qr_scan", "ios": "https://dc.lft.to/lastmile_qr_scan"}, "fusion_lat": 0.0, "name": "b7dd8a16af3e283f1813cfe99c3e41d4", "lon": -77.047031, "is_disabled": 0, "is_reserved": 0, "fusion_lon": 0.0, "bike_id": "b7dd8a16af3e283f1813cfe99c3e41d4", "lat": 38.918920666666665}, {"type": "electric_scooter", "rental_uris": {"android": "https://dc.lft.to/lastmile_qr_scan", "ios": "https://dc.lft.to/lastmile_qr_scan"}, "fusion_lat": 0.0, "name": "b4995a976bc00999e3b5eeaea21fceb1", "lon": -77.03639783333334, "is_disabled": 0, "is_reserved": 0, "fusion_lon": 0.0, "bike_id": "b4995a976bc00999e3b5eeaea21fceb1", "lat": 38.922655666666664}, {"type": "electric_scooter", "rental_uris": {"android": "https://dc.lft.to/lastmile_qr_scan", "ios": "https://dc.lft.to/lastmile_qr_scan"}, "fusion_lat": 0.0, "name": "1191b12a8d180e1feba64259c5b4f6f1", "lon": -77.02691516666667, "is_disabled": 0, "is_reserved": 0, "fusion_lon": 0.0, "bike_id": "1191b12a8d180e1feba64259c5b4f6f1", "lat": 38.909355166666664}, {"type": "electric_scooter", "rental_uris": {"android": "https://dc.lft.to/lastmile_qr_scan", "ios": "https://dc.lft.to/lastmile_qr_scan"}, "fusion_lat": 0.0, "name": "d1e86ca943ebecf0606711cb3c03300b", "lon": -77.02716666666667, "is_disabled": 0, "is_reserved": 0, "fusion_lon": 0.0, "bike_id": "d1e86ca943ebecf0606711cb3c03300b", "lat": 38.92466433333333}, {"type": "electric_bike", "rental_uris": {"android": "https://dc.lft.to/lastmile_qr_scan", "ios": "https://dc.lft.to/lastmile_qr_scan"}, "fusion_lat": 0.0, "name": "3f691dc53668e45c3ca1ce35da65f608", "lon": -76.981103, "is_disabled": 0, "is_reserved": 0, "fusion_lon": 0.0, "bike_id": "3f691dc53668e45c3ca1ce35da65f608", "lat": 38.877296}, {"type": "electric_scooter", "rental_uris": {"android": "https://dc.lft.to/lastmile_qr_scan", "ios": "https://dc.lft.to/lastmile_qr_scan"}, "fusion_lat": 0.0, "name": "ef1890510b2e40f20ae856c5eeed8ce6", "lon": -77.00193266666666, "is_disabled": 0, "is_reserved": 0, "fusion_lon": 0.0, "bike_id": "ef1890510b2e40f20ae856c5eeed8ce6", "lat": 38.894745666666665}, {"type": "electric_scooter", "rental_uris": {"android": "https://dc.lft.to/lastmile_qr_scan", "ios": "https://dc.lft.to/lastmile_qr_scan"}, "fusion_lat": 0.0, "name": "60c372ba3c6abde58790e84dbb982bfa", "lon": -77.0252665, "is_disabled": 0, "is_reserved": 0, "fusion_lon": 0.0, "bike_id": "60c372ba3c6abde58790e84dbb982bfa", "lat": 38.919863666666664}, {"type": "electric_scooter", "rental_uris": {"android": "https://dc.lft.to/lastmile_qr_scan", "ios": "https://dc.lft.to/lastmile_qr_scan"}, "fusion_lat": 0.0, "name": "286556f67c02e87949190bcdeccce732", "lon": -77.025901, "is_disabled": 0, "is_reserved": 0, "fusion_lon": 0.0, "bike_id": "286556f67c02e87949190bcdeccce732", "lat": 38.9141085}, {"type": "electric_scooter", "rental_uris": {"android": "https://dc.lft.to/lastmile_qr_scan", "ios": "https://dc.lft.to/lastmile_qr_scan"}, "fusion_lat": 0.0, "name": "a7e50ed2be8b582efecde233753dbe8b", "lon": -76.99787616666667, "is_disabled": 0, "is_reserved": 0, "fusion_lon": 0.0, "bike_id": "a7e50ed2be8b582efecde233753dbe8b", "lat": 38.890958833333336}, {"type": "electric_scooter", "rental_uris": {"android": "https://dc.lft.to/lastmile_qr_scan", "ios": "https://dc.lft.to/lastmile_qr_scan"}, "fusion_lat": 0.0, "name": "35396a4fc8f9fd1c6bb68f0c4a52f7b8", "lon": -77.06293333333333, "is_disabled": 0, "is_reserved": 0, "fusion_lon": 0.0, "bike_id": "35396a4fc8f9fd1c6bb68f0c4a52f7b8", "lat": 38.90682}, {"type": "electric_scooter", "rental_uris": {"android": "https://dc.lft.to/lastmile_qr_scan", "ios": "https://dc.lft.to/lastmile_qr_scan"}, "fusion_lat": 0.0, "name": "63cf3018eab48fbd96efcb4857518b0c", "lon": -77.01595833333333, "is_disabled": 0, "is_reserved": 0, "fusion_lon": 0.0, "bike_id": "63cf3018eab48fbd96efcb4857518b0c", "lat": 38.9493855}, {"type": "electric_scooter", "rental_uris": {"android": "https://dc.lft.to/lastmile_qr_scan", "ios": "https://dc.lft.to/lastmile_qr_scan"}, "fusion_lat": 0.0, "name": "39a04b8d29e0526765d59fe0f0e24b94", "lon": -77.04285, "is_disabled": 0, "is_reserved": 0, "fusion_lon": 0.0, "bike_id": "39a04b8d29e0526765d59fe0f0e24b94", "lat": 38.90958933333334}, {"type": "electric_scooter", "rental_uris": {"android": "https://dc.lft.to/lastmile_qr_scan", "ios": "https://dc.lft.to/lastmile_qr_scan"}, "fusion_lat": 0.0, "name": "800baa9bf8bce4d6f31cde20bf75a6ac", "lon": -76.98554216666666, "is_disabled": 0, "is_reserved": 0, "fusion_lon": 0.0, "bike_id": "800baa9bf8bce4d6f31cde20bf75a6ac", "lat": 38.91030633333333}, {"type": "electric_scooter", "rental_uris": {"android": "https://dc.lft.to/lastmile_qr_scan", "ios": "https://dc.lft.to/lastmile_qr_scan"}, "fusion_lat": 0.0, "name": "3bf550c9f9f783c932e68a1ea5c9df25", "lon": -77.04181716666666, "is_disabled": 0, "is_reserved": 0, "fusion_lon": 0.0, "bike_id": "3bf550c9f9f783c932e68a1ea5c9df25", "lat": 38.91553583333334}, {"type": "electric_scooter", "rental_uris": {"android": "https://dc.lft.to/lastmile_qr_scan", "ios": "https://dc.lft.to/lastmile_qr_scan"}, "fusion_lat": 0.0, "name": "4824958e874c8724c42b671e496bfd30", "lon": -77.03372216666666, "is_disabled": 0, "is_reserved": 0, "fusion_lon": 0.0, "bike_id": "4824958e874c8724c42b671e496bfd30", "lat": 38.90968133333333}, {"type": "electric_scooter", "rental_uris": {"android": "https://dc.lft.to/lastmile_qr_scan", "ios": "https://dc.lft.to/lastmile_qr_scan"}, "fusion_lat": 0.0, "name": "3756d301a5e0e4055c0dda317a0a3e73", "lon": -77.0475315, "is_disabled": 0, "is_reserved": 0, "fusion_lon": 0.0, "bike_id": "3756d301a5e0e4055c0dda317a0a3e73", "lat": 38.92318016666667}, {"type": "electric_scooter", "rental_uris": {"android": "https://dc.lft.to/lastmile_qr_scan", "ios": "https://dc.lft.to/lastmile_qr_scan"}, "fusion_lat": 0.0, "name": "4ea730495b51cbf81c84c81ecdd52fa7", "lon": -77.018858, "is_disabled": 0, "is_reserved": 0, "fusion_lon": 0.0, "bike_id": "4ea730495b51cbf81c84c81ecdd52fa7", "lat": 38.9036215}, {"type": "electric_scooter", "rental_uris": {"android": "https://dc.lft.to/lastmile_qr_scan", "ios": "https://dc.lft.to/lastmile_qr_scan"}, "fusion_lat": 0.0, "name": "c7887e7fe102a3a1fc3d14a88383ff22", "lon": -77.03267616666666, "is_disabled": 0, "is_reserved": 0, "fusion_lon": 0.0, "bike_id": "c7887e7fe102a3a1fc3d14a88383ff22", "lat": 38.928939166666666}, {"type": "electric_scooter", "rental_uris": {"android": "https://dc.lft.to/lastmile_qr_scan", "ios": "https://dc.lft.to/lastmile_qr_scan"}, "fusion_lat": 0.0, "name": "46acfe5f6ee0492e116617d46de79e3e", "lon": -77.02997316666666, "is_disabled": 0, "is_reserved": 0, "fusion_lon": 0.0, "bike_id": "46acfe5f6ee0492e116617d46de79e3e", "lat": 38.8937505}, {"type": "electric_scooter", "rental_uris": {"android": "https://dc.lft.to/lastmile_qr_scan", "ios": "https://dc.lft.to/lastmile_qr_scan"}, "fusion_lat": 0.0, "name": "59f558bd3e13676de3d393b63115a4dd", "lon": -77.02184883333334, "is_disabled": 0, "is_reserved": 0, "fusion_lon": 0.0, "bike_id": "59f558bd3e13676de3d393b63115a4dd", "lat": 38.901278833333336}, {"type": "electric_scooter", "rental_uris": {"android": "https://dc.lft.to/lastmile_qr_scan", "ios": "https://dc.lft.to/lastmile_qr_scan"}, "fusion_lat": 0.0, "name": "aa517247e6bc630acc3d3825ab2dd970", "lon": -77.03747366666667, "is_disabled": 0, "is_reserved": 0, "fusion_lon": 0.0, "bike_id": "aa517247e6bc630acc3d3825ab2dd970", "lat": 38.922046333333334}, {"type": "electric_scooter", "rental_uris": {"android": "https://dc.lft.to/lastmile_qr_scan", "ios": "https://dc.lft.to/lastmile_qr_scan"}, "fusion_lat": 0.0, "name": "8a1c2ea2520bf5cd66aae9603f9c5c89", "lon": -76.9827505, "is_disabled": 0, "is_reserved": 0, "fusion_lon": 0.0, "bike_id": "8a1c2ea2520bf5cd66aae9603f9c5c89", "lat": 38.885369}, {"type": "electric_scooter", "rental_uris": {"android": "https://dc.lft.to/lastmile_qr_scan", "ios": "https://dc.lft.to/lastmile_qr_scan"}, "fusion_lat": 0.0, "name": "b7753677faec11dd77f974b08e784c6a", "lon": -77.05887683333333, "is_disabled": 0, "is_reserved": 0, "fusion_lon": 0.0, "bike_id": "b7753677faec11dd77f974b08e784c6a", "lat": 38.9364145}, {"type": "electric_scooter", "rental_uris": {"android": "https://dc.lft.to/lastmile_qr_scan", "ios": "https://dc.lft.to/lastmile_qr_scan"}, "fusion_lat": 0.0, "name": "6a101ceee53db947cac4709edc3ba1dd", "lon": -77.0325855, "is_disabled": 0, "is_reserved": 0, "fusion_lon": 0.0, "bike_id": "6a101ceee53db947cac4709edc3ba1dd", "lat": 38.93969833333333}, {"type": "electric_scooter", "rental_uris": {"android": "https://dc.lft.to/lastmile_qr_scan", "ios": "https://dc.lft.to/lastmile_qr_scan"}, "fusion_lat": 0.0, "name": "db1bc87f02d96d0fabd21c4cc318ff97", "lon": -76.98101983333333, "is_disabled": 0, "is_reserved": 0, "fusion_lon": 0.0, "bike_id": "db1bc87f02d96d0fabd21c4cc318ff97", "lat": 38.90391833333334}, {"type": "electric_scooter", "rental_uris": {"android": "https://dc.lft.to/lastmile_qr_scan", "ios": "https://dc.lft.to/lastmile_qr_scan"}, "fusion_lat": 0.0, "name": "0ba0e42af250001aeaca1b51d3eeab5f", "lon": -76.99838416666667, "is_disabled": 0, "is_reserved": 0, "fusion_lon": 0.0, "bike_id": "0ba0e42af250001aeaca1b51d3eeab5f", "lat": 38.890902833333335}, {"type": "electric_scooter", "rental_uris": {"android": "https://dc.lft.to/lastmile_qr_scan", "ios": "https://dc.lft.to/lastmile_qr_scan"}, "fusion_lat": 0.0, "name": "7803347c34a9911572c3601367dfcc41", "lon": -77.02529016666666, "is_disabled": 0, "is_reserved": 0, "fusion_lon": 0.0, "bike_id": "7803347c34a9911572c3601367dfcc41", "lat": 38.932908}, {"type": "electric_scooter", "rental_uris": {"android": "https://dc.lft.to/lastmile_qr_scan", "ios": "https://dc.lft.to/lastmile_qr_scan"}, "fusion_lat": 0.0, "name": "e8262dc6d18fff8cc8c0178127143b24", "lon": -77.03166566666667, "is_disabled": 0, "is_reserved": 0, "fusion_lon": 0.0, "bike_id": "e8262dc6d18fff8cc8c0178127143b24", "lat": 38.915728}, {"type": "electric_scooter", "rental_uris": {"android": "https://dc.lft.to/lastmile_qr_scan", "ios": "https://dc.lft.to/lastmile_qr_scan"}, "fusion_lat": 0.0, "name": "6d114f87900eb602522559ca72c01432", "lon": -76.9978255, "is_disabled": 0, "is_reserved": 0, "fusion_lon": 0.0, "bike_id": "6d114f87900eb602522559ca72c01432", "lat": 38.84430566666666}, {"type": "electric_scooter", "rental_uris": {"android": "https://dc.lft.to/lastmile_qr_scan", "ios": "https://dc.lft.to/lastmile_qr_scan"}, "fusion_lat": 0.0, "name": "a04ba3e3167fe5e27bf7e65004e6f174", "lon": -76.98359766666667, "is_disabled": 0, "is_reserved": 0, "fusion_lon": 0.0, "bike_id": "a04ba3e3167fe5e27bf7e65004e6f174", "lat": 38.887511833333335}, {"type": "electric_scooter", "rental_uris": {"android": "https://dc.lft.to/lastmile_qr_scan", "ios": "https://dc.lft.to/lastmile_qr_scan"}, "fusion_lat": 0.0, "name": "654e2f42a549fe0c0ab276b4ccf1ea70", "lon": -77.02717516666667, "is_disabled": 0, "is_reserved": 0, "fusion_lon": 0.0, "bike_id": "654e2f42a549fe0c0ab276b4ccf1ea70", "lat": 38.89558383333333}, {"type": "electric_scooter", "rental_uris": {"android": "https://dc.lft.to/lastmile_qr_scan", "ios": "https://dc.lft.to/lastmile_qr_scan"}, "fusion_lat": 0.0, "name": "de275f6d5389616d8085020ba5231514", "lon": -77.02695066666666, "is_disabled": 0, "is_reserved": 0, "fusion_lon": 0.0, "bike_id": "de275f6d5389616d8085020ba5231514", "lat": 38.908394333333334}, {"type": "electric_scooter", "rental_uris": {"android": "https://dc.lft.to/lastmile_qr_scan", "ios": "https://dc.lft.to/lastmile_qr_scan"}, "fusion_lat": 0.0, "name": "2abad48b2cf4592f9b4ea1997a4cbfbf", "lon": -77.029646, "is_disabled": 0, "is_reserved": 0, "fusion_lon": 0.0, "bike_id": "2abad48b2cf4592f9b4ea1997a4cbfbf", "lat": 38.916763833333334}, {"type": "electric_scooter", "rental_uris": {"android": "https://dc.lft.to/lastmile_qr_scan", "ios": "https://dc.lft.to/lastmile_qr_scan"}, "fusion_lat": 0.0, "name": "2f2004c3622fa712dee38964b37a4402", "lon": -77.02209666666667, "is_disabled": 0, "is_reserved": 0, "fusion_lon": 0.0, "bike_id": "2f2004c3622fa712dee38964b37a4402", "lat": 38.90532266666666}, {"type": "electric_scooter", "rental_uris": {"android": "https://dc.lft.to/lastmile_qr_scan", "ios": "https://dc.lft.to/lastmile_qr_scan"}, "fusion_lat": 0.0, "name": "6ec6f723d8009069f3cc02453988c956", "lon": -77.019984, "is_disabled": 0, "is_reserved": 0, "fusion_lon": 0.0, "bike_id": "6ec6f723d8009069f3cc02453988c956", "lat": 38.9095705}, {"type": "electric_scooter", "rental_uris": {"android": "https://dc.lft.to/lastmile_qr_scan", "ios": "https://dc.lft.to/lastmile_qr_scan"}, "fusion_lat": 0.0, "name": "44045d81fd60df43e8f0bfba7ef359a0", "lon": -77.04470616666667, "is_disabled": 0, "is_reserved": 0, "fusion_lon": 0.0, "bike_id": "44045d81fd60df43e8f0bfba7ef359a0", "lat": 38.908320833333335}, {"type": "electric_scooter", "rental_uris": {"android": "https://dc.lft.to/lastmile_qr_scan", "ios": "https://dc.lft.to/lastmile_qr_scan"}, "fusion_lat": 0.0, "name": "8be6c77423c606c745099e7ed0e8d1f2", "lon": -76.98566316666667, "is_disabled": 0, "is_reserved": 0, "fusion_lon": 0.0, "bike_id": "8be6c77423c606c745099e7ed0e8d1f2", "lat": 38.90008866666667}, {"type": "electric_bike", "rental_uris": {"android": "https://dc.lft.to/lastmile_qr_scan", "ios": "https://dc.lft.to/lastmile_qr_scan"}, "fusion_lat": 0.0, "name": "b3b753f6ca5cbfb0da77557b68cfc8c6", "lon": -76.97531733333334, "is_disabled": 0, "is_reserved": 0, "fusion_lon": 0.0, "bike_id": "b3b753f6ca5cbfb0da77557b68cfc8c6", "lat": 38.9033385}, {"type": "electric_scooter", "rental_uris": {"android": "https://dc.lft.to/lastmile_qr_scan", "ios": "https://dc.lft.to/lastmile_qr_scan"}, "fusion_lat": 0.0, "name": "678dafe9f47772139f79e96a0acd805c", "lon": -77.0267205, "is_disabled": 0, "is_reserved": 0, "fusion_lon": 0.0, "bike_id": "678dafe9f47772139f79e96a0acd805c", "lat": 38.918147833333336}, {"type": "electric_scooter", "rental_uris": {"android": "https://dc.lft.to/lastmile_qr_scan", "ios": "https://dc.lft.to/lastmile_qr_scan"}, "fusion_lat": 0.0, "name": "c2f6ef2217bfcf797c273fe13a9fa9e7", "lon": -77.060758, "is_disabled": 0, "is_reserved": 0, "fusion_lon": 0.0, "bike_id": "c2f6ef2217bfcf797c273fe13a9fa9e7", "lat": 38.90533283333333}, {"type": "electric_scooter", "rental_uris": {"android": "https://dc.lft.to/lastmile_qr_scan", "ios": "https://dc.lft.to/lastmile_qr_scan"}, "fusion_lat": 0.0, "name": "4275e4585c1227302a186c363969a78e", "lon": -77.03077866666666, "is_disabled": 0, "is_reserved": 0, "fusion_lon": 0.0, "bike_id": "4275e4585c1227302a186c363969a78e", "lat": 38.922539}, {"type": "electric_scooter", "rental_uris": {"android": "https://dc.lft.to/lastmile_qr_scan", "ios": "https://dc.lft.to/lastmile_qr_scan"}, "fusion_lat": 0.0, "name": "8dfbcc34096900560c778fc2730cbc80", "lon": -76.98370083333333, "is_disabled": 0, "is_reserved": 0, "fusion_lon": 0.0, "bike_id": "8dfbcc34096900560c778fc2730cbc80", "lat": 38.91546816666666}, {"type": "electric_scooter", "rental_uris": {"android": "https://dc.lft.to/lastmile_qr_scan", "ios": "https://dc.lft.to/lastmile_qr_scan"}, "fusion_lat": 0.0, "name": "55306135e04712c1193be9e787b8712a", "lon": -76.98113033333334, "is_disabled": 0, "is_reserved": 0, "fusion_lon": 0.0, "bike_id": "55306135e04712c1193be9e787b8712a", "lat": 38.904090333333336}, {"type": "electric_scooter", "rental_uris": {"android": "https://dc.lft.to/lastmile_qr_scan", "ios": "https://dc.lft.to/lastmile_qr_scan"}, "fusion_lat": 0.0, "name": "2ec4407292db5f4c37b6dd6e4ea03f94", "lon": -77.050276, "is_disabled": 0, "is_reserved": 0, "fusion_lon": 0.0, "bike_id": "2ec4407292db5f4c37b6dd6e4ea03f94", "lat": 38.898332833333335}, {"type": "electric_scooter", "rental_uris": {"android": "https://dc.lft.to/lastmile_qr_scan", "ios": "https://dc.lft.to/lastmile_qr_scan"}, "fusion_lat": 0.0, "name": "406998800b0bdeb4b831ffbbef8e5022", "lon": -77.0222875, "is_disabled": 0, "is_reserved": 0, "fusion_lon": 0.0, "bike_id": "406998800b0bdeb4b831ffbbef8e5022", "lat": 38.89221916666666}, {"type": "electric_scooter", "rental_uris": {"android": "https://dc.lft.to/lastmile_qr_scan", "ios": "https://dc.lft.to/lastmile_qr_scan"}, "fusion_lat": 0.0, "name": "5783fae7beda5bed45fc530271935ef0", "lon": -77.03700916666666, "is_disabled": 0, "is_reserved": 0, "fusion_lon": 0.0, "bike_id": "5783fae7beda5bed45fc530271935ef0", "lat": 38.918265166666664}, {"type": "electric_scooter", "rental_uris": {"android": "https://dc.lft.to/lastmile_qr_scan", "ios": "https://dc.lft.to/lastmile_qr_scan"}, "fusion_lat": 0.0, "name": "96b381c83ec504597ab679f25b8d2af5", "lon": -77.02796316666667, "is_disabled": 0, "is_reserved": 0, "fusion_lon": 0.0, "bike_id": "96b381c83ec504597ab679f25b8d2af5", "lat": 38.953921333333334}, {"type": "electric_scooter", "rental_uris": {"android": "https://dc.lft.to/lastmile_qr_scan", "ios": "https://dc.lft.to/lastmile_qr_scan"}, "fusion_lat": 0.0, "name": "b23677a6d59ab5f5604ebdd3ca0ce839", "lon": -77.02347483333334, "is_disabled": 0, "is_reserved": 0, "fusion_lon": 0.0, "bike_id": "b23677a6d59ab5f5604ebdd3ca0ce839", "lat": 38.922493333333335}, {"type": "electric_scooter", "rental_uris": {"android": "https://dc.lft.to/lastmile_qr_scan", "ios": "https://dc.lft.to/lastmile_qr_scan"}, "fusion_lat": 0.0, "name": "95e4e1530dc70c13449c5fb2b1838919", "lon": -76.9851885, "is_disabled": 0, "is_reserved": 0, "fusion_lon": 0.0, "bike_id": "95e4e1530dc70c13449c5fb2b1838919", "lat": 38.8664965}, {"type": "electric_scooter", "rental_uris": {"android": "https://dc.lft.to/lastmile_qr_scan", "ios": "https://dc.lft.to/lastmile_qr_scan"}, "fusion_lat": 0.0, "name": "a09b4f9c0ff812f8e7c63838974c2505", "lon": -77.02815483333333, "is_disabled": 0, "is_reserved": 0, "fusion_lon": 0.0, "bike_id": "a09b4f9c0ff812f8e7c63838974c2505", "lat": 38.881741166666664}, {"type": "electric_scooter", "rental_uris": {"android": "https://dc.lft.to/lastmile_qr_scan", "ios": "https://dc.lft.to/lastmile_qr_scan"}, "fusion_lat": 0.0, "name": "3e192483dd17e5b47fb97ce094b35d86", "lon": -76.98557383333333, "is_disabled": 0, "is_reserved": 0, "fusion_lon": 0.0, "bike_id": "3e192483dd17e5b47fb97ce094b35d86", "lat": 38.910336666666666}, {"type": "electric_scooter", "rental_uris": {"android": "https://dc.lft.to/lastmile_qr_scan", "ios": "https://dc.lft.to/lastmile_qr_scan"}, "fusion_lat": 0.0, "name": "419739962ccb93147797ed23eab8652f", "lon": -76.9302455, "is_disabled": 0, "is_reserved": 0, "fusion_lon": 0.0, "bike_id": "419739962ccb93147797ed23eab8652f", "lat": 38.901722166666666}, {"type": "electric_scooter", "rental_uris": {"android": "https://dc.lft.to/lastmile_qr_scan", "ios": "https://dc.lft.to/lastmile_qr_scan"}, "fusion_lat": 0.0, "name": "8fe20b87ee22a972221faecacb631238", "lon": -77.034555, "is_disabled": 0, "is_reserved": 0, "fusion_lon": 0.0, "bike_id": "8fe20b87ee22a972221faecacb631238", "lat": 38.9080695}, {"type": "electric_scooter", "rental_uris": {"android": "https://dc.lft.to/lastmile_qr_scan", "ios": "https://dc.lft.to/lastmile_qr_scan"}, "fusion_lat": 0.0, "name": "07bcd0ec53279510a8fd9a9dc9bc8a06", "lon": -77.0504755, "is_disabled": 0, "is_reserved": 0, "fusion_lon": 0.0, "bike_id": "07bcd0ec53279510a8fd9a9dc9bc8a06", "lat": 38.923761999999996}, {"type": "electric_scooter", "rental_uris": {"android": "https://dc.lft.to/lastmile_qr_scan", "ios": "https://dc.lft.to/lastmile_qr_scan"}, "fusion_lat": 0.0, "name": "5ac56b48aa4642560f2fd75431870ab8", "lon": -77.043674, "is_disabled": 0, "is_reserved": 0, "fusion_lon": 0.0, "bike_id": "5ac56b48aa4642560f2fd75431870ab8", "lat": 38.8984025}, {"type": "electric_bike", "rental_uris": {"android": "https://dc.lft.to/lastmile_qr_scan", "ios": "https://dc.lft.to/lastmile_qr_scan"}, "fusion_lat": 0.0, "name": "ef6987b3dd4ed241e6659161f872f79c", "lon": -76.9352915, "is_disabled": 0, "is_reserved": 0, "fusion_lon": 0.0, "bike_id": "ef6987b3dd4ed241e6659161f872f79c", "lat": 38.955401333333334}, {"type": "electric_scooter", "rental_uris": {"android": "https://dc.lft.to/lastmile_qr_scan", "ios": "https://dc.lft.to/lastmile_qr_scan"}, "fusion_lat": 0.0, "name": "7e26d0cab29279d7c3b4c236349d13d5", "lon": -77.04817416666667, "is_disabled": 0, "is_reserved": 0, "fusion_lon": 0.0, "bike_id": "7e26d0cab29279d7c3b4c236349d13d5", "lat": 38.911074}, {"type": "electric_scooter", "rental_uris": {"android": "https://dc.lft.to/lastmile_qr_scan", "ios": "https://dc.lft.to/lastmile_qr_scan"}, "fusion_lat": 0.0, "name": "f9b80157c7fb8670bae0bf9008ba8dce", "lon": -77.0449305, "is_disabled": 0, "is_reserved": 0, "fusion_lon": 0.0, "bike_id": "f9b80157c7fb8670bae0bf9008ba8dce", "lat": 38.9085355}, {"type": "electric_scooter", "rental_uris": {"android": "https://dc.lft.to/lastmile_qr_scan", "ios": "https://dc.lft.to/lastmile_qr_scan"}, "fusion_lat": 0.0, "name": "679f107522ac08593dcd87874202b6c5", "lon": -77.019948, "is_disabled": 0, "is_reserved": 0, "fusion_lon": 0.0, "bike_id": "679f107522ac08593dcd87874202b6c5", "lat": 38.91569966666667}, {"type": "electric_scooter", "rental_uris": {"android": "https://dc.lft.to/lastmile_qr_scan", "ios": "https://dc.lft.to/lastmile_qr_scan"}, "fusion_lat": 0.0, "name": "f82864072f98edbb2d0ef6ab6e2dc848", "lon": -77.03048433333333, "is_disabled": 0, "is_reserved": 0, "fusion_lon": 0.0, "bike_id": "f82864072f98edbb2d0ef6ab6e2dc848", "lat": 38.922475666666664}, {"type": "electric_scooter", "rental_uris": {"android": "https://dc.lft.to/lastmile_qr_scan", "ios": "https://dc.lft.to/lastmile_qr_scan"}, "fusion_lat": 0.0, "name": "9db2f3b7c5025b72752b6a718f366171", "lon": -76.936127, "is_disabled": 0, "is_reserved": 0, "fusion_lon": 0.0, "bike_id": "9db2f3b7c5025b72752b6a718f366171", "lat": 38.8968525}, {"type": "electric_scooter", "rental_uris": {"android": "https://dc.lft.to/lastmile_qr_scan", "ios": "https://dc.lft.to/lastmile_qr_scan"}, "fusion_lat": 0.0, "name": "711defa6c57acb56f5387c950aa134c4", "lon": -77.02561366666667, "is_disabled": 0, "is_reserved": 0, "fusion_lon": 0.0, "bike_id": "711defa6c57acb56f5387c950aa134c4", "lat": 38.907247166666664}, {"type": "electric_scooter", "rental_uris": {"android": "https://dc.lft.to/lastmile_qr_scan", "ios": "https://dc.lft.to/lastmile_qr_scan"}, "fusion_lat": 0.0, "name": "9b134588d55ebdecf486a5907c246ab8", "lon": -76.9761685, "is_disabled": 0, "is_reserved": 0, "fusion_lon": 0.0, "bike_id": "9b134588d55ebdecf486a5907c246ab8", "lat": 38.90382133333333}, {"type": "electric_scooter", "rental_uris": {"android": "https://dc.lft.to/lastmile_qr_scan", "ios": "https://dc.lft.to/lastmile_qr_scan"}, "fusion_lat": 0.0, "name": "31791dba4ba1b5d37ae5d6fa70323dd8", "lon": -77.00600466666667, "is_disabled": 0, "is_reserved": 0, "fusion_lon": 0.0, "bike_id": "31791dba4ba1b5d37ae5d6fa70323dd8", "lat": 38.902189666666665}, {"type": "electric_scooter", "rental_uris": {"android": "https://dc.lft.to/lastmile_qr_scan", "ios": "https://dc.lft.to/lastmile_qr_scan"}, "fusion_lat": 0.0, "name": "01ccfc8edf902a78cf565338344e07d1", "lon": -76.998947, "is_disabled": 0, "is_reserved": 0, "fusion_lon": 0.0, "bike_id": "01ccfc8edf902a78cf565338344e07d1", "lat": 38.9095005}, {"type": "electric_scooter", "rental_uris": {"android": "https://dc.lft.to/lastmile_qr_scan", "ios": "https://dc.lft.to/lastmile_qr_scan"}, "fusion_lat": 0.0, "name": "1be435dafb4753438f825ba6ed76e6de", "lon": -77.03419983333333, "is_disabled": 0, "is_reserved": 0, "fusion_lon": 0.0, "bike_id": "1be435dafb4753438f825ba6ed76e6de", "lat": 38.903929166666664}, {"type": "electric_bike", "rental_uris": {"android": "https://dc.lft.to/lastmile_qr_scan", "ios": "https://dc.lft.to/lastmile_qr_scan"}, "fusion_lat": 0.0, "name": "2621303c32fbe23603641d6be871021c", "lon": -76.9220195, "is_disabled": 0, "is_reserved": 0, "fusion_lon": 0.0, "bike_id": "2621303c32fbe23603641d6be871021c", "lat": 38.89497016666667}, {"type": "electric_scooter", "rental_uris": {"android": "https://dc.lft.to/lastmile_qr_scan", "ios": "https://dc.lft.to/lastmile_qr_scan"}, "fusion_lat": 0.0, "name": "5ef04bc136534eab5ea76d064659bff0", "lon": -76.990438, "is_disabled": 0, "is_reserved": 0, "fusion_lon": 0.0, "bike_id": "5ef04bc136534eab5ea76d064659bff0", "lat": 38.86375683333333}, {"type": "electric_scooter", "rental_uris": {"android": "https://dc.lft.to/lastmile_qr_scan", "ios": "https://dc.lft.to/lastmile_qr_scan"}, "fusion_lat": 0.0, "name": "66b16a7419c3ab656fccabb13937702f", "lon": -77.00084016666666, "is_disabled": 0, "is_reserved": 0, "fusion_lon": 0.0, "bike_id": "66b16a7419c3ab656fccabb13937702f", "lat": 38.894737166666665}, {"type": "electric_scooter", "rental_uris": {"android": "https://dc.lft.to/lastmile_qr_scan", "ios": "https://dc.lft.to/lastmile_qr_scan"}, "fusion_lat": 0.0, "name": "bf6b3e2b4f479322ae37c97b8f1536ef", "lon": -77.02795, "is_disabled": 0, "is_reserved": 0, "fusion_lon": 0.0, "bike_id": "bf6b3e2b4f479322ae37c97b8f1536ef", "lat": 38.92971933333333}, {"type": "electric_scooter", "rental_uris": {"android": "https://dc.lft.to/lastmile_qr_scan", "ios": "https://dc.lft.to/lastmile_qr_scan"}, "fusion_lat": 0.0, "name": "b1d408cc3fac4a71409cfffbaec1cdbf", "lon": -77.034356, "is_disabled": 0, "is_reserved": 0, "fusion_lon": 0.0, "bike_id": "b1d408cc3fac4a71409cfffbaec1cdbf", "lat": 38.91807816666667}, {"type": "electric_scooter", "rental_uris": {"android": "https://dc.lft.to/lastmile_qr_scan", "ios": "https://dc.lft.to/lastmile_qr_scan"}, "fusion_lat": 0.0, "name": "a99025292979649aa3b4573744828ceb", "lon": -77.024937, "is_disabled": 0, "is_reserved": 0, "fusion_lon": 0.0, "bike_id": "a99025292979649aa3b4573744828ceb", "lat": 38.94185516666667}, {"type": "electric_scooter", "rental_uris": {"android": "https://dc.lft.to/lastmile_qr_scan", "ios": "https://dc.lft.to/lastmile_qr_scan"}, "fusion_lat": 0.0, "name": "d9ba5c2b9a03b7597db13c0db3908b9f", "lon": -77.03286383333334, "is_disabled": 0, "is_reserved": 0, "fusion_lon": 0.0, "bike_id": "d9ba5c2b9a03b7597db13c0db3908b9f", "lat": 38.932504}, {"type": "electric_scooter", "rental_uris": {"android": "https://dc.lft.to/lastmile_qr_scan", "ios": "https://dc.lft.to/lastmile_qr_scan"}, "fusion_lat": 0.0, "name": "c561928a11c35ff41521f262902723e9", "lon": -77.06402183333333, "is_disabled": 0, "is_reserved": 0, "fusion_lon": 0.0, "bike_id": "c561928a11c35ff41521f262902723e9", "lat": 38.9433255}, {"type": "electric_scooter", "rental_uris": {"android": "https://dc.lft.to/lastmile_qr_scan", "ios": "https://dc.lft.to/lastmile_qr_scan"}, "fusion_lat": 0.0, "name": "9b5bee7ea8a3a43821e612e8a780d320", "lon": -76.99037766666666, "is_disabled": 0, "is_reserved": 0, "fusion_lon": 0.0, "bike_id": "9b5bee7ea8a3a43821e612e8a780d320", "lat": 38.90285333333333}, {"type": "electric_scooter", "rental_uris": {"android": "https://dc.lft.to/lastmile_qr_scan", "ios": "https://dc.lft.to/lastmile_qr_scan"}, "fusion_lat": 0.0, "name": "377ff07b12bdaeee2756431b7f734aab", "lon": -77.01226516666667, "is_disabled": 0, "is_reserved": 0, "fusion_lon": 0.0, "bike_id": "377ff07b12bdaeee2756431b7f734aab", "lat": 38.91682316666667}, {"type": "electric_scooter", "rental_uris": {"android": "https://dc.lft.to/lastmile_qr_scan", "ios": "https://dc.lft.to/lastmile_qr_scan"}, "fusion_lat": 0.0, "name": "ffaec00a221cb03fff1fbedffa25692e", "lon": -77.04490833333334, "is_disabled": 0, "is_reserved": 0, "fusion_lon": 0.0, "bike_id": "ffaec00a221cb03fff1fbedffa25692e", "lat": 38.9151695}, {"type": "electric_scooter", "rental_uris": {"android": "https://dc.lft.to/lastmile_qr_scan", "ios": "https://dc.lft.to/lastmile_qr_scan"}, "fusion_lat": 0.0, "name": "e51b51ad3807f2268041d34825df9b80", "lon": -77.03281166666666, "is_disabled": 0, "is_reserved": 0, "fusion_lon": 0.0, "bike_id": "e51b51ad3807f2268041d34825df9b80", "lat": 38.931129}, {"type": "electric_scooter", "rental_uris": {"android": "https://dc.lft.to/lastmile_qr_scan", "ios": "https://dc.lft.to/lastmile_qr_scan"}, "fusion_lat": 0.0, "name": "6525c14542fd36879fc61c016a3ca4ba", "lon": -77.0347415, "is_disabled": 0, "is_reserved": 0, "fusion_lon": 0.0, "bike_id": "6525c14542fd36879fc61c016a3ca4ba", "lat": 38.90250433333333}, {"type": "electric_scooter", "rental_uris": {"android": "https://dc.lft.to/lastmile_qr_scan", "ios": "https://dc.lft.to/lastmile_qr_scan"}, "fusion_lat": 0.0, "name": "a6d4e3050e0624f628694e50b7d64eb4", "lon": -77.03258283333334, "is_disabled": 0, "is_reserved": 0, "fusion_lon": 0.0, "bike_id": "a6d4e3050e0624f628694e50b7d64eb4", "lat": 38.93970233333334}, {"type": "electric_scooter", "rental_uris": {"android": "https://dc.lft.to/lastmile_qr_scan", "ios": "https://dc.lft.to/lastmile_qr_scan"}, "fusion_lat": 0.0, "name": "4ed18a3c72e789c5a9b1e592ddd74cf1", "lon": -77.03846116666666, "is_disabled": 0, "is_reserved": 0, "fusion_lon": 0.0, "bike_id": "4ed18a3c72e789c5a9b1e592ddd74cf1", "lat": 38.909887833333336}, {"type": "electric_scooter", "rental_uris": {"android": "https://dc.lft.to/lastmile_qr_scan", "ios": "https://dc.lft.to/lastmile_qr_scan"}, "fusion_lat": 0.0, "name": "95ea29b3eefa782ec51bb19b7d9f48e6", "lon": -76.99414483333334, "is_disabled": 0, "is_reserved": 0, "fusion_lon": 0.0, "bike_id": "95ea29b3eefa782ec51bb19b7d9f48e6", "lat": 38.920994}, {"type": "electric_bike", "rental_uris": {"android": "https://dc.lft.to/lastmile_qr_scan", "ios": "https://dc.lft.to/lastmile_qr_scan"}, "fusion_lat": 0.0, "name": "0d0290f8be8df70bea8ac359e80ce7e9", "lon": -76.98843183333334, "is_disabled": 0, "is_reserved": 0, "fusion_lon": 0.0, "bike_id": "0d0290f8be8df70bea8ac359e80ce7e9", "lat": 38.842768166666666}, {"type": "electric_scooter", "rental_uris": {"android": "https://dc.lft.to/lastmile_qr_scan", "ios": "https://dc.lft.to/lastmile_qr_scan"}, "fusion_lat": 0.0, "name": "c6973717bb87a3979824f7fca4dc2644", "lon": -77.03944516666667, "is_disabled": 0, "is_reserved": 0, "fusion_lon": 0.0, "bike_id": "c6973717bb87a3979824f7fca4dc2644", "lat": 38.905447333333335}, {"type": "electric_scooter", "rental_uris": {"android": "https://dc.lft.to/lastmile_qr_scan", "ios": "https://dc.lft.to/lastmile_qr_scan"}, "fusion_lat": 0.0, "name": "538e8f2e3013d1367eb128f3b99a8559", "lon": -77.02727016666667, "is_disabled": 0, "is_reserved": 0, "fusion_lon": 0.0, "bike_id": "538e8f2e3013d1367eb128f3b99a8559", "lat": 38.932492}, {"type": "electric_scooter", "rental_uris": {"android": "https://dc.lft.to/lastmile_qr_scan", "ios": "https://dc.lft.to/lastmile_qr_scan"}, "fusion_lat": 0.0, "name": "508d70fac9bc8af8491528dff3ac5fe8", "lon": -77.03697716666667, "is_disabled": 0, "is_reserved": 0, "fusion_lon": 0.0, "bike_id": "508d70fac9bc8af8491528dff3ac5fe8", "lat": 38.918245166666665}, {"type": "electric_scooter", "rental_uris": {"android": "https://dc.lft.to/lastmile_qr_scan", "ios": "https://dc.lft.to/lastmile_qr_scan"}, "fusion_lat": 0.0, "name": "52b3bbce4b9326c906fbd8ac4187eda6", "lon": -77.04186883333334, "is_disabled": 0, "is_reserved": 0, "fusion_lon": 0.0, "bike_id": "52b3bbce4b9326c906fbd8ac4187eda6", "lat": 38.906620833333335}, {"type": "electric_scooter", "rental_uris": {"android": "https://dc.lft.to/lastmile_qr_scan", "ios": "https://dc.lft.to/lastmile_qr_scan"}, "fusion_lat": 0.0, "name": "243068955dd513cb9eacff3e2a2783c5", "lon": -77.021742, "is_disabled": 0, "is_reserved": 0, "fusion_lon": 0.0, "bike_id": "243068955dd513cb9eacff3e2a2783c5", "lat": 38.894766}, {"type": "electric_scooter", "rental_uris": {"android": "https://dc.lft.to/lastmile_qr_scan", "ios": "https://dc.lft.to/lastmile_qr_scan"}, "fusion_lat": 0.0, "name": "9dcde472160599f2587d30e077c8bd40", "lon": -77.001993, "is_disabled": 0, "is_reserved": 0, "fusion_lon": 0.0, "bike_id": "9dcde472160599f2587d30e077c8bd40", "lat": 38.90245783333334}, {"type": "electric_scooter", "rental_uris": {"android": "https://dc.lft.to/lastmile_qr_scan", "ios": "https://dc.lft.to/lastmile_qr_scan"}, "fusion_lat": 0.0, "name": "bd5f0fed56e9ff53ab6538eea080817f", "lon": -77.02001983333334, "is_disabled": 0, "is_reserved": 0, "fusion_lon": 0.0, "bike_id": "bd5f0fed56e9ff53ab6538eea080817f", "lat": 38.901521}, {"type": "electric_scooter", "rental_uris": {"android": "https://dc.lft.to/lastmile_qr_scan", "ios": "https://dc.lft.to/lastmile_qr_scan"}, "fusion_lat": 0.0, "name": "14ba07a487568ff057cd8ad27453dc14", "lon": -77.03516183333333, "is_disabled": 0, "is_reserved": 0, "fusion_lon": 0.0, "bike_id": "14ba07a487568ff057cd8ad27453dc14", "lat": 38.9066055}, {"type": "electric_scooter", "rental_uris": {"android": "https://dc.lft.to/lastmile_qr_scan", "ios": "https://dc.lft.to/lastmile_qr_scan"}, "fusion_lat": 0.0, "name": "9537ad60a508f4a9b21ab9ad60ff5c2e", "lon": -77.04473666666667, "is_disabled": 0, "is_reserved": 0, "fusion_lon": 0.0, "bike_id": "9537ad60a508f4a9b21ab9ad60ff5c2e", "lat": 38.910231},