{"data": {"bikes": [{"lon": -77.0515665, "name": "e284b2793bffe3fa94819f9ce6c03f40", "lat": 38.921342333333335, "fusion_lon": 0.0, "rental_uris": {"ios": "https://dc.lft.to/lastmile_qr_scan", "android": "https://dc.lft.to/lastmile_qr_scan"}, "bike_id": "e284b2793bffe3fa94819f9ce6c03f40", "type": "electric_scooter", "fusion_lat": 0.0, "is_disabled": 0, "is_reserved": 0}, {"lon": -77.021759, "name": "6a2b2acfb0e683ea31dad06b0c531c86", "lat": 38.88702766666667, "fusion_lon": 0.0, "rental_uris": {"ios": "https://dc.lft.to/lastmile_qr_scan", "android": "https://dc.lft.to/lastmile_qr_scan"}, "bike_id": "6a2b2acfb0e683ea31dad06b0c531c86", "type": "electric_scooter", "fusion_lat": 0.0, "is_disabled": 0, "is_reserved": 0}, {"lon": -77.02164183333333, "name": "a89e470befb3f9fcb198c2f69fc8569f", "lat": 38.897359333333334, "fusion_lon": 0.0, "rental_uris": {"ios": "https://dc.lft.to/lastmile_qr_scan", "android": "https://dc.lft.to/lastmile_qr_scan"}, "bike_id": "a89e470befb3f9fcb198c2f69fc8569f", "type": "electric_scooter", "fusion_lat": 0.0, "is_disabled": 0, "is_reserved": 0}, {"lon": -77.028288, "name": "f695a5028e499d349fda1e8d6a51b902", "lat": 38.887179333333336, "fusion_lon": 0.0, "rental_uris": {"ios": "https://dc.lft.to/lastmile_qr_scan", "android": "https://dc.lft.to/lastmile_qr_scan"}, "bike_id": "f695a5028e499d349fda1e8d6a51b902", "type": "electric_scooter", "fusion_lat": 0.0, "is_disabled": 0, "is_reserved": 0}, {"lon": -77.0187765, "name": "0017579eb57914b5ca5b0cdd78a3d2b0", "lat": 38.90613483333333, "fusion_lon": 0.0, "rental_uris": {"ios": "https://dc.lft.to/lastmile_qr_scan", "android": "https://dc.lft.to/lastmile_qr_scan"}, "bike_id": "0017579eb57914b5ca5b0cdd78a3d2b0", "type": "electric_scooter", "fusion_lat": 0.0, "is_disabled": 0, "is_reserved": 0}, {"lon": -77.03383066666666, "name": "d83b3732dfe9941693de528777827346", "lat": 38.9013455, "fusion_lon": 0.0, "rental_uris": {"ios": "https://dc.lft.to/lastmile_qr_scan", "android": "https://dc.lft.to/lastmile_qr_scan"}, "bike_id": "d83b3732dfe9941693de528777827346", "type": "electric_scooter", "fusion_lat": 0.0, "is_disabled": 0, "is_reserved": 0}, {"lon": -77.04528933333333, "name": "dc2c9126af1e61d39260209f3cf97948", "lat": 38.907519666666666, "fusion_lon": 0.0, "rental_uris": {"ios": "https://dc.lft.to/lastmile_qr_scan", "android": "https://dc.lft.to/lastmile_qr_scan"}, "bike_id": "dc2c9126af1e61d39260209f3cf97948", "type": "electric_scooter", "fusion_lat": 0.0, "is_disabled": 0, "is_reserved": 0}, {"lon": -76.99161683333334, "name": "d3e1d841c22b75f1269369a32591c44e", "lat": 38.9536955, "fusion_lon": 0.0, "rental_uris": {"ios": "https://dc.lft.to/lastmile_qr_scan", "android": "https://dc.lft.to/lastmile_qr_scan"}, "bike_id": "d3e1d841c22b75f1269369a32591c44e", "type": "electric_scooter", "fusion_lat": 0.0, "is_disabled": 0, "is_reserved": 0}, {"lon": -77.0274295, "name": "baa65fb006513425176fa7d35bbf4999", "lat": 38.92770633333333, "fusion_lon": 0.0, "rental_uris": {"ios": "https://dc.lft.to/lastmile_qr_scan", "android": "https://dc.lft.to/lastmile_qr_scan"}, "bike_id": "baa65fb006513425176fa7d35bbf4999", "type": "electric_scooter", "fusion_lat": 0.0, "is_disabled": 0, "is_reserved": 0}, {"lon": -76.94250516666666, "name": "a61b46a8bf0552f59e0e63ad6d2c07d0", "lat": 38.980251833333334, "fusion_lon": 0.0, "rental_uris": {"ios": "https://dc.lft.to/lastmile_qr_scan", "android": "https://dc.lft.to/lastmile_qr_scan"}, "bike_id": "a61b46a8bf0552f59e0e63ad6d2c07d0", "type": "electric_bike", "fusion_lat": 0.0, "is_disabled": 0, "is_reserved": 0}, {"lon": -77.02181633333333, "name": "21d0277b75f776431f14d742271f2d6a", "lat": 38.886176, "fusion_lon": 0.0, "rental_uris": {"ios": "https://dc.lft.to/lastmile_qr_scan", "android": "https://dc.lft.to/lastmile_qr_scan"}, "bike_id": "21d0277b75f776431f14d742271f2d6a", "type": "electric_scooter", "fusion_lat": 0.0, "is_disabled": 0, "is_reserved": 0}, {"lon": -77.013717, "name": "6d3e90fa5dcbbcddb6356c91b1274163", "lat": 38.867396666666664, "fusion_lon": 0.0, "rental_uris": {"ios": "https://dc.lft.to/lastmile_qr_scan", "android": "https://dc.lft.to/lastmile_qr_scan"}, "bike_id": "6d3e90fa5dcbbcddb6356c91b1274163", "type": "electric_scooter", "fusion_lat": 0.0, "is_disabled": 0, "is_reserved": 0}, {"lon": -77.01132233333334, "name": "2404a3dd2f98d1cb4cce28d5d246d395", "lat": 38.91709566666667, "fusion_lon": 0.0, "rental_uris": {"ios": "https://dc.lft.to/lastmile_qr_scan", "android": "https://dc.lft.to/lastmile_qr_scan"}, "bike_id": "2404a3dd2f98d1cb4cce28d5d246d395", "type": "electric_scooter", "fusion_lat": 0.0, "is_disabled": 0, "is_reserved": 0}, {"lon": -77.029264, "name": "ccc7be665995c9090ad50c8c833b12b7", "lat": 38.903765166666666, "fusion_lon": 0.0, "rental_uris": {"ios": "https://dc.lft.to/lastmile_qr_scan", "android": "https://dc.lft.to/lastmile_qr_scan"}, "bike_id": "ccc7be665995c9090ad50c8c833b12b7", "type": "electric_scooter", "fusion_lat": 0.0, "is_disabled": 0, "is_reserved": 0}, {"lon": -77.02382366666667, "name": "52e4eee7902dae47cc81767ef67eaa48", "lat": 38.90958366666667, "fusion_lon": 0.0, "rental_uris": {"ios": "https://dc.lft.to/lastmile_qr_scan", "android": "https://dc.lft.to/lastmile_qr_scan"}, "bike_id": "52e4eee7902dae47cc81767ef67eaa48", "type": "electric_scooter", "fusion_lat": 0.0, "is_disabled": 0, "is_reserved": 0}, {"lon": -77.03840233333334, "name": "903a0912f806a4f6aca5b03b8cb8560f", "lat": 38.903664666666664, "fusion_lon": 0.0, "rental_uris": {"ios": "https://dc.lft.to/lastmile_qr_scan", "android": "https://dc.lft.to/lastmile_qr_scan"}, "bike_id": "903a0912f806a4f6aca5b03b8cb8560f", "type": "electric_scooter", "fusion_lat": 0.0, "is_disabled": 0, "is_reserved": 0}, {"lon": -77.03449466666666, "name": "144d4cc1f8068941fef0433d6ff485ce", "lat": 38.9051365, "fusion_lon": 0.0, "rental_uris": {"ios": "https://dc.lft.to/lastmile_qr_scan", "android": "https://dc.lft.to/lastmile_qr_scan"}, "bike_id": "144d4cc1f8068941fef0433d6ff485ce", "type": "electric_scooter", "fusion_lat": 0.0, "is_disabled": 0, "is_reserved": 0}, {"lon": -76.97700883333333, "name": "4506f890a929f0bf341032673e66a9db", "lat": 38.88615133333333, "fusion_lon": 0.0, "rental_uris": {"ios": "https://dc.lft.to/lastmile_qr_scan", "android": "https://dc.lft.to/lastmile_qr_scan"}, "bike_id": "4506f890a929f0bf341032673e66a9db", "type": "electric_scooter", "fusion_lat": 0.0, "is_disabled": 0, "is_reserved": 0}, {"lon": -76.979553, "name": "485d7509d880fb878430655fd5918bc1", "lat": 38.89210966666667, "fusion_lon": 0.0, "rental_uris": {"ios": "https://dc.lft.to/lastmile_qr_scan", "android": "https://dc.lft.to/lastmile_qr_scan"}, "bike_id": "485d7509d880fb878430655fd5918bc1", "type": "electric_scooter", "fusion_lat": 0.0, "is_disabled": 0, "is_reserved": 0}, {"lon": -77.00349433333334, "name": "3d5e016edc04964262355b684067bb1c", "lat": 38.89272166666667, "fusion_lon": 0.0, "rental_uris": {"ios": "https://dc.lft.to/lastmile_qr_scan", "android": "https://dc.lft.to/lastmile_qr_scan"}, "bike_id": "3d5e016edc04964262355b684067bb1c", "type": "electric_scooter", "fusion_lat": 0.0, "is_disabled": 0, "is_reserved": 0}, {"lon": -77.23383133333333, "name": "f5981fb5de19899554cf6719dd3c5d99", "lat": 38.871676, "fusion_lon": 0.0, "rental_uris": {"ios": "https://dc.lft.to/lastmile_qr_scan", "android": "https://dc.lft.to/lastmile_qr_scan"}, "bike_id": "f5981fb5de19899554cf6719dd3c5d99", "type": "electric_bike", "fusion_lat": 0.0, "is_disabled": 0, "is_reserved": 0}, {"lon": -77.01088366666667, "name": "602e5e8240b720946c1e5d36d325fcf8", "lat": 38.913296, "fusion_lon": 0.0, "rental_uris": {"ios": "https://dc.lft.to/lastmile_qr_scan", "android": "https://dc.lft.to/lastmile_qr_scan"}, "bike_id": "602e5e8240b720946c1e5d36d325fcf8", "type": "electric_scooter", "fusion_lat": 0.0, "is_disabled": 0, "is_reserved": 0}, {"lon": -77.00158816666666, "name": "07d67b6e5a21e17aee33bb1651013921", "lat": 38.899292, "fusion_lon": 0.0, "rental_uris": {"ios": "https://dc.lft.to/lastmile_qr_scan", "android": "https://dc.lft.to/lastmile_qr_scan"}, "bike_id": "07d67b6e5a21e17aee33bb1651013921", "type": "electric_bike", "fusion_lat": 0.0, "is_disabled": 0, "is_reserved": 0}, {"lon": -77.06605616666667, "name": "f415526a693681a95a665c96a7db8c9e", "lat": 38.93657733333333, "fusion_lon": 0.0, "rental_uris": {"ios": "https://dc.lft.to/lastmile_qr_scan", "android": "https://dc.lft.to/lastmile_qr_scan"}, "bike_id": "f415526a693681a95a665c96a7db8c9e", "type": "electric_scooter", "fusion_lat": 0.0, "is_disabled": 0, "is_reserved": 0}, {"lon": -77.0346775, "name": "f4fe791b7087a7f9453f120ff7148691", "lat": 38.90233116666667, "fusion_lon": 0.0, "rental_uris": {"ios": "https://dc.lft.to/lastmile_qr_scan", "android": "https://dc.lft.to/lastmile_qr_scan"}, "bike_id": "f4fe791b7087a7f9453f120ff7148691", "type": "electric_scooter", "fusion_lat": 0.0, "is_disabled": 0, "is_reserved": 0}, {"lon": -77.048754, "name": "40887d72702e57abdf3204bd8dc13ede", "lat": 38.90040666666667, "fusion_lon": 0.0, "rental_uris": {"ios": "https://dc.lft.to/lastmile_qr_scan", "android": "https://dc.lft.to/lastmile_qr_scan"}, "bike_id": "40887d72702e57abdf3204bd8dc13ede", "type": "electric_scooter", "fusion_lat": 0.0, "is_disabled": 0, "is_reserved": 0}, {"lon": -77.03509266666667, "name": "3356fe2d7007b883d643f9eaa19b766e", "lat": 38.921600833333336, "fusion_lon": 0.0, "rental_uris": {"ios": "https://dc.lft.to/lastmile_qr_scan", "android": "https://dc.lft.to/lastmile_qr_scan"}, "bike_id": "3356fe2d7007b883d643f9eaa19b766e", "type": "electric_scooter", "fusion_lat": 0.0, "is_disabled": 0, "is_reserved": 0}, {"lon": -77.02822816666666, "name": "d80f3a7f7737126b2a63b36ceba1a170", "lat": 38.887149, "fusion_lon": 0.0, "rental_uris": {"ios": "https://dc.lft.to/lastmile_qr_scan", "android": "https://dc.lft.to/lastmile_qr_scan"}, "bike_id": "d80f3a7f7737126b2a63b36ceba1a170", "type": "electric_scooter", "fusion_lat": 0.0, "is_disabled": 0, "is_reserved": 0}, {"lon": -77.0206725, "name": "0b3754a2a79b0776a131bce3f5be81d0", "lat": 38.9217275, "fusion_lon": 0.0, "rental_uris": {"ios": "https://dc.lft.to/lastmile_qr_scan", "android": "https://dc.lft.to/lastmile_qr_scan"}, "bike_id": "0b3754a2a79b0776a131bce3f5be81d0", "type": "electric_scooter", "fusion_lat": 0.0, "is_disabled": 0, "is_reserved": 0}, {"lon": -77.00226633333334, "name": "0f0b3baec74bb32957d59c115b72c6b5", "lat": 38.92508466666666, "fusion_lon": 0.0, "rental_uris": {"ios": "https://dc.lft.to/lastmile_qr_scan", "android": "https://dc.lft.to/lastmile_qr_scan"}, "bike_id": "0f0b3baec74bb32957d59c115b72c6b5", "type": "electric_scooter", "fusion_lat": 0.0, "is_disabled": 0, "is_reserved": 0}, {"lon": -77.04411966666666, "name": "2e651a35be62e6df435f660c8c933b53", "lat": 38.9104605, "fusion_lon": 0.0, "rental_uris": {"ios": "https://dc.lft.to/lastmile_qr_scan", "android": "https://dc.lft.to/lastmile_qr_scan"}, "bike_id": "2e651a35be62e6df435f660c8c933b53", "type": "electric_scooter", "fusion_lat": 0.0, "is_disabled": 0, "is_reserved": 0}, {"lon": -77.00096, "name": "d5445ea232d2819aad1aea7b3719453d", "lat": 38.87376883333334, "fusion_lon": 0.0, "rental_uris": {"ios": "https://dc.lft.to/lastmile_qr_scan", "android": "https://dc.lft.to/lastmile_qr_scan"}, "bike_id": "d5445ea232d2819aad1aea7b3719453d", "type": "electric_scooter", "fusion_lat": 0.0, "is_disabled": 0, "is_reserved": 0}, {"lon": -77.00195783333334, "name": "13d4a9d033a69b7d923c93f9f549c74e", "lat": 38.886586, "fusion_lon": 0.0, "rental_uris": {"ios": "https://dc.lft.to/lastmile_qr_scan", "android": "https://dc.lft.to/lastmile_qr_scan"}, "bike_id": "13d4a9d033a69b7d923c93f9f549c74e", "type": "electric_scooter", "fusion_lat": 0.0, "is_disabled": 0, "is_reserved": 0}, {"lon": -77.02837016666666, "name": "6951b7add1a2cfdc2230db0fbc94756f", "lat": 38.893721, "fusion_lon": 0.0, "rental_uris": {"ios": "https://dc.lft.to/lastmile_qr_scan", "android": "https://dc.lft.to/lastmile_qr_scan"}, "bike_id": "6951b7add1a2cfdc2230db0fbc94756f", "type": "electric_scooter", "fusion_lat": 0.0, "is_disabled": 0, "is_reserved": 0}, {"lon": -77.03357216666667, "name": "509263e92f2746a5ca16867d905a28a4", "lat": 38.928845833333334, "fusion_lon": 0.0, "rental_uris": {"ios": "https://dc.lft.to/lastmile_qr_scan", "android": "https://dc.lft.to/lastmile_qr_scan"}, "bike_id": "509263e92f2746a5ca16867d905a28a4", "type": "electric_scooter", "fusion_lat": 0.0, "is_disabled": 0, "is_reserved": 0}, {"lon": -77.038501, "name": "eacc5a8ec2cb82def3e0323cd28a4adf", "lat": 38.903677333333334, "fusion_lon": 0.0, "rental_uris": {"ios": "https://dc.lft.to/lastmile_qr_scan", "android": "https://dc.lft.to/lastmile_qr_scan"}, "bike_id": "eacc5a8ec2cb82def3e0323cd28a4adf", "type": "electric_scooter", "fusion_lat": 0.0, "is_disabled": 0, "is_reserved": 0}, {"lon": -77.04813066666667, "name": "7ccdf96ded911b57976ed2740231629f", "lat": 38.8983305, "fusion_lon": 0.0, "rental_uris": {"ios": "https://dc.lft.to/lastmile_qr_scan", "android": "https://dc.lft.to/lastmile_qr_scan"}, "bike_id": "7ccdf96ded911b57976ed2740231629f", "type": "electric_scooter", "fusion_lat": 0.0, "is_disabled": 0, "is_reserved": 0}, {"lon": -77.00936733333333, "name": "fb3114168e89a5fea322a6069c5f955f", "lat": 38.905709, "fusion_lon": 0.0, "rental_uris": {"ios": "https://dc.lft.to/lastmile_qr_scan", "android": "https://dc.lft.to/lastmile_qr_scan"}, "bike_id": "fb3114168e89a5fea322a6069c5f955f", "type": "electric_scooter", "fusion_lat": 0.0, "is_disabled": 0, "is_reserved": 0}, {"lon": -77.02407183333334, "name": "b04c05713257483c841c1f407048a453", "lat": 38.89623483333333, "fusion_lon": 0.0, "rental_uris": {"ios": "https://dc.lft.to/lastmile_qr_scan", "android": "https://dc.lft.to/lastmile_qr_scan"}, "bike_id": "b04c05713257483c841c1f407048a453", "type": "electric_scooter", "fusion_lat": 0.0, "is_disabled": 0, "is_reserved": 0}, {"lon": -77.1841805, "name": "39a5ebf9c3e2043cff08cd9765fc0eae", "lat": 38.8910165, "fusion_lon": 0.0, "rental_uris": {"ios": "https://dc.lft.to/lastmile_qr_scan", "android": "https://dc.lft.to/lastmile_qr_scan"}, "bike_id": "39a5ebf9c3e2043cff08cd9765fc0eae", "type": "electric_bike", "fusion_lat": 0.0, "is_disabled": 0, "is_reserved": 0}, {"lon": -77.0506655, "name": "399f11b1d9ad1d6df20aeece74693a09", "lat": 38.9235555, "fusion_lon": 0.0, "rental_uris": {"ios": "https://dc.lft.to/lastmile_qr_scan", "android": "https://dc.lft.to/lastmile_qr_scan"}, "bike_id": "399f11b1d9ad1d6df20aeece74693a09", "type": "electric_scooter", "fusion_lat": 0.0, "is_disabled": 0, "is_reserved": 0}, {"lon": -77.03891833333333, "name": "3aec3b0504c614798b57f33fbbb09216", "lat": 38.9025675, "fusion_lon": 0.0, "rental_uris": {"ios": "https://dc.lft.to/lastmile_qr_scan", "android": "https://dc.lft.to/lastmile_qr_scan"}, "bike_id": "3aec3b0504c614798b57f33fbbb09216", "type": "electric_scooter", "fusion_lat": 0.0, "is_disabled": 0, "is_reserved": 0}, {"lon": -77.03282183333333, "name": "38e4c79575a9577273ce44658a2e5381", "lat": 38.9325125, "fusion_lon": 0.0, "rental_uris": {"ios": "https://dc.lft.to/lastmile_qr_scan", "android": "https://dc.lft.to/lastmile_qr_scan"}, "bike_id": "38e4c79575a9577273ce44658a2e5381", "type": "electric_scooter", "fusion_lat": 0.0, "is_disabled": 0, "is_reserved": 0}, {"lon": -76.950475, "name": "25ae7ef7cf4de36743838ea8a5481f4b", "lat": 39.084923833333335, "fusion_lon": 0.0, "rental_uris": {"ios": "https://dc.lft.to/lastmile_qr_scan", "android": "https://dc.lft.to/lastmile_qr_scan"}, "bike_id": "25ae7ef7cf4de36743838ea8a5481f4b", "type": "electric_bike", "fusion_lat": 0.0, "is_disabled": 0, "is_reserved": 0}, {"lon": -77.00755183333334, "name": "306c7541f1c61e968a1e5014553fbc8e", "lat": 38.90039316666667, "fusion_lon": 0.0, "rental_uris": {"ios": "https://dc.lft.to/lastmile_qr_scan", "android": "https://dc.lft.to/lastmile_qr_scan"}, "bike_id": "306c7541f1c61e968a1e5014553fbc8e", "type": "electric_scooter", "fusion_lat": 0.0, "is_disabled": 0, "is_reserved": 0}, {"lon": -77.02472866666666, "name": "8a4494fd4eb5894e7c6c2f4179413a79", "lat": 38.918153, "fusion_lon": 0.0, "rental_uris": {"ios": "https://dc.lft.to/lastmile_qr_scan", "android": "https://dc.lft.to/lastmile_qr_scan"}, "bike_id": "8a4494fd4eb5894e7c6c2f4179413a79", "type": "electric_scooter", "fusion_lat": 0.0, "is_disabled": 0, "is_reserved": 0}, {"lon": -77.03878533333334, "name": "7389bc358dc153baa10ddef026a74875", "lat": 39.02621766666667, "fusion_lon": 0.0, "rental_uris": {"ios": "https://dc.lft.to/lastmile_qr_scan", "android": "https://dc.lft.to/lastmile_qr_scan"}, "bike_id": "7389bc358dc153baa10ddef026a74875", "type": "electric_bike", "fusion_lat": 0.0, "is_disabled": 0, "is_reserved": 0}, {"lon": -76.92484783333333, "name": "e36d14bc926680e4a961239e8ed255e0", "lat": 38.9535205, "fusion_lon": 0.0, "rental_uris": {"ios": "https://dc.lft.to/lastmile_qr_scan", "android": "https://dc.lft.to/lastmile_qr_scan"}, "bike_id": "e36d14bc926680e4a961239e8ed255e0", "type": "electric_bike", "fusion_lat": 0.0, "is_disabled": 0, "is_reserved": 0}, {"lon": -77.034386, "name": "c532763ec3f9242a0ee91ca9ef5d82b6", "lat": 38.966196333333336, "fusion_lon": 0.0, "rental_uris": {"ios": "https://dc.lft.to/lastmile_qr_scan", "android": "https://dc.lft.to/lastmile_qr_scan"}, "bike_id": "c532763ec3f9242a0ee91ca9ef5d82b6", "type": "electric_bike", "fusion_lat": 0.0, "is_disabled": 0, "is_reserved": 0}, {"lon": -77.038207, "name": "af9f4f086c925478d1435e7ba3c84389", "lat": 38.90266716666667, "fusion_lon": 0.0, "rental_uris": {"ios": "https://dc.lft.to/lastmile_qr_scan", "android": "https://dc.lft.to/lastmile_qr_scan"}, "bike_id": "af9f4f086c925478d1435e7ba3c84389", "type": "electric_scooter", "fusion_lat": 0.0, "is_disabled": 0, "is_reserved": 0}, {"lon": -77.024646, "name": "a59b7c77bdce9967817ce671824b47e1", "lat": 38.9329975, "fusion_lon": 0.0, "rental_uris": {"ios": "https://dc.lft.to/lastmile_qr_scan", "android": "https://dc.lft.to/lastmile_qr_scan"}, "bike_id": "a59b7c77bdce9967817ce671824b47e1", "type": "electric_scooter", "fusion_lat": 0.0, "is_disabled": 0, "is_reserved": 0}, {"lon": -77.03855866666666, "name": "2bbcc23baa2e0be85fa59fc3ee6d026d", "lat": 38.90272566666667, "fusion_lon": 0.0, "rental_uris": {"ios": "https://dc.lft.to/lastmile_qr_scan", "android": "https://dc.lft.to/lastmile_qr_scan"}, "bike_id": "2bbcc23baa2e0be85fa59fc3ee6d026d", "type": "electric_scooter", "fusion_lat": 0.0, "is_disabled": 0, "is_reserved": 0}, {"lon": -76.98757833333333, "name": "7fa18450b61e2c85d158f049fc0726aa", "lat": 38.857976, "fusion_lon": 0.0, "rental_uris": {"ios": "https://dc.lft.to/lastmile_qr_scan", "android": "https://dc.lft.to/lastmile_qr_scan"}, "bike_id": "7fa18450b61e2c85d158f049fc0726aa", "type": "electric_bike", "fusion_lat": 0.0, "is_disabled": 0, "is_reserved": 0}, {"lon": -77.070946, "name": "34599dde25a4657159fc884bf85b0935", "lat": 38.908607333333336, "fusion_lon": 0.0, "rental_uris": {"ios": "https://dc.lft.to/lastmile_qr_scan", "android": "https://dc.lft.to/lastmile_qr_scan"}, "bike_id": "34599dde25a4657159fc884bf85b0935", "type": "electric_scooter", "fusion_lat": 0.0, "is_disabled": 0, "is_reserved": 0}, {"lon": -77.01907183333333, "name": "5242ef6bb1e14c93c1e3efeee3195d71", "lat": 38.923405833333334, "fusion_lon": 0.0, "rental_uris": {"ios": "https://dc.lft.to/lastmile_qr_scan", "android": "https://dc.lft.to/lastmile_qr_scan"}, "bike_id": "5242ef6bb1e14c93c1e3efeee3195d71", "type": "electric_scooter", "fusion_lat": 0.0, "is_disabled": 0, "is_reserved": 0}, {"lon": -77.06275716666667, "name": "7157727e22f1ce74e0b93fe285bef51f", "lat": 38.905896, "fusion_lon": 0.0, "rental_uris": {"ios": "https://dc.lft.to/lastmile_qr_scan", "android": "https://dc.lft.to/lastmile_qr_scan"}, "bike_id": "7157727e22f1ce74e0b93fe285bef51f", "type": "electric_scooter", "fusion_lat": 0.0, "is_disabled": 0, "is_reserved": 0}, {"lon": -76.988287, "name": "978e91cfc05871be7739d56d00d933d3", "lat": 38.87808016666666, "fusion_lon": 0.0, "rental_uris": {"ios": "https://dc.lft.to/lastmile_qr_scan", "android": "https://dc.lft.to/lastmile_qr_scan"}, "bike_id": "978e91cfc05871be7739d56d00d933d3", "type": "electric_scooter", "fusion_lat": 0.0, "is_disabled": 0, "is_reserved": 0}, {"lon": -77.04361933333334, "name": "e4b9e61ac8b21760e56323348a5c0c83", "lat": 38.892178666666666, "fusion_lon": 0.0, "rental_uris": {"ios": "https://dc.lft.to/lastmile_qr_scan", "android": "https://dc.lft.to/lastmile_qr_scan"}, "bike_id": "e4b9e61ac8b21760e56323348a5c0c83", "type": "electric_scooter", "fusion_lat": 0.0, "is_disabled": 0, "is_reserved": 0}, {"lon": -77.02591333333334, "name": "bdba41f430ad7c25f99b108cb17905b2", "lat": 38.90431316666667, "fusion_lon": 0.0, "rental_uris": {"ios": "https://dc.lft.to/lastmile_qr_scan", "android": "https://dc.lft.to/lastmile_qr_scan"}, "bike_id": "bdba41f430ad7c25f99b108cb17905b2", "type": "electric_scooter", "fusion_lat": 0.0, "is_disabled": 0, "is_reserved": 0}, {"lon": -77.02038966666667, "name": "1905f5aff3720a7c822e33e34697108c", "lat": 38.924439166666666, "fusion_lon": 0.0, "rental_uris": {"ios": "https://dc.lft.to/lastmile_qr_scan", "android": "https://dc.lft.to/lastmile_qr_scan"}, "bike_id": "1905f5aff3720a7c822e33e34697108c", "type": "electric_scooter", "fusion_lat": 0.0, "is_disabled": 0, "is_reserved": 0}, {"lon": -76.98071833333333, "name": "f41f0b91c9ce8f99dccc12332240ec77", "lat": 38.901650333333336, "fusion_lon": 0.0, "rental_uris": {"ios": "https://dc.lft.to/lastmile_qr_scan", "android": "https://dc.lft.to/lastmile_qr_scan"}, "bike_id": "f41f0b91c9ce8f99dccc12332240ec77", "type": "electric_scooter", "fusion_lat": 0.0, "is_disabled": 0, "is_reserved": 0}, {"lon": -76.957505, "name": "6cb9bceca5dde9febec6a7fc5c219116", "lat": 38.88432366666667, "fusion_lon": 0.0, "rental_uris": {"ios": "https://dc.lft.to/lastmile_qr_scan", "android": "https://dc.lft.to/lastmile_qr_scan"}, "bike_id": "6cb9bceca5dde9febec6a7fc5c219116", "type": "electric_scooter", "fusion_lat": 0.0, "is_disabled": 0, "is_reserved": 0}, {"lon": -77.0447235, "name": "cdd470cc0d0c55cbfdb95926b2a00787", "lat": 38.897409833333334, "fusion_lon": 0.0, "rental_uris": {"ios": "https://dc.lft.to/lastmile_qr_scan", "android": "https://dc.lft.to/lastmile_qr_scan"}, "bike_id": "cdd470cc0d0c55cbfdb95926b2a00787", "type": "electric_scooter", "fusion_lat": 0.0, "is_disabled": 0, "is_reserved": 0}, {"lon": -77.03478916666667, "name": "136c8911d424c3d581379fe05933e12a", "lat": 38.90573833333333, "fusion_lon": 0.0, "rental_uris": {"ios": "https://dc.lft.to/lastmile_qr_scan", "android": "https://dc.lft.to/lastmile_qr_scan"}, "bike_id": "136c8911d424c3d581379fe05933e12a", "type": "electric_scooter", "fusion_lat": 0.0, "is_disabled": 0, "is_reserved": 0}, {"lon": -77.0465745, "name": "a1b9cac311aeff6ffc33a41ef037c7d8", "lat": 38.894685833333334, "fusion_lon": 0.0, "rental_uris": {"ios": "https://dc.lft.to/lastmile_qr_scan", "android": "https://dc.lft.to/lastmile_qr_scan"}, "bike_id": "a1b9cac311aeff6ffc33a41ef037c7d8", "type": "electric_bike", "fusion_lat": 0.0, "is_disabled": 0, "is_reserved": 0}, {"lon": -77.03855516666667, "name": "c298dfa0687435b8374aa294d197b6a2", "lat": 38.902752166666666, "fusion_lon": 0.0, "rental_uris": {"ios": "https://dc.lft.to/lastmile_qr_scan", "android": "https://dc.lft.to/lastmile_qr_scan"}, "bike_id": "c298dfa0687435b8374aa294d197b6a2", "type": "electric_scooter", "fusion_lat": 0.0, "is_disabled": 0, "is_reserved": 0}, {"lon": -77.021746, "name": "e8046f9b8205d517715ff7d8a83ebce5", "lat": 38.90279316666667, "fusion_lon": 0.0, "rental_uris": {"ios": "https://dc.lft.to/lastmile_qr_scan", "android": "https://dc.lft.to/lastmile_qr_scan"}, "bike_id": "e8046f9b8205d517715ff7d8a83ebce5", "type": "electric_scooter", "fusion_lat": 0.0, "is_disabled": 0, "is_reserved": 0}, {"lon": -77.02592566666667, "name": "7e632f886d45430c9c22a5ca227b3756", "lat": 38.896290666666665, "fusion_lon": 0.0, "rental_uris": {"ios": "https://dc.lft.to/lastmile_qr_scan", "android": "https://dc.lft.to/lastmile_qr_scan"}, "bike_id": "7e632f886d45430c9c22a5ca227b3756", "type": "electric_scooter", "fusion_lat": 0.0, "is_disabled": 0, "is_reserved": 0}, {"lon": -76.99256116666666, "name": "d6e7f5a7d5b4abcda96dd82028e23f4d", "lat": 38.8073245, "fusion_lon": 0.0, "rental_uris": {"ios": "https://dc.lft.to/lastmile_qr_scan", "android": "https://dc.lft.to/lastmile_qr_scan"}, "bike_id": "d6e7f5a7d5b4abcda96dd82028e23f4d", "type": "electric_bike", "fusion_lat": 0.0, "is_disabled": 0, "is_reserved": 0}, {"lon": -77.047144, "name": "9755a44627c2c3adf23aa041b8f637b1", "lat": 38.899651666666664, "fusion_lon": 0.0, "rental_uris": {"ios": "https://dc.lft.to/lastmile_qr_scan", "android": "https://dc.lft.to/lastmile_qr_scan"}, "bike_id": "9755a44627c2c3adf23aa041b8f637b1", "type": "electric_scooter", "fusion_lat": 0.0, "is_disabled": 0, "is_reserved": 0}, {"lon": -77.09954316666666, "name": "7c3e53568e5e74e7d9756ef363149b89", "lat": 38.8578655, "fusion_lon": 0.0, "rental_uris": {"ios": "https://dc.lft.to/lastmile_qr_scan", "android": "https://dc.lft.to/lastmile_qr_scan"}, "bike_id": "7c3e53568e5e74e7d9756ef363149b89", "type": "electric_bike", "fusion_lat": 0.0, "is_disabled": 0, "is_reserved": 0}, {"lon": -77.01224666666667, "name": "bebb99df61c2b1c83ad5ed0d183f413d", "lat": 38.915174666666665, "fusion_lon": 0.0, "rental_uris": {"ios": "https://dc.lft.to/lastmile_qr_scan", "android": "https://dc.lft.to/lastmile_qr_scan"}, "bike_id": "bebb99df61c2b1c83ad5ed0d183f413d", "type": "electric_scooter", "fusion_lat": 0.0, "is_disabled": 0, "is_reserved": 0}, {"lon": -77.04873716666667, "name": "4e3ff16793f47c4c6926dc7c23f7967a", "lat": 38.9016055, "fusion_lon": 0.0, "rental_uris": {"ios": "https://dc.lft.to/lastmile_qr_scan", "android": "https://dc.lft.to/lastmile_qr_scan"}, "bike_id": "4e3ff16793f47c4c6926dc7c23f7967a", "type": "electric_scooter", "fusion_lat": 0.0, "is_disabled": 0, "is_reserved": 0}, {"lon": -77.03946683333334, "name": "93631b0ff37da388744aa966b89f3782", "lat": 38.908148, "fusion_lon": 0.0, "rental_uris": {"ios": "https://dc.lft.to/lastmile_qr_scan", "android": "https://dc.lft.to/lastmile_qr_scan"}, "bike_id": "93631b0ff37da388744aa966b89f3782", "type": "electric_scooter", "fusion_lat": 0.0, "is_disabled": 0, "is_reserved": 0}, {"lon": -76.97749933333333, "name": "5eed7dd413a1bb11785e51652e92ab04", "lat": 38.8647745, "fusion_lon": 0.0, "rental_uris": {"ios": "https://dc.lft.to/lastmile_qr_scan", "android": "https://dc.lft.to/lastmile_qr_scan"}, "bike_id": "5eed7dd413a1bb11785e51652e92ab04", "type": "electric_bike", "fusion_lat": 0.0, "is_disabled": 0, "is_reserved": 0}, {"lon": -77.03183633333333, "name": "671238ca0e803b7d2f3994424a64bf51", "lat": 38.91321833333333, "fusion_lon": 0.0, "rental_uris": {"ios": "https://dc.lft.to/lastmile_qr_scan", "android": "https://dc.lft.to/lastmile_qr_scan"}, "bike_id": "671238ca0e803b7d2f3994424a64bf51", "type": "electric_scooter", "fusion_lat": 0.0, "is_disabled": 0, "is_reserved": 0}, {"lon": -77.02812483333334, "name": "0194d71bf78fbcb784366f927e1307b4", "lat": 38.955914, "fusion_lon": 0.0, "rental_uris": {"ios": "https://dc.lft.to/lastmile_qr_scan", "android": "https://dc.lft.to/lastmile_qr_scan"}, "bike_id": "0194d71bf78fbcb784366f927e1307b4", "type": "electric_scooter", "fusion_lat": 0.0, "is_disabled": 0, "is_reserved": 0}, {"lon": -77.029579, "name": "06f512470e1a97e7d8e0ed6fdfc9a3e7", "lat": 38.89841033333333, "fusion_lon": 0.0, "rental_uris": {"ios": "https://dc.lft.to/lastmile_qr_scan", "android": "https://dc.lft.to/lastmile_qr_scan"}, "bike_id": "06f512470e1a97e7d8e0ed6fdfc9a3e7", "type": "electric_scooter", "fusion_lat": 0.0, "is_disabled": 0, "is_reserved": 0}, {"lon": -77.02558283333333, "name": "89fdaecaaac2a974e7752eafdbd55983", "lat": 38.92376333333333, "fusion_lon": 0.0, "rental_uris": {"ios": "https://dc.lft.to/lastmile_qr_scan", "android": "https://dc.lft.to/lastmile_qr_scan"}, "bike_id": "89fdaecaaac2a974e7752eafdbd55983", "type": "electric_scooter", "fusion_lat": 0.0, "is_disabled": 0, "is_reserved": 0}, {"lon": -76.98226416666667, "name": "d135d9690c672a423afea77c77110c69", "lat": 38.901512333333336, "fusion_lon": 0.0, "rental_uris": {"ios": "https://dc.lft.to/lastmile_qr_scan", "android": "https://dc.lft.to/lastmile_qr_scan"}, "bike_id": "d135d9690c672a423afea77c77110c69", "type": "electric_scooter", "fusion_lat": 0.0, "is_disabled": 0, "is_reserved": 0}, {"lon": -77.02782766666667, "name": "d428f7f13ef913d334f28fad6b3c2b99", "lat": 38.95627483333333, "fusion_lon": 0.0, "rental_uris": {"ios": "https://dc.lft.to/lastmile_qr_scan", "android": "https://dc.lft.to/lastmile_qr_scan"}, "bike_id": "d428f7f13ef913d334f28fad6b3c2b99", "type": "electric_scooter", "fusion_lat": 0.0, "is_disabled": 0, "is_reserved": 0}, {"lon": -77.045274, "name": "b4effef89eb74b85b4e881aeb74d180f", "lat": 38.907575, "fusion_lon": 0.0, "rental_uris": {"ios": "https://dc.lft.to/lastmile_qr_scan", "android": "https://dc.lft.to/lastmile_qr_scan"}, "bike_id": "b4effef89eb74b85b4e881aeb74d180f", "type": "electric_scooter", "fusion_lat": 0.0, "is_disabled": 0, "is_reserved": 0}, {"lon": -77.024157, "name": "27a32e153eb11de95f9b646520327127", "lat": 38.93671616666666, "fusion_lon": 0.0, "rental_uris": {"ios": "https://dc.lft.to/lastmile_qr_scan", "android": "https://dc.lft.to/lastmile_qr_scan"}, "bike_id": "27a32e153eb11de95f9b646520327127", "type": "electric_bike", "fusion_lat": 0.0, "is_disabled": 0, "is_reserved": 0}, {"lon": -77.00698266666667, "name": "1396f6326bd3da597541f320ebe5cf89", "lat": 38.88484116666667, "fusion_lon": 0.0, "rental_uris": {"ios": "https://dc.lft.to/lastmile_qr_scan", "android": "https://dc.lft.to/lastmile_qr_scan"}, "bike_id": "1396f6326bd3da597541f320ebe5cf89", "type": "electric_scooter", "fusion_lat": 0.0, "is_disabled": 0, "is_reserved": 0}, {"lon": -77.03876533333333, "name": "7d1a41c1c1532870257ca4610af304f0", "lat": 38.9325245, "fusion_lon": 0.0, "rental_uris": {"ios": "https://dc.lft.to/lastmile_qr_scan", "android": "https://dc.lft.to/lastmile_qr_scan"}, "bike_id": "7d1a41c1c1532870257ca4610af304f0", "type": "electric_scooter", "fusion_lat": 0.0, "is_disabled": 0, "is_reserved": 0}, {"lon": -77.04323116666667, "name": "bad338b554cb7af52d1fe097b9ef0b22", "lat": 38.90570783333333, "fusion_lon": 0.0, "rental_uris": {"ios": "https://dc.lft.to/lastmile_qr_scan", "android": "https://dc.lft.to/lastmile_qr_scan"}, "bike_id": "bad338b554cb7af52d1fe097b9ef0b22", "type": "electric_scooter", "fusion_lat": 0.0, "is_disabled": 0, "is_reserved": 0}, {"lon": -76.99698583333333, "name": "7cfb874d400eba0772309bb9dc5560bb", "lat": 38.932420666666665, "fusion_lon": 0.0, "rental_uris": {"ios": "https://dc.lft.to/lastmile_qr_scan", "android": "https://dc.lft.to/lastmile_qr_scan"}, "bike_id": "7cfb874d400eba0772309bb9dc5560bb", "type": "electric_scooter", "fusion_lat": 0.0, "is_disabled": 0, "is_reserved": 0}, {"lon": -76.9463305, "name": "4f1c743db8d594e8a76059d108fd7ade", "lat": 38.89829966666667, "fusion_lon": 0.0, "rental_uris": {"ios": "https://dc.lft.to/lastmile_qr_scan", "android": "https://dc.lft.to/lastmile_qr_scan"}, "bike_id": "4f1c743db8d594e8a76059d108fd7ade", "type": "electric_scooter", "fusion_lat": 0.0, "is_disabled": 0, "is_reserved": 0}, {"lon": -77.045354, "name": "3388c18c07a37b5bd97adbe682c99d94", "lat": 38.902439333333334, "fusion_lon": 0.0, "rental_uris": {"ios": "https://dc.lft.to/lastmile_qr_scan", "android": "https://dc.lft.to/lastmile_qr_scan"}, "bike_id": "3388c18c07a37b5bd97adbe682c99d94", "type": "electric_scooter", "fusion_lat": 0.0, "is_disabled": 0, "is_reserved": 0}, {"lon": -77.023944, "name": "9f0d59cd27d25d8a687dfcf663c5511f", "lat": 38.910296333333335, "fusion_lon": 0.0, "rental_uris": {"ios": "https://dc.lft.to/lastmile_qr_scan", "android": "https://dc.lft.to/lastmile_qr_scan"}, "bike_id": "9f0d59cd27d25d8a687dfcf663c5511f", "type": "electric_scooter", "fusion_lat": 0.0, "is_disabled": 0, "is_reserved": 0}, {"lon": -76.93751216666666, "name": "bea1d20418cd4ba07fa29dace3995f90", "lat": 38.890056333333334, "fusion_lon": 0.0, "rental_uris": {"ios": "https://dc.lft.to/lastmile_qr_scan", "android": "https://dc.lft.to/lastmile_qr_scan"}, "bike_id": "bea1d20418cd4ba07fa29dace3995f90", "type": "electric_scooter", "fusion_lat": 0.0, "is_disabled": 0, "is_reserved": 0}, {"lon": -77.00300333333334, "name": "4720a6440440d2d4ccaa945e5fbc07c0", "lat": 38.8919335, "fusion_lon": 0.0, "rental_uris": {"ios": "https://dc.lft.to/lastmile_qr_scan", "android": "https://dc.lft.to/lastmile_qr_scan"}, "bike_id": "4720a6440440d2d4ccaa945e5fbc07c0", "type": "electric_scooter", "fusion_lat": 0.0, "is_disabled": 0, "is_reserved": 0}, {"lon": -77.020104, "name": "c50b9bc74d97397c080deb477bb0f1e8", "lat": 38.899495, "fusion_lon": 0.0, "rental_uris": {"ios": "https://dc.lft.to/lastmile_qr_scan", "android": "https://dc.lft.to/lastmile_qr_scan"}, "bike_id": "c50b9bc74d97397c080deb477bb0f1e8", "type": "electric_scooter", "fusion_lat": 0.0, "is_disabled": 0, "is_reserved": 0}, {"lon": -76.99406183333333, "name": "008c57a4d9705687d016429b3cd32737", "lat": 38.8778465, "fusion_lon": 0.0, "rental_uris": {"ios": "https://dc.lft.to/lastmile_qr_scan", "android": "https://dc.lft.to/lastmile_qr_scan"}, "bike_id": "008c57a4d9705687d016429b3cd32737", "type": "electric_scooter", "fusion_lat": 0.0, "is_disabled": 0, "is_reserved": 0}, {"lon": -77.060109, "name": "b70493931e54966391f66844e7c88977", "lat": 38.926654666666664, "fusion_lon": 0.0, "rental_uris": {"ios": "https://dc.lft.to/lastmile_qr_scan", "android": "https://dc.lft.to/lastmile_qr_scan"}, "bike_id": "b70493931e54966391f66844e7c88977", "type": "electric_scooter", "fusion_lat": 0.0, "is_disabled": 0, "is_reserved": 0}, {"lon": -77.0257285, "name": "cf99b559f702746cb53a51e30337597f", "lat": 38.92573566666667, "fusion_lon": 0.0, "rental_uris": {"ios": "https://dc.lft.to/lastmile_qr_scan", "android": "https://dc.lft.to/lastmile_qr_scan"}, "bike_id": "cf99b559f702746cb53a51e30337597f", "type": "electric_scooter", "fusion_lat": 0.0, "is_disabled": 0, "is_reserved": 0}, {"lon": -77.04183316666666, "name": "21ffbce850bee468a83490d969975db2", "lat": 38.898623, "fusion_lon": 0.0, "rental_uris": {"ios": "https://dc.lft.to/lastmile_qr_scan", "android": "https://dc.lft.to/lastmile_qr_scan"}, "bike_id": "21ffbce850bee468a83490d969975db2", "type": "electric_bike", "fusion_lat": 0.0, "is_disabled": 0, "is_reserved": 0}, {"lon": -76.98860033333334, "name": "6397de555209e4d2514160ce432943d0", "lat": 38.840266166666666, "fusion_lon": 0.0, "rental_uris": {"ios": "https://dc.lft.to/lastmile_qr_scan", "android": "https://dc.lft.to/lastmile_qr_scan"}, "bike_id": "6397de555209e4d2514160ce432943d0", "type": "electric_bike", "fusion_lat": 0.0, "is_disabled": 0, "is_reserved": 0}, {"lon": -77.04152883333333, "name": "fcee65d82b5009f47e3e67e3ae83a918", "lat": 38.90372833333333, "fusion_lon": 0.0, "rental_uris": {"ios": "https://dc.lft.to/lastmile_qr_scan", "android": "https://dc.lft.to/lastmile_qr_scan"}, "bike_id": "fcee65d82b5009f47e3e67e3ae83a918", "type": "electric_scooter", "fusion_lat": 0.0, "is_disabled": 0, "is_reserved": 0}, {"lon": -77.04476533333333, "name": "80c0cda9bb1d2e06adcad7dfe3fca71e", "lat": 38.91111466666667, "fusion_lon": 0.0, "rental_uris": {"ios": "https://dc.lft.to/lastmile_qr_scan", "android": "https://dc.lft.to/lastmile_qr_scan"}, "bike_id": "80c0cda9bb1d2e06adcad7dfe3fca71e", "type": "electric_scooter", "fusion_lat": 0.0, "is_disabled": 0, "is_reserved": 0}, {"lon": -76.99062083333334, "name": "f248984c0fa7ddb8129f2928d361fa10", "lat": 38.93757316666667, "fusion_lon": 0.0, "rental_uris": {"ios": "https://dc.lft.to/lastmile_qr_scan", "android": "https://dc.lft.to/lastmile_qr_scan"}, "bike_id": "f248984c0fa7ddb8129f2928d361fa10", "type": "electric_bike", "fusion_lat": 0.0, "is_disabled": 0, "is_reserved": 0}, {"lon": -77.03393216666667, "name": "e1eae665542cde822b484fe9628f3cc5", "lat": 38.90030983333333, "fusion_lon": 0.0, "rental_uris": {"ios": "https://dc.lft.to/lastmile_qr_scan", "android": "https://dc.lft.to/lastmile_qr_scan"}, "bike_id": "e1eae665542cde822b484fe9628f3cc5", "type": "electric_bike", "fusion_lat": 0.0, "is_disabled": 0, "is_reserved": 0}, {"lon": -77.038118, "name": "850e13c8af5eafffc03dbbccae725135", "lat": 38.906785666666664, "fusion_lon": 0.0, "rental_uris": {"ios": "https://dc.lft.to/lastmile_qr_scan", "android": "https://dc.lft.to/lastmile_qr_scan"}, "bike_id": "850e13c8af5eafffc03dbbccae725135", "type": "electric_scooter", "fusion_lat": 0.0, "is_disabled": 0, "is_reserved": 0}, {"lon": -77.012398, "name": "bfe092478e3337090b0787bc4559c683", "lat": 38.956512833333335, "fusion_lon": 0.0, "rental_uris": {"ios": "https://dc.lft.to/lastmile_qr_scan", "android": "https://dc.lft.to/lastmile_qr_scan"}, "bike_id": "bfe092478e3337090b0787bc4559c683", "type": "electric_scooter", "fusion_lat": 0.0, "is_disabled": 0, "is_reserved": 0}, {"lon": -77.0404515, "name": "7aa00ad06849fe3189799a403d82f451", "lat": 38.8960035, "fusion_lon": 0.0, "rental_uris": {"ios": "https://dc.lft.to/lastmile_qr_scan", "android": "https://dc.lft.to/lastmile_qr_scan"}, "bike_id": "7aa00ad06849fe3189799a403d82f451", "type": "electric_scooter", "fusion_lat": 0.0, "is_disabled": 0, "is_reserved": 0}, {"lon": -77.020334, "name": "e871109863a9d66cd0f0274dffadbb04", "lat": 38.922086166666666, "fusion_lon": 0.0, "rental_uris": {"ios": "https://dc.lft.to/lastmile_qr_scan", "android": "https://dc.lft.to/lastmile_qr_scan"}, "bike_id": "e871109863a9d66cd0f0274dffadbb04", "type": "electric_scooter", "fusion_lat": 0.0, "is_disabled": 0, "is_reserved": 0}, {"lon": -77.02461, "name": "5badd1dcf20cad6d3f8c6a329202b31c", "lat": 38.899134333333336, "fusion_lon": 0.0, "rental_uris": {"ios": "https://dc.lft.to/lastmile_qr_scan", "android": "https://dc.lft.to/lastmile_qr_scan"}, "bike_id": "5badd1dcf20cad6d3f8c6a329202b31c", "type": "electric_scooter", "fusion_lat": 0.0, "is_disabled": 0, "is_reserved": 0}, {"lon": -77.00071316666667, "name": "4a03f442c4b5fd12b67b698d9e01b825", "lat": 38.876813, "fusion_lon": 0.0, "rental_uris": {"ios": "https://dc.lft.to/lastmile_qr_scan", "android": "https://dc.lft.to/lastmile_qr_scan"}, "bike_id": "4a03f442c4b5fd12b67b698d9e01b825", "type": "electric_scooter", "fusion_lat": 0.0, "is_disabled": 0, "is_reserved": 0}, {"lon": -77.026931, "name": "f51ed2031ec39969a7128893146f0d08", "lat": 38.92229433333333, "fusion_lon": 0.0, "rental_uris": {"ios": "https://dc.lft.to/lastmile_qr_scan", "android": "https://dc.lft.to/lastmile_qr_scan"}, "bike_id": "f51ed2031ec39969a7128893146f0d08", "type": "electric_scooter", "fusion_lat": 0.0, "is_disabled": 0, "is_reserved": 0}, {"lon": -77.01983066666666, "name": "ae8fc2597856a2bacd7bf471007487e1", "lat": 38.88477366666667, "fusion_lon": 0.0, "rental_uris": {"ios": "https://dc.lft.to/lastmile_qr_scan", "android": "https://dc.lft.to/lastmile_qr_scan"}, "bike_id": "ae8fc2597856a2bacd7bf471007487e1", "type": "electric_scooter", "fusion_lat": 0.0, "is_disabled": 0, "is_reserved": 0}, {"lon": -77.067556, "name": "a2da9efda6a956b77730384fa320c4a2", "lat": 38.949583, "fusion_lon": 0.0, "rental_uris": {"ios": "https://dc.lft.to/lastmile_qr_scan", "android": "https://dc.lft.to/lastmile_qr_scan"}, "bike_id": "a2da9efda6a956b77730384fa320c4a2", "type": "electric_scooter", "fusion_lat": 0.0, "is_disabled": 0, "is_reserved": 0}, {"lon": -77.041479, "name": "4965d7c54ca303d38d0c17bd5006fbc3", "lat": 38.922956, "fusion_lon": 0.0, "rental_uris": {"ios": "https://dc.lft.to/lastmile_qr_scan", "android": "https://dc.lft.to/lastmile_qr_scan"}, "bike_id": "4965d7c54ca303d38d0c17bd5006fbc3", "type": "electric_scooter", "fusion_lat": 0.0, "is_disabled": 0, "is_reserved": 0}, {"lon": -77.01542166666667, "name": "7931fc9a8a09c7c8b74c280e33ae0379", "lat": 38.900450166666666, "fusion_lon": 0.0, "rental_uris": {"ios": "https://dc.lft.to/lastmile_qr_scan", "android": "https://dc.lft.to/lastmile_qr_scan"}, "bike_id": "7931fc9a8a09c7c8b74c280e33ae0379", "type": "electric_scooter", "fusion_lat": 0.0, "is_disabled": 0, "is_reserved": 0}, {"lon": -77.03824066666667, "name": "59d6bf1288616d4b34e3be1557bfa3c4", "lat": 38.90572816666667, "fusion_lon": 0.0, "rental_uris": {"ios": "https://dc.lft.to/lastmile_qr_scan", "android": "https://dc.lft.to/lastmile_qr_scan"}, "bike_id": "59d6bf1288616d4b34e3be1557bfa3c4", "type": "electric_scooter", "fusion_lat": 0.0, "is_disabled": 0, "is_reserved": 0}, {"lon": -77.02404933333334, "name": "bbe148601dbf0a23d1014d87cda941ef", "lat": 38.9572955, "fusion_lon": 0.0, "rental_uris": {"ios": "https://dc.lft.to/lastmile_qr_scan", "android": "https://dc.lft.to/lastmile_qr_scan"}, "bike_id": "bbe148601dbf0a23d1014d87cda941ef", "type": "electric_scooter", "fusion_lat": 0.0, "is_disabled": 0, "is_reserved": 0}, {"lon": -77.04500116666667, "name": "fa0cea52ccea62e21ba0459852ee3810", "lat": 38.892224, "fusion_lon": 0.0, "rental_uris": {"ios": "https://dc.lft.to/lastmile_qr_scan", "android": "https://dc.lft.to/lastmile_qr_scan"}, "bike_id": "fa0cea52ccea62e21ba0459852ee3810", "type": "electric_scooter", "fusion_lat": 0.0, "is_disabled": 0, "is_reserved": 0}, {"lon": -76.95763183333334, "name": "2acc2597fc4077b75f402c94c5c5b334", "lat": 38.884409, "fusion_lon": 0.0, "rental_uris": {"ios": "https://dc.lft.to/lastmile_qr_scan", "android": "https://dc.lft.to/lastmile_qr_scan"}, "bike_id": "2acc2597fc4077b75f402c94c5c5b334", "type": "electric_scooter", "fusion_lat": 0.0, "is_disabled": 0, "is_reserved": 0}, {"lon": -76.99050066666666, "name": "dbcd1d51b5a6b8c592dc67af087147dd", "lat": 38.858454333333334, "fusion_lon": 0.0, "rental_uris": {"ios": "https://dc.lft.to/lastmile_qr_scan", "android": "https://dc.lft.to/lastmile_qr_scan"}, "bike_id": "dbcd1d51b5a6b8c592dc67af087147dd", "type": "electric_scooter", "fusion_lat": 0.0, "is_disabled": 0, "is_reserved": 0}, {"lon": -77.0222865, "name": "a5c6bc677e9500411fb49a48b79c801a", "lat": 38.956835833333336, "fusion_lon": 0.0, "rental_uris": {"ios": "https://dc.lft.to/lastmile_qr_scan", "android": "https://dc.lft.to/lastmile_qr_scan"}, "bike_id": "a5c6bc677e9500411fb49a48b79c801a", "type": "electric_scooter", "fusion_lat": 0.0, "is_disabled": 0, "is_reserved": 0}, {"lon": -77.04190266666667, "name": "c2174c150a0badb0fc18dfb46383d58a", "lat": 38.89224983333333, "fusion_lon": 0.0, "rental_uris": {"ios": "https://dc.lft.to/lastmile_qr_scan", "android": "https://dc.lft.to/lastmile_qr_scan"}, "bike_id": "c2174c150a0badb0fc18dfb46383d58a", "type": "electric_scooter", "fusion_lat": 0.0, "is_disabled": 0, "is_reserved": 0}, {"lon": -77.022745, "name": "949220a6ecbee6d9934a200686e0e279", "lat": 38.924861, "fusion_lon": 0.0, "rental_uris": {"ios": "https://dc.lft.to/lastmile_qr_scan", "android": "https://dc.lft.to/lastmile_qr_scan"}, "bike_id": "949220a6ecbee6d9934a200686e0e279", "type": "electric_scooter", "fusion_lat": 0.0, "is_disabled": 0, "is_reserved": 0}, {"lon": -77.0033275, "name": "38040477b49d6bc405baf811dc478f82", "lat": 38.893552, "fusion_lon": 0.0, "rental_uris": {"ios": "https://dc.lft.to/lastmile_qr_scan", "android": "https://dc.lft.to/lastmile_qr_scan"}, "bike_id": "38040477b49d6bc405baf811dc478f82", "type": "electric_scooter", "fusion_lat": 0.0, "is_disabled": 0, "is_reserved": 0}, {"lon": -76.965416, "name": "574c498bd37e236c3d188bb63783770f", "lat": 38.87887383333333, "fusion_lon": 0.0, "rental_uris": {"ios": "https://dc.lft.to/lastmile_qr_scan", "android": "https://dc.lft.to/lastmile_qr_scan"}, "bike_id": "574c498bd37e236c3d188bb63783770f", "type": "electric_scooter", "fusion_lat": 0.0, "is_disabled": 0, "is_reserved": 0}, {"lon": -77.041833, "name": "2b8f377908231d9ec7f4c4826cb92f68", "lat": 38.899415166666664, "fusion_lon": 0.0, "rental_uris": {"ios": "https://dc.lft.to/lastmile_qr_scan", "android": "https://dc.lft.to/lastmile_qr_scan"}, "bike_id": "2b8f377908231d9ec7f4c4826cb92f68", "type": "electric_bike", "fusion_lat": 0.0, "is_disabled": 0, "is_reserved": 0}, {"lon": -77.02589383333333, "name": "3e9b1f7531dbfb8de3dc2bf5e5e43450", "lat": 38.9639365, "fusion_lon": 0.0, "rental_uris": {"ios": "https://dc.lft.to/lastmile_qr_scan", "android": "https://dc.lft.to/lastmile_qr_scan"}, "bike_id": "3e9b1f7531dbfb8de3dc2bf5e5e43450", "type": "electric_scooter", "fusion_lat": 0.0, "is_disabled": 0, "is_reserved": 0}, {"lon": -76.99029466666667, "name": "2a046b1f1b0fd9699d5d642b8cb24f81", "lat": 38.83583333333333, "fusion_lon": 0.0, "rental_uris": {"ios": "https://dc.lft.to/lastmile_qr_scan", "android": "https://dc.lft.to/lastmile_qr_scan"}, "bike_id": "2a046b1f1b0fd9699d5d642b8cb24f81", "type": "electric_bike", "fusion_lat": 0.0, "is_disabled": 0, "is_reserved": 0}, {"lon": -77.101725, "name": "3104fc43b28d648245e74b2cb400f17e", "lat": 38.918951, "fusion_lon": 0.0, "rental_uris": {"ios": "https://dc.lft.to/lastmile_qr_scan", "android": "https://dc.lft.to/lastmile_qr_scan"}, "bike_id": "3104fc43b28d648245e74b2cb400f17e", "type": "electric_bike", "fusion_lat": 0.0, "is_disabled": 0, "is_reserved": 0}, {"lon": -76.988387, "name": "2c3213a8f51735ca1433f35c336ee48b", "lat": 38.9003785, "fusion_lon": 0.0, "rental_uris": {"ios": "https://dc.lft.to/lastmile_qr_scan", "android": "https://dc.lft.to/lastmile_qr_scan"}, "bike_id": "2c3213a8f51735ca1433f35c336ee48b", "type": "electric_scooter", "fusion_lat": 0.0, "is_disabled": 0, "is_reserved": 0}, {"lon": -77.05202966666667, "name": "a92f07f8bc1cab1bb594173f25cc6653", "lat": 38.924346666666665, "fusion_lon": 0.0, "rental_uris": {"ios": "https://dc.lft.to/lastmile_qr_scan", "android": "https://dc.lft.to/lastmile_qr_scan"}, "bike_id": "a92f07f8bc1cab1bb594173f25cc6653", "type": "electric_scooter", "fusion_lat": 0.0, "is_disabled": 0, "is_reserved": 0}, {"lon": -77.0701595, "name": "62f73205eae3c5a64d221d2a77763c9b", "lat": 38.90507916666667, "fusion_lon": 0.0, "rental_uris": {"ios": "https://dc.lft.to/lastmile_qr_scan", "android": "https://dc.lft.to/lastmile_qr_scan"}, "bike_id": "62f73205eae3c5a64d221d2a77763c9b", "type": "electric_scooter", "fusion_lat": 0.0, "is_disabled": 0, "is_reserved": 0}, {"lon": -77.02727183333333, "name": "884ce339a63983fed84ec0190daed94e", "lat": 38.89778666666667, "fusion_lon": 0.0, "rental_uris": {"ios": "https://dc.lft.to/lastmile_qr_scan", "android": "https://dc.lft.to/lastmile_qr_scan"}, "bike_id": "884ce339a63983fed84ec0190daed94e", "type": "electric_scooter", "fusion_lat": 0.0, "is_disabled": 0, "is_reserved": 0}, {"lon": -77.02481016666667, "name": "23da9ccb521905c1b5f784df07100d57", "lat": 38.9388185, "fusion_lon": 0.0, "rental_uris": {"ios": "https://dc.lft.to/lastmile_qr_scan", "android": "https://dc.lft.to/lastmile_qr_scan"}, "bike_id": "23da9ccb521905c1b5f784df07100d57", "type": "electric_scooter", "fusion_lat": 0.0, "is_disabled": 0, "is_reserved": 0}, {"lon": -77.04052116666666, "name": "53503b931b1f2bbadd9dc8d4818adade", "lat": 38.90596983333333, "fusion_lon": 0.0, "rental_uris": {"ios": "https://dc.lft.to/lastmile_qr_scan", "android": "https://dc.lft.to/lastmile_qr_scan"}, "bike_id": "53503b931b1f2bbadd9dc8d4818adade", "type": "electric_scooter", "fusion_lat": 0.0, "is_disabled": 0, "is_reserved": 0}, {"lon": -77.0065785, "name": "a243f1d71e9d864b5f3dde39630abf5b", "lat": 38.9446235, "fusion_lon": 0.0, "rental_uris": {"ios": "https://dc.lft.to/lastmile_qr_scan", "android": "https://dc.lft.to/lastmile_qr_scan"}, "bike_id": "a243f1d71e9d864b5f3dde39630abf5b", "type": "electric_scooter", "fusion_lat": 0.0, "is_disabled": 0, "is_reserved": 0}, {"lon": -77.03518183333334, "name": "42ee0e3d9ce89689bcd2297adef9ee85", "lat": 38.922384, "fusion_lon": 0.0, "rental_uris": {"ios": "https://dc.lft.to/lastmile_qr_scan", "android": "https://dc.lft.to/lastmile_qr_scan"}, "bike_id": "42ee0e3d9ce89689bcd2297adef9ee85", "type": "electric_scooter", "fusion_lat": 0.0, "is_disabled": 0, "is_reserved": 0}, {"lon": -77.0033285, "name": "534e1120a8d11c58a1cb1a8285be486d", "lat": 38.89355966666667, "fusion_lon": 0.0, "rental_uris": {"ios": "https://dc.lft.to/lastmile_qr_scan", "android": "https://dc.lft.to/lastmile_qr_scan"}, "bike_id": "534e1120a8d11c58a1cb1a8285be486d", "type": "electric_scooter", "fusion_lat": 0.0, "is_disabled": 0, "is_reserved": 0}, {"lon": -76.9335195, "name": "5677fe0a80537efd45248fe4a93cb86c", "lat": 38.89910116666667, "fusion_lon": 0.0, "rental_uris": {"ios": "https://dc.lft.to/lastmile_qr_scan", "android": "https://dc.lft.to/lastmile_qr_scan"}, "bike_id": "5677fe0a80537efd45248fe4a93cb86c", "type": "electric_scooter", "fusion_lat": 0.0, "is_disabled": 0, "is_reserved": 0}, {"lon": -77.01740533333333, "name": "c4919a659aff88bb079cab14bc182a5f", "lat": 38.902582833333334, "fusion_lon": 0.0, "rental_uris": {"ios": "https://dc.lft.to/lastmile_qr_scan", "android": "https://dc.lft.to/lastmile_qr_scan"}, "bike_id": "c4919a659aff88bb079cab14bc182a5f", "type": "electric_scooter", "fusion_lat": 0.0, "is_disabled": 0, "is_reserved": 0}, {"lon": -77.025963, "name": "2e24b99601212a4ac78d68f57f38c2b6", "lat": 38.904302666666666, "fusion_lon": 0.0, "rental_uris": {"ios": "https://dc.lft.to/lastmile_qr_scan", "android": "https://dc.lft.to/lastmile_qr_scan"}, "bike_id": "2e24b99601212a4ac78d68f57f38c2b6", "type": "electric_scooter", "fusion_lat": 0.0, "is_disabled": 0, "is_reserved": 0}, {"lon": -77.0092625, "name": "3d34b8a7ee7672f2e5ad95f4c2ba7ea8", "lat": 38.895520833333336, "fusion_lon": 0.0, "rental_uris": {"ios": "https://dc.lft.to/lastmile_qr_scan", "android": "https://dc.lft.to/lastmile_qr_scan"}, "bike_id": "3d34b8a7ee7672f2e5ad95f4c2ba7ea8", "type": "electric_scooter", "fusion_lat": 0.0, "is_disabled": 0, "is_reserved": 0}, {"lon": -77.05681683333333, "name": "79d492fdc02cd127897b3630d63ef6d5", "lat": 38.92328283333333, "fusion_lon": 0.0, "rental_uris": {"ios": "https://dc.lft.to/lastmile_qr_scan", "android": "https://dc.lft.to/lastmile_qr_scan"}, "bike_id": "79d492fdc02cd127897b3630d63ef6d5", "type": "electric_scooter", "fusion_lat": 0.0, "is_disabled": 0, "is_reserved": 0}, {"lon": -77.03998533333333, "name": "3191cce1e4f6191184e1609710724b47", "lat": 38.91813966666667, "fusion_lon": 0.0, "rental_uris": {"ios": "https://dc.lft.to/lastmile_qr_scan", "android": "https://dc.lft.to/lastmile_qr_scan"}, "bike_id": "3191cce1e4f6191184e1609710724b47", "type": "electric_scooter", "fusion_lat": 0.0, "is_disabled": 0, "is_reserved": 0}, {"lon": -77.04527383333334, "name": "2d865e1c8a9a18c8d710e759d8d251a4", "lat": 38.90367216666667, "fusion_lon": 0.0, "rental_uris": {"ios": "https://dc.lft.to/lastmile_qr_scan", "android": "https://dc.lft.to/lastmile_qr_scan"}, "bike_id": "2d865e1c8a9a18c8d710e759d8d251a4", "type": "electric_scooter", "fusion_lat": 0.0, "is_disabled": 0, "is_reserved": 0}, {"lon": -77.083205, "name": "50100863802ce7a3d9b96f58a60c819f", "lat": 38.8543565, "fusion_lon": 0.0, "rental_uris": {"ios": "https://dc.lft.to/lastmile_qr_scan", "android": "https://dc.lft.to/lastmile_qr_scan"}, "bike_id": "50100863802ce7a3d9b96f58a60c819f", "type": "electric_bike", "fusion_lat": 0.0, "is_disabled": 0, "is_reserved": 0}, {"lon": -77.04668583333333, "name": "0b700bdb0ee0ac71da25b090f497c904", "lat": 38.904172833333334, "fusion_lon": 0.0, "rental_uris": {"ios": "https://dc.lft.to/lastmile_qr_scan", "android": "https://dc.lft.to/lastmile_qr_scan"}, "bike_id": "0b700bdb0ee0ac71da25b090f497c904", "type": "electric_scooter", "fusion_lat": 0.0, "is_disabled": 0, "is_reserved": 0}, {"lon": -77.04477716666666, "name": "6733530523a05931b79cdb42c58c9a12", "lat": 38.91113283333333, "fusion_lon": 0.0, "rental_uris": {"ios": "https://dc.lft.to/lastmile_qr_scan", "android": "https://dc.lft.to/lastmile_qr_scan"}, "bike_id": "6733530523a05931b79cdb42c58c9a12", "type": "electric_scooter", "fusion_lat": 0.0, "is_disabled": 0, "is_reserved": 0}, {"lon": -77.04546216666667, "name": "aa2a2353d9c54a0128b2cf4687e28e18", "lat": 38.898296333333334, "fusion_lon": 0.0, "rental_uris": {"ios": "https://dc.lft.to/lastmile_qr_scan", "android": "https://dc.lft.to/lastmile_qr_scan"}, "bike_id": "aa2a2353d9c54a0128b2cf4687e28e18", "type": "electric_scooter", "fusion_lat": 0.0, "is_disabled": 0, "is_reserved": 0}, {"lon": -76.995183, "name": "a18cac99999ebf8c32791a0b1bde15b8", "lat": 38.86215983333334, "fusion_lon": 0.0, "rental_uris": {"ios": "https://dc.lft.to/lastmile_qr_scan", "android": "https://dc.lft.to/lastmile_qr_scan"}, "bike_id": "a18cac99999ebf8c32791a0b1bde15b8", "type": "electric_scooter", "fusion_lat": 0.0, "is_disabled": 0, "is_reserved": 0}, {"lon": -76.9432315, "name": "2c058456b94e72dadd712aa8fabe3926", "lat": 38.88024933333333, "fusion_lon": 0.0, "rental_uris": {"ios": "https://dc.lft.to/lastmile_qr_scan", "android": "https://dc.lft.to/lastmile_qr_scan"}, "bike_id": "2c058456b94e72dadd712aa8fabe3926", "type": "electric_scooter", "fusion_lat": 0.0, "is_disabled": 0, "is_reserved": 0}, {"lon": -77.04087833333334, "name": "fdda44ab5df5b87747265d0a3a79aebd", "lat": 38.91876666666667, "fusion_lon": 0.0, "rental_uris": {"ios": "https://dc.lft.to/lastmile_qr_scan", "android": "https://dc.lft.to/lastmile_qr_scan"}, "bike_id": "fdda44ab5df5b87747265d0a3a79aebd", "type": "electric_scooter", "fusion_lat": 0.0, "is_disabled": 0, "is_reserved": 0}, {"lon": -77.017615, "name": "ce5e5dbe7206e25d34920b5bfb0a5ccb", "lat": 38.900104166666665, "fusion_lon": 0.0, "rental_uris": {"ios": "https://dc.lft.to/lastmile_qr_scan", "android": "https://dc.lft.to/lastmile_qr_scan"}, "bike_id": "ce5e5dbe7206e25d34920b5bfb0a5ccb", "type": "electric_scooter", "fusion_lat": 0.0, "is_disabled": 0, "is_reserved": 0}, {"lon": -77.021239, "name": "984186a6f72c7510b96dd089be5bd51c", "lat": 38.8940045, "fusion_lon": 0.0, "rental_uris": {"ios": "https://dc.lft.to/lastmile_qr_scan", "android": "https://dc.lft.to/lastmile_qr_scan"}, "bike_id": "984186a6f72c7510b96dd089be5bd51c", "type": "electric_scooter", "fusion_lat": 0.0, "is_disabled": 0, "is_reserved": 0}, {"lon": -77.03232716666666, "name": "cc0676bc4d3a5ecd6535acefc06782d4", "lat": 38.90129816666666, "fusion_lon": 0.0, "rental_uris": {"ios": "https://dc.lft.to/lastmile_qr_scan", "android": "https://dc.lft.to/lastmile_qr_scan"}, "bike_id": "cc0676bc4d3a5ecd6535acefc06782d4", "type": "electric_scooter", "fusion_lat": 0.0, "is_disabled": 0, "is_reserved": 0}, {"lon": -76.98345616666667, "name": "2550c9ab7fde7ceb5b7387dac466d840", "lat": 38.8871005, "fusion_lon": 0.0, "rental_uris": {"ios": "https://dc.lft.to/lastmile_qr_scan", "android": "https://dc.lft.to/lastmile_qr_scan"}, "bike_id": "2550c9ab7fde7ceb5b7387dac466d840", "type": "electric_scooter", "fusion_lat": 0.0, "is_disabled": 0, "is_reserved": 0}, {"lon": -77.02292166666666, "name": "963200aa7d8f9882933cffb5b8535391", "lat": 38.9014065, "fusion_lon": 0.0, "rental_uris": {"ios": "https://dc.lft.to/lastmile_qr_scan", "android": "https://dc.lft.to/lastmile_qr_scan"}, "bike_id": "963200aa7d8f9882933cffb5b8535391", "type": "electric_scooter", "fusion_lat": 0.0, "is_disabled": 0, "is_reserved": 0}, {"lon": -77.02509566666667, "name": "d83b624cc25c1bf924e2fc795be565d2", "lat": 38.920601833333336, "fusion_lon": 0.0, "rental_uris": {"ios": "https://dc.lft.to/lastmile_qr_scan", "android": "https://dc.lft.to/lastmile_qr_scan"}, "bike_id": "d83b624cc25c1bf924e2fc795be565d2", "type": "electric_scooter", "fusion_lat": 0.0, "is_disabled": 0, "is_reserved": 0}, {"lon": -76.98814816666666, "name": "82b168fa8edfb03d7a5d3ee4350d7bda", "lat": 38.80382816666667, "fusion_lon": 0.0, "rental_uris": {"ios": "https://dc.lft.to/lastmile_qr_scan", "android": "https://dc.lft.to/lastmile_qr_scan"}, "bike_id": "82b168fa8edfb03d7a5d3ee4350d7bda", "type": "electric_bike", "fusion_lat": 0.0, "is_disabled": 0, "is_reserved": 0}, {"lon": -76.98370883333334, "name": "a21867560980995ed0282ec22ed61e35", "lat": 38.906806, "fusion_lon": 0.0, "rental_uris": {"ios": "https://dc.lft.to/lastmile_qr_scan", "android": "https://dc.lft.to/lastmile_qr_scan"}, "bike_id": "a21867560980995ed0282ec22ed61e35", "type": "electric_scooter", "fusion_lat": 0.0, "is_disabled": 0, "is_reserved": 0}, {"lon": -77.02183, "name": "a84b6be5125263409bd14e9c1809f3ea", "lat": 38.9156525, "fusion_lon": 0.0, "rental_uris": {"ios": "https://dc.lft.to/lastmile_qr_scan", "android": "https://dc.lft.to/lastmile_qr_scan"}, "bike_id": "a84b6be5125263409bd14e9c1809f3ea", "type": "electric_scooter", "fusion_lat": 0.0, "is_disabled": 0, "is_reserved": 0}, {"lon": -77.00060216666667, "name": "67f5df4372855d6719fe4aafaa8e0ae4", "lat": 38.875955166666664, "fusion_lon": 0.0, "rental_uris": {"ios": "https://dc.lft.to/lastmile_qr_scan", "android": "https://dc.lft.to/lastmile_qr_scan"}, "bike_id": "67f5df4372855d6719fe4aafaa8e0ae4", "type": "electric_scooter", "fusion_lat": 0.0, "is_disabled": 0, "is_reserved": 0}, {"lon": -77.01575633333333, "name": "9748b3bb55e513a1f8c2efea98af196e", "lat": 38.9510805, "fusion_lon": 0.0, "rental_uris": {"ios": "https://dc.lft.to/lastmile_qr_scan", "android": "https://dc.lft.to/lastmile_qr_scan"}, "bike_id": "9748b3bb55e513a1f8c2efea98af196e", "type": "electric_scooter", "fusion_lat": 0.0, "is_disabled": 0, "is_reserved": 0}, {"lon": -77.02692066666667, "name": "1441d1aa7fe1d7edf8d78fafcbe5159d", "lat": 38.8958755, "fusion_lon": 0.0, "rental_uris": {"ios": "https://dc.lft.to/lastmile_qr_scan", "android": "https://dc.lft.to/lastmile_qr_scan"}, "bike_id": "1441d1aa7fe1d7edf8d78fafcbe5159d", "type": "electric_scooter", "fusion_lat": 0.0, "is_disabled": 0, "is_reserved": 0}, {"lon": -77.0340095, "name": "fd154a5ad0729324d88b3b52635ba5dd", "lat": 38.9244105, "fusion_lon": 0.0, "rental_uris": {"ios": "https://dc.lft.to/lastmile_qr_scan", "android": "https://dc.lft.to/lastmile_qr_scan"}, "bike_id": "fd154a5ad0729324d88b3b52635ba5dd", "type": "electric_scooter", "fusion_lat": 0.0, "is_disabled": 0, "is_reserved": 0}, {"lon": -77.002155, "name": "da055055402c7cd589a3c5cc570514e9", "lat": 38.908546666666666, "fusion_lon": 0.0, "rental_uris": {"ios": "https://dc.lft.to/lastmile_qr_scan", "android": "https://dc.lft.to/lastmile_qr_scan"}, "bike_id": "da055055402c7cd589a3c5cc570514e9", "type": "electric_scooter", "fusion_lat": 0.0, "is_disabled": 0, "is_reserved": 0}, {"lon": -77.0345905, "name": "d913252c32c8f49544ec9970d3824bc8", "lat": 38.90567083333333, "fusion_lon": 0.0, "rental_uris": {"ios": "https://dc.lft.to/lastmile_qr_scan", "android": "https://dc.lft.to/lastmile_qr_scan"}, "bike_id": "d913252c32c8f49544ec9970d3824bc8", "type": "electric_scooter", "fusion_lat": 0.0, "is_disabled": 0, "is_reserved": 0}, {"lon": -77.01437533333333, "name": "1593c529096cf7555db0fd2bf50aa4c4", "lat": 38.88615733333334, "fusion_lon": 0.0, "rental_uris": {"ios": "https://dc.lft.to/lastmile_qr_scan", "android": "https://dc.lft.to/lastmile_qr_scan"}, "bike_id": "1593c529096cf7555db0fd2bf50aa4c4", "type": "electric_scooter", "fusion_lat": 0.0, "is_disabled": 0, "is_reserved": 0}, {"lon": -76.9950675, "name": "8a084b510384b48811c0d2aec255f943", "lat": 38.88387766666666, "fusion_lon": 0.0, "rental_uris": {"ios": "https://dc.lft.to/lastmile_qr_scan", "android": "https://dc.lft.to/lastmile_qr_scan"}, "bike_id": "8a084b510384b48811c0d2aec255f943", "type": "electric_scooter", "fusion_lat": 0.0, "is_disabled": 0, "is_reserved": 0}, {"lon": -77.00951216666667, "name": "1fcc9243c41d33d017d28740135dc30b", "lat": 38.91476633333333, "fusion_lon": 0.0, "rental_uris": {"ios": "https://dc.lft.to/lastmile_qr_scan", "android": "https://dc.lft.to/lastmile_qr_scan"}, "bike_id": "1fcc9243c41d33d017d28740135dc30b", "type": "electric_scooter", "fusion_lat": 0.0, "is_disabled": 0, "is_reserved": 0}, {"lon": -77.038414, "name": "cc02e304d8eef941dd3aa7a4a855d1a6", "lat": 38.902798833333335, "fusion_lon": 0.0, "rental_uris": {"ios": "https://dc.lft.to/lastmile_qr_scan", "android": "https://dc.lft.to/lastmile_qr_scan"}, "bike_id": "cc02e304d8eef941dd3aa7a4a855d1a6", "type": "electric_scooter", "fusion_lat": 0.0, "is_disabled": 0, "is_reserved": 0}, {"lon": -77.0157335, "name": "fb0537435bf09386b19bb76fadfaa962", "lat": 38.926815833333336, "fusion_lon": 0.0, "rental_uris": {"ios": "https://dc.lft.to/lastmile_qr_scan", "android": "https://dc.lft.to/lastmile_qr_scan"}, "bike_id": "fb0537435bf09386b19bb76fadfaa962", "type": "electric_scooter", "fusion_lat": 0.0, "is_disabled": 0, "is_reserved": 0}, {"lon": -76.98532183333333, "name": "4145550d4e67f12d3d1f16c0680cf8b6", "lat": 38.879742666666665, "fusion_lon": 0.0, "rental_uris": {"ios": "https://dc.lft.to/lastmile_qr_scan", "android": "https://dc.lft.to/lastmile_qr_scan"}, "bike_id": "4145550d4e67f12d3d1f16c0680cf8b6", "type": "electric_bike", "fusion_lat": 0.0, "is_disabled": 0, "is_reserved": 0}, {"lon": -77.03782316666667, "name": "0d384b1adf5a1178e8c0d63123247a7f", "lat": 38.920049166666665, "fusion_lon": 0.0, "rental_uris": {"ios": "https://dc.lft.to/lastmile_qr_scan", "android": "https://dc.lft.to/lastmile_qr_scan"}, "bike_id": "0d384b1adf5a1178e8c0d63123247a7f", "type": "electric_scooter", "fusion_lat": 0.0, "is_disabled": 0, "is_reserved": 0}, {"lon": -77.02438983333333, "name": "b8efe89ebb0ad5cbbfda1205abba2b72", "lat": 38.92265533333333, "fusion_lon": 0.0, "rental_uris": {"ios": "https://dc.lft.to/lastmile_qr_scan", "android": "https://dc.lft.to/lastmile_qr_scan"}, "bike_id": "b8efe89ebb0ad5cbbfda1205abba2b72", "type": "electric_scooter", "fusion_lat": 0.0, "is_disabled": 0, "is_reserved": 0}, {"lon": -77.01782183333333, "name": "4c67310587f03011d0ca6a5be95d4ff5", "lat": 38.88395033333333, "fusion_lon": 0.0, "rental_uris": {"ios": "https://dc.lft.to/lastmile_qr_scan", "android": "https://dc.lft.to/lastmile_qr_scan"}, "bike_id": "4c67310587f03011d0ca6a5be95d4ff5", "type": "electric_scooter", "fusion_lat": 0.0, "is_disabled": 0, "is_reserved": 0}, {"lon": -77.03645, "name": "ef1f9001114cf5cdb04894725cd4a907", "lat": 38.92258133333333, "fusion_lon": 0.0, "rental_uris": {"ios": "https://dc.lft.to/lastmile_qr_scan", "android": "https://dc.lft.to/lastmile_qr_scan"}, "bike_id": "ef1f9001114cf5cdb04894725cd4a907", "type": "electric_scooter", "fusion_lat": 0.0, "is_disabled": 0, "is_reserved": 0}, {"lon": -77.00795016666666, "name": "c2df98fd7fbd9cd3055f64354538e336", "lat": 38.94918283333333, "fusion_lon": 0.0, "rental_uris": {"ios": "https://dc.lft.to/lastmile_qr_scan", "android": "https://dc.lft.to/lastmile_qr_scan"}, "bike_id": "c2df98fd7fbd9cd3055f64354538e336", "type": "electric_bike", "fusion_lat": 0.0, "is_disabled": 0, "is_reserved": 0}, {"lon": -77.0268355, "name": "d263fb57e147a24284a019e03c4b5084", "lat": 38.894509, "fusion_lon": 0.0, "rental_uris": {"ios": "https://dc.lft.to/lastmile_qr_scan", "android": "https://dc.lft.to/lastmile_qr_scan"}, "bike_id": "d263fb57e147a24284a019e03c4b5084", "type": "electric_scooter", "fusion_lat": 0.0, "is_disabled": 0, "is_reserved": 0}, {"lon": -77.03451833333334, "name": "1b026d59c602e925f7fe4fdcc06d1710", "lat": 38.90255366666667, "fusion_lon": 0.0, "rental_uris": {"ios": "https://dc.lft.to/lastmile_qr_scan", "android": "https://dc.lft.to/lastmile_qr_scan"}, "bike_id": "1b026d59c602e925f7fe4fdcc06d1710", "type": "electric_scooter", "fusion_lat": 0.0, "is_disabled": 0, "is_reserved": 0}, {"lon": -77.03980733333333, "name": "99f77837cb519a983fd7c461a88c0ef2", "lat": 38.903138166666665, "fusion_lon": 0.0, "rental_uris": {"ios": "https://dc.lft.to/lastmile_qr_scan", "android": "https://dc.lft.to/lastmile_qr_scan"}, "bike_id": "99f77837cb519a983fd7c461a88c0ef2", "type": "electric_scooter", "fusion_lat": 0.0, "is_disabled": 0, "is_reserved": 0}, {"lon": -77.02821966666667, "name": "3bcfbf8eecc2cafb382a82dc5bacf8b8", "lat": 38.917166333333334, "fusion_lon": 0.0, "rental_uris": {"ios": "https://dc.lft.to/lastmile_qr_scan", "android": "https://dc.lft.to/lastmile_qr_scan"}, "bike_id": "3bcfbf8eecc2cafb382a82dc5bacf8b8", "type": "electric_scooter", "fusion_lat": 0.0, "is_disabled": 0, "is_reserved": 0}, {"lon": -77.02394183333334, "name": "977d9df34ce9df4008e4f9914c32c9e3", "lat": 38.898127833333334, "fusion_lon": 0.0, "rental_uris": {"ios": "https://dc.lft.to/lastmile_qr_scan", "android": "https://dc.lft.to/lastmile_qr_scan"}, "bike_id": "977d9df34ce9df4008e4f9914c32c9e3", "type": "electric_scooter", "fusion_lat": 0.0, "is_disabled": 0, "is_reserved": 0}, {"lon": -76.93754666666666, "name": "b2ae2c6355c96ad75d46ab89d56db83f", "lat": 38.890462166666666, "fusion_lon": 0.0, "rental_uris": {"ios": "https://dc.lft.to/lastmile_qr_scan", "android": "https://dc.lft.to/lastmile_qr_scan"}, "bike_id": "b2ae2c6355c96ad75d46ab89d56db83f", "type": "electric_scooter", "fusion_lat": 0.0, "is_disabled": 0, "is_reserved": 0}, {"lon": -77.04088433333334, "name": "f3081c5460ce3b11e519c4fb08cc53db", "lat": 38.90500183333333, "fusion_lon": 0.0, "rental_uris": {"ios": "https://dc.lft.to/lastmile_qr_scan", "android": "https://dc.lft.to/lastmile_qr_scan"}, "bike_id": "f3081c5460ce3b11e519c4fb08cc53db", "type": "electric_scooter", "fusion_lat": 0.0, "is_disabled": 0, "is_reserved": 0}, {"lon": -77.00987633333334, "name": "08dfcb91c02e09f2e83b76785b12cfcb", "lat": 38.872867, "fusion_lon": 0.0, "rental_uris": {"ios": "https://dc.lft.to/lastmile_qr_scan", "android": "https://dc.lft.to/lastmile_qr_scan"}, "bike_id": "08dfcb91c02e09f2e83b76785b12cfcb", "type": "electric_scooter", "fusion_lat": 0.0, "is_disabled": 0, "is_reserved": 0}, {"lon": -77.03156033333333, "name": "929240b9586df7217baa876a40d3724e", "lat": 38.89996466666667, "fusion_lon": 0.0, "rental_uris": {"ios": "https://dc.lft.to/lastmile_qr_scan", "android": "https://dc.lft.to/lastmile_qr_scan"}, "bike_id": "929240b9586df7217baa876a40d3724e", "type": "electric_scooter", "fusion_lat": 0.0, "is_disabled": 0, "is_reserved": 0}, {"lon": -77.02405866666666, "name": "c23e61b751f74ec5a8e1a674870f19bc", "lat": 38.8965735, "fusion_lon": 0.0, "rental_uris": {"ios": "https://dc.lft.to/lastmile_qr_scan", "android": "https://dc.lft.to/lastmile_qr_scan"}, "bike_id": "c23e61b751f74ec5a8e1a674870f19bc", "type": "electric_scooter", "fusion_lat": 0.0, "is_disabled": 0, "is_reserved": 0}, {"lon": -77.01234016666666, "name": "7d88ebd95fb101e012a14e7ae8377799", "lat": 38.875221333333336, "fusion_lon": 0.0, "rental_uris": {"ios": "https://dc.lft.to/lastmile_qr_scan", "android": "https://dc.lft.to/lastmile_qr_scan"}, "bike_id": "7d88ebd95fb101e012a14e7ae8377799", "type": "electric_scooter", "fusion_lat": 0.0, "is_disabled": 0, "is_reserved": 0}, {"lon": -76.96081033333333, "name": "5c25a9783f4886313cc60d98ff58c05a", "lat": 38.927038333333336, "fusion_lon": 0.0, "rental_uris": {"ios": "https://dc.lft.to/lastmile_qr_scan", "android": "https://dc.lft.to/lastmile_qr_scan"}, "bike_id": "5c25a9783f4886313cc60d98ff58c05a", "type": "electric_scooter", "fusion_lat": 0.0, "is_disabled": 0, "is_reserved": 0}, {"lon": -77.03454483333333, "name": "2e35fc8d80698d520d2d813a7193c7eb", "lat": 38.903013666666666, "fusion_lon": 0.0, "rental_uris": {"ios": "https://dc.lft.to/lastmile_qr_scan", "android": "https://dc.lft.to/lastmile_qr_scan"}, "bike_id": "2e35fc8d80698d520d2d813a7193c7eb", "type": "electric_scooter", "fusion_lat": 0.0, "is_disabled": 0, "is_reserved": 0}, {"lon": -77.02079216666667, "name": "715a191552911309e48d37d59ff021b9", "lat": 38.949124833333336, "fusion_lon": 0.0, "rental_uris": {"ios": "https://dc.lft.to/lastmile_qr_scan", "android": "https://dc.lft.to/lastmile_qr_scan"}, "bike_id": "715a191552911309e48d37d59ff021b9", "type": "electric_scooter", "fusion_lat": 0.0, "is_disabled": 0, "is_reserved": 0}, {"lon": -77.02515616666666, "name": "62219a762eca37850a6a44c991671526", "lat": 38.920893666666665, "fusion_lon": 0.0, "rental_uris": {"ios": "https://dc.lft.to/lastmile_qr_scan", "android": "https://dc.lft.to/lastmile_qr_scan"}, "bike_id": "62219a762eca37850a6a44c991671526", "type": "electric_scooter", "fusion_lat": 0.0, "is_disabled": 0, "is_reserved": 0}, {"lon": -77.0083495, "name": "13cfa50bb9ddac8306b635f5411c6f8d", "lat": 38.89709966666667, "fusion_lon": 0.0, "rental_uris": {"ios": "https://dc.lft.to/lastmile_qr_scan", "android": "https://dc.lft.to/lastmile_qr_scan"}, "bike_id": "13cfa50bb9ddac8306b635f5411c6f8d", "type": "electric_scooter", "fusion_lat": 0.0, "is_disabled": 0, "is_reserved": 0}, {"lon": -77.031875, "name": "d3aabe05016304dced9ca0dbd5beddf3", "lat": 38.910456333333336, "fusion_lon": 0.0, "rental_uris": {"ios": "https://dc.lft.to/lastmile_qr_scan", "android": "https://dc.lft.to/lastmile_qr_scan"}, "bike_id": "d3aabe05016304dced9ca0dbd5beddf3", "type": "electric_scooter", "fusion_lat": 0.0, "is_disabled": 0, "is_reserved": 0}, {"lon": -77.02127533333334, "name": "e8374cdf3100bcf4b6d5279879013156", "lat": 38.92427266666667, "fusion_lon": 0.0, "rental_uris": {"ios": "https://dc.lft.to/lastmile_qr_scan", "android": "https://dc.lft.to/lastmile_qr_scan"}, "bike_id": "e8374cdf3100bcf4b6d5279879013156", "type": "electric_scooter", "fusion_lat": 0.0, "is_disabled": 0, "is_reserved": 0}, {"lon": -76.99654016666666, "name": "26423daf9b417602e463c5e71dc13914", "lat": 38.967777166666664, "fusion_lon": 0.0, "rental_uris": {"ios": "https://dc.lft.to/lastmile_qr_scan", "android": "https://dc.lft.to/lastmile_qr_scan"}, "bike_id": "26423daf9b417602e463c5e71dc13914", "type": "electric_bike", "fusion_lat": 0.0, "is_disabled": 0, "is_reserved": 0}, {"lon": -77.0179785, "name": "e0300bbbfa0c27ad63d8adae9b27aca5", "lat": 38.9941185, "fusion_lon": 0.0, "rental_uris": {"ios": "https://dc.lft.to/lastmile_qr_scan", "android": "https://dc.lft.to/lastmile_qr_scan"}, "bike_id": "e0300bbbfa0c27ad63d8adae9b27aca5", "type": "electric_bike", "fusion_lat": 0.0, "is_disabled": 0, "is_reserved": 0}, {"lon": -77.02162483333333, "name": "f04bcba7ef730dc6e1420a867321625d", "lat": 38.92614016666667, "fusion_lon": 0.0, "rental_uris": {"ios": "https://dc.lft.to/lastmile_qr_scan", "android": "https://dc.lft.to/lastmile_qr_scan"}, "bike_id": "f04bcba7ef730dc6e1420a867321625d", "type": "electric_scooter", "fusion_lat": 0.0, "is_disabled": 0, "is_reserved": 0}, {"lon": -77.01782333333334, "name": "f55dea7325975f955b128f5c4079d223", "lat": 38.9195985, "fusion_lon": 0.0, "rental_uris": {"ios": "https://dc.lft.to/lastmile_qr_scan", "android": "https://dc.lft.to/lastmile_qr_scan"}, "bike_id": "f55dea7325975f955b128f5c4079d223", "type": "electric_scooter", "fusion_lat": 0.0, "is_disabled": 0, "is_reserved": 0}, {"lon": -77.041796, "name": "b54ba1509b34fd31ee4893b2db8c2f80", "lat": 38.90539483333333, "fusion_lon": 0.0, "rental_uris": {"ios": "https://dc.lft.to/lastmile_qr_scan", "android": "https://dc.lft.to/lastmile_qr_scan"}, "bike_id": "b54ba1509b34fd31ee4893b2db8c2f80", "type": "electric_scooter", "fusion_lat": 0.0, "is_disabled": 0, "is_reserved": 0}, {"lon": -76.983425, "name": "aae35e09209d47260aef9f30e4d31c93", "lat": 38.887142, "fusion_lon": 0.0, "rental_uris": {"ios": "https://dc.lft.to/lastmile_qr_scan", "android": "https://dc.lft.to/lastmile_qr_scan"}, "bike_id": "aae35e09209d47260aef9f30e4d31c93", "type": "electric_scooter", "fusion_lat": 0.0, "is_disabled": 0, "is_reserved": 0}, {"lon": -77.04192633333334, "name": "5aaefca7ffcdb34421455620a9d3a58d", "lat": 38.92047633333333, "fusion_lon": 0.0, "rental_uris": {"ios": "https://dc.lft.to/lastmile_qr_scan", "android": "https://dc.lft.to/lastmile_qr_scan"}, "bike_id": "5aaefca7ffcdb34421455620a9d3a58d", "type": "electric_scooter", "fusion_lat": 0.0, "is_disabled": 0, "is_reserved": 0}, {"lon": -77.04817816666667, "name": "b124f8b8320b89073db93a29df023fe2", "lat": 38.8999165, "fusion_lon": 0.0, "rental_uris": {"ios": "https://dc.lft.to/lastmile_qr_scan", "android": "https://dc.lft.to/lastmile_qr_scan"}, "bike_id": "b124f8b8320b89073db93a29df023fe2", "type": "electric_scooter", "fusion_lat": 0.0, "is_disabled": 0, "is_reserved": 0}, {"lon": -77.02245983333333, "name": "aa29ab762c14688032e247a2b3e2ce5e", "lat": 38.924689666666666, "fusion_lon": 0.0, "rental_uris": {"ios": "https://dc.lft.to/lastmile_qr_scan", "android": "https://dc.lft.to/lastmile_qr_scan"}, "bike_id": "aa29ab762c14688032e247a2b3e2ce5e", "type": "electric_scooter", "fusion_lat": 0.0, "is_disabled": 0, "is_reserved": 0}, {"lon": -77.02835833333333, "name": "b3b0b2691c830b964f5b100246f7ebd5", "lat": 38.924807666666666, "fusion_lon": 0.0, "rental_uris": {"ios": "https://dc.lft.to/lastmile_qr_scan", "android": "https://dc.lft.to/lastmile_qr_scan"}, "bike_id": "b3b0b2691c830b964f5b100246f7ebd5", "type": "electric_scooter", "fusion_lat": 0.0, "is_disabled": 0, "is_reserved": 0}, {"lon": -77.0624705, "name": "4b59d046645c219d80f76965db522c09", "lat": 38.91319266666667, "fusion_lon": 0.0, "rental_uris": {"ios": "https://dc.lft.to/lastmile_qr_scan", "android": "https://dc.lft.to/lastmile_qr_scan"}, "bike_id": "4b59d046645c219d80f76965db522c09", "type": "electric_scooter", "fusion_lat": 0.0, "is_disabled": 0, "is_reserved": 0}, {"lon": -77.03182983333333, "name": "86874376f5fc5d22548bb9a626cf84f9", "lat": 38.90136666666667, "fusion_lon": 0.0, "rental_uris": {"ios": "https://dc.lft.to/lastmile_qr_scan", "android": "https://dc.lft.to/lastmile_qr_scan"}, "bike_id": "86874376f5fc5d22548bb9a626cf84f9", "type": "electric_scooter", "fusion_lat": 0.0, "is_disabled": 0, "is_reserved": 0}, {"lon": -77.0450565, "name": "fc6fa4c91357a3e2c6ea78d942885fac", "lat": 38.910265, "fusion_lon": 0.0, "rental_uris": {"ios": "https://dc.lft.to/lastmile_qr_scan", "android": "https://dc.lft.to/lastmile_qr_scan"}, "bike_id": "fc6fa4c91357a3e2c6ea78d942885fac", "type": "electric_scooter", "fusion_lat": 0.0, "is_disabled": 0, "is_reserved": 0}, {"lon": -77.04191166666666, "name": "3094ca9782f16620d0ada8a2b9b0e2e7", "lat": 38.920077166666665, "fusion_lon": 0.0, "rental_uris": {"ios": "https://dc.lft.to/lastmile_qr_scan", "android": "https://dc.lft.to/lastmile_qr_scan"}, "bike_id": "3094ca9782f16620d0ada8a2b9b0e2e7", "type": "electric_scooter", "fusion_lat": 0.0, "is_disabled": 0, "is_reserved": 0}, {"lon": -77.03290566666666, "name": "ffc7b09e3fc314be6829a015aef3a572", "lat": 38.8991465, "fusion_lon": 0.0, "rental_uris": {"ios": "https://dc.lft.to/lastmile_qr_scan", "android": "https://dc.lft.to/lastmile_qr_scan"}, "bike_id": "ffc7b09e3fc314be6829a015aef3a572", "type": "electric_scooter", "fusion_lat": 0.0, "is_disabled": 0, "is_reserved": 0}, {"lon": -77.04499316666667, "name": "755627904b08f7749945493f04de79de", "lat": 38.91365733333333, "fusion_lon": 0.0, "rental_uris": {"ios": "https://dc.lft.to/lastmile_qr_scan", "android": "https://dc.lft.to/lastmile_qr_scan"}, "bike_id": "755627904b08f7749945493f04de79de", "type": "electric_scooter", "fusion_lat": 0.0, "is_disabled": 0, "is_reserved": 0}, {"lon": -77.02510083333334, "name": "4c7b9c9f5e67193908fca09e003d78ad", "lat": 38.89224983333333, "fusion_lon": 0.0, "rental_uris": {"ios": "https://dc.lft.to/lastmile_qr_scan", "android": "https://dc.lft.to/lastmile_qr_scan"}, "bike_id": "4c7b9c9f5e67193908fca09e003d78ad", "type": "electric_scooter", "fusion_lat": 0.0, "is_disabled": 0, "is_reserved": 0}, {"lon": -77.076542, "name": "e4bdecb0fcfa849bf17cf010f8b25e57", "lat": 38.809768166666665, "fusion_lon": 0.0, "rental_uris": {"ios": "https://dc.lft.to/lastmile_qr_scan", "android": "https://dc.lft.to/lastmile_qr_scan"}, "bike_id": "e4bdecb0fcfa849bf17cf010f8b25e57", "type": "electric_bike", "fusion_lat": 0.0, "is_disabled": 0, "is_reserved": 0}, {"lon": -77.0464115, "name": "70a60d23ae0cec80f80d2f8b05360307", "lat": 38.89222983333333, "fusion_lon": 0.0, "rental_uris": {"ios": "https://dc.lft.to/lastmile_qr_scan", "android": "https://dc.lft.to/lastmile_qr_scan"}, "bike_id": "70a60d23ae0cec80f80d2f8b05360307", "type": "electric_scooter", "fusion_lat": 0.0, "is_disabled": 0, "is_reserved": 0}, {"lon": -77.02180116666666, "name": "deb372fe664882f0d97c6f936f9d5e4f", "lat": 38.91480716666667, "fusion_lon": 0.0, "rental_uris": {"ios": "https://dc.lft.to/lastmile_qr_scan", "android": "https://dc.lft.to/lastmile_qr_scan"}, "bike_id": "deb372fe664882f0d97c6f936f9d5e4f", "type": "electric_scooter", "fusion_lat": 0.0, "is_disabled": 0, "is_reserved": 0}, {"lon": -76.93208533333333, "name": "58341787d550e9fb77fd5ef2b51c075f", "lat": 38.8966755, "fusion_lon": 0.0, "rental_uris": {"ios": "https://dc.lft.to/lastmile_qr_scan", "android": "https://dc.lft.to/lastmile_qr_scan"}, "bike_id": "58341787d550e9fb77fd5ef2b51c075f", "type": "electric_scooter", "fusion_lat": 0.0, "is_disabled": 0, "is_reserved": 0}, {"lon": -77.02201166666667, "name": "e911f52dc8e9fd00b3d837d8b93bf71b", "lat": 38.91491116666667, "fusion_lon": 0.0, "rental_uris": {"ios": "https://dc.lft.to/lastmile_qr_scan", "android": "https://dc.lft.to/lastmile_qr_scan"}, "bike_id": "e911f52dc8e9fd00b3d837d8b93bf71b", "type": "electric_scooter", "fusion_lat": 0.0, "is_disabled": 0, "is_reserved": 0}, {"lon": -77.09023216666667, "name": "007618c5420866d766151ac48bfc57e1", "lat": 38.92652, "fusion_lon": 0.0, "rental_uris": {"ios": "https://dc.lft.to/lastmile_qr_scan", "android": "https://dc.lft.to/lastmile_qr_scan"}, "bike_id": "007618c5420866d766151ac48bfc57e1", "type": "electric_bike", "fusion_lat": 0.0, "is_disabled": 0, "is_reserved": 0}, {"lon": -76.92724366666667, "name": "2c4c7ec483fe9322c332ffd12437a1e5", "lat": 38.880353166666666, "fusion_lon": 0.0, "rental_uris": {"ios": "https://dc.lft.to/lastmile_qr_scan", "android": "https://dc.lft.to/lastmile_qr_scan"}, "bike_id": "2c4c7ec483fe9322c332ffd12437a1e5", "type": "electric_scooter", "fusion_lat": 0.0, "is_disabled": 0, "is_reserved": 0}, {"lon": -77.03016066666666, "name": "2aa79d82aa1f7df14a6b79fa0923088d", "lat": 38.883842, "fusion_lon": 0.0, "rental_uris": {"ios": "https://dc.lft.to/lastmile_qr_scan", "android": "https://dc.lft.to/lastmile_qr_scan"}, "bike_id": "2aa79d82aa1f7df14a6b79fa0923088d", "type": "electric_bike", "fusion_lat": 0.0, "is_disabled": 0, "is_reserved": 0}, {"lon": -77.04665433333334, "name": "c1ab6f35cac26e2a0ee3ef561fe4415a", "lat": 38.91019, "fusion_lon": 0.0, "rental_uris": {"ios": "https://dc.lft.to/lastmile_qr_scan", "android": "https://dc.lft.to/lastmile_qr_scan"}, "bike_id": "c1ab6f35cac26e2a0ee3ef561fe4415a", "type": "electric_scooter", "fusion_lat": 0.0, "is_disabled": 0, "is_reserved": 0}, {"lon": -77.03467416666666, "name": "3537575790e777d5a77f98374e3a8605", "lat": 38.903900166666666, "fusion_lon": 0.0, "rental_uris": {"ios": "https://dc.lft.to/lastmile_qr_scan", "android": "https://dc.lft.to/lastmile_qr_scan"}, "bike_id": "3537575790e777d5a77f98374e3a8605", "type": "electric_scooter", "fusion_lat": 0.0, "is_disabled": 0, "is_reserved": 0}, {"lon": -77.03269033333333, "name": "84dbb981ffcf776c399158b0b3bb4693", "lat": 38.927571666666665, "fusion_lon": 0.0, "rental_uris": {"ios": "https://dc.lft.to/lastmile_qr_scan", "android": "https://dc.lft.to/lastmile_qr_scan"}, "bike_id": "84dbb981ffcf776c399158b0b3bb4693", "type": "electric_scooter", "fusion_lat": 0.0, "is_disabled": 0, "is_reserved": 0}, {"lon": -77.05132416666666, "name": "c40b5df6019913f2ff811a6bc42ba84d", "lat": 38.923624333333336, "fusion_lon": 0.0, "rental_uris": {"ios": "https://dc.lft.to/lastmile_qr_scan", "android": "https://dc.lft.to/lastmile_qr_scan"}, "bike_id": "c40b5df6019913f2ff811a6bc42ba84d", "type": "electric_scooter", "fusion_lat": 0.0, "is_disabled": 0, "is_reserved": 0}, {"lon": -77.01946, "name": "c4a1faffe0dd1e2784c816e5c3f60662", "lat": 38.9242005, "fusion_lon": 0.0, "rental_uris": {"ios": "https://dc.lft.to/lastmile_qr_scan", "android": "https://dc.lft.to/lastmile_qr_scan"}, "bike_id": "c4a1faffe0dd1e2784c816e5c3f60662", "type": "electric_scooter", "fusion_lat": 0.0, "is_disabled": 0, "is_reserved": 0}, {"lon": -77.05142433333333, "name": "e1123d23b2c68f0c9351b3adbc71700b", "lat": 38.903164833333335, "fusion_lon": 0.0, "rental_uris": {"ios": "https://dc.lft.to/lastmile_qr_scan", "android": "https://dc.lft.to/lastmile_qr_scan"}, "bike_id": "e1123d23b2c68f0c9351b3adbc71700b", "type": "electric_bike", "fusion_lat": 0.0, "is_disabled": 0, "is_reserved": 0}, {"lon": -77.01644066666667, "name": "e01a95afa472640c70279312a5569df7", "lat": 38.92896666666667, "fusion_lon": 0.0, "rental_uris": {"ios": "https://dc.lft.to/lastmile_qr_scan", "android": "https://dc.lft.to/lastmile_qr_scan"}, "bike_id": "e01a95afa472640c70279312a5569df7", "type": "electric_scooter", "fusion_lat": 0.0, "is_disabled": 0, "is_reserved": 0}, {"lon": -77.024459, "name": "386990c6cc60b34e5339c193252e55fa", "lat": 38.923775, "fusion_lon": 0.0, "rental_uris": {"ios": "https://dc.lft.to/lastmile_qr_scan", "android": "https://dc.lft.to/lastmile_qr_scan"}, "bike_id": "386990c6cc60b34e5339c193252e55fa", "type": "electric_scooter", "fusion_lat": 0.0, "is_disabled": 0, "is_reserved": 0}, {"lon": -77.02210166666667, "name": "a78f6ea3892cbd0a3250334fdb38d867", "lat": 38.92226616666667, "fusion_lon": 0.0, "rental_uris": {"ios": "https://dc.lft.to/lastmile_qr_scan", "android": "https://dc.lft.to/lastmile_qr_scan"}, "bike_id": "a78f6ea3892cbd0a3250334fdb38d867", "type": "electric_scooter", "fusion_lat": 0.0, "is_disabled": 0, "is_reserved": 0}, {"lon": -76.9836385, "name": "338e7713db5302428c15339a791823b1", "lat": 38.97153216666667, "fusion_lon": 0.0, "rental_uris": {"ios": "https://dc.lft.to/lastmile_qr_scan", "android": "https://dc.lft.to/lastmile_qr_scan"}, "bike_id": "338e7713db5302428c15339a791823b1", "type": "electric_bike", "fusion_lat": 0.0, "is_disabled": 0, "is_reserved": 0}, {"lon": -77.04397783333333, "name": "4622c59e7c537d1d64eca1f4f07a534b", "lat": 38.90926233333333, "fusion_lon": 0.0, "rental_uris": {"ios": "https://dc.lft.to/lastmile_qr_scan", "android": "https://dc.lft.to/lastmile_qr_scan"}, "bike_id": "4622c59e7c537d1d64eca1f4f07a534b", "type": "electric_scooter", "fusion_lat": 0.0, "is_disabled": 0, "is_reserved": 0}, {"lon": -77.0272915, "name": "7b21555c590e2da191c2bdceb6cf2c67", "lat": 38.951324, "fusion_lon": 0.0, "rental_uris": {"ios": "https://dc.lft.to/lastmile_qr_scan", "android": "https://dc.lft.to/lastmile_qr_scan"}, "bike_id": "7b21555c590e2da191c2bdceb6cf2c67", "type": "electric_scooter", "fusion_lat": 0.0, "is_disabled": 0, "is_reserved": 0}, {"lon": -77.01567466666667, "name": "f5dc6d8a7aa0e0edc75f9efae45f3d27", "lat": 38.92798533333333, "fusion_lon": 0.0, "rental_uris": {"ios": "https://dc.lft.to/lastmile_qr_scan", "android": "https://dc.lft.to/lastmile_qr_scan"}, "bike_id": "f5dc6d8a7aa0e0edc75f9efae45f3d27", "type": "electric_scooter", "fusion_lat": 0.0, "is_disabled": 0, "is_reserved": 0}, {"lon": -76.991086, "name": "060da1c92cb869600fba4ed7e4936246", "lat": 38.80481366666667, "fusion_lon": 0.0, "rental_uris": {"ios": "https://dc.lft.to/lastmile_qr_scan", "android": "https://dc.lft.to/lastmile_qr_scan"}, "bike_id": "060da1c92cb869600fba4ed7e4936246", "type": "electric_bike", "fusion_lat": 0.0, "is_disabled": 0, "is_reserved": 0}, {"lon": -77.022054, "name": "960ab630e7b53de64c5f9ca1673e7b1f", "lat": 38.9247005, "fusion_lon": 0.0, "rental_uris": {"ios": "https://dc.lft.to/lastmile_qr_scan", "android": "https://dc.lft.to/lastmile_qr_scan"}, "bike_id": "960ab630e7b53de64c5f9ca1673e7b1f", "type": "electric_scooter", "fusion_lat": 0.0, "is_disabled": 0, "is_reserved": 0}, {"lon": -77.05439283333334, "name": "8a368b9f0373c1fd1f9f2119d544cdcd", "lat": 38.784622, "fusion_lon": 0.0, "rental_uris": {"ios": "https://dc.lft.to/lastmile_qr_scan", "android": "https://dc.lft.to/lastmile_qr_scan"}, "bike_id": "8a368b9f0373c1fd1f9f2119d544cdcd", "type": "electric_bike", "fusion_lat": 0.0, "is_disabled": 0, "is_reserved": 0}, {"lon": -77.01354783333333, "name": "4b18cf63d50671fa01df5484f29b6101", "lat": 38.96224933333333, "fusion_lon": 0.0, "rental_uris": {"ios": "https://dc.lft.to/lastmile_qr_scan", "android": "https://dc.lft.to/lastmile_qr_scan"}, "bike_id": "4b18cf63d50671fa01df5484f29b6101", "type": "electric_scooter", "fusion_lat": 0.0, "is_disabled": 0, "is_reserved": 0}, {"lon": -77.04664333333334, "name": "500ca254bd9d74d3e364c0da7023916c", "lat": 38.904311, "fusion_lon": 0.0, "rental_uris": {"ios": "https://dc.lft.to/lastmile_qr_scan", "android": "https://dc.lft.to/lastmile_qr_scan"}, "bike_id": "500ca254bd9d74d3e364c0da7023916c", "type": "electric_scooter", "fusion_lat": 0.0, "is_disabled": 0, "is_reserved": 0}, {"lon": -77.007012, "name": "7b19e1451ab02ffacd50876788942833", "lat": 38.906131, "fusion_lon": 0.0, "rental_uris": {"ios": "https://dc.lft.to/lastmile_qr_scan", "android": "https://dc.lft.to/lastmile_qr_scan"}, "bike_id": "7b19e1451ab02ffacd50876788942833", "type": "electric_scooter", "fusion_lat": 0.0, "is_disabled": 0, "is_reserved": 0}, {"lon": -77.03638433333333, "name": "91bf88ca9d01ee81381df122b1afe5b2", "lat": 38.903773, "fusion_lon": 0.0, "rental_uris": {"ios": "https://dc.lft.to/lastmile_qr_scan", "android": "https://dc.lft.to/lastmile_qr_scan"}, "bike_id": "91bf88ca9d01ee81381df122b1afe5b2", "type": "electric_scooter", "fusion_lat": 0.0, "is_disabled": 0, "is_reserved": 0}, {"lon": -77.02305133333333, "name": "c26fa146025fca34327572b1059ec647", "lat": 38.90963466666667, "fusion_lon": 0.0, "rental_uris": {"ios": "https://dc.lft.to/lastmile_qr_scan", "android": "https://dc.lft.to/lastmile_qr_scan"}, "bike_id": "c26fa146025fca34327572b1059ec647", "type": "electric_scooter", "fusion_lat": 0.0, "is_disabled": 0, "is_reserved": 0}, {"lon": -76.98725983333334, "name": "b30159216a3d24552ce944dcbc5ff130", "lat": 38.86340933333334, "fusion_lon": 0.0, "rental_uris": {"ios": "https://dc.lft.to/lastmile_qr_scan", "android": "https://dc.lft.to/lastmile_qr_scan"}, "bike_id": "b30159216a3d24552ce944dcbc5ff130", "type": "electric_bike", "fusion_lat": 0.0, "is_disabled": 0, "is_reserved": 0}, {"lon": -76.9809925, "name": "6c173c10eb6fc5347deb5aff66fd8ac3", "lat": 38.95884733333333, "fusion_lon": 0.0, "rental_uris": {"ios": "https://dc.lft.to/lastmile_qr_scan", "android": "https://dc.lft.to/lastmile_qr_scan"}, "bike_id": "6c173c10eb6fc5347deb5aff66fd8ac3", "type": "electric_bike", "fusion_lat": 0.0, "is_disabled": 0, "is_reserved": 0}, {"lon": -77.02946083333333, "name": "d9f447b3ead984f96431299c0d65add4", "lat": 38.920579333333336, "fusion_lon": 0.0, "rental_uris": {"ios": "https://dc.lft.to/lastmile_qr_scan", "android": "https://dc.lft.to/lastmile_qr_scan"}, "bike_id": "d9f447b3ead984f96431299c0d65add4", "type": "electric_scooter", "fusion_lat": 0.0, "is_disabled": 0, "is_reserved": 0}, {"lon": -76.99852116666666, "name": "d86f849bbccc3e93b60372a8475ac9c8", "lat": 38.891876, "fusion_lon": 0.0, "rental_uris": {"ios": "https://dc.lft.to/lastmile_qr_scan", "android": "https://dc.lft.to/lastmile_qr_scan"}, "bike_id": "d86f849bbccc3e93b60372a8475ac9c8", "type": "electric_scooter", "fusion_lat": 0.0, "is_disabled": 0, "is_reserved": 0}, {"lon": -77.04809783333333, "name": "333d18602e7c1a34273fe5a3f184e158", "lat": 38.8959505, "fusion_lon": 0.0, "rental_uris": {"ios": "https://dc.lft.to/lastmile_qr_scan", "android": "https://dc.lft.to/lastmile_qr_scan"}, "bike_id": "333d18602e7c1a34273fe5a3f184e158", "type": "electric_scooter", "fusion_lat": 0.0, "is_disabled": 0, "is_reserved": 0}, {"lon": -77.04356916666667, "name": "5d7352df67d363e30d3b90c81148e5d2", "lat": 38.89724566666666, "fusion_lon": 0.0, "rental_uris": {"ios": "https://dc.lft.to/lastmile_qr_scan", "android": "https://dc.lft.to/lastmile_qr_scan"}, "bike_id": "5d7352df67d363e30d3b90c81148e5d2", "type": "electric_scooter", "fusion_lat": 0.0, "is_disabled": 0, "is_reserved": 0}, {"lon": -77.022182, "name": "1046132432c7abc0d56f864c1d1edd81", "lat": 38.892225333333336, "fusion_lon": 0.0, "rental_uris": {"ios": "https://dc.lft.to/lastmile_qr_scan", "android": "https://dc.lft.to/lastmile_qr_scan"}, "bike_id": "1046132432c7abc0d56f864c1d1edd81", "type": "electric_scooter", "fusion_lat": 0.0, "is_disabled": 0, "is_reserved": 0}, {"lon": -77.10400166666666, "name": "040ff76b163b61cf1b06a2913b9e2779", "lat": 39.005329, "fusion_lon": 0.0, "rental_uris": {"ios": "https://dc.lft.to/lastmile_qr_scan", "android": "https://dc.lft.to/lastmile_qr_scan"}, "bike_id": "040ff76b163b61cf1b06a2913b9e2779", "type": "electric_bike", "fusion_lat": 0.0, "is_disabled": 0, "is_reserved": 0}, {"lon": -77.03851383333334, "name": "e44fe69da7ac6789902ec3125006e4e5", "lat": 38.90279733333333, "fusion_lon": 0.0, "rental_uris": {"ios": "https://dc.lft.to/lastmile_qr_scan", "android": "https://dc.lft.to/lastmile_qr_scan"}, "bike_id": "e44fe69da7ac6789902ec3125006e4e5", "type": "electric_scooter", "fusion_lat": 0.0, "is_disabled": 0, "is_reserved": 0}, {"lon": -77.024525, "name": "bade93a757c10f0a82b57353a1583ee7", "lat": 38.8972405, "fusion_lon": 0.0, "rental_uris": {"ios": "https://dc.lft.to/lastmile_qr_scan", "android": "https://dc.lft.to/lastmile_qr_scan"}, "bike_id": "bade93a757c10f0a82b57353a1583ee7", "type": "electric_scooter", "fusion_lat": 0.0, "is_disabled": 0, "is_reserved": 0}, {"lon": -77.022246, "name": "38cd9d9cf8e20d3a9188a86a1fa8ae70", "lat": 38.887477833333335, "fusion_lon": 0.0, "rental_uris": {"ios": "https://dc.lft.to/lastmile_qr_scan", "android": "https://dc.lft.to/lastmile_qr_scan"}, "bike_id": "38cd9d9cf8e20d3a9188a86a1fa8ae70", "type": "electric_scooter", "fusion_lat": 0.0, "is_disabled": 0, "is_reserved": 0}, {"lon": -77.0077875, "name": "a43da928047bcf605611449d3f5b68c4", "lat": 38.87844116666667, "fusion_lon": 0.0, "rental_uris": {"ios": "https://dc.lft.to/lastmile_qr_scan", "android": "https://dc.lft.to/lastmile_qr_scan"}, "bike_id": "a43da928047bcf605611449d3f5b68c4", "type": "electric_bike", "fusion_lat": 0.0, "is_disabled": 0, "is_reserved": 0}, {"lon": -77.02100216666666, "name": "077a493227500fc1c5d2cae4d7ca19a7", "lat": 38.92353, "fusion_lon": 0.0, "rental_uris": {"ios": "https://dc.lft.to/lastmile_qr_scan", "android": "https://dc.lft.to/lastmile_qr_scan"}, "bike_id": "077a493227500fc1c5d2cae4d7ca19a7", "type": "electric_scooter", "fusion_lat": 0.0, "is_disabled": 0, "is_reserved": 0}, {"lon": -77.07531783333333, "name": "188f3d933e813c20aae45d2e95e81bdc", "lat": 38.90883566666667, "fusion_lon": 0.0, "rental_uris": {"ios": "https://dc.lft.to/lastmile_qr_scan", "android": "https://dc.lft.to/lastmile_qr_scan"}, "bike_id": "188f3d933e813c20aae45d2e95e81bdc", "type": "electric_scooter", "fusion_lat": 0.0, "is_disabled": 0, "is_reserved": 0}, {"lon": -77.080775, "name": "8fa4db2e8760b2c15a5a5ed64a83afe4", "lat": 38.90856683333333, "fusion_lon": 0.0, "rental_uris": {"ios": "https://dc.lft.to/lastmile_qr_scan", "android": "https://dc.lft.to/lastmile_qr_scan"}, "bike_id": "8fa4db2e8760b2c15a5a5ed64a83afe4", "type": "electric_bike", "fusion_lat": 0.0, "is_disabled": 0, "is_reserved": 0}, {"lon": -77.04677016666666, "name": "5b885a4e3b7a32af8ec7d8d34d3e7f1a", "lat": 38.904061, "fusion_lon": 0.0, "rental_uris": {"ios": "https://dc.lft.to/lastmile_qr_scan", "android": "https://dc.lft.to/lastmile_qr_scan"}, "bike_id": "5b885a4e3b7a32af8ec7d8d34d3e7f1a", "type": "electric_scooter", "fusion_lat": 0.0, "is_disabled": 0, "is_reserved": 0}, {"lon": -77.03291083333333, "name": "28867c86cd6891d9bce2c17ab84111c8", "lat": 38.90421083333333, "fusion_lon": 0.0, "rental_uris": {"ios": "https://dc.lft.to/lastmile_qr_scan", "android": "https://dc.lft.to/lastmile_qr_scan"}, "bike_id": "28867c86cd6891d9bce2c17ab84111c8", "type": "electric_scooter", "fusion_lat": 0.0, "is_disabled": 0, "is_reserved": 0}, {"lon": -76.94519716666667, "name": "1995ae4780524853d2e0490c19b959bf", "lat": 38.862830833333334, "fusion_lon": 0.0, "rental_uris": {"ios": "https://dc.lft.to/lastmile_qr_scan", "android": "https://dc.lft.to/lastmile_qr_scan"}, "bike_id": "1995ae4780524853d2e0490c19b959bf", "type": "electric_bike", "fusion_lat": 0.0, "is_disabled": 0, "is_reserved": 0}, {"lon": -77.07299716666667, "name": "fa7cfc7ebfe56b2f70b39a5d62b52660", "lat": 38.935452833333336, "fusion_lon": 0.0, "rental_uris": {"ios": "https://dc.lft.to/lastmile_qr_scan", "android": "https://dc.lft.to/lastmile_qr_scan"}, "bike_id": "fa7cfc7ebfe56b2f70b39a5d62b52660", "type": "electric_scooter", "fusion_lat": 0.0, "is_disabled": 0, "is_reserved": 0}, {"lon": -77.05339333333333, "name": "5354b141e83ed4a4c662c9f021e0f682", "lat": 38.855737500000004, "fusion_lon": 0.0, "rental_uris": {"ios": "https://dc.lft.to/lastmile_qr_scan", "android": "https://dc.lft.to/lastmile_qr_scan"}, "bike_id": "5354b141e83ed4a4c662c9f021e0f682", "type": "electric_bike", "fusion_lat": 0.0, "is_disabled": 0, "is_reserved": 0}, {"lon": -77.04625016666667, "name": "7aa4f0b0e7fbd1f7affc329f00991fb5", "lat": 38.921939333333334, "fusion_lon": 0.0, "rental_uris": {"ios": "https://dc.lft.to/lastmile_qr_scan", "android": "https://dc.lft.to/lastmile_qr_scan"}, "bike_id": "7aa4f0b0e7fbd1f7affc329f00991fb5", "type": "electric_scooter", "fusion_lat": 0.0, "is_disabled": 0, "is_reserved": 0}, {"lon": -76.97936633333333, "name": "a383b07bbe9015030db85a9d53522c6f", "lat": 38.90654633333333, "fusion_lon": 0.0, "rental_uris": {"ios": "https://dc.lft.to/lastmile_qr_scan", "android": "https://dc.lft.to/lastmile_qr_scan"}, "bike_id": "a383b07bbe9015030db85a9d53522c6f", "type": "electric_scooter", "fusion_lat": 0.0, "is_disabled": 0, "is_reserved": 0}, {"lon": -77.00068633333333, "name": "81262f5b465a4a57c24ab3f5257c0fd0", "lat": 38.8765535, "fusion_lon": 0.0, "rental_uris": {"ios": "https://dc.lft.to/lastmile_qr_scan", "android": "https://dc.lft.to/lastmile_qr_scan"}, "bike_id": "81262f5b465a4a57c24ab3f5257c0fd0", "type": "electric_scooter", "fusion_lat": 0.0, "is_disabled": 0, "is_reserved": 0}, {"lon": -77.0265405, "name": "bda82edd6846efbfa6391677808d13af", "lat": 38.9754525, "fusion_lon": 0.0, "rental_uris": {"ios": "https://dc.lft.to/lastmile_qr_scan", "android": "https://dc.lft.to/lastmile_qr_scan"}, "bike_id": "bda82edd6846efbfa6391677808d13af", "type": "electric_scooter", "fusion_lat": 0.0, "is_disabled": 0, "is_reserved": 0}, {"lon": -77.00765616666666, "name": "bbb16b4f68ece550ac3e72fc42bb3652", "lat": 38.9267895, "fusion_lon": 0.0, "rental_uris": {"ios": "https://dc.lft.to/lastmile_qr_scan", "android": "https://dc.lft.to/lastmile_qr_scan"}, "bike_id": "bbb16b4f68ece550ac3e72fc42bb3652", "type": "electric_scooter", "fusion_lat": 0.0, "is_disabled": 0, "is_reserved": 0}, {"lon": -77.04371366666666, "name": "cba48f6263e9d2078f96e3cb1f6b790b", "lat": 38.911144, "fusion_lon": 0.0, "rental_uris": {"ios": "https://dc.lft.to/lastmile_qr_scan", "android": "https://dc.lft.to/lastmile_qr_scan"}, "bike_id": "cba48f6263e9d2078f96e3cb1f6b790b", "type": "electric_scooter", "fusion_lat": 0.0, "is_disabled": 0, "is_reserved": 0}, {"lon": -77.06241033333333, "name": "6a6841529386f2860468c783f49e2d6b", "lat": 38.90213133333334, "fusion_lon": 0.0, "rental_uris": {"ios": "https://dc.lft.to/lastmile_qr_scan", "android": "https://dc.lft.to/lastmile_qr_scan"}, "bike_id": "6a6841529386f2860468c783f49e2d6b", "type": "electric_scooter", "fusion_lat": 0.0, "is_disabled": 0, "is_reserved": 0}, {"lon": -76.93973516666667, "name": "576d5f5ebe1e524f27e7ac6b6f08e7fa", "lat": 38.893152666666666, "fusion_lon": 0.0, "rental_uris": {"ios": "https://dc.lft.to/lastmile_qr_scan", "android": "https://dc.lft.to/lastmile_qr_scan"}, "bike_id": "576d5f5ebe1e524f27e7ac6b6f08e7fa", "type": "electric_scooter", "fusion_lat": 0.0, "is_disabled": 0, "is_reserved": 0}, {"lon": -77.06280466666666, "name": "5393324b77b4b6a5a5bd67b62d689970", "lat": 38.90620666666667, "fusion_lon": 0.0, "rental_uris": {"ios": "https://dc.lft.to/lastmile_qr_scan", "android": "https://dc.lft.to/lastmile_qr_scan"}, "bike_id": "5393324b77b4b6a5a5bd67b62d689970", "type": "electric_scooter", "fusion_lat": 0.0, "is_disabled": 0, "is_reserved": 0}, {"lon": -76.94890083333334, "name": "8032068d4283bb94899b5fcdb4e63adb", "lat": 38.894909166666665, "fusion_lon": 0.0, "rental_uris": {"ios": "https://dc.lft.to/lastmile_qr_scan", "android": "https://dc.lft.to/lastmile_qr_scan"}, "bike_id": "8032068d4283bb94899b5fcdb4e63adb", "type": "electric_scooter", "fusion_lat": 0.0, "is_disabled": 0, "is_reserved": 0}, {"lon": -77.02718966666667, "name": "6d590741d924fe6316fe105db587f7e7", "lat": 38.896558, "fusion_lon": 0.0, "rental_uris": {"ios": "https://dc.lft.to/lastmile_qr_scan", "android": "https://dc.lft.to/lastmile_qr_scan"}, "bike_id": "6d590741d924fe6316fe105db587f7e7", "type": "electric_scooter", "fusion_lat": 0.0, "is_disabled": 0, "is_reserved": 0}, {"lon": -77.00309216666666, "name": "8829f1747ea43750e6554dc8a36c44f9", "lat": 38.89225733333333, "fusion_lon": 0.0, "rental_uris": {"ios": "https://dc.lft.to/lastmile_qr_scan", "android": "https://dc.lft.to/lastmile_qr_scan"}, "bike_id": "8829f1747ea43750e6554dc8a36c44f9", "type": "electric_scooter", "fusion_lat": 0.0, "is_disabled": 0, "is_reserved": 0}, {"lon": -77.03543266666667, "name": "9a01dc228841d14492e0f855fafa4748", "lat": 38.9047905, "fusion_lon": 0.0, "rental_uris": {"ios": "https://dc.lft.to/lastmile_qr_scan", "android": "https://dc.lft.to/lastmile_qr_scan"}, "bike_id": "9a01dc228841d14492e0f855fafa4748", "type": "electric_scooter", "fusion_lat": 0.0, "is_disabled": 0, "is_reserved": 0}, {"lon": -77.0282745, "name": "451459c325efc2785930aac9071b1898", "lat": 38.88714266666667, "fusion_lon": 0.0, "rental_uris": {"ios": "https://dc.lft.to/lastmile_qr_scan", "android": "https://dc.lft.to/lastmile_qr_scan"}, "bike_id": "451459c325efc2785930aac9071b1898", "type": "electric_scooter", "fusion_lat": 0.0, "is_disabled": 0, "is_reserved": 0}, {"lon": -77.02248616666667, "name": "265bc3818347ce8ff261d055b2027b49", "lat": 38.924207333333335, "fusion_lon": 0.0, "rental_uris": {"ios": "https://dc.lft.to/lastmile_qr_scan", "android": "https://dc.lft.to/lastmile_qr_scan"}, "bike_id": "265bc3818347ce8ff261d055b2027b49", "type": "electric_scooter", "fusion_lat": 0.0, "is_disabled": 0, "is_reserved": 0}, {"lon": -77.02943633333334, "name": "59642988762c353d19a293f28a439fd2", "lat": 38.90233833333333, "fusion_lon": 0.0, "rental_uris": {"ios": "https://dc.lft.to/lastmile_qr_scan", "android": "https://dc.lft.to/lastmile_qr_scan"}, "bike_id": "59642988762c353d19a293f28a439fd2", "type": "electric_scooter", "fusion_lat": 0.0, "is_disabled": 0, "is_reserved": 0}, {"lon": -77.01309516666667, "name": "54c8b5425f7d8098951b4e0b2fd1a556", "lat": 38.89705133333333, "fusion_lon": 0.0, "rental_uris": {"ios": "https://dc.lft.to/lastmile_qr_scan", "android": "https://dc.lft.to/lastmile_qr_scan"}, "bike_id": "54c8b5425f7d8098951b4e0b2fd1a556", "type": "electric_scooter", "fusion_lat": 0.0, "is_disabled": 0, "is_reserved": 0}, {"lon": -76.94158066666667, "name": "a12095ac854a63070e3a1fd8c5f21b88", "lat": 38.90170283333333, "fusion_lon": 0.0, "rental_uris": {"ios": "https://dc.lft.to/lastmile_qr_scan", "android": "https://dc.lft.to/lastmile_qr_scan"}, "bike_id": "a12095ac854a63070e3a1fd8c5f21b88", "type": "electric_scooter", "fusion_lat": 0.0, "is_disabled": 0, "is_reserved": 0}, {"lon": -77.053729, "name": "5ef835cd4fb36ecc80728638dfd87d54", "lat": 38.8475565, "fusion_lon": 0.0, "rental_uris": {"ios": "https://dc.lft.to/lastmile_qr_scan", "android": "https://dc.lft.to/lastmile_qr_scan"}, "bike_id": "5ef835cd4fb36ecc80728638dfd87d54", "type": "electric_bike", "fusion_lat": 0.0, "is_disabled": 0, "is_reserved": 0}, {"lon": -77.03138983333334, "name": "3b83f11427db87402e2b9d4d6205f68e", "lat": 38.8922945, "fusion_lon": 0.0, "rental_uris": {"ios": "https://dc.lft.to/lastmile_qr_scan", "android": "https://dc.lft.to/lastmile_qr_scan"}, "bike_id": "3b83f11427db87402e2b9d4d6205f68e", "type": "electric_scooter", "fusion_lat": 0.0, "is_disabled": 0, "is_reserved": 0}, {"lon": -77.04883566666666, "name": "6007af5f13fb232e24e2feefa15b1ba8", "lat": 38.9140175, "fusion_lon": 0.0, "rental_uris": {"ios": "https://dc.lft.to/lastmile_qr_scan", "android": "https://dc.lft.to/lastmile_qr_scan"}, "bike_id": "6007af5f13fb232e24e2feefa15b1ba8", "type": "electric_scooter", "fusion_lat": 0.0, "is_disabled": 0, "is_reserved": 0}, {"lon": -77.05052116666667, "name": "3f995538e760332e68ed2e7b4bef0a1e", "lat": 38.91626883333333, "fusion_lon": 0.0, "rental_uris": {"ios": "https://dc.lft.to/lastmile_qr_scan", "android": "https://dc.lft.to/lastmile_qr_scan"}, "bike_id": "3f995538e760332e68ed2e7b4bef0a1e", "type": "electric_scooter", "fusion_lat": 0.0, "is_disabled": 0, "is_reserved": 0}, {"lon": -77.000713, "name": "e479994e897438a9e9d9c5769eeb6b15", "lat": 38.876637333333335, "fusion_lon": 0.0, "rental_uris": {"ios": "https://dc.lft.to/lastmile_qr_scan", "android": "https://dc.lft.to/lastmile_qr_scan"},