{"data": {"bikes": [{"rental_uris": {"ios": "https://dc.lft.to/lastmile_qr_scan", "android": "https://dc.lft.to/lastmile_qr_scan"}, "lon": -77.01537183333333, "type": "electric_scooter", "fusion_lat": 0.0, "lat": 38.887398166666664, "name": "84ceac477ee925ac19e5e63c76d5f3af", "fusion_lon": 0.0, "bike_id": "84ceac477ee925ac19e5e63c76d5f3af", "is_disabled": 0, "is_reserved": 0}, {"rental_uris": {"ios": "https://dc.lft.to/lastmile_qr_scan", "android": "https://dc.lft.to/lastmile_qr_scan"}, "lon": -77.02976266666667, "type": "electric_scooter", "fusion_lat": 0.0, "lat": 38.900240333333336, "name": "772d7d2e1e80dc759000522a7e4449af", "fusion_lon": 0.0, "bike_id": "772d7d2e1e80dc759000522a7e4449af", "is_disabled": 0, "is_reserved": 0}, {"rental_uris": {"ios": "https://dc.lft.to/lastmile_qr_scan", "android": "https://dc.lft.to/lastmile_qr_scan"}, "lon": -77.04509, "type": "electric_scooter", "fusion_lat": 0.0, "lat": 38.908457, "name": "d607562ba6ab169cf3d5da74ff843db1", "fusion_lon": 0.0, "bike_id": "d607562ba6ab169cf3d5da74ff843db1", "is_disabled": 0, "is_reserved": 0}, {"rental_uris": {"ios": "https://dc.lft.to/lastmile_qr_scan", "android": "https://dc.lft.to/lastmile_qr_scan"}, "lon": -77.03277983333334, "type": "electric_scooter", "fusion_lat": 0.0, "lat": 38.90858466666667, "name": "eeca78c0c4491513100784c553064b7e", "fusion_lon": 0.0, "bike_id": "eeca78c0c4491513100784c553064b7e", "is_disabled": 0, "is_reserved": 0}, {"rental_uris": {"ios": "https://dc.lft.to/lastmile_qr_scan", "android": "https://dc.lft.to/lastmile_qr_scan"}, "lon": -77.02002433333334, "type": "electric_scooter", "fusion_lat": 0.0, "lat": 38.9311685, "name": "0a9584e0af028e7ae87f7828ffb94efd", "fusion_lon": 0.0, "bike_id": "0a9584e0af028e7ae87f7828ffb94efd", "is_disabled": 0, "is_reserved": 0}, {"rental_uris": {"ios": "https://dc.lft.to/lastmile_qr_scan", "android": "https://dc.lft.to/lastmile_qr_scan"}, "lon": -77.04131116666667, "type": "electric_scooter", "fusion_lat": 0.0, "lat": 38.924305, "name": "402b4e314e326a744d7c5efd497ddcb8", "fusion_lon": 0.0, "bike_id": "402b4e314e326a744d7c5efd497ddcb8", "is_disabled": 0, "is_reserved": 0}, {"rental_uris": {"ios": "https://dc.lft.to/lastmile_qr_scan", "android": "https://dc.lft.to/lastmile_qr_scan"}, "lon": -77.03313733333333, "type": "electric_scooter", "fusion_lat": 0.0, "lat": 38.919897166666665, "name": "5321ebc15dee923922fe1507f8fa3231", "fusion_lon": 0.0, "bike_id": "5321ebc15dee923922fe1507f8fa3231", "is_disabled": 0, "is_reserved": 0}, {"rental_uris": {"ios": "https://dc.lft.to/lastmile_qr_scan", "android": "https://dc.lft.to/lastmile_qr_scan"}, "lon": -77.10510316666667, "type": "electric_bike", "fusion_lat": 0.0, "lat": 38.92846466666667, "name": "58d196f8cd8c022b60d4a5f8e6052096", "fusion_lon": 0.0, "bike_id": "58d196f8cd8c022b60d4a5f8e6052096", "is_disabled": 0, "is_reserved": 0}, {"rental_uris": {"ios": "https://dc.lft.to/lastmile_qr_scan", "android": "https://dc.lft.to/lastmile_qr_scan"}, "lon": -77.07370583333334, "type": "electric_bike", "fusion_lat": 0.0, "lat": 38.96174116666667, "name": "fe75d75b6080221221c18f90e43c8e84", "fusion_lon": 0.0, "bike_id": "fe75d75b6080221221c18f90e43c8e84", "is_disabled": 0, "is_reserved": 0}, {"rental_uris": {"ios": "https://dc.lft.to/lastmile_qr_scan", "android": "https://dc.lft.to/lastmile_qr_scan"}, "lon": -76.97354383333334, "type": "electric_scooter", "fusion_lat": 0.0, "lat": 38.862048333333334, "name": "6f180f8e8f03c1b7bf10e8066b75238c", "fusion_lon": 0.0, "bike_id": "6f180f8e8f03c1b7bf10e8066b75238c", "is_disabled": 0, "is_reserved": 0}, {"rental_uris": {"ios": "https://dc.lft.to/lastmile_qr_scan", "android": "https://dc.lft.to/lastmile_qr_scan"}, "lon": -77.05606433333334, "type": "electric_scooter", "fusion_lat": 0.0, "lat": 38.9318055, "name": "db17d78a97ab04c6cb7a60fa0f950ed3", "fusion_lon": 0.0, "bike_id": "db17d78a97ab04c6cb7a60fa0f950ed3", "is_disabled": 0, "is_reserved": 0}, {"rental_uris": {"ios": "https://dc.lft.to/lastmile_qr_scan", "android": "https://dc.lft.to/lastmile_qr_scan"}, "lon": -77.047208, "type": "electric_scooter", "fusion_lat": 0.0, "lat": 38.897358, "name": "27e4f35c18bed07c19a2ece95e6d4ecc", "fusion_lon": 0.0, "bike_id": "27e4f35c18bed07c19a2ece95e6d4ecc", "is_disabled": 0, "is_reserved": 0}, {"rental_uris": {"ios": "https://dc.lft.to/lastmile_qr_scan", "android": "https://dc.lft.to/lastmile_qr_scan"}, "lon": -77.02661383333333, "type": "electric_scooter", "fusion_lat": 0.0, "lat": 38.92178216666667, "name": "0635c6c231048a3da796db60bb0250d6", "fusion_lon": 0.0, "bike_id": "0635c6c231048a3da796db60bb0250d6", "is_disabled": 0, "is_reserved": 0}, {"rental_uris": {"ios": "https://dc.lft.to/lastmile_qr_scan", "android": "https://dc.lft.to/lastmile_qr_scan"}, "lon": -77.09169283333334, "type": "electric_bike", "fusion_lat": 0.0, "lat": 38.967637333333336, "name": "d33e2fc76a81fb9617e371d5c8b1b47e", "fusion_lon": 0.0, "bike_id": "d33e2fc76a81fb9617e371d5c8b1b47e", "is_disabled": 0, "is_reserved": 0}, {"rental_uris": {"ios": "https://dc.lft.to/lastmile_qr_scan", "android": "https://dc.lft.to/lastmile_qr_scan"}, "lon": -77.03863733333333, "type": "electric_bike", "fusion_lat": 0.0, "lat": 38.91208133333333, "name": "b6e6a48c0732361952521215ae42fae8", "fusion_lon": 0.0, "bike_id": "b6e6a48c0732361952521215ae42fae8", "is_disabled": 0, "is_reserved": 0}, {"rental_uris": {"ios": "https://dc.lft.to/lastmile_qr_scan", "android": "https://dc.lft.to/lastmile_qr_scan"}, "lon": -77.03226666666667, "type": "electric_scooter", "fusion_lat": 0.0, "lat": 38.96175783333333, "name": "9b31afa8fdab4e0270552acf8a6602e5", "fusion_lon": 0.0, "bike_id": "9b31afa8fdab4e0270552acf8a6602e5", "is_disabled": 0, "is_reserved": 0}, {"rental_uris": {"ios": "https://dc.lft.to/lastmile_qr_scan", "android": "https://dc.lft.to/lastmile_qr_scan"}, "lon": -77.02338266666666, "type": "electric_scooter", "fusion_lat": 0.0, "lat": 38.88338233333333, "name": "9beaa90f7f23c4fae0832922b5fe89eb", "fusion_lon": 0.0, "bike_id": "9beaa90f7f23c4fae0832922b5fe89eb", "is_disabled": 0, "is_reserved": 0}, {"rental_uris": {"ios": "https://dc.lft.to/lastmile_qr_scan", "android": "https://dc.lft.to/lastmile_qr_scan"}, "lon": -77.02743383333333, "type": "electric_scooter", "fusion_lat": 0.0, "lat": 38.909599, "name": "cdf7ce14b36cedd3b9b5fd970533c7ef", "fusion_lon": 0.0, "bike_id": "cdf7ce14b36cedd3b9b5fd970533c7ef", "is_disabled": 0, "is_reserved": 0}, {"rental_uris": {"ios": "https://dc.lft.to/lastmile_qr_scan", "android": "https://dc.lft.to/lastmile_qr_scan"}, "lon": -77.01814333333333, "type": "electric_scooter", "fusion_lat": 0.0, "lat": 38.90562966666667, "name": "8e01dd0c71734fe8ada5eb036631cdf2", "fusion_lon": 0.0, "bike_id": "8e01dd0c71734fe8ada5eb036631cdf2", "is_disabled": 0, "is_reserved": 0}, {"rental_uris": {"ios": "https://dc.lft.to/lastmile_qr_scan", "android": "https://dc.lft.to/lastmile_qr_scan"}, "lon": -76.9850975, "type": "electric_scooter", "fusion_lat": 0.0, "lat": 38.900842833333336, "name": "b9e5a04b8c251a12668da45c6f7349bc", "fusion_lon": 0.0, "bike_id": "b9e5a04b8c251a12668da45c6f7349bc", "is_disabled": 0, "is_reserved": 0}, {"rental_uris": {"ios": "https://dc.lft.to/lastmile_qr_scan", "android": "https://dc.lft.to/lastmile_qr_scan"}, "lon": -77.04756083333334, "type": "electric_scooter", "fusion_lat": 0.0, "lat": 38.897314, "name": "2dd3a5439f8cce4093e229a4ef6a1ec3", "fusion_lon": 0.0, "bike_id": "2dd3a5439f8cce4093e229a4ef6a1ec3", "is_disabled": 0, "is_reserved": 0}, {"rental_uris": {"ios": "https://dc.lft.to/lastmile_qr_scan", "android": "https://dc.lft.to/lastmile_qr_scan"}, "lon": -77.04351533333333, "type": "electric_scooter", "fusion_lat": 0.0, "lat": 38.915927333333336, "name": "7b209801ef03ddb7189db5e662283f3e", "fusion_lon": 0.0, "bike_id": "7b209801ef03ddb7189db5e662283f3e", "is_disabled": 0, "is_reserved": 0}, {"rental_uris": {"ios": "https://dc.lft.to/lastmile_qr_scan", "android": "https://dc.lft.to/lastmile_qr_scan"}, "lon": -77.038323, "type": "electric_scooter", "fusion_lat": 0.0, "lat": 38.907807166666665, "name": "7d82620e89da1598fb7dfe6ea557d4a9", "fusion_lon": 0.0, "bike_id": "7d82620e89da1598fb7dfe6ea557d4a9", "is_disabled": 0, "is_reserved": 0}, {"rental_uris": {"ios": "https://dc.lft.to/lastmile_qr_scan", "android": "https://dc.lft.to/lastmile_qr_scan"}, "lon": -77.00823216666667, "type": "electric_scooter", "fusion_lat": 0.0, "lat": 38.87668766666667, "name": "c3e3e63d6082e3da05aa2d176da5c82b", "fusion_lon": 0.0, "bike_id": "c3e3e63d6082e3da05aa2d176da5c82b", "is_disabled": 0, "is_reserved": 0}, {"rental_uris": {"ios": "https://dc.lft.to/lastmile_qr_scan", "android": "https://dc.lft.to/lastmile_qr_scan"}, "lon": -77.13092816666666, "type": "electric_bike", "fusion_lat": 0.0, "lat": 38.861622, "name": "d99f65460152e3eba6e9e7a8bda327be", "fusion_lon": 0.0, "bike_id": "d99f65460152e3eba6e9e7a8bda327be", "is_disabled": 0, "is_reserved": 0}, {"rental_uris": {"ios": "https://dc.lft.to/lastmile_qr_scan", "android": "https://dc.lft.to/lastmile_qr_scan"}, "lon": -77.0080355, "type": "electric_scooter", "fusion_lat": 0.0, "lat": 38.9140715, "name": "e36adfefc68bde10ced46d28f8f7a881", "fusion_lon": 0.0, "bike_id": "e36adfefc68bde10ced46d28f8f7a881", "is_disabled": 0, "is_reserved": 0}, {"rental_uris": {"ios": "https://dc.lft.to/lastmile_qr_scan", "android": "https://dc.lft.to/lastmile_qr_scan"}, "lon": -77.0364265, "type": "electric_scooter", "fusion_lat": 0.0, "lat": 38.91736983333333, "name": "456e41ffc5f44d09fc8b1df03f0198c6", "fusion_lon": 0.0, "bike_id": "456e41ffc5f44d09fc8b1df03f0198c6", "is_disabled": 0, "is_reserved": 0}, {"rental_uris": {"ios": "https://dc.lft.to/lastmile_qr_scan", "android": "https://dc.lft.to/lastmile_qr_scan"}, "lon": -77.002253, "type": "electric_scooter", "fusion_lat": 0.0, "lat": 38.91340016666667, "name": "7199794cf7cdceed32e40441c7ffb50a", "fusion_lon": 0.0, "bike_id": "7199794cf7cdceed32e40441c7ffb50a", "is_disabled": 0, "is_reserved": 0}, {"rental_uris": {"ios": "https://dc.lft.to/lastmile_qr_scan", "android": "https://dc.lft.to/lastmile_qr_scan"}, "lon": -77.03540466666666, "type": "electric_scooter", "fusion_lat": 0.0, "lat": 38.926238833333336, "name": "f9b0474aab40a019a8b9eac73219ee2f", "fusion_lon": 0.0, "bike_id": "f9b0474aab40a019a8b9eac73219ee2f", "is_disabled": 0, "is_reserved": 0}, {"rental_uris": {"ios": "https://dc.lft.to/lastmile_qr_scan", "android": "https://dc.lft.to/lastmile_qr_scan"}, "lon": -77.033186, "type": "electric_scooter", "fusion_lat": 0.0, "lat": 38.900099, "name": "2fbf910df4525b6c37cc0f67412f77ad", "fusion_lon": 0.0, "bike_id": "2fbf910df4525b6c37cc0f67412f77ad", "is_disabled": 0, "is_reserved": 0}, {"rental_uris": {"ios": "https://dc.lft.to/lastmile_qr_scan", "android": "https://dc.lft.to/lastmile_qr_scan"}, "lon": -77.023922, "type": "electric_scooter", "fusion_lat": 0.0, "lat": 38.925080333333334, "name": "9f188edf285fa1ad46f822b1a30db8c7", "fusion_lon": 0.0, "bike_id": "9f188edf285fa1ad46f822b1a30db8c7", "is_disabled": 0, "is_reserved": 0}, {"rental_uris": {"ios": "https://dc.lft.to/lastmile_qr_scan", "android": "https://dc.lft.to/lastmile_qr_scan"}, "lon": -77.02335766666667, "type": "electric_scooter", "fusion_lat": 0.0, "lat": 38.929685, "name": "cac4abb30d1566e43f8afd05b7198939", "fusion_lon": 0.0, "bike_id": "cac4abb30d1566e43f8afd05b7198939", "is_disabled": 0, "is_reserved": 0}, {"rental_uris": {"ios": "https://dc.lft.to/lastmile_qr_scan", "android": "https://dc.lft.to/lastmile_qr_scan"}, "lon": -76.97706383333333, "type": "electric_scooter", "fusion_lat": 0.0, "lat": 38.89707633333333, "name": "7ef3c319f2559b1990ccad4ecd168c51", "fusion_lon": 0.0, "bike_id": "7ef3c319f2559b1990ccad4ecd168c51", "is_disabled": 0, "is_reserved": 0}, {"rental_uris": {"ios": "https://dc.lft.to/lastmile_qr_scan", "android": "https://dc.lft.to/lastmile_qr_scan"}, "lon": -77.04136066666666, "type": "electric_scooter", "fusion_lat": 0.0, "lat": 38.90020333333333, "name": "5a5c52cd43ef4f42ada405ac896518c2", "fusion_lon": 0.0, "bike_id": "5a5c52cd43ef4f42ada405ac896518c2", "is_disabled": 0, "is_reserved": 0}, {"rental_uris": {"ios": "https://dc.lft.to/lastmile_qr_scan", "android": "https://dc.lft.to/lastmile_qr_scan"}, "lon": -77.044833, "type": "electric_scooter", "fusion_lat": 0.0, "lat": 38.90962433333333, "name": "76916c668d724bb87e89d4344f4d60d9", "fusion_lon": 0.0, "bike_id": "76916c668d724bb87e89d4344f4d60d9", "is_disabled": 0, "is_reserved": 0}, {"rental_uris": {"ios": "https://dc.lft.to/lastmile_qr_scan", "android": "https://dc.lft.to/lastmile_qr_scan"}, "lon": -77.016661, "type": "electric_scooter", "fusion_lat": 0.0, "lat": 38.9005775, "name": "58e7f954696a69ceb9055ba287655a65", "fusion_lon": 0.0, "bike_id": "58e7f954696a69ceb9055ba287655a65", "is_disabled": 0, "is_reserved": 0}, {"rental_uris": {"ios": "https://dc.lft.to/lastmile_qr_scan", "android": "https://dc.lft.to/lastmile_qr_scan"}, "lon": -77.05176483333334, "type": "electric_scooter", "fusion_lat": 0.0, "lat": 38.92423483333334, "name": "47af6d5e3b84ab9b70cf3ef256ebb7d7", "fusion_lon": 0.0, "bike_id": "47af6d5e3b84ab9b70cf3ef256ebb7d7", "is_disabled": 0, "is_reserved": 0}, {"rental_uris": {"ios": "https://dc.lft.to/lastmile_qr_scan", "android": "https://dc.lft.to/lastmile_qr_scan"}, "lon": -77.0465295, "type": "electric_scooter", "fusion_lat": 0.0, "lat": 38.89732566666667, "name": "68b9b79e9a2a7f6b16ca3eaf6421e664", "fusion_lon": 0.0, "bike_id": "68b9b79e9a2a7f6b16ca3eaf6421e664", "is_disabled": 0, "is_reserved": 0}, {"rental_uris": {"ios": "https://dc.lft.to/lastmile_qr_scan", "android": "https://dc.lft.to/lastmile_qr_scan"}, "lon": -77.0489305, "type": "electric_scooter", "fusion_lat": 0.0, "lat": 38.896669833333334, "name": "f77fc9f789a75b5ba3a7529f5ebb5047", "fusion_lon": 0.0, "bike_id": "f77fc9f789a75b5ba3a7529f5ebb5047", "is_disabled": 0, "is_reserved": 0}, {"rental_uris": {"ios": "https://dc.lft.to/lastmile_qr_scan", "android": "https://dc.lft.to/lastmile_qr_scan"}, "lon": -77.024277, "type": "electric_scooter", "fusion_lat": 0.0, "lat": 38.9056495, "name": "9834a0c2dc810932c2017c5dc05ca25d", "fusion_lon": 0.0, "bike_id": "9834a0c2dc810932c2017c5dc05ca25d", "is_disabled": 0, "is_reserved": 0}, {"rental_uris": {"ios": "https://dc.lft.to/lastmile_qr_scan", "android": "https://dc.lft.to/lastmile_qr_scan"}, "lon": -77.02171133333333, "type": "electric_scooter", "fusion_lat": 0.0, "lat": 38.94290866666667, "name": "fec15a0b38b0130d0ae2b0cdc2e90b28", "fusion_lon": 0.0, "bike_id": "fec15a0b38b0130d0ae2b0cdc2e90b28", "is_disabled": 0, "is_reserved": 0}, {"rental_uris": {"ios": "https://dc.lft.to/lastmile_qr_scan", "android": "https://dc.lft.to/lastmile_qr_scan"}, "lon": -76.98910483333333, "type": "electric_scooter", "fusion_lat": 0.0, "lat": 38.86688983333333, "name": "9eabf6fe027c31a24019fd4124a7f0cf", "fusion_lon": 0.0, "bike_id": "9eabf6fe027c31a24019fd4124a7f0cf", "is_disabled": 0, "is_reserved": 0}, {"rental_uris": {"ios": "https://dc.lft.to/lastmile_qr_scan", "android": "https://dc.lft.to/lastmile_qr_scan"}, "lon": -77.01400916666667, "type": "electric_scooter", "fusion_lat": 0.0, "lat": 38.892270833333335, "name": "e7f606aff4abb83181686666e548333e", "fusion_lon": 0.0, "bike_id": "e7f606aff4abb83181686666e548333e", "is_disabled": 0, "is_reserved": 0}, {"rental_uris": {"ios": "https://dc.lft.to/lastmile_qr_scan", "android": "https://dc.lft.to/lastmile_qr_scan"}, "lon": -77.03316716666667, "type": "electric_scooter", "fusion_lat": 0.0, "lat": 38.898321833333334, "name": "58ecc3a10f6ede7aeb3f801ba4054991", "fusion_lon": 0.0, "bike_id": "58ecc3a10f6ede7aeb3f801ba4054991", "is_disabled": 0, "is_reserved": 0}, {"rental_uris": {"ios": "https://dc.lft.to/lastmile_qr_scan", "android": "https://dc.lft.to/lastmile_qr_scan"}, "lon": -77.04016166666666, "type": "electric_scooter", "fusion_lat": 0.0, "lat": 38.9218205, "name": "9b8c3ccfc3e73fd1c34a1988a8cf2c75", "fusion_lon": 0.0, "bike_id": "9b8c3ccfc3e73fd1c34a1988a8cf2c75", "is_disabled": 0, "is_reserved": 0}, {"rental_uris": {"ios": "https://dc.lft.to/lastmile_qr_scan", "android": "https://dc.lft.to/lastmile_qr_scan"}, "lon": -77.03181883333333, "type": "electric_scooter", "fusion_lat": 0.0, "lat": 38.892342666666664, "name": "2dff895c51e9e391181353c72c25069a", "fusion_lon": 0.0, "bike_id": "2dff895c51e9e391181353c72c25069a", "is_disabled": 0, "is_reserved": 0}, {"rental_uris": {"ios": "https://dc.lft.to/lastmile_qr_scan", "android": "https://dc.lft.to/lastmile_qr_scan"}, "lon": -77.10782216666666, "type": "electric_bike", "fusion_lat": 0.0, "lat": 38.892155333333335, "name": "b57a6c71c3b9a310ce843cd020bb62dc", "fusion_lon": 0.0, "bike_id": "b57a6c71c3b9a310ce843cd020bb62dc", "is_disabled": 0, "is_reserved": 0}, {"rental_uris": {"ios": "https://dc.lft.to/lastmile_qr_scan", "android": "https://dc.lft.to/lastmile_qr_scan"}, "lon": -77.06999083333334, "type": "electric_bike", "fusion_lat": 0.0, "lat": 38.955029833333334, "name": "2a44c5444f6ae7039f7723d216cf1c73", "fusion_lon": 0.0, "bike_id": "2a44c5444f6ae7039f7723d216cf1c73", "is_disabled": 0, "is_reserved": 0}, {"rental_uris": {"ios": "https://dc.lft.to/lastmile_qr_scan", "android": "https://dc.lft.to/lastmile_qr_scan"}, "lon": -77.05043033333334, "type": "electric_scooter", "fusion_lat": 0.0, "lat": 38.90363216666667, "name": "1e3fd6047dabc993f49ed4a51b45ba12", "fusion_lon": 0.0, "bike_id": "1e3fd6047dabc993f49ed4a51b45ba12", "is_disabled": 0, "is_reserved": 0}, {"rental_uris": {"ios": "https://dc.lft.to/lastmile_qr_scan", "android": "https://dc.lft.to/lastmile_qr_scan"}, "lon": -77.02308683333334, "type": "electric_scooter", "fusion_lat": 0.0, "lat": 38.91769033333333, "name": "8be97a82ff32de7b5373f45abfd04965", "fusion_lon": 0.0, "bike_id": "8be97a82ff32de7b5373f45abfd04965", "is_disabled": 0, "is_reserved": 0}, {"rental_uris": {"ios": "https://dc.lft.to/lastmile_qr_scan", "android": "https://dc.lft.to/lastmile_qr_scan"}, "lon": -77.05022116666666, "type": "electric_scooter", "fusion_lat": 0.0, "lat": 38.900802166666665, "name": "3645c25032eea20a0e8e8ee93ac4dc51", "fusion_lon": 0.0, "bike_id": "3645c25032eea20a0e8e8ee93ac4dc51", "is_disabled": 0, "is_reserved": 0}, {"rental_uris": {"ios": "https://dc.lft.to/lastmile_qr_scan", "android": "https://dc.lft.to/lastmile_qr_scan"}, "lon": -77.0098465, "type": "electric_scooter", "fusion_lat": 0.0, "lat": 38.87287933333333, "name": "012c7e2b5021df3ea813c610b0f3af2c", "fusion_lon": 0.0, "bike_id": "012c7e2b5021df3ea813c610b0f3af2c", "is_disabled": 0, "is_reserved": 0}, {"rental_uris": {"ios": "https://dc.lft.to/lastmile_qr_scan", "android": "https://dc.lft.to/lastmile_qr_scan"}, "lon": -77.02951416666667, "type": "electric_scooter", "fusion_lat": 0.0, "lat": 38.915624333333334, "name": "f7b262fe14ac3325082f06ad90ac3d4f", "fusion_lon": 0.0, "bike_id": "f7b262fe14ac3325082f06ad90ac3d4f", "is_disabled": 0, "is_reserved": 0}, {"rental_uris": {"ios": "https://dc.lft.to/lastmile_qr_scan", "android": "https://dc.lft.to/lastmile_qr_scan"}, "lon": -77.0450555, "type": "electric_scooter", "fusion_lat": 0.0, "lat": 38.90853333333333, "name": "aac272c94609a6079ee39860ecebc424", "fusion_lon": 0.0, "bike_id": "aac272c94609a6079ee39860ecebc424", "is_disabled": 0, "is_reserved": 0}, {"rental_uris": {"ios": "https://dc.lft.to/lastmile_qr_scan", "android": "https://dc.lft.to/lastmile_qr_scan"}, "lon": -77.0483465, "type": "electric_scooter", "fusion_lat": 0.0, "lat": 38.903874, "name": "ff9ae4d65f78e84f42005a056114a685", "fusion_lon": 0.0, "bike_id": "ff9ae4d65f78e84f42005a056114a685", "is_disabled": 0, "is_reserved": 0}, {"rental_uris": {"ios": "https://dc.lft.to/lastmile_qr_scan", "android": "https://dc.lft.to/lastmile_qr_scan"}, "lon": -77.01121616666667, "type": "electric_scooter", "fusion_lat": 0.0, "lat": 38.912684166666665, "name": "57faf0961f607e2fec6eb47dc3b7c5f8", "fusion_lon": 0.0, "bike_id": "57faf0961f607e2fec6eb47dc3b7c5f8", "is_disabled": 0, "is_reserved": 0}, {"rental_uris": {"ios": "https://dc.lft.to/lastmile_qr_scan", "android": "https://dc.lft.to/lastmile_qr_scan"}, "lon": -77.0229275, "type": "electric_bike", "fusion_lat": 0.0, "lat": 38.923329333333335, "name": "00fe18a17e5bdddae2545c4d617d46a2", "fusion_lon": 0.0, "bike_id": "00fe18a17e5bdddae2545c4d617d46a2", "is_disabled": 0, "is_reserved": 0}, {"rental_uris": {"ios": "https://dc.lft.to/lastmile_qr_scan", "android": "https://dc.lft.to/lastmile_qr_scan"}, "lon": -77.02382283333333, "type": "electric_scooter", "fusion_lat": 0.0, "lat": 38.932258833333336, "name": "afe20f5b570e5420690ccbc098befbe1", "fusion_lon": 0.0, "bike_id": "afe20f5b570e5420690ccbc098befbe1", "is_disabled": 0, "is_reserved": 0}, {"rental_uris": {"ios": "https://dc.lft.to/lastmile_qr_scan", "android": "https://dc.lft.to/lastmile_qr_scan"}, "lon": -77.04663333333333, "type": "electric_scooter", "fusion_lat": 0.0, "lat": 38.909015, "name": "7ac3ca5d584d417fe26254f7e2deaf78", "fusion_lon": 0.0, "bike_id": "7ac3ca5d584d417fe26254f7e2deaf78", "is_disabled": 0, "is_reserved": 0}, {"rental_uris": {"ios": "https://dc.lft.to/lastmile_qr_scan", "android": "https://dc.lft.to/lastmile_qr_scan"}, "lon": -77.03424216666667, "type": "electric_scooter", "fusion_lat": 0.0, "lat": 38.91912716666667, "name": "6e5ccbcb030c2dc58978d430a4787e6e", "fusion_lon": 0.0, "bike_id": "6e5ccbcb030c2dc58978d430a4787e6e", "is_disabled": 0, "is_reserved": 0}, {"rental_uris": {"ios": "https://dc.lft.to/lastmile_qr_scan", "android": "https://dc.lft.to/lastmile_qr_scan"}, "lon": -77.02512, "type": "electric_scooter", "fusion_lat": 0.0, "lat": 38.91761916666667, "name": "6ab6b22ffeb9cf0a27bd56d9262845fa", "fusion_lon": 0.0, "bike_id": "6ab6b22ffeb9cf0a27bd56d9262845fa", "is_disabled": 0, "is_reserved": 0}, {"rental_uris": {"ios": "https://dc.lft.to/lastmile_qr_scan", "android": "https://dc.lft.to/lastmile_qr_scan"}, "lon": -76.97213933333333, "type": "electric_bike", "fusion_lat": 0.0, "lat": 38.84471216666667, "name": "04278a98e151cb1db6516227b98f0de0", "fusion_lon": 0.0, "bike_id": "04278a98e151cb1db6516227b98f0de0", "is_disabled": 0, "is_reserved": 0}, {"rental_uris": {"ios": "https://dc.lft.to/lastmile_qr_scan", "android": "https://dc.lft.to/lastmile_qr_scan"}, "lon": -77.08047716666667, "type": "electric_bike", "fusion_lat": 0.0, "lat": 38.9462565, "name": "8b3a588078effa3c975af9349c107bb4", "fusion_lon": 0.0, "bike_id": "8b3a588078effa3c975af9349c107bb4", "is_disabled": 0, "is_reserved": 0}, {"rental_uris": {"ios": "https://dc.lft.to/lastmile_qr_scan", "android": "https://dc.lft.to/lastmile_qr_scan"}, "lon": -77.046533, "type": "electric_scooter", "fusion_lat": 0.0, "lat": 38.89735133333333, "name": "8125ae3cf5e14af458f43a3247cbc71b", "fusion_lon": 0.0, "bike_id": "8125ae3cf5e14af458f43a3247cbc71b", "is_disabled": 0, "is_reserved": 0}, {"rental_uris": {"ios": "https://dc.lft.to/lastmile_qr_scan", "android": "https://dc.lft.to/lastmile_qr_scan"}, "lon": -77.0138115, "type": "electric_scooter", "fusion_lat": 0.0, "lat": 38.89912433333333, "name": "2ee153442d32dab0d6633f91f09b83ea", "fusion_lon": 0.0, "bike_id": "2ee153442d32dab0d6633f91f09b83ea", "is_disabled": 0, "is_reserved": 0}, {"rental_uris": {"ios": "https://dc.lft.to/lastmile_qr_scan", "android": "https://dc.lft.to/lastmile_qr_scan"}, "lon": -77.0321915, "type": "electric_scooter", "fusion_lat": 0.0, "lat": 38.91452916666667, "name": "5ba9bd28e50f91c8b12fddd1a422557b", "fusion_lon": 0.0, "bike_id": "5ba9bd28e50f91c8b12fddd1a422557b", "is_disabled": 0, "is_reserved": 0}, {"rental_uris": {"ios": "https://dc.lft.to/lastmile_qr_scan", "android": "https://dc.lft.to/lastmile_qr_scan"}, "lon": -77.0219795, "type": "electric_bike", "fusion_lat": 0.0, "lat": 38.91123783333333, "name": "2865200f558802a8841bbb7dd65edd5f", "fusion_lon": 0.0, "bike_id": "2865200f558802a8841bbb7dd65edd5f", "is_disabled": 0, "is_reserved": 0}, {"rental_uris": {"ios": "https://dc.lft.to/lastmile_qr_scan", "android": "https://dc.lft.to/lastmile_qr_scan"}, "lon": -76.98887366666666, "type": "electric_scooter", "fusion_lat": 0.0, "lat": 38.866581833333335, "name": "9f44c59f422f2b2b64f19b592d2eaed8", "fusion_lon": 0.0, "bike_id": "9f44c59f422f2b2b64f19b592d2eaed8", "is_disabled": 0, "is_reserved": 0}, {"rental_uris": {"ios": "https://dc.lft.to/lastmile_qr_scan", "android": "https://dc.lft.to/lastmile_qr_scan"}, "lon": -77.0369925, "type": "electric_scooter", "fusion_lat": 0.0, "lat": 38.92645666666667, "name": "e0a21dec2de56b13c35b9b13d7e58397", "fusion_lon": 0.0, "bike_id": "e0a21dec2de56b13c35b9b13d7e58397", "is_disabled": 0, "is_reserved": 0}, {"rental_uris": {"ios": "https://dc.lft.to/lastmile_qr_scan", "android": "https://dc.lft.to/lastmile_qr_scan"}, "lon": -77.01170733333333, "type": "electric_scooter", "fusion_lat": 0.0, "lat": 38.914855833333334, "name": "f33d2f367145fb5b9bb3fda9f79fdad0", "fusion_lon": 0.0, "bike_id": "f33d2f367145fb5b9bb3fda9f79fdad0", "is_disabled": 0, "is_reserved": 0}, {"rental_uris": {"ios": "https://dc.lft.to/lastmile_qr_scan", "android": "https://dc.lft.to/lastmile_qr_scan"}, "lon": -77.0115135, "type": "electric_bike", "fusion_lat": 0.0, "lat": 38.911759, "name": "00a80712f79e3a0e8dc6824097e5a1b8", "fusion_lon": 0.0, "bike_id": "00a80712f79e3a0e8dc6824097e5a1b8", "is_disabled": 0, "is_reserved": 0}, {"rental_uris": {"ios": "https://dc.lft.to/lastmile_qr_scan", "android": "https://dc.lft.to/lastmile_qr_scan"}, "lon": -77.002108, "type": "electric_scooter", "fusion_lat": 0.0, "lat": 38.900279166666664, "name": "efc6f45ff61246770faff7147213ea89", "fusion_lon": 0.0, "bike_id": "efc6f45ff61246770faff7147213ea89", "is_disabled": 0, "is_reserved": 0}, {"rental_uris": {"ios": "https://dc.lft.to/lastmile_qr_scan", "android": "https://dc.lft.to/lastmile_qr_scan"}, "lon": -77.0256655, "type": "electric_scooter", "fusion_lat": 0.0, "lat": 38.91483616666667, "name": "7691f591bbfaa20f54f21760048bfbf6", "fusion_lon": 0.0, "bike_id": "7691f591bbfaa20f54f21760048bfbf6", "is_disabled": 0, "is_reserved": 0}, {"rental_uris": {"ios": "https://dc.lft.to/lastmile_qr_scan", "android": "https://dc.lft.to/lastmile_qr_scan"}, "lon": -77.041258, "type": "electric_scooter", "fusion_lat": 0.0, "lat": 38.91705133333333, "name": "1da7bbf8e3ac167a663d7fcbcbcb068a", "fusion_lon": 0.0, "bike_id": "1da7bbf8e3ac167a663d7fcbcbcb068a", "is_disabled": 0, "is_reserved": 0}, {"rental_uris": {"ios": "https://dc.lft.to/lastmile_qr_scan", "android": "https://dc.lft.to/lastmile_qr_scan"}, "lon": -76.989001, "type": "electric_scooter", "fusion_lat": 0.0, "lat": 38.866929166666665, "name": "aa4fa9aba68c8befde8ef93c1165a722", "fusion_lon": 0.0, "bike_id": "aa4fa9aba68c8befde8ef93c1165a722", "is_disabled": 0, "is_reserved": 0}, {"rental_uris": {"ios": "https://dc.lft.to/lastmile_qr_scan", "android": "https://dc.lft.to/lastmile_qr_scan"}, "lon": -77.048943, "type": "electric_bike", "fusion_lat": 0.0, "lat": 38.90107066666667, "name": "f8a3bc360830beea94ab420a20a0bb51", "fusion_lon": 0.0, "bike_id": "f8a3bc360830beea94ab420a20a0bb51", "is_disabled": 0, "is_reserved": 0}, {"rental_uris": {"ios": "https://dc.lft.to/lastmile_qr_scan", "android": "https://dc.lft.to/lastmile_qr_scan"}, "lon": -76.95065833333334, "type": "electric_bike", "fusion_lat": 0.0, "lat": 38.9352, "name": "c0d7e2d1c1b2bca7cbf7bfedceb84594", "fusion_lon": 0.0, "bike_id": "c0d7e2d1c1b2bca7cbf7bfedceb84594", "is_disabled": 0, "is_reserved": 0}, {"rental_uris": {"ios": "https://dc.lft.to/lastmile_qr_scan", "android": "https://dc.lft.to/lastmile_qr_scan"}, "lon": -77.04778, "type": "electric_bike", "fusion_lat": 0.0, "lat": 39.05317483333334, "name": "b3a5ca6ef2240918d0138e13f00edcf6", "fusion_lon": 0.0, "bike_id": "b3a5ca6ef2240918d0138e13f00edcf6", "is_disabled": 0, "is_reserved": 0}, {"rental_uris": {"ios": "https://dc.lft.to/lastmile_qr_scan", "android": "https://dc.lft.to/lastmile_qr_scan"}, "lon": -76.98705783333334, "type": "electric_scooter", "fusion_lat": 0.0, "lat": 38.865360333333335, "name": "b4847c5ed30b547dce1397608e4e98fb", "fusion_lon": 0.0, "bike_id": "b4847c5ed30b547dce1397608e4e98fb", "is_disabled": 0, "is_reserved": 0}, {"rental_uris": {"ios": "https://dc.lft.to/lastmile_qr_scan", "android": "https://dc.lft.to/lastmile_qr_scan"}, "lon": -77.056914, "type": "electric_scooter", "fusion_lat": 0.0, "lat": 38.90541066666667, "name": "a021f6565cbc71ad85a087f148bb989d", "fusion_lon": 0.0, "bike_id": "a021f6565cbc71ad85a087f148bb989d", "is_disabled": 0, "is_reserved": 0}, {"rental_uris": {"ios": "https://dc.lft.to/lastmile_qr_scan", "android": "https://dc.lft.to/lastmile_qr_scan"}, "lon": -76.98712466666667, "type": "electric_scooter", "fusion_lat": 0.0, "lat": 38.902708833333335, "name": "47fceb32b5562f25327616399ddcc7c6", "fusion_lon": 0.0, "bike_id": "47fceb32b5562f25327616399ddcc7c6", "is_disabled": 0, "is_reserved": 0}, {"rental_uris": {"ios": "https://dc.lft.to/lastmile_qr_scan", "android": "https://dc.lft.to/lastmile_qr_scan"}, "lon": -77.04335983333333, "type": "electric_scooter", "fusion_lat": 0.0, "lat": 38.89227116666667, "name": "3f0aedb03254bcda4c19b3dd449315b5", "fusion_lon": 0.0, "bike_id": "3f0aedb03254bcda4c19b3dd449315b5", "is_disabled": 0, "is_reserved": 0}, {"rental_uris": {"ios": "https://dc.lft.to/lastmile_qr_scan", "android": "https://dc.lft.to/lastmile_qr_scan"}, "lon": -77.17846266666666, "type": "electric_bike", "fusion_lat": 0.0, "lat": 39.08856166666666, "name": "bed6de2dd86ce31cf67aa10cc97bbad5", "fusion_lon": 0.0, "bike_id": "bed6de2dd86ce31cf67aa10cc97bbad5", "is_disabled": 0, "is_reserved": 0}, {"rental_uris": {"ios": "https://dc.lft.to/lastmile_qr_scan", "android": "https://dc.lft.to/lastmile_qr_scan"}, "lon": -77.02988233333333, "type": "electric_scooter", "fusion_lat": 0.0, "lat": 38.90698616666667, "name": "4da616daf55186ecc01995436eeaa9cb", "fusion_lon": 0.0, "bike_id": "4da616daf55186ecc01995436eeaa9cb", "is_disabled": 0, "is_reserved": 0}, {"rental_uris": {"ios": "https://dc.lft.to/lastmile_qr_scan", "android": "https://dc.lft.to/lastmile_qr_scan"}, "lon": -76.9317475, "type": "electric_scooter", "fusion_lat": 0.0, "lat": 38.898838833333336, "name": "a2849737b17b87f9f121bcabad7dc4fe", "fusion_lon": 0.0, "bike_id": "a2849737b17b87f9f121bcabad7dc4fe", "is_disabled": 0, "is_reserved": 0}, {"rental_uris": {"ios": "https://dc.lft.to/lastmile_qr_scan", "android": "https://dc.lft.to/lastmile_qr_scan"}, "lon": -77.03936616666667, "type": "electric_scooter", "fusion_lat": 0.0, "lat": 38.898916666666665, "name": "90ffa908290c156a63e86e3e590cb8be", "fusion_lon": 0.0, "bike_id": "90ffa908290c156a63e86e3e590cb8be", "is_disabled": 0, "is_reserved": 0}, {"rental_uris": {"ios": "https://dc.lft.to/lastmile_qr_scan", "android": "https://dc.lft.to/lastmile_qr_scan"}, "lon": -77.0020395, "type": "electric_scooter", "fusion_lat": 0.0, "lat": 38.900348666666666, "name": "e380327062a12b2dd9b37047b2b3293b", "fusion_lon": 0.0, "bike_id": "e380327062a12b2dd9b37047b2b3293b", "is_disabled": 0, "is_reserved": 0}, {"rental_uris": {"ios": "https://dc.lft.to/lastmile_qr_scan", "android": "https://dc.lft.to/lastmile_qr_scan"}, "lon": -76.98651183333334, "type": "electric_scooter", "fusion_lat": 0.0, "lat": 38.85809583333333, "name": "234dba95dedb0bde8af6c1c89a4bc961", "fusion_lon": 0.0, "bike_id": "234dba95dedb0bde8af6c1c89a4bc961", "is_disabled": 0, "is_reserved": 0}, {"rental_uris": {"ios": "https://dc.lft.to/lastmile_qr_scan", "android": "https://dc.lft.to/lastmile_qr_scan"}, "lon": -77.02319066666666, "type": "electric_scooter", "fusion_lat": 0.0, "lat": 38.94088833333333, "name": "de59bc6e74b71cde923b6b7155e117c3", "fusion_lon": 0.0, "bike_id": "de59bc6e74b71cde923b6b7155e117c3", "is_disabled": 0, "is_reserved": 0}, {"rental_uris": {"ios": "https://dc.lft.to/lastmile_qr_scan", "android": "https://dc.lft.to/lastmile_qr_scan"}, "lon": -77.112955, "type": "electric_bike", "fusion_lat": 0.0, "lat": 38.85624583333333, "name": "dedd78aacf49533dcbe6d46b75aecd41", "fusion_lon": 0.0, "bike_id": "dedd78aacf49533dcbe6d46b75aecd41", "is_disabled": 0, "is_reserved": 0}, {"rental_uris": {"ios": "https://dc.lft.to/lastmile_qr_scan", "android": "https://dc.lft.to/lastmile_qr_scan"}, "lon": -77.01359583333333, "type": "electric_scooter", "fusion_lat": 0.0, "lat": 38.919294, "name": "70a978cdf34a88ad85ec616885b376a9", "fusion_lon": 0.0, "bike_id": "70a978cdf34a88ad85ec616885b376a9", "is_disabled": 0, "is_reserved": 0}, {"rental_uris": {"ios": "https://dc.lft.to/lastmile_qr_scan", "android": "https://dc.lft.to/lastmile_qr_scan"}, "lon": -77.024032, "type": "electric_scooter", "fusion_lat": 0.0, "lat": 38.91651233333333, "name": "6e249ed0fe1e5be911d588b462d3af85", "fusion_lon": 0.0, "bike_id": "6e249ed0fe1e5be911d588b462d3af85", "is_disabled": 0, "is_reserved": 0}, {"rental_uris": {"ios": "https://dc.lft.to/lastmile_qr_scan", "android": "https://dc.lft.to/lastmile_qr_scan"}, "lon": -77.03509, "type": "electric_scooter", "fusion_lat": 0.0, "lat": 38.921470666666664, "name": "e22ec0ad5ba61a815f318b3127ac78a3", "fusion_lon": 0.0, "bike_id": "e22ec0ad5ba61a815f318b3127ac78a3", "is_disabled": 0, "is_reserved": 0}, {"rental_uris": {"ios": "https://dc.lft.to/lastmile_qr_scan", "android": "https://dc.lft.to/lastmile_qr_scan"}, "lon": -77.01760966666667, "type": "electric_scooter", "fusion_lat": 0.0, "lat": 38.903740666666664, "name": "4114b82a2d8668003624cdd7047d82ce", "fusion_lon": 0.0, "bike_id": "4114b82a2d8668003624cdd7047d82ce", "is_disabled": 0, "is_reserved": 0}, {"rental_uris": {"ios": "https://dc.lft.to/lastmile_qr_scan", "android": "https://dc.lft.to/lastmile_qr_scan"}, "lon": -77.04216916666667, "type": "electric_scooter", "fusion_lat": 0.0, "lat": 38.920908833333336, "name": "71e469f739015e035c6952fbfe8637db", "fusion_lon": 0.0, "bike_id": "71e469f739015e035c6952fbfe8637db", "is_disabled": 0, "is_reserved": 0}, {"rental_uris": {"ios": "https://dc.lft.to/lastmile_qr_scan", "android": "https://dc.lft.to/lastmile_qr_scan"}, "lon": -77.05587083333333, "type": "electric_scooter", "fusion_lat": 0.0, "lat": 38.936046166666664, "name": "5b19a416017431e5318d697bb5b6d9b9", "fusion_lon": 0.0, "bike_id": "5b19a416017431e5318d697bb5b6d9b9", "is_disabled": 0, "is_reserved": 0}, {"rental_uris": {"ios": "https://dc.lft.to/lastmile_qr_scan", "android": "https://dc.lft.to/lastmile_qr_scan"}, "lon": -77.024848, "type": "electric_scooter", "fusion_lat": 0.0, "lat": 38.93817033333333, "name": "92ba88a6ba63721cc0971fa1e693a235", "fusion_lon": 0.0, "bike_id": "92ba88a6ba63721cc0971fa1e693a235", "is_disabled": 0, "is_reserved": 0}, {"rental_uris": {"ios": "https://dc.lft.to/lastmile_qr_scan", "android": "https://dc.lft.to/lastmile_qr_scan"}, "lon": -77.03642233333333, "type": "electric_scooter", "fusion_lat": 0.0, "lat": 38.903721, "name": "4177f1139b40925f73b321e375a820a0", "fusion_lon": 0.0, "bike_id": "4177f1139b40925f73b321e375a820a0", "is_disabled": 0, "is_reserved": 0}, {"rental_uris": {"ios": "https://dc.lft.to/lastmile_qr_scan", "android": "https://dc.lft.to/lastmile_qr_scan"}, "lon": -77.03216316666666, "type": "electric_scooter", "fusion_lat": 0.0, "lat": 38.914569666666665, "name": "b13049373c4681674999a6586ca9b2d2", "fusion_lon": 0.0, "bike_id": "b13049373c4681674999a6586ca9b2d2", "is_disabled": 0, "is_reserved": 0}, {"rental_uris": {"ios": "https://dc.lft.to/lastmile_qr_scan", "android": "https://dc.lft.to/lastmile_qr_scan"}, "lon": -77.07164366666666, "type": "electric_scooter", "fusion_lat": 0.0, "lat": 38.914564, "name": "caeb163d19b0b643abd2153b3d114b03", "fusion_lon": 0.0, "bike_id": "caeb163d19b0b643abd2153b3d114b03", "is_disabled": 0, "is_reserved": 0}, {"rental_uris": {"ios": "https://dc.lft.to/lastmile_qr_scan", "android": "https://dc.lft.to/lastmile_qr_scan"}, "lon": -77.03266483333333, "type": "electric_scooter", "fusion_lat": 0.0, "lat": 38.92773233333333, "name": "9518a4e836b11e8c79d3db9eafe740a8", "fusion_lon": 0.0, "bike_id": "9518a4e836b11e8c79d3db9eafe740a8", "is_disabled": 0, "is_reserved": 0}, {"rental_uris": {"ios": "https://dc.lft.to/lastmile_qr_scan", "android": "https://dc.lft.to/lastmile_qr_scan"}, "lon": -77.0695515, "type": "electric_scooter", "fusion_lat": 0.0, "lat": 38.9051535, "name": "3342a5e11b4042e965eb7153de5df13e", "fusion_lon": 0.0, "bike_id": "3342a5e11b4042e965eb7153de5df13e", "is_disabled": 0, "is_reserved": 0}, {"rental_uris": {"ios": "https://dc.lft.to/lastmile_qr_scan", "android": "https://dc.lft.to/lastmile_qr_scan"}, "lon": -77.00218283333334, "type": "electric_scooter", "fusion_lat": 0.0, "lat": 38.9119305, "name": "a2b85ac2578cc572f62c4b8e44ffee88", "fusion_lon": 0.0, "bike_id": "a2b85ac2578cc572f62c4b8e44ffee88", "is_disabled": 0, "is_reserved": 0}, {"rental_uris": {"ios": "https://dc.lft.to/lastmile_qr_scan", "android": "https://dc.lft.to/lastmile_qr_scan"}, "lon": -77.00766216666666, "type": "electric_scooter", "fusion_lat": 0.0, "lat": 38.90655783333333, "name": "4d71c2b362e1e82015e1351ccbaaf8be", "fusion_lon": 0.0, "bike_id": "4d71c2b362e1e82015e1351ccbaaf8be", "is_disabled": 0, "is_reserved": 0}, {"rental_uris": {"ios": "https://dc.lft.to/lastmile_qr_scan", "android": "https://dc.lft.to/lastmile_qr_scan"}, "lon": -77.03553433333333, "type": "electric_scooter", "fusion_lat": 0.0, "lat": 38.918042666666665, "name": "f3d0c3b886fcc8d44da6db922bd61f10", "fusion_lon": 0.0, "bike_id": "f3d0c3b886fcc8d44da6db922bd61f10", "is_disabled": 0, "is_reserved": 0}, {"rental_uris": {"ios": "https://dc.lft.to/lastmile_qr_scan", "android": "https://dc.lft.to/lastmile_qr_scan"}, "lon": -77.013699, "type": "electric_scooter", "fusion_lat": 0.0, "lat": 38.86371, "name": "fc4a247b3c409dc7ff768769b87907b6", "fusion_lon": 0.0, "bike_id": "fc4a247b3c409dc7ff768769b87907b6", "is_disabled": 0, "is_reserved": 0}, {"rental_uris": {"ios": "https://dc.lft.to/lastmile_qr_scan", "android": "https://dc.lft.to/lastmile_qr_scan"}, "lon": -77.01436116666666, "type": "electric_scooter", "fusion_lat": 0.0, "lat": 38.90645966666666, "name": "9357bbb3b70cb42b1f95a9a346f2537c", "fusion_lon": 0.0, "bike_id": "9357bbb3b70cb42b1f95a9a346f2537c", "is_disabled": 0, "is_reserved": 0}, {"rental_uris": {"ios": "https://dc.lft.to/lastmile_qr_scan", "android": "https://dc.lft.to/lastmile_qr_scan"}, "lon": -77.02063433333333, "type": "electric_scooter", "fusion_lat": 0.0, "lat": 38.894968666666664, "name": "bf1fd9c67525a437a2d8a2fd9ad7288c", "fusion_lon": 0.0, "bike_id": "bf1fd9c67525a437a2d8a2fd9ad7288c", "is_disabled": 0, "is_reserved": 0}, {"rental_uris": {"ios": "https://dc.lft.to/lastmile_qr_scan", "android": "https://dc.lft.to/lastmile_qr_scan"}, "lon": -77.01761466666666, "type": "electric_scooter", "fusion_lat": 0.0, "lat": 38.938920333333336, "name": "fe31046765ed18304d8210e760e6a9d0", "fusion_lon": 0.0, "bike_id": "fe31046765ed18304d8210e760e6a9d0", "is_disabled": 0, "is_reserved": 0}, {"rental_uris": {"ios": "https://dc.lft.to/lastmile_qr_scan", "android": "https://dc.lft.to/lastmile_qr_scan"}, "lon": -77.03243216666667, "type": "electric_scooter", "fusion_lat": 0.0, "lat": 38.915529166666666, "name": "4ae21f2e7177a11d8a7a81d90d4cee82", "fusion_lon": 0.0, "bike_id": "4ae21f2e7177a11d8a7a81d90d4cee82", "is_disabled": 0, "is_reserved": 0}, {"rental_uris": {"ios": "https://dc.lft.to/lastmile_qr_scan", "android": "https://dc.lft.to/lastmile_qr_scan"}, "lon": -77.02998816666667, "type": "electric_scooter", "fusion_lat": 0.0, "lat": 38.924797833333336, "name": "e36dcd9f7644c169c5fc691a37b6c23b", "fusion_lon": 0.0, "bike_id": "e36dcd9f7644c169c5fc691a37b6c23b", "is_disabled": 0, "is_reserved": 0}, {"rental_uris": {"ios": "https://dc.lft.to/lastmile_qr_scan", "android": "https://dc.lft.to/lastmile_qr_scan"}, "lon": -76.937966, "type": "electric_scooter", "fusion_lat": 0.0, "lat": 38.9128845, "name": "49a8f569475217e63b29b492d7d4687a", "fusion_lon": 0.0, "bike_id": "49a8f569475217e63b29b492d7d4687a", "is_disabled": 0, "is_reserved": 0}, {"rental_uris": {"ios": "https://dc.lft.to/lastmile_qr_scan", "android": "https://dc.lft.to/lastmile_qr_scan"}, "lon": -77.026137, "type": "electric_scooter", "fusion_lat": 0.0, "lat": 38.91689216666666, "name": "d6b0ea04938329e6647088e51b7f74fe", "fusion_lon": 0.0, "bike_id": "d6b0ea04938329e6647088e51b7f74fe", "is_disabled": 0, "is_reserved": 0}, {"rental_uris": {"ios": "https://dc.lft.to/lastmile_qr_scan", "android": "https://dc.lft.to/lastmile_qr_scan"}, "lon": -76.97889216666667, "type": "electric_scooter", "fusion_lat": 0.0, "lat": 38.916742, "name": "5d7ed35a039bd8f7c042b9e38cc4228f", "fusion_lon": 0.0, "bike_id": "5d7ed35a039bd8f7c042b9e38cc4228f", "is_disabled": 0, "is_reserved": 0}, {"rental_uris": {"ios": "https://dc.lft.to/lastmile_qr_scan", "android": "https://dc.lft.to/lastmile_qr_scan"}, "lon": -77.12742833333333, "type": "electric_bike", "fusion_lat": 0.0, "lat": 38.88818, "name": "0f19741821f87a824423403e77372353", "fusion_lon": 0.0, "bike_id": "0f19741821f87a824423403e77372353", "is_disabled": 0, "is_reserved": 0}, {"rental_uris": {"ios": "https://dc.lft.to/lastmile_qr_scan", "android": "https://dc.lft.to/lastmile_qr_scan"}, "lon": -76.98767933333333, "type": "electric_scooter", "fusion_lat": 0.0, "lat": 38.911772666666664, "name": "c8c8e1b70174f1175774a0374c372d45", "fusion_lon": 0.0, "bike_id": "c8c8e1b70174f1175774a0374c372d45", "is_disabled": 0, "is_reserved": 0}, {"rental_uris": {"ios": "https://dc.lft.to/lastmile_qr_scan", "android": "https://dc.lft.to/lastmile_qr_scan"}, "lon": -76.995474, "type": "electric_scooter", "fusion_lat": 0.0, "lat": 38.926645666666666, "name": "568cc02c87477360f8c8fdd4fce6df0b", "fusion_lon": 0.0, "bike_id": "568cc02c87477360f8c8fdd4fce6df0b", "is_disabled": 0, "is_reserved": 0}, {"rental_uris": {"ios": "https://dc.lft.to/lastmile_qr_scan", "android": "https://dc.lft.to/lastmile_qr_scan"}, "lon": -77.03222883333333, "type": "electric_scooter", "fusion_lat": 0.0, "lat": 38.918137333333334, "name": "4d456541afe59b30695d678ecb47ce41", "fusion_lon": 0.0, "bike_id": "4d456541afe59b30695d678ecb47ce41", "is_disabled": 0, "is_reserved": 0}, {"rental_uris": {"ios": "https://dc.lft.to/lastmile_qr_scan", "android": "https://dc.lft.to/lastmile_qr_scan"}, "lon": -77.0085705, "type": "electric_scooter", "fusion_lat": 0.0, "lat": 38.92592716666667, "name": "34be1cf43970ddf15589b01bfa6a6a16", "fusion_lon": 0.0, "bike_id": "34be1cf43970ddf15589b01bfa6a6a16", "is_disabled": 0, "is_reserved": 0}, {"rental_uris": {"ios": "https://dc.lft.to/lastmile_qr_scan", "android": "https://dc.lft.to/lastmile_qr_scan"}, "lon": -77.05142233333333, "type": "electric_scooter", "fusion_lat": 0.0, "lat": 38.90233666666666, "name": "150a78cec0f253670c01a99738fb67bf", "fusion_lon": 0.0, "bike_id": "150a78cec0f253670c01a99738fb67bf", "is_disabled": 0, "is_reserved": 0}, {"rental_uris": {"ios": "https://dc.lft.to/lastmile_qr_scan", "android": "https://dc.lft.to/lastmile_qr_scan"}, "lon": -77.08369766666667, "type": "electric_scooter", "fusion_lat": 0.0, "lat": 38.93032816666667, "name": "c4807c79ba75f8e227aa457db4818322", "fusion_lon": 0.0, "bike_id": "c4807c79ba75f8e227aa457db4818322", "is_disabled": 0, "is_reserved": 0}, {"rental_uris": {"ios": "https://dc.lft.to/lastmile_qr_scan", "android": "https://dc.lft.to/lastmile_qr_scan"}, "lon": -77.0395645, "type": "electric_scooter", "fusion_lat": 0.0, "lat": 38.8996915, "name": "f75458cb4ebf71881e9cef43466b8cce", "fusion_lon": 0.0, "bike_id": "f75458cb4ebf71881e9cef43466b8cce", "is_disabled": 0, "is_reserved": 0}, {"rental_uris": {"ios": "https://dc.lft.to/lastmile_qr_scan", "android": "https://dc.lft.to/lastmile_qr_scan"}, "lon": -77.05161433333333, "type": "electric_scooter", "fusion_lat": 0.0, "lat": 38.897551666666665, "name": "2164235c6877ba86d338543ea497a835", "fusion_lon": 0.0, "bike_id": "2164235c6877ba86d338543ea497a835", "is_disabled": 0, "is_reserved": 0}, {"rental_uris": {"ios": "https://dc.lft.to/lastmile_qr_scan", "android": "https://dc.lft.to/lastmile_qr_scan"}, "lon": -76.97563266666667, "type": "electric_scooter", "fusion_lat": 0.0, "lat": 38.9044625, "name": "70b3079f8dcf59a3888350124806dee7", "fusion_lon": 0.0, "bike_id": "70b3079f8dcf59a3888350124806dee7", "is_disabled": 0, "is_reserved": 0}, {"rental_uris": {"ios": "https://dc.lft.to/lastmile_qr_scan", "android": "https://dc.lft.to/lastmile_qr_scan"}, "lon": -77.01109033333333, "type": "electric_scooter", "fusion_lat": 0.0, "lat": 38.89508433333334, "name": "2c12ee1aacab58dbde4380537714026d", "fusion_lon": 0.0, "bike_id": "2c12ee1aacab58dbde4380537714026d", "is_disabled": 0, "is_reserved": 0}, {"rental_uris": {"ios": "https://dc.lft.to/lastmile_qr_scan", "android": "https://dc.lft.to/lastmile_qr_scan"}, "lon": -77.04295266666666, "type": "electric_scooter", "fusion_lat": 0.0, "lat": 38.90542033333333, "name": "74ff771c182d8f48cbab560be1782c4d", "fusion_lon": 0.0, "bike_id": "74ff771c182d8f48cbab560be1782c4d", "is_disabled": 0, "is_reserved": 0}, {"rental_uris": {"ios": "https://dc.lft.to/lastmile_qr_scan", "android": "https://dc.lft.to/lastmile_qr_scan"}, "lon": -77.00559183333333, "type": "electric_scooter", "fusion_lat": 0.0, "lat": 38.875568, "name": "6e87a891f5f2613824ea33a2a762cd25", "fusion_lon": 0.0, "bike_id": "6e87a891f5f2613824ea33a2a762cd25", "is_disabled": 0, "is_reserved": 0}, {"rental_uris": {"ios": "https://dc.lft.to/lastmile_qr_scan", "android": "https://dc.lft.to/lastmile_qr_scan"}, "lon": -76.98887933333333, "type": "electric_scooter", "fusion_lat": 0.0, "lat": 38.86660083333334, "name": "d541da98bc2c46e84aed35f0d55561ea", "fusion_lon": 0.0, "bike_id": "d541da98bc2c46e84aed35f0d55561ea", "is_disabled": 0, "is_reserved": 0}, {"rental_uris": {"ios": "https://dc.lft.to/lastmile_qr_scan", "android": "https://dc.lft.to/lastmile_qr_scan"}, "lon": -76.97801716666666, "type": "electric_scooter", "fusion_lat": 0.0, "lat": 38.9031515, "name": "5caf4b3067ddcfd57efe1aa7b849cb2e", "fusion_lon": 0.0, "bike_id": "5caf4b3067ddcfd57efe1aa7b849cb2e", "is_disabled": 0, "is_reserved": 0}, {"rental_uris": {"ios": "https://dc.lft.to/lastmile_qr_scan", "android": "https://dc.lft.to/lastmile_qr_scan"}, "lon": -76.98587083333334, "type": "electric_scooter", "fusion_lat": 0.0, "lat": 38.861542666666665, "name": "9a12d5191aec2029765d0a5bd33cb976", "fusion_lon": 0.0, "bike_id": "9a12d5191aec2029765d0a5bd33cb976", "is_disabled": 0, "is_reserved": 0}, {"rental_uris": {"ios": "https://dc.lft.to/lastmile_qr_scan", "android": "https://dc.lft.to/lastmile_qr_scan"}, "lon": -77.02326433333333, "type": "electric_scooter", "fusion_lat": 0.0, "lat": 38.87876816666667, "name": "9c86985dad3088f74df0ed74f66e7760", "fusion_lon": 0.0, "bike_id": "9c86985dad3088f74df0ed74f66e7760", "is_disabled": 0, "is_reserved": 0}, {"rental_uris": {"ios": "https://dc.lft.to/lastmile_qr_scan", "android": "https://dc.lft.to/lastmile_qr_scan"}, "lon": -76.99674533333334, "type": "electric_scooter", "fusion_lat": 0.0, "lat": 38.91010633333333, "name": "ba7f8dc8de7959f7b266b8b0204dffdd", "fusion_lon": 0.0, "bike_id": "ba7f8dc8de7959f7b266b8b0204dffdd", "is_disabled": 0, "is_reserved": 0}, {"rental_uris": {"ios": "https://dc.lft.to/lastmile_qr_scan", "android": "https://dc.lft.to/lastmile_qr_scan"}, "lon": -77.06106283333334, "type": "electric_scooter", "fusion_lat": 0.0, "lat": 38.93704366666667, "name": "4779620219e68e594456793663cef6df", "fusion_lon": 0.0, "bike_id": "4779620219e68e594456793663cef6df", "is_disabled": 0, "is_reserved": 0}, {"rental_uris": {"ios": "https://dc.lft.to/lastmile_qr_scan", "android": "https://dc.lft.to/lastmile_qr_scan"}, "lon": -76.9865715, "type": "electric_scooter", "fusion_lat": 0.0, "lat": 38.858030166666666, "name": "d9e1f20501588d06f2e6a34308573951", "fusion_lon": 0.0, "bike_id": "d9e1f20501588d06f2e6a34308573951", "is_disabled": 0, "is_reserved": 0}, {"rental_uris": {"ios": "https://dc.lft.to/lastmile_qr_scan", "android": "https://dc.lft.to/lastmile_qr_scan"}, "lon": -77.02725016666666, "type": "electric_scooter", "fusion_lat": 0.0, "lat": 38.93429016666666, "name": "2a5649449c8b650d8ae60260c17ca559", "fusion_lon": 0.0, "bike_id": "2a5649449c8b650d8ae60260c17ca559", "is_disabled": 0, "is_reserved": 0}, {"rental_uris": {"ios": "https://dc.lft.to/lastmile_qr_scan", "android": "https://dc.lft.to/lastmile_qr_scan"}, "lon": -76.96060333333334, "type": "electric_bike", "fusion_lat": 0.0, "lat": 38.884040166666665, "name": "daaab8ab768c0b46300e4b0dfcccb1bf", "fusion_lon": 0.0, "bike_id": "daaab8ab768c0b46300e4b0dfcccb1bf", "is_disabled": 0, "is_reserved": 0}, {"rental_uris": {"ios": "https://dc.lft.to/lastmile_qr_scan", "android": "https://dc.lft.to/lastmile_qr_scan"}, "lon": -76.99430733333334, "type": "electric_scooter", "fusion_lat": 0.0, "lat": 38.9001165, "name": "2b7e3fee6c0d4079b3c5caa7387232c2", "fusion_lon": 0.0, "bike_id": "2b7e3fee6c0d4079b3c5caa7387232c2", "is_disabled": 0, "is_reserved": 0}, {"rental_uris": {"ios": "https://dc.lft.to/lastmile_qr_scan", "android": "https://dc.lft.to/lastmile_qr_scan"}, "lon": -77.02715733333334, "type": "electric_scooter", "fusion_lat": 0.0, "lat": 38.916759, "name": "1bf5372288cdbcc2269d5e208fbc0230", "fusion_lon": 0.0, "bike_id": "1bf5372288cdbcc2269d5e208fbc0230", "is_disabled": 0, "is_reserved": 0}, {"rental_uris": {"ios": "https://dc.lft.to/lastmile_qr_scan", "android": "https://dc.lft.to/lastmile_qr_scan"}, "lon": -77.0529125, "type": "electric_scooter", "fusion_lat": 0.0, "lat": 38.910612, "name": "529109587b435e7b5786b77b61a67188", "fusion_lon": 0.0, "bike_id": "529109587b435e7b5786b77b61a67188", "is_disabled": 0, "is_reserved": 0}, {"rental_uris": {"ios": "https://dc.lft.to/lastmile_qr_scan", "android": "https://dc.lft.to/lastmile_qr_scan"}, "lon": -77.04381983333333, "type": "electric_scooter", "fusion_lat": 0.0, "lat": 38.9206575, "name": "45551eb4f5c06d958ede365b07fa7fc5", "fusion_lon": 0.0, "bike_id": "45551eb4f5c06d958ede365b07fa7fc5", "is_disabled": 0, "is_reserved": 0}, {"rental_uris": {"ios": "https://dc.lft.to/lastmile_qr_scan", "android": "https://dc.lft.to/lastmile_qr_scan"}, "lon": -77.02203033333333, "type": "electric_scooter", "fusion_lat": 0.0, "lat": 38.91616466666667, "name": "2d0d50c35a4a3f7688bc4bdd7f5fd028", "fusion_lon": 0.0, "bike_id": "2d0d50c35a4a3f7688bc4bdd7f5fd028", "is_disabled": 0, "is_reserved": 0}, {"rental_uris": {"ios": "https://dc.lft.to/lastmile_qr_scan", "android": "https://dc.lft.to/lastmile_qr_scan"}, "lon": -77.0091015, "type": "electric_scooter", "fusion_lat": 0.0, "lat": 38.89648483333333, "name": "7f9ae8a360cb271a7bfe5645c90ef6a1", "fusion_lon": 0.0, "bike_id": "7f9ae8a360cb271a7bfe5645c90ef6a1", "is_disabled": 0, "is_reserved": 0}, {"rental_uris": {"ios": "https://dc.lft.to/lastmile_qr_scan", "android": "https://dc.lft.to/lastmile_qr_scan"}, "lon": -77.03302633333334, "type": "electric_scooter", "fusion_lat": 0.0, "lat": 38.919795666666666, "name": "f1167cd320b3d50f8a7ba51b72a6167e", "fusion_lon": 0.0, "bike_id": "f1167cd320b3d50f8a7ba51b72a6167e", "is_disabled": 0, "is_reserved": 0}, {"rental_uris": {"ios": "https://dc.lft.to/lastmile_qr_scan", "android": "https://dc.lft.to/lastmile_qr_scan"}, "lon": -77.04860316666667, "type": "electric_scooter", "fusion_lat": 0.0, "lat": 38.90648183333333, "name": "da8bb291b5a507ae13a9cb8649fa226e", "fusion_lon": 0.0, "bike_id": "da8bb291b5a507ae13a9cb8649fa226e", "is_disabled": 0, "is_reserved": 0}, {"rental_uris": {"ios": "https://dc.lft.to/lastmile_qr_scan", "android": "https://dc.lft.to/lastmile_qr_scan"}, "lon": -77.04567, "type": "electric_scooter", "fusion_lat": 0.0, "lat": 38.914070333333335, "name": "3cfceed7e61d99abb1ee0b6ff197558d", "fusion_lon": 0.0, "bike_id": "3cfceed7e61d99abb1ee0b6ff197558d", "is_disabled": 0, "is_reserved": 0}, {"rental_uris": {"ios": "https://dc.lft.to/lastmile_qr_scan", "android": "https://dc.lft.to/lastmile_qr_scan"}, "lon": -77.04635716666667, "type": "electric_scooter", "fusion_lat": 0.0, "lat": 38.901303, "name": "20002fa457778802ec57fd1e55e73052", "fusion_lon": 0.0, "bike_id": "20002fa457778802ec57fd1e55e73052", "is_disabled": 0, "is_reserved": 0}, {"rental_uris": {"ios": "https://dc.lft.to/lastmile_qr_scan", "android": "https://dc.lft.to/lastmile_qr_scan"}, "lon": -76.94876166666667, "type": "electric_scooter", "fusion_lat": 0.0, "lat": 38.8948265, "name": "c6ed92d75168d3168031a78236f4ce72", "fusion_lon": 0.0, "bike_id": "c6ed92d75168d3168031a78236f4ce72", "is_disabled": 0, "is_reserved": 0}, {"rental_uris": {"ios": "https://dc.lft.to/lastmile_qr_scan", "android": "https://dc.lft.to/lastmile_qr_scan"}, "lon": -76.89539833333333, "type": "electric_bike", "fusion_lat": 0.0, "lat": 38.945516833333336, "name": "e541fa414f6c4c3aa5bc4b55b51eda9e", "fusion_lon": 0.0, "bike_id": "e541fa414f6c4c3aa5bc4b55b51eda9e", "is_disabled": 0, "is_reserved": 0}, {"rental_uris": {"ios": "https://dc.lft.to/lastmile_qr_scan", "android": "https://dc.lft.to/lastmile_qr_scan"}, "lon": -76.99149516666667, "type": "electric_scooter", "fusion_lat": 0.0, "lat": 38.89342633333333, "name": "4641773eafd8e9facc65b7ca030d2320", "fusion_lon": 0.0, "bike_id": "4641773eafd8e9facc65b7ca030d2320", "is_disabled": 0, "is_reserved": 0}, {"rental_uris": {"ios": "https://dc.lft.to/lastmile_qr_scan", "android": "https://dc.lft.to/lastmile_qr_scan"}, "lon": -77.043068, "type": "electric_scooter", "fusion_lat": 0.0, "lat": 38.905642666666665, "name": "0fef3898363a4a451c17ac6052cc9826", "fusion_lon": 0.0, "bike_id": "0fef3898363a4a451c17ac6052cc9826", "is_disabled": 0, "is_reserved": 0}, {"rental_uris": {"ios": "https://dc.lft.to/lastmile_qr_scan", "android": "https://dc.lft.to/lastmile_qr_scan"}, "lon": -77.04533966666666, "type": "electric_scooter", "fusion_lat": 0.0, "lat": 38.90383083333333, "name": "c0465f9a836dc4c9c066e70981474e2f", "fusion_lon": 0.0, "bike_id": "c0465f9a836dc4c9c066e70981474e2f", "is_disabled": 0, "is_reserved": 0}, {"rental_uris": {"ios": "https://dc.lft.to/lastmile_qr_scan", "android": "https://dc.lft.to/lastmile_qr_scan"}, "lon": -77.01222133333333, "type": "electric_scooter", "fusion_lat": 0.0, "lat": 38.920319166666665, "name": "fd6e4d7d7b6a44ca9e2fc612b53a0ecf", "fusion_lon": 0.0, "bike_id": "fd6e4d7d7b6a44ca9e2fc612b53a0ecf", "is_disabled": 0, "is_reserved": 0}, {"rental_uris": {"ios": "https://dc.lft.to/lastmile_qr_scan", "android": "https://dc.lft.to/lastmile_qr_scan"}, "lon": -77.00156516666667, "type": "electric_scooter", "fusion_lat": 0.0, "lat": 38.8729145, "name": "931a2c9fed7ffccf876a5a9619b8e40f", "fusion_lon": 0.0, "bike_id": "931a2c9fed7ffccf876a5a9619b8e40f", "is_disabled": 0, "is_reserved": 0}, {"rental_uris": {"ios": "https://dc.lft.to/lastmile_qr_scan", "android": "https://dc.lft.to/lastmile_qr_scan"}, "lon": -76.97670816666667, "type": "electric_scooter", "fusion_lat": 0.0, "lat": 38.89620683333333, "name": "14ba8372f3b7baf3c73470c8494d54aa", "fusion_lon": 0.0, "bike_id": "14ba8372f3b7baf3c73470c8494d54aa", "is_disabled": 0, "is_reserved": 0}, {"rental_uris": {"ios": "https://dc.lft.to/lastmile_qr_scan", "android": "https://dc.lft.to/lastmile_qr_scan"}, "lon": -77.02146333333333, "type": "electric_bike", "fusion_lat": 0.0, "lat": 38.97328983333333, "name": "b28c59e4f5c92a194c27adb312e9e928", "fusion_lon": 0.0, "bike_id": "b28c59e4f5c92a194c27adb312e9e928", "is_disabled": 0, "is_reserved": 0}, {"rental_uris": {"ios": "https://dc.lft.to/lastmile_qr_scan", "android": "https://dc.lft.to/lastmile_qr_scan"}, "lon": -77.02462816666667, "type": "electric_scooter", "fusion_lat": 0.0, "lat": 38.91700633333333, "name": "dbe3c045f525ac3ba40d9d41aa7deaf2", "fusion_lon": 0.0, "bike_id": "dbe3c045f525ac3ba40d9d41aa7deaf2", "is_disabled": 0, "is_reserved": 0}, {"rental_uris": {"ios": "https://dc.lft.to/lastmile_qr_scan", "android": "https://dc.lft.to/lastmile_qr_scan"}, "lon": -77.04010016666666, "type": "electric_scooter", "fusion_lat": 0.0, "lat": 38.93253766666667, "name": "dd895ba2f8ef84599d2c9a589f0964ae", "fusion_lon": 0.0, "bike_id": "dd895ba2f8ef84599d2c9a589f0964ae", "is_disabled": 0, "is_reserved": 0}, {"rental_uris": {"ios": "https://dc.lft.to/lastmile_qr_scan", "android": "https://dc.lft.to/lastmile_qr_scan"}, "lon": -77.00347533333333, "type": "electric_scooter", "fusion_lat": 0.0, "lat": 38.91346133333333, "name": "ff32f36dbf88954f3ddd6639729cc48c", "fusion_lon": 0.0, "bike_id": "ff32f36dbf88954f3ddd6639729cc48c", "is_disabled": 0, "is_reserved": 0}, {"rental_uris": {"ios": "https://dc.lft.to/lastmile_qr_scan", "android": "https://dc.lft.to/lastmile_qr_scan"}, "lon": -77.05009366666667, "type": "electric_scooter", "fusion_lat": 0.0, "lat": 38.907298833333336, "name": "01f4d02d23dfbe510c96c75e8afebf5a", "fusion_lon": 0.0, "bike_id": "01f4d02d23dfbe510c96c75e8afebf5a", "is_disabled": 0, "is_reserved": 0}, {"rental_uris": {"ios": "https://dc.lft.to/lastmile_qr_scan", "android": "https://dc.lft.to/lastmile_qr_scan"}, "lon": -76.99686716666666, "type": "electric_scooter", "fusion_lat": 0.0, "lat": 38.90016416666667, "name": "eba198bdb44e7fc27ec6b197cf7eff2c", "fusion_lon": 0.0, "bike_id": "eba198bdb44e7fc27ec6b197cf7eff2c", "is_disabled": 0, "is_reserved": 0}, {"rental_uris": {"ios": "https://dc.lft.to/lastmile_qr_scan", "android": "https://dc.lft.to/lastmile_qr_scan"}, "lon": -77.01108716666667, "type": "electric_scooter", "fusion_lat": 0.0, "lat": 38.900132666666664, "name": "bd4298a4ac263a8e4007760c61ac4f9f", "fusion_lon": 0.0, "bike_id": "bd4298a4ac263a8e4007760c61ac4f9f", "is_disabled": 0, "is_reserved": 0}, {"rental_uris": {"ios": "https://dc.lft.to/lastmile_qr_scan", "android": "https://dc.lft.to/lastmile_qr_scan"}, "lon": -77.04641233333334, "type": "electric_scooter", "fusion_lat": 0.0, "lat": 38.892287833333334, "name": "ec0f4dc12914fcc889b1a3225ddbfbfc", "fusion_lon": 0.0, "bike_id": "ec0f4dc12914fcc889b1a3225ddbfbfc", "is_disabled": 0, "is_reserved": 0}, {"rental_uris": {"ios": "https://dc.lft.to/lastmile_qr_scan", "android": "https://dc.lft.to/lastmile_qr_scan"}, "lon": -77.0178845, "type": "electric_scooter", "fusion_lat": 0.0, "lat": 38.902553833333336, "name": "fe09fa4ca18892d3934b8aedf3782364", "fusion_lon": 0.0, "bike_id": "fe09fa4ca18892d3934b8aedf3782364", "is_disabled": 0, "is_reserved": 0}, {"rental_uris": {"ios": "https://dc.lft.to/lastmile_qr_scan", "android": "https://dc.lft.to/lastmile_qr_scan"}, "lon": -77.02026416666666, "type": "electric_scooter", "fusion_lat": 0.0, "lat": 38.916436166666664, "name": "3bf3046f318d2817d6e1a7571ce172ae", "fusion_lon": 0.0, "bike_id": "3bf3046f318d2817d6e1a7571ce172ae", "is_disabled": 0, "is_reserved": 0}, {"rental_uris": {"ios": "https://dc.lft.to/lastmile_qr_scan", "android": "https://dc.lft.to/lastmile_qr_scan"}, "lon": -76.9675565, "type": "electric_bike", "fusion_lat": 0.0, "lat": 38.87548833333334, "name": "bf4e73ff567a9a44c667d06759131b31", "fusion_lon": 0.0, "bike_id": "bf4e73ff567a9a44c667d06759131b31", "is_disabled": 0, "is_reserved": 0}, {"rental_uris": {"ios": "https://dc.lft.to/lastmile_qr_scan", "android": "https://dc.lft.to/lastmile_qr_scan"}, "lon": -77.0667475, "type": "electric_scooter", "fusion_lat": 0.0, "lat": 38.905207833333336, "name": "fc44147b5cf608e20b1e38108236c13f", "fusion_lon": 0.0, "bike_id": "fc44147b5cf608e20b1e38108236c13f", "is_disabled": 0, "is_reserved": 0}, {"rental_uris": {"ios": "https://dc.lft.to/lastmile_qr_scan", "android": "https://dc.lft.to/lastmile_qr_scan"}, "lon": -77.03219983333334, "type": "electric_scooter", "fusion_lat": 0.0, "lat": 38.911948833333334, "name": "10fc87e180d6a35d35e8be6cc4ce705d", "fusion_lon": 0.0, "bike_id": "10fc87e180d6a35d35e8be6cc4ce705d", "is_disabled": 0, "is_reserved": 0}, {"rental_uris": {"ios": "https://dc.lft.to/lastmile_qr_scan", "android": "https://dc.lft.to/lastmile_qr_scan"}, "lon": -77.03265683333333, "type": "electric_scooter", "fusion_lat": 0.0, "lat": 38.92533816666667, "name": "093116f49f11bf71a7d3a33c31a45b1c", "fusion_lon": 0.0, "bike_id": "093116f49f11bf71a7d3a33c31a45b1c", "is_disabled": 0, "is_reserved": 0}, {"rental_uris": {"ios": "https://dc.lft.to/lastmile_qr_scan", "android": "https://dc.lft.to/lastmile_qr_scan"}, "lon": -77.0396435, "type": "electric_scooter", "fusion_lat": 0.0, "lat": 38.89859533333333, "name": "54e4e92814464979119c86e24ef368fc", "fusion_lon": 0.0, "bike_id": "54e4e92814464979119c86e24ef368fc", "is_disabled": 0, "is_reserved": 0}, {"rental_uris": {"ios": "https://dc.lft.to/lastmile_qr_scan", "android": "https://dc.lft.to/lastmile_qr_scan"}, "lon": -77.00658016666667, "type": "electric_scooter", "fusion_lat": 0.0, "lat": 38.944617666666666, "name": "3b85d032a859cdb524daa3466c51242a", "fusion_lon": 0.0, "bike_id": "3b85d032a859cdb524daa3466c51242a", "is_disabled": 0, "is_reserved": 0}, {"rental_uris": {"ios": "https://dc.lft.to/lastmile_qr_scan", "android": "https://dc.lft.to/lastmile_qr_scan"}, "lon": -76.94882083333333, "type": "electric_scooter", "fusion_lat": 0.0, "lat": 38.895008, "name": "129d6c8f70af251f1a2b8f63ac2cd9ae", "fusion_lon": 0.0, "bike_id": "129d6c8f70af251f1a2b8f63ac2cd9ae", "is_disabled": 0, "is_reserved": 0}, {"rental_uris": {"ios": "https://dc.lft.to/lastmile_qr_scan", "android": "https://dc.lft.to/lastmile_qr_scan"}, "lon": -77.02600166666667, "type": "electric_scooter", "fusion_lat": 0.0, "lat": 38.9062075, "name": "ddfda7a036ae731a4e633e6389a2659a", "fusion_lon": 0.0, "bike_id": "ddfda7a036ae731a4e633e6389a2659a", "is_disabled": 0, "is_reserved": 0}, {"rental_uris": {"ios": "https://dc.lft.to/lastmile_qr_scan", "android": "https://dc.lft.to/lastmile_qr_scan"}, "lon": -77.023935, "type": "electric_scooter", "fusion_lat": 0.0, "lat": 38.917881, "name": "eda6c36796b26cbf1e24825c312f7273", "fusion_lon": 0.0, "bike_id": "eda6c36796b26cbf1e24825c312f7273", "is_disabled": 0, "is_reserved": 0}, {"rental_uris": {"ios": "https://dc.lft.to/lastmile_qr_scan", "android": "https://dc.lft.to/lastmile_qr_scan"}, "lon": -77.0435525, "type": "electric_scooter", "fusion_lat": 0.0, "lat": 38.915981, "name": "b8d7062e6f2cca4c6552ac9a9048aaf4", "fusion_lon": 0.0, "bike_id": "b8d7062e6f2cca4c6552ac9a9048aaf4", "is_disabled": 0, "is_reserved": 0}, {"rental_uris": {"ios": "https://dc.lft.to/lastmile_qr_scan", "android": "https://dc.lft.to/lastmile_qr_scan"}, "lon": -77.106828, "type": "electric_bike", "fusion_lat": 0.0, "lat": 38.9358135, "name": "db049ee4efc1a2a9ba55410d858591e6", "fusion_lon": 0.0, "bike_id": "db049ee4efc1a2a9ba55410d858591e6", "is_disabled": 0, "is_reserved": 0}, {"rental_uris": {"ios": "https://dc.lft.to/lastmile_qr_scan", "android": "https://dc.lft.to/lastmile_qr_scan"}, "lon": -77.0232215, "type": "electric_scooter", "fusion_lat": 0.0, "lat": 38.93059816666667, "name": "854cfac3fd19691cf0bd4a46afec10a6", "fusion_lon": 0.0, "bike_id": "854cfac3fd19691cf0bd4a46afec10a6", "is_disabled": 0, "is_reserved": 0}, {"rental_uris": {"ios": "https://dc.lft.to/lastmile_qr_scan", "android": "https://dc.lft.to/lastmile_qr_scan"}, "lon": -77.04335516666667, "type": "electric_scooter", "fusion_lat": 0.0, "lat": 38.89579616666666, "name": "57855972cda18be10b3156790af31424", "fusion_lon": 0.0, "bike_id": "57855972cda18be10b3156790af31424", "is_disabled": 0, "is_reserved": 0}, {"rental_uris": {"ios": "https://dc.lft.to/lastmile_qr_scan", "android": "https://dc.lft.to/lastmile_qr_scan"}, "lon": -77.02968933333334, "type": "electric_scooter", "fusion_lat": 0.0, "lat": 38.91291783333333, "name": "b66b542b036e0182985932f24661fd9e", "fusion_lon": 0.0, "bike_id": "b66b542b036e0182985932f24661fd9e", "is_disabled": 0, "is_reserved": 0}, {"rental_uris": {"ios": "https://dc.lft.to/lastmile_qr_scan", "android": "https://dc.lft.to/lastmile_qr_scan"}, "lon": -77.0425365, "type": "electric_scooter", "fusion_lat": 0.0, "lat": 38.9028795, "name": "fe108f39d8ed84991c792cadd6f9a2ed", "fusion_lon": 0.0, "bike_id": "fe108f39d8ed84991c792cadd6f9a2ed", "is_disabled": 0, "is_reserved": 0}, {"rental_uris": {"ios": "https://dc.lft.to/lastmile_qr_scan", "android": "https://dc.lft.to/lastmile_qr_scan"}, "lon": -77.002576, "type": "electric_scooter", "fusion_lat": 0.0, "lat": 38.91819866666667, "name": "14f107b5ed848f3a5638754766a60e4e", "fusion_lon": 0.0, "bike_id": "14f107b5ed848f3a5638754766a60e4e", "is_disabled": 0, "is_reserved": 0}, {"rental_uris": {"ios": "https://dc.lft.to/lastmile_qr_scan", "android": "https://dc.lft.to/lastmile_qr_scan"}, "lon": -77.029689, "type": "electric_scooter", "fusion_lat": 0.0, "lat": 38.93606666666667, "name": "3c9f1a364d1649cbeddc2b41bc5a3b7a", "fusion_lon": 0.0, "bike_id": "3c9f1a364d1649cbeddc2b41bc5a3b7a", "is_disabled": 0, "is_reserved": 0}, {"rental_uris": {"ios": "https://dc.lft.to/lastmile_qr_scan", "android": "https://dc.lft.to/lastmile_qr_scan"}, "lon": -77.032206, "type": "electric_scooter", "fusion_lat": 0.0, "lat": 38.918116166666664, "name": "61f3d1b38af8cbb5952a58c93edb0f07", "fusion_lon": 0.0, "bike_id": "61f3d1b38af8cbb5952a58c93edb0f07", "is_disabled": 0, "is_reserved": 0}, {"rental_uris": {"ios": "https://dc.lft.to/lastmile_qr_scan", "android": "https://dc.lft.to/lastmile_qr_scan"}, "lon": -77.0559745, "type": "electric_scooter", "fusion_lat": 0.0, "lat": 38.936996, "name": "e016d0acbcf4ebc104485833ae5b5d01", "fusion_lon": 0.0, "bike_id": "e016d0acbcf4ebc104485833ae5b5d01", "is_disabled": 0, "is_reserved": 0}, {"rental_uris": {"ios": "https://dc.lft.to/lastmile_qr_scan", "android": "https://dc.lft.to/lastmile_qr_scan"}, "lon": -77.00211083333333, "type": "electric_scooter", "fusion_lat": 0.0, "lat": 38.90029783333333, "name": "8fe06c8f47189c543862c5c854cf1de7", "fusion_lon": 0.0, "bike_id": "8fe06c8f47189c543862c5c854cf1de7", "is_disabled": 0, "is_reserved": 0}, {"rental_uris": {"ios": "https://dc.lft.to/lastmile_qr_scan", "android": "https://dc.lft.to/lastmile_qr_scan"}, "lon": -77.03867333333334, "type": "electric_scooter", "fusion_lat": 0.0, "lat": 38.92034433333333, "name": "133415a31e78293598200435afcaa696", "fusion_lon": 0.0, "bike_id": "133415a31e78293598200435afcaa696", "is_disabled": 0, "is_reserved": 0}, {"rental_uris": {"ios": "https://dc.lft.to/lastmile_qr_scan", "android": "https://dc.lft.to/lastmile_qr_scan"}, "lon": -77.00323266666666, "type": "electric_scooter", "fusion_lat": 0.0, "lat": 38.90902533333333, "name": "844eab2482c4517e8dabf7177191a3c2", "fusion_lon": 0.0, "bike_id": "844eab2482c4517e8dabf7177191a3c2", "is_disabled": 0, "is_reserved": 0}, {"rental_uris": {"ios": "https://dc.lft.to/lastmile_qr_scan", "android": "https://dc.lft.to/lastmile_qr_scan"}, "lon": -77.02389233333334, "type": "electric_scooter", "fusion_lat": 0.0, "lat": 38.91566233333333, "name": "eadfc3d2216fdc598564ba9707f915bc", "fusion_lon": 0.0, "bike_id": "eadfc3d2216fdc598564ba9707f915bc", "is_disabled": 0, "is_reserved": 0}, {"rental_uris": {"ios": "https://dc.lft.to/lastmile_qr_scan", "android": "https://dc.lft.to/lastmile_qr_scan"}, "lon": -77.03435216666666, "type": "electric_scooter", "fusion_lat": 0.0, "lat": 38.90974766666667, "name": "ed98bca4a17649fd7e8e3194b012798e", "fusion_lon": 0.0, "bike_id": "ed98bca4a17649fd7e8e3194b012798e", "is_disabled": 0, "is_reserved": 0}, {"rental_uris": {"ios": "https://dc.lft.to/lastmile_qr_scan", "android": "https://dc.lft.to/lastmile_qr_scan"}, "lon": -77.02741083333333, "type": "electric_scooter", "fusion_lat": 0.0, "lat": 38.93335783333333, "name": "b4f33853c0287cfd170f62d0bd76fbd7", "fusion_lon": 0.0, "bike_id": "b4f33853c0287cfd170f62d0bd76fbd7", "is_disabled": 0, "is_reserved": 0}, {"rental_uris": {"ios": "https://dc.lft.to/lastmile_qr_scan", "android": "https://dc.lft.to/lastmile_qr_scan"}, "lon": -77.03164183333334, "type": "electric_scooter", "fusion_lat": 0.0, "lat": 38.91556583333333, "name": "0bf7cecb0de7a3ecb7dea2fdf30dee81", "fusion_lon": 0.0, "bike_id": "0bf7cecb0de7a3ecb7dea2fdf30dee81", "is_disabled": 0, "is_reserved": 0}, {"rental_uris": {"ios": "https://dc.lft.to/lastmile_qr_scan", "android": "https://dc.lft.to/lastmile_qr_scan"}, "lon": -76.9952015, "type": "electric_scooter", "fusion_lat": 0.0, "lat": 38.8626015, "name": "3b842451d7990ae420c9c76813a74beb", "fusion_lon": 0.0, "bike_id": "3b842451d7990ae420c9c76813a74beb", "is_disabled": 0, "is_reserved": 0}, {"rental_uris": {"ios": "https://dc.lft.to/lastmile_qr_scan", "android": "https://dc.lft.to/lastmile_qr_scan"}, "lon": -77.03664316666666, "type": "electric_scooter", "fusion_lat": 0.0, "lat": 38.932042333333335, "name": "bf0ac7bdbdd341f277250fe2a9eb30e0", "fusion_lon": 0.0, "bike_id": "bf0ac7bdbdd341f277250fe2a9eb30e0", "is_disabled": 0, "is_reserved": 0}, {"rental_uris": {"ios": "https://dc.lft.to/lastmile_qr_scan", "android": "https://dc.lft.to/lastmile_qr_scan"}, "lon": -77.02352583333334, "type": "electric_scooter", "fusion_lat": 0.0, "lat": 38.945099, "name": "1027083adf679217bbce8003fb812cf0", "fusion_lon": 0.0, "bike_id": "1027083adf679217bbce8003fb812cf0", "is_disabled": 0, "is_reserved": 0}, {"rental_uris": {"ios": "https://dc.lft.to/lastmile_qr_scan", "android": "https://dc.lft.to/lastmile_qr_scan"}, "lon": -77.05001966666667, "type": "electric_scooter", "fusion_lat": 0.0, "lat": 38.89231016666667, "name": "b4690ab6f21d43dd3c49f540b38e6649", "fusion_lon": 0.0, "bike_id": "b4690ab6f21d43dd3c49f540b38e6649", "is_disabled": 0, "is_reserved": 0}, {"rental_uris": {"ios": "https://dc.lft.to/lastmile_qr_scan", "android": "https://dc.lft.to/lastmile_qr_scan"}, "lon": -77.0400585, "type": "electric_scooter", "fusion_lat": 0.0, "lat": 38.918150833333335, "name": "cfd1a1cf899a82cbfee3f30d48ae2f0e", "fusion_lon": 0.0, "bike_id": "cfd1a1cf899a82cbfee3f30d48ae2f0e", "is_disabled": 0, "is_reserved": 0}, {"rental_uris": {"ios": "https://dc.lft.to/lastmile_qr_scan", "android": "https://dc.lft.to/lastmile_qr_scan"}, "lon": -77.033804, "type": "electric_scooter", "fusion_lat": 0.0, "lat": 38.90819333333334, "name": "8dc7781dd9c96d37633c16ff3db260db", "fusion_lon": 0.0, "bike_id": "8dc7781dd9c96d37633c16ff3db260db", "is_disabled": 0, "is_reserved": 0}, {"rental_uris": {"ios": "https://dc.lft.to/lastmile_qr_scan", "android": "https://dc.lft.to/lastmile_qr_scan"}, "lon": -77.02598266666666, "type": "electric_scooter", "fusion_lat": 0.0, "lat": 38.90169683333333, "name": "d96a3c0af4ad9e914a1f834820e14ef2", "fusion_lon": 0.0, "bike_id": "d96a3c0af4ad9e914a1f834820e14ef2", "is_disabled": 0, "is_reserved": 0}, {"rental_uris": {"ios": "https://dc.lft.to/lastmile_qr_scan", "android": "https://dc.lft.to/lastmile_qr_scan"}, "lon": -77.031698, "type": "electric_scooter", "fusion_lat": 0.0, "lat": 38.883402, "name": "ca352988a2ff9f6ff18beb70b271f6f0", "fusion_lon": 0.0, "bike_id": "ca352988a2ff9f6ff18beb70b271f6f0", "is_disabled": 0, "is_reserved": 0}, {"rental_uris": {"ios": "https://dc.lft.to/lastmile_qr_scan", "android": "https://dc.lft.to/lastmile_qr_scan"}, "lon": -77.01173416666667, "type": "electric_bike", "fusion_lat": 0.0, "lat": 38.872348333333335, "name": "1260782075fe9f38cd188e2b7ea7c717", "fusion_lon": 0.0, "bike_id": "1260782075fe9f38cd188e2b7ea7c717", "is_disabled": 0, "is_reserved": 0}, {"rental_uris": {"ios": "https://dc.lft.to/lastmile_qr_scan", "android": "https://dc.lft.to/lastmile_qr_scan"}, "lon": -76.97337033333334, "type": "electric_scooter", "fusion_lat": 0.0, "lat": 38.86512483333333, "name": "9472284e500ee8aa57f75e64cb7b28ad", "fusion_lon": 0.0, "bike_id": "9472284e500ee8aa57f75e64cb7b28ad", "is_disabled": 0, "is_reserved": 0}, {"rental_uris": {"ios": "https://dc.lft.to/lastmile_qr_scan", "android": "https://dc.lft.to/lastmile_qr_scan"}, "lon": -77.0468215, "type": "electric_scooter", "fusion_lat": 0.0, "lat": 38.89269633333333, "name": "493d7eec4e761123874947f3c62e9c0f", "fusion_lon": 0.0, "bike_id": "493d7eec4e761123874947f3c62e9c0f", "is_disabled": 0, "is_reserved": 0}, {"rental_uris": {"ios": "https://dc.lft.to/lastmile_qr_scan", "android": "https://dc.lft.to/lastmile_qr_scan"}, "lon": -77.04654583333334, "type": "electric_scooter", "fusion_lat": 0.0, "lat": 38.934323166666665, "name": "ab932e73f436a8a80ee3aa51f417a50b", "fusion_lon": 0.0, "bike_id": "ab932e73f436a8a80ee3aa51f417a50b", "is_disabled": 0, "is_reserved": 0}, {"rental_uris": {"ios": "https://dc.lft.to/lastmile_qr_scan", "android": "https://dc.lft.to/lastmile_qr_scan"}, "lon": -76.9732415, "type": "electric_bike", "fusion_lat": 0.0, "lat": 38.91766783333333, "name": "3787f8903d93c89ae4e197cf3793e8ea", "fusion_lon": 0.0, "bike_id": "3787f8903d93c89ae4e197cf3793e8ea", "is_disabled": 0, "is_reserved": 0}, {"rental_uris": {"ios": "https://dc.lft.to/lastmile_qr_scan", "android": "https://dc.lft.to/lastmile_qr_scan"}, "lon": -77.023145, "type": "electric_scooter", "fusion_lat": 0.0, "lat": 38.881867166666666, "name": "b95337d3e01376d70f89e3ef892f6f1b", "fusion_lon": 0.0, "bike_id": "b95337d3e01376d70f89e3ef892f6f1b", "is_disabled": 0, "is_reserved": 0}, {"rental_uris": {"ios": "https://dc.lft.to/lastmile_qr_scan", "android": "https://dc.lft.to/lastmile_qr_scan"}, "lon": -77.04506166666667, "type": "electric_scooter", "fusion_lat": 0.0, "lat": 38.90846533333333, "name": "b0f6e0f4b0f3ddfb0d59bece7f18bfdf", "fusion_lon": 0.0, "bike_id": "b0f6e0f4b0f3ddfb0d59bece7f18bfdf", "is_disabled": 0, "is_reserved": 0}, {"rental_uris": {"ios": "https://dc.lft.to/lastmile_qr_scan", "android": "https://dc.lft.to/lastmile_qr_scan"}, "lon": -77.02498266666667, "type": "electric_scooter", "fusion_lat": 0.0, "lat": 38.918065166666665, "name": "9aca42f7f689d7d8adb017a4b1bb0d51", "fusion_lon": 0.0, "bike_id": "9aca42f7f689d7d8adb017a4b1bb0d51", "is_disabled": 0, "is_reserved": 0}, {"rental_uris": {"ios": "https://dc.lft.to/lastmile_qr_scan", "android": "https://dc.lft.to/lastmile_qr_scan"}, "lon": -77.02629183333333, "type": "electric_scooter", "fusion_lat": 0.0, "lat": 38.915624, "name": "3b00d0c4af212a35b2ab815b4ffd3fda", "fusion_lon": 0.0, "bike_id": "3b00d0c4af212a35b2ab815b4ffd3fda", "is_disabled": 0, "is_reserved": 0}, {"rental_uris": {"ios": "https://dc.lft.to/lastmile_qr_scan", "android": "https://dc.lft.to/lastmile_qr_scan"}, "lon": -77.0221265, "type": "electric_scooter", "fusion_lat": 0.0, "lat": 38.878963166666665, "name": "59ef1207bf2c5c52360dfaa58d6baff2", "fusion_lon": 0.0, "bike_id": "59ef1207bf2c5c52360dfaa58d6baff2", "is_disabled": 0, "is_reserved": 0}, {"rental_uris": {"ios": "https://dc.lft.to/lastmile_qr_scan", "android": "https://dc.lft.to/lastmile_qr_scan"}, "lon": -77.0270005, "type": "electric_scooter", "fusion_lat": 0.0, "lat": 38.941845, "name": "842fef14864f960ddce0061adab62c60", "fusion_lon": 0.0, "bike_id": "842fef14864f960ddce0061adab62c60", "is_disabled": 0, "is_reserved": 0}, {"rental_uris": {"ios": "https://dc.lft.to/lastmile_qr_scan", "android": "https://dc.lft.to/lastmile_qr_scan"}, "lon": -77.04773033333333, "type": "electric_scooter", "fusion_lat": 0.0, "lat": 38.896562, "name": "07849f01e7f90873536d23b5e8a46557", "fusion_lon": 0.0, "bike_id": "07849f01e7f90873536d23b5e8a46557", "is_disabled": 0, "is_reserved": 0}, {"rental_uris": {"ios": "https://dc.lft.to/lastmile_qr_scan", "android": "https://dc.lft.to/lastmile_qr_scan"}, "lon": -77.00592733333333, "type": "electric_scooter", "fusion_lat": 0.0, "lat": 38.91561333333333, "name": "bf5bb2a035fcf056c2bddc5d0fe32154", "fusion_lon": 0.0, "bike_id": "bf5bb2a035fcf056c2bddc5d0fe32154", "is_disabled": 0, "is_reserved": 0}, {"rental_uris": {"ios": "https://dc.lft.to/lastmile_qr_scan", "android": "https://dc.lft.to/lastmile_qr_scan"}, "lon": -77.125052, "type": "electric_bike", "fusion_lat": 0.0, "lat": 39.0241845, "name": "36c2d0ba184c5e4fd74b9e361a3b35f0", "fusion_lon": 0.0, "bike_id": "36c2d0ba184c5e4fd74b9e361a3b35f0", "is_disabled": 0, "is_reserved": 0}, {"rental_uris": {"ios": "https://dc.lft.to/lastmile_qr_scan", "android": "https://dc.lft.to/lastmile_qr_scan"}, "lon": -77.0388245, "type": "electric_scooter", "fusion_lat": 0.0, "lat": 38.90269983333334, "name": "0f36d882fe60abb687d8623c489464b6", "fusion_lon": 0.0, "bike_id": "0f36d882fe60abb687d8623c489464b6", "is_disabled": 0, "is_reserved": 0}, {"rental_uris": {"ios": "https://dc.lft.to/lastmile_qr_scan", "android": "https://dc.lft.to/lastmile_qr_scan"}, "lon": -77.04141733333333, "type": "electric_scooter", "fusion_lat": 0.0, "lat": 38.908996, "name": "6383c895adb42f9131962a0fc320a79a", "fusion_lon": 0.0, "bike_id": "6383c895adb42f9131962a0fc320a79a", "is_disabled": 0, "is_reserved": 0}, {"rental_uris": {"ios": "https://dc.lft.to/lastmile_qr_scan", "android": "https://dc.lft.to/lastmile_qr_scan"}, "lon": -76.99797733333334, "type": "electric_scooter", "fusion_lat": 0.0, "lat": 38.92926166666667, "name": "f1d90cdaf009a675c7d8045b3521c201", "fusion_lon": 0.0, "bike_id": "f1d90cdaf009a675c7d8045b3521c201", "is_disabled": 0, "is_reserved": 0}, {"rental_uris": {"ios": "https://dc.lft.to/lastmile_qr_scan", "android": "https://dc.lft.to/lastmile_qr_scan"}, "lon": -77.01348683333333, "type": "electric_scooter", "fusion_lat": 0.0, "lat": 38.89572, "name": "f197bd84bc157d442c456f0fa6b7ff87", "fusion_lon": 0.0, "bike_id": "f197bd84bc157d442c456f0fa6b7ff87", "is_disabled": 0, "is_reserved": 0}, {"rental_uris": {"ios": "https://dc.lft.to/lastmile_qr_scan", "android": "https://dc.lft.to/lastmile_qr_scan"}, "lon": -77.11265283333333, "type": "electric_bike", "fusion_lat": 0.0, "lat": 38.8443085, "name": "bdeb078875ccfb492863f200bc9e0367", "fusion_lon": 0.0, "bike_id": "bdeb078875ccfb492863f200bc9e0367", "is_disabled": 0, "is_reserved": 0}, {"rental_uris": {"ios": "https://dc.lft.to/lastmile_qr_scan", "android": "https://dc.lft.to/lastmile_qr_scan"}, "lon": -77.032021, "type": "electric_scooter", "fusion_lat": 0.0, "lat": 38.9160695, "name": "7f3c0a7d547f45e52520bcb55365ad9d", "fusion_lon": 0.0, "bike_id": "7f3c0a7d547f45e52520bcb55365ad9d", "is_disabled": 0, "is_reserved": 0}, {"rental_uris": {"ios": "https://dc.lft.to/lastmile_qr_scan", "android": "https://dc.lft.to/lastmile_qr_scan"}, "lon": -77.10758633333333, "type": "electric_bike", "fusion_lat": 0.0, "lat": 38.8861445, "name": "2dc78ad6c7067b1c6034741341563563", "fusion_lon": 0.0, "bike_id": "2dc78ad6c7067b1c6034741341563563", "is_disabled": 0, "is_reserved": 0}, {"rental_uris": {"ios": "https://dc.lft.to/lastmile_qr_scan", "android": "https://dc.lft.to/lastmile_qr_scan"}, "lon": -77.13597833333333, "type": "electric_bike", "fusion_lat": 0.0, "lat": 39.05346633333333, "name": "3b6c4ab3f5487a6837587f0c79c40ece", "fusion_lon": 0.0, "bike_id": "3b6c4ab3f5487a6837587f0c79c40ece", "is_disabled": 0, "is_reserved": 0}, {"rental_uris": {"ios": "https://dc.lft.to/lastmile_qr_scan", "android": "https://dc.lft.to/lastmile_qr_scan"}, "lon": -77.07842166666667, "type": "electric_scooter", "fusion_lat": 0.0, "lat": 38.931453, "name": "c57d4ca074aa2b6fe62d95b77fff64a0", "fusion_lon": 0.0, "bike_id": "c57d4ca074aa2b6fe62d95b77fff64a0", "is_disabled": 0, "is_reserved": 0}, {"rental_uris": {"ios": "https://dc.lft.to/lastmile_qr_scan", "android": "https://dc.lft.to/lastmile_qr_scan"}, "lon": -76.98716566666667, "type": "electric_scooter", "fusion_lat": 0.0, "lat": 38.862665, "name": "3d5a889d4abc90390817c4343421b6f4", "fusion_lon": 0.0, "bike_id": "3d5a889d4abc90390817c4343421b6f4", "is_disabled": 0, "is_reserved": 0}, {"rental_uris": {"ios": "https://dc.lft.to/lastmile_qr_scan", "android": "https://dc.lft.to/lastmile_qr_scan"}, "lon": -77.01259066666667, "type": "electric_scooter", "fusion_lat": 0.0, "lat": 38.89966533333333, "name": "34ac0a97d804412f838ad2558e447ede", "fusion_lon": 0.0, "bike_id": "34ac0a97d804412f838ad2558e447ede", "is_disabled": 0, "is_reserved": 0}, {"rental_uris": {"ios": "https://dc.lft.to/lastmile_qr_scan", "android": "https://dc.lft.to/lastmile_qr_scan"}, "lon": -77.03123266666667, "type": "electric_scooter", "fusion_lat": 0.0, "lat": 38.904328166666666, "name": "406ff60bd73cbe84deaf5118f3387773", "fusion_lon": 0.0, "bike_id": "406ff60bd73cbe84deaf5118f3387773", "is_disabled": 0, "is_reserved": 0}, {"rental_uris": {"ios": "https://dc.lft.to/lastmile_qr_scan", "android": "https://dc.lft.to/lastmile_qr_scan"}, "lon": -77.01017933333334, "type": "electric_scooter", "fusion_lat": 0.0, "lat": 38.89495216666667, "name": "39be6633ef36ffcf10379d0aed0842e7", "fusion_lon": 0.0, "bike_id": "39be6633ef36ffcf10379d0aed0842e7", "is_disabled": 0, "is_reserved": 0}, {"rental_uris": {"ios": "https://dc.lft.to/lastmile_qr_scan", "android": "https://dc.lft.to/lastmile_qr_scan"}, "lon": -77.02587233333334, "type": "electric_scooter", "fusion_lat": 0.0, "lat": 38.88672316666667, "name": "9936660f8c4c99c9d146c3724792693c", "fusion_lon": 0.0, "bike_id": "9936660f8c4c99c9d146c3724792693c", "is_disabled": 0, "is_reserved": 0}, {"rental_uris": {"ios": "https://dc.lft.to/lastmile_qr_scan", "android": "https://dc.lft.to/lastmile_qr_scan"}, "lon": -77.02167433333334, "type": "electric_scooter", "fusion_lat": 0.0, "lat": 38.9428965, "name": "3d9b68c830aea2b82d17173f235d4004", "fusion_lon": 0.0, "bike_id": "3d9b68c830aea2b82d17173f235d4004", "is_disabled": 0, "is_reserved": 0}, {"rental_uris": {"ios": "https://dc.lft.to/lastmile_qr_scan", "android": "https://dc.lft.to/lastmile_qr_scan"}, "lon": -76.96090133333334, "type": "electric_scooter", "fusion_lat": 0.0, "lat": 38.87417333333333, "name": "b14d1d40abbb229cd670c807e3e1adac", "fusion_lon": 0.0, "bike_id": "b14d1d40abbb229cd670c807e3e1adac", "is_disabled": 0, "is_reserved": 0}, {"rental_uris": {"ios": "https://dc.lft.to/lastmile_qr_scan", "android": "https://dc.lft.to/lastmile_qr_scan"}, "lon": -77.0331865, "type": "electric_scooter", "fusion_lat": 0.0, "lat": 38.899231, "name": "292fb8323c40ed08586a846f74a272e8", "fusion_lon": 0.0, "bike_id": "292fb8323c40ed08586a846f74a272e8", "is_disabled": 0, "is_reserved": 0}, {"rental_uris": {"ios": "https://dc.lft.to/lastmile_qr_scan", "android": "https://dc.lft.to/lastmile_qr_scan"}, "lon": -77.03807833333333, "type": "electric_scooter", "fusion_lat": 0.0, "lat": 38.93396766666667, "name": "f5f1a2a57e595aed83891b64675793e4", "fusion_lon": 0.0, "bike_id": "f5f1a2a57e595aed83891b64675793e4", "is_disabled": 0, "is_reserved": 0}, {"rental_uris": {"ios": "https://dc.lft.to/lastmile_qr_scan", "android": "https://dc.lft.to/lastmile_qr_scan"}, "lon": -77.0671255, "type": "electric_scooter", "fusion_lat": 0.0, "lat": 38.90976583333333, "name": "1b2d466578bfc22b2ce97d4b28ae77a5", "fusion_lon": 0.0, "bike_id": "1b2d466578bfc22b2ce97d4b28ae77a5", "is_disabled": 0, "is_reserved": 0}, {"rental_uris": {"ios": "https://dc.lft.to/lastmile_qr_scan", "android": "https://dc.lft.to/lastmile_qr_scan"}, "lon": -76.949971, "type": "electric_scooter", "fusion_lat": 0.0, "lat": 38.8937225, "name": "b95db2f30975a61671c9374853ee2ae4", "fusion_lon": 0.0, "bike_id": "b95db2f30975a61671c9374853ee2ae4", "is_disabled": 0, "is_reserved": 0}, {"rental_uris": {"ios": "https://dc.lft.to/lastmile_qr_scan", "android": "https://dc.lft.to/lastmile_qr_scan"}, "lon": -77.02550016666666, "type": "electric_scooter", "fusion_lat": 0.0, "lat": 38.941427166666664, "name": "56979e8ad0b1e73f94c20fc097fb1051", "fusion_lon": 0.0, "bike_id": "56979e8ad0b1e73f94c20fc097fb1051", "is_disabled": 0, "is_reserved": 0}, {"rental_uris": {"ios": "https://dc.lft.to/lastmile_qr_scan", "android": "https://dc.lft.to/lastmile_qr_scan"}, "lon": -77.019771, "type": "electric_scooter", "fusion_lat": 0.0, "lat": 38.901007166666666, "name": "371d004a27c3d5d157efd7a417b5a4d9", "fusion_lon": 0.0, "bike_id": "371d004a27c3d5d157efd7a417b5a4d9", "is_disabled": 0, "is_reserved": 0}, {"rental_uris": {"ios": "https://dc.lft.to/lastmile_qr_scan", "android": "https://dc.lft.to/lastmile_qr_scan"}, "lon": -77.04651933333334, "type": "electric_scooter", "fusion_lat": 0.0, "lat": 38.89734883333333, "name": "8f5144e175bb079209a7358c776c8c9b", "fusion_lon": 0.0, "bike_id": "8f5144e175bb079209a7358c776c8c9b", "is_disabled": 0, "is_reserved": 0}, {"rental_uris": {"ios": "https://dc.lft.to/lastmile_qr_scan", "android": "https://dc.lft.to/lastmile_qr_scan"}, "lon": -76.98974166666666, "type": "electric_scooter", "fusion_lat": 0.0, "lat": 38.859196833333336, "name": "a135eb1ef41410d46a6fbf4bfccfc1a6", "fusion_lon": 0.0, "bike_id": "a135eb1ef41410d46a6fbf4bfccfc1a6", "is_disabled": 0, "is_reserved": 0}, {"rental_uris": {"ios": "https://dc.lft.to/lastmile_qr_scan", "android": "https://dc.lft.to/lastmile_qr_scan"}, "lon": -77.027243, "type": "electric_scooter", "fusion_lat": 0.0, "lat": 38.91824866666666, "name": "712ccce7e53d62bcaf60ae7c98bfba7c", "fusion_lon": 0.0, "bike_id": "712ccce7e53d62bcaf60ae7c98bfba7c", "is_disabled": 0, "is_reserved": 0}, {"rental_uris": {"ios": "https://dc.lft.to/lastmile_qr_scan", "android": "https://dc.lft.to/lastmile_qr_scan"}, "lon": -77.02945783333334, "type": "electric_scooter", "fusion_lat": 0.0, "lat": 38.915623833333335, "name": "af36ba387886b1555689e872ba23239c", "fusion_lon": 0.0, "bike_id": "af36ba387886b1555689e872ba23239c", "is_disabled": 0, "is_reserved": 0}, {"rental_uris": {"ios": "https://dc.lft.to/lastmile_qr_scan", "android": "https://dc.lft.to/lastmile_qr_scan"}, "lon": -76.96525333333334, "type": "electric_scooter", "fusion_lat": 0.0, "lat": 38.8762565, "name": "663688214496e4a5e386faed43a63329", "fusion_lon": 0.0, "bike_id": "663688214496e4a5e386faed43a63329", "is_disabled": 0, "is_reserved": 0}, {"rental_uris": {"ios": "https://dc.lft.to/lastmile_qr_scan", "android": "https://dc.lft.to/lastmile_qr_scan"}, "lon": -77.06610883333333, "type": "electric_scooter", "fusion_lat": 0.0, "lat": 38.90538633333333, "name": "c4a8e7bf8fc10ee3110d981c818b65d4", "fusion_lon": 0.0, "bike_id": "c4a8e7bf8fc10ee3110d981c818b65d4", "is_disabled": 0, "is_reserved": 0}, {"rental_uris": {"ios": "https://dc.lft.to/lastmile_qr_scan", "android": "https://dc.lft.to/lastmile_qr_scan"}, "lon": -77.088286, "type": "electric_bike", "fusion_lat": 0.0, "lat": 38.90967333333333, "name": "f29ddb7bf68a72b3fe1c4db79aaf1d1c", "fusion_lon": 0.0, "bike_id": "f29ddb7bf68a72b3fe1c4db79aaf1d1c", "is_disabled": 0, "is_reserved": 0}, {"rental_uris": {"ios": "https://dc.lft.to/lastmile_qr_scan", "android": "https://dc.lft.to/lastmile_qr_scan"}, "lon": -77.047821, "type": "electric_scooter", "fusion_lat": 0.0, "lat": 38.897700666666665, "name": "d06cc4c4797cc851a8aa15a6e60b4e2c", "fusion_lon": 0.0, "bike_id": "d06cc4c4797cc851a8aa15a6e60b4e2c", "is_disabled": 0, "is_reserved": 0}, {"rental_uris": {"ios": "https://dc.lft.to/lastmile_qr_scan", "android": "https://dc.lft.to/lastmile_qr_scan"}, "lon": -77.0119665, "type": "electric_scooter", "fusion_lat": 0.0, "lat": 38.8979465, "name": "a11f9f6eb2103a98d0a2000f7cbc782f", "fusion_lon": 0.0, "bike_id": "a11f9f6eb2103a98d0a2000f7cbc782f", "is_disabled": 0, "is_reserved": 0}, {"rental_uris": {"ios": "https://dc.lft.to/lastmile_qr_scan", "android": "https://dc.lft.to/lastmile_qr_scan"}, "lon": -77.02400466666667, "type": "electric_scooter", "fusion_lat": 0.0, "lat": 38.907079833333334, "name": "225eb2cc51736752da8911fd56fc81bb", "fusion_lon": 0.0, "bike_id": "225eb2cc51736752da8911fd56fc81bb", "is_disabled": 0, "is_reserved": 0}, {"rental_uris": {"ios": "https://dc.lft.to/lastmile_qr_scan", "android": "https://dc.lft.to/lastmile_qr_scan"}, "lon": -77.05959916666667, "type": "electric_scooter", "fusion_lat": 0.0, "lat": 38.9119565, "name": "7ce5d63f69f7d76d325294f551b7b8f2", "fusion_lon": 0.0, "bike_id": "7ce5d63f69f7d76d325294f551b7b8f2", "is_disabled": 0, "is_reserved": 0}, {"rental_uris": {"ios": "https://dc.lft.to/lastmile_qr_scan", "android": "https://dc.lft.to/lastmile_qr_scan"}, "lon": -77.063343, "type": "electric_bike", "fusion_lat": 0.0, "lat": 38.921076, "name": "692604c1966dbff4185bd0dc5b412f97", "fusion_lon": 0.0, "bike_id": "692604c1966dbff4185bd0dc5b412f97", "is_disabled": 0, "is_reserved": 0}, {"rental_uris": {"ios": "https://dc.lft.to/lastmile_qr_scan", "android": "https://dc.lft.to/lastmile_qr_scan"}, "lon": -77.06171583333334, "type": "electric_scooter", "fusion_lat": 0.0, "lat": 38.948085666666664, "name": "f6dc69c6a80e93d4f8a29f6970654d15", "fusion_lon": 0.0, "bike_id": "f6dc69c6a80e93d4f8a29f6970654d15", "is_disabled": 0, "is_reserved": 0}, {"rental_uris": {"ios": "https://dc.lft.to/lastmile_qr_scan", "android": "https://dc.lft.to/lastmile_qr_scan"}, "lon": -77.03586283333334, "type": "electric_scooter", "fusion_lat": 0.0, "lat": 38.932345, "name": "1fb804161880c00914ed933e0b4cea57", "fusion_lon": 0.0, "bike_id": "1fb804161880c00914ed933e0b4cea57", "is_disabled": 0, "is_reserved": 0}, {"rental_uris": {"ios": "https://dc.lft.to/lastmile_qr_scan", "android": "https://dc.lft.to/lastmile_qr_scan"}, "lon": -76.9865285, "type": "electric_scooter", "fusion_lat": 0.0, "lat": 38.913122333333334, "name": "9b69c4dddd2e323d862f0df38da77d13", "fusion_lon": 0.0, "bike_id": "9b69c4dddd2e323d862f0df38da77d13", "is_disabled": 0, "is_reserved": 0}, {"rental_uris": {"ios": "https://dc.lft.to/lastmile_qr_scan", "android": "https://dc.lft.to/lastmile_qr_scan"}, "lon": -77.03223666666666, "type": "electric_scooter", "fusion_lat": 0.0, "lat": 38.9160445, "name": "f3180fbe4c7b4d15b1eb5e43802a815d", "fusion_lon": 0.0, "bike_id": "f3180fbe4c7b4d15b1eb5e43802a815d", "is_disabled": 0, "is_reserved": 0}, {"rental_uris": {"ios": "https://dc.lft.to/lastmile_qr_scan", "android": "https://dc.lft.to/lastmile_qr_scan"}, "lon": -77.0230815, "type": "electric_scooter", "fusion_lat": 0.0, "lat": 38.91779, "name": "45dba51d05919fcf0d62325fcb1c6ee7", "fusion_lon": 0.0, "bike_id": "45dba51d05919fcf0d62325fcb1c6ee7", "is_disabled": 0, "is_reserved": 0}, {"rental_uris": {"ios": "https://dc.lft.to/lastmile_qr_scan", "android": "https://dc.lft.to/lastmile_qr_scan"}, "lon": -76.9463095, "type": "electric_scooter", "fusion_lat": 0.0, "lat": 38.898422833333335, "name": "601fa842aae2a15000c284562fcecbd4", "fusion_lon": 0.0, "bike_id": "601fa842aae2a15000c284562fcecbd4", "is_disabled": 0, "is_reserved": 0}, {"rental_uris": {"ios": "https://dc.lft.to/lastmile_qr_scan", "android": "https://dc.lft.to/lastmile_qr_scan"}, "lon": -77.06660783333334, "type": "electric_bike", "fusion_lat": 0.0, "lat": 38.932464833333334, "name": "acc983a70d84edbc1a6a4145ea3e5e57", "fusion_lon": 0.0, "bike_id": "acc983a70d84edbc1a6a4145ea3e5e57", "is_disabled": 0, "is_reserved": 0}, {"rental_uris": {"ios": "https://dc.lft.to/lastmile_qr_scan", "android": "https://dc.lft.to/lastmile_qr_scan"}, "lon": -77.0316985, "type": "electric_scooter", "fusion_lat": 0.0, "lat": 38.9140345, "name": "084bf775c5a0351cfdff2b888d5a3087", "fusion_lon": 0.0, "bike_id": "084bf775c5a0351cfdff2b888d5a3087", "is_disabled": 0, "is_reserved": 0}, {"rental_uris": {"ios": "https://dc.lft.to/lastmile_qr_scan", "android": "https://dc.lft.to/lastmile_qr_scan"}, "lon": -77.048223, "type": "electric_scooter", "fusion_lat": 0.0, "lat": 38.907964666666665, "name": "52cea2435ffb3ae62c4b6d6aa586c6b6", "fusion_lon": 0.0, "bike_id": "52cea2435ffb3ae62c4b6d6aa586c6b6", "is_disabled": 0, "is_reserved": 0}, {"rental_uris": {"ios": "https://dc.lft.to/lastmile_qr_scan", "android": "https://dc.lft.to/lastmile_qr_scan"}, "lon": -77.0136905, "type": "electric_scooter", "fusion_lat": 0.0, "lat": 38.863717, "name": "8614d333ef19568df036fca21d208fc9", "fusion_lon": 0.0, "bike_id": "8614d333ef19568df036fca21d208fc9", "is_disabled": 0, "is_reserved": 0}, {"rental_uris": {"ios": "https://dc.lft.to/lastmile_qr_scan", "android": "https://dc.lft.to/lastmile_qr_scan"}, "lon": -77.02173683333334, "type": "electric_scooter", "fusion_lat": 0.0, "lat": 38.94290916666667, "name": "13a9a104e95465a42a24cab48f413f1a", "fusion_lon": 0.0, "bike_id": "13a9a104e95465a42a24cab48f413f1a", "is_disabled": 0, "is_reserved": 0}, {"rental_uris": {"ios": "https://dc.lft.to/lastmile_qr_scan", "android": "https://dc.lft.to/lastmile_qr_scan"}, "lon": -76.98418333333333, "type": "electric_scooter", "fusion_lat": 0.0, "lat": 38.91386266666667, "name": "2c3f1f6a2927c50128aeced3915919fa", "fusion_lon": 0.0, "bike_id": "2c3f1f6a2927c50128aeced3915919fa", "is_disabled": 0, "is_reserved": 0}, {"rental_uris": {"ios": "https://dc.lft.to/lastmile_qr_scan", "android": "https://dc.lft.to/lastmile_qr_scan"}, "lon": -77.11433216666667, "type": "electric_bike", "fusion_lat": 0.0, "lat": 38.85244183333333, "name": "8008adf399ab9934d61de6fcef3d577b", "fusion_lon": 0.0, "bike_id": "8008adf399ab9934d61de6fcef3d577b", "is_disabled": 0, "is_reserved": 0}, {"rental_uris": {"ios": "https://dc.lft.to/lastmile_qr_scan", "android": "https://dc.lft.to/lastmile_qr_scan"}, "lon": -77.03214016666666, "type": "electric_scooter", "fusion_lat": 0.0, "lat": 38.91705133333333, "name": "cad84115601b72fd6d95547b6e69c930", "fusion_lon": 0.0, "bike_id": "cad84115601b72fd6d95547b6e69c930", "is_disabled": 0, "is_reserved": 0}, {"rental_uris": {"ios": "https://dc.lft.to/lastmile_qr_scan", "android": "https://dc.lft.to/lastmile_qr_scan"}, "lon": -77.0321615, "type": "electric_scooter", "fusion_lat": 0.0, "lat": 38.91190316666667, "name": "46c4107ba9058440c4f2e599d3809105", "fusion_lon": 0.0, "bike_id": "46c4107ba9058440c4f2e599d3809105", "is_disabled": 0, "is_reserved": 0}, {"rental_uris": {"ios": "https://dc.lft.to/lastmile_qr_scan", "android": "https://dc.lft.to/lastmile_qr_scan"}, "lon": -77.00981416666667, "type": "electric_scooter", "fusion_lat": 0.0, "lat": 38.90643216666667, "name": "4bd4432a0fb4bbf22cfd09ac90c1de18", "fusion_lon": 0.0, "bike_id": "4bd4432a0fb4bbf22cfd09ac90c1de18", "is_disabled": 0, "is_reserved": 0}, {"rental_uris": {"ios": "https://dc.lft.to/lastmile_qr_scan", "android": "https://dc.lft.to/lastmile_qr_scan"}, "lon": -77.00304933333334, "type": "electric_scooter", "fusion_lat": 0.0, "lat": 38.90826233333333, "name": "19d982954b0c610ad0395dafc524e0b2", "fusion_lon": 0.0, "bike_id": "19d982954b0c610ad0395dafc524e0b2", "is_disabled": 0, "is_reserved": 0}, {"rental_uris": {"ios": "https://dc.lft.to/lastmile_qr_scan", "android": "https://dc.lft.to/lastmile_qr_scan"}, "lon": -76.96779766666667, "type": "electric_scooter", "fusion_lat": 0.0, "lat": 38.861456833333335, "name": "ae0b45cc67c553efdcab8f611e208451", "fusion_lon": 0.0, "bike_id": "ae0b45cc67c553efdcab8f611e208451", "is_disabled": 0, "is_reserved": 0}, {"rental_uris": {"ios": "https://dc.lft.to/lastmile_qr_scan", "android": "https://dc.lft.to/lastmile_qr_scan"}, "lon": -77.021101, "type": "electric_scooter", "fusion_lat": 0.0, "lat": 38.92221883333333, "name": "e5d2a6193febdce9f6c0318b9e4f8cc5", "fusion_lon": 0.0, "bike_id": "e5d2a6193febdce9f6c0318b9e4f8cc5", "is_disabled": 0, "is_reserved": 0}, {"rental_uris": {"ios": "https://dc.lft.to/lastmile_qr_scan", "android": "https://dc.lft.to/lastmile_qr_scan"}, "lon": -77.045039, "type": "electric_scooter", "fusion_lat": 0.0, "lat": 38.9213885, "name": "cd0c1c16a19659351d433d6925b3e804", "fusion_lon": 0.0, "bike_id": "cd0c1c16a19659351d433d6925b3e804", "is_disabled": 0, "is_reserved": 0}, {"rental_uris": {"ios": "https://dc.lft.to/lastmile_qr_scan", "android": "https://dc.lft.to/lastmile_qr_scan"}, "lon": -77.0280815, "type": "electric_scooter", "fusion_lat": 0.0, "lat": 38.92244733333333, "name": "3fb85e8da3ad11d0a3b7b9f9da154d97", "fusion_lon": 0.0, "bike_id": "3fb85e8da3ad11d0a3b7b9f9da154d97", "is_disabled": 0, "is_reserved": 0}, {"rental_uris": {"ios": "https://dc.lft.to/lastmile_qr_scan", "android": "https://dc.lft.to/lastmile_qr_scan"}, "lon": -77.03638716666667, "type": "electric_scooter", "fusion_lat": 0.0, "lat": 38.916692833333336, "name": "c37229e9e1707c9b99a15f500416a453", "fusion_lon": 0.0, "bike_id": "c37229e9e1707c9b99a15f500416a453", "is_disabled": 0, "is_reserved": 0}, {"rental_uris": {"ios": "https://dc.lft.to/lastmile_qr_scan", "android": "https://dc.lft.to/lastmile_qr_scan"}, "lon": -77.02497016666666, "type": "electric_scooter", "fusion_lat": 0.0, "lat": 38.9180695, "name": "c3dc69a81186ed440732d32589b4c922", "fusion_lon": 0.0, "bike_id": "c3dc69a81186ed440732d32589b4c922", "is_disabled": 0, "is_reserved": 0}, {"rental_uris": {"ios": "https://dc.lft.to/lastmile_qr_scan", "android": "https://dc.lft.to/lastmile_qr_scan"}, "lon": -77.04719383333334, "type": "electric_scooter", "fusion_lat": 0.0, "lat": 38.89734083333333, "name": "412a21f5a9d2c4ae3a025a5db938c6cf", "fusion_lon": 0.0, "bike_id": "412a21f5a9d2c4ae3a025a5db938c6cf", "is_disabled": 0, "is_reserved": 0}, {"rental_uris": {"ios": "https://dc.lft.to/lastmile_qr_scan", "android": "https://dc.lft.to/lastmile_qr_scan"}, "lon": -77.110449, "type": "electric_bike", "fusion_lat": 0.0, "lat": 38.870783, "name": "b9fe258012cfd84721845ad864f521a4", "fusion_lon": 0.0, "bike_id": "b9fe258012cfd84721845ad864f521a4", "is_disabled": 0, "is_reserved": 0}, {"rental_uris": {"ios": "https://dc.lft.to/lastmile_qr_scan", "android": "https://dc.lft.to/lastmile_qr_scan"}, "lon": -77.03318216666666, "type": "electric_scooter", "fusion_lat": 0.0, "lat": 38.92642083333333, "name": "ef1ca07a4f63db5a6bec59becbbe5cd6", "fusion_lon": 0.0, "bike_id": "ef1ca07a4f63db5a6bec59becbbe5cd6", "is_disabled": 0, "is_reserved": 0}, {"rental_uris": {"ios": "https://dc.lft.to/lastmile_qr_scan", "android": "https://dc.lft.to/lastmile_qr_scan"}, "lon": -77.07033183333333, "type": "electric_bike", "fusion_lat": 0.0, "lat": 38.918768166666666, "name": "2c6328d1dfa1426915ae3b5be635aaff", "fusion_lon": 0.0, "bike_id": "2c6328d1dfa1426915ae3b5be635aaff", "is_disabled": 0, "is_reserved": 0}, {"rental_uris": {"ios": "https://dc.lft.to/lastmile_qr_scan", "android": "https://dc.lft.to/lastmile_qr_scan"}, "lon": -76.98018133333333, "type": "electric_scooter", "fusion_lat": 0.0, "lat": 38.8876895, "name": "d27f780d39a36a1da0e7c6981efbb9e1", "fusion_lon": 0.0, "bike_id": "d27f780d39a36a1da0e7c6981efbb9e1", "is_disabled": 0, "is_reserved": 0}, {"rental_uris": {"ios": "https://dc.lft.to/lastmile_qr_scan", "android": "https://dc.lft.to/lastmile_qr_scan"}, "lon": -77.0255365, "type": "electric_scooter", "fusion_lat": 0.0, "lat": 38.94837233333333, "name": "13147f4f6e2f289cd1d074cc3634c047", "fusion_lon": 0.0, "bike_id": "13147f4f6e2f289cd1d074cc3634c047", "is_disabled": 0, "is_reserved": 0}, {"rental_uris": {"ios": "https://dc.lft.to/lastmile_qr_scan", "android": "https://dc.lft.to/lastmile_qr_scan"}, "lon": -77.00519, "type": "electric_scooter", "fusion_lat": 0.0, "lat": 38.8967315, "name": "648b62446a703b883424a16969b77793", "fusion_lon": 0.0, "bike_id": "648b62446a703b883424a16969b77793", "is_disabled": 0, "is_reserved": 0}, {"rental_uris": {"ios": "https://dc.lft.to/lastmile_qr_scan", "android": "https://dc.lft.to/lastmile_qr_scan"}, "lon": -77.040055, "type": "electric_scooter", "fusion_lat": 0.0, "lat": 38.90968133333333, "name": "0e03b6a66de3d0ad65d5baaf043624ab", "fusion_lon": 0.0, "bike_id": "0e03b6a66de3d0ad65d5baaf043624ab", "is_disabled": 0, "is_reserved": 0}, {"rental_uris": {"ios": "https://dc.lft.to/lastmile_qr_scan", "android": "https://dc.lft.to/lastmile_qr_scan"}, "lon": -76.9726875, "type": "electric_bike", "fusion_lat": 0.0, "lat": 38.91973266666667, "name": "fc885d7c7db01be0e2a6398d05b54c23", "fusion_lon": 0.0, "bike_id": "fc885d7c7db01be0e2a6398d05b54c23", "is_disabled": 0, "is_reserved": 0}, {"rental_uris": {"ios": "https://dc.lft.to/lastmile_qr_scan", "android": "https://dc.lft.to/lastmile_qr_scan"}, "lon": -77.02584616666667, "type": "electric_scooter", "fusion_lat": 0.0, "lat": 38.88076433333333, "name": "c59dc54eff053118c239ab1c25101aad", "fusion_lon": 0.0, "bike_id": "c59dc54eff053118c239ab1c25101aad", "is_disabled": 0, "is_reserved": 0}, {"rental_uris": {"ios": "https://dc.lft.to/lastmile_qr_scan", "android": "https://dc.lft.to/lastmile_qr_scan"}, "lon": -77.0694345, "type": "electric_scooter", "fusion_lat": 0.0, "lat": 38.905137833333335, "name": "f9c76e775450d78c4407b815dfc95296", "fusion_lon": 0.0, "bike_id": "f9c76e775450d78c4407b815dfc95296", "is_disabled": 0, "is_reserved": 0}, {"rental_uris": {"ios": "https://dc.lft.to/lastmile_qr_scan", "android": "https://dc.lft.to/lastmile_qr_scan"}, "lon": -77.02474816666667, "type": "electric_scooter", "fusion_lat": 0.0, "lat": 38.938208333333336, "name": "60a092a6be739237b91bac97a6b68ceb", "fusion_lon": 0.0, "bike_id": "60a092a6be739237b91bac97a6b68ceb", "is_disabled": 0, "is_reserved": 0}, {"rental_uris": {"ios": "https://dc.lft.to/lastmile_qr_scan", "android": "https://dc.lft.to/lastmile_qr_scan"}, "lon": -77.043336, "type": "electric_scooter", "fusion_lat": 0.0, "lat": 38.89226433333333, "name": "97179ddbf279a247551996af7dd7fd2d", "fusion_lon": 0.0, "bike_id": "97179ddbf279a247551996af7dd7fd2d", "is_disabled": 0, "is_reserved": 0}, {"rental_uris": {"ios": "https://dc.lft.to/lastmile_qr_scan", "android": "https://dc.lft.to/lastmile_qr_scan"},