{"data": {"bikes": [{"is_reserved": 0, "type": "electric_scooter", "bike_id": "9b7db6bfa1bcc5836fa5cbb23204999b", "lat": 38.90727366666667, "lon": -77.00705816666667, "rental_uris": {"android": "https://dc.lft.to/lastmile_qr_scan", "ios": "https://dc.lft.to/lastmile_qr_scan"}, "is_disabled": 0, "fusion_lat": 0.0, "name": "9b7db6bfa1bcc5836fa5cbb23204999b", "fusion_lon": 0.0}, {"is_reserved": 0, "type": "electric_scooter", "bike_id": "ea1637ca5ffd7c292a99da57bb103e18", "lat": 38.94454133333333, "lon": -77.02800033333334, "rental_uris": {"android": "https://dc.lft.to/lastmile_qr_scan", "ios": "https://dc.lft.to/lastmile_qr_scan"}, "is_disabled": 0, "fusion_lat": 0.0, "name": "ea1637ca5ffd7c292a99da57bb103e18", "fusion_lon": 0.0}, {"is_reserved": 0, "type": "electric_scooter", "bike_id": "1b26d88e5bba92a4816f520c74957ef1", "lat": 38.928970666666665, "lon": -77.0249645, "rental_uris": {"android": "https://dc.lft.to/lastmile_qr_scan", "ios": "https://dc.lft.to/lastmile_qr_scan"}, "is_disabled": 0, "fusion_lat": 0.0, "name": "1b26d88e5bba92a4816f520c74957ef1", "fusion_lon": 0.0}, {"is_reserved": 0, "type": "electric_scooter", "bike_id": "800d67e3ae328c53ac227ada7f20c17a", "lat": 38.90484583333333, "lon": -77.02978533333334, "rental_uris": {"android": "https://dc.lft.to/lastmile_qr_scan", "ios": "https://dc.lft.to/lastmile_qr_scan"}, "is_disabled": 0, "fusion_lat": 0.0, "name": "800d67e3ae328c53ac227ada7f20c17a", "fusion_lon": 0.0}, {"is_reserved": 0, "type": "electric_bike", "bike_id": "ebe0846ca502ed988a1a2256b642ad8b", "lat": 38.830247666666665, "lon": -77.0837665, "rental_uris": {"android": "https://dc.lft.to/lastmile_qr_scan", "ios": "https://dc.lft.to/lastmile_qr_scan"}, "is_disabled": 0, "fusion_lat": 0.0, "name": "ebe0846ca502ed988a1a2256b642ad8b", "fusion_lon": 0.0}, {"is_reserved": 0, "type": "electric_scooter", "bike_id": "01bb4f80a24ca5769a02ee8459b5212e", "lat": 38.884801, "lon": -77.0233625, "rental_uris": {"android": "https://dc.lft.to/lastmile_qr_scan", "ios": "https://dc.lft.to/lastmile_qr_scan"}, "is_disabled": 0, "fusion_lat": 0.0, "name": "01bb4f80a24ca5769a02ee8459b5212e", "fusion_lon": 0.0}, {"is_reserved": 0, "type": "electric_scooter", "bike_id": "7f5f68103d7d7eb7c9e1dbd1389c0a3b", "lat": 38.8972815, "lon": -76.99512633333333, "rental_uris": {"android": "https://dc.lft.to/lastmile_qr_scan", "ios": "https://dc.lft.to/lastmile_qr_scan"}, "is_disabled": 0, "fusion_lat": 0.0, "name": "7f5f68103d7d7eb7c9e1dbd1389c0a3b", "fusion_lon": 0.0}, {"is_reserved": 0, "type": "electric_bike", "bike_id": "875373c0ffca0fd6dc9436ec00baf12f", "lat": 38.857809333333336, "lon": -76.98758233333334, "rental_uris": {"android": "https://dc.lft.to/lastmile_qr_scan", "ios": "https://dc.lft.to/lastmile_qr_scan"}, "is_disabled": 0, "fusion_lat": 0.0, "name": "875373c0ffca0fd6dc9436ec00baf12f", "fusion_lon": 0.0}, {"is_reserved": 0, "type": "electric_scooter", "bike_id": "14796240bead198e163a5b81793424e6", "lat": 38.911975, "lon": -77.03208216666667, "rental_uris": {"android": "https://dc.lft.to/lastmile_qr_scan", "ios": "https://dc.lft.to/lastmile_qr_scan"}, "is_disabled": 0, "fusion_lat": 0.0, "name": "14796240bead198e163a5b81793424e6", "fusion_lon": 0.0}, {"is_reserved": 0, "type": "electric_scooter", "bike_id": "dffb33bc4522a4d8f82f250bbfc45f3e", "lat": 38.923275, "lon": -77.035115, "rental_uris": {"android": "https://dc.lft.to/lastmile_qr_scan", "ios": "https://dc.lft.to/lastmile_qr_scan"}, "is_disabled": 0, "fusion_lat": 0.0, "name": "dffb33bc4522a4d8f82f250bbfc45f3e", "fusion_lon": 0.0}, {"is_reserved": 0, "type": "electric_bike", "bike_id": "b8dce5bcac7082f5761e220827a0e22e", "lat": 38.941534833333336, "lon": -77.001941, "rental_uris": {"android": "https://dc.lft.to/lastmile_qr_scan", "ios": "https://dc.lft.to/lastmile_qr_scan"}, "is_disabled": 0, "fusion_lat": 0.0, "name": "b8dce5bcac7082f5761e220827a0e22e", "fusion_lon": 0.0}, {"is_reserved": 0, "type": "electric_scooter", "bike_id": "6f2a4a6c5788ea8c695f72f41e70578a", "lat": 38.8969745, "lon": -77.00494633333334, "rental_uris": {"android": "https://dc.lft.to/lastmile_qr_scan", "ios": "https://dc.lft.to/lastmile_qr_scan"}, "is_disabled": 0, "fusion_lat": 0.0, "name": "6f2a4a6c5788ea8c695f72f41e70578a", "fusion_lon": 0.0}, {"is_reserved": 0, "type": "electric_scooter", "bike_id": "80d0375525186df1ac332cfa840aeaed", "lat": 38.900634833333335, "lon": -77.04896566666666, "rental_uris": {"android": "https://dc.lft.to/lastmile_qr_scan", "ios": "https://dc.lft.to/lastmile_qr_scan"}, "is_disabled": 0, "fusion_lat": 0.0, "name": "80d0375525186df1ac332cfa840aeaed", "fusion_lon": 0.0}, {"is_reserved": 0, "type": "electric_scooter", "bike_id": "f37bb1bd609847044fc789ecfe6fd535", "lat": 38.926045333333334, "lon": -77.02485266666666, "rental_uris": {"android": "https://dc.lft.to/lastmile_qr_scan", "ios": "https://dc.lft.to/lastmile_qr_scan"}, "is_disabled": 0, "fusion_lat": 0.0, "name": "f37bb1bd609847044fc789ecfe6fd535", "fusion_lon": 0.0}, {"is_reserved": 0, "type": "electric_bike", "bike_id": "f38f2f34a75e49b93a0f8b7988d59ae8", "lat": 38.845303333333334, "lon": -77.07641366666667, "rental_uris": {"android": "https://dc.lft.to/lastmile_qr_scan", "ios": "https://dc.lft.to/lastmile_qr_scan"}, "is_disabled": 0, "fusion_lat": 0.0, "name": "f38f2f34a75e49b93a0f8b7988d59ae8", "fusion_lon": 0.0}, {"is_reserved": 0, "type": "electric_scooter", "bike_id": "cfb689832311a8f00d8fca1a04408a60", "lat": 38.89667166666667, "lon": -77.05018933333334, "rental_uris": {"android": "https://dc.lft.to/lastmile_qr_scan", "ios": "https://dc.lft.to/lastmile_qr_scan"}, "is_disabled": 0, "fusion_lat": 0.0, "name": "cfb689832311a8f00d8fca1a04408a60", "fusion_lon": 0.0}, {"is_reserved": 0, "type": "electric_bike", "bike_id": "ea9d835f619f731bc828b655c65c3aaa", "lat": 38.882434833333335, "lon": -76.962577, "rental_uris": {"android": "https://dc.lft.to/lastmile_qr_scan", "ios": "https://dc.lft.to/lastmile_qr_scan"}, "is_disabled": 0, "fusion_lat": 0.0, "name": "ea9d835f619f731bc828b655c65c3aaa", "fusion_lon": 0.0}, {"is_reserved": 0, "type": "electric_scooter", "bike_id": "27b155a5e91cb7528c8e7ac47e772c84", "lat": 38.906141166666664, "lon": -77.01999766666667, "rental_uris": {"android": "https://dc.lft.to/lastmile_qr_scan", "ios": "https://dc.lft.to/lastmile_qr_scan"}, "is_disabled": 0, "fusion_lat": 0.0, "name": "27b155a5e91cb7528c8e7ac47e772c84", "fusion_lon": 0.0}, {"is_reserved": 0, "type": "electric_scooter", "bike_id": "e2d9a5dfa3fa9b83c8afd6ef5052b64f", "lat": 38.922706833333336, "lon": -77.01979733333333, "rental_uris": {"android": "https://dc.lft.to/lastmile_qr_scan", "ios": "https://dc.lft.to/lastmile_qr_scan"}, "is_disabled": 0, "fusion_lat": 0.0, "name": "e2d9a5dfa3fa9b83c8afd6ef5052b64f", "fusion_lon": 0.0}, {"is_reserved": 0, "type": "electric_scooter", "bike_id": "4ab2f2ef16a1d19c1389765173aeb8da", "lat": 38.90960166666667, "lon": -77.03161416666667, "rental_uris": {"android": "https://dc.lft.to/lastmile_qr_scan", "ios": "https://dc.lft.to/lastmile_qr_scan"}, "is_disabled": 0, "fusion_lat": 0.0, "name": "4ab2f2ef16a1d19c1389765173aeb8da", "fusion_lon": 0.0}, {"is_reserved": 0, "type": "electric_scooter", "bike_id": "e977ddbbaa2521724fab8c7269704db2", "lat": 38.92052666666667, "lon": -77.024236, "rental_uris": {"android": "https://dc.lft.to/lastmile_qr_scan", "ios": "https://dc.lft.to/lastmile_qr_scan"}, "is_disabled": 0, "fusion_lat": 0.0, "name": "e977ddbbaa2521724fab8c7269704db2", "fusion_lon": 0.0}, {"is_reserved": 0, "type": "electric_scooter", "bike_id": "7fe857f5f78d74cc30bff7529dbb42d7", "lat": 38.926866, "lon": -77.02580183333333, "rental_uris": {"android": "https://dc.lft.to/lastmile_qr_scan", "ios": "https://dc.lft.to/lastmile_qr_scan"}, "is_disabled": 0, "fusion_lat": 0.0, "name": "7fe857f5f78d74cc30bff7529dbb42d7", "fusion_lon": 0.0}, {"is_reserved": 0, "type": "electric_bike", "bike_id": "03798c72bbe5b87664cf72a4b051c7f9", "lat": 38.8707555, "lon": -77.11042933333333, "rental_uris": {"android": "https://dc.lft.to/lastmile_qr_scan", "ios": "https://dc.lft.to/lastmile_qr_scan"}, "is_disabled": 0, "fusion_lat": 0.0, "name": "03798c72bbe5b87664cf72a4b051c7f9", "fusion_lon": 0.0}, {"is_reserved": 0, "type": "electric_scooter", "bike_id": "cdfbee688c6675af047c7e11b9af12d3", "lat": 38.887303333333335, "lon": -77.028327, "rental_uris": {"android": "https://dc.lft.to/lastmile_qr_scan", "ios": "https://dc.lft.to/lastmile_qr_scan"}, "is_disabled": 0, "fusion_lat": 0.0, "name": "cdfbee688c6675af047c7e11b9af12d3", "fusion_lon": 0.0}, {"is_reserved": 0, "type": "electric_scooter", "bike_id": "7749337cfb5e75bd8e4bdb608a0be2c7", "lat": 38.89672483333333, "lon": -77.00519533333333, "rental_uris": {"android": "https://dc.lft.to/lastmile_qr_scan", "ios": "https://dc.lft.to/lastmile_qr_scan"}, "is_disabled": 0, "fusion_lat": 0.0, "name": "7749337cfb5e75bd8e4bdb608a0be2c7", "fusion_lon": 0.0}, {"is_reserved": 0, "type": "electric_scooter", "bike_id": "179be1d55ce3ce16b7ea5ff447e9941f", "lat": 38.892371, "lon": -76.99494033333333, "rental_uris": {"android": "https://dc.lft.to/lastmile_qr_scan", "ios": "https://dc.lft.to/lastmile_qr_scan"}, "is_disabled": 0, "fusion_lat": 0.0, "name": "179be1d55ce3ce16b7ea5ff447e9941f", "fusion_lon": 0.0}, {"is_reserved": 0, "type": "electric_scooter", "bike_id": "61df491ddffb2c56841dd7629dacf432", "lat": 38.93368783333333, "lon": -77.03465816666667, "rental_uris": {"android": "https://dc.lft.to/lastmile_qr_scan", "ios": "https://dc.lft.to/lastmile_qr_scan"}, "is_disabled": 0, "fusion_lat": 0.0, "name": "61df491ddffb2c56841dd7629dacf432", "fusion_lon": 0.0}, {"is_reserved": 0, "type": "electric_bike", "bike_id": "c2a0faad9cb9870a12e2e4469121b172", "lat": 38.8808845, "lon": -77.02570416666667, "rental_uris": {"android": "https://dc.lft.to/lastmile_qr_scan", "ios": "https://dc.lft.to/lastmile_qr_scan"}, "is_disabled": 0, "fusion_lat": 0.0, "name": "c2a0faad9cb9870a12e2e4469121b172", "fusion_lon": 0.0}, {"is_reserved": 0, "type": "electric_scooter", "bike_id": "c1f126f46f35065a717c62b263650d9c", "lat": 38.918697333333334, "lon": -77.025967, "rental_uris": {"android": "https://dc.lft.to/lastmile_qr_scan", "ios": "https://dc.lft.to/lastmile_qr_scan"}, "is_disabled": 0, "fusion_lat": 0.0, "name": "c1f126f46f35065a717c62b263650d9c", "fusion_lon": 0.0}, {"is_reserved": 0, "type": "electric_scooter", "bike_id": "c0c78ddf2250e4a977a4b80466c8d021", "lat": 38.91468416666667, "lon": -77.03197466666667, "rental_uris": {"android": "https://dc.lft.to/lastmile_qr_scan", "ios": "https://dc.lft.to/lastmile_qr_scan"}, "is_disabled": 0, "fusion_lat": 0.0, "name": "c0c78ddf2250e4a977a4b80466c8d021", "fusion_lon": 0.0}, {"is_reserved": 0, "type": "electric_scooter", "bike_id": "179d60e0c2f926a4ee0eb73bc7858e33", "lat": 38.883345, "lon": -76.94286133333334, "rental_uris": {"android": "https://dc.lft.to/lastmile_qr_scan", "ios": "https://dc.lft.to/lastmile_qr_scan"}, "is_disabled": 0, "fusion_lat": 0.0, "name": "179d60e0c2f926a4ee0eb73bc7858e33", "fusion_lon": 0.0}, {"is_reserved": 0, "type": "electric_scooter", "bike_id": "858513673c14217b9a927aba951bc887", "lat": 38.8922485, "lon": -77.0282605, "rental_uris": {"android": "https://dc.lft.to/lastmile_qr_scan", "ios": "https://dc.lft.to/lastmile_qr_scan"}, "is_disabled": 0, "fusion_lat": 0.0, "name": "858513673c14217b9a927aba951bc887", "fusion_lon": 0.0}, {"is_reserved": 0, "type": "electric_scooter", "bike_id": "5890c915618566d215be0e94b5096052", "lat": 38.95247233333333, "lon": -77.00918516666667, "rental_uris": {"android": "https://dc.lft.to/lastmile_qr_scan", "ios": "https://dc.lft.to/lastmile_qr_scan"}, "is_disabled": 0, "fusion_lat": 0.0, "name": "5890c915618566d215be0e94b5096052", "fusion_lon": 0.0}, {"is_reserved": 0, "type": "electric_scooter", "bike_id": "b17e0646115c38de207f100d5fbe3c5d", "lat": 38.943252, "lon": -77.012564, "rental_uris": {"android": "https://dc.lft.to/lastmile_qr_scan", "ios": "https://dc.lft.to/lastmile_qr_scan"}, "is_disabled": 0, "fusion_lat": 0.0, "name": "b17e0646115c38de207f100d5fbe3c5d", "fusion_lon": 0.0}, {"is_reserved": 0, "type": "electric_scooter", "bike_id": "474bf1ae2d5f97d82078aaa8755583c9", "lat": 38.9240845, "lon": -77.04265066666666, "rental_uris": {"android": "https://dc.lft.to/lastmile_qr_scan", "ios": "https://dc.lft.to/lastmile_qr_scan"}, "is_disabled": 0, "fusion_lat": 0.0, "name": "474bf1ae2d5f97d82078aaa8755583c9", "fusion_lon": 0.0}, {"is_reserved": 0, "type": "electric_scooter", "bike_id": "b734242279e627dac3766c377b8f67ed", "lat": 38.92630966666667, "lon": -77.04252083333333, "rental_uris": {"android": "https://dc.lft.to/lastmile_qr_scan", "ios": "https://dc.lft.to/lastmile_qr_scan"}, "is_disabled": 0, "fusion_lat": 0.0, "name": "b734242279e627dac3766c377b8f67ed", "fusion_lon": 0.0}, {"is_reserved": 0, "type": "electric_scooter", "bike_id": "4ed1cff5e11287b33d66edacf4884dfb", "lat": 38.909011666666665, "lon": -76.9961865, "rental_uris": {"android": "https://dc.lft.to/lastmile_qr_scan", "ios": "https://dc.lft.to/lastmile_qr_scan"}, "is_disabled": 0, "fusion_lat": 0.0, "name": "4ed1cff5e11287b33d66edacf4884dfb", "fusion_lon": 0.0}, {"is_reserved": 0, "type": "electric_scooter", "bike_id": "e5e20992ab15b12c57bc1cab6d59538c", "lat": 38.9751105, "lon": -77.01741633333333, "rental_uris": {"android": "https://dc.lft.to/lastmile_qr_scan", "ios": "https://dc.lft.to/lastmile_qr_scan"}, "is_disabled": 0, "fusion_lat": 0.0, "name": "e5e20992ab15b12c57bc1cab6d59538c", "fusion_lon": 0.0}, {"is_reserved": 0, "type": "electric_scooter", "bike_id": "eb9ba7e1ab5915e23a042298a5985652", "lat": 38.886226666666666, "lon": -77.01998133333333, "rental_uris": {"android": "https://dc.lft.to/lastmile_qr_scan", "ios": "https://dc.lft.to/lastmile_qr_scan"}, "is_disabled": 0, "fusion_lat": 0.0, "name": "eb9ba7e1ab5915e23a042298a5985652", "fusion_lon": 0.0}, {"is_reserved": 0, "type": "electric_scooter", "bike_id": "a7295cfb3a702078de2cd8594a6861d6", "lat": 38.943185, "lon": -77.06523616666666, "rental_uris": {"android": "https://dc.lft.to/lastmile_qr_scan", "ios": "https://dc.lft.to/lastmile_qr_scan"}, "is_disabled": 0, "fusion_lat": 0.0, "name": "a7295cfb3a702078de2cd8594a6861d6", "fusion_lon": 0.0}, {"is_reserved": 0, "type": "electric_scooter", "bike_id": "5affca8441973feb068a6e321a961feb", "lat": 38.89402233333333, "lon": -77.021533, "rental_uris": {"android": "https://dc.lft.to/lastmile_qr_scan", "ios": "https://dc.lft.to/lastmile_qr_scan"}, "is_disabled": 0, "fusion_lat": 0.0, "name": "5affca8441973feb068a6e321a961feb", "fusion_lon": 0.0}, {"is_reserved": 0, "type": "electric_scooter", "bike_id": "6d721fd6b25f26b7420dee8f64e0a746", "lat": 38.915577, "lon": -77.022775, "rental_uris": {"android": "https://dc.lft.to/lastmile_qr_scan", "ios": "https://dc.lft.to/lastmile_qr_scan"}, "is_disabled": 0, "fusion_lat": 0.0, "name": "6d721fd6b25f26b7420dee8f64e0a746", "fusion_lon": 0.0}, {"is_reserved": 0, "type": "electric_scooter", "bike_id": "bb225518ddca8877cf415e5fe1770bed", "lat": 38.930386666666664, "lon": -77.055396, "rental_uris": {"android": "https://dc.lft.to/lastmile_qr_scan", "ios": "https://dc.lft.to/lastmile_qr_scan"}, "is_disabled": 0, "fusion_lat": 0.0, "name": "bb225518ddca8877cf415e5fe1770bed", "fusion_lon": 0.0}, {"is_reserved": 0, "type": "electric_scooter", "bike_id": "c66b26b46df3d908983112b8efbaa59f", "lat": 38.92101383333333, "lon": -77.047036, "rental_uris": {"android": "https://dc.lft.to/lastmile_qr_scan", "ios": "https://dc.lft.to/lastmile_qr_scan"}, "is_disabled": 0, "fusion_lat": 0.0, "name": "c66b26b46df3d908983112b8efbaa59f", "fusion_lon": 0.0}, {"is_reserved": 0, "type": "electric_scooter", "bike_id": "f0937c562ccff7bdd107b88de38ab8da", "lat": 38.892854666666665, "lon": -77.02605333333334, "rental_uris": {"android": "https://dc.lft.to/lastmile_qr_scan", "ios": "https://dc.lft.to/lastmile_qr_scan"}, "is_disabled": 0, "fusion_lat": 0.0, "name": "f0937c562ccff7bdd107b88de38ab8da", "fusion_lon": 0.0}, {"is_reserved": 0, "type": "electric_scooter", "bike_id": "9cb559045963454942e123f6d009302e", "lat": 38.91250683333333, "lon": -77.02856766666666, "rental_uris": {"android": "https://dc.lft.to/lastmile_qr_scan", "ios": "https://dc.lft.to/lastmile_qr_scan"}, "is_disabled": 0, "fusion_lat": 0.0, "name": "9cb559045963454942e123f6d009302e", "fusion_lon": 0.0}, {"is_reserved": 0, "type": "electric_bike", "bike_id": "8e94dc251c6ef34f8db41a8c8aee94c7", "lat": 38.903524, "lon": -77.045467, "rental_uris": {"android": "https://dc.lft.to/lastmile_qr_scan", "ios": "https://dc.lft.to/lastmile_qr_scan"}, "is_disabled": 0, "fusion_lat": 0.0, "name": "8e94dc251c6ef34f8db41a8c8aee94c7", "fusion_lon": 0.0}, {"is_reserved": 0, "type": "electric_scooter", "bike_id": "4440689a89431798a358ce2e67f1c3e0", "lat": 38.89730866666667, "lon": -76.94702083333334, "rental_uris": {"android": "https://dc.lft.to/lastmile_qr_scan", "ios": "https://dc.lft.to/lastmile_qr_scan"}, "is_disabled": 0, "fusion_lat": 0.0, "name": "4440689a89431798a358ce2e67f1c3e0", "fusion_lon": 0.0}, {"is_reserved": 0, "type": "electric_scooter", "bike_id": "8c85a74dbc989720fde58296b3a9442b", "lat": 38.8960435, "lon": -77.04687783333334, "rental_uris": {"android": "https://dc.lft.to/lastmile_qr_scan", "ios": "https://dc.lft.to/lastmile_qr_scan"}, "is_disabled": 0, "fusion_lat": 0.0, "name": "8c85a74dbc989720fde58296b3a9442b", "fusion_lon": 0.0}, {"is_reserved": 0, "type": "electric_scooter", "bike_id": "6699871c9ba7b92efdd6fdfe4ee4356d", "lat": 38.96030316666667, "lon": -77.0242975, "rental_uris": {"android": "https://dc.lft.to/lastmile_qr_scan", "ios": "https://dc.lft.to/lastmile_qr_scan"}, "is_disabled": 0, "fusion_lat": 0.0, "name": "6699871c9ba7b92efdd6fdfe4ee4356d", "fusion_lon": 0.0}, {"is_reserved": 0, "type": "electric_scooter", "bike_id": "953952524960d36bcb0c3996b7865bea", "lat": 38.93628916666667, "lon": -77.07300783333334, "rental_uris": {"android": "https://dc.lft.to/lastmile_qr_scan", "ios": "https://dc.lft.to/lastmile_qr_scan"}, "is_disabled": 0, "fusion_lat": 0.0, "name": "953952524960d36bcb0c3996b7865bea", "fusion_lon": 0.0}, {"is_reserved": 0, "type": "electric_bike", "bike_id": "772ea865bb3e8a0752a14fa1d51f8961", "lat": 38.855936, "lon": -76.974558, "rental_uris": {"android": "https://dc.lft.to/lastmile_qr_scan", "ios": "https://dc.lft.to/lastmile_qr_scan"}, "is_disabled": 0, "fusion_lat": 0.0, "name": "772ea865bb3e8a0752a14fa1d51f8961", "fusion_lon": 0.0}, {"is_reserved": 0, "type": "electric_scooter", "bike_id": "b5e4be0c6bee6971d7ed28d372e0f780", "lat": 38.90576633333333, "lon": -77.036436, "rental_uris": {"android": "https://dc.lft.to/lastmile_qr_scan", "ios": "https://dc.lft.to/lastmile_qr_scan"}, "is_disabled": 0, "fusion_lat": 0.0, "name": "b5e4be0c6bee6971d7ed28d372e0f780", "fusion_lon": 0.0}, {"is_reserved": 0, "type": "electric_scooter", "bike_id": "77021686b96f29f28780909640264f5b", "lat": 38.91079583333333, "lon": -77.02191966666666, "rental_uris": {"android": "https://dc.lft.to/lastmile_qr_scan", "ios": "https://dc.lft.to/lastmile_qr_scan"}, "is_disabled": 0, "fusion_lat": 0.0, "name": "77021686b96f29f28780909640264f5b", "fusion_lon": 0.0}, {"is_reserved": 0, "type": "electric_scooter", "bike_id": "7269a850036903941ce58c015014b2fc", "lat": 38.91414866666667, "lon": -77.03137533333333, "rental_uris": {"android": "https://dc.lft.to/lastmile_qr_scan", "ios": "https://dc.lft.to/lastmile_qr_scan"}, "is_disabled": 0, "fusion_lat": 0.0, "name": "7269a850036903941ce58c015014b2fc", "fusion_lon": 0.0}, {"is_reserved": 0, "type": "electric_scooter", "bike_id": "fb5b76eefc6dbcda62993c7984aec7c6", "lat": 38.921398, "lon": -77.047114, "rental_uris": {"android": "https://dc.lft.to/lastmile_qr_scan", "ios": "https://dc.lft.to/lastmile_qr_scan"}, "is_disabled": 0, "fusion_lat": 0.0, "name": "fb5b76eefc6dbcda62993c7984aec7c6", "fusion_lon": 0.0}, {"is_reserved": 0, "type": "electric_scooter", "bike_id": "348f85547596dc5718ddf85a89ab7e6c", "lat": 38.91747733333333, "lon": -77.04160266666666, "rental_uris": {"android": "https://dc.lft.to/lastmile_qr_scan", "ios": "https://dc.lft.to/lastmile_qr_scan"}, "is_disabled": 0, "fusion_lat": 0.0, "name": "348f85547596dc5718ddf85a89ab7e6c", "fusion_lon": 0.0}, {"is_reserved": 0, "type": "electric_scooter", "bike_id": "90affd1e7f4a6d079244ec89f83ba7be", "lat": 38.885092666666665, "lon": -77.01776416666667, "rental_uris": {"android": "https://dc.lft.to/lastmile_qr_scan", "ios": "https://dc.lft.to/lastmile_qr_scan"}, "is_disabled": 0, "fusion_lat": 0.0, "name": "90affd1e7f4a6d079244ec89f83ba7be", "fusion_lon": 0.0}, {"is_reserved": 0, "type": "electric_bike", "bike_id": "10cce0c213188793133b2bcff818ed7e", "lat": 38.857825, "lon": -76.98753883333333, "rental_uris": {"android": "https://dc.lft.to/lastmile_qr_scan", "ios": "https://dc.lft.to/lastmile_qr_scan"}, "is_disabled": 0, "fusion_lat": 0.0, "name": "10cce0c213188793133b2bcff818ed7e", "fusion_lon": 0.0}, {"is_reserved": 0, "type": "electric_scooter", "bike_id": "cc0c484e3e23db74cde4741373b8391b", "lat": 38.919169833333335, "lon": -77.03123766666667, "rental_uris": {"android": "https://dc.lft.to/lastmile_qr_scan", "ios": "https://dc.lft.to/lastmile_qr_scan"}, "is_disabled": 0, "fusion_lat": 0.0, "name": "cc0c484e3e23db74cde4741373b8391b", "fusion_lon": 0.0}, {"is_reserved": 0, "type": "electric_scooter", "bike_id": "9bdf6d61ac3b9dfe032e119bbf7b72dc", "lat": 38.90721766666667, "lon": -77.02508016666667, "rental_uris": {"android": "https://dc.lft.to/lastmile_qr_scan", "ios": "https://dc.lft.to/lastmile_qr_scan"}, "is_disabled": 0, "fusion_lat": 0.0, "name": "9bdf6d61ac3b9dfe032e119bbf7b72dc", "fusion_lon": 0.0}, {"is_reserved": 0, "type": "electric_scooter", "bike_id": "8dff36ddfb8ed9936369fcd13879cd39", "lat": 38.91964866666667, "lon": -77.01439766666667, "rental_uris": {"android": "https://dc.lft.to/lastmile_qr_scan", "ios": "https://dc.lft.to/lastmile_qr_scan"}, "is_disabled": 0, "fusion_lat": 0.0, "name": "8dff36ddfb8ed9936369fcd13879cd39", "fusion_lon": 0.0}, {"is_reserved": 0, "type": "electric_bike", "bike_id": "ee2714e204e94038d041736d42f9b872", "lat": 38.80672333333333, "lon": -77.0875955, "rental_uris": {"android": "https://dc.lft.to/lastmile_qr_scan", "ios": "https://dc.lft.to/lastmile_qr_scan"}, "is_disabled": 0, "fusion_lat": 0.0, "name": "ee2714e204e94038d041736d42f9b872", "fusion_lon": 0.0}, {"is_reserved": 0, "type": "electric_scooter", "bike_id": "a207acf2c8e1962b8b37d85cec1b285c", "lat": 38.89857833333333, "lon": -76.97756083333333, "rental_uris": {"android": "https://dc.lft.to/lastmile_qr_scan", "ios": "https://dc.lft.to/lastmile_qr_scan"}, "is_disabled": 0, "fusion_lat": 0.0, "name": "a207acf2c8e1962b8b37d85cec1b285c", "fusion_lon": 0.0}, {"is_reserved": 0, "type": "electric_scooter", "bike_id": "42d4a5d19fa835112fb94d87f19259f6", "lat": 38.90680866666667, "lon": -77.026931, "rental_uris": {"android": "https://dc.lft.to/lastmile_qr_scan", "ios": "https://dc.lft.to/lastmile_qr_scan"}, "is_disabled": 0, "fusion_lat": 0.0, "name": "42d4a5d19fa835112fb94d87f19259f6", "fusion_lon": 0.0}, {"is_reserved": 0, "type": "electric_bike", "bike_id": "3cbcffeae81c02a4c89e436a5a67a9f3", "lat": 38.94318466666667, "lon": -76.990236, "rental_uris": {"android": "https://dc.lft.to/lastmile_qr_scan", "ios": "https://dc.lft.to/lastmile_qr_scan"}, "is_disabled": 0, "fusion_lat": 0.0, "name": "3cbcffeae81c02a4c89e436a5a67a9f3", "fusion_lon": 0.0}, {"is_reserved": 0, "type": "electric_scooter", "bike_id": "a806ff65f013275e6b251a695828aa3a", "lat": 38.90498633333333, "lon": -76.98867416666667, "rental_uris": {"android": "https://dc.lft.to/lastmile_qr_scan", "ios": "https://dc.lft.to/lastmile_qr_scan"}, "is_disabled": 0, "fusion_lat": 0.0, "name": "a806ff65f013275e6b251a695828aa3a", "fusion_lon": 0.0}, {"is_reserved": 0, "type": "electric_scooter", "bike_id": "db7dbb9968b677acd2a337bbd710cb76", "lat": 38.95519866666667, "lon": -77.0240305, "rental_uris": {"android": "https://dc.lft.to/lastmile_qr_scan", "ios": "https://dc.lft.to/lastmile_qr_scan"}, "is_disabled": 0, "fusion_lat": 0.0, "name": "db7dbb9968b677acd2a337bbd710cb76", "fusion_lon": 0.0}, {"is_reserved": 0, "type": "electric_bike", "bike_id": "4e042b49aebf9f37a1f64b632cccff48", "lat": 38.872074833333336, "lon": -77.1173795, "rental_uris": {"android": "https://dc.lft.to/lastmile_qr_scan", "ios": "https://dc.lft.to/lastmile_qr_scan"}, "is_disabled": 0, "fusion_lat": 0.0, "name": "4e042b49aebf9f37a1f64b632cccff48", "fusion_lon": 0.0}, {"is_reserved": 0, "type": "electric_scooter", "bike_id": "b5087324923055289073ac61210c5ae6", "lat": 38.8971375, "lon": -77.00803466666666, "rental_uris": {"android": "https://dc.lft.to/lastmile_qr_scan", "ios": "https://dc.lft.to/lastmile_qr_scan"}, "is_disabled": 0, "fusion_lat": 0.0, "name": "b5087324923055289073ac61210c5ae6", "fusion_lon": 0.0}, {"is_reserved": 0, "type": "electric_scooter", "bike_id": "98b3dae54fe580472fd15c415304a616", "lat": 38.908700333333336, "lon": -77.00225783333333, "rental_uris": {"android": "https://dc.lft.to/lastmile_qr_scan", "ios": "https://dc.lft.to/lastmile_qr_scan"}, "is_disabled": 0, "fusion_lat": 0.0, "name": "98b3dae54fe580472fd15c415304a616", "fusion_lon": 0.0}, {"is_reserved": 0, "type": "electric_scooter", "bike_id": "f3b472bcd3bb2479609d751202c59a06", "lat": 38.8947725, "lon": -76.995808, "rental_uris": {"android": "https://dc.lft.to/lastmile_qr_scan", "ios": "https://dc.lft.to/lastmile_qr_scan"}, "is_disabled": 0, "fusion_lat": 0.0, "name": "f3b472bcd3bb2479609d751202c59a06", "fusion_lon": 0.0}, {"is_reserved": 0, "type": "electric_scooter", "bike_id": "1f0e62b31ba8db804c1f4d14ee8f300a", "lat": 38.86490933333333, "lon": -76.97750783333333, "rental_uris": {"android": "https://dc.lft.to/lastmile_qr_scan", "ios": "https://dc.lft.to/lastmile_qr_scan"}, "is_disabled": 0, "fusion_lat": 0.0, "name": "1f0e62b31ba8db804c1f4d14ee8f300a", "fusion_lon": 0.0}, {"is_reserved": 0, "type": "electric_scooter", "bike_id": "2b4f86b4ddd31f861babe5e078022b19", "lat": 38.89466766666666, "lon": -77.00256716666667, "rental_uris": {"android": "https://dc.lft.to/lastmile_qr_scan", "ios": "https://dc.lft.to/lastmile_qr_scan"}, "is_disabled": 0, "fusion_lat": 0.0, "name": "2b4f86b4ddd31f861babe5e078022b19", "fusion_lon": 0.0}, {"is_reserved": 0, "type": "electric_scooter", "bike_id": "1c2d13d77a5e76e338a0a08c166c5f81", "lat": 38.893417, "lon": -77.04872233333333, "rental_uris": {"android": "https://dc.lft.to/lastmile_qr_scan", "ios": "https://dc.lft.to/lastmile_qr_scan"}, "is_disabled": 0, "fusion_lat": 0.0, "name": "1c2d13d77a5e76e338a0a08c166c5f81", "fusion_lon": 0.0}, {"is_reserved": 0, "type": "electric_scooter", "bike_id": "489f4b22da6956d91559d2267fdac24c", "lat": 38.926736, "lon": -77.025848, "rental_uris": {"android": "https://dc.lft.to/lastmile_qr_scan", "ios": "https://dc.lft.to/lastmile_qr_scan"}, "is_disabled": 0, "fusion_lat": 0.0, "name": "489f4b22da6956d91559d2267fdac24c", "fusion_lon": 0.0}, {"is_reserved": 0, "type": "electric_scooter", "bike_id": "25f60b79fa6c42f13b018423398fbac0", "lat": 38.8942615, "lon": -77.05598883333333, "rental_uris": {"android": "https://dc.lft.to/lastmile_qr_scan", "ios": "https://dc.lft.to/lastmile_qr_scan"}, "is_disabled": 0, "fusion_lat": 0.0, "name": "25f60b79fa6c42f13b018423398fbac0", "fusion_lon": 0.0}, {"is_reserved": 0, "type": "electric_scooter", "bike_id": "f9a1d04d8e8e89ed2659fe71d03e75be", "lat": 38.893513, "lon": -77.0173015, "rental_uris": {"android": "https://dc.lft.to/lastmile_qr_scan", "ios": "https://dc.lft.to/lastmile_qr_scan"}, "is_disabled": 0, "fusion_lat": 0.0, "name": "f9a1d04d8e8e89ed2659fe71d03e75be", "fusion_lon": 0.0}, {"is_reserved": 0, "type": "electric_bike", "bike_id": "290217138a2cedaff034703d08e99ca0", "lat": 38.896104333333334, "lon": -76.90732366666667, "rental_uris": {"android": "https://dc.lft.to/lastmile_qr_scan", "ios": "https://dc.lft.to/lastmile_qr_scan"}, "is_disabled": 0, "fusion_lat": 0.0, "name": "290217138a2cedaff034703d08e99ca0", "fusion_lon": 0.0}, {"is_reserved": 0, "type": "electric_scooter", "bike_id": "d16a903f5714ea9e09490d7340326820", "lat": 38.9205085, "lon": -77.02574133333333, "rental_uris": {"android": "https://dc.lft.to/lastmile_qr_scan", "ios": "https://dc.lft.to/lastmile_qr_scan"}, "is_disabled": 0, "fusion_lat": 0.0, "name": "d16a903f5714ea9e09490d7340326820", "fusion_lon": 0.0}, {"is_reserved": 0, "type": "electric_scooter", "bike_id": "59a7bef57c257cb9e47f410ab317b612", "lat": 38.90972516666667, "lon": -77.03302283333333, "rental_uris": {"android": "https://dc.lft.to/lastmile_qr_scan", "ios": "https://dc.lft.to/lastmile_qr_scan"}, "is_disabled": 0, "fusion_lat": 0.0, "name": "59a7bef57c257cb9e47f410ab317b612", "fusion_lon": 0.0}, {"is_reserved": 0, "type": "electric_scooter", "bike_id": "46c4e53a75da427d5f593b070785b9c3", "lat": 38.92866016666667, "lon": -77.02710133333333, "rental_uris": {"android": "https://dc.lft.to/lastmile_qr_scan", "ios": "https://dc.lft.to/lastmile_qr_scan"}, "is_disabled": 0, "fusion_lat": 0.0, "name": "46c4e53a75da427d5f593b070785b9c3", "fusion_lon": 0.0}, {"is_reserved": 0, "type": "electric_scooter", "bike_id": "d2387822edbd1dfabefaa66b70707fc7", "lat": 38.905946166666666, "lon": -77.04687066666666, "rental_uris": {"android": "https://dc.lft.to/lastmile_qr_scan", "ios": "https://dc.lft.to/lastmile_qr_scan"}, "is_disabled": 0, "fusion_lat": 0.0, "name": "d2387822edbd1dfabefaa66b70707fc7", "fusion_lon": 0.0}, {"is_reserved": 0, "type": "electric_scooter", "bike_id": "29f7cb82be1cceed10961e9da43faced", "lat": 38.91671733333333, "lon": -77.0297415, "rental_uris": {"android": "https://dc.lft.to/lastmile_qr_scan", "ios": "https://dc.lft.to/lastmile_qr_scan"}, "is_disabled": 0, "fusion_lat": 0.0, "name": "29f7cb82be1cceed10961e9da43faced", "fusion_lon": 0.0}, {"is_reserved": 0, "type": "electric_scooter", "bike_id": "97dc49e4bd2aca6019565800936ffb25", "lat": 38.865740833333334, "lon": -76.99027983333333, "rental_uris": {"android": "https://dc.lft.to/lastmile_qr_scan", "ios": "https://dc.lft.to/lastmile_qr_scan"}, "is_disabled": 0, "fusion_lat": 0.0, "name": "97dc49e4bd2aca6019565800936ffb25", "fusion_lon": 0.0}, {"is_reserved": 0, "type": "electric_scooter", "bike_id": "91990b1291592343ab372fd1562a6671", "lat": 38.912918166666664, "lon": -76.98543183333334, "rental_uris": {"android": "https://dc.lft.to/lastmile_qr_scan", "ios": "https://dc.lft.to/lastmile_qr_scan"}, "is_disabled": 0, "fusion_lat": 0.0, "name": "91990b1291592343ab372fd1562a6671", "fusion_lon": 0.0}, {"is_reserved": 0, "type": "electric_scooter", "bike_id": "1d1505bd2e621f872ca658a0dd44e0dc", "lat": 38.89842683333333, "lon": -77.02211433333333, "rental_uris": {"android": "https://dc.lft.to/lastmile_qr_scan", "ios": "https://dc.lft.to/lastmile_qr_scan"}, "is_disabled": 0, "fusion_lat": 0.0, "name": "1d1505bd2e621f872ca658a0dd44e0dc", "fusion_lon": 0.0}, {"is_reserved": 0, "type": "electric_scooter", "bike_id": "ade5babd3c97ccdd37b5820b880f97f1", "lat": 38.89219583333333, "lon": -77.02413666666666, "rental_uris": {"android": "https://dc.lft.to/lastmile_qr_scan", "ios": "https://dc.lft.to/lastmile_qr_scan"}, "is_disabled": 0, "fusion_lat": 0.0, "name": "ade5babd3c97ccdd37b5820b880f97f1", "fusion_lon": 0.0}, {"is_reserved": 0, "type": "electric_scooter", "bike_id": "e4a076e480c815e00fbd00b51bdb1d3f", "lat": 38.892233166666664, "lon": -77.04508966666667, "rental_uris": {"android": "https://dc.lft.to/lastmile_qr_scan", "ios": "https://dc.lft.to/lastmile_qr_scan"}, "is_disabled": 0, "fusion_lat": 0.0, "name": "e4a076e480c815e00fbd00b51bdb1d3f", "fusion_lon": 0.0}, {"is_reserved": 0, "type": "electric_scooter", "bike_id": "29ff27c559c22d4946b9dd09c77a4d47", "lat": 38.923851166666665, "lon": -77.04458916666667, "rental_uris": {"android": "https://dc.lft.to/lastmile_qr_scan", "ios": "https://dc.lft.to/lastmile_qr_scan"}, "is_disabled": 0, "fusion_lat": 0.0, "name": "29ff27c559c22d4946b9dd09c77a4d47", "fusion_lon": 0.0}, {"is_reserved": 0, "type": "electric_scooter", "bike_id": "7e312103fa2d47354d6df4f32a293c2e", "lat": 38.89226216666667, "lon": -77.02588433333334, "rental_uris": {"android": "https://dc.lft.to/lastmile_qr_scan", "ios": "https://dc.lft.to/lastmile_qr_scan"}, "is_disabled": 0, "fusion_lat": 0.0, "name": "7e312103fa2d47354d6df4f32a293c2e", "fusion_lon": 0.0}, {"is_reserved": 0, "type": "electric_scooter", "bike_id": "ad978d5348fcc6062d5c41dd23bab983", "lat": 38.912251166666664, "lon": -77.026892, "rental_uris": {"android": "https://dc.lft.to/lastmile_qr_scan", "ios": "https://dc.lft.to/lastmile_qr_scan"}, "is_disabled": 0, "fusion_lat": 0.0, "name": "ad978d5348fcc6062d5c41dd23bab983", "fusion_lon": 0.0}, {"is_reserved": 0, "type": "electric_scooter", "bike_id": "ff93710223595947e6a09e98a84e0530", "lat": 38.895912833333334, "lon": -76.929815, "rental_uris": {"android": "https://dc.lft.to/lastmile_qr_scan", "ios": "https://dc.lft.to/lastmile_qr_scan"}, "is_disabled": 0, "fusion_lat": 0.0, "name": "ff93710223595947e6a09e98a84e0530", "fusion_lon": 0.0}, {"is_reserved": 0, "type": "electric_scooter", "bike_id": "3594e0587bb322a6b388692c40e44c19", "lat": 38.900357, "lon": -76.998563, "rental_uris": {"android": "https://dc.lft.to/lastmile_qr_scan", "ios": "https://dc.lft.to/lastmile_qr_scan"}, "is_disabled": 0, "fusion_lat": 0.0, "name": "3594e0587bb322a6b388692c40e44c19", "fusion_lon": 0.0}, {"is_reserved": 0, "type": "electric_scooter", "bike_id": "f79339a8e8f92fdb7129eb8497d96a93", "lat": 38.910454333333334, "lon": -77.063638, "rental_uris": {"android": "https://dc.lft.to/lastmile_qr_scan", "ios": "https://dc.lft.to/lastmile_qr_scan"}, "is_disabled": 0, "fusion_lat": 0.0, "name": "f79339a8e8f92fdb7129eb8497d96a93", "fusion_lon": 0.0}, {"is_reserved": 0, "type": "electric_scooter", "bike_id": "6b4a827b561b3c404f2f91a294be5ccf", "lat": 38.8971645, "lon": -77.00753566666667, "rental_uris": {"android": "https://dc.lft.to/lastmile_qr_scan", "ios": "https://dc.lft.to/lastmile_qr_scan"}, "is_disabled": 0, "fusion_lat": 0.0, "name": "6b4a827b561b3c404f2f91a294be5ccf", "fusion_lon": 0.0}, {"is_reserved": 0, "type": "electric_scooter", "bike_id": "adbe9fb8b96f3ea69db191ce4cb3d6a2", "lat": 38.90019366666667, "lon": -76.99903583333334, "rental_uris": {"android": "https://dc.lft.to/lastmile_qr_scan", "ios": "https://dc.lft.to/lastmile_qr_scan"}, "is_disabled": 0, "fusion_lat": 0.0, "name": "adbe9fb8b96f3ea69db191ce4cb3d6a2", "fusion_lon": 0.0}, {"is_reserved": 0, "type": "electric_scooter", "bike_id": "0c89a89da2c5a7d60dbec59e7550a4de", "lat": 38.92240283333334, "lon": -77.040114, "rental_uris": {"android": "https://dc.lft.to/lastmile_qr_scan", "ios": "https://dc.lft.to/lastmile_qr_scan"}, "is_disabled": 0, "fusion_lat": 0.0, "name": "0c89a89da2c5a7d60dbec59e7550a4de", "fusion_lon": 0.0}, {"is_reserved": 0, "type": "electric_scooter", "bike_id": "5f4cf89a0d67a10e0e0ce8f8bf494400", "lat": 38.918603166666664, "lon": -77.03517666666667, "rental_uris": {"android": "https://dc.lft.to/lastmile_qr_scan", "ios": "https://dc.lft.to/lastmile_qr_scan"}, "is_disabled": 0, "fusion_lat": 0.0, "name": "5f4cf89a0d67a10e0e0ce8f8bf494400", "fusion_lon": 0.0}, {"is_reserved": 0, "type": "electric_scooter", "bike_id": "ae53c7727e24b9fd61d84cc6e3fd0cd0", "lat": 38.892504, "lon": -76.94135416666667, "rental_uris": {"android": "https://dc.lft.to/lastmile_qr_scan", "ios": "https://dc.lft.to/lastmile_qr_scan"}, "is_disabled": 0, "fusion_lat": 0.0, "name": "ae53c7727e24b9fd61d84cc6e3fd0cd0", "fusion_lon": 0.0}, {"is_reserved": 0, "type": "electric_scooter", "bike_id": "9c36ac11c02637af5217846fa89e64fb", "lat": 38.91974233333333, "lon": -77.04169316666666, "rental_uris": {"android": "https://dc.lft.to/lastmile_qr_scan", "ios": "https://dc.lft.to/lastmile_qr_scan"}, "is_disabled": 0, "fusion_lat": 0.0, "name": "9c36ac11c02637af5217846fa89e64fb", "fusion_lon": 0.0}, {"is_reserved": 0, "type": "electric_scooter", "bike_id": "a02e94e44c811e14c3e978d2fe4b9247", "lat": 38.917881666666666, "lon": -77.03190366666666, "rental_uris": {"android": "https://dc.lft.to/lastmile_qr_scan", "ios": "https://dc.lft.to/lastmile_qr_scan"}, "is_disabled": 0, "fusion_lat": 0.0, "name": "a02e94e44c811e14c3e978d2fe4b9247", "fusion_lon": 0.0}, {"is_reserved": 0, "type": "electric_bike", "bike_id": "3e7705b7a920c8ce1c2fad200aa928cb", "lat": 38.9993185, "lon": -77.05133566666666, "rental_uris": {"android": "https://dc.lft.to/lastmile_qr_scan", "ios": "https://dc.lft.to/lastmile_qr_scan"}, "is_disabled": 0, "fusion_lat": 0.0, "name": "3e7705b7a920c8ce1c2fad200aa928cb", "fusion_lon": 0.0}, {"is_reserved": 0, "type": "electric_scooter", "bike_id": "ccc9281fd5af7a7fb0e3123876203503", "lat": 38.916751, "lon": -77.02962516666666, "rental_uris": {"android": "https://dc.lft.to/lastmile_qr_scan", "ios": "https://dc.lft.to/lastmile_qr_scan"}, "is_disabled": 0, "fusion_lat": 0.0, "name": "ccc9281fd5af7a7fb0e3123876203503", "fusion_lon": 0.0}, {"is_reserved": 0, "type": "electric_scooter", "bike_id": "4989ee862ec366102c8dc262bb3b3e06", "lat": 38.89234316666667, "lon": -77.04878666666667, "rental_uris": {"android": "https://dc.lft.to/lastmile_qr_scan", "ios": "https://dc.lft.to/lastmile_qr_scan"}, "is_disabled": 0, "fusion_lat": 0.0, "name": "4989ee862ec366102c8dc262bb3b3e06", "fusion_lon": 0.0}, {"is_reserved": 0, "type": "electric_scooter", "bike_id": "0f4fbce93639425d62f5c5828750f97a", "lat": 38.924192166666664, "lon": -77.01945416666666, "rental_uris": {"android": "https://dc.lft.to/lastmile_qr_scan", "ios": "https://dc.lft.to/lastmile_qr_scan"}, "is_disabled": 0, "fusion_lat": 0.0, "name": "0f4fbce93639425d62f5c5828750f97a", "fusion_lon": 0.0}, {"is_reserved": 0, "type": "electric_scooter", "bike_id": "a6cc0e4341dd42365e29beea438cb17c", "lat": 38.923404833333336, "lon": -77.01893033333333, "rental_uris": {"android": "https://dc.lft.to/lastmile_qr_scan", "ios": "https://dc.lft.to/lastmile_qr_scan"}, "is_disabled": 0, "fusion_lat": 0.0, "name": "a6cc0e4341dd42365e29beea438cb17c", "fusion_lon": 0.0}, {"is_reserved": 0, "type": "electric_scooter", "bike_id": "3407cd9b95c307a430836f59a55d2dd0", "lat": 38.898264, "lon": -76.946526, "rental_uris": {"android": "https://dc.lft.to/lastmile_qr_scan", "ios": "https://dc.lft.to/lastmile_qr_scan"}, "is_disabled": 0, "fusion_lat": 0.0, "name": "3407cd9b95c307a430836f59a55d2dd0", "fusion_lon": 0.0}, {"is_reserved": 0, "type": "electric_scooter", "bike_id": "dda994e5ab4abf480b38afbc8dd9ce4e", "lat": 38.915804333333334, "lon": -77.01230483333333, "rental_uris": {"android": "https://dc.lft.to/lastmile_qr_scan", "ios": "https://dc.lft.to/lastmile_qr_scan"}, "is_disabled": 0, "fusion_lat": 0.0, "name": "dda994e5ab4abf480b38afbc8dd9ce4e", "fusion_lon": 0.0}, {"is_reserved": 0, "type": "electric_scooter", "bike_id": "d40866811f11c08492dd76b81ecf527f", "lat": 38.919164333333335, "lon": -77.04173733333333, "rental_uris": {"android": "https://dc.lft.to/lastmile_qr_scan", "ios": "https://dc.lft.to/lastmile_qr_scan"}, "is_disabled": 0, "fusion_lat": 0.0, "name": "d40866811f11c08492dd76b81ecf527f", "fusion_lon": 0.0}, {"is_reserved": 0, "type": "electric_scooter", "bike_id": "f71f06a85b7548e362f7a88d02876d4f", "lat": 38.91957016666667, "lon": -77.0448965, "rental_uris": {"android": "https://dc.lft.to/lastmile_qr_scan", "ios": "https://dc.lft.to/lastmile_qr_scan"}, "is_disabled": 0, "fusion_lat": 0.0, "name": "f71f06a85b7548e362f7a88d02876d4f", "fusion_lon": 0.0}, {"is_reserved": 0, "type": "electric_scooter", "bike_id": "3cbee5c7de9646c43bf3c966ca5a4db8", "lat": 38.901576666666664, "lon": -77.02593616666667, "rental_uris": {"android": "https://dc.lft.to/lastmile_qr_scan", "ios": "https://dc.lft.to/lastmile_qr_scan"}, "is_disabled": 0, "fusion_lat": 0.0, "name": "3cbee5c7de9646c43bf3c966ca5a4db8", "fusion_lon": 0.0}, {"is_reserved": 0, "type": "electric_scooter", "bike_id": "e00012820e27f33bf38d801abe37dfdf", "lat": 38.900066833333334, "lon": -76.99352, "rental_uris": {"android": "https://dc.lft.to/lastmile_qr_scan", "ios": "https://dc.lft.to/lastmile_qr_scan"}, "is_disabled": 0, "fusion_lat": 0.0, "name": "e00012820e27f33bf38d801abe37dfdf", "fusion_lon": 0.0}, {"is_reserved": 0, "type": "electric_scooter", "bike_id": "72f2e64c87fa73404a5c754252540c1e", "lat": 38.92598266666667, "lon": -77.02152383333333, "rental_uris": {"android": "https://dc.lft.to/lastmile_qr_scan", "ios": "https://dc.lft.to/lastmile_qr_scan"}, "is_disabled": 0, "fusion_lat": 0.0, "name": "72f2e64c87fa73404a5c754252540c1e", "fusion_lon": 0.0}, {"is_reserved": 0, "type": "electric_scooter", "bike_id": "030b7a3f4a84c08c2c4f1d53ae4c4b33", "lat": 38.926756833333336, "lon": -76.9955715, "rental_uris": {"android": "https://dc.lft.to/lastmile_qr_scan", "ios": "https://dc.lft.to/lastmile_qr_scan"}, "is_disabled": 0, "fusion_lat": 0.0, "name": "030b7a3f4a84c08c2c4f1d53ae4c4b33", "fusion_lon": 0.0}, {"is_reserved": 0, "type": "electric_scooter", "bike_id": "2da18dc3bf476f2ea772b416344c3488", "lat": 38.92365516666667, "lon": -77.0195465, "rental_uris": {"android": "https://dc.lft.to/lastmile_qr_scan", "ios": "https://dc.lft.to/lastmile_qr_scan"}, "is_disabled": 0, "fusion_lat": 0.0, "name": "2da18dc3bf476f2ea772b416344c3488", "fusion_lon": 0.0}, {"is_reserved": 0, "type": "electric_scooter", "bike_id": "bc501b9c456915af1c2eaec21599a681", "lat": 38.92630583333333, "lon": -77.035384, "rental_uris": {"android": "https://dc.lft.to/lastmile_qr_scan", "ios": "https://dc.lft.to/lastmile_qr_scan"}, "is_disabled": 0, "fusion_lat": 0.0, "name": "bc501b9c456915af1c2eaec21599a681", "fusion_lon": 0.0}, {"is_reserved": 0, "type": "electric_bike", "bike_id": "f8f3307ba281b99fd4110c96d1bf0424", "lat": 38.839342, "lon": -77.07898866666666, "rental_uris": {"android": "https://dc.lft.to/lastmile_qr_scan", "ios": "https://dc.lft.to/lastmile_qr_scan"}, "is_disabled": 0, "fusion_lat": 0.0, "name": "f8f3307ba281b99fd4110c96d1bf0424", "fusion_lon": 0.0}, {"is_reserved": 0, "type": "electric_scooter", "bike_id": "7986fa59e1b6c39d7fef4927787f3cb7", "lat": 38.92827716666667, "lon": -77.05427583333334, "rental_uris": {"android": "https://dc.lft.to/lastmile_qr_scan", "ios": "https://dc.lft.to/lastmile_qr_scan"}, "is_disabled": 0, "fusion_lat": 0.0, "name": "7986fa59e1b6c39d7fef4927787f3cb7", "fusion_lon": 0.0}, {"is_reserved": 0, "type": "electric_scooter", "bike_id": "28bb4d11a18051213bbe5aad6832188b", "lat": 38.901511166666666, "lon": -77.03198683333333, "rental_uris": {"android": "https://dc.lft.to/lastmile_qr_scan", "ios": "https://dc.lft.to/lastmile_qr_scan"}, "is_disabled": 0, "fusion_lat": 0.0, "name": "28bb4d11a18051213bbe5aad6832188b", "fusion_lon": 0.0}, {"is_reserved": 0, "type": "electric_scooter", "bike_id": "950a5481467bf14579823e3d2f9e5f94", "lat": 38.901674166666666, "lon": -77.02385716666667, "rental_uris": {"android": "https://dc.lft.to/lastmile_qr_scan", "ios": "https://dc.lft.to/lastmile_qr_scan"}, "is_disabled": 0, "fusion_lat": 0.0, "name": "950a5481467bf14579823e3d2f9e5f94", "fusion_lon": 0.0}, {"is_reserved": 0, "type": "electric_scooter", "bike_id": "b8ae31a63e31cc15e01f9346c0b0ac3b", "lat": 38.8746805, "lon": -77.0055695, "rental_uris": {"android": "https://dc.lft.to/lastmile_qr_scan", "ios": "https://dc.lft.to/lastmile_qr_scan"}, "is_disabled": 0, "fusion_lat": 0.0, "name": "b8ae31a63e31cc15e01f9346c0b0ac3b", "fusion_lon": 0.0}, {"is_reserved": 0, "type": "electric_scooter", "bike_id": "cfd986581fccaaba1a28515a2584d5a7", "lat": 38.92044216666667, "lon": -77.0419565, "rental_uris": {"android": "https://dc.lft.to/lastmile_qr_scan", "ios": "https://dc.lft.to/lastmile_qr_scan"}, "is_disabled": 0, "fusion_lat": 0.0, "name": "cfd986581fccaaba1a28515a2584d5a7", "fusion_lon": 0.0}, {"is_reserved": 0, "type": "electric_scooter", "bike_id": "71a1a2c7219ac4f2e7c0f966cfe286df", "lat": 38.885035333333335, "lon": -76.99684766666667, "rental_uris": {"android": "https://dc.lft.to/lastmile_qr_scan", "ios": "https://dc.lft.to/lastmile_qr_scan"}, "is_disabled": 0, "fusion_lat": 0.0, "name": "71a1a2c7219ac4f2e7c0f966cfe286df", "fusion_lon": 0.0}, {"is_reserved": 0, "type": "electric_scooter", "bike_id": "3c1926f055a230083c3bb9b6963a4555", "lat": 38.98224416666667, "lon": -77.02642233333333, "rental_uris": {"android": "https://dc.lft.to/lastmile_qr_scan", "ios": "https://dc.lft.to/lastmile_qr_scan"}, "is_disabled": 0, "fusion_lat": 0.0, "name": "3c1926f055a230083c3bb9b6963a4555", "fusion_lon": 0.0}, {"is_reserved": 0, "type": "electric_scooter", "bike_id": "5a69f95fde16519adc7fb07f332ff326", "lat": 38.9256475, "lon": -76.97006683333333, "rental_uris": {"android": "https://dc.lft.to/lastmile_qr_scan", "ios": "https://dc.lft.to/lastmile_qr_scan"}, "is_disabled": 0, "fusion_lat": 0.0, "name": "5a69f95fde16519adc7fb07f332ff326", "fusion_lon": 0.0}, {"is_reserved": 0, "type": "electric_scooter", "bike_id": "16ee2ae6f10e08ae3da88a61cb67bdd0", "lat": 38.908616333333335, "lon": -77.0218345, "rental_uris": {"android": "https://dc.lft.to/lastmile_qr_scan", "ios": "https://dc.lft.to/lastmile_qr_scan"}, "is_disabled": 0, "fusion_lat": 0.0, "name": "16ee2ae6f10e08ae3da88a61cb67bdd0", "fusion_lon": 0.0}, {"is_reserved": 0, "type": "electric_scooter", "bike_id": "3c188318b3d9907a72db80d1ec6c71c9", "lat": 38.929669, "lon": -77.02342366666667, "rental_uris": {"android": "https://dc.lft.to/lastmile_qr_scan", "ios": "https://dc.lft.to/lastmile_qr_scan"}, "is_disabled": 0, "fusion_lat": 0.0, "name": "3c188318b3d9907a72db80d1ec6c71c9", "fusion_lon": 0.0}, {"is_reserved": 0, "type": "electric_scooter", "bike_id": "b012d344a34326b94bb078553c3f8110", "lat": 38.9216605, "lon": -77.03205616666666, "rental_uris": {"android": "https://dc.lft.to/lastmile_qr_scan", "ios": "https://dc.lft.to/lastmile_qr_scan"}, "is_disabled": 0, "fusion_lat": 0.0, "name": "b012d344a34326b94bb078553c3f8110", "fusion_lon": 0.0}, {"is_reserved": 0, "type": "electric_scooter", "bike_id": "cfd59b30cbe00b95c62f89421178bc4c", "lat": 38.919219, "lon": -77.03158083333334, "rental_uris": {"android": "https://dc.lft.to/lastmile_qr_scan", "ios": "https://dc.lft.to/lastmile_qr_scan"}, "is_disabled": 0, "fusion_lat": 0.0, "name": "cfd59b30cbe00b95c62f89421178bc4c", "fusion_lon": 0.0}, {"is_reserved": 0, "type": "electric_scooter", "bike_id": "c1119a402f5d2bcddc87ac5b955ec6f0", "lat": 38.947297666666664, "lon": -77.0245605, "rental_uris": {"android": "https://dc.lft.to/lastmile_qr_scan", "ios": "https://dc.lft.to/lastmile_qr_scan"}, "is_disabled": 0, "fusion_lat": 0.0, "name": "c1119a402f5d2bcddc87ac5b955ec6f0", "fusion_lon": 0.0}, {"is_reserved": 0, "type": "electric_scooter", "bike_id": "33c1a3ac67a9c47499962da29c8a526c", "lat": 38.93364616666667, "lon": -77.05732533333334, "rental_uris": {"android": "https://dc.lft.to/lastmile_qr_scan", "ios": "https://dc.lft.to/lastmile_qr_scan"}, "is_disabled": 0, "fusion_lat": 0.0, "name": "33c1a3ac67a9c47499962da29c8a526c", "fusion_lon": 0.0}, {"is_reserved": 0, "type": "electric_scooter", "bike_id": "8dce8401ed3a5807344d67b0e3c277e0", "lat": 38.9208495, "lon": -77.02513716666667, "rental_uris": {"android": "https://dc.lft.to/lastmile_qr_scan", "ios": "https://dc.lft.to/lastmile_qr_scan"}, "is_disabled": 0, "fusion_lat": 0.0, "name": "8dce8401ed3a5807344d67b0e3c277e0", "fusion_lon": 0.0}, {"is_reserved": 0, "type": "electric_scooter", "bike_id": "a95a77607b3d4dcf33db0d96e7b9c407", "lat": 38.923798833333336, "lon": -77.0505905, "rental_uris": {"android": "https://dc.lft.to/lastmile_qr_scan", "ios": "https://dc.lft.to/lastmile_qr_scan"}, "is_disabled": 0, "fusion_lat": 0.0, "name": "a95a77607b3d4dcf33db0d96e7b9c407", "fusion_lon": 0.0}, {"is_reserved": 0, "type": "electric_scooter", "bike_id": "c31f95f45e3844111718f50e2ce7bf3f", "lat": 38.88723516666667, "lon": -76.98374633333333, "rental_uris": {"android": "https://dc.lft.to/lastmile_qr_scan", "ios": "https://dc.lft.to/lastmile_qr_scan"}, "is_disabled": 0, "fusion_lat": 0.0, "name": "c31f95f45e3844111718f50e2ce7bf3f", "fusion_lon": 0.0}, {"is_reserved": 0, "type": "electric_scooter", "bike_id": "f2173267504d960f7f0357ddf6912e81", "lat": 38.9090875, "lon": -77.0449305, "rental_uris": {"android": "https://dc.lft.to/lastmile_qr_scan", "ios": "https://dc.lft.to/lastmile_qr_scan"}, "is_disabled": 0, "fusion_lat": 0.0, "name": "f2173267504d960f7f0357ddf6912e81", "fusion_lon": 0.0}, {"is_reserved": 0, "type": "electric_scooter", "bike_id": "2f488d04e2d32f6027abf60805a70748", "lat": 38.90085416666667, "lon": -77.050601, "rental_uris": {"android": "https://dc.lft.to/lastmile_qr_scan", "ios": "https://dc.lft.to/lastmile_qr_scan"}, "is_disabled": 0, "fusion_lat": 0.0, "name": "2f488d04e2d32f6027abf60805a70748", "fusion_lon": 0.0}, {"is_reserved": 0, "type": "electric_scooter", "bike_id": "57103e62917f6f987fc7466db35510a1", "lat": 38.89239283333333, "lon": -77.013553, "rental_uris": {"android": "https://dc.lft.to/lastmile_qr_scan", "ios": "https://dc.lft.to/lastmile_qr_scan"}, "is_disabled": 0, "fusion_lat": 0.0, "name": "57103e62917f6f987fc7466db35510a1", "fusion_lon": 0.0}, {"is_reserved": 0, "type": "electric_scooter", "bike_id": "fe503c5a9809b4281aa33b40ae12132f", "lat": 38.89218066666667, "lon": -77.03105916666667, "rental_uris": {"android": "https://dc.lft.to/lastmile_qr_scan", "ios": "https://dc.lft.to/lastmile_qr_scan"}, "is_disabled": 0, "fusion_lat": 0.0, "name": "fe503c5a9809b4281aa33b40ae12132f", "fusion_lon": 0.0}, {"is_reserved": 0, "type": "electric_scooter", "bike_id": "2eccd413590a87069c6f12442289b955", "lat": 38.9058665, "lon": -77.00918916666667, "rental_uris": {"android": "https://dc.lft.to/lastmile_qr_scan", "ios": "https://dc.lft.to/lastmile_qr_scan"}, "is_disabled": 0, "fusion_lat": 0.0, "name": "2eccd413590a87069c6f12442289b955", "fusion_lon": 0.0}, {"is_reserved": 0, "type": "electric_bike", "bike_id": "1bd704aba7027e6d41e03d2d7f9063f6", "lat": 38.92909683333333, "lon": -77.0974005, "rental_uris": {"android": "https://dc.lft.to/lastmile_qr_scan", "ios": "https://dc.lft.to/lastmile_qr_scan"}, "is_disabled": 0, "fusion_lat": 0.0, "name": "1bd704aba7027e6d41e03d2d7f9063f6", "fusion_lon": 0.0}, {"is_reserved": 0, "type": "electric_scooter", "bike_id": "2e97596603dad2d6d46ca9859e9184b8", "lat": 38.91978, "lon": -77.0406635, "rental_uris": {"android": "https://dc.lft.to/lastmile_qr_scan", "ios": "https://dc.lft.to/lastmile_qr_scan"}, "is_disabled": 0, "fusion_lat": 0.0, "name": "2e97596603dad2d6d46ca9859e9184b8", "fusion_lon": 0.0}, {"is_reserved": 0, "type": "electric_scooter", "bike_id": "a87d85fe01c0f712ca9cd66040fe6fbe", "lat": 38.87437583333333, "lon": -77.0092435, "rental_uris": {"android": "https://dc.lft.to/lastmile_qr_scan", "ios": "https://dc.lft.to/lastmile_qr_scan"}, "is_disabled": 0, "fusion_lat": 0.0, "name": "a87d85fe01c0f712ca9cd66040fe6fbe", "fusion_lon": 0.0}, {"is_reserved": 0, "type": "electric_scooter", "bike_id": "92f0bb288dbe18f300cfd11f4eb46b70", "lat": 38.90999683333333, "lon": -77.0449875, "rental_uris": {"android": "https://dc.lft.to/lastmile_qr_scan", "ios": "https://dc.lft.to/lastmile_qr_scan"}, "is_disabled": 0, "fusion_lat": 0.0, "name": "92f0bb288dbe18f300cfd11f4eb46b70", "fusion_lon": 0.0}, {"is_reserved": 0, "type": "electric_scooter", "bike_id": "fb36059f74dc36d2729c33821affa7c9", "lat": 38.90025416666667, "lon": -77.03627116666667, "rental_uris": {"android": "https://dc.lft.to/lastmile_qr_scan", "ios": "https://dc.lft.to/lastmile_qr_scan"}, "is_disabled": 0, "fusion_lat": 0.0, "name": "fb36059f74dc36d2729c33821affa7c9", "fusion_lon": 0.0}, {"is_reserved": 0, "type": "electric_scooter", "bike_id": "0e5e5d37afedf74160b9d8101612ffe0", "lat": 38.943051833333335, "lon": -77.02179466666666, "rental_uris": {"android": "https://dc.lft.to/lastmile_qr_scan", "ios": "https://dc.lft.to/lastmile_qr_scan"}, "is_disabled": 0, "fusion_lat": 0.0, "name": "0e5e5d37afedf74160b9d8101612ffe0", "fusion_lon": 0.0}, {"is_reserved": 0, "type": "electric_scooter", "bike_id": "82e748a35a39ea1fe533df5b53184894", "lat": 38.887353166666664, "lon": -77.01528883333333, "rental_uris": {"android": "https://dc.lft.to/lastmile_qr_scan", "ios": "https://dc.lft.to/lastmile_qr_scan"}, "is_disabled": 0, "fusion_lat": 0.0, "name": "82e748a35a39ea1fe533df5b53184894", "fusion_lon": 0.0}, {"is_reserved": 0, "type": "electric_scooter", "bike_id": "e9588cadaa6fdb002d2d1480313b8d37", "lat": 38.899120833333335, "lon": -77.02686666666666, "rental_uris": {"android": "https://dc.lft.to/lastmile_qr_scan", "ios": "https://dc.lft.to/lastmile_qr_scan"}, "is_disabled": 0, "fusion_lat": 0.0, "name": "e9588cadaa6fdb002d2d1480313b8d37", "fusion_lon": 0.0}, {"is_reserved": 0, "type": "electric_scooter", "bike_id": "b846077df2b8e92f0cbe524347573ac5", "lat": 38.92025316666667, "lon": -77.01030033333333, "rental_uris": {"android": "https://dc.lft.to/lastmile_qr_scan", "ios": "https://dc.lft.to/lastmile_qr_scan"}, "is_disabled": 0, "fusion_lat": 0.0, "name": "b846077df2b8e92f0cbe524347573ac5", "fusion_lon": 0.0}, {"is_reserved": 0, "type": "electric_scooter", "bike_id": "9e66eedd82f0f73dd6b4c2c9c9b5988d", "lat": 38.928233166666665, "lon": -77.0543855, "rental_uris": {"android": "https://dc.lft.to/lastmile_qr_scan", "ios": "https://dc.lft.to/lastmile_qr_scan"}, "is_disabled": 0, "fusion_lat": 0.0, "name": "9e66eedd82f0f73dd6b4c2c9c9b5988d", "fusion_lon": 0.0}, {"is_reserved": 0, "type": "electric_scooter", "bike_id": "0543a926e375b3df30c1a58da0d17304", "lat": 38.900772333333336, "lon": -77.02976616666666, "rental_uris": {"android": "https://dc.lft.to/lastmile_qr_scan", "ios": "https://dc.lft.to/lastmile_qr_scan"}, "is_disabled": 0, "fusion_lat": 0.0, "name": "0543a926e375b3df30c1a58da0d17304", "fusion_lon": 0.0}, {"is_reserved": 0, "type": "electric_scooter", "bike_id": "ec7bdadf223c6ca1d231dff5739c6c0c", "lat": 38.937319, "lon": -77.0326585, "rental_uris": {"android": "https://dc.lft.to/lastmile_qr_scan", "ios": "https://dc.lft.to/lastmile_qr_scan"}, "is_disabled": 0, "fusion_lat": 0.0, "name": "ec7bdadf223c6ca1d231dff5739c6c0c", "fusion_lon": 0.0}, {"is_reserved": 0, "type": "electric_scooter", "bike_id": "5f5ac0a10bcf1f13ccd96066ac8722ec", "lat": 38.90511166666667, "lon": -77.06381333333333, "rental_uris": {"android": "https://dc.lft.to/lastmile_qr_scan", "ios": "https://dc.lft.to/lastmile_qr_scan"}, "is_disabled": 0, "fusion_lat": 0.0, "name": "5f5ac0a10bcf1f13ccd96066ac8722ec", "fusion_lon": 0.0}, {"is_reserved": 0, "type": "electric_scooter", "bike_id": "81cf0ddfad60a943c94a6b03f904ee66", "lat": 38.90413233333334, "lon": -77.04477, "rental_uris": {"android": "https://dc.lft.to/lastmile_qr_scan", "ios": "https://dc.lft.to/lastmile_qr_scan"}, "is_disabled": 0, "fusion_lat": 0.0, "name": "81cf0ddfad60a943c94a6b03f904ee66", "fusion_lon": 0.0}, {"is_reserved": 0, "type": "electric_scooter", "bike_id": "d890c36129344f4e7dc5cc321de88f56", "lat": 38.876037833333335, "lon": -76.96565616666666, "rental_uris": {"android": "https://dc.lft.to/lastmile_qr_scan", "ios": "https://dc.lft.to/lastmile_qr_scan"}, "is_disabled": 0, "fusion_lat": 0.0, "name": "d890c36129344f4e7dc5cc321de88f56", "fusion_lon": 0.0}, {"is_reserved": 0, "type": "electric_scooter", "bike_id": "5f28ea97a8dd160a4e53f7a01c47da34", "lat": 38.920423666666665, "lon": -77.04189966666667, "rental_uris": {"android": "https://dc.lft.to/lastmile_qr_scan", "ios": "https://dc.lft.to/lastmile_qr_scan"}, "is_disabled": 0, "fusion_lat": 0.0, "name": "5f28ea97a8dd160a4e53f7a01c47da34", "fusion_lon": 0.0}, {"is_reserved": 0, "type": "electric_scooter", "bike_id": "5f32fd07ae6c0543f196843050b5fbf7", "lat": 38.91670716666667, "lon": -77.02384033333334, "rental_uris": {"android": "https://dc.lft.to/lastmile_qr_scan", "ios": "https://dc.lft.to/lastmile_qr_scan"}, "is_disabled": 0, "fusion_lat": 0.0, "name": "5f32fd07ae6c0543f196843050b5fbf7", "fusion_lon": 0.0}, {"is_reserved": 0, "type": "electric_scooter", "bike_id": "4426d3babc838eb05214f737dc74d556", "lat": 38.9191205, "lon": -77.0480285, "rental_uris": {"android": "https://dc.lft.to/lastmile_qr_scan", "ios": "https://dc.lft.to/lastmile_qr_scan"}, "is_disabled": 0, "fusion_lat": 0.0, "name": "4426d3babc838eb05214f737dc74d556", "fusion_lon": 0.0}, {"is_reserved": 0, "type": "electric_scooter", "bike_id": "e27b84ab0b0393f44e0a3d82fd8e0750", "lat": 38.937230666666665, "lon": -77.0326275, "rental_uris": {"android": "https://dc.lft.to/lastmile_qr_scan", "ios": "https://dc.lft.to/lastmile_qr_scan"}, "is_disabled": 0, "fusion_lat": 0.0, "name": "e27b84ab0b0393f44e0a3d82fd8e0750", "fusion_lon": 0.0}, {"is_reserved": 0, "type": "electric_scooter", "bike_id": "573d8a8604e25425b1bf579a8294a1b5", "lat": 38.918110166666665, "lon": -77.0330405, "rental_uris": {"android": "https://dc.lft.to/lastmile_qr_scan", "ios": "https://dc.lft.to/lastmile_qr_scan"}, "is_disabled": 0, "fusion_lat": 0.0, "name": "573d8a8604e25425b1bf579a8294a1b5", "fusion_lon": 0.0}, {"is_reserved": 0, "type": "electric_bike", "bike_id": "712186bb6047c745e3c28c461a94fa4b", "lat": 38.891289666666665, "lon": -77.1829905, "rental_uris": {"android": "https://dc.lft.to/lastmile_qr_scan", "ios": "https://dc.lft.to/lastmile_qr_scan"}, "is_disabled": 0, "fusion_lat": 0.0, "name": "712186bb6047c745e3c28c461a94fa4b", "fusion_lon": 0.0}, {"is_reserved": 0, "type": "electric_scooter", "bike_id": "1853f6123dc7aeaec74b9ddb7bd3a9bd", "lat": 38.9024445, "lon": -77.0266065, "rental_uris": {"android": "https://dc.lft.to/lastmile_qr_scan", "ios": "https://dc.lft.to/lastmile_qr_scan"}, "is_disabled": 0, "fusion_lat": 0.0, "name": "1853f6123dc7aeaec74b9ddb7bd3a9bd", "fusion_lon": 0.0}, {"is_reserved": 0, "type": "electric_scooter", "bike_id": "5aabbc772559b1565eaff61327fa3097", "lat": 38.85313883333333, "lon": -76.98006033333333, "rental_uris": {"android": "https://dc.lft.to/lastmile_qr_scan", "ios": "https://dc.lft.to/lastmile_qr_scan"}, "is_disabled": 0, "fusion_lat": 0.0, "name": "5aabbc772559b1565eaff61327fa3097", "fusion_lon": 0.0}, {"is_reserved": 0, "type": "electric_scooter", "bike_id": "2fe20daddb0357a30e946e5800b1da0d", "lat": 38.924485, "lon": -77.02033466666667, "rental_uris": {"android": "https://dc.lft.to/lastmile_qr_scan", "ios": "https://dc.lft.to/lastmile_qr_scan"}, "is_disabled": 0, "fusion_lat": 0.0, "name": "2fe20daddb0357a30e946e5800b1da0d", "fusion_lon": 0.0}, {"is_reserved": 0, "type": "electric_scooter", "bike_id": "980c683bf7bbd5375aa8365b3e895d19", "lat": 38.933265, "lon": -77.029107, "rental_uris": {"android": "https://dc.lft.to/lastmile_qr_scan", "ios": "https://dc.lft.to/lastmile_qr_scan"}, "is_disabled": 0, "fusion_lat": 0.0, "name": "980c683bf7bbd5375aa8365b3e895d19", "fusion_lon": 0.0}, {"is_reserved": 0, "type": "electric_scooter", "bike_id": "8ca5feccc2b6e51882c7c2c0adc0664e", "lat": 38.9165735, "lon": -77.03850416666667, "rental_uris": {"android": "https://dc.lft.to/lastmile_qr_scan", "ios": "https://dc.lft.to/lastmile_qr_scan"}, "is_disabled": 0, "fusion_lat": 0.0, "name": "8ca5feccc2b6e51882c7c2c0adc0664e", "fusion_lon": 0.0}, {"is_reserved": 0, "type": "electric_scooter", "bike_id": "86b077928b278a940d04aa6033692fab", "lat": 38.90677183333333, "lon": -77.02694583333333, "rental_uris": {"android": "https://dc.lft.to/lastmile_qr_scan", "ios": "https://dc.lft.to/lastmile_qr_scan"}, "is_disabled": 0, "fusion_lat": 0.0, "name": "86b077928b278a940d04aa6033692fab", "fusion_lon": 0.0}, {"is_reserved": 0, "type": "electric_scooter", "bike_id": "a1f8fcbc6fbaee01208a88caab83b25f", "lat": 38.9025675, "lon": -77.0032885, "rental_uris": {"android": "https://dc.lft.to/lastmile_qr_scan", "ios": "https://dc.lft.to/lastmile_qr_scan"}, "is_disabled": 0, "fusion_lat": 0.0, "name": "a1f8fcbc6fbaee01208a88caab83b25f", "fusion_lon": 0.0}, {"is_reserved": 0, "type": "electric_scooter", "bike_id": "7548120d075282f1667b4def6eb80ae4", "lat": 38.920347166666666, "lon": -77.048242, "rental_uris": {"android": "https://dc.lft.to/lastmile_qr_scan", "ios": "https://dc.lft.to/lastmile_qr_scan"}, "is_disabled": 0, "fusion_lat": 0.0, "name": "7548120d075282f1667b4def6eb80ae4", "fusion_lon": 0.0}, {"is_reserved": 0, "type": "electric_scooter", "bike_id": "0415f6ca5fb2cd917be75ae015dfcf10", "lat": 38.9171225, "lon": -77.038576, "rental_uris": {"android": "https://dc.lft.to/lastmile_qr_scan", "ios": "https://dc.lft.to/lastmile_qr_scan"}, "is_disabled": 0, "fusion_lat": 0.0, "name": "0415f6ca5fb2cd917be75ae015dfcf10", "fusion_lon": 0.0}, {"is_reserved": 0, "type": "electric_scooter", "bike_id": "0a336c363e1dc23cef8e3099c433ea78", "lat": 38.8996605, "lon": -77.0212285, "rental_uris": {"android": "https://dc.lft.to/lastmile_qr_scan", "ios": "https://dc.lft.to/lastmile_qr_scan"}, "is_disabled": 0, "fusion_lat": 0.0, "name": "0a336c363e1dc23cef8e3099c433ea78", "fusion_lon": 0.0}, {"is_reserved": 0, "type": "electric_scooter", "bike_id": "f7a49a4721ea9b37f00e11a197aa0d7e", "lat": 38.92125166666667, "lon": -77.04431283333334, "rental_uris": {"android": "https://dc.lft.to/lastmile_qr_scan", "ios": "https://dc.lft.to/lastmile_qr_scan"}, "is_disabled": 0, "fusion_lat": 0.0, "name": "f7a49a4721ea9b37f00e11a197aa0d7e", "fusion_lon": 0.0}, {"is_reserved": 0, "type": "electric_scooter", "bike_id": "5db1d1f34b33f2fa113538c887dc2f8f", "lat": 38.93189533333333, "lon": -77.019567, "rental_uris": {"android": "https://dc.lft.to/lastmile_qr_scan", "ios": "https://dc.lft.to/lastmile_qr_scan"}, "is_disabled": 0, "fusion_lat": 0.0, "name": "5db1d1f34b33f2fa113538c887dc2f8f", "fusion_lon": 0.0}, {"is_reserved": 0, "type": "electric_scooter", "bike_id": "f15cfa2a730609b84bedf268828cf302", "lat": 38.893887, "lon": -76.92306166666667, "rental_uris": {"android": "https://dc.lft.to/lastmile_qr_scan", "ios": "https://dc.lft.to/lastmile_qr_scan"}, "is_disabled": 0, "fusion_lat": 0.0, "name": "f15cfa2a730609b84bedf268828cf302", "fusion_lon": 0.0}, {"is_reserved": 0, "type": "electric_scooter", "bike_id": "c0dcf1da30b7d66c1b3a22e36d89532b", "lat": 38.885658, "lon": -76.9980605, "rental_uris": {"android": "https://dc.lft.to/lastmile_qr_scan", "ios": "https://dc.lft.to/lastmile_qr_scan"}, "is_disabled": 0, "fusion_lat": 0.0, "name": "c0dcf1da30b7d66c1b3a22e36d89532b", "fusion_lon": 0.0}, {"is_reserved": 0, "type": "electric_scooter", "bike_id": "a74956809d5a51934f2ddd46dd62ff91", "lat": 38.9241035, "lon": -77.01950416666666, "rental_uris": {"android": "https://dc.lft.to/lastmile_qr_scan", "ios": "https://dc.lft.to/lastmile_qr_scan"}, "is_disabled": 0, "fusion_lat": 0.0, "name": "a74956809d5a51934f2ddd46dd62ff91", "fusion_lon": 0.0}, {"is_reserved": 0, "type": "electric_bike", "bike_id": "5ad12281d5387a2a2e27c3504cb996a4", "lat": 38.85415916666667, "lon": -77.0836465, "rental_uris": {"android": "https://dc.lft.to/lastmile_qr_scan", "ios": "https://dc.lft.to/lastmile_qr_scan"}, "is_disabled": 0, "fusion_lat": 0.0, "name": "5ad12281d5387a2a2e27c3504cb996a4", "fusion_lon": 0.0}, {"is_reserved": 0, "type": "electric_scooter", "bike_id": "c48a24c663ad6a8dfed3e3eb3fd6037a", "lat": 38.92195366666667, "lon": -77.02410966666666, "rental_uris": {"android": "https://dc.lft.to/lastmile_qr_scan", "ios": "https://dc.lft.to/lastmile_qr_scan"}, "is_disabled": 0, "fusion_lat": 0.0, "name": "c48a24c663ad6a8dfed3e3eb3fd6037a", "fusion_lon": 0.0}, {"is_reserved": 0, "type": "electric_scooter", "bike_id": "f762439d1aa1a98ccac7657a219f6e37", "lat": 38.885327833333335, "lon": -76.99825866666667, "rental_uris": {"android": "https://dc.lft.to/lastmile_qr_scan", "ios": "https://dc.lft.to/lastmile_qr_scan"}, "is_disabled": 0, "fusion_lat": 0.0, "name": "f762439d1aa1a98ccac7657a219f6e37", "fusion_lon": 0.0}, {"is_reserved": 0, "type": "electric_scooter", "bike_id": "55a73c6a89363bc4039fc23bce0cc71d", "lat": 38.9216055, "lon": -77.03201283333334, "rental_uris": {"android": "https://dc.lft.to/lastmile_qr_scan", "ios": "https://dc.lft.to/lastmile_qr_scan"}, "is_disabled": 0, "fusion_lat": 0.0, "name": "55a73c6a89363bc4039fc23bce0cc71d", "fusion_lon": 0.0}, {"is_reserved": 0, "type": "electric_scooter", "bike_id": "3586fd79aad9f33cbc2412f9192e98a3", "lat": 38.94219433333333, "lon": -77.02961683333334, "rental_uris": {"android": "https://dc.lft.to/lastmile_qr_scan", "ios": "https://dc.lft.to/lastmile_qr_scan"}, "is_disabled": 0, "fusion_lat": 0.0, "name": "3586fd79aad9f33cbc2412f9192e98a3", "fusion_lon": 0.0}, {"is_reserved": 0, "type": "electric_bike", "bike_id": "011140d372adaf5af4375cb5507dbfb9", "lat": 38.999007, "lon": -76.90861816666667, "rental_uris": {"android": "https://dc.lft.to/lastmile_qr_scan", "ios": "https://dc.lft.to/lastmile_qr_scan"}, "is_disabled": 0, "fusion_lat": 0.0, "name": "011140d372adaf5af4375cb5507dbfb9", "fusion_lon": 0.0}, {"is_reserved": 0, "type": "electric_bike", "bike_id": "e2e870844e9082f313100f88927de341", "lat": 38.92618266666667, "lon": -77.00594066666666, "rental_uris": {"android": "https://dc.lft.to/lastmile_qr_scan", "ios": "https://dc.lft.to/lastmile_qr_scan"}, "is_disabled": 0, "fusion_lat": 0.0, "name": "e2e870844e9082f313100f88927de341", "fusion_lon": 0.0}, {"is_reserved": 0, "type": "electric_scooter", "bike_id": "c4fae5e506b27d6fc4a74969c566fae7", "lat": 38.92443016666667, "lon": -77.020334, "rental_uris": {"android": "https://dc.lft.to/lastmile_qr_scan", "ios": "https://dc.lft.to/lastmile_qr_scan"}, "is_disabled": 0, "fusion_lat": 0.0, "name": "c4fae5e506b27d6fc4a74969c566fae7", "fusion_lon": 0.0}, {"is_reserved": 0, "type": "electric_bike", "bike_id": "687fb491b9ff39d5033d6217cd4c0fb3", "lat": 38.870346166666664, "lon": -77.22904783333334, "rental_uris": {"android": "https://dc.lft.to/lastmile_qr_scan", "ios": "https://dc.lft.to/lastmile_qr_scan"}, "is_disabled": 0, "fusion_lat": 0.0, "name": "687fb491b9ff39d5033d6217cd4c0fb3", "fusion_lon": 0.0}, {"is_reserved": 0, "type": "electric_scooter", "bike_id": "504645dff71c8796dce1e7c1a212168c", "lat": 38.9236785, "lon": -77.027148, "rental_uris": {"android": "https://dc.lft.to/lastmile_qr_scan", "ios": "https://dc.lft.to/lastmile_qr_scan"}, "is_disabled": 0, "fusion_lat": 0.0, "name": "504645dff71c8796dce1e7c1a212168c", "fusion_lon": 0.0}, {"is_reserved": 0, "type": "electric_scooter", "bike_id": "4ac4d9e0f4e0e31b4334601f80e7db85", "lat": 38.92676633333333, "lon": -77.03201883333334, "rental_uris": {"android": "https://dc.lft.to/lastmile_qr_scan", "ios": "https://dc.lft.to/lastmile_qr_scan"}, "is_disabled": 0, "fusion_lat": 0.0, "name": "4ac4d9e0f4e0e31b4334601f80e7db85", "fusion_lon": 0.0}, {"is_reserved": 0, "type": "electric_scooter", "bike_id": "1c2eae6b5f250232197f281da59aa572", "lat": 38.87294333333333, "lon": -77.01077033333334, "rental_uris": {"android": "https://dc.lft.to/lastmile_qr_scan", "ios": "https://dc.lft.to/lastmile_qr_scan"}, "is_disabled": 0, "fusion_lat": 0.0, "name": "1c2eae6b5f250232197f281da59aa572", "fusion_lon": 0.0}, {"is_reserved": 0, "type": "electric_scooter", "bike_id": "4a7ce557b9de699dd59ac68f2254fcd0", "lat": 38.9009695, "lon": -77.05791666666667, "rental_uris": {"android": "https://dc.lft.to/lastmile_qr_scan", "ios": "https://dc.lft.to/lastmile_qr_scan"}, "is_disabled": 0, "fusion_lat": 0.0, "name": "4a7ce557b9de699dd59ac68f2254fcd0", "fusion_lon": 0.0}, {"is_reserved": 0, "type": "electric_scooter", "bike_id": "f3721fe018e602dc9f709186afc7a06e", "lat": 38.89305916666667, "lon": -77.01199066666666, "rental_uris": {"android": "https://dc.lft.to/lastmile_qr_scan", "ios": "https://dc.lft.to/lastmile_qr_scan"}, "is_disabled": 0, "fusion_lat": 0.0, "name": "f3721fe018e602dc9f709186afc7a06e", "fusion_lon": 0.0}, {"is_reserved": 0, "type": "electric_scooter", "bike_id": "8c423edfc92967b318bde051a1ff432d", "lat": 38.89338466666667, "lon": -77.04874483333333, "rental_uris": {"android": "https://dc.lft.to/lastmile_qr_scan", "ios": "https://dc.lft.to/lastmile_qr_scan"}, "is_disabled": 0, "fusion_lat": 0.0, "name": "8c423edfc92967b318bde051a1ff432d", "fusion_lon": 0.0}, {"is_reserved": 0, "type": "electric_scooter", "bike_id": "c4fb78a15d10e0b9da722fdf19ead650", "lat": 38.93123166666667, "lon": -77.038795, "rental_uris": {"android": "https://dc.lft.to/lastmile_qr_scan", "ios": "https://dc.lft.to/lastmile_qr_scan"}, "is_disabled": 0, "fusion_lat": 0.0, "name": "c4fb78a15d10e0b9da722fdf19ead650", "fusion_lon": 0.0}, {"is_reserved": 0, "type": "electric_scooter", "bike_id": "314247259aaf040fbf4a143560557d8c", "lat": 38.896384, "lon": -77.00923966666667, "rental_uris": {"android": "https://dc.lft.to/lastmile_qr_scan", "ios": "https://dc.lft.to/lastmile_qr_scan"}, "is_disabled": 0, "fusion_lat": 0.0, "name": "314247259aaf040fbf4a143560557d8c", "fusion_lon": 0.0}, {"is_reserved": 0, "type": "electric_bike", "bike_id": "3f2df0fba5b7f37a04c8ec1f14bd3ba4", "lat": 38.8994275, "lon": -77.0391915, "rental_uris": {"android": "https://dc.lft.to/lastmile_qr_scan", "ios": "https://dc.lft.to/lastmile_qr_scan"}, "is_disabled": 0, "fusion_lat": 0.0, "name": "3f2df0fba5b7f37a04c8ec1f14bd3ba4", "fusion_lon": 0.0}, {"is_reserved": 0, "type": "electric_bike", "bike_id": "684b6493737c62ffd2e02649653a012c", "lat": 38.942609833333336, "lon": -76.99073633333333, "rental_uris": {"android": "https://dc.lft.to/lastmile_qr_scan", "ios": "https://dc.lft.to/lastmile_qr_scan"}, "is_disabled": 0, "fusion_lat": 0.0, "name": "684b6493737c62ffd2e02649653a012c", "fusion_lon": 0.0}, {"is_reserved": 0, "type": "electric_scooter", "bike_id": "ef06b248ef4ba31c528a7a7b7aa21c05", "lat": 38.896048666666665, "lon": -77.02995016666667, "rental_uris": {"android": "https://dc.lft.to/lastmile_qr_scan", "ios": "https://dc.lft.to/lastmile_qr_scan"}, "is_disabled": 0, "fusion_lat": 0.0, "name": "ef06b248ef4ba31c528a7a7b7aa21c05", "fusion_lon": 0.0}, {"is_reserved": 0, "type": "electric_scooter", "bike_id": "38cfaf0582e84ab8b6a30852f7275aba", "lat": 38.89631716666667, "lon": -76.927995, "rental_uris": {"android": "https://dc.lft.to/lastmile_qr_scan", "ios": "https://dc.lft.to/lastmile_qr_scan"}, "is_disabled": 0, "fusion_lat": 0.0, "name": "38cfaf0582e84ab8b6a30852f7275aba", "fusion_lon": 0.0}, {"is_reserved": 0, "type": "electric_scooter", "bike_id": "d8151f64bcf139e66657eb7f2774dc86", "lat": 38.90760216666666, "lon": -77.03200333333334, "rental_uris": {"android": "https://dc.lft.to/lastmile_qr_scan", "ios": "https://dc.lft.to/lastmile_qr_scan"}, "is_disabled": 0, "fusion_lat": 0.0, "name": "d8151f64bcf139e66657eb7f2774dc86", "fusion_lon": 0.0}, {"is_reserved": 0, "type": "electric_scooter", "bike_id": "131f0e7966f6b7f87094f83afbce8bf4", "lat": 38.959118, "lon": -77.000147, "rental_uris": {"android": "https://dc.lft.to/lastmile_qr_scan", "ios": "https://dc.lft.to/lastmile_qr_scan"}, "is_disabled": 0, "fusion_lat": 0.0, "name": "131f0e7966f6b7f87094f83afbce8bf4", "fusion_lon": 0.0}, {"is_reserved": 0, "type": "electric_scooter", "bike_id": "c492d65bdbb84f91290584cb215b2256", "lat": 38.94588366666667, "lon": -77.0203135, "rental_uris": {"android": "https://dc.lft.to/lastmile_qr_scan", "ios": "https://dc.lft.to/lastmile_qr_scan"}, "is_disabled": 0, "fusion_lat": 0.0, "name": "c492d65bdbb84f91290584cb215b2256", "fusion_lon": 0.0}, {"is_reserved": 0, "type": "electric_scooter", "bike_id": "be19901e8cd0698027911e986c158563", "lat": 38.902110666666665, "lon": -77.02173166666667, "rental_uris": {"android": "https://dc.lft.to/lastmile_qr_scan", "ios": "https://dc.lft.to/lastmile_qr_scan"}, "is_disabled": 0, "fusion_lat": 0.0, "name": "be19901e8cd0698027911e986c158563", "fusion_lon": 0.0}, {"is_reserved": 0, "type": "electric_bike", "bike_id": "acda2f9197c4a93bdd027a162b31811a", "lat": 38.87338283333333, "lon": -77.01857583333333, "rental_uris": {"android": "https://dc.lft.to/lastmile_qr_scan", "ios": "https://dc.lft.to/lastmile_qr_scan"}, "is_disabled": 0, "fusion_lat": 0.0, "name": "acda2f9197c4a93bdd027a162b31811a", "fusion_lon": 0.0}, {"is_reserved": 0, "type": "electric_scooter", "bike_id": "5ca4cebe411f49cc80afd7f9f7b9ee4f", "lat": 38.946909166666664, "lon": -77.0224675, "rental_uris": {"android": "https://dc.lft.to/lastmile_qr_scan", "ios": "https://dc.lft.to/lastmile_qr_scan"}, "is_disabled": 0, "fusion_lat": 0.0, "name": "5ca4cebe411f49cc80afd7f9f7b9ee4f", "fusion_lon": 0.0}, {"is_reserved": 0, "type": "electric_scooter", "bike_id": "6a3bb23e987dc3ddc72dc25eddf6cc06", "lat": 38.92982833333333, "lon": -77.034725, "rental_uris": {"android": "https://dc.lft.to/lastmile_qr_scan", "ios": "https://dc.lft.to/lastmile_qr_scan"}, "is_disabled": 0, "fusion_lat": 0.0, "name": "6a3bb23e987dc3ddc72dc25eddf6cc06", "fusion_lon": 0.0}, {"is_reserved": 0, "type": "electric_scooter", "bike_id": "72d1615919cc080d6ecb1d99f0cd8ba8", "lat": 38.89217883333333, "lon": -77.02413166666666, "rental_uris": {"android": "https://dc.lft.to/lastmile_qr_scan", "ios": "https://dc.lft.to/lastmile_qr_scan"}, "is_disabled": 0, "fusion_lat": 0.0, "name": "72d1615919cc080d6ecb1d99f0cd8ba8", "fusion_lon": 0.0}, {"is_reserved": 0, "type": "electric_scooter", "bike_id": "f10d2326bba6e7170c097c492f6c81dd", "lat": 38.91264966666667, "lon": -77.01249116666666, "rental_uris": {"android": "https://dc.lft.to/lastmile_qr_scan", "ios": "https://dc.lft.to/lastmile_qr_scan"}, "is_disabled": 0, "fusion_lat": 0.0, "name": "f10d2326bba6e7170c097c492f6c81dd", "fusion_lon": 0.0}, {"is_reserved": 0, "type": "electric_scooter", "bike_id": "e0b8ccbe1504bbe70add8f7f9ba5c4ac", "lat": 38.902706333333334, "lon": -77.039881, "rental_uris": {"android": "https://dc.lft.to/lastmile_qr_scan", "ios": "https://dc.lft.to/lastmile_qr_scan"}, "is_disabled": 0, "fusion_lat": 0.0, "name": "e0b8ccbe1504bbe70add8f7f9ba5c4ac", "fusion_lon": 0.0}, {"is_reserved": 0, "type": "electric_scooter", "bike_id": "b45cadd7afc2d54ddcfe378f3a2d5c96", "lat": 38.89765, "lon": -77.02685333333334, "rental_uris": {"android": "https://dc.lft.to/lastmile_qr_scan", "ios": "https://dc.lft.to/lastmile_qr_scan"}, "is_disabled": 0, "fusion_lat": 0.0, "name": "b45cadd7afc2d54ddcfe378f3a2d5c96", "fusion_lon": 0.0}, {"is_reserved": 0, "type": "electric_scooter", "bike_id": "27e2b04030266a6db825fbc318fea75e", "lat": 38.91837066666667, "lon": -77.03903383333333, "rental_uris": {"android": "https://dc.lft.to/lastmile_qr_scan", "ios": "https://dc.lft.to/lastmile_qr_scan"}, "is_disabled": 0, "fusion_lat": 0.0, "name": "27e2b04030266a6db825fbc318fea75e", "fusion_lon": 0.0}, {"is_reserved": 0, "type": "electric_scooter", "bike_id": "fa0eed95ad1aba69f6527197e60c30a3", "lat": 38.88510266666667, "lon": -77.01117683333334, "rental_uris": {"android": "https://dc.lft.to/lastmile_qr_scan", "ios": "https://dc.lft.to/lastmile_qr_scan"}, "is_disabled": 0, "fusion_lat": 0.0, "name": "fa0eed95ad1aba69f6527197e60c30a3", "fusion_lon": 0.0}, {"is_reserved": 0, "type": "electric_scooter", "bike_id": "f20cc423a4bb8b480e108507531a15cf", "lat": 38.915587333333335, "lon": -77.0297735, "rental_uris": {"android": "https://dc.lft.to/lastmile_qr_scan", "ios": "https://dc.lft.to/lastmile_qr_scan"}, "is_disabled": 0, "fusion_lat": 0.0, "name": "f20cc423a4bb8b480e108507531a15cf", "fusion_lon": 0.0}, {"is_reserved": 0, "type": "electric_scooter", "bike_id": "b13eb1aab3664b4b840fbabcb79d7007", "lat": 38.915895166666665, "lon": -77.02395216666666, "rental_uris": {"android": "https://dc.lft.to/lastmile_qr_scan", "ios": "https://dc.lft.to/lastmile_qr_scan"}, "is_disabled": 0, "fusion_lat": 0.0, "name": "b13eb1aab3664b4b840fbabcb79d7007", "fusion_lon": 0.0}, {"is_reserved": 0, "type": "electric_scooter", "bike_id": "6366e2174b2d5bcb8f3aec5b4d43f152", "lat": 38.94071433333333, "lon": -77.05490133333333, "rental_uris": {"android": "https://dc.lft.to/lastmile_qr_scan", "ios": "https://dc.lft.to/lastmile_qr_scan"}, "is_disabled": 0, "fusion_lat": 0.0, "name": "6366e2174b2d5bcb8f3aec5b4d43f152", "fusion_lon": 0.0}, {"is_reserved": 0, "type": "electric_scooter", "bike_id": "998cd7dfa35b5061c07e62e40e8671a2", "lat": 38.917051, "lon": -77.03871483333333, "rental_uris": {"android": "https://dc.lft.to/lastmile_qr_scan", "ios": "https://dc.lft.to/lastmile_qr_scan"}, "is_disabled": 0, "fusion_lat": 0.0, "name": "998cd7dfa35b5061c07e62e40e8671a2", "fusion_lon": 0.0}, {"is_reserved": 0, "type": "electric_scooter", "bike_id": "a98bf38b4ca349376062a18b091bce43", "lat": 38.883903, "lon": -76.93039116666667, "rental_uris": {"android": "https://dc.lft.to/lastmile_qr_scan", "ios": "https://dc.lft.to/lastmile_qr_scan"}, "is_disabled": 0, "fusion_lat": 0.0, "name": "a98bf38b4ca349376062a18b091bce43", "fusion_lon": 0.0}, {"is_reserved": 0, "type": "electric_scooter", "bike_id": "8f4de97673c1415098fadcdb0b99ca53", "lat": 38.9320285, "lon": -77.03893733333334, "rental_uris": {"android": "https://dc.lft.to/lastmile_qr_scan", "ios": "https://dc.lft.to/lastmile_qr_scan"}, "is_disabled": 0, "fusion_lat": 0.0, "name": "8f4de97673c1415098fadcdb0b99ca53", "fusion_lon": 0.0}, {"is_reserved": 0, "type": "electric_bike", "bike_id": "667327f7998b07a66d4cf213e39e8acf", "lat": 38.894547833333334, "lon": -77.19133616666667, "rental_uris": {"android": "https://dc.lft.to/lastmile_qr_scan", "ios": "https://dc.lft.to/lastmile_qr_scan"}, "is_disabled": 0, "fusion_lat": 0.0, "name": "667327f7998b07a66d4cf213e39e8acf", "fusion_lon": 0.0}, {"is_reserved": 0, "type": "electric_scooter", "bike_id": "105088d519a0fa37ed3fe100da76bb1e", "lat": 38.905293, "lon": -77.06147166666666, "rental_uris": {"android": "https://dc.lft.to/lastmile_qr_scan", "ios": "https://dc.lft.to/lastmile_qr_scan"}, "is_disabled": 0, "fusion_lat": 0.0, "name": "105088d519a0fa37ed3fe100da76bb1e", "fusion_lon": 0.0}, {"is_reserved": 0, "type": "electric_scooter", "bike_id": "4effb0fb2070fb6a347d3734a8a28b01", "lat": 38.90771516666667, "lon": -77.03554866666667, "rental_uris": {"android": "https://dc.lft.to/lastmile_qr_scan", "ios": "https://dc.lft.to/lastmile_qr_scan"}, "is_disabled": 0, "fusion_lat": 0.0, "name": "4effb0fb2070fb6a347d3734a8a28b01", "fusion_lon": 0.0}, {"is_reserved": 0, "type": "electric_scooter", "bike_id": "06b9947b9fa3c4a1f406a94f8acdb0f0", "lat": 38.89224466666667, "lon": -77.0160725, "rental_uris": {"android": "https://dc.lft.to/lastmile_qr_scan", "ios": "https://dc.lft.to/lastmile_qr_scan"}, "is_disabled": 0, "fusion_lat": 0.0, "name": "06b9947b9fa3c4a1f406a94f8acdb0f0", "fusion_lon": 0.0}, {"is_reserved": 0, "type": "electric_scooter", "bike_id": "258bdb4a5444805055ccaf9cad916de7", "lat": 38.90597666666667, "lon": -76.95063883333333, "rental_uris": {"android": "https://dc.lft.to/lastmile_qr_scan", "ios": "https://dc.lft.to/lastmile_qr_scan"}, "is_disabled": 0, "fusion_lat": 0.0, "name": "258bdb4a5444805055ccaf9cad916de7", "fusion_lon": 0.0}, {"is_reserved": 0, "type": "electric_scooter", "bike_id": "bd9951c5ae62b43303def4a40c401f4a", "lat": 38.90128083333333, "lon": -77.04172516666667, "rental_uris": {"android": "https://dc.lft.to/lastmile_qr_scan", "ios": "https://dc.lft.to/lastmile_qr_scan"}, "is_disabled": 0, "fusion_lat": 0.0, "name": "bd9951c5ae62b43303def4a40c401f4a", "fusion_lon": 0.0}, {"is_reserved": 0, "type": "electric_scooter", "bike_id": "5cdabaa2434cf8008aa439eded99162f", "lat": 38.91791633333333, "lon": -77.02320233333333, "rental_uris": {"android": "https://dc.lft.to/lastmile_qr_scan", "ios": "https://dc.lft.to/lastmile_qr_scan"}, "is_disabled": 0, "fusion_lat": 0.0, "name": "5cdabaa2434cf8008aa439eded99162f", "fusion_lon": 0.0}, {"is_reserved": 0, "type": "electric_scooter", "bike_id": "c086933e90a0b5f2359b28f27dca6c81", "lat": 38.88408583333333, "lon": -77.02569783333334, "rental_uris": {"android": "https://dc.lft.to/lastmile_qr_scan", "ios": "https://dc.lft.to/lastmile_qr_scan"}, "is_disabled": 0, "fusion_lat": 0.0, "name": "c086933e90a0b5f2359b28f27dca6c81", "fusion_lon": 0.0}, {"is_reserved": 0, "type": "electric_scooter", "bike_id": "b30a16040415dc9d629e2e7d00bc9204", "lat": 38.89604516666667, "lon": -77.005269, "rental_uris": {"android": "https://dc.lft.to/lastmile_qr_scan", "ios": "https://dc.lft.to/lastmile_qr_scan"}, "is_disabled": 0, "fusion_lat": 0.0, "name": "b30a16040415dc9d629e2e7d00bc9204", "fusion_lon": 0.0}, {"is_reserved": 0, "type": "electric_scooter", "bike_id": "f2067caa2ea996edf662f4db30e53ad2", "lat": 38.936272, "lon": -77.06484766666667, "rental_uris": {"android": "https://dc.lft.to/lastmile_qr_scan", "ios": "https://dc.lft.to/lastmile_qr_scan"}, "is_disabled": 0, "fusion_lat": 0.0, "name": "f2067caa2ea996edf662f4db30e53ad2", "fusion_lon": 0.0}, {"is_reserved": 0, "type": "electric_scooter", "bike_id": "3dc455555cf18fb045398e25b714a60d", "lat": 38.9156005, "lon": -77.036737, "rental_uris": {"android": "https://dc.lft.to/lastmile_qr_scan", "ios": "https://dc.lft.to/lastmile_qr_scan"}, "is_disabled": 0, "fusion_lat": 0.0, "name": "3dc455555cf18fb045398e25b714a60d", "fusion_lon": 0.0}, {"is_reserved": 0, "type": "electric_scooter", "bike_id": "a24f2ac81fd2902fb748e4f657589456", "lat": 38.89825333333334, "lon": -77.0482565, "rental_uris": {"android": "https://dc.lft.to/lastmile_qr_scan", "ios": "https://dc.lft.to/lastmile_qr_scan"}, "is_disabled": 0, "fusion_lat": 0.0, "name": "a24f2ac81fd2902fb748e4f657589456", "fusion_lon": 0.0}, {"is_reserved": 0, "type": "electric_scooter", "bike_id": "4a071254b1e3ac376eaf9ec73e328ed0", "lat": 38.90114783333333, "lon": -77.033471, "rental_uris": {"android": "https://dc.lft.to/lastmile_qr_scan", "ios": "https://dc.lft.to/lastmile_qr_scan"}, "is_disabled": 0, "fusion_lat": 0.0, "name": "4a071254b1e3ac376eaf9ec73e328ed0", "fusion_lon": 0.0}, {"is_reserved": 0, "type": "electric_scooter", "bike_id": "037b9c5213bbdd3b05d489905d8dcaa9", "lat": 38.93029683333334, "lon": -77.0831365, "rental_uris": {"android": "https://dc.lft.to/lastmile_qr_scan", "ios": "https://dc.lft.to/lastmile_qr_scan"}, "is_disabled": 0, "fusion_lat": 0.0, "name": "037b9c5213bbdd3b05d489905d8dcaa9", "fusion_lon": 0.0}, {"is_reserved": 0, "type": "electric_scooter", "bike_id": "e11041faf19d9d59b15c9f2f7df76777", "lat": 38.916323166666665, "lon": -77.039577, "rental_uris": {"android": "https://dc.lft.to/lastmile_qr_scan", "ios": "https://dc.lft.to/lastmile_qr_scan"}, "is_disabled": 0, "fusion_lat": 0.0, "name": "e11041faf19d9d59b15c9f2f7df76777", "fusion_lon": 0.0}, {"is_reserved": 0, "type": "electric_scooter", "bike_id": "d16c0cd1112e705683b0441780d95afb", "lat": 38.97494016666667, "lon": -77.01693616666667, "rental_uris": {"android": "https://dc.lft.to/lastmile_qr_scan", "ios": "https://dc.lft.to/lastmile_qr_scan"}, "is_disabled": 0, "fusion_lat": 0.0, "name": "d16c0cd1112e705683b0441780d95afb", "fusion_lon": 0.0}, {"is_reserved": 0, "type": "electric_scooter", "bike_id": "b2ca37dcc95c20756a10cb1e94a81005", "lat": 38.917278833333334, "lon": -77.0364585, "rental_uris": {"android": "https://dc.lft.to/lastmile_qr_scan", "ios": "https://dc.lft.to/lastmile_qr_scan"}, "is_disabled": 0, "fusion_lat": 0.0, "name": "b2ca37dcc95c20756a10cb1e94a81005", "fusion_lon": 0.0}, {"is_reserved": 0, "type": "electric_scooter", "bike_id": "bc37a8e4241891dcdbe5a5e7cfed9c0f", "lat": 38.9299375, "lon": -77.037994, "rental_uris": {"android": "https://dc.lft.to/lastmile_qr_scan", "ios": "https://dc.lft.to/lastmile_qr_scan"}, "is_disabled": 0, "fusion_lat": 0.0, "name": "bc37a8e4241891dcdbe5a5e7cfed9c0f", "fusion_lon": 0.0}, {"is_reserved": 0, "type": "electric_scooter", "bike_id": "593ac2a50f905deb5a01b3afa5a4fc30", "lat": 38.91807816666667, "lon": -77.04542933333333, "rental_uris": {"android": "https://dc.lft.to/lastmile_qr_scan", "ios": "https://dc.lft.to/lastmile_qr_scan"}, "is_disabled": 0, "fusion_lat": 0.0, "name": "593ac2a50f905deb5a01b3afa5a4fc30", "fusion_lon": 0.0}, {"is_reserved": 0, "type": "electric_scooter", "bike_id": "e3016b9cd5f3953349a085f18d49efad", "lat": 38.975113, "lon": -77.017365, "rental_uris": {"android": "https://dc.lft.to/lastmile_qr_scan", "ios": "https://dc.lft.to/lastmile_qr_scan"}, "is_disabled": 0, "fusion_lat": 0.0, "name": "e3016b9cd5f3953349a085f18d49efad", "fusion_lon": 0.0}, {"is_reserved": 0, "type": "electric_scooter", "bike_id": "025d3f14b7dc3763e3c825ecf66baf80", "lat": 38.91269283333333, "lon": -77.03808066666667, "rental_uris": {"android": "https://dc.lft.to/lastmile_qr_scan", "ios": "https://dc.lft.to/lastmile_qr_scan"}, "is_disabled": 0, "fusion_lat": 0.0, "name": "025d3f14b7dc3763e3c825ecf66baf80", "fusion_lon": 0.0}, {"is_reserved": 0, "type": "electric_scooter", "bike_id": "c8bc3b5a96fe6a891485b8c121302abb", "lat": 38.916965166666664, "lon": -77.03587783333333, "rental_uris": {"android": "https://dc.lft.to/lastmile_qr_scan", "ios": "https://dc.lft.to/lastmile_qr_scan"}, "is_disabled": 0, "fusion_lat": 0.0, "name": "c8bc3b5a96fe6a891485b8c121302abb", "fusion_lon": 0.0}, {"is_reserved": 0, "type": "electric_bike", "bike_id": "db28df0d5f58a5484103fb3292b9a607", "lat": 38.91139733333333, "lon": -76.9968315, "rental_uris": {"android": "https://dc.lft.to/lastmile_qr_scan", "ios": "https://dc.lft.to/lastmile_qr_scan"}, "is_disabled": 0, "fusion_lat": 0.0, "name": "db28df0d5f58a5484103fb3292b9a607", "fusion_lon": 0.0}, {"is_reserved": 0, "type": "electric_bike", "bike_id": "d7902c8ec9adb649b51d981bd99d30b6", "lat": 38.95753533333333, "lon": -76.980186, "rental_uris": {"android": "https://dc.lft.to/lastmile_qr_scan", "ios": "https://dc.lft.to/lastmile_qr_scan"}, "is_disabled": 0, "fusion_lat": 0.0, "name": "d7902c8ec9adb649b51d981bd99d30b6", "fusion_lon": 0.0}, {"is_reserved": 0, "type": "electric_scooter", "bike_id": "31c98f770a401316b7f41fff0fb824dc", "lat": 38.92600616666667, "lon": -77.0216895, "rental_uris": {"android": "https://dc.lft.to/lastmile_qr_scan", "ios": "https://dc.lft.to/lastmile_qr_scan"}, "is_disabled": 0, "fusion_lat": 0.0, "name": "31c98f770a401316b7f41fff0fb824dc", "fusion_lon": 0.0}, {"is_reserved": 0, "type": "electric_scooter", "bike_id": "1cb5d2080d1d6bb87aa7395388b13a3a", "lat": 38.91268616666667, "lon": -77.01222216666666, "rental_uris": {"android": "https://dc.lft.to/lastmile_qr_scan", "ios": "https://dc.lft.to/lastmile_qr_scan"}, "is_disabled": 0, "fusion_lat": 0.0, "name": "1cb5d2080d1d6bb87aa7395388b13a3a", "fusion_lon": 0.0}, {"is_reserved": 0, "type": "electric_scooter", "bike_id": "2cdb7e0920368a684e85e8dc9f9584dc", "lat": 38.91854766666667, "lon": -77.041753, "rental_uris": {"android": "https://dc.lft.to/lastmile_qr_scan", "ios": "https://dc.lft.to/lastmile_qr_scan"}, "is_disabled": 0, "fusion_lat": 0.0, "name": "2cdb7e0920368a684e85e8dc9f9584dc", "fusion_lon": 0.0}, {"is_reserved": 0, "type": "electric_scooter", "bike_id": "23b237598d7894d659d9ed4cca126022", "lat": 38.93989116666667, "lon": -77.02001766666666, "rental_uris": {"android": "https://dc.lft.to/lastmile_qr_scan", "ios": "https://dc.lft.to/lastmile_qr_scan"}, "is_disabled": 0, "fusion_lat": 0.0, "name": "23b237598d7894d659d9ed4cca126022", "fusion_lon": 0.0}, {"is_reserved": 0, "type": "electric_scooter", "bike_id": "3e24505fea50f19f2dd678a743a8d949", "lat": 38.9006655, "lon": -77.00200683333334, "rental_uris": {"android": "https://dc.lft.to/lastmile_qr_scan", "ios": "https://dc.lft.to/lastmile_qr_scan"}, "is_disabled": 0, "fusion_lat": 0.0, "name": "3e24505fea50f19f2dd678a743a8d949", "fusion_lon": 0.0}, {"is_reserved": 0, "type": "electric_scooter", "bike_id": "38cadfeb5faaf52c405ff04dab4d6927", "lat": 38.90197233333333, "lon": -77.02175666666666, "rental_uris": {"android": "https://dc.lft.to/lastmile_qr_scan", "ios": "https://dc.lft.to/lastmile_qr_scan"}, "is_disabled": 0, "fusion_lat": 0.0, "name": "38cadfeb5faaf52c405ff04dab4d6927", "fusion_lon": 0.0}, {"is_reserved": 0, "type": "electric_scooter", "bike_id": "232a0a0f607a535b8ba207c6880ebab8", "lat": 38.90345633333333, "lon": -76.986157, "rental_uris": {"android": "https://dc.lft.to/lastmile_qr_scan", "ios": "https://dc.lft.to/lastmile_qr_scan"}, "is_disabled": 0, "fusion_lat": 0.0, "name": "232a0a0f607a535b8ba207c6880ebab8", "fusion_lon": 0.0}, {"is_reserved": 0, "type": "electric_scooter", "bike_id": "be2477d14c42df1d12e60fe22780ca68", "lat": 38.91837133333333, "lon": -77.01477833333334, "rental_uris": {"android": "https://dc.lft.to/lastmile_qr_scan", "ios": "https://dc.lft.to/lastmile_qr_scan"}, "is_disabled": 0, "fusion_lat": 0.0, "name": "be2477d14c42df1d12e60fe22780ca68", "fusion_lon": 0.0}, {"is_reserved": 0, "type": "electric_scooter", "bike_id": "954571cdbe2de196f670774121489eec", "lat": 38.930756, "lon": -77.02795483333334, "rental_uris": {"android": "https://dc.lft.to/lastmile_qr_scan", "ios": "https://dc.lft.to/lastmile_qr_scan"}, "is_disabled": 0, "fusion_lat": 0.0, "name": "954571cdbe2de196f670774121489eec", "fusion_lon": 0.0}, {"is_reserved": 0, "type": "electric_scooter", "bike_id": "83b9cf27a991bb94b39eb94c8521c113", "lat": 38.92451033333333, "lon": -77.05193583333333, "rental_uris": {"android": "https://dc.lft.to/lastmile_qr_scan", "ios": "https://dc.lft.to/lastmile_qr_scan"}, "is_disabled": 0, "fusion_lat": 0.0, "name": "83b9cf27a991bb94b39eb94c8521c113", "fusion_lon": 0.0}, {"is_reserved": 0, "type": "electric_scooter", "bike_id": "e509ef91e388c1ec7c0e7fb490596f30", "lat": 38.927522833333335, "lon": -77.03301883333333, "rental_uris": {"android": "https://dc.lft.to/lastmile_qr_scan", "ios": "https://dc.lft.to/lastmile_qr_scan"}, "is_disabled": 0, "fusion_lat": 0.0, "name": "e509ef91e388c1ec7c0e7fb490596f30", "fusion_lon": 0.0}, {"is_reserved": 0, "type": "electric_bike", "bike_id": "4bd19bb0efc31a9358a5daa2b958ddc4", "lat": 39.0002745, "lon": -77.04740983333333, "rental_uris": {"android": "https://dc.lft.to/lastmile_qr_scan", "ios": "https://dc.lft.to/lastmile_qr_scan"}, "is_disabled": 0, "fusion_lat": 0.0, "name": "4bd19bb0efc31a9358a5daa2b958ddc4", "fusion_lon": 0.0}, {"is_reserved": 0, "type": "electric_scooter", "bike_id": "4db4604e36d0063e388c26b85d26db09", "lat": 38.899344666666664, "lon": -76.97706866666667, "rental_uris": {"android": "https://dc.lft.to/lastmile_qr_scan", "ios": "https://dc.lft.to/lastmile_qr_scan"}, "is_disabled": 0, "fusion_lat": 0.0, "name": "4db4604e36d0063e388c26b85d26db09", "fusion_lon": 0.0}, {"is_reserved": 0, "type": "electric_scooter", "bike_id": "131f28d85778e81cf4a7d834fa8e3a59", "lat": 38.90996416666667, "lon": -77.0319455, "rental_uris": {"android": "https://dc.lft.to/lastmile_qr_scan", "ios": "https://dc.lft.to/lastmile_qr_scan"}, "is_disabled": 0, "fusion_lat": 0.0, "name": "131f28d85778e81cf4a7d834fa8e3a59", "fusion_lon": 0.0}, {"is_reserved": 0, "type": "electric_scooter", "bike_id": "f3b6ff2c7e88fe79ad0b3d036d452bed", "lat": 38.87489933333333, "lon": -77.00230133333334, "rental_uris": {"android": "https://dc.lft.to/lastmile_qr_scan", "ios": "https://dc.lft.to/lastmile_qr_scan"}, "is_disabled": 0, "fusion_lat": 0.0, "name": "f3b6ff2c7e88fe79ad0b3d036d452bed", "fusion_lon": 0.0}, {"is_reserved": 0, "type": "electric_scooter", "bike_id": "1034c34a343acf30f743b7fc3a0b3519", "lat": 38.940736666666666, "lon": -77.05492366666667, "rental_uris": {"android": "https://dc.lft.to/lastmile_qr_scan", "ios": "https://dc.lft.to/lastmile_qr_scan"}, "is_disabled": 0, "fusion_lat": 0.0, "name": "1034c34a343acf30f743b7fc3a0b3519", "fusion_lon": 0.0}, {"is_reserved": 0, "type": "electric_scooter", "bike_id": "85c6337cc2b6e29d201ce3cb400e79d7", "lat": 38.89705983333333, "lon": -77.03305116666667, "rental_uris": {"android": "https://dc.lft.to/lastmile_qr_scan", "ios": "https://dc.lft.to/lastmile_qr_scan"}, "is_disabled": 0, "fusion_lat": 0.0, "name": "85c6337cc2b6e29d201ce3cb400e79d7", "fusion_lon": 0.0}, {"is_reserved": 0, "type": "electric_scooter", "bike_id": "cd4ec52ae6abc477566f9288cb365485", "lat": 38.863719333333336, "lon": -76.99058916666667, "rental_uris": {"android": "https://dc.lft.to/lastmile_qr_scan", "ios": "https://dc.lft.to/lastmile_qr_scan"}, "is_disabled": 0, "fusion_lat": 0.0, "name": "cd4ec52ae6abc477566f9288cb365485", "fusion_lon": 0.0}, {"is_reserved": 0, "type": "electric_scooter", "bike_id": "3ff3f53f1db1706029a7fc5a59327923", "lat": 38.92322733333334, "lon": -77.0417995, "rental_uris": {"android": "https://dc.lft.to/lastmile_qr_scan", "ios": "https://dc.lft.to/lastmile_qr_scan"}, "is_disabled": 0, "fusion_lat": 0.0, "name": "3ff3f53f1db1706029a7fc5a59327923", "fusion_lon": 0.0}, {"is_reserved": 0, "type": "electric_scooter", "bike_id": "710528e25e011ff6f1f760abccddaf4e", "lat": 38.95373816666667, "lon": -77.001857, "rental_uris": {"android": "https://dc.lft.to/lastmile_qr_scan", "ios": "https://dc.lft.to/lastmile_qr_scan"}, "is_disabled": 0, "fusion_lat": 0.0, "name": "710528e25e011ff6f1f760abccddaf4e", "fusion_lon": 0.0}, {"is_reserved": 0, "type": "electric_scooter", "bike_id": "be11100e5ffadb8aa9e136ed36804c0d", "lat": 38.92599716666667, "lon": -77.021656, "rental_uris": {"android": "https://dc.lft.to/lastmile_qr_scan", "ios": "https://dc.lft.to/lastmile_qr_scan"}, "is_disabled": 0, "fusion_lat": 0.0, "name": "be11100e5ffadb8aa9e136ed36804c0d", "fusion_lon": 0.0}, {"is_reserved": 0, "type": "electric_scooter", "bike_id": "f02866562d3affa29b5f3dd45cf8b853", "lat": 38.917801833333336, "lon": -77.04097266666666, "rental_uris": {"android": "https://dc.lft.to/lastmile_qr_scan", "ios": "https://dc.lft.to/lastmile_qr_scan"}, "is_disabled": 0, "fusion_lat": 0.0, "name": "f02866562d3affa29b5f3dd45cf8b853", "fusion_lon": 0.0}, {"is_reserved": 0, "type": "electric_scooter", "bike_id": "d13939e3d2b2939b04cba434fce6574d", "lat": 38.90374666666666, "lon": -77.0419265, "rental_uris": {"android": "https://dc.lft.to/lastmile_qr_scan", "ios": "https://dc.lft.to/lastmile_qr_scan"}, "is_disabled": 0, "fusion_lat": 0.0, "name": "d13939e3d2b2939b04cba434fce6574d", "fusion_lon": 0.0}, {"is_reserved": 0, "type": "electric_scooter", "bike_id": "47232bc0d1723be4447351b295f1a6a7", "lat": 38.898852833333336, "lon": -77.00355, "rental_uris": {"android": "https://dc.lft.to/lastmile_qr_scan", "ios": "https://dc.lft.to/lastmile_qr_scan"}, "is_disabled": 0, "fusion_lat": 0.0, "name": "47232bc0d1723be4447351b295f1a6a7", "fusion_lon": 0.0}, {"is_reserved": 0, "type": "electric_scooter", "bike_id": "73fe6ceb1e2039a928975d8480d8e7f1", "lat": 38.9040905, "lon": -76.973286, "rental_uris": {"android": "https://dc.lft.to/lastmile_qr_scan", "ios": "https://dc.lft.to/lastmile_qr_scan"}, "is_disabled": 0, "fusion_lat": 0.0, "name": "73fe6ceb1e2039a928975d8480d8e7f1", "fusion_lon": 0.0}, {"is_reserved": 0, "type": "electric_scooter", "bike_id": "4e67b08d7cdef706d19f6b358a4e8c8e", "lat": 38.934769333333335, "lon": -77.05650916666667, "rental_uris": {"android": "https://dc.lft.to/lastmile_qr_scan", "ios": "https://dc.lft.to/lastmile_qr_scan"}, "is_disabled": 0, "fusion_lat": 0.0, "name": "4e67b08d7cdef706d19f6b358a4e8c8e", "fusion_lon": 0.0}, {"is_reserved": 0, "type": "electric_scooter", "bike_id": "e84cc2553239952acc44827e88bfda6c", "lat": 38.91062633333333, "lon": -77.040809, "rental_uris": {"android": "https://dc.lft.to/lastmile_qr_scan", "ios": "https://dc.lft.to/lastmile_qr_scan"}, "is_disabled": 0, "fusion_lat": 0.0, "name": "e84cc2553239952acc44827e88bfda6c", "fusion_lon": 0.0}, {"is_reserved": 0, "type": "electric_scooter", "bike_id": "ca7cd160fcb716b6b027ca84d6c4c126", "lat": 38.93186083333333, "lon": -77.04130366666666, "rental_uris": {"android": "https://dc.lft.to/lastmile_qr_scan", "ios": "https://dc.lft.to/lastmile_qr_scan"}, "is_disabled": 0, "fusion_lat": 0.0, "name": "ca7cd160fcb716b6b027ca84d6c4c126", "fusion_lon": 0.0}, {"is_reserved": 0, "type": "electric_scooter", "bike_id": "32fe3608e09bf3d9a1fa331a47607da1", "lat": 38.9104855, "lon": -77.021936, "rental_uris": {"android": "https://dc.lft.to/lastmile_qr_scan", "ios": "https://dc.lft.to/lastmile_qr_scan"}, "is_disabled": 0, "fusion_lat": 0.0, "name": "32fe3608e09bf3d9a1fa331a47607da1", "fusion_lon": 0.0}, {"is_reserved": 0, "type": "electric_scooter", "bike_id": "0fc1f88e982d980502d2920e0968c1c5", "lat": 38.90704866666667, "lon": -77.00010883333333, "rental_uris": {"android": "https://dc.lft.to/lastmile_qr_scan", "ios": "https://dc.lft.to/lastmile_qr_scan"}, "is_disabled": 0, "fusion_lat": 0.0, "name": "0fc1f88e982d980502d2920e0968c1c5", "fusion_lon": 0.0}, {"is_reserved": 0, "type": "electric_scooter", "bike_id": "07d9d04a56d023ef1f1cf33d7a9b7243", "lat": 38.880936166666665, "lon": -76.99502, "rental_uris": {"android": "https://dc.lft.to/lastmile_qr_scan", "ios": "https://dc.lft.to/lastmile_qr_scan"}, "is_disabled": 0, "fusion_lat": 0.0, "name": "07d9d04a56d023ef1f1cf33d7a9b7243", "fusion_lon": 0.0}, {"is_reserved": 0, "type": "electric_bike", "bike_id": "564d085767ff4ecdb3f3c78500214513", "lat": 38.89588883333333, "lon": -76.90691066666666, "rental_uris": {"android": "https://dc.lft.to/lastmile_qr_scan", "ios": "https://dc.lft.to/lastmile_qr_scan"}, "is_disabled": 0, "fusion_lat": 0.0, "name": "564d085767ff4ecdb3f3c78500214513", "fusion_lon": 0.0}, {"is_reserved": 0, "type": "electric_scooter", "bike_id": "e0d6cd426ef615f900e07f324bdf1dcc", "lat": 38.911338666666666, "lon": -77.03662666666666, "rental_uris": {"android": "https://dc.lft.to/lastmile_qr_scan", "ios": "https://dc.lft.to/lastmile_qr_scan"}, "is_disabled": 0, "fusion_lat": 0.0, "name": "e0d6cd426ef615f900e07f324bdf1dcc", "fusion_lon": 0.0}, {"is_reserved": 0, "type": "electric_scooter", "bike_id": "5a6f172a3a5266f81f098542ca1cdfbf", "lat": 38.897541, "lon": -77.02688733333333, "rental_uris": {"android": "https://dc.lft.to/lastmile_qr_scan", "ios": "https://dc.lft.to/lastmile_qr_scan"}, "is_disabled": 0, "fusion_lat": 0.0, "name": "5a6f172a3a5266f81f098542ca1cdfbf", "fusion_lon": 0.0}, {"is_reserved": 0, "type": "electric_scooter", "bike_id": "5ab142c71e0ee7f3adccf3c01be5c25f", "lat": 38.86591833333333, "lon": -76.97449183333333, "rental_uris": {"android": "https://dc.lft.to/lastmile_qr_scan", "ios": "https://dc.lft.to/lastmile_qr_scan"}, "is_disabled": 0, "fusion_lat": 0.0, "name": "5ab142c71e0ee7f3adccf3c01be5c25f", "fusion_lon": 0.0}, {"is_reserved": 0, "type": "electric_scooter", "bike_id": "bccc0a17bc151bf2123c802a3c0d5b4d", "lat": 38.92456583333333, "lon": -77.052275, "rental_uris": {"android": "https://dc.lft.to/lastmile_qr_scan", "ios": "https://dc.lft.to/lastmile_qr_scan"}, "is_disabled": 0, "fusion_lat": 0.0, "name": "bccc0a17bc151bf2123c802a3c0d5b4d", "fusion_lon": 0.0}, {"is_reserved": 0, "type": "electric_scooter", "bike_id": "5516cf4ab8d6b6bf86e9c2099e4fc3b0", "lat": 38.88663483333333, "lon": -77.00195566666666, "rental_uris": {"android": "https://dc.lft.to/lastmile_qr_scan", "ios": "https://dc.lft.to/lastmile_qr_scan"}, "is_disabled": 0, "fusion_lat": 0.0, "name": "5516cf4ab8d6b6bf86e9c2099e4fc3b0", "fusion_lon": 0.0}, {"is_reserved": 0, "type": "electric_scooter", "bike_id": "c785e64ef689100ecbfb93c9eccd69d7", "lat": 38.9019695, "lon": -76.98200383333334, "rental_uris": {"android": "https://dc.lft.to/lastmile_qr_scan", "ios": "https://dc.lft.to/lastmile_qr_scan"}, "is_disabled": 0, "fusion_lat": 0.0, "name": "c785e64ef689100ecbfb93c9eccd69d7", "fusion_lon": 0.0}, {"is_reserved": 0, "type": "electric_bike", "bike_id": "29cb4a2b7a0661e27f4222b5efeba616", "lat": 38.95643616666667, "lon": -77.03293066666667, "rental_uris": {"android": "https://dc.lft.to/lastmile_qr_scan", "ios": "https://dc.lft.to/lastmile_qr_scan"}, "is_disabled": 0, "fusion_lat": 0.0, "name": "29cb4a2b7a0661e27f4222b5efeba616", "fusion_lon": 0.0}, {"is_reserved": 0, "type": "electric_scooter", "bike_id": "767c29bdd01cda81fc2866a66563a7b2", "lat": 38.92553083333333, "lon": -77.02280116666667, "rental_uris": {"android": "https://dc.lft.to/lastmile_qr_scan", "ios": "https://dc.lft.to/lastmile_qr_scan"}, "is_disabled": 0, "fusion_lat": 0.0, "name": "767c29bdd01cda81fc2866a66563a7b2", "fusion_lon": 0.0}, {"is_reserved": 0, "type": "electric_scooter", "bike_id": "48500944e0f94cf800a299576ca8a6dc", "lat": 38.9305235, "lon": -77.03633233333333, "rental_uris": {"android": "https://dc.lft.to/lastmile_qr_scan", "ios": "https://dc.lft.to/lastmile_qr_scan"}, "is_disabled": 0, "fusion_lat": 0.0, "name": "48500944e0f94cf800a299576ca8a6dc", "fusion_lon": 0.0}, {"is_reserved": 0, "type": "electric_scooter", "bike_id": "e21bb8a25df6fdd21237d272b0da5f77", "lat": 38.86715183333333, "lon": -76.98073183333334, "rental_uris": {"android": "https://dc.lft.to/lastmile_qr_scan", "ios": "https://dc.lft.to/lastmile_qr_scan"}, "is_disabled": 0, "fusion_lat": 0.0, "name": "e21bb8a25df6fdd21237d272b0da5f77", "fusion_lon": 0.0},