{"data": {"bikes": [{"lat": 38.902755166666665, "fusion_lat": 0.0, "type": "electric_scooter", "bike_id": "9338a6ea842bdc81032be001fbd9ab58", "rental_uris": {"ios": "https://dc.lft.to/lastmile_qr_scan", "android": "https://dc.lft.to/lastmile_qr_scan"}, "fusion_lon": 0.0, "lon": -76.92885516666666, "name": "9338a6ea842bdc81032be001fbd9ab58", "is_reserved": 0, "is_disabled": 0}, {"lat": 38.883125666666665, "fusion_lat": 0.0, "type": "electric_bike", "bike_id": "ced24a2e2d3fae16c0b35057bca22c9a", "rental_uris": {"ios": "https://dc.lft.to/lastmile_qr_scan", "android": "https://dc.lft.to/lastmile_qr_scan"}, "fusion_lon": 0.0, "lon": -77.1066165, "name": "ced24a2e2d3fae16c0b35057bca22c9a", "is_reserved": 0, "is_disabled": 0}, {"lat": 38.903894333333334, "fusion_lat": 0.0, "type": "electric_scooter", "bike_id": "6a3df7fdaa2acb32ad3c59fe1874d95a", "rental_uris": {"ios": "https://dc.lft.to/lastmile_qr_scan", "android": "https://dc.lft.to/lastmile_qr_scan"}, "fusion_lon": 0.0, "lon": -77.06004616666667, "name": "6a3df7fdaa2acb32ad3c59fe1874d95a", "is_reserved": 0, "is_disabled": 0}, {"lat": 38.91911116666667, "fusion_lat": 0.0, "type": "electric_scooter", "bike_id": "0fdee99a84f94086e2ee90effd27c18b", "rental_uris": {"ios": "https://dc.lft.to/lastmile_qr_scan", "android": "https://dc.lft.to/lastmile_qr_scan"}, "fusion_lon": 0.0, "lon": -77.02468033333334, "name": "0fdee99a84f94086e2ee90effd27c18b", "is_reserved": 0, "is_disabled": 0}, {"lat": 38.934738833333334, "fusion_lat": 0.0, "type": "electric_scooter", "bike_id": "c97f619494bc1352a86dd6b9d31d7873", "rental_uris": {"ios": "https://dc.lft.to/lastmile_qr_scan", "android": "https://dc.lft.to/lastmile_qr_scan"}, "fusion_lon": 0.0, "lon": -77.07277866666666, "name": "c97f619494bc1352a86dd6b9d31d7873", "is_reserved": 0, "is_disabled": 0}, {"lat": 38.905845166666666, "fusion_lat": 0.0, "type": "electric_scooter", "bike_id": "22bdadad7247032d7bc1211bde26096e", "rental_uris": {"ios": "https://dc.lft.to/lastmile_qr_scan", "android": "https://dc.lft.to/lastmile_qr_scan"}, "fusion_lon": 0.0, "lon": -77.002756, "name": "22bdadad7247032d7bc1211bde26096e", "is_reserved": 0, "is_disabled": 0}, {"lat": 38.921630666666665, "fusion_lat": 0.0, "type": "electric_scooter", "bike_id": "54ac12b23b5d4834b6aeece228951b76", "rental_uris": {"ios": "https://dc.lft.to/lastmile_qr_scan", "android": "https://dc.lft.to/lastmile_qr_scan"}, "fusion_lon": 0.0, "lon": -77.0202265, "name": "54ac12b23b5d4834b6aeece228951b76", "is_reserved": 0, "is_disabled": 0}, {"lat": 38.91821483333333, "fusion_lat": 0.0, "type": "electric_scooter", "bike_id": "b2e1939906e2fc0a0140b72cc905aa59", "rental_uris": {"ios": "https://dc.lft.to/lastmile_qr_scan", "android": "https://dc.lft.to/lastmile_qr_scan"}, "fusion_lon": 0.0, "lon": -77.0242045, "name": "b2e1939906e2fc0a0140b72cc905aa59", "is_reserved": 0, "is_disabled": 0}, {"lat": 38.903612, "fusion_lat": 0.0, "type": "electric_scooter", "bike_id": "530adafd2fd12fe1848f5c6a19b394b4", "rental_uris": {"ios": "https://dc.lft.to/lastmile_qr_scan", "android": "https://dc.lft.to/lastmile_qr_scan"}, "fusion_lon": 0.0, "lon": -77.03893883333333, "name": "530adafd2fd12fe1848f5c6a19b394b4", "is_reserved": 0, "is_disabled": 0}, {"lat": 38.905274666666664, "fusion_lat": 0.0, "type": "electric_scooter", "bike_id": "b8300468226693833c92545bcc415577", "rental_uris": {"ios": "https://dc.lft.to/lastmile_qr_scan", "android": "https://dc.lft.to/lastmile_qr_scan"}, "fusion_lon": 0.0, "lon": -77.0502785, "name": "b8300468226693833c92545bcc415577", "is_reserved": 0, "is_disabled": 0}, {"lat": 38.89486983333333, "fusion_lat": 0.0, "type": "electric_scooter", "bike_id": "13362115cbd3cc4180d5b461bcf4f39c", "rental_uris": {"ios": "https://dc.lft.to/lastmile_qr_scan", "android": "https://dc.lft.to/lastmile_qr_scan"}, "fusion_lon": 0.0, "lon": -77.0108835, "name": "13362115cbd3cc4180d5b461bcf4f39c", "is_reserved": 0, "is_disabled": 0}, {"lat": 38.899599333333335, "fusion_lat": 0.0, "type": "electric_scooter", "bike_id": "f5e05f3c260b968b182ab442e9de75df", "rental_uris": {"ios": "https://dc.lft.to/lastmile_qr_scan", "android": "https://dc.lft.to/lastmile_qr_scan"}, "fusion_lon": 0.0, "lon": -77.0448245, "name": "f5e05f3c260b968b182ab442e9de75df", "is_reserved": 0, "is_disabled": 0}, {"lat": 38.926308, "fusion_lat": 0.0, "type": "electric_scooter", "bike_id": "548e2e176bc6ad63f57178893b7071e7", "rental_uris": {"ios": "https://dc.lft.to/lastmile_qr_scan", "android": "https://dc.lft.to/lastmile_qr_scan"}, "fusion_lon": 0.0, "lon": -77.03526433333333, "name": "548e2e176bc6ad63f57178893b7071e7", "is_reserved": 0, "is_disabled": 0}, {"lat": 38.90196366666667, "fusion_lat": 0.0, "type": "electric_scooter", "bike_id": "b1062f6e620d9110dfc25b0359e7cd13", "rental_uris": {"ios": "https://dc.lft.to/lastmile_qr_scan", "android": "https://dc.lft.to/lastmile_qr_scan"}, "fusion_lon": 0.0, "lon": -77.023425, "name": "b1062f6e620d9110dfc25b0359e7cd13", "is_reserved": 0, "is_disabled": 0}, {"lat": 38.887227, "fusion_lat": 0.0, "type": "electric_scooter", "bike_id": "5edbda058e6d620ee545f2a99067d648", "rental_uris": {"ios": "https://dc.lft.to/lastmile_qr_scan", "android": "https://dc.lft.to/lastmile_qr_scan"}, "fusion_lon": 0.0, "lon": -77.028236, "name": "5edbda058e6d620ee545f2a99067d648", "is_reserved": 0, "is_disabled": 0}, {"lat": 38.8771345, "fusion_lat": 0.0, "type": "electric_scooter", "bike_id": "843fc5351ac7ca56b0ca13e8090894f4", "rental_uris": {"ios": "https://dc.lft.to/lastmile_qr_scan", "android": "https://dc.lft.to/lastmile_qr_scan"}, "fusion_lon": 0.0, "lon": -77.0184245, "name": "843fc5351ac7ca56b0ca13e8090894f4", "is_reserved": 0, "is_disabled": 0}, {"lat": 38.9026805, "fusion_lat": 0.0, "type": "electric_scooter", "bike_id": "635a98213fa6b8e765be2a3bd14b1364", "rental_uris": {"ios": "https://dc.lft.to/lastmile_qr_scan", "android": "https://dc.lft.to/lastmile_qr_scan"}, "fusion_lon": 0.0, "lon": -77.03333133333334, "name": "635a98213fa6b8e765be2a3bd14b1364", "is_reserved": 0, "is_disabled": 0}, {"lat": 38.871065, "fusion_lat": 0.0, "type": "electric_scooter", "bike_id": "2684d2ed8d64aafaecf90859ff24a176", "rental_uris": {"ios": "https://dc.lft.to/lastmile_qr_scan", "android": "https://dc.lft.to/lastmile_qr_scan"}, "fusion_lon": 0.0, "lon": -76.96579933333334, "name": "2684d2ed8d64aafaecf90859ff24a176", "is_reserved": 0, "is_disabled": 0}, {"lat": 38.917148166666664, "fusion_lat": 0.0, "type": "electric_scooter", "bike_id": "a06ea4e824eec6a0e6337a54ce8c67d1", "rental_uris": {"ios": "https://dc.lft.to/lastmile_qr_scan", "android": "https://dc.lft.to/lastmile_qr_scan"}, "fusion_lon": 0.0, "lon": -76.97646183333333, "name": "a06ea4e824eec6a0e6337a54ce8c67d1", "is_reserved": 0, "is_disabled": 0}, {"lat": 38.90387483333333, "fusion_lat": 0.0, "type": "electric_scooter", "bike_id": "092a0365f764c2d27cbf77a04a781d01", "rental_uris": {"ios": "https://dc.lft.to/lastmile_qr_scan", "android": "https://dc.lft.to/lastmile_qr_scan"}, "fusion_lon": 0.0, "lon": -77.04010933333333, "name": "092a0365f764c2d27cbf77a04a781d01", "is_reserved": 0, "is_disabled": 0}, {"lat": 38.886817, "fusion_lat": 0.0, "type": "electric_scooter", "bike_id": "f1eca90c174332c91eeeae510addb59b", "rental_uris": {"ios": "https://dc.lft.to/lastmile_qr_scan", "android": "https://dc.lft.to/lastmile_qr_scan"}, "fusion_lon": 0.0, "lon": -77.00197533333333, "name": "f1eca90c174332c91eeeae510addb59b", "is_reserved": 0, "is_disabled": 0}, {"lat": 38.91248183333333, "fusion_lat": 0.0, "type": "electric_scooter", "bike_id": "f68ce6a7fcd98e68a7992c5a22db6fb1", "rental_uris": {"ios": "https://dc.lft.to/lastmile_qr_scan", "android": "https://dc.lft.to/lastmile_qr_scan"}, "fusion_lon": 0.0, "lon": -77.03835983333333, "name": "f68ce6a7fcd98e68a7992c5a22db6fb1", "is_reserved": 0, "is_disabled": 0}, {"lat": 38.90549633333333, "fusion_lat": 0.0, "type": "electric_scooter", "bike_id": "0b325272927e2e7ca5d300eeb8e325bd", "rental_uris": {"ios": "https://dc.lft.to/lastmile_qr_scan", "android": "https://dc.lft.to/lastmile_qr_scan"}, "fusion_lon": 0.0, "lon": -77.00599533333333, "name": "0b325272927e2e7ca5d300eeb8e325bd", "is_reserved": 0, "is_disabled": 0}, {"lat": 38.922577, "fusion_lat": 0.0, "type": "electric_scooter", "bike_id": "2fd7dc3de71c9e64548d1f0e66e79351", "rental_uris": {"ios": "https://dc.lft.to/lastmile_qr_scan", "android": "https://dc.lft.to/lastmile_qr_scan"}, "fusion_lon": 0.0, "lon": -77.0352315, "name": "2fd7dc3de71c9e64548d1f0e66e79351", "is_reserved": 0, "is_disabled": 0}, {"lat": 38.88504233333333, "fusion_lat": 0.0, "type": "electric_scooter", "bike_id": "ab94cc5f61ccbc317c735835f0ea436c", "rental_uris": {"ios": "https://dc.lft.to/lastmile_qr_scan", "android": "https://dc.lft.to/lastmile_qr_scan"}, "fusion_lon": 0.0, "lon": -77.00560816666666, "name": "ab94cc5f61ccbc317c735835f0ea436c", "is_reserved": 0, "is_disabled": 0}, {"lat": 38.90640766666667, "fusion_lat": 0.0, "type": "electric_bike", "bike_id": "20a7962dea5b68b5addc170744eb2e51", "rental_uris": {"ios": "https://dc.lft.to/lastmile_qr_scan", "android": "https://dc.lft.to/lastmile_qr_scan"}, "fusion_lon": 0.0, "lon": -77.0702675, "name": "20a7962dea5b68b5addc170744eb2e51", "is_reserved": 0, "is_disabled": 0}, {"lat": 38.95058683333333, "fusion_lat": 0.0, "type": "electric_scooter", "bike_id": "fc3e0ac7f452c8c19bcba12d2067cecd", "rental_uris": {"ios": "https://dc.lft.to/lastmile_qr_scan", "android": "https://dc.lft.to/lastmile_qr_scan"}, "fusion_lon": 0.0, "lon": -77.080263, "name": "fc3e0ac7f452c8c19bcba12d2067cecd", "is_reserved": 0, "is_disabled": 0}, {"lat": 38.902689, "fusion_lat": 0.0, "type": "electric_scooter", "bike_id": "dffcbf26a1e9304a0440d11356d626b4", "rental_uris": {"ios": "https://dc.lft.to/lastmile_qr_scan", "android": "https://dc.lft.to/lastmile_qr_scan"}, "fusion_lon": 0.0, "lon": -77.03351416666666, "name": "dffcbf26a1e9304a0440d11356d626b4", "is_reserved": 0, "is_disabled": 0}, {"lat": 38.92712266666667, "fusion_lat": 0.0, "type": "electric_scooter", "bike_id": "598cfeefb0858b8b5172d4c71e6f8099", "rental_uris": {"ios": "https://dc.lft.to/lastmile_qr_scan", "android": "https://dc.lft.to/lastmile_qr_scan"}, "fusion_lon": 0.0, "lon": -77.02077433333334, "name": "598cfeefb0858b8b5172d4c71e6f8099", "is_reserved": 0, "is_disabled": 0}, {"lat": 38.922343, "fusion_lat": 0.0, "type": "electric_scooter", "bike_id": "9bf8f2f8381fb6b1d3b2ded027829b04", "rental_uris": {"ios": "https://dc.lft.to/lastmile_qr_scan", "android": "https://dc.lft.to/lastmile_qr_scan"}, "fusion_lon": 0.0, "lon": -77.02826333333333, "name": "9bf8f2f8381fb6b1d3b2ded027829b04", "is_reserved": 0, "is_disabled": 0}, {"lat": 38.90036583333333, "fusion_lat": 0.0, "type": "electric_scooter", "bike_id": "218a7d83c62053be01ec7fc9f3b945d4", "rental_uris": {"ios": "https://dc.lft.to/lastmile_qr_scan", "android": "https://dc.lft.to/lastmile_qr_scan"}, "fusion_lon": 0.0, "lon": -77.024156, "name": "218a7d83c62053be01ec7fc9f3b945d4", "is_reserved": 0, "is_disabled": 0}, {"lat": 38.91393766666667, "fusion_lat": 0.0, "type": "electric_scooter", "bike_id": "3c14efd6931d9c7e2f114ef0831de850", "rental_uris": {"ios": "https://dc.lft.to/lastmile_qr_scan", "android": "https://dc.lft.to/lastmile_qr_scan"}, "fusion_lon": 0.0, "lon": -77.0165135, "name": "3c14efd6931d9c7e2f114ef0831de850", "is_reserved": 0, "is_disabled": 0}, {"lat": 38.91596766666667, "fusion_lat": 0.0, "type": "electric_scooter", "bike_id": "67d46552d59bbb0b8dfe9f746c74e150", "rental_uris": {"ios": "https://dc.lft.to/lastmile_qr_scan", "android": "https://dc.lft.to/lastmile_qr_scan"}, "fusion_lon": 0.0, "lon": -77.0394145, "name": "67d46552d59bbb0b8dfe9f746c74e150", "is_reserved": 0, "is_disabled": 0}, {"lat": 38.9172065, "fusion_lat": 0.0, "type": "electric_scooter", "bike_id": "075a35f82cd2df882c42c50c853e640c", "rental_uris": {"ios": "https://dc.lft.to/lastmile_qr_scan", "android": "https://dc.lft.to/lastmile_qr_scan"}, "fusion_lon": 0.0, "lon": -77.03347483333333, "name": "075a35f82cd2df882c42c50c853e640c", "is_reserved": 0, "is_disabled": 0}, {"lat": 38.92423816666667, "fusion_lat": 0.0, "type": "electric_scooter", "bike_id": "ee7793a96f42e6af1972c22d70b9ffdc", "rental_uris": {"ios": "https://dc.lft.to/lastmile_qr_scan", "android": "https://dc.lft.to/lastmile_qr_scan"}, "fusion_lon": 0.0, "lon": -77.05184466666667, "name": "ee7793a96f42e6af1972c22d70b9ffdc", "is_reserved": 0, "is_disabled": 0}, {"lat": 38.901537, "fusion_lat": 0.0, "type": "electric_scooter", "bike_id": "b3efdb8a7050ffef9c43291e82cc1fc6", "rental_uris": {"ios": "https://dc.lft.to/lastmile_qr_scan", "android": "https://dc.lft.to/lastmile_qr_scan"}, "fusion_lon": 0.0, "lon": -76.93066566666667, "name": "b3efdb8a7050ffef9c43291e82cc1fc6", "is_reserved": 0, "is_disabled": 0}, {"lat": 38.89049116666666, "fusion_lat": 0.0, "type": "electric_scooter", "bike_id": "d69a231642ad9eff9a267619fc1a87cc", "rental_uris": {"ios": "https://dc.lft.to/lastmile_qr_scan", "android": "https://dc.lft.to/lastmile_qr_scan"}, "fusion_lon": 0.0, "lon": -76.93752183333334, "name": "d69a231642ad9eff9a267619fc1a87cc", "is_reserved": 0, "is_disabled": 0}, {"lat": 38.89684183333333, "fusion_lat": 0.0, "type": "electric_scooter", "bike_id": "c8c77d3947b32f8ca4e82c2391971817", "rental_uris": {"ios": "https://dc.lft.to/lastmile_qr_scan", "android": "https://dc.lft.to/lastmile_qr_scan"}, "fusion_lon": 0.0, "lon": -77.02173416666666, "name": "c8c77d3947b32f8ca4e82c2391971817", "is_reserved": 0, "is_disabled": 0}, {"lat": 38.90375783333333, "fusion_lat": 0.0, "type": "electric_scooter", "bike_id": "2a69ce6ab2d145fc82f79fa8a4e6c875", "rental_uris": {"ios": "https://dc.lft.to/lastmile_qr_scan", "android": "https://dc.lft.to/lastmile_qr_scan"}, "fusion_lon": 0.0, "lon": -77.02197416666667, "name": "2a69ce6ab2d145fc82f79fa8a4e6c875", "is_reserved": 0, "is_disabled": 0}, {"lat": 38.863826833333334, "fusion_lat": 0.0, "type": "electric_scooter", "bike_id": "f2600a449ed4fb98019856489bf5e95a", "rental_uris": {"ios": "https://dc.lft.to/lastmile_qr_scan", "android": "https://dc.lft.to/lastmile_qr_scan"}, "fusion_lon": 0.0, "lon": -76.99124116666667, "name": "f2600a449ed4fb98019856489bf5e95a", "is_reserved": 0, "is_disabled": 0}, {"lat": 38.906144, "fusion_lat": 0.0, "type": "electric_scooter", "bike_id": "9ad0d80c6fed3f6debca34a910c26e54", "rental_uris": {"ios": "https://dc.lft.to/lastmile_qr_scan", "android": "https://dc.lft.to/lastmile_qr_scan"}, "fusion_lon": 0.0, "lon": -77.02971366666667, "name": "9ad0d80c6fed3f6debca34a910c26e54", "is_reserved": 0, "is_disabled": 0}, {"lat": 38.905562333333336, "fusion_lat": 0.0, "type": "electric_scooter", "bike_id": "837d7dcfa4141d3ab1b64933a27cc890", "rental_uris": {"ios": "https://dc.lft.to/lastmile_qr_scan", "android": "https://dc.lft.to/lastmile_qr_scan"}, "fusion_lon": 0.0, "lon": -77.04655466666667, "name": "837d7dcfa4141d3ab1b64933a27cc890", "is_reserved": 0, "is_disabled": 0}, {"lat": 38.9265005, "fusion_lat": 0.0, "type": "electric_scooter", "bike_id": "88d24072b68555fcb1f4d21e136705f7", "rental_uris": {"ios": "https://dc.lft.to/lastmile_qr_scan", "android": "https://dc.lft.to/lastmile_qr_scan"}, "fusion_lon": 0.0, "lon": -77.0413175, "name": "88d24072b68555fcb1f4d21e136705f7", "is_reserved": 0, "is_disabled": 0}, {"lat": 38.905095, "fusion_lat": 0.0, "type": "electric_scooter", "bike_id": "a96cf7e6e81fdc778f352f9688b52888", "rental_uris": {"ios": "https://dc.lft.to/lastmile_qr_scan", "android": "https://dc.lft.to/lastmile_qr_scan"}, "fusion_lon": 0.0, "lon": -77.065461, "name": "a96cf7e6e81fdc778f352f9688b52888", "is_reserved": 0, "is_disabled": 0}, {"lat": 38.90774433333333, "fusion_lat": 0.0, "type": "electric_scooter", "bike_id": "71ace67c074dc2998ca4c60dca3aa5d2", "rental_uris": {"ios": "https://dc.lft.to/lastmile_qr_scan", "android": "https://dc.lft.to/lastmile_qr_scan"}, "fusion_lon": 0.0, "lon": -76.99711483333333, "name": "71ace67c074dc2998ca4c60dca3aa5d2", "is_reserved": 0, "is_disabled": 0}, {"lat": 38.87732183333333, "fusion_lat": 0.0, "type": "electric_scooter", "bike_id": "c486525a3d545059a1d9429375a23b50", "rental_uris": {"ios": "https://dc.lft.to/lastmile_qr_scan", "android": "https://dc.lft.to/lastmile_qr_scan"}, "fusion_lon": 0.0, "lon": -76.99485066666666, "name": "c486525a3d545059a1d9429375a23b50", "is_reserved": 0, "is_disabled": 0}, {"lat": 38.917105, "fusion_lat": 0.0, "type": "electric_scooter", "bike_id": "bc1a4f72061cce926231a3229dbef795", "rental_uris": {"ios": "https://dc.lft.to/lastmile_qr_scan", "android": "https://dc.lft.to/lastmile_qr_scan"}, "fusion_lon": 0.0, "lon": -77.02432166666667, "name": "bc1a4f72061cce926231a3229dbef795", "is_reserved": 0, "is_disabled": 0}, {"lat": 38.901150333333334, "fusion_lat": 0.0, "type": "electric_scooter", "bike_id": "43233b26c9de099094567f1133faae0e", "rental_uris": {"ios": "https://dc.lft.to/lastmile_qr_scan", "android": "https://dc.lft.to/lastmile_qr_scan"}, "fusion_lon": 0.0, "lon": -77.04992533333333, "name": "43233b26c9de099094567f1133faae0e", "is_reserved": 0, "is_disabled": 0}, {"lat": 38.919965166666664, "fusion_lat": 0.0, "type": "electric_scooter", "bike_id": "ac045935a4d0937380dd115824a3540e", "rental_uris": {"ios": "https://dc.lft.to/lastmile_qr_scan", "android": "https://dc.lft.to/lastmile_qr_scan"}, "fusion_lon": 0.0, "lon": -77.04761666666667, "name": "ac045935a4d0937380dd115824a3540e", "is_reserved": 0, "is_disabled": 0}, {"lat": 38.974772333333334, "fusion_lat": 0.0, "type": "electric_bike", "bike_id": "4fc65d0b913b379b652f53a671fb8599", "rental_uris": {"ios": "https://dc.lft.to/lastmile_qr_scan", "android": "https://dc.lft.to/lastmile_qr_scan"}, "fusion_lon": 0.0, "lon": -77.02017366666666, "name": "4fc65d0b913b379b652f53a671fb8599", "is_reserved": 0, "is_disabled": 0}, {"lat": 38.942927833333336, "fusion_lat": 0.0, "type": "electric_scooter", "bike_id": "1f42f7734f5c0785e735ac535ab294b4", "rental_uris": {"ios": "https://dc.lft.to/lastmile_qr_scan", "android": "https://dc.lft.to/lastmile_qr_scan"}, "fusion_lon": 0.0, "lon": -77.02165383333333, "name": "1f42f7734f5c0785e735ac535ab294b4", "is_reserved": 0, "is_disabled": 0}, {"lat": 38.892196, "fusion_lat": 0.0, "type": "electric_scooter", "bike_id": "844d4d0b91e6d07d4abf2936450bd20e", "rental_uris": {"ios": "https://dc.lft.to/lastmile_qr_scan", "android": "https://dc.lft.to/lastmile_qr_scan"}, "fusion_lon": 0.0, "lon": -77.023533, "name": "844d4d0b91e6d07d4abf2936450bd20e", "is_reserved": 0, "is_disabled": 0}, {"lat": 38.90247733333333, "fusion_lat": 0.0, "type": "electric_scooter", "bike_id": "9839985cdc88d53ceed6c8a9c4d128fb", "rental_uris": {"ios": "https://dc.lft.to/lastmile_qr_scan", "android": "https://dc.lft.to/lastmile_qr_scan"}, "fusion_lon": 0.0, "lon": -77.06289933333333, "name": "9839985cdc88d53ceed6c8a9c4d128fb", "is_reserved": 0, "is_disabled": 0}, {"lat": 38.903347, "fusion_lat": 0.0, "type": "electric_scooter", "bike_id": "c090f591a65bf638c6450db7dceb76e6", "rental_uris": {"ios": "https://dc.lft.to/lastmile_qr_scan", "android": "https://dc.lft.to/lastmile_qr_scan"}, "fusion_lon": 0.0, "lon": -77.01886533333334, "name": "c090f591a65bf638c6450db7dceb76e6", "is_reserved": 0, "is_disabled": 0}, {"lat": 38.879578333333335, "fusion_lat": 0.0, "type": "electric_scooter", "bike_id": "25bdadadf29e082326ed996ca3406cfb", "rental_uris": {"ios": "https://dc.lft.to/lastmile_qr_scan", "android": "https://dc.lft.to/lastmile_qr_scan"}, "fusion_lon": 0.0, "lon": -76.995009, "name": "25bdadadf29e082326ed996ca3406cfb", "is_reserved": 0, "is_disabled": 0}, {"lat": 38.9062685, "fusion_lat": 0.0, "type": "electric_scooter", "bike_id": "e95163e801639910eda1a373238dac55", "rental_uris": {"ios": "https://dc.lft.to/lastmile_qr_scan", "android": "https://dc.lft.to/lastmile_qr_scan"}, "fusion_lon": 0.0, "lon": -77.02603283333333, "name": "e95163e801639910eda1a373238dac55", "is_reserved": 0, "is_disabled": 0}, {"lat": 38.912647666666665, "fusion_lat": 0.0, "type": "electric_scooter", "bike_id": "79485dda3486712699dbc268bb4571dd", "rental_uris": {"ios": "https://dc.lft.to/lastmile_qr_scan", "android": "https://dc.lft.to/lastmile_qr_scan"}, "fusion_lon": 0.0, "lon": -77.03280333333333, "name": "79485dda3486712699dbc268bb4571dd", "is_reserved": 0, "is_disabled": 0}, {"lat": 38.899268166666666, "fusion_lat": 0.0, "type": "electric_scooter", "bike_id": "c1f277adf7d72af505b45ac2f0e90fa5", "rental_uris": {"ios": "https://dc.lft.to/lastmile_qr_scan", "android": "https://dc.lft.to/lastmile_qr_scan"}, "fusion_lon": 0.0, "lon": -77.02940416666667, "name": "c1f277adf7d72af505b45ac2f0e90fa5", "is_reserved": 0, "is_disabled": 0}, {"lat": 38.904683166666665, "fusion_lat": 0.0, "type": "electric_scooter", "bike_id": "1e3c0c7068570517ce6666566ac1e927", "rental_uris": {"ios": "https://dc.lft.to/lastmile_qr_scan", "android": "https://dc.lft.to/lastmile_qr_scan"}, "fusion_lon": 0.0, "lon": -76.99499183333333, "name": "1e3c0c7068570517ce6666566ac1e927", "is_reserved": 0, "is_disabled": 0}, {"lat": 38.918565666666666, "fusion_lat": 0.0, "type": "electric_scooter", "bike_id": "c6f77382e852d504f91de7535bb86ad9", "rental_uris": {"ios": "https://dc.lft.to/lastmile_qr_scan", "android": "https://dc.lft.to/lastmile_qr_scan"}, "fusion_lon": 0.0, "lon": -77.03212483333333, "name": "c6f77382e852d504f91de7535bb86ad9", "is_reserved": 0, "is_disabled": 0}, {"lat": 38.881277, "fusion_lat": 0.0, "type": "electric_scooter", "bike_id": "ac39c2ffd3ad9e1b4caf24e3de4d701b", "rental_uris": {"ios": "https://dc.lft.to/lastmile_qr_scan", "android": "https://dc.lft.to/lastmile_qr_scan"}, "fusion_lon": 0.0, "lon": -77.01661683333333, "name": "ac39c2ffd3ad9e1b4caf24e3de4d701b", "is_reserved": 0, "is_disabled": 0}, {"lat": 38.928764, "fusion_lat": 0.0, "type": "electric_scooter", "bike_id": "2e6f2cfd87d52d061c7854a85b4bd371", "rental_uris": {"ios": "https://dc.lft.to/lastmile_qr_scan", "android": "https://dc.lft.to/lastmile_qr_scan"}, "fusion_lon": 0.0, "lon": -77.04045716666667, "name": "2e6f2cfd87d52d061c7854a85b4bd371", "is_reserved": 0, "is_disabled": 0}, {"lat": 38.916988833333335, "fusion_lat": 0.0, "type": "electric_scooter", "bike_id": "aff61625c768c6e0b5165d6c9315ca94", "rental_uris": {"ios": "https://dc.lft.to/lastmile_qr_scan", "android": "https://dc.lft.to/lastmile_qr_scan"}, "fusion_lon": 0.0, "lon": -77.03316266666667, "name": "aff61625c768c6e0b5165d6c9315ca94", "is_reserved": 0, "is_disabled": 0}, {"lat": 38.92298866666667, "fusion_lat": 0.0, "type": "electric_scooter", "bike_id": "da4c5a7f621c1a617e124c473fb2bd47", "rental_uris": {"ios": "https://dc.lft.to/lastmile_qr_scan", "android": "https://dc.lft.to/lastmile_qr_scan"}, "fusion_lon": 0.0, "lon": -77.0232595, "name": "da4c5a7f621c1a617e124c473fb2bd47", "is_reserved": 0, "is_disabled": 0}, {"lat": 38.89981916666667, "fusion_lat": 0.0, "type": "electric_scooter", "bike_id": "cbf26651c9b849e958c52df228b61d4c", "rental_uris": {"ios": "https://dc.lft.to/lastmile_qr_scan", "android": "https://dc.lft.to/lastmile_qr_scan"}, "fusion_lon": 0.0, "lon": -76.9975705, "name": "cbf26651c9b849e958c52df228b61d4c", "is_reserved": 0, "is_disabled": 0}, {"lat": 38.907461, "fusion_lat": 0.0, "type": "electric_scooter", "bike_id": "4fedac608c3117c9aa7c3535fa6f7438", "rental_uris": {"ios": "https://dc.lft.to/lastmile_qr_scan", "android": "https://dc.lft.to/lastmile_qr_scan"}, "fusion_lon": 0.0, "lon": -77.00339466666667, "name": "4fedac608c3117c9aa7c3535fa6f7438", "is_reserved": 0, "is_disabled": 0}, {"lat": 38.89732216666667, "fusion_lat": 0.0, "type": "electric_scooter", "bike_id": "aedb79a231f37ada0f2ad4765c5d6a98", "rental_uris": {"ios": "https://dc.lft.to/lastmile_qr_scan", "android": "https://dc.lft.to/lastmile_qr_scan"}, "fusion_lon": 0.0, "lon": -77.05522083333334, "name": "aedb79a231f37ada0f2ad4765c5d6a98", "is_reserved": 0, "is_disabled": 0}, {"lat": 38.896481333333334, "fusion_lat": 0.0, "type": "electric_scooter", "bike_id": "b9f24eed2d46e7480e82b63c19e979ab", "rental_uris": {"ios": "https://dc.lft.to/lastmile_qr_scan", "android": "https://dc.lft.to/lastmile_qr_scan"}, "fusion_lon": 0.0, "lon": -77.009217, "name": "b9f24eed2d46e7480e82b63c19e979ab", "is_reserved": 0, "is_disabled": 0}, {"lat": 38.93899666666667, "fusion_lat": 0.0, "type": "electric_scooter", "bike_id": "8fbd434cd578e0796ddf721f0b81206f", "rental_uris": {"ios": "https://dc.lft.to/lastmile_qr_scan", "android": "https://dc.lft.to/lastmile_qr_scan"}, "fusion_lon": 0.0, "lon": -77.02462366666667, "name": "8fbd434cd578e0796ddf721f0b81206f", "is_reserved": 0, "is_disabled": 0}, {"lat": 38.901402, "fusion_lat": 0.0, "type": "electric_scooter", "bike_id": "f09f1672c94deb6dce7f22b4566e5e3b", "rental_uris": {"ios": "https://dc.lft.to/lastmile_qr_scan", "android": "https://dc.lft.to/lastmile_qr_scan"}, "fusion_lon": 0.0, "lon": -77.04428833333333, "name": "f09f1672c94deb6dce7f22b4566e5e3b", "is_reserved": 0, "is_disabled": 0}, {"lat": 38.9234545, "fusion_lat": 0.0, "type": "electric_scooter", "bike_id": "a1fe683c8f2301bbf7bab23696b245cc", "rental_uris": {"ios": "https://dc.lft.to/lastmile_qr_scan", "android": "https://dc.lft.to/lastmile_qr_scan"}, "fusion_lon": 0.0, "lon": -77.051746, "name": "a1fe683c8f2301bbf7bab23696b245cc", "is_reserved": 0, "is_disabled": 0}, {"lat": 38.89221366666666, "fusion_lat": 0.0, "type": "electric_scooter", "bike_id": "59368e9943c142a1243e388a2578f48d", "rental_uris": {"ios": "https://dc.lft.to/lastmile_qr_scan", "android": "https://dc.lft.to/lastmile_qr_scan"}, "fusion_lon": 0.0, "lon": -77.02758583333333, "name": "59368e9943c142a1243e388a2578f48d", "is_reserved": 0, "is_disabled": 0}, {"lat": 38.907771833333335, "fusion_lat": 0.0, "type": "electric_scooter", "bike_id": "2f07a04f25cd4f03fa7d678362bab39e", "rental_uris": {"ios": "https://dc.lft.to/lastmile_qr_scan", "android": "https://dc.lft.to/lastmile_qr_scan"}, "fusion_lon": 0.0, "lon": -77.07165916666666, "name": "2f07a04f25cd4f03fa7d678362bab39e", "is_reserved": 0, "is_disabled": 0}, {"lat": 38.9101055, "fusion_lat": 0.0, "type": "electric_scooter", "bike_id": "8a380bc19972ec1653c41dc4688946b6", "rental_uris": {"ios": "https://dc.lft.to/lastmile_qr_scan", "android": "https://dc.lft.to/lastmile_qr_scan"}, "fusion_lon": 0.0, "lon": -77.03447883333334, "name": "8a380bc19972ec1653c41dc4688946b6", "is_reserved": 0, "is_disabled": 0}, {"lat": 38.914786666666664, "fusion_lat": 0.0, "type": "electric_scooter", "bike_id": "fc267d43e505d797b6468a62036e1eb2", "rental_uris": {"ios": "https://dc.lft.to/lastmile_qr_scan", "android": "https://dc.lft.to/lastmile_qr_scan"}, "fusion_lon": 0.0, "lon": -77.046127, "name": "fc267d43e505d797b6468a62036e1eb2", "is_reserved": 0, "is_disabled": 0}, {"lat": 38.90877733333333, "fusion_lat": 0.0, "type": "electric_scooter", "bike_id": "36fe5cbbd850321f153edaad639111b2", "rental_uris": {"ios": "https://dc.lft.to/lastmile_qr_scan", "android": "https://dc.lft.to/lastmile_qr_scan"}, "fusion_lon": 0.0, "lon": -77.04328333333333, "name": "36fe5cbbd850321f153edaad639111b2", "is_reserved": 0, "is_disabled": 0}, {"lat": 38.9011805, "fusion_lat": 0.0, "type": "electric_scooter", "bike_id": "21f2c143fcb64a7afc6313fcf60c698c", "rental_uris": {"ios": "https://dc.lft.to/lastmile_qr_scan", "android": "https://dc.lft.to/lastmile_qr_scan"}, "fusion_lon": 0.0, "lon": -77.01659816666667, "name": "21f2c143fcb64a7afc6313fcf60c698c", "is_reserved": 0, "is_disabled": 0}, {"lat": 38.901001666666666, "fusion_lat": 0.0, "type": "electric_scooter", "bike_id": "2c06baa8d14aec292509a30e110823c4", "rental_uris": {"ios": "https://dc.lft.to/lastmile_qr_scan", "android": "https://dc.lft.to/lastmile_qr_scan"}, "fusion_lon": 0.0, "lon": -77.04361316666666, "name": "2c06baa8d14aec292509a30e110823c4", "is_reserved": 0, "is_disabled": 0}, {"lat": 38.919490833333334, "fusion_lat": 0.0, "type": "electric_scooter", "bike_id": "554f1a721ee952f73b46a583f9d97bf4", "rental_uris": {"ios": "https://dc.lft.to/lastmile_qr_scan", "android": "https://dc.lft.to/lastmile_qr_scan"}, "fusion_lon": 0.0, "lon": -77.01895883333333, "name": "554f1a721ee952f73b46a583f9d97bf4", "is_reserved": 0, "is_disabled": 0}, {"lat": 38.894561, "fusion_lat": 0.0, "type": "electric_scooter", "bike_id": "8b4aa3207e41233231414cd5aa1b286a", "rental_uris": {"ios": "https://dc.lft.to/lastmile_qr_scan", "android": "https://dc.lft.to/lastmile_qr_scan"}, "fusion_lon": 0.0, "lon": -77.02240533333334, "name": "8b4aa3207e41233231414cd5aa1b286a", "is_reserved": 0, "is_disabled": 0}, {"lat": 38.88749166666667, "fusion_lat": 0.0, "type": "electric_scooter", "bike_id": "d876146c2e8a4cfb9ddb5c5ee2546b77", "rental_uris": {"ios": "https://dc.lft.to/lastmile_qr_scan", "android": "https://dc.lft.to/lastmile_qr_scan"}, "fusion_lon": 0.0, "lon": -77.030724, "name": "d876146c2e8a4cfb9ddb5c5ee2546b77", "is_reserved": 0, "is_disabled": 0}, {"lat": 38.9310185, "fusion_lat": 0.0, "type": "electric_scooter", "bike_id": "f81e1c58f25a2f38c4d1548071f2eaf2", "rental_uris": {"ios": "https://dc.lft.to/lastmile_qr_scan", "android": "https://dc.lft.to/lastmile_qr_scan"}, "fusion_lon": 0.0, "lon": -77.0122395, "name": "f81e1c58f25a2f38c4d1548071f2eaf2", "is_reserved": 0, "is_disabled": 0}, {"lat": 38.88729416666666, "fusion_lat": 0.0, "type": "electric_scooter", "bike_id": "c35072e64270acd32e426875ce841812", "rental_uris": {"ios": "https://dc.lft.to/lastmile_qr_scan", "android": "https://dc.lft.to/lastmile_qr_scan"}, "fusion_lon": 0.0, "lon": -76.98356883333334, "name": "c35072e64270acd32e426875ce841812", "is_reserved": 0, "is_disabled": 0}, {"lat": 38.879670833333336, "fusion_lat": 0.0, "type": "electric_bike", "bike_id": "4e2453bd1ec46ef118e923beff9c2036", "rental_uris": {"ios": "https://dc.lft.to/lastmile_qr_scan", "android": "https://dc.lft.to/lastmile_qr_scan"}, "fusion_lon": 0.0, "lon": -76.91610083333333, "name": "4e2453bd1ec46ef118e923beff9c2036", "is_reserved": 0, "is_disabled": 0}, {"lat": 38.9040535, "fusion_lat": 0.0, "type": "electric_scooter", "bike_id": "e9525223598b1fbd6835a9a6f9da922a", "rental_uris": {"ios": "https://dc.lft.to/lastmile_qr_scan", "android": "https://dc.lft.to/lastmile_qr_scan"}, "fusion_lon": 0.0, "lon": -77.02582766666667, "name": "e9525223598b1fbd6835a9a6f9da922a", "is_reserved": 0, "is_disabled": 0}, {"lat": 38.97494616666667, "fusion_lat": 0.0, "type": "electric_scooter", "bike_id": "6fe668263d94d0286f525ef402d1700d", "rental_uris": {"ios": "https://dc.lft.to/lastmile_qr_scan", "android": "https://dc.lft.to/lastmile_qr_scan"}, "fusion_lon": 0.0, "lon": -77.01663666666667, "name": "6fe668263d94d0286f525ef402d1700d", "is_reserved": 0, "is_disabled": 0}, {"lat": 38.900629333333335, "fusion_lat": 0.0, "type": "electric_scooter", "bike_id": "b573cefaac69b6da0407fd0d14e69bd1", "rental_uris": {"ios": "https://dc.lft.to/lastmile_qr_scan", "android": "https://dc.lft.to/lastmile_qr_scan"}, "fusion_lon": 0.0, "lon": -77.04888633333333, "name": "b573cefaac69b6da0407fd0d14e69bd1", "is_reserved": 0, "is_disabled": 0}, {"lat": 38.94182683333333, "fusion_lat": 0.0, "type": "electric_scooter", "bike_id": "46882dcfb5553dd8ab3253e8396804c1", "rental_uris": {"ios": "https://dc.lft.to/lastmile_qr_scan", "android": "https://dc.lft.to/lastmile_qr_scan"}, "fusion_lon": 0.0, "lon": -77.02492516666666, "name": "46882dcfb5553dd8ab3253e8396804c1", "is_reserved": 0, "is_disabled": 0}, {"lat": 38.930633666666665, "fusion_lat": 0.0, "type": "electric_scooter", "bike_id": "b2f20e5404441fe355a15234664ee493", "rental_uris": {"ios": "https://dc.lft.to/lastmile_qr_scan", "android": "https://dc.lft.to/lastmile_qr_scan"}, "fusion_lon": 0.0, "lon": -77.038113, "name": "b2f20e5404441fe355a15234664ee493", "is_reserved": 0, "is_disabled": 0}, {"lat": 38.897777, "fusion_lat": 0.0, "type": "electric_scooter", "bike_id": "d1dec6c17b23f48b4cced63447fb53da", "rental_uris": {"ios": "https://dc.lft.to/lastmile_qr_scan", "android": "https://dc.lft.to/lastmile_qr_scan"}, "fusion_lon": 0.0, "lon": -76.9915395, "name": "d1dec6c17b23f48b4cced63447fb53da", "is_reserved": 0, "is_disabled": 0}, {"lat": 38.88020233333334, "fusion_lat": 0.0, "type": "electric_scooter", "bike_id": "c220fc91d18b919d59cc0d988280e6c7", "rental_uris": {"ios": "https://dc.lft.to/lastmile_qr_scan", "android": "https://dc.lft.to/lastmile_qr_scan"}, "fusion_lon": 0.0, "lon": -76.98070816666667, "name": "c220fc91d18b919d59cc0d988280e6c7", "is_reserved": 0, "is_disabled": 0}, {"lat": 38.92317233333333, "fusion_lat": 0.0, "type": "electric_scooter", "bike_id": "a512b9f49569a839c20582ded07d1ef1", "rental_uris": {"ios": "https://dc.lft.to/lastmile_qr_scan", "android": "https://dc.lft.to/lastmile_qr_scan"}, "fusion_lon": 0.0, "lon": -77.03908966666667, "name": "a512b9f49569a839c20582ded07d1ef1", "is_reserved": 0, "is_disabled": 0}, {"lat": 38.88748016666667, "fusion_lat": 0.0, "type": "electric_scooter", "bike_id": "18c5b9e060d28ce3200c67fdca397522", "rental_uris": {"ios": "https://dc.lft.to/lastmile_qr_scan", "android": "https://dc.lft.to/lastmile_qr_scan"}, "fusion_lon": 0.0, "lon": -77.01401733333333, "name": "18c5b9e060d28ce3200c67fdca397522", "is_reserved": 0, "is_disabled": 0}, {"lat": 38.96226733333334, "fusion_lat": 0.0, "type": "electric_bike", "bike_id": "93516228a59ca6e08121d7e64372bb62", "rental_uris": {"ios": "https://dc.lft.to/lastmile_qr_scan", "android": "https://dc.lft.to/lastmile_qr_scan"}, "fusion_lon": 0.0, "lon": -77.026222, "name": "93516228a59ca6e08121d7e64372bb62", "is_reserved": 0, "is_disabled": 0}, {"lat": 38.887336833333336, "fusion_lat": 0.0, "type": "electric_scooter", "bike_id": "c0f566575c104f75229d25a9305c3fcd", "rental_uris": {"ios": "https://dc.lft.to/lastmile_qr_scan", "android": "https://dc.lft.to/lastmile_qr_scan"}, "fusion_lon": 0.0, "lon": -77.03176116666667, "name": "c0f566575c104f75229d25a9305c3fcd", "is_reserved": 0, "is_disabled": 0}, {"lat": 38.887331, "fusion_lat": 0.0, "type": "electric_scooter", "bike_id": "2bd396133a850388c947a14e2073cb65", "rental_uris": {"ios": "https://dc.lft.to/lastmile_qr_scan", "android": "https://dc.lft.to/lastmile_qr_scan"}, "fusion_lon": 0.0, "lon": -77.013856, "name": "2bd396133a850388c947a14e2073cb65", "is_reserved": 0, "is_disabled": 0}, {"lat": 38.90269116666666, "fusion_lat": 0.0, "type": "electric_scooter", "bike_id": "664c0907299aaeaaeac84b85804cf2f8", "rental_uris": {"ios": "https://dc.lft.to/lastmile_qr_scan", "android": "https://dc.lft.to/lastmile_qr_scan"}, "fusion_lon": 0.0, "lon": -77.046172, "name": "664c0907299aaeaaeac84b85804cf2f8", "is_reserved": 0, "is_disabled": 0}, {"lat": 38.9060945, "fusion_lat": 0.0, "type": "electric_scooter", "bike_id": "85892b379565ccf7977a0c382a6de790", "rental_uris": {"ios": "https://dc.lft.to/lastmile_qr_scan", "android": "https://dc.lft.to/lastmile_qr_scan"}, "fusion_lon": 0.0, "lon": -77.05126233333333, "name": "85892b379565ccf7977a0c382a6de790", "is_reserved": 0, "is_disabled": 0}, {"lat": 38.92594916666667, "fusion_lat": 0.0, "type": "electric_scooter", "bike_id": "a3fac8ddf8916e6353204fe9aada3872", "rental_uris": {"ios": "https://dc.lft.to/lastmile_qr_scan", "android": "https://dc.lft.to/lastmile_qr_scan"}, "fusion_lon": 0.0, "lon": -77.036367, "name": "a3fac8ddf8916e6353204fe9aada3872", "is_reserved": 0, "is_disabled": 0}, {"lat": 38.83105533333333, "fusion_lat": 0.0, "type": "electric_bike", "bike_id": "bd7391d9fd1e0c83d7d50e3663010ba6", "rental_uris": {"ios": "https://dc.lft.to/lastmile_qr_scan", "android": "https://dc.lft.to/lastmile_qr_scan"}, "fusion_lon": 0.0, "lon": -77.112818, "name": "bd7391d9fd1e0c83d7d50e3663010ba6", "is_reserved": 0, "is_disabled": 0}, {"lat": 38.9107655, "fusion_lat": 0.0, "type": "electric_scooter", "bike_id": "5a73197259506845edd98f1dc12d69c4", "rental_uris": {"ios": "https://dc.lft.to/lastmile_qr_scan", "android": "https://dc.lft.to/lastmile_qr_scan"}, "fusion_lon": 0.0, "lon": -77.02719183333333, "name": "5a73197259506845edd98f1dc12d69c4", "is_reserved": 0, "is_disabled": 0}, {"lat": 38.9182005, "fusion_lat": 0.0, "type": "electric_scooter", "bike_id": "074510fc6a5b1500d50eb22131d23d02", "rental_uris": {"ios": "https://dc.lft.to/lastmile_qr_scan", "android": "https://dc.lft.to/lastmile_qr_scan"}, "fusion_lon": 0.0, "lon": -77.04173033333333, "name": "074510fc6a5b1500d50eb22131d23d02", "is_reserved": 0, "is_disabled": 0}, {"lat": 38.8804155, "fusion_lat": 0.0, "type": "electric_scooter", "bike_id": "409bb76c7d55b6fe849d25ef4e513ea2", "rental_uris": {"ios": "https://dc.lft.to/lastmile_qr_scan", "android": "https://dc.lft.to/lastmile_qr_scan"}, "fusion_lon": 0.0, "lon": -77.005942, "name": "409bb76c7d55b6fe849d25ef4e513ea2", "is_reserved": 0, "is_disabled": 0}, {"lat": 38.8969525, "fusion_lat": 0.0, "type": "electric_scooter", "bike_id": "755d3e1c8e96320fe750d38afc7a1053", "rental_uris": {"ios": "https://dc.lft.to/lastmile_qr_scan", "android": "https://dc.lft.to/lastmile_qr_scan"}, "fusion_lon": 0.0, "lon": -77.02667, "name": "755d3e1c8e96320fe750d38afc7a1053", "is_reserved": 0, "is_disabled": 0}, {"lat": 38.9125685, "fusion_lat": 0.0, "type": "electric_scooter", "bike_id": "0db78bef37764185761d3e509c84aba8", "rental_uris": {"ios": "https://dc.lft.to/lastmile_qr_scan", "android": "https://dc.lft.to/lastmile_qr_scan"}, "fusion_lon": 0.0, "lon": -77.03802033333334, "name": "0db78bef37764185761d3e509c84aba8", "is_reserved": 0, "is_disabled": 0}, {"lat": 38.92896316666667, "fusion_lat": 0.0, "type": "electric_scooter", "bike_id": "b4bbc08d2a4c313e799a9f63f18ebd67", "rental_uris": {"ios": "https://dc.lft.to/lastmile_qr_scan", "android": "https://dc.lft.to/lastmile_qr_scan"}, "fusion_lon": 0.0, "lon": -77.05808566666667, "name": "b4bbc08d2a4c313e799a9f63f18ebd67", "is_reserved": 0, "is_disabled": 0}, {"lat": 38.928691, "fusion_lat": 0.0, "type": "electric_scooter", "bike_id": "048b0aae47f3a2a9d71957753adab5c1", "rental_uris": {"ios": "https://dc.lft.to/lastmile_qr_scan", "android": "https://dc.lft.to/lastmile_qr_scan"}, "fusion_lon": 0.0, "lon": -77.03228183333333, "name": "048b0aae47f3a2a9d71957753adab5c1", "is_reserved": 0, "is_disabled": 0}, {"lat": 38.897445833333336, "fusion_lat": 0.0, "type": "electric_scooter", "bike_id": "96f9795cb95dbc5f9030a01f55caa50b", "rental_uris": {"ios": "https://dc.lft.to/lastmile_qr_scan", "android": "https://dc.lft.to/lastmile_qr_scan"}, "fusion_lon": 0.0, "lon": -77.00142183333334, "name": "96f9795cb95dbc5f9030a01f55caa50b", "is_reserved": 0, "is_disabled": 0}, {"lat": 38.85511066666667, "fusion_lat": 0.0, "type": "electric_bike", "bike_id": "e2a537e39a731e846adfccd61cd56478", "rental_uris": {"ios": "https://dc.lft.to/lastmile_qr_scan", "android": "https://dc.lft.to/lastmile_qr_scan"}, "fusion_lon": 0.0, "lon": -76.98423233333334, "name": "e2a537e39a731e846adfccd61cd56478", "is_reserved": 0, "is_disabled": 0}, {"lat": 38.90499833333333, "fusion_lat": 0.0, "type": "electric_scooter", "bike_id": "8ecd6e7d645dc4aedc89fc9fc0cb5964", "rental_uris": {"ios": "https://dc.lft.to/lastmile_qr_scan", "android": "https://dc.lft.to/lastmile_qr_scan"}, "fusion_lon": 0.0, "lon": -77.0178575, "name": "8ecd6e7d645dc4aedc89fc9fc0cb5964", "is_reserved": 0, "is_disabled": 0}, {"lat": 38.92162866666666, "fusion_lat": 0.0, "type": "electric_scooter", "bike_id": "e9284d6c119861cd41b854534fc917bc", "rental_uris": {"ios": "https://dc.lft.to/lastmile_qr_scan", "android": "https://dc.lft.to/lastmile_qr_scan"}, "fusion_lon": 0.0, "lon": -77.04024666666666, "name": "e9284d6c119861cd41b854534fc917bc", "is_reserved": 0, "is_disabled": 0}, {"lat": 38.900093166666665, "fusion_lat": 0.0, "type": "electric_scooter", "bike_id": "35b721ee86c6cd2c5183c2fc9aed01ae", "rental_uris": {"ios": "https://dc.lft.to/lastmile_qr_scan", "android": "https://dc.lft.to/lastmile_qr_scan"}, "fusion_lon": 0.0, "lon": -76.99865966666667, "name": "35b721ee86c6cd2c5183c2fc9aed01ae", "is_reserved": 0, "is_disabled": 0}, {"lat": 38.89949083333333, "fusion_lat": 0.0, "type": "electric_scooter", "bike_id": "75a4993f31bf8eda08d247fb67132a89", "rental_uris": {"ios": "https://dc.lft.to/lastmile_qr_scan", "android": "https://dc.lft.to/lastmile_qr_scan"}, "fusion_lon": 0.0, "lon": -77.04171316666667, "name": "75a4993f31bf8eda08d247fb67132a89", "is_reserved": 0, "is_disabled": 0}, {"lat": 38.91063366666667, "fusion_lat": 0.0, "type": "electric_scooter", "bike_id": "a29e6d5cfaf4f33f828e0a0dfbbb6948", "rental_uris": {"ios": "https://dc.lft.to/lastmile_qr_scan", "android": "https://dc.lft.to/lastmile_qr_scan"}, "fusion_lon": 0.0, "lon": -77.0343035, "name": "a29e6d5cfaf4f33f828e0a0dfbbb6948", "is_reserved": 0, "is_disabled": 0}, {"lat": 38.90286666666667, "fusion_lat": 0.0, "type": "electric_scooter", "bike_id": "140dbeed9b3f6a82474e43a4668e2dae", "rental_uris": {"ios": "https://dc.lft.to/lastmile_qr_scan", "android": "https://dc.lft.to/lastmile_qr_scan"}, "fusion_lon": 0.0, "lon": -77.04666416666667, "name": "140dbeed9b3f6a82474e43a4668e2dae", "is_reserved": 0, "is_disabled": 0}, {"lat": 38.896865, "fusion_lat": 0.0, "type": "electric_scooter", "bike_id": "e9d9abff14b714063703a9be5df94823", "rental_uris": {"ios": "https://dc.lft.to/lastmile_qr_scan", "android": "https://dc.lft.to/lastmile_qr_scan"}, "fusion_lon": 0.0, "lon": -76.937117, "name": "e9d9abff14b714063703a9be5df94823", "is_reserved": 0, "is_disabled": 0}, {"lat": 38.90543383333333, "fusion_lat": 0.0, "type": "electric_scooter", "bike_id": "856d34016517640320047eaaf06ec455", "rental_uris": {"ios": "https://dc.lft.to/lastmile_qr_scan", "android": "https://dc.lft.to/lastmile_qr_scan"}, "fusion_lon": 0.0, "lon": -77.029648, "name": "856d34016517640320047eaaf06ec455", "is_reserved": 0, "is_disabled": 0}, {"lat": 38.91802, "fusion_lat": 0.0, "type": "electric_scooter", "bike_id": "e41c08b576a94311f39609bb51c93727", "rental_uris": {"ios": "https://dc.lft.to/lastmile_qr_scan", "android": "https://dc.lft.to/lastmile_qr_scan"}, "fusion_lon": 0.0, "lon": -77.02484183333333, "name": "e41c08b576a94311f39609bb51c93727", "is_reserved": 0, "is_disabled": 0}, {"lat": 38.87577983333333, "fusion_lat": 0.0, "type": "electric_bike", "bike_id": "7d42e5b7acc0c8db02f028ce9975fa23", "rental_uris": {"ios": "https://dc.lft.to/lastmile_qr_scan", "android": "https://dc.lft.to/lastmile_qr_scan"}, "fusion_lon": 0.0, "lon": -77.23409016666666, "name": "7d42e5b7acc0c8db02f028ce9975fa23", "is_reserved": 0, "is_disabled": 0}, {"lat": 38.9235375, "fusion_lat": 0.0, "type": "electric_scooter", "bike_id": "756282202b3c33d5de9cf1fc81228aff", "rental_uris": {"ios": "https://dc.lft.to/lastmile_qr_scan", "android": "https://dc.lft.to/lastmile_qr_scan"}, "fusion_lon": 0.0, "lon": -77.003295, "name": "756282202b3c33d5de9cf1fc81228aff", "is_reserved": 0, "is_disabled": 0}, {"lat": 38.92588883333333, "fusion_lat": 0.0, "type": "electric_scooter", "bike_id": "b2f3ebb605e6ee7291972f0ee9409742", "rental_uris": {"ios": "https://dc.lft.to/lastmile_qr_scan", "android": "https://dc.lft.to/lastmile_qr_scan"}, "fusion_lon": 0.0, "lon": -77.09690083333334, "name": "b2f3ebb605e6ee7291972f0ee9409742", "is_reserved": 0, "is_disabled": 0}, {"lat": 38.950522, "fusion_lat": 0.0, "type": "electric_scooter", "bike_id": "f7be790cbfe6c42da55291dace8d9a0b", "rental_uris": {"ios": "https://dc.lft.to/lastmile_qr_scan", "android": "https://dc.lft.to/lastmile_qr_scan"}, "fusion_lon": 0.0, "lon": -77.08026966666667, "name": "f7be790cbfe6c42da55291dace8d9a0b", "is_reserved": 0, "is_disabled": 0}, {"lat": 38.93444816666667, "fusion_lat": 0.0, "type": "electric_scooter", "bike_id": "78cf25824cc622761400a6f949eae5e0", "rental_uris": {"ios": "https://dc.lft.to/lastmile_qr_scan", "android": "https://dc.lft.to/lastmile_qr_scan"}, "fusion_lon": 0.0, "lon": -77.09058033333334, "name": "78cf25824cc622761400a6f949eae5e0", "is_reserved": 0, "is_disabled": 0}, {"lat": 38.91717333333333, "fusion_lat": 0.0, "type": "electric_scooter", "bike_id": "22beaece5c379df7673f516bb0a2d341", "rental_uris": {"ios": "https://dc.lft.to/lastmile_qr_scan", "android": "https://dc.lft.to/lastmile_qr_scan"}, "fusion_lon": 0.0, "lon": -77.02590166666667, "name": "22beaece5c379df7673f516bb0a2d341", "is_reserved": 0, "is_disabled": 0}, {"lat": 38.915236666666665, "fusion_lat": 0.0, "type": "electric_scooter", "bike_id": "5f53359a44c3c38da4da0115a0edcf5b", "rental_uris": {"ios": "https://dc.lft.to/lastmile_qr_scan", "android": "https://dc.lft.to/lastmile_qr_scan"}, "fusion_lon": 0.0, "lon": -77.04863983333334, "name": "5f53359a44c3c38da4da0115a0edcf5b", "is_reserved": 0, "is_disabled": 0}, {"lat": 38.917559, "fusion_lat": 0.0, "type": "electric_scooter", "bike_id": "599fb2bc1b7964e89638129e39d9f1f6", "rental_uris": {"ios": "https://dc.lft.to/lastmile_qr_scan", "android": "https://dc.lft.to/lastmile_qr_scan"}, "fusion_lon": 0.0, "lon": -77.03638533333333, "name": "599fb2bc1b7964e89638129e39d9f1f6", "is_reserved": 0, "is_disabled": 0}, {"lat": 38.8990225, "fusion_lat": 0.0, "type": "electric_scooter", "bike_id": "40a10bd1e58ebdfbb8608af4718c3cf5", "rental_uris": {"ios": "https://dc.lft.to/lastmile_qr_scan", "android": "https://dc.lft.to/lastmile_qr_scan"}, "fusion_lon": 0.0, "lon": -76.99953133333334, "name": "40a10bd1e58ebdfbb8608af4718c3cf5", "is_reserved": 0, "is_disabled": 0}, {"lat": 38.91184833333333, "fusion_lat": 0.0, "type": "electric_scooter", "bike_id": "d57ea71c8ac9d98635160801a6803442", "rental_uris": {"ios": "https://dc.lft.to/lastmile_qr_scan", "android": "https://dc.lft.to/lastmile_qr_scan"}, "fusion_lon": 0.0, "lon": -77.03503733333334, "name": "d57ea71c8ac9d98635160801a6803442", "is_reserved": 0, "is_disabled": 0}, {"lat": 38.892222, "fusion_lat": 0.0, "type": "electric_scooter", "bike_id": "00e207db7cb0e7a0296ac2e242c26972", "rental_uris": {"ios": "https://dc.lft.to/lastmile_qr_scan", "android": "https://dc.lft.to/lastmile_qr_scan"}, "fusion_lon": 0.0, "lon": -77.02780933333334, "name": "00e207db7cb0e7a0296ac2e242c26972", "is_reserved": 0, "is_disabled": 0}, {"lat": 38.91811083333333, "fusion_lat": 0.0, "type": "electric_scooter", "bike_id": "6e90ece1b255a4e9d450d0992cbdf0d9", "rental_uris": {"ios": "https://dc.lft.to/lastmile_qr_scan", "android": "https://dc.lft.to/lastmile_qr_scan"}, "fusion_lon": 0.0, "lon": -77.03639733333333, "name": "6e90ece1b255a4e9d450d0992cbdf0d9", "is_reserved": 0, "is_disabled": 0}, {"lat": 38.92906283333333, "fusion_lat": 0.0, "type": "electric_scooter", "bike_id": "e80aa55b51a8fefd9f0b0ab36307e3ac", "rental_uris": {"ios": "https://dc.lft.to/lastmile_qr_scan", "android": "https://dc.lft.to/lastmile_qr_scan"}, "fusion_lon": 0.0, "lon": -77.0729595, "name": "e80aa55b51a8fefd9f0b0ab36307e3ac", "is_reserved": 0, "is_disabled": 0}, {"lat": 38.91776016666667, "fusion_lat": 0.0, "type": "electric_scooter", "bike_id": "956666d302b82b1b5b5fea7187028053", "rental_uris": {"ios": "https://dc.lft.to/lastmile_qr_scan", "android": "https://dc.lft.to/lastmile_qr_scan"}, "fusion_lon": 0.0, "lon": -77.02119533333334, "name": "956666d302b82b1b5b5fea7187028053", "is_reserved": 0, "is_disabled": 0}, {"lat": 38.914045, "fusion_lat": 0.0, "type": "electric_scooter", "bike_id": "fcd0f00d29de166b843ab025b00e945e", "rental_uris": {"ios": "https://dc.lft.to/lastmile_qr_scan", "android": "https://dc.lft.to/lastmile_qr_scan"}, "fusion_lon": 0.0, "lon": -77.03217733333334, "name": "fcd0f00d29de166b843ab025b00e945e", "is_reserved": 0, "is_disabled": 0}, {"lat": 38.91794683333333, "fusion_lat": 0.0, "type": "electric_scooter", "bike_id": "6bea32313ff86d0837f877dc7c56990f", "rental_uris": {"ios": "https://dc.lft.to/lastmile_qr_scan", "android": "https://dc.lft.to/lastmile_qr_scan"}, "fusion_lon": 0.0, "lon": -77.02708283333334, "name": "6bea32313ff86d0837f877dc7c56990f", "is_reserved": 0, "is_disabled": 0}, {"lat": 38.91007783333333, "fusion_lat": 0.0, "type": "electric_scooter", "bike_id": "825c8c5798b3ddf8d3f1757fd6576204", "rental_uris": {"ios": "https://dc.lft.to/lastmile_qr_scan", "android": "https://dc.lft.to/lastmile_qr_scan"}, "fusion_lon": 0.0, "lon": -76.99407283333333, "name": "825c8c5798b3ddf8d3f1757fd6576204", "is_reserved": 0, "is_disabled": 0}, {"lat": 38.91011233333333, "fusion_lat": 0.0, "type": "electric_scooter", "bike_id": "30e0199ba7802192c83978980d2429a7", "rental_uris": {"ios": "https://dc.lft.to/lastmile_qr_scan", "android": "https://dc.lft.to/lastmile_qr_scan"}, "fusion_lon": 0.0, "lon": -76.99410616666667, "name": "30e0199ba7802192c83978980d2429a7", "is_reserved": 0, "is_disabled": 0}, {"lat": 38.900404333333334, "fusion_lat": 0.0, "type": "electric_scooter", "bike_id": "a903326b54c6d175c8bb0e6a82bc5c30", "rental_uris": {"ios": "https://dc.lft.to/lastmile_qr_scan", "android": "https://dc.lft.to/lastmile_qr_scan"}, "fusion_lon": 0.0, "lon": -77.01278383333333, "name": "a903326b54c6d175c8bb0e6a82bc5c30", "is_reserved": 0, "is_disabled": 0}, {"lat": 38.89271516666667, "fusion_lat": 0.0, "type": "electric_scooter", "bike_id": "8de4ac0e1c4a8e248cbed56d09dbab53", "rental_uris": {"ios": "https://dc.lft.to/lastmile_qr_scan", "android": "https://dc.lft.to/lastmile_qr_scan"}, "fusion_lon": 0.0, "lon": -77.04674133333333, "name": "8de4ac0e1c4a8e248cbed56d09dbab53", "is_reserved": 0, "is_disabled": 0}, {"lat": 38.90381716666667, "fusion_lat": 0.0, "type": "electric_scooter", "bike_id": "80f2805d7a65140f315baf4f7c32e874", "rental_uris": {"ios": "https://dc.lft.to/lastmile_qr_scan", "android": "https://dc.lft.to/lastmile_qr_scan"}, "fusion_lon": 0.0, "lon": -76.97609516666667, "name": "80f2805d7a65140f315baf4f7c32e874", "is_reserved": 0, "is_disabled": 0}, {"lat": 38.96144, "fusion_lat": 0.0, "type": "electric_scooter", "bike_id": "45e79905393454a73b7b224238d1905c", "rental_uris": {"ios": "https://dc.lft.to/lastmile_qr_scan", "android": "https://dc.lft.to/lastmile_qr_scan"}, "fusion_lon": 0.0, "lon": -77.02779333333334, "name": "45e79905393454a73b7b224238d1905c", "is_reserved": 0, "is_disabled": 0}, {"lat": 38.92136983333333, "fusion_lat": 0.0, "type": "electric_scooter", "bike_id": "787eb170657f8dfa7065cf09de0b31b8", "rental_uris": {"ios": "https://dc.lft.to/lastmile_qr_scan", "android": "https://dc.lft.to/lastmile_qr_scan"}, "fusion_lon": 0.0, "lon": -77.00940433333334, "name": "787eb170657f8dfa7065cf09de0b31b8", "is_reserved": 0, "is_disabled": 0}, {"lat": 38.906327833333336, "fusion_lat": 0.0, "type": "electric_scooter", "bike_id": "cb30c138bc9b25111e60a42298effb11", "rental_uris": {"ios": "https://dc.lft.to/lastmile_qr_scan", "android": "https://dc.lft.to/lastmile_qr_scan"}, "fusion_lon": 0.0, "lon": -76.97800583333333, "name": "cb30c138bc9b25111e60a42298effb11", "is_reserved": 0, "is_disabled": 0}, {"lat": 38.90744466666666, "fusion_lat": 0.0, "type": "electric_scooter", "bike_id": "5f070e5a6892a92cc9bfb5a184f156ea", "rental_uris": {"ios": "https://dc.lft.to/lastmile_qr_scan", "android": "https://dc.lft.to/lastmile_qr_scan"}, "fusion_lon": 0.0, "lon": -77.041404, "name": "5f070e5a6892a92cc9bfb5a184f156ea", "is_reserved": 0, "is_disabled": 0}, {"lat": 38.934501, "fusion_lat": 0.0, "type": "electric_scooter", "bike_id": "655193312c3ddfe9eb8687336e56adf9", "rental_uris": {"ios": "https://dc.lft.to/lastmile_qr_scan", "android": "https://dc.lft.to/lastmile_qr_scan"}, "fusion_lon": 0.0, "lon": -77.02915, "name": "655193312c3ddfe9eb8687336e56adf9", "is_reserved": 0, "is_disabled": 0}, {"lat": 38.89606116666667, "fusion_lat": 0.0, "type": "electric_scooter", "bike_id": "4c41577fe5a0015b2cb8a40f59a12802", "rental_uris": {"ios": "https://dc.lft.to/lastmile_qr_scan", "android": "https://dc.lft.to/lastmile_qr_scan"}, "fusion_lon": 0.0, "lon": -77.02936266666667, "name": "4c41577fe5a0015b2cb8a40f59a12802", "is_reserved": 0, "is_disabled": 0}, {"lat": 38.899337833333334, "fusion_lat": 0.0, "type": "electric_scooter", "bike_id": "bd50513048503c3a0bf61d3d3f3bd254", "rental_uris": {"ios": "https://dc.lft.to/lastmile_qr_scan", "android": "https://dc.lft.to/lastmile_qr_scan"}, "fusion_lon": 0.0, "lon": -77.01270016666666, "name": "bd50513048503c3a0bf61d3d3f3bd254", "is_reserved": 0, "is_disabled": 0}, {"lat": 38.897053666666665, "fusion_lat": 0.0, "type": "electric_scooter", "bike_id": "3f609f2205d4fe5f3f659addd0eebb2e", "rental_uris": {"ios": "https://dc.lft.to/lastmile_qr_scan", "android": "https://dc.lft.to/lastmile_qr_scan"}, "fusion_lon": 0.0, "lon": -76.93575083333333, "name": "3f609f2205d4fe5f3f659addd0eebb2e", "is_reserved": 0, "is_disabled": 0}, {"lat": 38.915986, "fusion_lat": 0.0, "type": "electric_scooter", "bike_id": "b78569e3f543a8a71d8dea4a5991be08", "rental_uris": {"ios": "https://dc.lft.to/lastmile_qr_scan", "android": "https://dc.lft.to/lastmile_qr_scan"}, "fusion_lon": 0.0, "lon": -77.03196516666667, "name": "b78569e3f543a8a71d8dea4a5991be08", "is_reserved": 0, "is_disabled": 0}, {"lat": 38.96394183333334, "fusion_lat": 0.0, "type": "electric_scooter", "bike_id": "2281705d230fb9a4a8646b3e97419bb6", "rental_uris": {"ios": "https://dc.lft.to/lastmile_qr_scan", "android": "https://dc.lft.to/lastmile_qr_scan"}, "fusion_lon": 0.0, "lon": -77.025887, "name": "2281705d230fb9a4a8646b3e97419bb6", "is_reserved": 0, "is_disabled": 0}, {"lat": 38.90083166666667, "fusion_lat": 0.0, "type": "electric_scooter", "bike_id": "13cc19990ef84ac2cbad2f558a9ba65f", "rental_uris": {"ios": "https://dc.lft.to/lastmile_qr_scan", "android": "https://dc.lft.to/lastmile_qr_scan"}, "fusion_lon": 0.0, "lon": -77.023027, "name": "13cc19990ef84ac2cbad2f558a9ba65f", "is_reserved": 0, "is_disabled": 0}, {"lat": 38.90041933333333, "fusion_lat": 0.0, "type": "electric_scooter", "bike_id": "5a70697e192cb819f5643153cb751970", "rental_uris": {"ios": "https://dc.lft.to/lastmile_qr_scan", "android": "https://dc.lft.to/lastmile_qr_scan"}, "fusion_lon": 0.0, "lon": -77.02622583333333, "name": "5a70697e192cb819f5643153cb751970", "is_reserved": 0, "is_disabled": 0}, {"lat": 38.876620333333335, "fusion_lat": 0.0, "type": "electric_scooter", "bike_id": "0c8964105cbc2c081cef1887e36eb7a1", "rental_uris": {"ios": "https://dc.lft.to/lastmile_qr_scan", "android": "https://dc.lft.to/lastmile_qr_scan"}, "fusion_lon": 0.0, "lon": -77.0007565, "name": "0c8964105cbc2c081cef1887e36eb7a1", "is_reserved": 0, "is_disabled": 0}, {"lat": 38.92501166666667, "fusion_lat": 0.0, "type": "electric_scooter", "bike_id": "607611ac11216c65019d1d995670018f", "rental_uris": {"ios": "https://dc.lft.to/lastmile_qr_scan", "android": "https://dc.lft.to/lastmile_qr_scan"}, "fusion_lon": 0.0, "lon": -77.02403733333334, "name": "607611ac11216c65019d1d995670018f", "is_reserved": 0, "is_disabled": 0}, {"lat": 38.961415, "fusion_lat": 0.0, "type": "electric_scooter", "bike_id": "5c00c01ed85fd3510b6ffb49f049abf5", "rental_uris": {"ios": "https://dc.lft.to/lastmile_qr_scan", "android": "https://dc.lft.to/lastmile_qr_scan"}, "fusion_lon": 0.0, "lon": -77.028046, "name": "5c00c01ed85fd3510b6ffb49f049abf5", "is_reserved": 0, "is_disabled": 0}, {"lat": 38.91000533333333, "fusion_lat": 0.0, "type": "electric_scooter", "bike_id": "ac3ce61a998c40ecd827e313eb256ac2", "rental_uris": {"ios": "https://dc.lft.to/lastmile_qr_scan", "android": "https://dc.lft.to/lastmile_qr_scan"}, "fusion_lon": 0.0, "lon": -77.04005, "name": "ac3ce61a998c40ecd827e313eb256ac2", "is_reserved": 0, "is_disabled": 0}, {"lat": 38.980395666666666, "fusion_lat": 0.0, "type": "electric_bike", "bike_id": "cd78ce41caefc471b488bda4946b1e84", "rental_uris": {"ios": "https://dc.lft.to/lastmile_qr_scan", "android": "https://dc.lft.to/lastmile_qr_scan"}, "fusion_lon": 0.0, "lon": -76.9579075, "name": "cd78ce41caefc471b488bda4946b1e84", "is_reserved": 0, "is_disabled": 0}, {"lat": 38.9138915, "fusion_lat": 0.0, "type": "electric_scooter", "bike_id": "12946c5012cac7389d1a01216b057e8e", "rental_uris": {"ios": "https://dc.lft.to/lastmile_qr_scan", "android": "https://dc.lft.to/lastmile_qr_scan"}, "fusion_lon": 0.0, "lon": -77.02192966666667, "name": "12946c5012cac7389d1a01216b057e8e", "is_reserved": 0, "is_disabled": 0}, {"lat": 38.956772666666666, "fusion_lat": 0.0, "type": "electric_scooter", "bike_id": "3a1a64dca172c3a2bc4d4a42956733bf", "rental_uris": {"ios": "https://dc.lft.to/lastmile_qr_scan", "android": "https://dc.lft.to/lastmile_qr_scan"}, "fusion_lon": 0.0, "lon": -77.01360833333334, "name": "3a1a64dca172c3a2bc4d4a42956733bf", "is_reserved": 0, "is_disabled": 0}, {"lat": 38.9097505, "fusion_lat": 0.0, "type": "electric_scooter", "bike_id": "4140c9c72794bc7ddc74719e886654e0", "rental_uris": {"ios": "https://dc.lft.to/lastmile_qr_scan", "android": "https://dc.lft.to/lastmile_qr_scan"}, "fusion_lon": 0.0, "lon": -77.01844983333334, "name": "4140c9c72794bc7ddc74719e886654e0", "is_reserved": 0, "is_disabled": 0}, {"lat": 38.936287166666666, "fusion_lat": 0.0, "type": "electric_scooter", "bike_id": "d31080ccaaab101bb04b6920263bbc2e", "rental_uris": {"ios": "https://dc.lft.to/lastmile_qr_scan", "android": "https://dc.lft.to/lastmile_qr_scan"}, "fusion_lon": 0.0, "lon": -77.05877416666667, "name": "d31080ccaaab101bb04b6920263bbc2e", "is_reserved": 0, "is_disabled": 0}, {"lat": 38.91253183333333, "fusion_lat": 0.0, "type": "electric_scooter", "bike_id": "44fd086e4bd8e7cb425f3506d16a296c", "rental_uris": {"ios": "https://dc.lft.to/lastmile_qr_scan", "android": "https://dc.lft.to/lastmile_qr_scan"}, "fusion_lon": 0.0, "lon": -77.01975866666666, "name": "44fd086e4bd8e7cb425f3506d16a296c", "is_reserved": 0, "is_disabled": 0}, {"lat": 38.899453333333334, "fusion_lat": 0.0, "type": "electric_scooter", "bike_id": "19241ac3b5ccab12114ae949da1aef5f", "rental_uris": {"ios": "https://dc.lft.to/lastmile_qr_scan", "android": "https://dc.lft.to/lastmile_qr_scan"}, "fusion_lon": 0.0, "lon": -77.044936, "name": "19241ac3b5ccab12114ae949da1aef5f", "is_reserved": 0, "is_disabled": 0}, {"lat": 38.90131016666667, "fusion_lat": 0.0, "type": "electric_scooter", "bike_id": "d38ee451306180cdf94dd8241da58866", "rental_uris": {"ios": "https://dc.lft.to/lastmile_qr_scan", "android": "https://dc.lft.to/lastmile_qr_scan"}, "fusion_lon": 0.0, "lon": -77.03503866666667, "name": "d38ee451306180cdf94dd8241da58866", "is_reserved": 0, "is_disabled": 0}, {"lat": 38.90024666666667, "fusion_lat": 0.0, "type": "electric_scooter", "bike_id": "fd2cdf5aadaf8dc45b6d518efca68a96", "rental_uris": {"ios": "https://dc.lft.to/lastmile_qr_scan", "android": "https://dc.lft.to/lastmile_qr_scan"}, "fusion_lon": 0.0, "lon": -77.01181866666667, "name": "fd2cdf5aadaf8dc45b6d518efca68a96", "is_reserved": 0, "is_disabled": 0}, {"lat": 38.89601366666667, "fusion_lat": 0.0, "type": "electric_scooter", "bike_id": "f38c9711ea4babc70bf03d551488e2de", "rental_uris": {"ios": "https://dc.lft.to/lastmile_qr_scan", "android": "https://dc.lft.to/lastmile_qr_scan"}, "fusion_lon": 0.0, "lon": -77.0234905, "name": "f38c9711ea4babc70bf03d551488e2de", "is_reserved": 0, "is_disabled": 0}, {"lat": 38.87403366666667, "fusion_lat": 0.0, "type": "electric_scooter", "bike_id": "94947948837da46bb840c997ff1e780c", "rental_uris": {"ios": "https://dc.lft.to/lastmile_qr_scan", "android": "https://dc.lft.to/lastmile_qr_scan"}, "fusion_lon": 0.0, "lon": -77.0002745, "name": "94947948837da46bb840c997ff1e780c", "is_reserved": 0, "is_disabled": 0}, {"lat": 38.952853833333336, "fusion_lat": 0.0, "type": "electric_scooter", "bike_id": "8e3d876f3bdc25cc293c67b7c0c67fd6", "rental_uris": {"ios": "https://dc.lft.to/lastmile_qr_scan", "android": "https://dc.lft.to/lastmile_qr_scan"}, "fusion_lon": 0.0, "lon": -77.03629083333334, "name": "8e3d876f3bdc25cc293c67b7c0c67fd6", "is_reserved": 0, "is_disabled": 0}, {"lat": 38.892536166666666, "fusion_lat": 0.0, "type": "electric_scooter", "bike_id": "457328a3cedd303135ff8e86ad74b53b", "rental_uris": {"ios": "https://dc.lft.to/lastmile_qr_scan", "android": "https://dc.lft.to/lastmile_qr_scan"}, "fusion_lon": 0.0, "lon": -77.003396, "name": "457328a3cedd303135ff8e86ad74b53b", "is_reserved": 0, "is_disabled": 0}, {"lat": 38.90977183333333, "fusion_lat": 0.0, "type": "electric_scooter", "bike_id": "f0cf929ff3ddce96350ac1d0e1f18236", "rental_uris": {"ios": "https://dc.lft.to/lastmile_qr_scan", "android": "https://dc.lft.to/lastmile_qr_scan"}, "fusion_lon": 0.0, "lon": -77.03184566666667, "name": "f0cf929ff3ddce96350ac1d0e1f18236", "is_reserved": 0, "is_disabled": 0}, {"lat": 38.915831833333336, "fusion_lat": 0.0, "type": "electric_scooter", "bike_id": "7b5a890944a95ecb4461eb0c0c1f660b", "rental_uris": {"ios": "https://dc.lft.to/lastmile_qr_scan", "android": "https://dc.lft.to/lastmile_qr_scan"}, "fusion_lon": 0.0, "lon": -77.0446505, "name": "7b5a890944a95ecb4461eb0c0c1f660b", "is_reserved": 0, "is_disabled": 0}, {"lat": 38.9189075, "fusion_lat": 0.0, "type": "electric_scooter", "bike_id": "e5632c1b0cdfa20de9a2b57c9034e387", "rental_uris": {"ios": "https://dc.lft.to/lastmile_qr_scan", "android": "https://dc.lft.to/lastmile_qr_scan"}, "fusion_lon": 0.0, "lon": -77.046188, "name": "e5632c1b0cdfa20de9a2b57c9034e387", "is_reserved": 0, "is_disabled": 0}, {"lat": 38.887544, "fusion_lat": 0.0, "type": "electric_scooter", "bike_id": "51a00feb7b4a79bb21df04254fb309c8", "rental_uris": {"ios": "https://dc.lft.to/lastmile_qr_scan", "android": "https://dc.lft.to/lastmile_qr_scan"}, "fusion_lon": 0.0, "lon": -76.99602733333333, "name": "51a00feb7b4a79bb21df04254fb309c8", "is_reserved": 0, "is_disabled": 0}, {"lat": 38.902452333333336, "fusion_lat": 0.0, "type": "electric_scooter", "bike_id": "88c895f439b7e5dad2976a60eb10b988", "rental_uris": {"ios": "https://dc.lft.to/lastmile_qr_scan", "android": "https://dc.lft.to/lastmile_qr_scan"}, "fusion_lon": 0.0, "lon": -77.0020235, "name": "88c895f439b7e5dad2976a60eb10b988", "is_reserved": 0, "is_disabled": 0}, {"lat": 38.84844733333333, "fusion_lat": 0.0, "type": "electric_bike", "bike_id": "23d583f811c312d6b17309a91dbde946", "rental_uris": {"ios": "https://dc.lft.to/lastmile_qr_scan", "android": "https://dc.lft.to/lastmile_qr_scan"}, "fusion_lon": 0.0, "lon": -77.084873, "name": "23d583f811c312d6b17309a91dbde946", "is_reserved": 0, "is_disabled": 0}, {"lat": 38.935576833333336, "fusion_lat": 0.0, "type": "electric_scooter", "bike_id": "1b268aa7fc964ed0dd95485781cb8a26", "rental_uris": {"ios": "https://dc.lft.to/lastmile_qr_scan", "android": "https://dc.lft.to/lastmile_qr_scan"}, "fusion_lon": 0.0, "lon": -77.07456716666667, "name": "1b268aa7fc964ed0dd95485781cb8a26", "is_reserved": 0, "is_disabled": 0}, {"lat": 38.9353295, "fusion_lat": 0.0, "type": "electric_scooter", "bike_id": "074ca3198e408cc1ed500cd5b3b31db9", "rental_uris": {"ios": "https://dc.lft.to/lastmile_qr_scan", "android": "https://dc.lft.to/lastmile_qr_scan"}, "fusion_lon": 0.0, "lon": -77.03471366666666, "name": "074ca3198e408cc1ed500cd5b3b31db9", "is_reserved": 0, "is_disabled": 0}, {"lat": 38.91033816666667, "fusion_lat": 0.0, "type": "electric_scooter", "bike_id": "adb4374809aa3f8df2109c64f319024e", "rental_uris": {"ios": "https://dc.lft.to/lastmile_qr_scan", "android": "https://dc.lft.to/lastmile_qr_scan"}, "fusion_lon": 0.0, "lon": -77.0330655, "name": "adb4374809aa3f8df2109c64f319024e", "is_reserved": 0, "is_disabled": 0}, {"lat": 38.93696666666666, "fusion_lat": 0.0, "type": "electric_scooter", "bike_id": "3163e768d695276d16e9d98e8c905d76", "rental_uris": {"ios": "https://dc.lft.to/lastmile_qr_scan", "android": "https://dc.lft.to/lastmile_qr_scan"}, "fusion_lon": 0.0, "lon": -77.055993, "name": "3163e768d695276d16e9d98e8c905d76", "is_reserved": 0, "is_disabled": 0}, {"lat": 38.9118785, "fusion_lat": 0.0, "type": "electric_scooter", "bike_id": "1e516237398b84f318fbd441eb458ce9", "rental_uris": {"ios": "https://dc.lft.to/lastmile_qr_scan", "android": "https://dc.lft.to/lastmile_qr_scan"}, "fusion_lon": 0.0, "lon": -77.03863033333333, "name": "1e516237398b84f318fbd441eb458ce9", "is_reserved": 0, "is_disabled": 0}, {"lat": 38.87187816666667, "fusion_lat": 0.0, "type": "electric_scooter", "bike_id": "3a18b035b06a0189719373d71aa3e6f4", "rental_uris": {"ios": "https://dc.lft.to/lastmile_qr_scan", "android": "https://dc.lft.to/lastmile_qr_scan"}, "fusion_lon": 0.0, "lon": -77.00639433333333, "name": "3a18b035b06a0189719373d71aa3e6f4", "is_reserved": 0, "is_disabled": 0}, {"lat": 38.90642733333333, "fusion_lat": 0.0, "type": "electric_scooter", "bike_id": "af6bede63fdd9725114b114b7c796607", "rental_uris": {"ios": "https://dc.lft.to/lastmile_qr_scan", "android": "https://dc.lft.to/lastmile_qr_scan"}, "fusion_lon": 0.0, "lon": -77.0176415, "name": "af6bede63fdd9725114b114b7c796607", "is_reserved": 0, "is_disabled": 0}, {"lat": 38.907244166666665, "fusion_lat": 0.0, "type": "electric_scooter", "bike_id": "6e7cb77776c77190829a6c5d85ab2d78", "rental_uris": {"ios": "https://dc.lft.to/lastmile_qr_scan", "android": "https://dc.lft.to/lastmile_qr_scan"}, "fusion_lon": 0.0, "lon": -77.04166183333334, "name": "6e7cb77776c77190829a6c5d85ab2d78", "is_reserved": 0, "is_disabled": 0}, {"lat": 38.919977833333334, "fusion_lat": 0.0, "type": "electric_scooter", "bike_id": "8d441d42c738a6414829719c6a8037c1", "rental_uris": {"ios": "https://dc.lft.to/lastmile_qr_scan", "android": "https://dc.lft.to/lastmile_qr_scan"}, "fusion_lon": 0.0, "lon": -77.03230883333333, "name": "8d441d42c738a6414829719c6a8037c1", "is_reserved": 0, "is_disabled": 0}, {"lat": 38.93286166666667, "fusion_lat": 0.0, "type": "electric_scooter", "bike_id": "3f884b28ca350ba664cd26737ea14caf", "rental_uris": {"ios": "https://dc.lft.to/lastmile_qr_scan", "android": "https://dc.lft.to/lastmile_qr_scan"}, "fusion_lon": 0.0, "lon": -77.02822133333333, "name": "3f884b28ca350ba664cd26737ea14caf", "is_reserved": 0, "is_disabled": 0}, {"lat": 38.90672083333333, "fusion_lat": 0.0, "type": "electric_scooter", "bike_id": "26722ead7e5c353b3715f0f6576823f1", "rental_uris": {"ios": "https://dc.lft.to/lastmile_qr_scan", "android": "https://dc.lft.to/lastmile_qr_scan"}, "fusion_lon": 0.0, "lon": -77.0375605, "name": "26722ead7e5c353b3715f0f6576823f1", "is_reserved": 0, "is_disabled": 0}, {"lat": 38.883463, "fusion_lat": 0.0, "type": "electric_scooter", "bike_id": "3295020dc8585407bd33b706cce5162e", "rental_uris": {"ios": "https://dc.lft.to/lastmile_qr_scan", "android": "https://dc.lft.to/lastmile_qr_scan"}, "fusion_lon": 0.0, "lon": -76.9350025, "name": "3295020dc8585407bd33b706cce5162e", "is_reserved": 0, "is_disabled": 0}, {"lat": 38.89903316666667, "fusion_lat": 0.0, "type": "electric_scooter", "bike_id": "e2b08ca96402c830aea4d9277c182632", "rental_uris": {"ios": "https://dc.lft.to/lastmile_qr_scan", "android": "https://dc.lft.to/lastmile_qr_scan"}, "fusion_lon": 0.0, "lon": -77.03387783333334, "name": "e2b08ca96402c830aea4d9277c182632", "is_reserved": 0, "is_disabled": 0}, {"lat": 38.9228925, "fusion_lat": 0.0, "type": "electric_scooter", "bike_id": "a4e2f421b57a69bd3d735791cecbd3b3", "rental_uris": {"ios": "https://dc.lft.to/lastmile_qr_scan", "android": "https://dc.lft.to/lastmile_qr_scan"}, "fusion_lon": 0.0, "lon": -77.031896, "name": "a4e2f421b57a69bd3d735791cecbd3b3", "is_reserved": 0, "is_disabled": 0}, {"lat": 38.9060995, "fusion_lat": 0.0, "type": "electric_scooter", "bike_id": "3cf2d5c72a8f259239c635300fc22798", "rental_uris": {"ios": "https://dc.lft.to/lastmile_qr_scan", "android": "https://dc.lft.to/lastmile_qr_scan"}, "fusion_lon": 0.0, "lon": -77.0398685, "name": "3cf2d5c72a8f259239c635300fc22798", "is_reserved": 0, "is_disabled": 0}, {"lat": 38.843453333333336, "fusion_lat": 0.0, "type": "electric_scooter", "bike_id": "972f8bf9ae0a19f269e7d089e8cf788d", "rental_uris": {"ios": "https://dc.lft.to/lastmile_qr_scan", "android": "https://dc.lft.to/lastmile_qr_scan"}, "fusion_lon": 0.0, "lon": -76.99914133333333, "name": "972f8bf9ae0a19f269e7d089e8cf788d", "is_reserved": 0, "is_disabled": 0}, {"lat": 38.897318, "fusion_lat": 0.0, "type": "electric_scooter", "bike_id": "271ee22457db222a2360e6b680429b79", "rental_uris": {"ios": "https://dc.lft.to/lastmile_qr_scan", "android": "https://dc.lft.to/lastmile_qr_scan"}, "fusion_lon": 0.0, "lon": -77.0333775, "name": "271ee22457db222a2360e6b680429b79", "is_reserved": 0, "is_disabled": 0}, {"lat": 38.9094445, "fusion_lat": 0.0, "type": "electric_scooter", "bike_id": "4b4d1aae6f897b16573b792d465a07d7", "rental_uris": {"ios": "https://dc.lft.to/lastmile_qr_scan", "android": "https://dc.lft.to/lastmile_qr_scan"}, "fusion_lon": 0.0, "lon": -77.0305345, "name": "4b4d1aae6f897b16573b792d465a07d7", "is_reserved": 0, "is_disabled": 0}, {"lat": 38.9233385, "fusion_lat": 0.0, "type": "electric_scooter", "bike_id": "42a08d57fc52d416d356a595f29a1114", "rental_uris": {"ios": "https://dc.lft.to/lastmile_qr_scan", "android": "https://dc.lft.to/lastmile_qr_scan"}, "fusion_lon": 0.0, "lon": -77.05681833333334, "name": "42a08d57fc52d416d356a595f29a1114", "is_reserved": 0, "is_disabled": 0}, {"lat": 38.92000783333334, "fusion_lat": 0.0, "type": "electric_scooter", "bike_id": "b3db11822e9d6137774cda50e2b58add", "rental_uris": {"ios": "https://dc.lft.to/lastmile_qr_scan", "android": "https://dc.lft.to/lastmile_qr_scan"}, "fusion_lon": 0.0, "lon": -77.03233516666667, "name": "b3db11822e9d6137774cda50e2b58add", "is_reserved": 0, "is_disabled": 0}, {"lat": 38.90412466666667, "fusion_lat": 0.0, "type": "electric_scooter", "bike_id": "f44630fcbecd89c98ec7fc14bce11ebb", "rental_uris": {"ios": "https://dc.lft.to/lastmile_qr_scan", "android": "https://dc.lft.to/lastmile_qr_scan"}, "fusion_lon": 0.0, "lon": -76.9732995, "name": "f44630fcbecd89c98ec7fc14bce11ebb", "is_reserved": 0, "is_disabled": 0}, {"lat": 38.924576333333334, "fusion_lat": 0.0, "type": "electric_scooter", "bike_id": "fbdeb59c4385a6b3a6a974611f36acc5", "rental_uris": {"ios": "https://dc.lft.to/lastmile_qr_scan", "android": "https://dc.lft.to/lastmile_qr_scan"}, "fusion_lon": 0.0, "lon": -77.022357, "name": "fbdeb59c4385a6b3a6a974611f36acc5", "is_reserved": 0, "is_disabled": 0}, {"lat": 38.890394, "fusion_lat": 0.0, "type": "electric_scooter", "bike_id": "1fd73edf314e179dc8d31dd6332db601", "rental_uris": {"ios": "https://dc.lft.to/lastmile_qr_scan", "android": "https://dc.lft.to/lastmile_qr_scan"}, "fusion_lon": 0.0, "lon": -76.93755766666666, "name": "1fd73edf314e179dc8d31dd6332db601", "is_reserved": 0, "is_disabled": 0}, {"lat": 38.936069333333336, "fusion_lat": 0.0, "type": "electric_scooter", "bike_id": "f1e0c9b028ed71c3a2b1b5d733d85263", "rental_uris": {"ios": "https://dc.lft.to/lastmile_qr_scan", "android": "https://dc.lft.to/lastmile_qr_scan"}, "fusion_lon": 0.0, "lon": -77.031827, "name": "f1e0c9b028ed71c3a2b1b5d733d85263", "is_reserved": 0, "is_disabled": 0}, {"lat": 38.92483566666667, "fusion_lat": 0.0, "type": "electric_bike", "bike_id": "c02be39fbeb7d3646114d792785f8673", "rental_uris": {"ios": "https://dc.lft.to/lastmile_qr_scan", "android": "https://dc.lft.to/lastmile_qr_scan"}, "fusion_lon": 0.0, "lon": -77.233809, "name": "c02be39fbeb7d3646114d792785f8673", "is_reserved": 0, "is_disabled": 0}, {"lat": 38.927696166666664, "fusion_lat": 0.0, "type": "electric_scooter", "bike_id": "808bff63d90443a68a3a4e5eecea5063", "rental_uris": {"ios": "https://dc.lft.to/lastmile_qr_scan", "android": "https://dc.lft.to/lastmile_qr_scan"}, "fusion_lon": 0.0, "lon": -76.97348533333333, "name": "808bff63d90443a68a3a4e5eecea5063", "is_reserved": 0, "is_disabled": 0}, {"lat": 38.9066645, "fusion_lat": 0.0, "type": "electric_scooter", "bike_id": "7f40b0ad38cad6ed827105a389fabd6d", "rental_uris": {"ios": "https://dc.lft.to/lastmile_qr_scan", "android": "https://dc.lft.to/lastmile_qr_scan"}, "fusion_lon": 0.0, "lon": -77.02710833333333, "name": "7f40b0ad38cad6ed827105a389fabd6d", "is_reserved": 0, "is_disabled": 0}, {"lat": 38.89223366666667, "fusion_lat": 0.0, "type": "electric_scooter", "bike_id": "47f663699b8821a97deeb8cf7ad5447e", "rental_uris": {"ios": "https://dc.lft.to/lastmile_qr_scan", "android": "https://dc.lft.to/lastmile_qr_scan"}, "fusion_lon": 0.0, "lon": -77.043672, "name": "47f663699b8821a97deeb8cf7ad5447e", "is_reserved": 0, "is_disabled": 0}, {"lat": 38.945639666666665, "fusion_lat": 0.0, "type": "electric_scooter", "bike_id": "fc36d167174c6367e493d77410f728cf", "rental_uris": {"ios": "https://dc.lft.to/lastmile_qr_scan", "android": "https://dc.lft.to/lastmile_qr_scan"}, "fusion_lon": 0.0, "lon": -77.07957383333333, "name": "fc36d167174c6367e493d77410f728cf", "is_reserved": 0, "is_disabled": 0}, {"lat": 38.910293833333334, "fusion_lat": 0.0, "type": "electric_scooter", "bike_id": "45e631bc4302d1d9cbbf499d38d8ef5b", "rental_uris": {"ios": "https://dc.lft.to/lastmile_qr_scan", "android": "https://dc.lft.to/lastmile_qr_scan"}, "fusion_lon": 0.0, "lon": -77.04253266666667, "name": "45e631bc4302d1d9cbbf499d38d8ef5b", "is_reserved": 0, "is_disabled": 0}, {"lat": 38.878115333333334, "fusion_lat": 0.0, "type": "electric_scooter", "bike_id": "5049b2941ddef21133bf7b0f165ce986", "rental_uris": {"ios": "https://dc.lft.to/lastmile_qr_scan", "android": "https://dc.lft.to/lastmile_qr_scan"}, "fusion_lon": 0.0, "lon": -77.01727333333334, "name": "5049b2941ddef21133bf7b0f165ce986", "is_reserved": 0, "is_disabled": 0}, {"lat": 38.912287166666665, "fusion_lat": 0.0, "type": "electric_scooter", "bike_id": "e5a78edce3e5dbe38f0d061a7130a531", "rental_uris": {"ios": "https://dc.lft.to/lastmile_qr_scan", "android": "https://dc.lft.to/lastmile_qr_scan"}, "fusion_lon": 0.0, "lon": -77.02691833333333, "name": "e5a78edce3e5dbe38f0d061a7130a531", "is_reserved": 0, "is_disabled": 0}, {"lat": 38.92724616666667, "fusion_lat": 0.0, "type": "electric_scooter", "bike_id": "71f0f9e078540a9a45b0a6878acaed07", "rental_uris": {"ios": "https://dc.lft.to/lastmile_qr_scan", "android": "https://dc.lft.to/lastmile_qr_scan"}, "fusion_lon": 0.0, "lon": -77.027828, "name": "71f0f9e078540a9a45b0a6878acaed07", "is_reserved": 0, "is_disabled": 0}, {"lat": 38.90198683333333, "fusion_lat": 0.0, "type": "electric_scooter", "bike_id": "e35c3cab3c4e6c8dc0a222097d509bdf", "rental_uris": {"ios": "https://dc.lft.to/lastmile_qr_scan", "android": "https://dc.lft.to/lastmile_qr_scan"}, "fusion_lon": 0.0, "lon": -77.02373, "name": "e35c3cab3c4e6c8dc0a222097d509bdf", "is_reserved": 0, "is_disabled": 0}, {"lat": 38.89008616666667, "fusion_lat": 0.0, "type": "electric_scooter", "bike_id": "122d635ba7eff8d19cc8fdf21aa33ecd", "rental_uris": {"ios": "https://dc.lft.to/lastmile_qr_scan", "android": "https://dc.lft.to/lastmile_qr_scan"}, "fusion_lon": 0.0, "lon": -76.93737966666667, "name": "122d635ba7eff8d19cc8fdf21aa33ecd", "is_reserved": 0, "is_disabled": 0}, {"lat": 38.968395, "fusion_lat": 0.0, "type": "electric_bike", "bike_id": "a2e3f6f1b5f46dfda01c53af164bdebe", "rental_uris": {"ios": "https://dc.lft.to/lastmile_qr_scan", "android": "https://dc.lft.to/lastmile_qr_scan"}, "fusion_lon": 0.0, "lon": -77.00600183333333, "name": "a2e3f6f1b5f46dfda01c53af164bdebe", "is_reserved": 0, "is_disabled": 0}, {"lat": 38.87241183333333, "fusion_lat": 0.0, "type": "electric_bike", "bike_id": "6ababb0a28f4a036f154b1959b26958c", "rental_uris": {"ios": "https://dc.lft.to/lastmile_qr_scan", "android": "https://dc.lft.to/lastmile_qr_scan"}, "fusion_lon": 0.0, "lon": -77.0089355, "name": "6ababb0a28f4a036f154b1959b26958c", "is_reserved": 0, "is_disabled": 0}, {"lat": 38.91715, "fusion_lat": 0.0, "type": "electric_scooter", "bike_id": "aa76bd9b6a5a5c0e9fb3ebdf0afae14d", "rental_uris": {"ios": "https://dc.lft.to/lastmile_qr_scan", "android": "https://dc.lft.to/lastmile_qr_scan"}, "fusion_lon": 0.0, "lon": -77.03676383333334, "name": "aa76bd9b6a5a5c0e9fb3ebdf0afae14d", "is_reserved": 0, "is_disabled": 0}, {"lat": 38.89386566666667, "fusion_lat": 0.0, "type": "electric_scooter", "bike_id": "d942eb942f010efe7152df83978e0456", "rental_uris": {"ios": "https://dc.lft.to/lastmile_qr_scan", "android": "https://dc.lft.to/lastmile_qr_scan"}, "fusion_lon": 0.0, "lon": -77.04638033333333, "name": "d942eb942f010efe7152df83978e0456", "is_reserved": 0, "is_disabled": 0}, {"lat": 38.87492066666667, "fusion_lat": 0.0, "type": "electric_scooter", "bike_id": "805e206223f054e1323cb4fa3efa2c0e", "rental_uris": {"ios": "https://dc.lft.to/lastmile_qr_scan", "android": "https://dc.lft.to/lastmile_qr_scan"}, "fusion_lon": 0.0, "lon": -76.99971516666666, "name": "805e206223f054e1323cb4fa3efa2c0e", "is_reserved": 0, "is_disabled": 0}, {"lat": 38.90475133333333, "fusion_lat": 0.0, "type": "electric_scooter", "bike_id": "15d4dd53f3a6dec0c7882211ffc4c4cd", "rental_uris": {"ios": "https://dc.lft.to/lastmile_qr_scan", "android": "https://dc.lft.to/lastmile_qr_scan"}, "fusion_lon": 0.0, "lon": -77.0199255, "name": "15d4dd53f3a6dec0c7882211ffc4c4cd", "is_reserved": 0, "is_disabled": 0}, {"lat": 38.91995683333333, "fusion_lat": 0.0, "type": "electric_scooter", "bike_id": "da31f536a5473d9760780af6592f12be", "rental_uris": {"ios": "https://dc.lft.to/lastmile_qr_scan", "android": "https://dc.lft.to/lastmile_qr_scan"}, "fusion_lon": 0.0, "lon": -77.02537066666666, "name": "da31f536a5473d9760780af6592f12be", "is_reserved": 0, "is_disabled": 0}, {"lat": 38.9060245, "fusion_lat": 0.0, "type": "electric_scooter", "bike_id": "2af5f80b36fb8047322735c10795b04d", "rental_uris": {"ios": "https://dc.lft.to/lastmile_qr_scan", "android": "https://dc.lft.to/lastmile_qr_scan"}, "fusion_lon": 0.0, "lon": -77.06299866666667, "name": "2af5f80b36fb8047322735c10795b04d", "is_reserved": 0, "is_disabled": 0}, {"lat": 38.90249816666667, "fusion_lat": 0.0, "type": "electric_scooter", "bike_id": "49207114ffed08b5c9d2859b7d7db41b", "rental_uris": {"ios": "https://dc.lft.to/lastmile_qr_scan", "android": "https://dc.lft.to/lastmile_qr_scan"}, "fusion_lon": 0.0, "lon": -77.037473, "name": "49207114ffed08b5c9d2859b7d7db41b", "is_reserved": 0, "is_disabled": 0}, {"lat": 38.910210666666664, "fusion_lat": 0.0, "type": "electric_scooter", "bike_id": "fc8ce3b610726c1625d2dc5a39481615", "rental_uris": {"ios": "https://dc.lft.to/lastmile_qr_scan", "android": "https://dc.lft.to/lastmile_qr_scan"}, "fusion_lon": 0.0, "lon": -76.99723566666667, "name": "fc8ce3b610726c1625d2dc5a39481615", "is_reserved": 0, "is_disabled": 0}, {"lat": 38.91555016666667, "fusion_lat": 0.0, "type": "electric_scooter", "bike_id": "f6edeb1ab37c8bb945f6c4534d6f71c9", "rental_uris": {"ios": "https://dc.lft.to/lastmile_qr_scan", "android": "https://dc.lft.to/lastmile_qr_scan"}, "fusion_lon": 0.0, "lon": -77.032531, "name": "f6edeb1ab37c8bb945f6c4534d6f71c9", "is_reserved": 0, "is_disabled": 0}, {"lat": 38.9245295, "fusion_lat": 0.0, "type": "electric_scooter", "bike_id": "4638d66166e8cf3278744134b61fb3ed", "rental_uris": {"ios": "https://dc.lft.to/lastmile_qr_scan", "android": "https://dc.lft.to/lastmile_qr_scan"}, "fusion_lon": 0.0, "lon": -77.051907, "name": "4638d66166e8cf3278744134b61fb3ed", "is_reserved": 0, "is_disabled": 0}, {"lat": 38.938205833333335, "fusion_lat": 0.0, "type": "electric_scooter", "bike_id": "56c4baeda237ff504ee6f0f09e3fbf55", "rental_uris": {"ios": "https://dc.lft.to/lastmile_qr_scan", "android": "https://dc.lft.to/lastmile_qr_scan"}, "fusion_lon": 0.0, "lon": -76.98921716666666, "name": "56c4baeda237ff504ee6f0f09e3fbf55", "is_reserved": 0, "is_disabled": 0}, {"lat": 38.902150166666665, "fusion_lat": 0.0, "type": "electric_scooter", "bike_id": "01854583acf9462747638c40a2194f05", "rental_uris": {"ios": "https://dc.lft.to/lastmile_qr_scan", "android": "https://dc.lft.to/lastmile_qr_scan"}, "fusion_lon": 0.0, "lon": -77.02251833333334, "name": "01854583acf9462747638c40a2194f05", "is_reserved": 0, "is_disabled": 0}, {"lat": 39.014826166666666, "fusion_lat": 0.0, "type": "electric_bike", "bike_id": "cb8d7491ffc9dca44011762edefdd988", "rental_uris": {"ios": "https://dc.lft.to/lastmile_qr_scan", "android": "https://dc.lft.to/lastmile_qr_scan"}, "fusion_lon": 0.0, "lon": -77.09950266666667, "name": "cb8d7491ffc9dca44011762edefdd988", "is_reserved": 0, "is_disabled": 0}, {"lat": 38.9163615, "fusion_lat": 0.0, "type": "electric_scooter", "bike_id": "9281e1e837823ecd5d88da3f42bde6be", "rental_uris": {"ios": "https://dc.lft.to/lastmile_qr_scan", "android": "https://dc.lft.to/lastmile_qr_scan"}, "fusion_lon": 0.0, "lon": -77.01583616666667, "name": "9281e1e837823ecd5d88da3f42bde6be", "is_reserved": 0, "is_disabled": 0}, {"lat": 38.878023666666664, "fusion_lat": 0.0, "type": "electric_scooter", "bike_id": "c72cc39cc32c6577cf25a3967a30e800", "rental_uris": {"ios": "https://dc.lft.to/lastmile_qr_scan", "android": "https://dc.lft.to/lastmile_qr_scan"}, "fusion_lon": 0.0, "lon": -77.00564383333334, "name": "c72cc39cc32c6577cf25a3967a30e800", "is_reserved": 0, "is_disabled": 0}, {"lat": 38.89919716666667, "fusion_lat": 0.0, "type": "electric_scooter", "bike_id": "1b4801e90f661b6e52fbdca64aed707a", "rental_uris": {"ios": "https://dc.lft.to/lastmile_qr_scan", "android": "https://dc.lft.to/lastmile_qr_scan"}, "fusion_lon": 0.0, "lon": -76.93380416666666, "name": "1b4801e90f661b6e52fbdca64aed707a", "is_reserved": 0, "is_disabled": 0}, {"lat": 38.89770033333333, "fusion_lat": 0.0, "type": "electric_scooter", "bike_id": "5e4fb90a3281bbfd790b1212299d5db8", "rental_uris": {"ios": "https://dc.lft.to/lastmile_qr_scan", "android": "https://dc.lft.to/lastmile_qr_scan"}, "fusion_lon": 0.0, "lon": -77.0317505, "name": "5e4fb90a3281bbfd790b1212299d5db8", "is_reserved": 0, "is_disabled": 0}, {"lat": 38.87030333333333, "fusion_lat": 0.0, "type": "electric_bike", "bike_id": "38f0d7b22ac9f7529473191448fe7e0b", "rental_uris": {"ios": "https://dc.lft.to/lastmile_qr_scan", "android": "https://dc.lft.to/lastmile_qr_scan"}, "fusion_lon": 0.0, "lon": -77.22891066666666, "name": "38f0d7b22ac9f7529473191448fe7e0b", "is_reserved": 0, "is_disabled": 0}, {"lat": 38.92848083333333, "fusion_lat": 0.0, "type": "electric_scooter", "bike_id": "a9eaeeb392719ce6af52c9d8976ca784", "rental_uris": {"ios": "https://dc.lft.to/lastmile_qr_scan", "android": "https://dc.lft.to/lastmile_qr_scan"}, "fusion_lon": 0.0, "lon": -77.03374566666666, "name": "a9eaeeb392719ce6af52c9d8976ca784", "is_reserved": 0, "is_disabled": 0}, {"lat": 38.90252516666666, "fusion_lat": 0.0, "type": "electric_scooter", "bike_id": "26705e4094a3c9837efe12bc78895413", "rental_uris": {"ios": "https://dc.lft.to/lastmile_qr_scan", "android": "https://dc.lft.to/lastmile_qr_scan"}, "fusion_lon": 0.0, "lon": -77.04597633333333, "name": "26705e4094a3c9837efe12bc78895413", "is_reserved": 0, "is_disabled": 0}, {"lat": 38.90101216666667, "fusion_lat": 0.0, "type": "electric_bike", "bike_id": "cb5a2347e1c687006745f312f6bb2953", "rental_uris": {"ios": "https://dc.lft.to/lastmile_qr_scan", "android": "https://dc.lft.to/lastmile_qr_scan"}, "fusion_lon": 0.0, "lon": -77.032483, "name": "cb5a2347e1c687006745f312f6bb2953", "is_reserved": 0, "is_disabled": 0}, {"lat": 38.9353745, "fusion_lat": 0.0, "type": "electric_scooter", "bike_id": "f65a78fa098f8faf051bfb4cb095a310", "rental_uris": {"ios": "https://dc.lft.to/lastmile_qr_scan", "android": "https://dc.lft.to/lastmile_qr_scan"}, "fusion_lon": 0.0, "lon": -77.023426, "name": "f65a78fa098f8faf051bfb4cb095a310", "is_reserved": 0, "is_disabled": 0}, {"lat": 38.902408333333334, "fusion_lat": 0.0, "type": "electric_scooter", "bike_id": "3c336aa026fd6acc2d7d81dcb425d4cc", "rental_uris": {"ios": "https://dc.lft.to/lastmile_qr_scan", "android": "https://dc.lft.to/lastmile_qr_scan"}, "fusion_lon": 0.0, "lon": -77.034616, "name": "3c336aa026fd6acc2d7d81dcb425d4cc", "is_reserved": 0, "is_disabled": 0}, {"lat": 38.89531733333333, "fusion_lat": 0.0, "type": "electric_scooter", "bike_id": "b7b4922a2dc0155e02b0326ebe69d981", "rental_uris": {"ios": "https://dc.lft.to/lastmile_qr_scan", "android": "https://dc.lft.to/lastmile_qr_scan"}, "fusion_lon": 0.0, "lon": -77.02822233333333, "name": "b7b4922a2dc0155e02b0326ebe69d981", "is_reserved": 0, "is_disabled": 0}, {"lat": 38.914060166666665, "fusion_lat": 0.0, "type": "electric_scooter", "bike_id": "9f8c7f67ecd54ea9541942d56f9d81f9", "rental_uris": {"ios": "https://dc.lft.to/lastmile_qr_scan", "android": "https://dc.lft.to/lastmile_qr_scan"}, "fusion_lon": 0.0, "lon": -77.03225883333333, "name": "9f8c7f67ecd54ea9541942d56f9d81f9", "is_reserved": 0, "is_disabled": 0}, {"lat": 38.91208916666667, "fusion_lat": 0.0, "type": "electric_scooter", "bike_id": "4522bc47ca2c541ebb18b52fd5e75d27", "rental_uris": {"ios": "https://dc.lft.to/lastmile_qr_scan", "android": "https://dc.lft.to/lastmile_qr_scan"}, "fusion_lon": 0.0, "lon": -77.07308166666667, "name": "4522bc47ca2c541ebb18b52fd5e75d27", "is_reserved": 0, "is_disabled": 0}, {"lat": 38.92428983333333, "fusion_lat": 0.0, "type": "electric_scooter", "bike_id": "21b708324343e7bd6a28697e6cfc56cb", "rental_uris": {"ios": "https://dc.lft.to/lastmile_qr_scan", "android": "https://dc.lft.to/lastmile_qr_scan"}, "fusion_lon": 0.0, "lon": -77.05178466666666, "name": "21b708324343e7bd6a28697e6cfc56cb", "is_reserved": 0, "is_disabled": 0}, {"lat": 38.898337166666664, "fusion_lat": 0.0, "type": "electric_scooter", "bike_id": "76c175cc0f7e6556116fbc5943b78fba", "rental_uris": {"ios": "https://dc.lft.to/lastmile_qr_scan", "android": "https://dc.lft.to/lastmile_qr_scan"}, "fusion_lon": 0.0, "lon": -76.946376, "name": "76c175cc0f7e6556116fbc5943b78fba", "is_reserved": 0, "is_disabled": 0}, {"lat": 38.87473083333333, "fusion_lat": 0.0, "type": "electric_scooter", "bike_id": "8bf02adf31c51f9c79e2a3288b16f2a8", "rental_uris": {"ios": "https://dc.lft.to/lastmile_qr_scan", "android": "https://dc.lft.to/lastmile_qr_scan"}, "fusion_lon": 0.0, "lon": -77.0046485, "name": "8bf02adf31c51f9c79e2a3288b16f2a8", "is_reserved": 0, "is_disabled": 0}, {"lat": 38.90033533333333, "fusion_lat": 0.0, "type": "electric_scooter", "bike_id": "e1bb309a53a2fbf5e477e78da188ab4f", "rental_uris": {"ios": "https://dc.lft.to/lastmile_qr_scan", "android": "https://dc.lft.to/lastmile_qr_scan"}, "fusion_lon": 0.0, "lon": -77.0118175, "name": "e1bb309a53a2fbf5e477e78da188ab4f", "is_reserved": 0, "is_disabled": 0}, {"lat": 38.9035095, "fusion_lat": 0.0, "type": "electric_scooter", "bike_id": "4343b4730ba337d722ffc688e957adb0", "rental_uris": {"ios": "https://dc.lft.to/lastmile_qr_scan", "android": "https://dc.lft.to/lastmile_qr_scan"}, "fusion_lon": 0.0, "lon": -77.0355115, "name": "4343b4730ba337d722ffc688e957adb0", "is_reserved": 0, "is_disabled": 0}, {"lat": 38.90949333333333, "fusion_lat": 0.0, "type": "electric_scooter", "bike_id": "eabe35adcb543e07948df0bae5288cca", "rental_uris": {"ios": "https://dc.lft.to/lastmile_qr_scan", "android": "https://dc.lft.to/lastmile_qr_scan"}, "fusion_lon": 0.0, "lon": -77.02686066666666, "name": "eabe35adcb543e07948df0bae5288cca", "is_reserved": 0, "is_disabled": 0}, {"lat": 38.92668616666667, "fusion_lat": 0.0, "type": "electric_scooter", "bike_id": "6c48bc19143bdd7b72ce78ece6985a34", "rental_uris": {"ios": "https://dc.lft.to/lastmile_qr_scan", "android": "https://dc.lft.to/lastmile_qr_scan"}, "fusion_lon": 0.0, "lon": -77.02571866666666, "name": "6c48bc19143bdd7b72ce78ece6985a34", "is_reserved": 0, "is_disabled": 0}, {"lat": 38.836061, "fusion_lat": 0.0, "type": "electric_bike", "bike_id": "1bd74f5c842a255cb5166b604d2d4069", "rental_uris": {"ios": "https://dc.lft.to/lastmile_qr_scan", "android": "https://dc.lft.to/lastmile_qr_scan"}, "fusion_lon": 0.0, "lon": -77.00383333333333, "name": "1bd74f5c842a255cb5166b604d2d4069", "is_reserved": 0, "is_disabled": 0}, {"lat": 38.873968, "fusion_lat": 0.0, "type": "electric_scooter", "bike_id": "706b3489e5d991076196e802d7ab02d9", "rental_uris": {"ios": "https://dc.lft.to/lastmile_qr_scan", "android": "https://dc.lft.to/lastmile_qr_scan"}, "fusion_lon": 0.0, "lon": -77.01453833333333, "name": "706b3489e5d991076196e802d7ab02d9", "is_reserved": 0, "is_disabled": 0}, {"lat": 38.907894166666665, "fusion_lat": 0.0, "type": "electric_scooter", "bike_id": "e159a8708412d154d1c1696c7cfd4e47", "rental_uris": {"ios": "https://dc.lft.to/lastmile_qr_scan", "android": "https://dc.lft.to/lastmile_qr_scan"}, "fusion_lon": 0.0, "lon": -77.06357833333334, "name": "e159a8708412d154d1c1696c7cfd4e47", "is_reserved": 0, "is_disabled": 0}, {"lat": 38.92657916666667, "fusion_lat": 0.0, "type": "electric_scooter", "bike_id": "736ac226f2c3558035989714d9511fa6", "rental_uris": {"ios": "https://dc.lft.to/lastmile_qr_scan", "android": "https://dc.lft.to/lastmile_qr_scan"}, "fusion_lon": 0.0, "lon": -77.024213, "name": "736ac226f2c3558035989714d9511fa6", "is_reserved": 0, "is_disabled": 0}, {"lat": 38.87632766666667, "fusion_lat": 0.0, "type": "electric_scooter", "bike_id": "382f59cc428ff9b509db78a9ee458821", "rental_uris": {"ios": "https://dc.lft.to/lastmile_qr_scan", "android": "https://dc.lft.to/lastmile_qr_scan"}, "fusion_lon": 0.0, "lon": -77.0147585, "name": "382f59cc428ff9b509db78a9ee458821", "is_reserved": 0, "is_disabled": 0}, {"lat": 38.889999833333334, "fusion_lat": 0.0, "type": "electric_scooter", "bike_id": "cb06d4dafcef1b3daaed9a9bfa4ab1fc", "rental_uris": {"ios": "https://dc.lft.to/lastmile_qr_scan", "android": "https://dc.lft.to/lastmile_qr_scan"}, "fusion_lon": 0.0, "lon": -76.983703, "name": "cb06d4dafcef1b3daaed9a9bfa4ab1fc", "is_reserved": 0, "is_disabled": 0}, {"lat": 38.892227166666665, "fusion_lat": 0.0, "type": "electric_scooter", "bike_id": "9aaacf302821b81ad01fea363b00a358", "rental_uris": {"ios": "https://dc.lft.to/lastmile_qr_scan", "android": "https://dc.lft.to/lastmile_qr_scan"}, "fusion_lon": 0.0, "lon": -77.02656833333333, "name": "9aaacf302821b81ad01fea363b00a358", "is_reserved": 0, "is_disabled": 0}, {"lat": 38.895462333333334, "fusion_lat": 0.0, "type": "electric_bike", "bike_id": "44784c13084268fc768bd9095cb64442", "rental_uris": {"ios": "https://dc.lft.to/lastmile_qr_scan", "android": "https://dc.lft.to/lastmile_qr_scan"}, "fusion_lon": 0.0, "lon": -76.984901, "name": "44784c13084268fc768bd9095cb64442", "is_reserved": 0, "is_disabled": 0}, {"lat": 38.879413666666665, "fusion_lat": 0.0, "type": "electric_scooter", "bike_id": "69916a50bebfa0b62105f772296da060", "rental_uris": {"ios": "https://dc.lft.to/lastmile_qr_scan", "android": "https://dc.lft.to/lastmile_qr_scan"}, "fusion_lon": 0.0, "lon": -77.00402566666666, "name": "69916a50bebfa0b62105f772296da060", "is_reserved": 0, "is_disabled": 0}, {"lat": 38.883842333333334, "fusion_lat": 0.0, "type": "electric_scooter", "bike_id": "82bc757f2e0b429904408d70a5e859d8", "rental_uris": {"ios": "https://dc.lft.to/lastmile_qr_scan", "android": "https://dc.lft.to/lastmile_qr_scan"}, "fusion_lon": 0.0, "lon": -76.99553116666667, "name": "82bc757f2e0b429904408d70a5e859d8", "is_reserved": 0, "is_disabled": 0}, {"lat": 38.92090433333333, "fusion_lat": 0.0, "type": "electric_scooter", "bike_id": "814edab443cfa8cdab2f3973c75669e9", "rental_uris": {"ios": "https://dc.lft.to/lastmile_qr_scan", "android": "https://dc.lft.to/lastmile_qr_scan"}, "fusion_lon": 0.0, "lon": -77.07555866666667, "name": "814edab443cfa8cdab2f3973c75669e9", "is_reserved": 0, "is_disabled": 0}, {"lat": 38.920268666666665, "fusion_lat": 0.0, "type": "electric_scooter", "bike_id": "bf53bfac5bdb5eef37f8cc6f4577913e", "rental_uris": {"ios": "https://dc.lft.to/lastmile_qr_scan", "android": "https://dc.lft.to/lastmile_qr_scan"}, "fusion_lon": 0.0, "lon": -77.03858, "name": "bf53bfac5bdb5eef37f8cc6f4577913e", "is_reserved": 0, "is_disabled": 0}, {"lat": 38.90225016666667, "fusion_lat": 0.0, "type": "electric_scooter", "bike_id": "6994e70fffbb1f43d4d82a873a4a276a", "rental_uris": {"ios": "https://dc.lft.to/lastmile_qr_scan", "android": "https://dc.lft.to/lastmile_qr_scan"}, "fusion_lon": 0.0, "lon": -76.942004, "name": "6994e70fffbb1f43d4d82a873a4a276a", "is_reserved": 0, "is_disabled": 0}, {"lat": 38.9191, "fusion_lat": 0.0, "type": "electric_scooter", "bike_id": "da8a8a457d51bb69da96ffd410ad37b8", "rental_uris": {"ios": "https://dc.lft.to/lastmile_qr_scan", "android": "https://dc.lft.to/lastmile_qr_scan"}, "fusion_lon": 0.0, "lon": -77.01200083333333, "name": "da8a8a457d51bb69da96ffd410ad37b8", "is_reserved": 0, "is_disabled": 0}, {"lat": 38.90372816666667, "fusion_lat": 0.0, "type": "electric_scooter", "bike_id": "2114ccda88bf7bda02dc97313f36d20d", "rental_uris": {"ios": "https://dc.lft.to/lastmile_qr_scan", "android": "https://dc.lft.to/lastmile_qr_scan"}, "fusion_lon": 0.0, "lon": -77.03420333333334, "name": "2114ccda88bf7bda02dc97313f36d20d", "is_reserved": 0, "is_disabled": 0}, {"lat": 38.92496233333333, "fusion_lat": 0.0, "type": "electric_scooter", "bike_id": "4d340e7a21a9c8a9bbff02f3ee0923fa", "rental_uris": {"ios": "https://dc.lft.to/lastmile_qr_scan", "android": "https://dc.lft.to/lastmile_qr_scan"}, "fusion_lon": 0.0, "lon": -77.024494, "name": "4d340e7a21a9c8a9bbff02f3ee0923fa", "is_reserved": 0, "is_disabled": 0}, {"lat": 38.90618033333333, "fusion_lat": 0.0, "type": "electric_scooter", "bike_id": "89f34469d7b76e586eb3deb15ff3be4f", "rental_uris": {"ios": "https://dc.lft.to/lastmile_qr_scan", "android": "https://dc.lft.to/lastmile_qr_scan"}, "fusion_lon": 0.0, "lon": -77.0387915, "name": "89f34469d7b76e586eb3deb15ff3be4f", "is_reserved": 0, "is_disabled": 0}, {"lat": 38.92439233333333, "fusion_lat": 0.0, "type": "electric_scooter", "bike_id": "43f8f97d5fbd5041de3e1aa085af6ed8", "rental_uris": {"ios": "https://dc.lft.to/lastmile_qr_scan", "android": "https://dc.lft.to/lastmile_qr_scan"}, "fusion_lon": 0.0, "lon": -77.02016416666666, "name": "43f8f97d5fbd5041de3e1aa085af6ed8", "is_reserved": 0, "is_disabled": 0}, {"lat": 38.90075216666666, "fusion_lat": 0.0, "type": "electric_scooter", "bike_id": "a253c08fbe2c41c622c706cf7fcdfe70", "rental_uris": {"ios": "https://dc.lft.to/lastmile_qr_scan", "android": "https://dc.lft.to/lastmile_qr_scan"}, "fusion_lon": 0.0, "lon": -77.0542875, "name": "a253c08fbe2c41c622c706cf7fcdfe70", "is_reserved": 0, "is_disabled": 0}, {"lat": 38.905463166666664, "fusion_lat": 0.0, "type": "electric_scooter", "bike_id": "b250aa85c28bc980647712eed90f35f1", "rental_uris": {"ios": "https://dc.lft.to/lastmile_qr_scan", "android": "https://dc.lft.to/lastmile_qr_scan"}, "fusion_lon": 0.0, "lon": -76.99461966666667, "name": "b250aa85c28bc980647712eed90f35f1", "is_reserved": 0, "is_disabled": 0}, {"lat": 38.91489333333333, "fusion_lat": 0.0, "type": "electric_scooter", "bike_id": "a721d8eb44bc9fd60b39a8c24b136f8b", "rental_uris": {"ios": "https://dc.lft.to/lastmile_qr_scan", "android": "https://dc.lft.to/lastmile_qr_scan"}, "fusion_lon": 0.0, "lon": -77.01853683333333, "name": "a721d8eb44bc9fd60b39a8c24b136f8b", "is_reserved": 0, "is_disabled": 0}, {"lat": 38.914753833333336, "fusion_lat": 0.0, "type": "electric_scooter", "bike_id": "0d0385f59741024217c38a7730989ed0", "rental_uris": {"ios": "https://dc.lft.to/lastmile_qr_scan", "android": "https://dc.lft.to/lastmile_qr_scan"}, "fusion_lon": 0.0, "lon": -77.024478, "name": "0d0385f59741024217c38a7730989ed0", "is_reserved": 0, "is_disabled": 0}, {"lat": 38.923646833333336, "fusion_lat": 0.0, "type": "electric_scooter", "bike_id": "a5431c893186ef3312051377fea385b5", "rental_uris": {"ios": "https://dc.lft.to/lastmile_qr_scan", "android": "https://dc.lft.to/lastmile_qr_scan"}, "fusion_lon": 0.0, "lon": -77.04415133333333, "name": "a5431c893186ef3312051377fea385b5", "is_reserved": 0, "is_disabled": 0}, {"lat": 38.9152395, "fusion_lat": 0.0, "type": "electric_scooter", "bike_id": "3ee2632bc9728509e0d7b153a02308d5", "rental_uris": {"ios": "https://dc.lft.to/lastmile_qr_scan", "android": "https://dc.lft.to/lastmile_qr_scan"}, "fusion_lon": 0.0, "lon": -77.01421583333334, "name": "3ee2632bc9728509e0d7b153a02308d5", "is_reserved": 0, "is_disabled": 0}, {"lat": 38.9173445, "fusion_lat": 0.0, "type": "electric_scooter", "bike_id": "ec3ee257c85edcc5679bc8990657573a", "rental_uris": {"ios": "https://dc.lft.to/lastmile_qr_scan", "android": "https://dc.lft.to/lastmile_qr_scan"}, "fusion_lon": 0.0, "lon": -77.0417285, "name": "ec3ee257c85edcc5679bc8990657573a", "is_reserved": 0, "is_disabled": 0}, {"lat": 38.89226216666667, "fusion_lat": 0.0, "type": "electric_scooter", "bike_id": "efbe19c0833d7a768d560c893c1f5239", "rental_uris": {"ios": "https://dc.lft.to/lastmile_qr_scan", "android": "https://dc.lft.to/lastmile_qr_scan"}, "fusion_lon": 0.0, "lon": -77.02774783333334, "name": "efbe19c0833d7a768d560c893c1f5239", "is_reserved": 0, "is_disabled": 0}, {"lat": 38.898258, "fusion_lat": 0.0, "type": "electric_scooter", "bike_id": "d76842d2e5716b00186030009b4d3554", "rental_uris": {"ios": "https://dc.lft.to/lastmile_qr_scan", "android": "https://dc.lft.to/lastmile_qr_scan"}, "fusion_lon": 0.0, "lon": -77.0503575, "name": "d76842d2e5716b00186030009b4d3554", "is_reserved": 0, "is_disabled": 0}, {"lat": 38.9192355, "fusion_lat": 0.0, "type": "electric_scooter", "bike_id": "c351794965daeb258d75e8ee883645fa", "rental_uris": {"ios": "https://dc.lft.to/lastmile_qr_scan", "android": "https://dc.lft.to/lastmile_qr_scan"}, "fusion_lon": 0.0, "lon": -77.025054, "name": "c351794965daeb258d75e8ee883645fa", "is_reserved": 0, "is_disabled": 0}, {"lat": 38.92444366666667, "fusion_lat": 0.0, "type": "electric_scooter", "bike_id": "1e860aaec9971611ddcb8fce40e47183", "rental_uris": {"ios": "https://dc.lft.to/lastmile_qr_scan", "android": "https://dc.lft.to/lastmile_qr_scan"}, "fusion_lon": 0.0, "lon": -77.02239666666667, "name": "1e860aaec9971611ddcb8fce40e47183", "is_reserved": 0, "is_disabled": 0}, {"lat": 38.92300566666667, "fusion_lat": 0.0, "type": "electric_scooter", "bike_id": "22fc759cca9c684c245df9e1c80e486b", "rental_uris": {"ios": "https://dc.lft.to/lastmile_qr_scan", "android": "https://dc.lft.to/lastmile_qr_scan"}, "fusion_lon": 0.0, "lon": -77.04269833333333, "name": "22fc759cca9c684c245df9e1c80e486b", "is_reserved": 0, "is_disabled": 0}, {"lat": 38.930014, "fusion_lat": 0.0, "type": "electric_scooter", "bike_id": "0e8565a63474cd6d11c1205d4f311280", "rental_uris": {"ios": "https://dc.lft.to/lastmile_qr_scan", "android": "https://dc.lft.to/lastmile_qr_scan"}, "fusion_lon": 0.0, "lon": -77.03262716666667, "name": "0e8565a63474cd6d11c1205d4f311280", "is_reserved": 0, "is_disabled": 0}, {"lat": 38.892233166666664, "fusion_lat": 0.0, "type": "electric_scooter", "bike_id": "f51b51d2ef65fe6201ac9ee021c2156b", "rental_uris": {"ios": "https://dc.lft.to/lastmile_qr_scan", "android": "https://dc.lft.to/lastmile_qr_scan"}, "fusion_lon": 0.0, "lon": -77.03167266666667, "name": "f51b51d2ef65fe6201ac9ee021c2156b", "is_reserved": 0, "is_disabled": 0}, {"lat": 38.89826333333333, "fusion_lat": 0.0, "type": "electric_scooter", "bike_id": "5af278c7790d804eb5aa0306539b950c", "rental_uris": {"ios": "https://dc.lft.to/lastmile_qr_scan", "android": "https://dc.lft.to/lastmile_qr_scan"}, "fusion_lon": 0.0, "lon": -77.04998566666667, "name": "5af278c7790d804eb5aa0306539b950c", "is_reserved": 0, "is_disabled": 0}, {"lat": 38.90388316666667, "fusion_lat": 0.0, "type": "electric_scooter", "bike_id": "ac17156091b391610944b97d8b0f56c8", "rental_uris": {"ios": "https://dc.lft.to/lastmile_qr_scan", "android": "https://dc.lft.to/lastmile_qr_scan"}, "fusion_lon": 0.0, "lon": -77.0298845, "name": "ac17156091b391610944b97d8b0f56c8", "is_reserved": 0, "is_disabled": 0}, {"lat": 38.898727666666666, "fusion_lat": 0.0, "type": "electric_scooter", "bike_id": "60ec1e2ec023aedd2826af0cdc00db10", "rental_uris": {"ios": "https://dc.lft.to/lastmile_qr_scan", "android": "https://dc.lft.to/lastmile_qr_scan"}, "fusion_lon": 0.0, "lon": -76.93186433333334, "name": "60ec1e2ec023aedd2826af0cdc00db10", "is_reserved": 0, "is_disabled": 0}, {"lat": 38.897293, "fusion_lat": 0.0, "type": "electric_scooter", "bike_id": "ddbcaa8642581f5936c1a9890d31aaa4", "rental_uris": {"ios": "https://dc.lft.to/lastmile_qr_scan", "android": "https://dc.lft.to/lastmile_qr_scan"}, "fusion_lon": 0.0, "lon": -77.00369816666667, "name": "ddbcaa8642581f5936c1a9890d31aaa4", "is_reserved": 0, "is_disabled": 0}, {"lat": 38.9341, "fusion_lat": 0.0, "type": "electric_bike", "bike_id": "cb6047945c58031d14a9b5cb77228ad5", "rental_uris": {"ios": "https://dc.lft.to/lastmile_qr_scan", "android": "https://dc.lft.to/lastmile_qr_scan"}, "fusion_lon": 0.0, "lon": -77.043066, "name": "cb6047945c58031d14a9b5cb77228ad5", "is_reserved": 0, "is_disabled": 0}, {"lat": 38.90522083333333, "fusion_lat": 0.0, "type": "electric_scooter", "bike_id": "1df9989c398bb2eca475eaf6e38aa8f9", "rental_uris": {"ios": "https://dc.lft.to/lastmile_qr_scan", "android": "https://dc.lft.to/lastmile_qr_scan"}, "fusion_lon": 0.0, "lon": -77.04244966666667, "name": "1df9989c398bb2eca475eaf6e38aa8f9", "is_reserved": 0, "is_disabled": 0},