{"data": {"bikes": [{"type": "electric_scooter", "fusion_lon": 0.0, "bike_id": "20da01ce897559b7b44f4d5dc3024184", "is_disabled": 0, "lat": 38.928815, "rental_uris": {"ios": "https://dc.lft.to/lastmile_qr_scan", "android": "https://dc.lft.to/lastmile_qr_scan"}, "is_reserved": 0, "lon": -77.03275133333334, "fusion_lat": 0.0, "name": "20da01ce897559b7b44f4d5dc3024184"}, {"type": "electric_scooter", "fusion_lon": 0.0, "bike_id": "efd1b6ae6bb9ecc85026f6a5e1e63410", "is_disabled": 0, "lat": 38.903176333333334, "rental_uris": {"ios": "https://dc.lft.to/lastmile_qr_scan", "android": "https://dc.lft.to/lastmile_qr_scan"}, "is_reserved": 0, "lon": -77.02666866666667, "fusion_lat": 0.0, "name": "efd1b6ae6bb9ecc85026f6a5e1e63410"}, {"type": "electric_scooter", "fusion_lon": 0.0, "bike_id": "7d7e899aefce1353e814b89318351049", "is_disabled": 0, "lat": 38.956308, "rental_uris": {"ios": "https://dc.lft.to/lastmile_qr_scan", "android": "https://dc.lft.to/lastmile_qr_scan"}, "is_reserved": 0, "lon": -77.07015966666667, "fusion_lat": 0.0, "name": "7d7e899aefce1353e814b89318351049"}, {"type": "electric_scooter", "fusion_lon": 0.0, "bike_id": "a0f9300ba691b00242dd6c891576408a", "is_disabled": 0, "lat": 38.916113833333334, "rental_uris": {"ios": "https://dc.lft.to/lastmile_qr_scan", "android": "https://dc.lft.to/lastmile_qr_scan"}, "is_reserved": 0, "lon": -77.0322275, "fusion_lat": 0.0, "name": "a0f9300ba691b00242dd6c891576408a"}, {"type": "electric_scooter", "fusion_lon": 0.0, "bike_id": "7c6e8c7c0d79a380bbd66b72bf2451e1", "is_disabled": 0, "lat": 38.87640283333333, "rental_uris": {"ios": "https://dc.lft.to/lastmile_qr_scan", "android": "https://dc.lft.to/lastmile_qr_scan"}, "is_reserved": 0, "lon": -76.998021, "fusion_lat": 0.0, "name": "7c6e8c7c0d79a380bbd66b72bf2451e1"}, {"type": "electric_scooter", "fusion_lon": 0.0, "bike_id": "1166743c293d1ad189b9d1d2589f9fc8", "is_disabled": 0, "lat": 38.9614515, "rental_uris": {"ios": "https://dc.lft.to/lastmile_qr_scan", "android": "https://dc.lft.to/lastmile_qr_scan"}, "is_reserved": 0, "lon": -77.02786533333334, "fusion_lat": 0.0, "name": "1166743c293d1ad189b9d1d2589f9fc8"}, {"type": "electric_bike", "fusion_lon": 0.0, "bike_id": "b1bb841b11e515da3f295c74caa74c4c", "is_disabled": 0, "lat": 38.98043933333334, "rental_uris": {"ios": "https://dc.lft.to/lastmile_qr_scan", "android": "https://dc.lft.to/lastmile_qr_scan"}, "is_reserved": 0, "lon": -76.95795266666667, "fusion_lat": 0.0, "name": "b1bb841b11e515da3f295c74caa74c4c"}, {"type": "electric_scooter", "fusion_lon": 0.0, "bike_id": "711e5dbb1f831005a23615fac02adb4d", "is_disabled": 0, "lat": 38.91811766666667, "rental_uris": {"ios": "https://dc.lft.to/lastmile_qr_scan", "android": "https://dc.lft.to/lastmile_qr_scan"}, "is_reserved": 0, "lon": -77.0454315, "fusion_lat": 0.0, "name": "711e5dbb1f831005a23615fac02adb4d"}, {"type": "electric_scooter", "fusion_lon": 0.0, "bike_id": "4cd224e0f28f55cff359196607f318ff", "is_disabled": 0, "lat": 38.9226875, "rental_uris": {"ios": "https://dc.lft.to/lastmile_qr_scan", "android": "https://dc.lft.to/lastmile_qr_scan"}, "is_reserved": 0, "lon": -77.02254933333333, "fusion_lat": 0.0, "name": "4cd224e0f28f55cff359196607f318ff"}, {"type": "electric_scooter", "fusion_lon": 0.0, "bike_id": "bf6836670f29c04ee5dfb1c8ad09fc34", "is_disabled": 0, "lat": 38.9419165, "rental_uris": {"ios": "https://dc.lft.to/lastmile_qr_scan", "android": "https://dc.lft.to/lastmile_qr_scan"}, "is_reserved": 0, "lon": -77.0252235, "fusion_lat": 0.0, "name": "bf6836670f29c04ee5dfb1c8ad09fc34"}, {"type": "electric_scooter", "fusion_lon": 0.0, "bike_id": "6019d55ff2efd2cb1125c89c783c7a71", "is_disabled": 0, "lat": 38.873711166666666, "rental_uris": {"ios": "https://dc.lft.to/lastmile_qr_scan", "android": "https://dc.lft.to/lastmile_qr_scan"}, "is_reserved": 0, "lon": -77.00138, "fusion_lat": 0.0, "name": "6019d55ff2efd2cb1125c89c783c7a71"}, {"type": "electric_scooter", "fusion_lon": 0.0, "bike_id": "0db210220d235445f4cd5b26e2b90aa7", "is_disabled": 0, "lat": 38.96390616666667, "rental_uris": {"ios": "https://dc.lft.to/lastmile_qr_scan", "android": "https://dc.lft.to/lastmile_qr_scan"}, "is_reserved": 0, "lon": -77.02590933333333, "fusion_lat": 0.0, "name": "0db210220d235445f4cd5b26e2b90aa7"}, {"type": "electric_scooter", "fusion_lon": 0.0, "bike_id": "b2b5f9d51a81941ee29ed47366404dd9", "is_disabled": 0, "lat": 38.90379716666666, "rental_uris": {"ios": "https://dc.lft.to/lastmile_qr_scan", "android": "https://dc.lft.to/lastmile_qr_scan"}, "is_reserved": 0, "lon": -77.00194283333333, "fusion_lat": 0.0, "name": "b2b5f9d51a81941ee29ed47366404dd9"}, {"type": "electric_scooter", "fusion_lon": 0.0, "bike_id": "52e7c0b74a3f52bcd9fd33ec37228789", "is_disabled": 0, "lat": 38.910415, "rental_uris": {"ios": "https://dc.lft.to/lastmile_qr_scan", "android": "https://dc.lft.to/lastmile_qr_scan"}, "is_reserved": 0, "lon": -77.07555083333334, "fusion_lat": 0.0, "name": "52e7c0b74a3f52bcd9fd33ec37228789"}, {"type": "electric_scooter", "fusion_lon": 0.0, "bike_id": "591a1192d836b5d317266660d7819ee7", "is_disabled": 0, "lat": 38.925982, "rental_uris": {"ios": "https://dc.lft.to/lastmile_qr_scan", "android": "https://dc.lft.to/lastmile_qr_scan"}, "is_reserved": 0, "lon": -77.02501383333333, "fusion_lat": 0.0, "name": "591a1192d836b5d317266660d7819ee7"}, {"type": "electric_scooter", "fusion_lon": 0.0, "bike_id": "030a439b28ac1a34edbc0cb3becad709", "is_disabled": 0, "lat": 38.905664, "rental_uris": {"ios": "https://dc.lft.to/lastmile_qr_scan", "android": "https://dc.lft.to/lastmile_qr_scan"}, "is_reserved": 0, "lon": -77.04463166666666, "fusion_lat": 0.0, "name": "030a439b28ac1a34edbc0cb3becad709"}, {"type": "electric_scooter", "fusion_lon": 0.0, "bike_id": "6af99681a556f8c4fc5da2b5218a3503", "is_disabled": 0, "lat": 38.92395583333333, "rental_uris": {"ios": "https://dc.lft.to/lastmile_qr_scan", "android": "https://dc.lft.to/lastmile_qr_scan"}, "is_reserved": 0, "lon": -77.033905, "fusion_lat": 0.0, "name": "6af99681a556f8c4fc5da2b5218a3503"}, {"type": "electric_scooter", "fusion_lon": 0.0, "bike_id": "f01e1d9e4b95bc7b05a2b1934f6e0b62", "is_disabled": 0, "lat": 38.88717466666667, "rental_uris": {"ios": "https://dc.lft.to/lastmile_qr_scan", "android": "https://dc.lft.to/lastmile_qr_scan"}, "is_reserved": 0, "lon": -77.022017, "fusion_lat": 0.0, "name": "f01e1d9e4b95bc7b05a2b1934f6e0b62"}, {"type": "electric_scooter", "fusion_lon": 0.0, "bike_id": "3ae3037532640b682d45b94b432f0036", "is_disabled": 0, "lat": 38.905552166666666, "rental_uris": {"ios": "https://dc.lft.to/lastmile_qr_scan", "android": "https://dc.lft.to/lastmile_qr_scan"}, "is_reserved": 0, "lon": -77.034824, "fusion_lat": 0.0, "name": "3ae3037532640b682d45b94b432f0036"}, {"type": "electric_bike", "fusion_lon": 0.0, "bike_id": "fb9b63e2451810d5d9e043508659e61b", "is_disabled": 0, "lat": 39.0000455, "rental_uris": {"ios": "https://dc.lft.to/lastmile_qr_scan", "android": "https://dc.lft.to/lastmile_qr_scan"}, "is_reserved": 0, "lon": -76.91809383333333, "fusion_lat": 0.0, "name": "fb9b63e2451810d5d9e043508659e61b"}, {"type": "electric_scooter", "fusion_lon": 0.0, "bike_id": "1360c80c8d14141d32d68fac5f2451bc", "is_disabled": 0, "lat": 38.91820283333333, "rental_uris": {"ios": "https://dc.lft.to/lastmile_qr_scan", "android": "https://dc.lft.to/lastmile_qr_scan"}, "is_reserved": 0, "lon": -77.00258433333333, "fusion_lat": 0.0, "name": "1360c80c8d14141d32d68fac5f2451bc"}, {"type": "electric_scooter", "fusion_lon": 0.0, "bike_id": "5d51e273f256de4b9abe7a93c6c09976", "is_disabled": 0, "lat": 38.90135333333333, "rental_uris": {"ios": "https://dc.lft.to/lastmile_qr_scan", "android": "https://dc.lft.to/lastmile_qr_scan"}, "is_reserved": 0, "lon": -77.04431516666666, "fusion_lat": 0.0, "name": "5d51e273f256de4b9abe7a93c6c09976"}, {"type": "electric_scooter", "fusion_lon": 0.0, "bike_id": "8baad43aa4519f3b1f5aeadb1af590a2", "is_disabled": 0, "lat": 38.92675666666667, "rental_uris": {"ios": "https://dc.lft.to/lastmile_qr_scan", "android": "https://dc.lft.to/lastmile_qr_scan"}, "is_reserved": 0, "lon": -77.036023, "fusion_lat": 0.0, "name": "8baad43aa4519f3b1f5aeadb1af590a2"}, {"type": "electric_scooter", "fusion_lon": 0.0, "bike_id": "241435a629fb6f30145f062b8008ee7d", "is_disabled": 0, "lat": 38.9216805, "rental_uris": {"ios": "https://dc.lft.to/lastmile_qr_scan", "android": "https://dc.lft.to/lastmile_qr_scan"}, "is_reserved": 0, "lon": -77.04683883333334, "fusion_lat": 0.0, "name": "241435a629fb6f30145f062b8008ee7d"}, {"type": "electric_scooter", "fusion_lon": 0.0, "bike_id": "8b559949a3a8f71639bb222b1575c601", "is_disabled": 0, "lat": 38.9422995, "rental_uris": {"ios": "https://dc.lft.to/lastmile_qr_scan", "android": "https://dc.lft.to/lastmile_qr_scan"}, "is_reserved": 0, "lon": -77.03871983333333, "fusion_lat": 0.0, "name": "8b559949a3a8f71639bb222b1575c601"}, {"type": "electric_scooter", "fusion_lon": 0.0, "bike_id": "0608378ee5301a4c400baded07ac1092", "is_disabled": 0, "lat": 38.9135185, "rental_uris": {"ios": "https://dc.lft.to/lastmile_qr_scan", "android": "https://dc.lft.to/lastmile_qr_scan"}, "is_reserved": 0, "lon": -77.03202483333334, "fusion_lat": 0.0, "name": "0608378ee5301a4c400baded07ac1092"}, {"type": "electric_bike", "fusion_lon": 0.0, "bike_id": "c326746d3a71878340b0871b959fc0b2", "is_disabled": 0, "lat": 38.884892, "rental_uris": {"ios": "https://dc.lft.to/lastmile_qr_scan", "android": "https://dc.lft.to/lastmile_qr_scan"}, "is_reserved": 0, "lon": -76.95763266666667, "fusion_lat": 0.0, "name": "c326746d3a71878340b0871b959fc0b2"}, {"type": "electric_scooter", "fusion_lon": 0.0, "bike_id": "165dc592b71c4d82597ea35bb9c46090", "is_disabled": 0, "lat": 38.921339833333334, "rental_uris": {"ios": "https://dc.lft.to/lastmile_qr_scan", "android": "https://dc.lft.to/lastmile_qr_scan"}, "is_reserved": 0, "lon": -77.04117166666667, "fusion_lat": 0.0, "name": "165dc592b71c4d82597ea35bb9c46090"}, {"type": "electric_scooter", "fusion_lon": 0.0, "bike_id": "7f36f9435e2589e70a575f9167a9c9b9", "is_disabled": 0, "lat": 38.89229566666667, "rental_uris": {"ios": "https://dc.lft.to/lastmile_qr_scan", "android": "https://dc.lft.to/lastmile_qr_scan"}, "is_reserved": 0, "lon": -77.0282565, "fusion_lat": 0.0, "name": "7f36f9435e2589e70a575f9167a9c9b9"}, {"type": "electric_scooter", "fusion_lon": 0.0, "bike_id": "c1be6892ea78e9d3673df57a6ae81023", "is_disabled": 0, "lat": 38.89135816666667, "rental_uris": {"ios": "https://dc.lft.to/lastmile_qr_scan", "android": "https://dc.lft.to/lastmile_qr_scan"}, "is_reserved": 0, "lon": -76.98896583333334, "fusion_lat": 0.0, "name": "c1be6892ea78e9d3673df57a6ae81023"}, {"type": "electric_scooter", "fusion_lon": 0.0, "bike_id": "7c1094398365c21ed683c6348ad0108c", "is_disabled": 0, "lat": 38.9355585, "rental_uris": {"ios": "https://dc.lft.to/lastmile_qr_scan", "android": "https://dc.lft.to/lastmile_qr_scan"}, "is_reserved": 0, "lon": -77.07459066666667, "fusion_lat": 0.0, "name": "7c1094398365c21ed683c6348ad0108c"}, {"type": "electric_scooter", "fusion_lon": 0.0, "bike_id": "b93ec076b6eb1e6c5f28152fe4b3a197", "is_disabled": 0, "lat": 38.9228345, "rental_uris": {"ios": "https://dc.lft.to/lastmile_qr_scan", "android": "https://dc.lft.to/lastmile_qr_scan"}, "is_reserved": 0, "lon": -77.0320255, "fusion_lat": 0.0, "name": "b93ec076b6eb1e6c5f28152fe4b3a197"}, {"type": "electric_scooter", "fusion_lon": 0.0, "bike_id": "e686f0bd4426bc0949d910bef50d1452", "is_disabled": 0, "lat": 38.92684666666667, "rental_uris": {"ios": "https://dc.lft.to/lastmile_qr_scan", "android": "https://dc.lft.to/lastmile_qr_scan"}, "is_reserved": 0, "lon": -77.02256433333334, "fusion_lat": 0.0, "name": "e686f0bd4426bc0949d910bef50d1452"}, {"type": "electric_scooter", "fusion_lon": 0.0, "bike_id": "66e5c79cf20cf05ed5d3a6fce00f0637", "is_disabled": 0, "lat": 38.90015116666667, "rental_uris": {"ios": "https://dc.lft.to/lastmile_qr_scan", "android": "https://dc.lft.to/lastmile_qr_scan"}, "is_reserved": 0, "lon": -77.0259695, "fusion_lat": 0.0, "name": "66e5c79cf20cf05ed5d3a6fce00f0637"}, {"type": "electric_scooter", "fusion_lon": 0.0, "bike_id": "e7658f5b4b5aad3f0ecc0e42d630c779", "is_disabled": 0, "lat": 38.910152333333336, "rental_uris": {"ios": "https://dc.lft.to/lastmile_qr_scan", "android": "https://dc.lft.to/lastmile_qr_scan"}, "is_reserved": 0, "lon": -77.03853933333333, "fusion_lat": 0.0, "name": "e7658f5b4b5aad3f0ecc0e42d630c779"}, {"type": "electric_scooter", "fusion_lon": 0.0, "bike_id": "5c3ef2d5b5f0f0d542bdc69d75a6c100", "is_disabled": 0, "lat": 38.91272266666667, "rental_uris": {"ios": "https://dc.lft.to/lastmile_qr_scan", "android": "https://dc.lft.to/lastmile_qr_scan"}, "is_reserved": 0, "lon": -77.02970266666667, "fusion_lat": 0.0, "name": "5c3ef2d5b5f0f0d542bdc69d75a6c100"}, {"type": "electric_scooter", "fusion_lon": 0.0, "bike_id": "9b848852eafe486431628d8f1de759a4", "is_disabled": 0, "lat": 38.899208, "rental_uris": {"ios": "https://dc.lft.to/lastmile_qr_scan", "android": "https://dc.lft.to/lastmile_qr_scan"}, "is_reserved": 0, "lon": -76.93385916666666, "fusion_lat": 0.0, "name": "9b848852eafe486431628d8f1de759a4"}, {"type": "electric_scooter", "fusion_lon": 0.0, "bike_id": "df54d658b04a962113d88002592f3da5", "is_disabled": 0, "lat": 38.876491, "rental_uris": {"ios": "https://dc.lft.to/lastmile_qr_scan", "android": "https://dc.lft.to/lastmile_qr_scan"}, "is_reserved": 0, "lon": -76.96506966666666, "fusion_lat": 0.0, "name": "df54d658b04a962113d88002592f3da5"}, {"type": "electric_scooter", "fusion_lon": 0.0, "bike_id": "b8383f3423a9fec1d4a12293a9af9c44", "is_disabled": 0, "lat": 38.938213833333336, "rental_uris": {"ios": "https://dc.lft.to/lastmile_qr_scan", "android": "https://dc.lft.to/lastmile_qr_scan"}, "is_reserved": 0, "lon": -76.98924216666667, "fusion_lat": 0.0, "name": "b8383f3423a9fec1d4a12293a9af9c44"}, {"type": "electric_scooter", "fusion_lon": 0.0, "bike_id": "55370294b4437c6d3e1448cb508d0ff5", "is_disabled": 0, "lat": 38.896871166666664, "rental_uris": {"ios": "https://dc.lft.to/lastmile_qr_scan", "android": "https://dc.lft.to/lastmile_qr_scan"}, "is_reserved": 0, "lon": -77.0196725, "fusion_lat": 0.0, "name": "55370294b4437c6d3e1448cb508d0ff5"}, {"type": "electric_scooter", "fusion_lon": 0.0, "bike_id": "3f9ac94962194644c275f993b73b6429", "is_disabled": 0, "lat": 38.89725966666666, "rental_uris": {"ios": "https://dc.lft.to/lastmile_qr_scan", "android": "https://dc.lft.to/lastmile_qr_scan"}, "is_reserved": 0, "lon": -76.984974, "fusion_lat": 0.0, "name": "3f9ac94962194644c275f993b73b6429"}, {"type": "electric_bike", "fusion_lon": 0.0, "bike_id": "e12b015f4eddc5c34fbdfa7a995211b7", "is_disabled": 0, "lat": 38.991966166666664, "rental_uris": {"ios": "https://dc.lft.to/lastmile_qr_scan", "android": "https://dc.lft.to/lastmile_qr_scan"}, "is_reserved": 0, "lon": -77.03197183333333, "fusion_lat": 0.0, "name": "e12b015f4eddc5c34fbdfa7a995211b7"}, {"type": "electric_scooter", "fusion_lon": 0.0, "bike_id": "5f866ae649ef90e5e237d17ec53b19bd", "is_disabled": 0, "lat": 38.907065333333335, "rental_uris": {"ios": "https://dc.lft.to/lastmile_qr_scan", "android": "https://dc.lft.to/lastmile_qr_scan"}, "is_reserved": 0, "lon": -76.98564483333334, "fusion_lat": 0.0, "name": "5f866ae649ef90e5e237d17ec53b19bd"}, {"type": "electric_scooter", "fusion_lon": 0.0, "bike_id": "d80312e11b66e0c56e867ea0fb35e94d", "is_disabled": 0, "lat": 38.906493166666664, "rental_uris": {"ios": "https://dc.lft.to/lastmile_qr_scan", "android": "https://dc.lft.to/lastmile_qr_scan"}, "is_reserved": 0, "lon": -77.042465, "fusion_lat": 0.0, "name": "d80312e11b66e0c56e867ea0fb35e94d"}, {"type": "electric_scooter", "fusion_lon": 0.0, "bike_id": "631a625d58036457c6eca6883bf59ebd", "is_disabled": 0, "lat": 38.91926616666667, "rental_uris": {"ios": "https://dc.lft.to/lastmile_qr_scan", "android": "https://dc.lft.to/lastmile_qr_scan"}, "is_reserved": 0, "lon": -77.02481, "fusion_lat": 0.0, "name": "631a625d58036457c6eca6883bf59ebd"}, {"type": "electric_scooter", "fusion_lon": 0.0, "bike_id": "0a4c6f0221635db0a62cccb701e3c8ce", "is_disabled": 0, "lat": 38.90411816666666, "rental_uris": {"ios": "https://dc.lft.to/lastmile_qr_scan", "android": "https://dc.lft.to/lastmile_qr_scan"}, "is_reserved": 0, "lon": -77.02514183333334, "fusion_lat": 0.0, "name": "0a4c6f0221635db0a62cccb701e3c8ce"}, {"type": "electric_scooter", "fusion_lon": 0.0, "bike_id": "aeedb4d2bb8a5d63a3a11b66b0398db3", "is_disabled": 0, "lat": 38.93280933333333, "rental_uris": {"ios": "https://dc.lft.to/lastmile_qr_scan", "android": "https://dc.lft.to/lastmile_qr_scan"}, "is_reserved": 0, "lon": -77.0408805, "fusion_lat": 0.0, "name": "aeedb4d2bb8a5d63a3a11b66b0398db3"}, {"type": "electric_scooter", "fusion_lon": 0.0, "bike_id": "cfa9d6b4c02a7765706b27edcdb3c5a0", "is_disabled": 0, "lat": 38.923319, "rental_uris": {"ios": "https://dc.lft.to/lastmile_qr_scan", "android": "https://dc.lft.to/lastmile_qr_scan"}, "is_reserved": 0, "lon": -77.03547983333333, "fusion_lat": 0.0, "name": "cfa9d6b4c02a7765706b27edcdb3c5a0"}, {"type": "electric_scooter", "fusion_lon": 0.0, "bike_id": "50f74377f06f8f4609f57ba74a3e1770", "is_disabled": 0, "lat": 38.905656, "rental_uris": {"ios": "https://dc.lft.to/lastmile_qr_scan", "android": "https://dc.lft.to/lastmile_qr_scan"}, "is_reserved": 0, "lon": -77.0241265, "fusion_lat": 0.0, "name": "50f74377f06f8f4609f57ba74a3e1770"}, {"type": "electric_scooter", "fusion_lon": 0.0, "bike_id": "f77ad067e7be94844bb1ca4f04637637", "is_disabled": 0, "lat": 38.930125333333336, "rental_uris": {"ios": "https://dc.lft.to/lastmile_qr_scan", "android": "https://dc.lft.to/lastmile_qr_scan"}, "is_reserved": 0, "lon": -77.02795433333333, "fusion_lat": 0.0, "name": "f77ad067e7be94844bb1ca4f04637637"}, {"type": "electric_scooter", "fusion_lon": 0.0, "bike_id": "0d1529ce61ceaaeed0286f930aebbfe4", "is_disabled": 0, "lat": 38.89222266666667, "rental_uris": {"ios": "https://dc.lft.to/lastmile_qr_scan", "android": "https://dc.lft.to/lastmile_qr_scan"}, "is_reserved": 0, "lon": -77.04504733333333, "fusion_lat": 0.0, "name": "0d1529ce61ceaaeed0286f930aebbfe4"}, {"type": "electric_scooter", "fusion_lon": 0.0, "bike_id": "1c931ccbab11d9a185b8e4590e2920e9", "is_disabled": 0, "lat": 38.89547133333333, "rental_uris": {"ios": "https://dc.lft.to/lastmile_qr_scan", "android": "https://dc.lft.to/lastmile_qr_scan"}, "is_reserved": 0, "lon": -76.98341083333334, "fusion_lat": 0.0, "name": "1c931ccbab11d9a185b8e4590e2920e9"}, {"type": "electric_scooter", "fusion_lon": 0.0, "bike_id": "db039f2a55dea660e8f90aa66f1ea9e6", "is_disabled": 0, "lat": 38.90869383333333, "rental_uris": {"ios": "https://dc.lft.to/lastmile_qr_scan", "android": "https://dc.lft.to/lastmile_qr_scan"}, "is_reserved": 0, "lon": -77.01888516666666, "fusion_lat": 0.0, "name": "db039f2a55dea660e8f90aa66f1ea9e6"}, {"type": "electric_scooter", "fusion_lon": 0.0, "bike_id": "20c283df3b9c5bcaf1387baaf4df5f7a", "is_disabled": 0, "lat": 38.89219633333333, "rental_uris": {"ios": "https://dc.lft.to/lastmile_qr_scan", "android": "https://dc.lft.to/lastmile_qr_scan"}, "is_reserved": 0, "lon": -77.02629183333333, "fusion_lat": 0.0, "name": "20c283df3b9c5bcaf1387baaf4df5f7a"}, {"type": "electric_bike", "fusion_lon": 0.0, "bike_id": "7f3ff2549e205e92d12feff10c0c25be", "is_disabled": 0, "lat": 38.9725675, "rental_uris": {"ios": "https://dc.lft.to/lastmile_qr_scan", "android": "https://dc.lft.to/lastmile_qr_scan"}, "is_reserved": 0, "lon": -76.99278216666667, "fusion_lat": 0.0, "name": "7f3ff2549e205e92d12feff10c0c25be"}, {"type": "electric_scooter", "fusion_lon": 0.0, "bike_id": "7042e2f5a8f946fee24ff63116709c91", "is_disabled": 0, "lat": 38.91263033333333, "rental_uris": {"ios": "https://dc.lft.to/lastmile_qr_scan", "android": "https://dc.lft.to/lastmile_qr_scan"}, "is_reserved": 0, "lon": -77.03833183333333, "fusion_lat": 0.0, "name": "7042e2f5a8f946fee24ff63116709c91"}, {"type": "electric_bike", "fusion_lon": 0.0, "bike_id": "542d5e402c66790ce0168bd8b5fc0f56", "is_disabled": 0, "lat": 38.900825166666664, "rental_uris": {"ios": "https://dc.lft.to/lastmile_qr_scan", "android": "https://dc.lft.to/lastmile_qr_scan"}, "is_reserved": 0, "lon": -77.05906933333333, "fusion_lat": 0.0, "name": "542d5e402c66790ce0168bd8b5fc0f56"}, {"type": "electric_scooter", "fusion_lon": 0.0, "bike_id": "afb569b6ff6a40599827d51c65d1162b", "is_disabled": 0, "lat": 38.8798975, "rental_uris": {"ios": "https://dc.lft.to/lastmile_qr_scan", "android": "https://dc.lft.to/lastmile_qr_scan"}, "is_reserved": 0, "lon": -76.9870815, "fusion_lat": 0.0, "name": "afb569b6ff6a40599827d51c65d1162b"}, {"type": "electric_scooter", "fusion_lon": 0.0, "bike_id": "d9dbab741a80218d198a8b2c1daffb86", "is_disabled": 0, "lat": 38.90365366666666, "rental_uris": {"ios": "https://dc.lft.to/lastmile_qr_scan", "android": "https://dc.lft.to/lastmile_qr_scan"}, "is_reserved": 0, "lon": -77.0034595, "fusion_lat": 0.0, "name": "d9dbab741a80218d198a8b2c1daffb86"}, {"type": "electric_bike", "fusion_lon": 0.0, "bike_id": "56e6f3498083602a831f9e6665fe37bd", "is_disabled": 0, "lat": 38.8384975, "rental_uris": {"ios": "https://dc.lft.to/lastmile_qr_scan", "android": "https://dc.lft.to/lastmile_qr_scan"}, "is_reserved": 0, "lon": -76.99725466666666, "fusion_lat": 0.0, "name": "56e6f3498083602a831f9e6665fe37bd"}, {"type": "electric_scooter", "fusion_lon": 0.0, "bike_id": "2162431121e43a598161fb29207466e5", "is_disabled": 0, "lat": 38.93306366666667, "rental_uris": {"ios": "https://dc.lft.to/lastmile_qr_scan", "android": "https://dc.lft.to/lastmile_qr_scan"}, "is_reserved": 0, "lon": -77.03262766666667, "fusion_lat": 0.0, "name": "2162431121e43a598161fb29207466e5"}, {"type": "electric_bike", "fusion_lon": 0.0, "bike_id": "8eab74a5d9a8220e330297a4a5c47d02", "is_disabled": 0, "lat": 38.8073905, "rental_uris": {"ios": "https://dc.lft.to/lastmile_qr_scan", "android": "https://dc.lft.to/lastmile_qr_scan"}, "is_reserved": 0, "lon": -77.097279, "fusion_lat": 0.0, "name": "8eab74a5d9a8220e330297a4a5c47d02"}, {"type": "electric_scooter", "fusion_lon": 0.0, "bike_id": "ca64cbc7eeb7fe30da24c90cfb5f12d6", "is_disabled": 0, "lat": 38.91699833333333, "rental_uris": {"ios": "https://dc.lft.to/lastmile_qr_scan", "android": "https://dc.lft.to/lastmile_qr_scan"}, "is_reserved": 0, "lon": -77.034717, "fusion_lat": 0.0, "name": "ca64cbc7eeb7fe30da24c90cfb5f12d6"}, {"type": "electric_scooter", "fusion_lon": 0.0, "bike_id": "4d8f27eb92ec7f9a5237737d71405313", "is_disabled": 0, "lat": 38.916078666666664, "rental_uris": {"ios": "https://dc.lft.to/lastmile_qr_scan", "android": "https://dc.lft.to/lastmile_qr_scan"}, "is_reserved": 0, "lon": -77.048783, "fusion_lat": 0.0, "name": "4d8f27eb92ec7f9a5237737d71405313"}, {"type": "electric_scooter", "fusion_lon": 0.0, "bike_id": "fb8b33b5780cef8959ca78a3c04d824b", "is_disabled": 0, "lat": 38.881813333333334, "rental_uris": {"ios": "https://dc.lft.to/lastmile_qr_scan", "android": "https://dc.lft.to/lastmile_qr_scan"}, "is_reserved": 0, "lon": -77.0220635, "fusion_lat": 0.0, "name": "fb8b33b5780cef8959ca78a3c04d824b"}, {"type": "electric_bike", "fusion_lon": 0.0, "bike_id": "610fc7090a41def4c5dd733f195e569d", "is_disabled": 0, "lat": 38.86260466666667, "rental_uris": {"ios": "https://dc.lft.to/lastmile_qr_scan", "android": "https://dc.lft.to/lastmile_qr_scan"}, "is_reserved": 0, "lon": -76.98352133333333, "fusion_lat": 0.0, "name": "610fc7090a41def4c5dd733f195e569d"}, {"type": "electric_scooter", "fusion_lon": 0.0, "bike_id": "4a9f4ed3f09bf7af822385d5386ad9d1", "is_disabled": 0, "lat": 38.904158, "rental_uris": {"ios": "https://dc.lft.to/lastmile_qr_scan", "android": "https://dc.lft.to/lastmile_qr_scan"}, "is_reserved": 0, "lon": -77.03446966666667, "fusion_lat": 0.0, "name": "4a9f4ed3f09bf7af822385d5386ad9d1"}, {"type": "electric_scooter", "fusion_lon": 0.0, "bike_id": "10979d547884d80ccf084e04f726e7b4", "is_disabled": 0, "lat": 38.88338983333333, "rental_uris": {"ios": "https://dc.lft.to/lastmile_qr_scan", "android": "https://dc.lft.to/lastmile_qr_scan"}, "is_reserved": 0, "lon": -76.93502833333334, "fusion_lat": 0.0, "name": "10979d547884d80ccf084e04f726e7b4"}, {"type": "electric_scooter", "fusion_lon": 0.0, "bike_id": "85e93feac2f5ef17da2ed6f68cb668bd", "is_disabled": 0, "lat": 38.90141, "rental_uris": {"ios": "https://dc.lft.to/lastmile_qr_scan", "android": "https://dc.lft.to/lastmile_qr_scan"}, "is_reserved": 0, "lon": -77.044162, "fusion_lat": 0.0, "name": "85e93feac2f5ef17da2ed6f68cb668bd"}, {"type": "electric_scooter", "fusion_lon": 0.0, "bike_id": "57144a09481546bf9a9d454d5fa62f6a", "is_disabled": 0, "lat": 38.91893566666667, "rental_uris": {"ios": "https://dc.lft.to/lastmile_qr_scan", "android": "https://dc.lft.to/lastmile_qr_scan"}, "is_reserved": 0, "lon": -77.03821333333333, "fusion_lat": 0.0, "name": "57144a09481546bf9a9d454d5fa62f6a"}, {"type": "electric_scooter", "fusion_lon": 0.0, "bike_id": "eccb26f651fd6902b3c0a5d2314137ae", "is_disabled": 0, "lat": 38.884071666666664, "rental_uris": {"ios": "https://dc.lft.to/lastmile_qr_scan", "android": "https://dc.lft.to/lastmile_qr_scan"}, "is_reserved": 0, "lon": -77.00450983333333, "fusion_lat": 0.0, "name": "eccb26f651fd6902b3c0a5d2314137ae"}, {"type": "electric_scooter", "fusion_lon": 0.0, "bike_id": "67b00bbebd75b27fe9d3e9137bac8429", "is_disabled": 0, "lat": 38.92089633333333, "rental_uris": {"ios": "https://dc.lft.to/lastmile_qr_scan", "android": "https://dc.lft.to/lastmile_qr_scan"}, "is_reserved": 0, "lon": -77.02509566666667, "fusion_lat": 0.0, "name": "67b00bbebd75b27fe9d3e9137bac8429"}, {"type": "electric_scooter", "fusion_lon": 0.0, "bike_id": "5ca2c7cf844f9fb38b55091827355810", "is_disabled": 0, "lat": 38.892295833333336, "rental_uris": {"ios": "https://dc.lft.to/lastmile_qr_scan", "android": "https://dc.lft.to/lastmile_qr_scan"}, "is_reserved": 0, "lon": -77.05003516666666, "fusion_lat": 0.0, "name": "5ca2c7cf844f9fb38b55091827355810"}, {"type": "electric_scooter", "fusion_lon": 0.0, "bike_id": "ecfad58b1e11d1c9ee4312e13e7010ef", "is_disabled": 0, "lat": 38.922861166666664, "rental_uris": {"ios": "https://dc.lft.to/lastmile_qr_scan", "android": "https://dc.lft.to/lastmile_qr_scan"}, "is_reserved": 0, "lon": -77.03659983333333, "fusion_lat": 0.0, "name": "ecfad58b1e11d1c9ee4312e13e7010ef"}, {"type": "electric_scooter", "fusion_lon": 0.0, "bike_id": "60418a9d4690b482ab15aed11cfe9a7e", "is_disabled": 0, "lat": 38.90559666666667, "rental_uris": {"ios": "https://dc.lft.to/lastmile_qr_scan", "android": "https://dc.lft.to/lastmile_qr_scan"}, "is_reserved": 0, "lon": -77.02206366666667, "fusion_lat": 0.0, "name": "60418a9d4690b482ab15aed11cfe9a7e"}, {"type": "electric_scooter", "fusion_lon": 0.0, "bike_id": "422368a35d56700b1b7f642402e12a16", "is_disabled": 0, "lat": 38.927434166666664, "rental_uris": {"ios": "https://dc.lft.to/lastmile_qr_scan", "android": "https://dc.lft.to/lastmile_qr_scan"}, "is_reserved": 0, "lon": -77.02538916666667, "fusion_lat": 0.0, "name": "422368a35d56700b1b7f642402e12a16"}, {"type": "electric_scooter", "fusion_lon": 0.0, "bike_id": "b5670607df39356ee04e355a38b27026", "is_disabled": 0, "lat": 38.91486366666667, "rental_uris": {"ios": "https://dc.lft.to/lastmile_qr_scan", "android": "https://dc.lft.to/lastmile_qr_scan"}, "is_reserved": 0, "lon": -77.02198, "fusion_lat": 0.0, "name": "b5670607df39356ee04e355a38b27026"}, {"type": "electric_scooter", "fusion_lon": 0.0, "bike_id": "5e39754cde72be62ba1649be76488e63", "is_disabled": 0, "lat": 38.917527666666665, "rental_uris": {"ios": "https://dc.lft.to/lastmile_qr_scan", "android": "https://dc.lft.to/lastmile_qr_scan"}, "is_reserved": 0, "lon": -77.040573, "fusion_lat": 0.0, "name": "5e39754cde72be62ba1649be76488e63"}, {"type": "electric_scooter", "fusion_lon": 0.0, "bike_id": "7dfd626723e591f58fd3c5e8f0ae0d62", "is_disabled": 0, "lat": 38.904121833333335, "rental_uris": {"ios": "https://dc.lft.to/lastmile_qr_scan", "android": "https://dc.lft.to/lastmile_qr_scan"}, "is_reserved": 0, "lon": -76.97331516666667, "fusion_lat": 0.0, "name": "7dfd626723e591f58fd3c5e8f0ae0d62"}, {"type": "electric_scooter", "fusion_lon": 0.0, "bike_id": "237ebf45a8a036dfa5e9bef3e724684f", "is_disabled": 0, "lat": 38.93836116666667, "rental_uris": {"ios": "https://dc.lft.to/lastmile_qr_scan", "android": "https://dc.lft.to/lastmile_qr_scan"}, "is_reserved": 0, "lon": -77.06179383333334, "fusion_lat": 0.0, "name": "237ebf45a8a036dfa5e9bef3e724684f"}, {"type": "electric_scooter", "fusion_lon": 0.0, "bike_id": "7a06ef89b981a8794ace36a34addbcc2", "is_disabled": 0, "lat": 38.894170833333334, "rental_uris": {"ios": "https://dc.lft.to/lastmile_qr_scan", "android": "https://dc.lft.to/lastmile_qr_scan"}, "is_reserved": 0, "lon": -76.99952683333333, "fusion_lat": 0.0, "name": "7a06ef89b981a8794ace36a34addbcc2"}, {"type": "electric_scooter", "fusion_lon": 0.0, "bike_id": "b11bec53e767c2f5ccd8a8ec49b00c07", "is_disabled": 0, "lat": 38.886225333333336, "rental_uris": {"ios": "https://dc.lft.to/lastmile_qr_scan", "android": "https://dc.lft.to/lastmile_qr_scan"}, "is_reserved": 0, "lon": -77.01799616666666, "fusion_lat": 0.0, "name": "b11bec53e767c2f5ccd8a8ec49b00c07"}, {"type": "electric_bike", "fusion_lon": 0.0, "bike_id": "ff32b40b8238c65f2227ed2c0682fff6", "is_disabled": 0, "lat": 39.00294183333333, "rental_uris": {"ios": "https://dc.lft.to/lastmile_qr_scan", "android": "https://dc.lft.to/lastmile_qr_scan"}, "is_reserved": 0, "lon": -76.90299016666667, "fusion_lat": 0.0, "name": "ff32b40b8238c65f2227ed2c0682fff6"}, {"type": "electric_scooter", "fusion_lon": 0.0, "bike_id": "399f8cadea88a9a69a7e4fa907649d57", "is_disabled": 0, "lat": 38.86661383333333, "rental_uris": {"ios": "https://dc.lft.to/lastmile_qr_scan", "android": "https://dc.lft.to/lastmile_qr_scan"}, "is_reserved": 0, "lon": -76.98886083333333, "fusion_lat": 0.0, "name": "399f8cadea88a9a69a7e4fa907649d57"}, {"type": "electric_scooter", "fusion_lon": 0.0, "bike_id": "a58678259095aaca3145948e67e71910", "is_disabled": 0, "lat": 38.945132666666666, "rental_uris": {"ios": "https://dc.lft.to/lastmile_qr_scan", "android": "https://dc.lft.to/lastmile_qr_scan"}, "is_reserved": 0, "lon": -77.033662, "fusion_lat": 0.0, "name": "a58678259095aaca3145948e67e71910"}, {"type": "electric_scooter", "fusion_lon": 0.0, "bike_id": "2f21aa174b53bb10e42db04a02b39e43", "is_disabled": 0, "lat": 38.87635933333333, "rental_uris": {"ios": "https://dc.lft.to/lastmile_qr_scan", "android": "https://dc.lft.to/lastmile_qr_scan"}, "is_reserved": 0, "lon": -77.01587233333333, "fusion_lat": 0.0, "name": "2f21aa174b53bb10e42db04a02b39e43"}, {"type": "electric_bike", "fusion_lon": 0.0, "bike_id": "9fd6129b7c0de39023135fc2f294d651", "is_disabled": 0, "lat": 38.813310666666666, "rental_uris": {"ios": "https://dc.lft.to/lastmile_qr_scan", "android": "https://dc.lft.to/lastmile_qr_scan"}, "is_reserved": 0, "lon": -77.05091483333334, "fusion_lat": 0.0, "name": "9fd6129b7c0de39023135fc2f294d651"}, {"type": "electric_scooter", "fusion_lon": 0.0, "bike_id": "01907254237e79f0034870d57ac9174b", "is_disabled": 0, "lat": 38.92950616666667, "rental_uris": {"ios": "https://dc.lft.to/lastmile_qr_scan", "android": "https://dc.lft.to/lastmile_qr_scan"}, "is_reserved": 0, "lon": -77.02761666666666, "fusion_lat": 0.0, "name": "01907254237e79f0034870d57ac9174b"}, {"type": "electric_scooter", "fusion_lon": 0.0, "bike_id": "e0b5e3f9972ab004e99404a862aa63ac", "is_disabled": 0, "lat": 38.921059166666666, "rental_uris": {"ios": "https://dc.lft.to/lastmile_qr_scan", "android": "https://dc.lft.to/lastmile_qr_scan"}, "is_reserved": 0, "lon": -77.04383383333334, "fusion_lat": 0.0, "name": "e0b5e3f9972ab004e99404a862aa63ac"}, {"type": "electric_scooter", "fusion_lon": 0.0, "bike_id": "548dbb786448380756da4674e448ed79", "is_disabled": 0, "lat": 38.899116, "rental_uris": {"ios": "https://dc.lft.to/lastmile_qr_scan", "android": "https://dc.lft.to/lastmile_qr_scan"}, "is_reserved": 0, "lon": -76.933805, "fusion_lat": 0.0, "name": "548dbb786448380756da4674e448ed79"}, {"type": "electric_scooter", "fusion_lon": 0.0, "bike_id": "a93e3652c4b41d8153cba1fc59de2afc", "is_disabled": 0, "lat": 38.91494616666667, "rental_uris": {"ios": "https://dc.lft.to/lastmile_qr_scan", "android": "https://dc.lft.to/lastmile_qr_scan"}, "is_reserved": 0, "lon": -77.01219433333333, "fusion_lat": 0.0, "name": "a93e3652c4b41d8153cba1fc59de2afc"}, {"type": "electric_scooter", "fusion_lon": 0.0, "bike_id": "689b1e98de6741ef43bf592f9543b84e", "is_disabled": 0, "lat": 38.906026, "rental_uris": {"ios": "https://dc.lft.to/lastmile_qr_scan", "android": "https://dc.lft.to/lastmile_qr_scan"}, "is_reserved": 0, "lon": -77.04341683333334, "fusion_lat": 0.0, "name": "689b1e98de6741ef43bf592f9543b84e"}, {"type": "electric_scooter", "fusion_lon": 0.0, "bike_id": "82ec968a17fa5fde16cbed046df7ef16", "is_disabled": 0, "lat": 38.9071695, "rental_uris": {"ios": "https://dc.lft.to/lastmile_qr_scan", "android": "https://dc.lft.to/lastmile_qr_scan"}, "is_reserved": 0, "lon": -77.0497795, "fusion_lat": 0.0, "name": "82ec968a17fa5fde16cbed046df7ef16"}, {"type": "electric_scooter", "fusion_lon": 0.0, "bike_id": "80a5bfe439ad84382cd589a16896575a", "is_disabled": 0, "lat": 38.90547883333333, "rental_uris": {"ios": "https://dc.lft.to/lastmile_qr_scan", "android": "https://dc.lft.to/lastmile_qr_scan"}, "is_reserved": 0, "lon": -77.04735933333333, "fusion_lat": 0.0, "name": "80a5bfe439ad84382cd589a16896575a"}, {"type": "electric_scooter", "fusion_lon": 0.0, "bike_id": "d03181904b0fe161f6a743ed9e72966b", "is_disabled": 0, "lat": 38.905080166666664, "rental_uris": {"ios": "https://dc.lft.to/lastmile_qr_scan", "android": "https://dc.lft.to/lastmile_qr_scan"}, "is_reserved": 0, "lon": -76.9918485, "fusion_lat": 0.0, "name": "d03181904b0fe161f6a743ed9e72966b"}, {"type": "electric_bike", "fusion_lon": 0.0, "bike_id": "5bd6bbb8e83e60bea158e3851c7be093", "is_disabled": 0, "lat": 38.94473283333333, "rental_uris": {"ios": "https://dc.lft.to/lastmile_qr_scan", "android": "https://dc.lft.to/lastmile_qr_scan"}, "is_reserved": 0, "lon": -76.98693383333334, "fusion_lat": 0.0, "name": "5bd6bbb8e83e60bea158e3851c7be093"}, {"type": "electric_scooter", "fusion_lon": 0.0, "bike_id": "906b21b2c42355c915ad917a5088234d", "is_disabled": 0, "lat": 38.92943833333333, "rental_uris": {"ios": "https://dc.lft.to/lastmile_qr_scan", "android": "https://dc.lft.to/lastmile_qr_scan"}, "is_reserved": 0, "lon": -77.0164805, "fusion_lat": 0.0, "name": "906b21b2c42355c915ad917a5088234d"}, {"type": "electric_scooter", "fusion_lon": 0.0, "bike_id": "f4591c2d91a0a7d8b4bdc77656b0898b", "is_disabled": 0, "lat": 38.907246, "rental_uris": {"ios": "https://dc.lft.to/lastmile_qr_scan", "android": "https://dc.lft.to/lastmile_qr_scan"}, "is_reserved": 0, "lon": -77.0477255, "fusion_lat": 0.0, "name": "f4591c2d91a0a7d8b4bdc77656b0898b"}, {"type": "electric_scooter", "fusion_lon": 0.0, "bike_id": "1ad993bee9b6fa7158d8fe7a29f956aa", "is_disabled": 0, "lat": 38.920550166666665, "rental_uris": {"ios": "https://dc.lft.to/lastmile_qr_scan", "android": "https://dc.lft.to/lastmile_qr_scan"}, "is_reserved": 0, "lon": -77.016952, "fusion_lat": 0.0, "name": "1ad993bee9b6fa7158d8fe7a29f956aa"}, {"type": "electric_scooter", "fusion_lon": 0.0, "bike_id": "20e6ca72213f675ef279fc5a6ee37106", "is_disabled": 0, "lat": 38.91730483333333, "rental_uris": {"ios": "https://dc.lft.to/lastmile_qr_scan", "android": "https://dc.lft.to/lastmile_qr_scan"}, "is_reserved": 0, "lon": -77.068415, "fusion_lat": 0.0, "name": "20e6ca72213f675ef279fc5a6ee37106"}, {"type": "electric_scooter", "fusion_lon": 0.0, "bike_id": "70f4c8011d23d6d81c3fb0c973fcbdd5", "is_disabled": 0, "lat": 38.941927666666665, "rental_uris": {"ios": "https://dc.lft.to/lastmile_qr_scan", "android": "https://dc.lft.to/lastmile_qr_scan"}, "is_reserved": 0, "lon": -77.024807, "fusion_lat": 0.0, "name": "70f4c8011d23d6d81c3fb0c973fcbdd5"}, {"type": "electric_scooter", "fusion_lon": 0.0, "bike_id": "6d64d3e3a04fd3be31a79dfdac70c57d", "is_disabled": 0, "lat": 38.881387, "rental_uris": {"ios": "https://dc.lft.to/lastmile_qr_scan", "android": "https://dc.lft.to/lastmile_qr_scan"}, "is_reserved": 0, "lon": -77.017622, "fusion_lat": 0.0, "name": "6d64d3e3a04fd3be31a79dfdac70c57d"}, {"type": "electric_scooter", "fusion_lon": 0.0, "bike_id": "1d34b56543e3ccfd83be6e4bb107da76", "is_disabled": 0, "lat": 38.90724783333334, "rental_uris": {"ios": "https://dc.lft.to/lastmile_qr_scan", "android": "https://dc.lft.to/lastmile_qr_scan"}, "is_reserved": 0, "lon": -77.02420066666667, "fusion_lat": 0.0, "name": "1d34b56543e3ccfd83be6e4bb107da76"}, {"type": "electric_scooter", "fusion_lon": 0.0, "bike_id": "7a35ec6af2361cbb1384471f98c355a9", "is_disabled": 0, "lat": 38.907267833333336, "rental_uris": {"ios": "https://dc.lft.to/lastmile_qr_scan", "android": "https://dc.lft.to/lastmile_qr_scan"}, "is_reserved": 0, "lon": -77.00146783333334, "fusion_lat": 0.0, "name": "7a35ec6af2361cbb1384471f98c355a9"}, {"type": "electric_scooter", "fusion_lon": 0.0, "bike_id": "4da8ba5e6d638e873cadc3f7dca2dbc4", "is_disabled": 0, "lat": 38.93599833333333, "rental_uris": {"ios": "https://dc.lft.to/lastmile_qr_scan", "android": "https://dc.lft.to/lastmile_qr_scan"}, "is_reserved": 0, "lon": -77.05709383333334, "fusion_lat": 0.0, "name": "4da8ba5e6d638e873cadc3f7dca2dbc4"}, {"type": "electric_scooter", "fusion_lon": 0.0, "bike_id": "b8755ab18ae05838542cb526a8ed6d2e", "is_disabled": 0, "lat": 38.907468, "rental_uris": {"ios": "https://dc.lft.to/lastmile_qr_scan", "android": "https://dc.lft.to/lastmile_qr_scan"}, "is_reserved": 0, "lon": -77.044847, "fusion_lat": 0.0, "name": "b8755ab18ae05838542cb526a8ed6d2e"}, {"type": "electric_scooter", "fusion_lon": 0.0, "bike_id": "50e38dc675c9b582e07a9c41775ef6ac", "is_disabled": 0, "lat": 38.9197815, "rental_uris": {"ios": "https://dc.lft.to/lastmile_qr_scan", "android": "https://dc.lft.to/lastmile_qr_scan"}, "is_reserved": 0, "lon": -77.024917, "fusion_lat": 0.0, "name": "50e38dc675c9b582e07a9c41775ef6ac"}, {"type": "electric_scooter", "fusion_lon": 0.0, "bike_id": "fc7f80292fe4006f04781cfceeff62ee", "is_disabled": 0, "lat": 38.89272066666667, "rental_uris": {"ios": "https://dc.lft.to/lastmile_qr_scan", "android": "https://dc.lft.to/lastmile_qr_scan"}, "is_reserved": 0, "lon": -77.04210733333333, "fusion_lat": 0.0, "name": "fc7f80292fe4006f04781cfceeff62ee"}, {"type": "electric_scooter", "fusion_lon": 0.0, "bike_id": "68448d0173341efa898cf0d39677df32", "is_disabled": 0, "lat": 38.91560966666667, "rental_uris": {"ios": "https://dc.lft.to/lastmile_qr_scan", "android": "https://dc.lft.to/lastmile_qr_scan"}, "is_reserved": 0, "lon": -77.02001733333333, "fusion_lat": 0.0, "name": "68448d0173341efa898cf0d39677df32"}, {"type": "electric_bike", "fusion_lon": 0.0, "bike_id": "d66a74cab5d22d6f0595919d1180d73b", "is_disabled": 0, "lat": 39.01566866666667, "rental_uris": {"ios": "https://dc.lft.to/lastmile_qr_scan", "android": "https://dc.lft.to/lastmile_qr_scan"}, "is_reserved": 0, "lon": -77.04424966666667, "fusion_lat": 0.0, "name": "d66a74cab5d22d6f0595919d1180d73b"}, {"type": "electric_scooter", "fusion_lon": 0.0, "bike_id": "820e77dbb7a8a005291f8cc1d6cd49c2", "is_disabled": 0, "lat": 38.91347233333333, "rental_uris": {"ios": "https://dc.lft.to/lastmile_qr_scan", "android": "https://dc.lft.to/lastmile_qr_scan"}, "is_reserved": 0, "lon": -77.03184416666667, "fusion_lat": 0.0, "name": "820e77dbb7a8a005291f8cc1d6cd49c2"}, {"type": "electric_scooter", "fusion_lon": 0.0, "bike_id": "65df1f548060f7a934797201d4b53729", "is_disabled": 0, "lat": 38.88334166666667, "rental_uris": {"ios": "https://dc.lft.to/lastmile_qr_scan", "android": "https://dc.lft.to/lastmile_qr_scan"}, "is_reserved": 0, "lon": -77.01142366666667, "fusion_lat": 0.0, "name": "65df1f548060f7a934797201d4b53729"}, {"type": "electric_scooter", "fusion_lon": 0.0, "bike_id": "1aeb374fad1689376895c273cea32138", "is_disabled": 0, "lat": 38.88384816666667, "rental_uris": {"ios": "https://dc.lft.to/lastmile_qr_scan", "android": "https://dc.lft.to/lastmile_qr_scan"}, "is_reserved": 0, "lon": -77.023878, "fusion_lat": 0.0, "name": "1aeb374fad1689376895c273cea32138"}, {"type": "electric_scooter", "fusion_lon": 0.0, "bike_id": "387dc5e80bde7e8b0ccc1ce7492b1dcd", "is_disabled": 0, "lat": 38.92090233333333, "rental_uris": {"ios": "https://dc.lft.to/lastmile_qr_scan", "android": "https://dc.lft.to/lastmile_qr_scan"}, "is_reserved": 0, "lon": -77.075535, "fusion_lat": 0.0, "name": "387dc5e80bde7e8b0ccc1ce7492b1dcd"}, {"type": "electric_scooter", "fusion_lon": 0.0, "bike_id": "6f12cbfd0fe61262782bc7304db4c91c", "is_disabled": 0, "lat": 38.8760985, "rental_uris": {"ios": "https://dc.lft.to/lastmile_qr_scan", "android": "https://dc.lft.to/lastmile_qr_scan"}, "is_reserved": 0, "lon": -77.00093666666666, "fusion_lat": 0.0, "name": "6f12cbfd0fe61262782bc7304db4c91c"}, {"type": "electric_scooter", "fusion_lon": 0.0, "bike_id": "0843b5c5e587fe00f08ac7ca629129c3", "is_disabled": 0, "lat": 38.902269, "rental_uris": {"ios": "https://dc.lft.to/lastmile_qr_scan", "android": "https://dc.lft.to/lastmile_qr_scan"}, "is_reserved": 0, "lon": -76.94199566666667, "fusion_lat": 0.0, "name": "0843b5c5e587fe00f08ac7ca629129c3"}, {"type": "electric_scooter", "fusion_lon": 0.0, "bike_id": "a48fb9b14b2d179fe6f6c3aa20d20211", "is_disabled": 0, "lat": 38.90812433333333, "rental_uris": {"ios": "https://dc.lft.to/lastmile_qr_scan", "android": "https://dc.lft.to/lastmile_qr_scan"}, "is_reserved": 0, "lon": -77.043522, "fusion_lat": 0.0, "name": "a48fb9b14b2d179fe6f6c3aa20d20211"}, {"type": "electric_scooter", "fusion_lon": 0.0, "bike_id": "eacabc1c08e46ae6becc7aa1ae563118", "is_disabled": 0, "lat": 38.905515666666666, "rental_uris": {"ios": "https://dc.lft.to/lastmile_qr_scan", "android": "https://dc.lft.to/lastmile_qr_scan"}, "is_reserved": 0, "lon": -76.99477216666666, "fusion_lat": 0.0, "name": "eacabc1c08e46ae6becc7aa1ae563118"}, {"type": "electric_scooter", "fusion_lon": 0.0, "bike_id": "741bd5945485c2d5a604624d7d0b11cf", "is_disabled": 0, "lat": 38.88726483333333, "rental_uris": {"ios": "https://dc.lft.to/lastmile_qr_scan", "android": "https://dc.lft.to/lastmile_qr_scan"}, "is_reserved": 0, "lon": -76.9836035, "fusion_lat": 0.0, "name": "741bd5945485c2d5a604624d7d0b11cf"}, {"type": "electric_scooter", "fusion_lon": 0.0, "bike_id": "7de8a0b04c6e51bda4fdae7a59f6b502", "is_disabled": 0, "lat": 38.9155925, "rental_uris": {"ios": "https://dc.lft.to/lastmile_qr_scan", "android": "https://dc.lft.to/lastmile_qr_scan"}, "is_reserved": 0, "lon": -77.03833816666666, "fusion_lat": 0.0, "name": "7de8a0b04c6e51bda4fdae7a59f6b502"}, {"type": "electric_scooter", "fusion_lon": 0.0, "bike_id": "40f81f3e91e28ad42cae1c34c04d1342", "is_disabled": 0, "lat": 38.91441966666667, "rental_uris": {"ios": "https://dc.lft.to/lastmile_qr_scan", "android": "https://dc.lft.to/lastmile_qr_scan"}, "is_reserved": 0, "lon": -77.04181216666667, "fusion_lat": 0.0, "name": "40f81f3e91e28ad42cae1c34c04d1342"}, {"type": "electric_scooter", "fusion_lon": 0.0, "bike_id": "cd122d50d487ba4bf2d1f10ecbd5fffb", "is_disabled": 0, "lat": 38.90778683333333, "rental_uris": {"ios": "https://dc.lft.to/lastmile_qr_scan", "android": "https://dc.lft.to/lastmile_qr_scan"}, "is_reserved": 0, "lon": -77.04509116666667, "fusion_lat": 0.0, "name": "cd122d50d487ba4bf2d1f10ecbd5fffb"}, {"type": "electric_scooter", "fusion_lon": 0.0, "bike_id": "1ccc11229767e48804b3aae542aeaf4d", "is_disabled": 0, "lat": 38.927928666666666, "rental_uris": {"ios": "https://dc.lft.to/lastmile_qr_scan", "android": "https://dc.lft.to/lastmile_qr_scan"}, "is_reserved": 0, "lon": -77.0369165, "fusion_lat": 0.0, "name": "1ccc11229767e48804b3aae542aeaf4d"}, {"type": "electric_scooter", "fusion_lon": 0.0, "bike_id": "d06b58fadfa590563d2a18f85c2d95ae", "is_disabled": 0, "lat": 38.92360166666667, "rental_uris": {"ios": "https://dc.lft.to/lastmile_qr_scan", "android": "https://dc.lft.to/lastmile_qr_scan"}, "is_reserved": 0, "lon": -77.05193083333333, "fusion_lat": 0.0, "name": "d06b58fadfa590563d2a18f85c2d95ae"}, {"type": "electric_scooter", "fusion_lon": 0.0, "bike_id": "1aa1b41da91dfcb25f33812ac0074abe", "is_disabled": 0, "lat": 38.86268533333333, "rental_uris": {"ios": "https://dc.lft.to/lastmile_qr_scan", "android": "https://dc.lft.to/lastmile_qr_scan"}, "is_reserved": 0, "lon": -76.99574516666667, "fusion_lat": 0.0, "name": "1aa1b41da91dfcb25f33812ac0074abe"}, {"type": "electric_scooter", "fusion_lon": 0.0, "bike_id": "d06017624b77a1ac6f70b4ef15d7d7e1", "is_disabled": 0, "lat": 38.89908533333333, "rental_uris": {"ios": "https://dc.lft.to/lastmile_qr_scan", "android": "https://dc.lft.to/lastmile_qr_scan"}, "is_reserved": 0, "lon": -76.93381966666666, "fusion_lat": 0.0, "name": "d06017624b77a1ac6f70b4ef15d7d7e1"}, {"type": "electric_scooter", "fusion_lon": 0.0, "bike_id": "f9edbf8f06ada1d4c298bf3f46f717d1", "is_disabled": 0, "lat": 38.94454966666667, "rental_uris": {"ios": "https://dc.lft.to/lastmile_qr_scan", "android": "https://dc.lft.to/lastmile_qr_scan"}, "is_reserved": 0, "lon": -77.02799183333333, "fusion_lat": 0.0, "name": "f9edbf8f06ada1d4c298bf3f46f717d1"}, {"type": "electric_scooter", "fusion_lon": 0.0, "bike_id": "96ce7b4e6d823fd56dade50bcca89d7e", "is_disabled": 0, "lat": 38.92474083333333, "rental_uris": {"ios": "https://dc.lft.to/lastmile_qr_scan", "android": "https://dc.lft.to/lastmile_qr_scan"}, "is_reserved": 0, "lon": -77.03070383333333, "fusion_lat": 0.0, "name": "96ce7b4e6d823fd56dade50bcca89d7e"}, {"type": "electric_scooter", "fusion_lon": 0.0, "bike_id": "826720c525f1f1466bb86b17ac613bf2", "is_disabled": 0, "lat": 38.9037255, "rental_uris": {"ios": "https://dc.lft.to/lastmile_qr_scan", "android": "https://dc.lft.to/lastmile_qr_scan"}, "is_reserved": 0, "lon": -77.06692616666666, "fusion_lat": 0.0, "name": "826720c525f1f1466bb86b17ac613bf2"}, {"type": "electric_bike", "fusion_lon": 0.0, "bike_id": "b5d79b0d1676227fd2c0cdb832490d5c", "is_disabled": 0, "lat": 38.895617666666666, "rental_uris": {"ios": "https://dc.lft.to/lastmile_qr_scan", "android": "https://dc.lft.to/lastmile_qr_scan"}, "is_reserved": 0, "lon": -77.12738766666666, "fusion_lat": 0.0, "name": "b5d79b0d1676227fd2c0cdb832490d5c"}, {"type": "electric_scooter", "fusion_lon": 0.0, "bike_id": "5da855d4ce130242ab3bc1bd1e633e12", "is_disabled": 0, "lat": 38.88739533333333, "rental_uris": {"ios": "https://dc.lft.to/lastmile_qr_scan", "android": "https://dc.lft.to/lastmile_qr_scan"}, "is_reserved": 0, "lon": -77.0153725, "fusion_lat": 0.0, "name": "5da855d4ce130242ab3bc1bd1e633e12"}, {"type": "electric_scooter", "fusion_lon": 0.0, "bike_id": "fafe48f5e112029c384ac4f85ea5e6bb", "is_disabled": 0, "lat": 38.9271165, "rental_uris": {"ios": "https://dc.lft.to/lastmile_qr_scan", "android": "https://dc.lft.to/lastmile_qr_scan"}, "is_reserved": 0, "lon": -77.02098216666667, "fusion_lat": 0.0, "name": "fafe48f5e112029c384ac4f85ea5e6bb"}, {"type": "electric_scooter", "fusion_lon": 0.0, "bike_id": "32a8ffb2635669822b9aa35ee5691969", "is_disabled": 0, "lat": 38.92015966666666, "rental_uris": {"ios": "https://dc.lft.to/lastmile_qr_scan", "android": "https://dc.lft.to/lastmile_qr_scan"}, "is_reserved": 0, "lon": -77.04409916666667, "fusion_lat": 0.0, "name": "32a8ffb2635669822b9aa35ee5691969"}, {"type": "electric_scooter", "fusion_lon": 0.0, "bike_id": "fc2827a302f2a492bf1c55cb78dfaa7d", "is_disabled": 0, "lat": 38.9141695, "rental_uris": {"ios": "https://dc.lft.to/lastmile_qr_scan", "android": "https://dc.lft.to/lastmile_qr_scan"}, "is_reserved": 0, "lon": -77.04152933333333, "fusion_lat": 0.0, "name": "fc2827a302f2a492bf1c55cb78dfaa7d"}, {"type": "electric_scooter", "fusion_lon": 0.0, "bike_id": "62c96718233b0241bd659e59cbb47faa", "is_disabled": 0, "lat": 38.90011483333333, "rental_uris": {"ios": "https://dc.lft.to/lastmile_qr_scan", "android": "https://dc.lft.to/lastmile_qr_scan"}, "is_reserved": 0, "lon": -76.988953, "fusion_lat": 0.0, "name": "62c96718233b0241bd659e59cbb47faa"}, {"type": "electric_scooter", "fusion_lon": 0.0, "bike_id": "b42781eeb739fb3622688b9fd27bb4c8", "is_disabled": 0, "lat": 38.8650035, "rental_uris": {"ios": "https://dc.lft.to/lastmile_qr_scan", "android": "https://dc.lft.to/lastmile_qr_scan"}, "is_reserved": 0, "lon": -76.98989566666667, "fusion_lat": 0.0, "name": "b42781eeb739fb3622688b9fd27bb4c8"}, {"type": "electric_scooter", "fusion_lon": 0.0, "bike_id": "6fb8e046abc2bac3b1aef4b813df9cf1", "is_disabled": 0, "lat": 38.876755833333334, "rental_uris": {"ios": "https://dc.lft.to/lastmile_qr_scan", "android": "https://dc.lft.to/lastmile_qr_scan"}, "is_reserved": 0, "lon": -77.00283916666666, "fusion_lat": 0.0, "name": "6fb8e046abc2bac3b1aef4b813df9cf1"}, {"type": "electric_scooter", "fusion_lon": 0.0, "bike_id": "4c3d532fbdf790628755b34702f639e9", "is_disabled": 0, "lat": 38.919795, "rental_uris": {"ios": "https://dc.lft.to/lastmile_qr_scan", "android": "https://dc.lft.to/lastmile_qr_scan"}, "is_reserved": 0, "lon": -77.02173866666666, "fusion_lat": 0.0, "name": "4c3d532fbdf790628755b34702f639e9"}, {"type": "electric_scooter", "fusion_lon": 0.0, "bike_id": "811d5cc72e5d13de88d4768e4fb7aa7b", "is_disabled": 0, "lat": 38.8951315, "rental_uris": {"ios": "https://dc.lft.to/lastmile_qr_scan", "android": "https://dc.lft.to/lastmile_qr_scan"}, "is_reserved": 0, "lon": -77.02789383333334, "fusion_lat": 0.0, "name": "811d5cc72e5d13de88d4768e4fb7aa7b"}, {"type": "electric_scooter", "fusion_lon": 0.0, "bike_id": "725b0294a950f4e2a875bd3068190ff0", "is_disabled": 0, "lat": 38.93116066666666, "rental_uris": {"ios": "https://dc.lft.to/lastmile_qr_scan", "android": "https://dc.lft.to/lastmile_qr_scan"}, "is_reserved": 0, "lon": -77.0209835, "fusion_lat": 0.0, "name": "725b0294a950f4e2a875bd3068190ff0"}, {"type": "electric_scooter", "fusion_lon": 0.0, "bike_id": "ce8225d62da208f4225ea22d25f49d53", "is_disabled": 0, "lat": 38.93465116666667, "rental_uris": {"ios": "https://dc.lft.to/lastmile_qr_scan", "android": "https://dc.lft.to/lastmile_qr_scan"}, "is_reserved": 0, "lon": -77.0413655, "fusion_lat": 0.0, "name": "ce8225d62da208f4225ea22d25f49d53"}, {"type": "electric_scooter", "fusion_lon": 0.0, "bike_id": "fd7d7fe5a24035ec87187837947d7e75", "is_disabled": 0, "lat": 38.90957366666667, "rental_uris": {"ios": "https://dc.lft.to/lastmile_qr_scan", "android": "https://dc.lft.to/lastmile_qr_scan"}, "is_reserved": 0, "lon": -77.047852, "fusion_lat": 0.0, "name": "fd7d7fe5a24035ec87187837947d7e75"}, {"type": "electric_scooter", "fusion_lon": 0.0, "bike_id": "54a736c3e2c2f2b126c575087b364efb", "is_disabled": 0, "lat": 38.9010555, "rental_uris": {"ios": "https://dc.lft.to/lastmile_qr_scan", "android": "https://dc.lft.to/lastmile_qr_scan"}, "is_reserved": 0, "lon": -77.049877, "fusion_lat": 0.0, "name": "54a736c3e2c2f2b126c575087b364efb"}, {"type": "electric_scooter", "fusion_lon": 0.0, "bike_id": "bc3cc69da0343971f816d0b324f01f26", "is_disabled": 0, "lat": 38.897640833333334, "rental_uris": {"ios": "https://dc.lft.to/lastmile_qr_scan", "android": "https://dc.lft.to/lastmile_qr_scan"}, "is_reserved": 0, "lon": -77.02683333333333, "fusion_lat": 0.0, "name": "bc3cc69da0343971f816d0b324f01f26"}, {"type": "electric_scooter", "fusion_lon": 0.0, "bike_id": "683ec61c4357219a0b281e521c045c55", "is_disabled": 0, "lat": 38.91114983333333, "rental_uris": {"ios": "https://dc.lft.to/lastmile_qr_scan", "android": "https://dc.lft.to/lastmile_qr_scan"}, "is_reserved": 0, "lon": -77.00756483333333, "fusion_lat": 0.0, "name": "683ec61c4357219a0b281e521c045c55"}, {"type": "electric_scooter", "fusion_lon": 0.0, "bike_id": "75d8900a7a212de741f7752f59544fa4", "is_disabled": 0, "lat": 38.90684483333333, "rental_uris": {"ios": "https://dc.lft.to/lastmile_qr_scan", "android": "https://dc.lft.to/lastmile_qr_scan"}, "is_reserved": 0, "lon": -77.00567666666667, "fusion_lat": 0.0, "name": "75d8900a7a212de741f7752f59544fa4"}, {"type": "electric_scooter", "fusion_lon": 0.0, "bike_id": "f64170759228b43798b571dc3a5272ec", "is_disabled": 0, "lat": 38.880204, "rental_uris": {"ios": "https://dc.lft.to/lastmile_qr_scan", "android": "https://dc.lft.to/lastmile_qr_scan"}, "is_reserved": 0, "lon": -76.98074016666666, "fusion_lat": 0.0, "name": "f64170759228b43798b571dc3a5272ec"}, {"type": "electric_bike", "fusion_lon": 0.0, "bike_id": "de5ed681d670a82e9f40addb41453bcc", "is_disabled": 0, "lat": 38.8812895, "rental_uris": {"ios": "https://dc.lft.to/lastmile_qr_scan", "android": "https://dc.lft.to/lastmile_qr_scan"}, "is_reserved": 0, "lon": -77.01666983333334, "fusion_lat": 0.0, "name": "de5ed681d670a82e9f40addb41453bcc"}, {"type": "electric_scooter", "fusion_lon": 0.0, "bike_id": "3d61502c97636908f31a271979296017", "is_disabled": 0, "lat": 38.922601666666665, "rental_uris": {"ios": "https://dc.lft.to/lastmile_qr_scan", "android": "https://dc.lft.to/lastmile_qr_scan"}, "is_reserved": 0, "lon": -77.0182625, "fusion_lat": 0.0, "name": "3d61502c97636908f31a271979296017"}, {"type": "electric_scooter", "fusion_lon": 0.0, "bike_id": "0b331b7030746416307a2ee4c8f1a77a", "is_disabled": 0, "lat": 38.88398816666667, "rental_uris": {"ios": "https://dc.lft.to/lastmile_qr_scan", "android": "https://dc.lft.to/lastmile_qr_scan"}, "is_reserved": 0, "lon": -77.029453, "fusion_lat": 0.0, "name": "0b331b7030746416307a2ee4c8f1a77a"}, {"type": "electric_bike", "fusion_lon": 0.0, "bike_id": "7c91fe443123446e6b8db357eb853af9", "is_disabled": 0, "lat": 38.925661, "rental_uris": {"ios": "https://dc.lft.to/lastmile_qr_scan", "android": "https://dc.lft.to/lastmile_qr_scan"}, "is_reserved": 0, "lon": -76.95977666666667, "fusion_lat": 0.0, "name": "7c91fe443123446e6b8db357eb853af9"}, {"type": "electric_scooter", "fusion_lon": 0.0, "bike_id": "9a14ef43432cf7006a6d97623084f8b3", "is_disabled": 0, "lat": 38.910246, "rental_uris": {"ios": "https://dc.lft.to/lastmile_qr_scan", "android": "https://dc.lft.to/lastmile_qr_scan"}, "is_reserved": 0, "lon": -77.0464955, "fusion_lat": 0.0, "name": "9a14ef43432cf7006a6d97623084f8b3"}, {"type": "electric_scooter", "fusion_lon": 0.0, "bike_id": "3e6096925b4cfb7faca11b32c960b438", "is_disabled": 0, "lat": 38.88541583333333, "rental_uris": {"ios": "https://dc.lft.to/lastmile_qr_scan", "android": "https://dc.lft.to/lastmile_qr_scan"}, "is_reserved": 0, "lon": -77.0110465, "fusion_lat": 0.0, "name": "3e6096925b4cfb7faca11b32c960b438"}, {"type": "electric_scooter", "fusion_lon": 0.0, "bike_id": "1c54301b7e9e41316fd3ae66d9c49f78", "is_disabled": 0, "lat": 38.88734433333333, "rental_uris": {"ios": "https://dc.lft.to/lastmile_qr_scan", "android": "https://dc.lft.to/lastmile_qr_scan"}, "is_reserved": 0, "lon": -77.03178316666667, "fusion_lat": 0.0, "name": "1c54301b7e9e41316fd3ae66d9c49f78"}, {"type": "electric_scooter", "fusion_lon": 0.0, "bike_id": "27fe250ef74f7e476c944a4428ef820a", "is_disabled": 0, "lat": 38.92706233333333, "rental_uris": {"ios": "https://dc.lft.to/lastmile_qr_scan", "android": "https://dc.lft.to/lastmile_qr_scan"}, "is_reserved": 0, "lon": -77.03762983333333, "fusion_lat": 0.0, "name": "27fe250ef74f7e476c944a4428ef820a"}, {"type": "electric_bike", "fusion_lon": 0.0, "bike_id": "915a4c2a34c97db28b64843b0e696855", "is_disabled": 0, "lat": 38.9471815, "rental_uris": {"ios": "https://dc.lft.to/lastmile_qr_scan", "android": "https://dc.lft.to/lastmile_qr_scan"}, "is_reserved": 0, "lon": -77.02492783333334, "fusion_lat": 0.0, "name": "915a4c2a34c97db28b64843b0e696855"}, {"type": "electric_scooter", "fusion_lon": 0.0, "bike_id": "74d751ba271524ba63a248c600444333", "is_disabled": 0, "lat": 38.9072885, "rental_uris": {"ios": "https://dc.lft.to/lastmile_qr_scan", "android": "https://dc.lft.to/lastmile_qr_scan"}, "is_reserved": 0, "lon": -77.03218916666667, "fusion_lat": 0.0, "name": "74d751ba271524ba63a248c600444333"}, {"type": "electric_scooter", "fusion_lon": 0.0, "bike_id": "09d6e0b56b7e883a665098079bb03335", "is_disabled": 0, "lat": 38.89231483333333, "rental_uris": {"ios": "https://dc.lft.to/lastmile_qr_scan", "android": "https://dc.lft.to/lastmile_qr_scan"}, "is_reserved": 0, "lon": -77.002944, "fusion_lat": 0.0, "name": "09d6e0b56b7e883a665098079bb03335"}, {"type": "electric_scooter", "fusion_lon": 0.0, "bike_id": "94a33cb7d13773b67ed105574f0754a4", "is_disabled": 0, "lat": 38.904144333333335, "rental_uris": {"ios": "https://dc.lft.to/lastmile_qr_scan", "android": "https://dc.lft.to/lastmile_qr_scan"}, "is_reserved": 0, "lon": -76.973317, "fusion_lat": 0.0, "name": "94a33cb7d13773b67ed105574f0754a4"}, {"type": "electric_scooter", "fusion_lon": 0.0, "bike_id": "a69f44f65869458f529651f8eb56ebd5", "is_disabled": 0, "lat": 38.9222635, "rental_uris": {"ios": "https://dc.lft.to/lastmile_qr_scan", "android": "https://dc.lft.to/lastmile_qr_scan"}, "is_reserved": 0, "lon": -77.04717766666667, "fusion_lat": 0.0, "name": "a69f44f65869458f529651f8eb56ebd5"}, {"type": "electric_scooter", "fusion_lon": 0.0, "bike_id": "7c44132025c9c54a2fccbae663f5f3cb", "is_disabled": 0, "lat": 38.91270166666666, "rental_uris": {"ios": "https://dc.lft.to/lastmile_qr_scan", "android": "https://dc.lft.to/lastmile_qr_scan"}, "is_reserved": 0, "lon": -77.03800316666667, "fusion_lat": 0.0, "name": "7c44132025c9c54a2fccbae663f5f3cb"}, {"type": "electric_scooter", "fusion_lon": 0.0, "bike_id": "936bc6c0935d412448e77f7f47c539c3", "is_disabled": 0, "lat": 38.908473666666666, "rental_uris": {"ios": "https://dc.lft.to/lastmile_qr_scan", "android": "https://dc.lft.to/lastmile_qr_scan"}, "is_reserved": 0, "lon": -76.99683583333334, "fusion_lat": 0.0, "name": "936bc6c0935d412448e77f7f47c539c3"}, {"type": "electric_bike", "fusion_lon": 0.0, "bike_id": "98b172e9d8ca56a6977534c9c0dd0ba0", "is_disabled": 0, "lat": 38.85617716666667, "rental_uris": {"ios": "https://dc.lft.to/lastmile_qr_scan", "android": "https://dc.lft.to/lastmile_qr_scan"}, "is_reserved": 0, "lon": -77.11178983333333, "fusion_lat": 0.0, "name": "98b172e9d8ca56a6977534c9c0dd0ba0"}, {"type": "electric_scooter", "fusion_lon": 0.0, "bike_id": "46e14c86af27882b869ed6be1aa512a9", "is_disabled": 0, "lat": 38.9170055, "rental_uris": {"ios": "https://dc.lft.to/lastmile_qr_scan", "android": "https://dc.lft.to/lastmile_qr_scan"}, "is_reserved": 0, "lon": -77.03474016666667, "fusion_lat": 0.0, "name": "46e14c86af27882b869ed6be1aa512a9"}, {"type": "electric_scooter", "fusion_lon": 0.0, "bike_id": "3806da4525076d2cee3c0584a2bf5a6e", "is_disabled": 0, "lat": 38.900466333333334, "rental_uris": {"ios": "https://dc.lft.to/lastmile_qr_scan", "android": "https://dc.lft.to/lastmile_qr_scan"}, "is_reserved": 0, "lon": -77.02417016666666, "fusion_lat": 0.0, "name": "3806da4525076d2cee3c0584a2bf5a6e"}, {"type": "electric_scooter", "fusion_lon": 0.0, "bike_id": "f7ac478b49d567a68fa6aee19b264575", "is_disabled": 0, "lat": 38.90514983333333, "rental_uris": {"ios": "https://dc.lft.to/lastmile_qr_scan", "android": "https://dc.lft.to/lastmile_qr_scan"}, "is_reserved": 0, "lon": -77.029485, "fusion_lat": 0.0, "name": "f7ac478b49d567a68fa6aee19b264575"}, {"type": "electric_bike", "fusion_lon": 0.0, "bike_id": "0bb1525b788c24f614db79551392b9ce", "is_disabled": 0, "lat": 38.86233166666667, "rental_uris": {"ios": "https://dc.lft.to/lastmile_qr_scan", "android": "https://dc.lft.to/lastmile_qr_scan"}, "is_reserved": 0, "lon": -76.99586866666667, "fusion_lat": 0.0, "name": "0bb1525b788c24f614db79551392b9ce"}, {"type": "electric_scooter", "fusion_lon": 0.0, "bike_id": "1b223a0e04a766f4589a99a2b426b922", "is_disabled": 0, "lat": 38.91770616666667, "rental_uris": {"ios": "https://dc.lft.to/lastmile_qr_scan", "android": "https://dc.lft.to/lastmile_qr_scan"}, "is_reserved": 0, "lon": -77.02344416666666, "fusion_lat": 0.0, "name": "1b223a0e04a766f4589a99a2b426b922"}, {"type": "electric_scooter", "fusion_lon": 0.0, "bike_id": "cc828b2f5d80b30e409180c97e56557d", "is_disabled": 0, "lat": 38.92252916666666, "rental_uris": {"ios": "https://dc.lft.to/lastmile_qr_scan", "android": "https://dc.lft.to/lastmile_qr_scan"}, "is_reserved": 0, "lon": -77.073506, "fusion_lat": 0.0, "name": "cc828b2f5d80b30e409180c97e56557d"}, {"type": "electric_scooter", "fusion_lon": 0.0, "bike_id": "2b1b546e4a9fd4188a4f300b8f816e9d", "is_disabled": 0, "lat": 38.919566, "rental_uris": {"ios": "https://dc.lft.to/lastmile_qr_scan", "android": "https://dc.lft.to/lastmile_qr_scan"}, "is_reserved": 0, "lon": -77.02386616666666, "fusion_lat": 0.0, "name": "2b1b546e4a9fd4188a4f300b8f816e9d"}, {"type": "electric_scooter", "fusion_lon": 0.0, "bike_id": "a5dcb84a6eb16d82494026f23ca1fb60", "is_disabled": 0, "lat": 38.87670516666667, "rental_uris": {"ios": "https://dc.lft.to/lastmile_qr_scan", "android": "https://dc.lft.to/lastmile_qr_scan"}, "is_reserved": 0, "lon": -77.0093445, "fusion_lat": 0.0, "name": "a5dcb84a6eb16d82494026f23ca1fb60"}, {"type": "electric_scooter", "fusion_lon": 0.0, "bike_id": "ed402921913d1946399880622bbfd5dd", "is_disabled": 0, "lat": 38.9170595, "rental_uris": {"ios": "https://dc.lft.to/lastmile_qr_scan", "android": "https://dc.lft.to/lastmile_qr_scan"}, "is_reserved": 0, "lon": -77.02390316666667, "fusion_lat": 0.0, "name": "ed402921913d1946399880622bbfd5dd"}, {"type": "electric_bike", "fusion_lon": 0.0, "bike_id": "1d7c5b2211fcf6662006ccfdde2b87e1", "is_disabled": 0, "lat": 38.922040333333335, "rental_uris": {"ios": "https://dc.lft.to/lastmile_qr_scan", "android": "https://dc.lft.to/lastmile_qr_scan"}, "is_reserved": 0, "lon": -77.08185916666666, "fusion_lat": 0.0, "name": "1d7c5b2211fcf6662006ccfdde2b87e1"}, {"type": "electric_scooter", "fusion_lon": 0.0, "bike_id": "9247580b2ef5c83d78c371094e5a6df5", "is_disabled": 0, "lat": 38.877821833333336, "rental_uris": {"ios": "https://dc.lft.to/lastmile_qr_scan", "android": "https://dc.lft.to/lastmile_qr_scan"}, "is_reserved": 0, "lon": -76.994107, "fusion_lat": 0.0, "name": "9247580b2ef5c83d78c371094e5a6df5"}, {"type": "electric_scooter", "fusion_lon": 0.0, "bike_id": "fe318987dd5970be070c09bacd170651", "is_disabled": 0, "lat": 38.920493666666665, "rental_uris": {"ios": "https://dc.lft.to/lastmile_qr_scan", "android": "https://dc.lft.to/lastmile_qr_scan"}, "is_reserved": 0, "lon": -77.04189466666666, "fusion_lat": 0.0, "name": "fe318987dd5970be070c09bacd170651"}, {"type": "electric_scooter", "fusion_lon": 0.0, "bike_id": "040426d339292a2334a463b64f6b4295", "is_disabled": 0, "lat": 38.941938, "rental_uris": {"ios": "https://dc.lft.to/lastmile_qr_scan", "android": "https://dc.lft.to/lastmile_qr_scan"}, "is_reserved": 0, "lon": -77.02594783333333, "fusion_lat": 0.0, "name": "040426d339292a2334a463b64f6b4295"}, {"type": "electric_scooter", "fusion_lon": 0.0, "bike_id": "7c08a8ae60a4115ae3ff4379a584d705", "is_disabled": 0, "lat": 38.900524, "rental_uris": {"ios": "https://dc.lft.to/lastmile_qr_scan", "android": "https://dc.lft.to/lastmile_qr_scan"}, "is_reserved": 0, "lon": -77.048288, "fusion_lat": 0.0, "name": "7c08a8ae60a4115ae3ff4379a584d705"}, {"type": "electric_scooter", "fusion_lon": 0.0, "bike_id": "577311351eaf48231c0c0088f4c1819c", "is_disabled": 0, "lat": 38.895014333333336, "rental_uris": {"ios": "https://dc.lft.to/lastmile_qr_scan", "android": "https://dc.lft.to/lastmile_qr_scan"}, "is_reserved": 0, "lon": -77.0094675, "fusion_lat": 0.0, "name": "577311351eaf48231c0c0088f4c1819c"}, {"type": "electric_scooter", "fusion_lon": 0.0, "bike_id": "c57d8fc826e1a00c71f9fa1027eac91d", "is_disabled": 0, "lat": 38.92769066666666, "rental_uris": {"ios": "https://dc.lft.to/lastmile_qr_scan", "android": "https://dc.lft.to/lastmile_qr_scan"}, "is_reserved": 0, "lon": -77.0282995, "fusion_lat": 0.0, "name": "c57d8fc826e1a00c71f9fa1027eac91d"}, {"type": "electric_scooter", "fusion_lon": 0.0, "bike_id": "2a3cf7db10089032e187ea3c6721a73c", "is_disabled": 0, "lat": 38.9259355, "rental_uris": {"ios": "https://dc.lft.to/lastmile_qr_scan", "android": "https://dc.lft.to/lastmile_qr_scan"}, "is_reserved": 0, "lon": -77.0258375, "fusion_lat": 0.0, "name": "2a3cf7db10089032e187ea3c6721a73c"}, {"type": "electric_scooter", "fusion_lon": 0.0, "bike_id": "b370b86c431f71544f3709224cea9bb3", "is_disabled": 0, "lat": 38.9097305, "rental_uris": {"ios": "https://dc.lft.to/lastmile_qr_scan", "android": "https://dc.lft.to/lastmile_qr_scan"}, "is_reserved": 0, "lon": -77.038698, "fusion_lat": 0.0, "name": "b370b86c431f71544f3709224cea9bb3"}, {"type": "electric_scooter", "fusion_lon": 0.0, "bike_id": "00839dff46b559239933ad6db5538ba6", "is_disabled": 0, "lat": 38.9342675, "rental_uris": {"ios": "https://dc.lft.to/lastmile_qr_scan", "android": "https://dc.lft.to/lastmile_qr_scan"}, "is_reserved": 0, "lon": -77.04003316666666, "fusion_lat": 0.0, "name": "00839dff46b559239933ad6db5538ba6"}, {"type": "electric_scooter", "fusion_lon": 0.0, "bike_id": "6284cdb6f071cb603e6dd55538499c66", "is_disabled": 0, "lat": 38.93857366666667, "rental_uris": {"ios": "https://dc.lft.to/lastmile_qr_scan", "android": "https://dc.lft.to/lastmile_qr_scan"}, "is_reserved": 0, "lon": -77.03395716666667, "fusion_lat": 0.0, "name": "6284cdb6f071cb603e6dd55538499c66"}, {"type": "electric_scooter", "fusion_lon": 0.0, "bike_id": "0b4f9ab2a0253a473add562258716c6f", "is_disabled": 0, "lat": 38.90041, "rental_uris": {"ios": "https://dc.lft.to/lastmile_qr_scan", "android": "https://dc.lft.to/lastmile_qr_scan"}, "is_reserved": 0, "lon": -76.99658566666666, "fusion_lat": 0.0, "name": "0b4f9ab2a0253a473add562258716c6f"}, {"type": "electric_scooter", "fusion_lon": 0.0, "bike_id": "e1abea7afbe2f31e5695934b8b74afa3", "is_disabled": 0, "lat": 38.93541033333333, "rental_uris": {"ios": "https://dc.lft.to/lastmile_qr_scan", "android": "https://dc.lft.to/lastmile_qr_scan"}, "is_reserved": 0, "lon": -77.03423166666667, "fusion_lat": 0.0, "name": "e1abea7afbe2f31e5695934b8b74afa3"}, {"type": "electric_scooter", "fusion_lon": 0.0, "bike_id": "b241d0f37c5001ddcf9849adf5a643ae", "is_disabled": 0, "lat": 38.92537033333333, "rental_uris": {"ios": "https://dc.lft.to/lastmile_qr_scan", "android": "https://dc.lft.to/lastmile_qr_scan"}, "is_reserved": 0, "lon": -77.038401, "fusion_lat": 0.0, "name": "b241d0f37c5001ddcf9849adf5a643ae"}, {"type": "electric_scooter", "fusion_lon": 0.0, "bike_id": "9c6e0dd2edb21418b7dca1fa03dac088", "is_disabled": 0, "lat": 38.919647499999996, "rental_uris": {"ios": "https://dc.lft.to/lastmile_qr_scan", "android": "https://dc.lft.to/lastmile_qr_scan"}, "is_reserved": 0, "lon": -77.04859183333333, "fusion_lat": 0.0, "name": "9c6e0dd2edb21418b7dca1fa03dac088"}, {"type": "electric_scooter", "fusion_lon": 0.0, "bike_id": "b9550d5aeb15613592f5cd6467928a5b", "is_disabled": 0, "lat": 38.89270783333333, "rental_uris": {"ios": "https://dc.lft.to/lastmile_qr_scan", "android": "https://dc.lft.to/lastmile_qr_scan"}, "is_reserved": 0, "lon": -77.04209983333334, "fusion_lat": 0.0, "name": "b9550d5aeb15613592f5cd6467928a5b"}, {"type": "electric_scooter", "fusion_lon": 0.0, "bike_id": "1177db76411d1b67907d01b97268797a", "is_disabled": 0, "lat": 38.89326766666667, "rental_uris": {"ios": "https://dc.lft.to/lastmile_qr_scan", "android": "https://dc.lft.to/lastmile_qr_scan"}, "is_reserved": 0, "lon": -77.031614, "fusion_lat": 0.0, "name": "1177db76411d1b67907d01b97268797a"}, {"type": "electric_scooter", "fusion_lon": 0.0, "bike_id": "bffcd869d7ba04abb62471237988d547", "is_disabled": 0, "lat": 38.90968016666667, "rental_uris": {"ios": "https://dc.lft.to/lastmile_qr_scan", "android": "https://dc.lft.to/lastmile_qr_scan"}, "is_reserved": 0, "lon": -77.0408995, "fusion_lat": 0.0, "name": "bffcd869d7ba04abb62471237988d547"}, {"type": "electric_scooter", "fusion_lon": 0.0, "bike_id": "16d9d2da3ed988921c92254d4638fc94", "is_disabled": 0, "lat": 38.92803683333333, "rental_uris": {"ios": "https://dc.lft.to/lastmile_qr_scan", "android": "https://dc.lft.to/lastmile_qr_scan"}, "is_reserved": 0, "lon": -77.05432233333333, "fusion_lat": 0.0, "name": "16d9d2da3ed988921c92254d4638fc94"}, {"type": "electric_scooter", "fusion_lon": 0.0, "bike_id": "685bbd8630cbd6398bf3885bedc8ee53", "is_disabled": 0, "lat": 38.901956166666665, "rental_uris": {"ios": "https://dc.lft.to/lastmile_qr_scan", "android": "https://dc.lft.to/lastmile_qr_scan"}, "is_reserved": 0, "lon": -77.02192016666666, "fusion_lat": 0.0, "name": "685bbd8630cbd6398bf3885bedc8ee53"}, {"type": "electric_scooter", "fusion_lon": 0.0, "bike_id": "d41174ae6c45a44a0486c8454132b028", "is_disabled": 0, "lat": 38.90032033333333, "rental_uris": {"ios": "https://dc.lft.to/lastmile_qr_scan", "android": "https://dc.lft.to/lastmile_qr_scan"}, "is_reserved": 0, "lon": -77.00208166666667, "fusion_lat": 0.0, "name": "d41174ae6c45a44a0486c8454132b028"}, {"type": "electric_scooter", "fusion_lon": 0.0, "bike_id": "dd2f93817fea00ca54412f04f0e60861", "is_disabled": 0, "lat": 38.89764916666667, "rental_uris": {"ios": "https://dc.lft.to/lastmile_qr_scan", "android": "https://dc.lft.to/lastmile_qr_scan"}, "is_reserved": 0, "lon": -76.92583166666667, "fusion_lat": 0.0, "name": "dd2f93817fea00ca54412f04f0e60861"}, {"type": "electric_scooter", "fusion_lon": 0.0, "bike_id": "14ee18376f31df0c74113c92d3e7464f", "is_disabled": 0, "lat": 38.923329333333335, "rental_uris": {"ios": "https://dc.lft.to/lastmile_qr_scan", "android": "https://dc.lft.to/lastmile_qr_scan"}, "is_reserved": 0, "lon": -77.0415025, "fusion_lat": 0.0, "name": "14ee18376f31df0c74113c92d3e7464f"}, {"type": "electric_scooter", "fusion_lon": 0.0, "bike_id": "7d4438f62a7c8e1d62d4e4577a97f011", "is_disabled": 0, "lat": 38.89684883333334, "rental_uris": {"ios": "https://dc.lft.to/lastmile_qr_scan", "android": "https://dc.lft.to/lastmile_qr_scan"}, "is_reserved": 0, "lon": -77.04328733333334, "fusion_lat": 0.0, "name": "7d4438f62a7c8e1d62d4e4577a97f011"}, {"type": "electric_scooter", "fusion_lon": 0.0, "bike_id": "c1505dc47e7e45691b924f5711c51595", "is_disabled": 0, "lat": 38.9045425, "rental_uris": {"ios": "https://dc.lft.to/lastmile_qr_scan", "android": "https://dc.lft.to/lastmile_qr_scan"}, "is_reserved": 0, "lon": -76.98253483333333, "fusion_lat": 0.0, "name": "c1505dc47e7e45691b924f5711c51595"}, {"type": "electric_scooter", "fusion_lon": 0.0, "bike_id": "b013fa6a11acda12f6afda428edac631", "is_disabled": 0, "lat": 38.909710833333335, "rental_uris": {"ios": "https://dc.lft.to/lastmile_qr_scan", "android": "https://dc.lft.to/lastmile_qr_scan"}, "is_reserved": 0, "lon": -77.03363483333334, "fusion_lat": 0.0, "name": "b013fa6a11acda12f6afda428edac631"}, {"type": "electric_scooter", "fusion_lon": 0.0, "bike_id": "82bd2dec5833d5f016ee09e673ea8eed", "is_disabled": 0, "lat": 38.91565933333333, "rental_uris": {"ios": "https://dc.lft.to/lastmile_qr_scan", "android": "https://dc.lft.to/lastmile_qr_scan"}, "is_reserved": 0, "lon": -77.02008416666666, "fusion_lat": 0.0, "name": "82bd2dec5833d5f016ee09e673ea8eed"}, {"type": "electric_scooter", "fusion_lon": 0.0, "bike_id": "1d37db8146f8f7b021a3f27d63cf5aac", "is_disabled": 0, "lat": 38.898086166666666, "rental_uris": {"ios": "https://dc.lft.to/lastmile_qr_scan", "android": "https://dc.lft.to/lastmile_qr_scan"}, "is_reserved": 0, "lon": -76.97955466666667, "fusion_lat": 0.0, "name": "1d37db8146f8f7b021a3f27d63cf5aac"}, {"type": "electric_scooter", "fusion_lon": 0.0, "bike_id": "8b443800bb52ce3b3df8b1eafcd15dd4", "is_disabled": 0, "lat": 38.9047365, "rental_uris": {"ios": "https://dc.lft.to/lastmile_qr_scan", "android": "https://dc.lft.to/lastmile_qr_scan"}, "is_reserved": 0, "lon": -77.0485215, "fusion_lat": 0.0, "name": "8b443800bb52ce3b3df8b1eafcd15dd4"}, {"type": "electric_scooter", "fusion_lon": 0.0, "bike_id": "5c1cdecdb092e478ce7140e0e2c85f25", "is_disabled": 0, "lat": 38.89247066666667, "rental_uris": {"ios": "https://dc.lft.to/lastmile_qr_scan", "android": "https://dc.lft.to/lastmile_qr_scan"}, "is_reserved": 0, "lon": -77.03345883333333, "fusion_lat": 0.0, "name": "5c1cdecdb092e478ce7140e0e2c85f25"}, {"type": "electric_scooter", "fusion_lon": 0.0, "bike_id": "f05ef2ba0610a0c25212cdddedeaacd1", "is_disabled": 0, "lat": 38.904023, "rental_uris": {"ios": "https://dc.lft.to/lastmile_qr_scan", "android": "https://dc.lft.to/lastmile_qr_scan"}, "is_reserved": 0, "lon": -77.0295385, "fusion_lat": 0.0, "name": "f05ef2ba0610a0c25212cdddedeaacd1"}, {"type": "electric_scooter", "fusion_lon": 0.0, "bike_id": "757407ae2e19a1f28371c2c7b1834f2d", "is_disabled": 0, "lat": 38.920308666666664, "rental_uris": {"ios": "https://dc.lft.to/lastmile_qr_scan", "android": "https://dc.lft.to/lastmile_qr_scan"}, "is_reserved": 0, "lon": -77.00289316666667, "fusion_lat": 0.0, "name": "757407ae2e19a1f28371c2c7b1834f2d"}, {"type": "electric_scooter", "fusion_lon": 0.0, "bike_id": "0e1079bd874eb34309fd98ea1b68cdd0", "is_disabled": 0, "lat": 38.876633166666664, "rental_uris": {"ios": "https://dc.lft.to/lastmile_qr_scan", "android": "https://dc.lft.to/lastmile_qr_scan"}, "is_reserved": 0, "lon": -77.00944183333333, "fusion_lat": 0.0, "name": "0e1079bd874eb34309fd98ea1b68cdd0"}, {"type": "electric_scooter", "fusion_lon": 0.0, "bike_id": "fe598f0bcd991b5aa2d24b049e69263c", "is_disabled": 0, "lat": 38.88369216666667, "rental_uris": {"ios": "https://dc.lft.to/lastmile_qr_scan", "android": "https://dc.lft.to/lastmile_qr_scan"}, "is_reserved": 0, "lon": -76.95708316666666, "fusion_lat": 0.0, "name": "fe598f0bcd991b5aa2d24b049e69263c"}, {"type": "electric_scooter", "fusion_lon": 0.0, "bike_id": "d58e5810c5273b0ab9713aa17a552a46", "is_disabled": 0, "lat": 38.90909833333333, "rental_uris": {"ios": "https://dc.lft.to/lastmile_qr_scan", "android": "https://dc.lft.to/lastmile_qr_scan"}, "is_reserved": 0, "lon": -76.9986315, "fusion_lat": 0.0, "name": "d58e5810c5273b0ab9713aa17a552a46"}, {"type": "electric_scooter", "fusion_lon": 0.0, "bike_id": "b027510df082b87c34043d58e1111ee3", "is_disabled": 0, "lat": 38.873692, "rental_uris": {"ios": "https://dc.lft.to/lastmile_qr_scan", "android": "https://dc.lft.to/lastmile_qr_scan"}, "is_reserved": 0, "lon": -77.00144083333333, "fusion_lat": 0.0, "name": "b027510df082b87c34043d58e1111ee3"}, {"type": "electric_scooter", "fusion_lon": 0.0, "bike_id": "cfbbacbebb8622a3b06c818a32f0ce82", "is_disabled": 0, "lat": 38.8998485, "rental_uris": {"ios": "https://dc.lft.to/lastmile_qr_scan", "android": "https://dc.lft.to/lastmile_qr_scan"}, "is_reserved": 0, "lon": -77.02101366666666, "fusion_lat": 0.0, "name": "cfbbacbebb8622a3b06c818a32f0ce82"}, {"type": "electric_scooter", "fusion_lon": 0.0, "bike_id": "752e839913d261eec31c551c4b554282", "is_disabled": 0, "lat": 38.908849000000004, "rental_uris": {"ios": "https://dc.lft.to/lastmile_qr_scan", "android": "https://dc.lft.to/lastmile_qr_scan"}, "is_reserved": 0, "lon": -77.04279933333333, "fusion_lat": 0.0, "name": "752e839913d261eec31c551c4b554282"}, {"type": "electric_scooter", "fusion_lon": 0.0, "bike_id": "3b8fce1301684317d613aa79e7ee849b", "is_disabled": 0, "lat": 38.910049666666666, "rental_uris": {"ios": "https://dc.lft.to/lastmile_qr_scan", "android": "https://dc.lft.to/lastmile_qr_scan"}, "is_reserved": 0, "lon": -77.04008283333333, "fusion_lat": 0.0, "name": "3b8fce1301684317d613aa79e7ee849b"}, {"type": "electric_scooter", "fusion_lon": 0.0, "bike_id": "4f71e1087fd82d41e2d421b82b0b5c43", "is_disabled": 0, "lat": 38.8737705, "rental_uris": {"ios": "https://dc.lft.to/lastmile_qr_scan", "android": "https://dc.lft.to/lastmile_qr_scan"}, "is_reserved": 0, "lon": -77.00140316666666, "fusion_lat": 0.0, "name": "4f71e1087fd82d41e2d421b82b0b5c43"}, {"type": "electric_bike", "fusion_lon": 0.0, "bike_id": "546f963152608b14c6becb05dd397fe4", "is_disabled": 0, "lat": 38.941548, "rental_uris": {"ios": "https://dc.lft.to/lastmile_qr_scan", "android": "https://dc.lft.to/lastmile_qr_scan"}, "is_reserved": 0, "lon": -77.00200483333333, "fusion_lat": 0.0, "name": "546f963152608b14c6becb05dd397fe4"}, {"type": "electric_scooter", "fusion_lon": 0.0, "bike_id": "3c4a4b5a563849f4cb0e604a281428e9", "is_disabled": 0, "lat": 38.908321666666666, "rental_uris": {"ios": "https://dc.lft.to/lastmile_qr_scan", "android": "https://dc.lft.to/lastmile_qr_scan"}, "is_reserved": 0, "lon": -77.04361133333333, "fusion_lat": 0.0, "name": "3c4a4b5a563849f4cb0e604a281428e9"}, {"type": "electric_scooter", "fusion_lon": 0.0, "bike_id": "f2eaa8a9b74516fd2b4cbe2f9be447d1", "is_disabled": 0, "lat": 38.901982333333336, "rental_uris": {"ios": "https://dc.lft.to/lastmile_qr_scan", "android": "https://dc.lft.to/lastmile_qr_scan"}, "is_reserved": 0, "lon": -76.92637966666666, "fusion_lat": 0.0, "name": "f2eaa8a9b74516fd2b4cbe2f9be447d1"}, {"type": "electric_scooter", "fusion_lon": 0.0, "bike_id": "4ae1455a22b5935b9672985643164462", "is_disabled": 0, "lat": 38.91620733333333, "rental_uris": {"ios": "https://dc.lft.to/lastmile_qr_scan", "android": "https://dc.lft.to/lastmile_qr_scan"}, "is_reserved": 0, "lon": -77.042652, "fusion_lat": 0.0, "name": "4ae1455a22b5935b9672985643164462"}, {"type": "electric_scooter", "fusion_lon": 0.0, "bike_id": "7e94ee9b59881bf33f7837707ea95bc5", "is_disabled": 0, "lat": 38.92472733333334, "rental_uris": {"ios": "https://dc.lft.to/lastmile_qr_scan", "android": "https://dc.lft.to/lastmile_qr_scan"}, "is_reserved": 0, "lon": -77.02218433333333, "fusion_lat": 0.0, "name": "7e94ee9b59881bf33f7837707ea95bc5"}, {"type": "electric_scooter", "fusion_lon": 0.0, "bike_id": "348b5270b17f3daf6eb63687547742ed", "is_disabled": 0, "lat": 38.907174833333336, "rental_uris": {"ios": "https://dc.lft.to/lastmile_qr_scan", "android": "https://dc.lft.to/lastmile_qr_scan"}, "is_reserved": 0, "lon": -77.041518, "fusion_lat": 0.0, "name": "348b5270b17f3daf6eb63687547742ed"}, {"type": "electric_scooter", "fusion_lon": 0.0, "bike_id": "81eee9cb6b3be6544dfb499a8b6f3672", "is_disabled": 0, "lat": 38.9039075, "rental_uris": {"ios": "https://dc.lft.to/lastmile_qr_scan", "android": "https://dc.lft.to/lastmile_qr_scan"}, "is_reserved": 0, "lon": -76.98491966666667, "fusion_lat": 0.0, "name": "81eee9cb6b3be6544dfb499a8b6f3672"}, {"type": "electric_scooter", "fusion_lon": 0.0, "bike_id": "12440672fe9dbf0cbf6fc16c6183a8b9", "is_disabled": 0, "lat": 38.91554583333333, "rental_uris": {"ios": "https://dc.lft.to/lastmile_qr_scan", "android": "https://dc.lft.to/lastmile_qr_scan"}, "is_reserved": 0, "lon": -77.03245916666667, "fusion_lat": 0.0, "name": "12440672fe9dbf0cbf6fc16c6183a8b9"}, {"type": "electric_scooter", "fusion_lon": 0.0, "bike_id": "8fa634cfd22bc1cba3cd473804115317", "is_disabled": 0, "lat": 38.86942716666667, "rental_uris": {"ios": "https://dc.lft.to/lastmile_qr_scan", "android": "https://dc.lft.to/lastmile_qr_scan"}, "is_reserved": 0, "lon": -77.01382533333333, "fusion_lat": 0.0, "name": "8fa634cfd22bc1cba3cd473804115317"}, {"type": "electric_scooter", "fusion_lon": 0.0, "bike_id": "c0d970718493c50fcb51d464fd63716b", "is_disabled": 0, "lat": 38.864695, "rental_uris": {"ios": "https://dc.lft.to/lastmile_qr_scan", "android": "https://dc.lft.to/lastmile_qr_scan"}, "is_reserved": 0, "lon": -76.98240366666667, "fusion_lat": 0.0, "name": "c0d970718493c50fcb51d464fd63716b"}, {"type": "electric_bike", "fusion_lon": 0.0, "bike_id": "813773d48d12a0474d45ec31866f28b2", "is_disabled": 0, "lat": 38.92279516666667, "rental_uris": {"ios": "https://dc.lft.to/lastmile_qr_scan", "android": "https://dc.lft.to/lastmile_qr_scan"}, "is_reserved": 0, "lon": -76.99755833333333, "fusion_lat": 0.0, "name": "813773d48d12a0474d45ec31866f28b2"}, {"type": "electric_scooter", "fusion_lon": 0.0, "bike_id": "a9a499457c363f1f62813018b68cb054", "is_disabled": 0, "lat": 38.92094816666667, "rental_uris": {"ios": "https://dc.lft.to/lastmile_qr_scan", "android": "https://dc.lft.to/lastmile_qr_scan"}, "is_reserved": 0, "lon": -77.04663733333334, "fusion_lat": 0.0, "name": "a9a499457c363f1f62813018b68cb054"}, {"type": "electric_scooter", "fusion_lon": 0.0, "bike_id": "ebe8eb665b6d76adf00aefee0a707959", "is_disabled": 0, "lat": 38.918329666666665, "rental_uris": {"ios": "https://dc.lft.to/lastmile_qr_scan", "android": "https://dc.lft.to/lastmile_qr_scan"}, "is_reserved": 0, "lon": -77.01789366666667, "fusion_lat": 0.0, "name": "ebe8eb665b6d76adf00aefee0a707959"}, {"type": "electric_scooter", "fusion_lon": 0.0, "bike_id": "993246e56cb52bcdb06165595c005dd0", "is_disabled": 0, "lat": 38.91778766666667, "rental_uris": {"ios": "https://dc.lft.to/lastmile_qr_scan", "android": "https://dc.lft.to/lastmile_qr_scan"}, "is_reserved": 0, "lon": -77.02309583333333, "fusion_lat": 0.0, "name": "993246e56cb52bcdb06165595c005dd0"}, {"type": "electric_scooter", "fusion_lon": 0.0, "bike_id": "cdaa7b0f4ffb100dfe8b22f2980f5b7b", "is_disabled": 0, "lat": 38.8960995, "rental_uris": {"ios": "https://dc.lft.to/lastmile_qr_scan", "android": "https://dc.lft.to/lastmile_qr_scan"}, "is_reserved": 0, "lon": -76.98097116666666, "fusion_lat": 0.0, "name": "cdaa7b0f4ffb100dfe8b22f2980f5b7b"}, {"type": "electric_scooter", "fusion_lon": 0.0, "bike_id": "962e62fcc393394f5e3e31cb51408ee9", "is_disabled": 0, "lat": 38.912667666666664, "rental_uris": {"ios": "https://dc.lft.to/lastmile_qr_scan", "android": "https://dc.lft.to/lastmile_qr_scan"}, "is_reserved": 0, "lon": -77.02216483333333, "fusion_lat": 0.0, "name": "962e62fcc393394f5e3e31cb51408ee9"}, {"type": "electric_scooter", "fusion_lon": 0.0, "bike_id": "bea10c10db7e678c783a732afb31af07", "is_disabled": 0, "lat": 38.905637166666665, "rental_uris": {"ios": "https://dc.lft.to/lastmile_qr_scan", "android": "https://dc.lft.to/lastmile_qr_scan"}, "is_reserved": 0, "lon": -77.007058, "fusion_lat": 0.0, "name": "bea10c10db7e678c783a732afb31af07"}, {"type": "electric_bike", "fusion_lon": 0.0, "bike_id": "d3b9a745ccc9579cece2cf9f08a1775b", "is_disabled": 0, "lat": 38.9575265, "rental_uris": {"ios": "https://dc.lft.to/lastmile_qr_scan", "android": "https://dc.lft.to/lastmile_qr_scan"}, "is_reserved": 0, "lon": -76.98026516666667, "fusion_lat": 0.0, "name": "d3b9a745ccc9579cece2cf9f08a1775b"}, {"type": "electric_scooter", "fusion_lon": 0.0, "bike_id": "d85ff27945db01436d3dd94197c830ae", "is_disabled": 0, "lat": 38.9225365, "rental_uris": {"ios": "https://dc.lft.to/lastmile_qr_scan", "android": "https://dc.lft.to/lastmile_qr_scan"}, "is_reserved": 0, "lon": -77.038947, "fusion_lat": 0.0, "name": "d85ff27945db01436d3dd94197c830ae"}, {"type": "electric_scooter", "fusion_lon": 0.0, "bike_id": "29046b7c633ecb25671a4cf97be6bd39", "is_disabled": 0, "lat": 38.933564833333335, "rental_uris": {"ios": "https://dc.lft.to/lastmile_qr_scan", "android": "https://dc.lft.to/lastmile_qr_scan"}, "is_reserved": 0, "lon": -77.03662333333334, "fusion_lat": 0.0, "name": "29046b7c633ecb25671a4cf97be6bd39"}, {"type": "electric_scooter", "fusion_lon": 0.0, "bike_id": "81b559f36cfca1b50a2f3c8354e4620a", "is_disabled": 0, "lat": 38.91693166666667, "rental_uris": {"ios": "https://dc.lft.to/lastmile_qr_scan", "android": "https://dc.lft.to/lastmile_qr_scan"}, "is_reserved": 0, "lon": -77.034743, "fusion_lat": 0.0, "name": "81b559f36cfca1b50a2f3c8354e4620a"}, {"type": "electric_scooter", "fusion_lon": 0.0, "bike_id": "4fbaeb33db50b7891a96a94c00adad48", "is_disabled": 0, "lat": 38.91547033333333, "rental_uris": {"ios": "https://dc.lft.to/lastmile_qr_scan", "android": "https://dc.lft.to/lastmile_qr_scan"}, "is_reserved": 0, "lon": -77.0385405, "fusion_lat": 0.0, "name": "4fbaeb33db50b7891a96a94c00adad48"}, {"type": "electric_scooter", "fusion_lon": 0.0, "bike_id": "00245088d61c284a256aec267a485256", "is_disabled": 0, "lat": 38.8971765, "rental_uris": {"ios": "https://dc.lft.to/lastmile_qr_scan", "android": "https://dc.lft.to/lastmile_qr_scan"}, "is_reserved": 0, "lon": -77.02506266666667, "fusion_lat": 0.0, "name": "00245088d61c284a256aec267a485256"}, {"type": "electric_scooter", "fusion_lon": 0.0, "bike_id": "3f6e394161d235e64472c5047c38e1e1", "is_disabled": 0, "lat": 38.92515733333333, "rental_uris": {"ios": "https://dc.lft.to/lastmile_qr_scan", "android": "https://dc.lft.to/lastmile_qr_scan"}, "is_reserved": 0, "lon": -77.022567, "fusion_lat": 0.0, "name": "3f6e394161d235e64472c5047c38e1e1"}, {"type": "electric_scooter", "fusion_lon": 0.0, "bike_id": "303a156d1241db1a7ad5438c1e3cfad9", "is_disabled": 0, "lat": 38.915654, "rental_uris": {"ios": "https://dc.lft.to/lastmile_qr_scan", "android": "https://dc.lft.to/lastmile_qr_scan"}, "is_reserved": 0, "lon": -77.03316383333333, "fusion_lat": 0.0, "name": "303a156d1241db1a7ad5438c1e3cfad9"}, {"type": "electric_scooter", "fusion_lon": 0.0, "bike_id": "056c853342698b84ae0b6ae015bc8249", "is_disabled": 0, "lat": 38.8922215, "rental_uris": {"ios": "https://dc.lft.to/lastmile_qr_scan", "android": "https://dc.lft.to/lastmile_qr_scan"}, "is_reserved": 0, "lon": -77.04863933333333, "fusion_lat": 0.0, "name": "056c853342698b84ae0b6ae015bc8249"}, {"type": "electric_scooter", "fusion_lon": 0.0, "bike_id": "e56132827830876f1d2e46ce810994a1", "is_disabled": 0, "lat": 38.870855, "rental_uris": {"ios": "https://dc.lft.to/lastmile_qr_scan", "android": "https://dc.lft.to/lastmile_qr_scan"}, "is_reserved": 0, "lon": -76.9656925, "fusion_lat": 0.0, "name": "e56132827830876f1d2e46ce810994a1"}, {"type": "electric_scooter", "fusion_lon": 0.0, "bike_id": "f56ddfe919e6bd15bf8e27996f334ca7", "is_disabled": 0, "lat": 38.8755055, "rental_uris": {"ios": "https://dc.lft.to/lastmile_qr_scan", "android": "https://dc.lft.to/lastmile_qr_scan"}, "is_reserved": 0, "lon": -76.96491433333334, "fusion_lat": 0.0, "name": "f56ddfe919e6bd15bf8e27996f334ca7"}, {"type": "electric_scooter", "fusion_lon": 0.0, "bike_id": "90fe63dd2e08091c16ad517cb2350755", "is_disabled": 0, "lat": 38.914253333333335, "rental_uris": {"ios": "https://dc.lft.to/lastmile_qr_scan", "android": "https://dc.lft.to/lastmile_qr_scan"}, "is_reserved": 0, "lon": -77.03824933333334, "fusion_lat": 0.0, "name": "90fe63dd2e08091c16ad517cb2350755"}, {"type": "electric_scooter", "fusion_lon": 0.0, "bike_id": "506646fa0158a89c08c12dbb769e14aa", "is_disabled": 0, "lat": 38.8926495, "rental_uris": {"ios": "https://dc.lft.to/lastmile_qr_scan", "android": "https://dc.lft.to/lastmile_qr_scan"}, "is_reserved": 0, "lon": -77.04203916666667, "fusion_lat": 0.0, "name": "506646fa0158a89c08c12dbb769e14aa"}, {"type": "electric_scooter", "fusion_lon": 0.0, "bike_id": "b8aecc31fd2bcbe058183a752895adbe", "is_disabled": 0, "lat": 38.91823633333333, "rental_uris": {"ios": "https://dc.lft.to/lastmile_qr_scan", "android": "https://dc.lft.to/lastmile_qr_scan"}, "is_reserved": 0, "lon": -77.03451466666667, "fusion_lat": 0.0, "name": "b8aecc31fd2bcbe058183a752895adbe"}, {"type": "electric_scooter", "fusion_lon": 0.0, "bike_id": "ab69fb4db9c4df0c1af53287d87c3f75", "is_disabled": 0, "lat": 38.91409516666667, "rental_uris": {"ios": "https://dc.lft.to/lastmile_qr_scan", "android": "https://dc.lft.to/lastmile_qr_scan"}, "is_reserved": 0, "lon": -77.04499283333334, "fusion_lat": 0.0, "name": "ab69fb4db9c4df0c1af53287d87c3f75"}, {"type": "electric_bike", "fusion_lon": 0.0, "bike_id": "02ad0399d6eecd7aa5fb8dae34b79a57", "is_disabled": 0, "lat": 38.94507933333333, "rental_uris": {"ios": "https://dc.lft.to/lastmile_qr_scan", "android": "https://dc.lft.to/lastmile_qr_scan"}, "is_reserved": 0, "lon": -77.00674616666667, "fusion_lat": 0.0, "name": "02ad0399d6eecd7aa5fb8dae34b79a57"}, {"type": "electric_scooter", "fusion_lon": 0.0, "bike_id": "f46c20d65001eca74d45ca6b97126864", "is_disabled": 0, "lat": 38.914426666666664, "rental_uris": {"ios": "https://dc.lft.to/lastmile_qr_scan", "android": "https://dc.lft.to/lastmile_qr_scan"}, "is_reserved": 0, "lon": -77.04180616666666, "fusion_lat": 0.0, "name": "f46c20d65001eca74d45ca6b97126864"}, {"type": "electric_scooter", "fusion_lon": 0.0, "bike_id": "590d1e04ca9ad5ffb35a196a6ad9ab15", "is_disabled": 0, "lat": 38.93364433333333, "rental_uris": {"ios": "https://dc.lft.to/lastmile_qr_scan", "android": "https://dc.lft.to/lastmile_qr_scan"}, "is_reserved": 0, "lon": -77.026468, "fusion_lat": 0.0, "name": "590d1e04ca9ad5ffb35a196a6ad9ab15"}, {"type": "electric_scooter", "fusion_lon": 0.0, "bike_id": "4c75447dfaf3cc3925240583656d608c", "is_disabled": 0, "lat": 38.89345183333333, "rental_uris": {"ios": "https://dc.lft.to/lastmile_qr_scan", "android": "https://dc.lft.to/lastmile_qr_scan"}, "is_reserved": 0, "lon": -76.93429666666667, "fusion_lat": 0.0, "name": "4c75447dfaf3cc3925240583656d608c"}, {"type": "electric_scooter", "fusion_lon": 0.0, "bike_id": "715c72e03d8ddf1ada6add801933785a", "is_disabled": 0, "lat": 38.90569933333333, "rental_uris": {"ios": "https://dc.lft.to/lastmile_qr_scan", "android": "https://dc.lft.to/lastmile_qr_scan"}, "is_reserved": 0, "lon": -77.00699166666666, "fusion_lat": 0.0, "name": "715c72e03d8ddf1ada6add801933785a"}, {"type": "electric_bike", "fusion_lon": 0.0, "bike_id": "29f0657712fff0cfb61a36f2f0723b9a", "is_disabled": 0, "lat": 38.953309, "rental_uris": {"ios": "https://dc.lft.to/lastmile_qr_scan", "android": "https://dc.lft.to/lastmile_qr_scan"}, "is_reserved": 0, "lon": -76.9825165, "fusion_lat": 0.0, "name": "29f0657712fff0cfb61a36f2f0723b9a"}, {"type": "electric_scooter", "fusion_lon": 0.0, "bike_id": "63ecf5f1662e782df9b452d8ed1d90ef", "is_disabled": 0, "lat": 38.930544166666664, "rental_uris": {"ios": "https://dc.lft.to/lastmile_qr_scan", "android": "https://dc.lft.to/lastmile_qr_scan"}, "is_reserved": 0, "lon": -77.0248815, "fusion_lat": 0.0, "name": "63ecf5f1662e782df9b452d8ed1d90ef"}, {"type": "electric_bike", "fusion_lon": 0.0, "bike_id": "4d626859c925fe068bd16a0a08eb7d26", "is_disabled": 0, "lat": 38.95076133333333, "rental_uris": {"ios": "https://dc.lft.to/lastmile_qr_scan", "android": "https://dc.lft.to/lastmile_qr_scan"}, "is_reserved": 0, "lon": -77.012289, "fusion_lat": 0.0, "name": "4d626859c925fe068bd16a0a08eb7d26"}, {"type": "electric_scooter", "fusion_lon": 0.0, "bike_id": "97bcd77f62d484007339566a85c16bd8", "is_disabled": 0, "lat": 38.90592183333333, "rental_uris": {"ios": "https://dc.lft.to/lastmile_qr_scan", "android": "https://dc.lft.to/lastmile_qr_scan"}, "is_reserved": 0, "lon": -77.06559833333333, "fusion_lat": 0.0, "name": "97bcd77f62d484007339566a85c16bd8"}, {"type": "electric_scooter", "fusion_lon": 0.0, "bike_id": "447852301ba0c1cb1e6da750801994ba", "is_disabled": 0, "lat": 38.89224466666667, "rental_uris": {"ios": "https://dc.lft.to/lastmile_qr_scan", "android": "https://dc.lft.to/lastmile_qr_scan"}, "is_reserved": 0, "lon": -77.0468835, "fusion_lat": 0.0, "name": "447852301ba0c1cb1e6da750801994ba"}, {"type": "electric_bike", "fusion_lon": 0.0, "bike_id": "960f7fb25e6c03fba05b67178e7ab62d", "is_disabled": 0, "lat": 38.838415, "rental_uris": {"ios": "https://dc.lft.to/lastmile_qr_scan", "android": "https://dc.lft.to/lastmile_qr_scan"}, "is_reserved": 0, "lon": -76.996602, "fusion_lat": 0.0, "name": "960f7fb25e6c03fba05b67178e7ab62d"}, {"type": "electric_scooter", "fusion_lon": 0.0, "bike_id": "6bc7280d595efc7423e71455832de129", "is_disabled": 0, "lat": 38.97227483333333, "rental_uris": {"ios": "https://dc.lft.to/lastmile_qr_scan", "android": "https://dc.lft.to/lastmile_qr_scan"}, "is_reserved": 0, "lon": -77.02719683333333, "fusion_lat": 0.0, "name": "6bc7280d595efc7423e71455832de129"}, {"type": "electric_scooter", "fusion_lon": 0.0, "bike_id": "cff46f31b6821965b84145f07474d99b", "is_disabled": 0, "lat": 38.89224216666667, "rental_uris": {"ios": "https://dc.lft.to/lastmile_qr_scan", "android": "https://dc.lft.to/lastmile_qr_scan"}, "is_reserved": 0, "lon": -77.03344966666667, "fusion_lat": 0.0, "name": "cff46f31b6821965b84145f07474d99b"}, {"type": "electric_scooter", "fusion_lon": 0.0, "bike_id": "a565737614aea1d12efdf1aa47e55d25", "is_disabled": 0, "lat": 38.9111225, "rental_uris": {"ios": "https://dc.lft.to/lastmile_qr_scan", "android": "https://dc.lft.to/lastmile_qr_scan"}, "is_reserved": 0, "lon": -77.0213635, "fusion_lat": 0.0, "name": "a565737614aea1d12efdf1aa47e55d25"}, {"type": "electric_scooter", "fusion_lon": 0.0, "bike_id": "d06fb435d715e51258601301a83e057f", "is_disabled": 0, "lat": 38.91744216666667, "rental_uris": {"ios": "https://dc.lft.to/lastmile_qr_scan", "android": "https://dc.lft.to/lastmile_qr_scan"}, "is_reserved": 0, "lon": -77.02286633333334, "fusion_lat": 0.0, "name": "d06fb435d715e51258601301a83e057f"}, {"type": "electric_scooter", "fusion_lon": 0.0, "bike_id": "6570c3ac21bf50ace9b30c43387b1314", "is_disabled": 0, "lat": 38.891918833333335, "rental_uris": {"ios": "https://dc.lft.to/lastmile_qr_scan", "android": "https://dc.lft.to/lastmile_qr_scan"}, "is_reserved": 0, "lon": -76.95283766666667, "fusion_lat": 0.0, "name": "6570c3ac21bf50ace9b30c43387b1314"}, {"type": "electric_scooter", "fusion_lon": 0.0, "bike_id": "58eee585b153eae8a4b1d0353012339c", "is_disabled": 0, "lat": 38.9156395, "rental_uris": {"ios": "https://dc.lft.to/lastmile_qr_scan", "android": "https://dc.lft.to/lastmile_qr_scan"}, "is_reserved": 0, "lon": -77.04182483333334, "fusion_lat": 0.0, "name": "58eee585b153eae8a4b1d0353012339c"}, {"type": "electric_scooter", "fusion_lon": 0.0, "bike_id": "361f434f6097e84e6b40f7ca1b5716d2", "is_disabled": 0, "lat": 38.91815833333333, "rental_uris": {"ios": "https://dc.lft.to/lastmile_qr_scan", "android": "https://dc.lft.to/lastmile_qr_scan"}, "is_reserved": 0, "lon": -77.00571766666667, "fusion_lat": 0.0, "name": "361f434f6097e84e6b40f7ca1b5716d2"}, {"type": "electric_scooter", "fusion_lon": 0.0, "bike_id": "0c386257bcd48d37718178d24f9e5105", "is_disabled": 0, "lat": 38.885106666666665, "rental_uris": {"ios": "https://dc.lft.to/lastmile_qr_scan", "android": "https://dc.lft.to/lastmile_qr_scan"}, "is_reserved": 0, "lon": -77.0282225, "fusion_lat": 0.0, "name": "0c386257bcd48d37718178d24f9e5105"}, {"type": "electric_scooter", "fusion_lon": 0.0, "bike_id": "fe54d5159ff7ad08a437064aad8f691f", "is_disabled": 0, "lat": 38.90763066666667, "rental_uris": {"ios": "https://dc.lft.to/lastmile_qr_scan", "android": "https://dc.lft.to/lastmile_qr_scan"}, "is_reserved": 0, "lon": -77.00918616666667, "fusion_lat": 0.0, "name": "fe54d5159ff7ad08a437064aad8f691f"}, {"type": "electric_scooter", "fusion_lon": 0.0, "bike_id": "60af4fdabaf492721b47bbeb5973cd3b", "is_disabled": 0, "lat": 38.90420916666667, "rental_uris": {"ios": "https://dc.lft.to/lastmile_qr_scan", "android": "https://dc.lft.to/lastmile_qr_scan"}, "is_reserved": 0, "lon": -77.02601033333333, "fusion_lat": 0.0, "name": "60af4fdabaf492721b47bbeb5973cd3b"}, {"type": "electric_scooter", "fusion_lon": 0.0, "bike_id": "3ac6093aebca849f7c57ad5702a4fb9c", "is_disabled": 0, "lat": 38.92060083333333, "rental_uris": {"ios": "https://dc.lft.to/lastmile_qr_scan", "android": "https://dc.lft.to/lastmile_qr_scan"}, "is_reserved": 0, "lon": -77.02946083333333, "fusion_lat": 0.0, "name": "3ac6093aebca849f7c57ad5702a4fb9c"}, {"type": "electric_scooter", "fusion_lon": 0.0, "bike_id": "42ab40b5f5d19164ad27dd37ce57d506", "is_disabled": 0, "lat": 38.919146, "rental_uris": {"ios": "https://dc.lft.to/lastmile_qr_scan", "android": "https://dc.lft.to/lastmile_qr_scan"}, "is_reserved": 0, "lon": -77.033769, "fusion_lat": 0.0, "name": "42ab40b5f5d19164ad27dd37ce57d506"}, {"type": "electric_scooter", "fusion_lon": 0.0, "bike_id": "d835fd524c7d7826585ea0b6992a10b6", "is_disabled": 0, "lat": 38.9280585, "rental_uris": {"ios": "https://dc.lft.to/lastmile_qr_scan", "android": "https://dc.lft.to/lastmile_qr_scan"}, "is_reserved": 0, "lon": -77.02392133333333, "fusion_lat": 0.0, "name": "d835fd524c7d7826585ea0b6992a10b6"}, {"type": "electric_scooter", "fusion_lon": 0.0, "bike_id": "2369312052e18c0a770c03b298238464", "is_disabled": 0, "lat": 38.920670333333334, "rental_uris": {"ios": "https://dc.lft.to/lastmile_qr_scan", "android": "https://dc.lft.to/lastmile_qr_scan"}, "is_reserved": 0, "lon": -77.02508983333334, "fusion_lat": 0.0, "name": "2369312052e18c0a770c03b298238464"}, {"type": "electric_scooter", "fusion_lon": 0.0, "bike_id": "925b3bd3ffeb1a98ae889a4f0181cac6", "is_disabled": 0, "lat": 38.91747983333333, "rental_uris": {"ios": "https://dc.lft.to/lastmile_qr_scan", "android": "https://dc.lft.to/lastmile_qr_scan"}, "is_reserved": 0, "lon": -77.04053466666667, "fusion_lat": 0.0, "name": "925b3bd3ffeb1a98ae889a4f0181cac6"}, {"type": "electric_scooter", "fusion_lon": 0.0, "bike_id": "decc426e0ea8035180fa67b078a2c21b", "is_disabled": 0, "lat": 38.892223333333334, "rental_uris": {"ios": "https://dc.lft.to/lastmile_qr_scan", "android": "https://dc.lft.to/lastmile_qr_scan"}, "is_reserved": 0, "lon": -77.02017383333333, "fusion_lat": 0.0, "name": "decc426e0ea8035180fa67b078a2c21b"}, {"type": "electric_bike", "fusion_lon": 0.0, "bike_id": "fd5d53a0938ee7f1a94b10c7fd49631a", "is_disabled": 0, "lat": 38.863298, "rental_uris": {"ios": "https://dc.lft.to/lastmile_qr_scan", "android": "https://dc.lft.to/lastmile_qr_scan"}, "is_reserved": 0, "lon": -76.98725216666666, "fusion_lat": 0.0, "name": "fd5d53a0938ee7f1a94b10c7fd49631a"}, {"type": "electric_scooter", "fusion_lon": 0.0, "bike_id": "c34810d6c26315da162c0b55080515e9", "is_disabled": 0, "lat": 38.904073, "rental_uris": {"ios": "https://dc.lft.to/lastmile_qr_scan", "android": "https://dc.lft.to/lastmile_qr_scan"}, "is_reserved": 0, "lon": -77.018471, "fusion_lat": 0.0, "name": "c34810d6c26315da162c0b55080515e9"}, {"type": "electric_scooter", "fusion_lon": 0.0, "bike_id": "0fa2eab51588c9a129f345aa60a3dea9", "is_disabled": 0, "lat": 38.93851, "rental_uris": {"ios": "https://dc.lft.to/lastmile_qr_scan", "android": "https://dc.lft.to/lastmile_qr_scan"}, "is_reserved": 0, "lon": -77.033997, "fusion_lat": 0.0, "name": "0fa2eab51588c9a129f345aa60a3dea9"}, {"type": "electric_scooter", "fusion_lon": 0.0, "bike_id": "b1ac0e7bb1ae1a57b1ee249a99690aa0", "is_disabled": 0, "lat": 38.919681, "rental_uris": {"ios": "https://dc.lft.to/lastmile_qr_scan", "android": "https://dc.lft.to/lastmile_qr_scan"}, "is_reserved": 0, "lon": -77.03861416666666, "fusion_lat": 0.0, "name": "b1ac0e7bb1ae1a57b1ee249a99690aa0"}, {"type": "electric_scooter", "fusion_lon": 0.0, "bike_id": "efadf42fbc43646a23042c62bc66731d", "is_disabled": 0, "lat": 38.91421233333333, "rental_uris": {"ios": "https://dc.lft.to/lastmile_qr_scan", "android": "https://dc.lft.to/lastmile_qr_scan"}, "is_reserved": 0, "lon": -77.03906466666666, "fusion_lat": 0.0, "name": "efadf42fbc43646a23042c62bc66731d"}, {"type": "electric_scooter", "fusion_lon": 0.0, "bike_id": "b8d1b22c735402ae540946d83d957bc0", "is_disabled": 0, "lat": 38.8940805, "rental_uris": {"ios": "https://dc.lft.to/lastmile_qr_scan", "android": "https://dc.lft.to/lastmile_qr_scan"}, "is_reserved": 0, "lon": -77.02151433333333, "fusion_lat": 0.0, "name": "b8d1b22c735402ae540946d83d957bc0"}, {"type": "electric_scooter", "fusion_lon": 0.0, "bike_id": "616ad55bb839869a84a006195204d5e0", "is_disabled": 0, "lat": 38.906659166666664, "rental_uris": {"ios": "https://dc.lft.to/lastmile_qr_scan", "android": "https://dc.lft.to/lastmile_qr_scan"}, "is_reserved": 0, "lon": -77.02954466666667, "fusion_lat": 0.0, "name": "616ad55bb839869a84a006195204d5e0"}, {"type": "electric_scooter", "fusion_lon": 0.0, "bike_id": "4002626d404437c669fac5de0f637ba8", "is_disabled": 0, "lat": 38.916874666666665, "rental_uris": {"ios": "https://dc.lft.to/lastmile_qr_scan", "android": "https://dc.lft.to/lastmile_qr_scan"}, "is_reserved": 0, "lon": -77.025285, "fusion_lat": 0.0, "name": "4002626d404437c669fac5de0f637ba8"}, {"type": "electric_scooter", "fusion_lon": 0.0, "bike_id": "d37343bfa1aafcdd1647dec439d928fe", "is_disabled": 0, "lat": 38.935300833333336, "rental_uris": {"ios": "https://dc.lft.to/lastmile_qr_scan", "android": "https://dc.lft.to/lastmile_qr_scan"}, "is_reserved": 0, "lon": -77.02357616666667, "fusion_lat": 0.0, "name": "d37343bfa1aafcdd1647dec439d928fe"}, {"type": "electric_scooter", "fusion_lon": 0.0, "bike_id": "cf822380c17ed9abbf36c4ad7bc8a983", "is_disabled": 0, "lat": 38.924819, "rental_uris": {"ios": "https://dc.lft.to/lastmile_qr_scan", "android": "https://dc.lft.to/lastmile_qr_scan"}, "is_reserved": 0, "lon": -77.02552833333333, "fusion_lat": 0.0, "name": "cf822380c17ed9abbf36c4ad7bc8a983"}, {"type": "electric_scooter", "fusion_lon": 0.0, "bike_id": "56b12e27ca4d8c59c8d6ff0835016f08", "is_disabled": 0, "lat": 38.89405383333333, "rental_uris": {"ios": "https://dc.lft.to/lastmile_qr_scan", "android": "https://dc.lft.to/lastmile_qr_scan"}, "is_reserved": 0, "lon": -77.02125966666667, "fusion_lat": 0.0, "name": "56b12e27ca4d8c59c8d6ff0835016f08"},