{"data": {"bikes": [{"fusion_lat": 0.0, "lon": -77.02939283333333, "is_reserved": 0, "bike_id": "895f96bd06958a4cf41b3c603e9fdcf4", "fusion_lon": 0.0, "rental_uris": {"android": "https://dc.lft.to/lastmile_qr_scan", "ios": "https://dc.lft.to/lastmile_qr_scan"}, "name": "895f96bd06958a4cf41b3c603e9fdcf4", "type": "electric_scooter", "lat": 38.92076483333334, "is_disabled": 0}, {"fusion_lat": 0.0, "lon": -77.05024016666667, "is_reserved": 0, "bike_id": "d066bac9b9f47b40adeae867ae062be0", "fusion_lon": 0.0, "rental_uris": {"android": "https://dc.lft.to/lastmile_qr_scan", "ios": "https://dc.lft.to/lastmile_qr_scan"}, "name": "d066bac9b9f47b40adeae867ae062be0", "type": "electric_scooter", "lat": 38.9235505, "is_disabled": 0}, {"fusion_lat": 0.0, "lon": -77.047102, "is_reserved": 0, "bike_id": "803b14333713efcb2312bc0e17ccea6e", "fusion_lon": 0.0, "rental_uris": {"android": "https://dc.lft.to/lastmile_qr_scan", "ios": "https://dc.lft.to/lastmile_qr_scan"}, "name": "803b14333713efcb2312bc0e17ccea6e", "type": "electric_scooter", "lat": 38.92199016666667, "is_disabled": 0}, {"fusion_lat": 0.0, "lon": -77.00337583333334, "is_reserved": 0, "bike_id": "f1481fc16648fc18e91ec66c3a2f19e7", "fusion_lon": 0.0, "rental_uris": {"android": "https://dc.lft.to/lastmile_qr_scan", "ios": "https://dc.lft.to/lastmile_qr_scan"}, "name": "f1481fc16648fc18e91ec66c3a2f19e7", "type": "electric_scooter", "lat": 38.889921333333334, "is_disabled": 0}, {"fusion_lat": 0.0, "lon": -76.99518233333333, "is_reserved": 0, "bike_id": "d38959874213ce0b14bdf8a73f8db9b4", "fusion_lon": 0.0, "rental_uris": {"android": "https://dc.lft.to/lastmile_qr_scan", "ios": "https://dc.lft.to/lastmile_qr_scan"}, "name": "d38959874213ce0b14bdf8a73f8db9b4", "type": "electric_scooter", "lat": 38.89606633333333, "is_disabled": 0}, {"fusion_lat": 0.0, "lon": -76.94814516666666, "is_reserved": 0, "bike_id": "c24b75b611bce0b59dc3389c45d75f33", "fusion_lon": 0.0, "rental_uris": {"android": "https://dc.lft.to/lastmile_qr_scan", "ios": "https://dc.lft.to/lastmile_qr_scan"}, "name": "c24b75b611bce0b59dc3389c45d75f33", "type": "electric_bike", "lat": 38.861989333333334, "is_disabled": 0}, {"fusion_lat": 0.0, "lon": -77.02974733333333, "is_reserved": 0, "bike_id": "87da38aff7b9b1c22b1ac60dc5c32479", "fusion_lon": 0.0, "rental_uris": {"android": "https://dc.lft.to/lastmile_qr_scan", "ios": "https://dc.lft.to/lastmile_qr_scan"}, "name": "87da38aff7b9b1c22b1ac60dc5c32479", "type": "electric_scooter", "lat": 38.90722016666667, "is_disabled": 0}, {"fusion_lat": 0.0, "lon": -77.046891, "is_reserved": 0, "bike_id": "2c7dcd0b7653ce6b58e702e2cd790539", "fusion_lon": 0.0, "rental_uris": {"android": "https://dc.lft.to/lastmile_qr_scan", "ios": "https://dc.lft.to/lastmile_qr_scan"}, "name": "2c7dcd0b7653ce6b58e702e2cd790539", "type": "electric_scooter", "lat": 38.915784333333335, "is_disabled": 0}, {"fusion_lat": 0.0, "lon": -77.0218615, "is_reserved": 0, "bike_id": "5ce1aab08ebd62a3e5dfdc49108b8dba", "fusion_lon": 0.0, "rental_uris": {"android": "https://dc.lft.to/lastmile_qr_scan", "ios": "https://dc.lft.to/lastmile_qr_scan"}, "name": "5ce1aab08ebd62a3e5dfdc49108b8dba", "type": "electric_scooter", "lat": 38.894971, "is_disabled": 0}, {"fusion_lat": 0.0, "lon": -77.03417466666667, "is_reserved": 0, "bike_id": "5c0d23df47e421aafdd9dadb8b852df6", "fusion_lon": 0.0, "rental_uris": {"android": "https://dc.lft.to/lastmile_qr_scan", "ios": "https://dc.lft.to/lastmile_qr_scan"}, "name": "5c0d23df47e421aafdd9dadb8b852df6", "type": "electric_scooter", "lat": 38.90958966666667, "is_disabled": 0}, {"fusion_lat": 0.0, "lon": -77.03391183333333, "is_reserved": 0, "bike_id": "b3fa0b2375020e43674720013fdf2374", "fusion_lon": 0.0, "rental_uris": {"android": "https://dc.lft.to/lastmile_qr_scan", "ios": "https://dc.lft.to/lastmile_qr_scan"}, "name": "b3fa0b2375020e43674720013fdf2374", "type": "electric_scooter", "lat": 38.938784, "is_disabled": 0}, {"fusion_lat": 0.0, "lon": -76.997818, "is_reserved": 0, "bike_id": "c456616cd7a929eca31f1456378e1d06", "fusion_lon": 0.0, "rental_uris": {"android": "https://dc.lft.to/lastmile_qr_scan", "ios": "https://dc.lft.to/lastmile_qr_scan"}, "name": "c456616cd7a929eca31f1456378e1d06", "type": "electric_scooter", "lat": 38.844301, "is_disabled": 0}, {"fusion_lat": 0.0, "lon": -77.03838583333334, "is_reserved": 0, "bike_id": "d603565f2a2e6579173d605a8c0014eb", "fusion_lon": 0.0, "rental_uris": {"android": "https://dc.lft.to/lastmile_qr_scan", "ios": "https://dc.lft.to/lastmile_qr_scan"}, "name": "d603565f2a2e6579173d605a8c0014eb", "type": "electric_scooter", "lat": 38.91734833333334, "is_disabled": 0}, {"fusion_lat": 0.0, "lon": -77.02135966666667, "is_reserved": 0, "bike_id": "52c6f331c7efc48f096771c167bfd977", "fusion_lon": 0.0, "rental_uris": {"android": "https://dc.lft.to/lastmile_qr_scan", "ios": "https://dc.lft.to/lastmile_qr_scan"}, "name": "52c6f331c7efc48f096771c167bfd977", "type": "electric_scooter", "lat": 38.9246215, "is_disabled": 0}, {"fusion_lat": 0.0, "lon": -77.04523933333333, "is_reserved": 0, "bike_id": "286377d784e495fb351fbcf3a6873ee0", "fusion_lon": 0.0, "rental_uris": {"android": "https://dc.lft.to/lastmile_qr_scan", "ios": "https://dc.lft.to/lastmile_qr_scan"}, "name": "286377d784e495fb351fbcf3a6873ee0", "type": "electric_bike", "lat": 38.941971833333334, "is_disabled": 0}, {"fusion_lat": 0.0, "lon": -77.01723033333333, "is_reserved": 0, "bike_id": "d3fe08480d5e9ce6ab0b5fb4e1750d03", "fusion_lon": 0.0, "rental_uris": {"android": "https://dc.lft.to/lastmile_qr_scan", "ios": "https://dc.lft.to/lastmile_qr_scan"}, "name": "d3fe08480d5e9ce6ab0b5fb4e1750d03", "type": "electric_scooter", "lat": 38.88565166666667, "is_disabled": 0}, {"fusion_lat": 0.0, "lon": -77.04332383333333, "is_reserved": 0, "bike_id": "9addc4163320197493f0794f1b77dfd4", "fusion_lon": 0.0, "rental_uris": {"android": "https://dc.lft.to/lastmile_qr_scan", "ios": "https://dc.lft.to/lastmile_qr_scan"}, "name": "9addc4163320197493f0794f1b77dfd4", "type": "electric_scooter", "lat": 38.904235166666666, "is_disabled": 0}, {"fusion_lat": 0.0, "lon": -76.93750316666667, "is_reserved": 0, "bike_id": "835f6763cb26759120f32df4fddd2766", "fusion_lon": 0.0, "rental_uris": {"android": "https://dc.lft.to/lastmile_qr_scan", "ios": "https://dc.lft.to/lastmile_qr_scan"}, "name": "835f6763cb26759120f32df4fddd2766", "type": "electric_scooter", "lat": 38.89046533333333, "is_disabled": 0}, {"fusion_lat": 0.0, "lon": -77.0042495, "is_reserved": 0, "bike_id": "bd23c59bb3ecd038c6b8fa3244d03e79", "fusion_lon": 0.0, "rental_uris": {"android": "https://dc.lft.to/lastmile_qr_scan", "ios": "https://dc.lft.to/lastmile_qr_scan"}, "name": "bd23c59bb3ecd038c6b8fa3244d03e79", "type": "electric_scooter", "lat": 38.90568866666667, "is_disabled": 0}, {"fusion_lat": 0.0, "lon": -77.011543, "is_reserved": 0, "bike_id": "791bc0be9a26cf7525fa081c7afb1713", "fusion_lon": 0.0, "rental_uris": {"android": "https://dc.lft.to/lastmile_qr_scan", "ios": "https://dc.lft.to/lastmile_qr_scan"}, "name": "791bc0be9a26cf7525fa081c7afb1713", "type": "electric_scooter", "lat": 38.91105116666667, "is_disabled": 0}, {"fusion_lat": 0.0, "lon": -77.1159125, "is_reserved": 0, "bike_id": "8b3265d8b9409ec5b2e21c5bc7c59f9f", "fusion_lon": 0.0, "rental_uris": {"android": "https://dc.lft.to/lastmile_qr_scan", "ios": "https://dc.lft.to/lastmile_qr_scan"}, "name": "8b3265d8b9409ec5b2e21c5bc7c59f9f", "type": "electric_bike", "lat": 39.07492933333333, "is_disabled": 0}, {"fusion_lat": 0.0, "lon": -77.02979883333333, "is_reserved": 0, "bike_id": "a35a0a6d913a7576486c062d4abb597e", "fusion_lon": 0.0, "rental_uris": {"android": "https://dc.lft.to/lastmile_qr_scan", "ios": "https://dc.lft.to/lastmile_qr_scan"}, "name": "a35a0a6d913a7576486c062d4abb597e", "type": "electric_bike", "lat": 38.924449333333335, "is_disabled": 0}, {"fusion_lat": 0.0, "lon": -77.035242, "is_reserved": 0, "bike_id": "3a0ea2b50e02be4ae69f957f4619f65c", "fusion_lon": 0.0, "rental_uris": {"android": "https://dc.lft.to/lastmile_qr_scan", "ios": "https://dc.lft.to/lastmile_qr_scan"}, "name": "3a0ea2b50e02be4ae69f957f4619f65c", "type": "electric_scooter", "lat": 38.92196666666667, "is_disabled": 0}, {"fusion_lat": 0.0, "lon": -77.029773, "is_reserved": 0, "bike_id": "77f429e4e5bf812580ff20bf2c358746", "fusion_lon": 0.0, "rental_uris": {"android": "https://dc.lft.to/lastmile_qr_scan", "ios": "https://dc.lft.to/lastmile_qr_scan"}, "name": "77f429e4e5bf812580ff20bf2c358746", "type": "electric_scooter", "lat": 38.929501, "is_disabled": 0}, {"fusion_lat": 0.0, "lon": -77.05075783333334, "is_reserved": 0, "bike_id": "86b2a93bf804418ef91bac5dc794f6af", "fusion_lon": 0.0, "rental_uris": {"android": "https://dc.lft.to/lastmile_qr_scan", "ios": "https://dc.lft.to/lastmile_qr_scan"}, "name": "86b2a93bf804418ef91bac5dc794f6af", "type": "electric_scooter", "lat": 38.901852166666664, "is_disabled": 0}, {"fusion_lat": 0.0, "lon": -77.0238565, "is_reserved": 0, "bike_id": "69c9c92eb6841d3b08eb5ad8d3764ecb", "fusion_lon": 0.0, "rental_uris": {"android": "https://dc.lft.to/lastmile_qr_scan", "ios": "https://dc.lft.to/lastmile_qr_scan"}, "name": "69c9c92eb6841d3b08eb5ad8d3764ecb", "type": "electric_scooter", "lat": 38.919962, "is_disabled": 0}, {"fusion_lat": 0.0, "lon": -76.9854905, "is_reserved": 0, "bike_id": "ca38a43dc6f27527e887dd27a559b29e", "fusion_lon": 0.0, "rental_uris": {"android": "https://dc.lft.to/lastmile_qr_scan", "ios": "https://dc.lft.to/lastmile_qr_scan"}, "name": "ca38a43dc6f27527e887dd27a559b29e", "type": "electric_bike", "lat": 38.88188533333334, "is_disabled": 0}, {"fusion_lat": 0.0, "lon": -77.04565766666667, "is_reserved": 0, "bike_id": "027d380fc64746f80dd6ddb986a0ba83", "fusion_lon": 0.0, "rental_uris": {"android": "https://dc.lft.to/lastmile_qr_scan", "ios": "https://dc.lft.to/lastmile_qr_scan"}, "name": "027d380fc64746f80dd6ddb986a0ba83", "type": "electric_scooter", "lat": 38.897312666666664, "is_disabled": 0}, {"fusion_lat": 0.0, "lon": -77.005871, "is_reserved": 0, "bike_id": "9b9f4fbe84b81acc22d9ace23f9de3fe", "fusion_lon": 0.0, "rental_uris": {"android": "https://dc.lft.to/lastmile_qr_scan", "ios": "https://dc.lft.to/lastmile_qr_scan"}, "name": "9b9f4fbe84b81acc22d9ace23f9de3fe", "type": "electric_scooter", "lat": 38.905712666666666, "is_disabled": 0}, {"fusion_lat": 0.0, "lon": -77.04112516666666, "is_reserved": 0, "bike_id": "d905456caddb383407f8ebbc6baf682a", "fusion_lon": 0.0, "rental_uris": {"android": "https://dc.lft.to/lastmile_qr_scan", "ios": "https://dc.lft.to/lastmile_qr_scan"}, "name": "d905456caddb383407f8ebbc6baf682a", "type": "electric_scooter", "lat": 38.925143, "is_disabled": 0}, {"fusion_lat": 0.0, "lon": -77.00971333333334, "is_reserved": 0, "bike_id": "a615cfc9f9fdc2bcff181b0e85a722ef", "fusion_lon": 0.0, "rental_uris": {"android": "https://dc.lft.to/lastmile_qr_scan", "ios": "https://dc.lft.to/lastmile_qr_scan"}, "name": "a615cfc9f9fdc2bcff181b0e85a722ef", "type": "electric_scooter", "lat": 38.90783, "is_disabled": 0}, {"fusion_lat": 0.0, "lon": -77.0223005, "is_reserved": 0, "bike_id": "9415ca1aa40786383dfd6ddb0ea73925", "fusion_lon": 0.0, "rental_uris": {"android": "https://dc.lft.to/lastmile_qr_scan", "ios": "https://dc.lft.to/lastmile_qr_scan"}, "name": "9415ca1aa40786383dfd6ddb0ea73925", "type": "electric_scooter", "lat": 38.892184, "is_disabled": 0}, {"fusion_lat": 0.0, "lon": -77.0004875, "is_reserved": 0, "bike_id": "6ec14bcc1f45a6b88ff9507b8514e286", "fusion_lon": 0.0, "rental_uris": {"android": "https://dc.lft.to/lastmile_qr_scan", "ios": "https://dc.lft.to/lastmile_qr_scan"}, "name": "6ec14bcc1f45a6b88ff9507b8514e286", "type": "electric_scooter", "lat": 38.896304666666666, "is_disabled": 0}, {"fusion_lat": 0.0, "lon": -76.93991466666667, "is_reserved": 0, "bike_id": "896af79729b6314d29f85dc4c24234c7", "fusion_lon": 0.0, "rental_uris": {"android": "https://dc.lft.to/lastmile_qr_scan", "ios": "https://dc.lft.to/lastmile_qr_scan"}, "name": "896af79729b6314d29f85dc4c24234c7", "type": "electric_scooter", "lat": 38.899806833333336, "is_disabled": 0}, {"fusion_lat": 0.0, "lon": -77.03666516666667, "is_reserved": 0, "bike_id": "624384dad3933aeb7aaaf7b68d1a2ec7", "fusion_lon": 0.0, "rental_uris": {"android": "https://dc.lft.to/lastmile_qr_scan", "ios": "https://dc.lft.to/lastmile_qr_scan"}, "name": "624384dad3933aeb7aaaf7b68d1a2ec7", "type": "electric_scooter", "lat": 38.92321283333333, "is_disabled": 0}, {"fusion_lat": 0.0, "lon": -77.01994033333334, "is_reserved": 0, "bike_id": "f9e3ab47fda80fae83c6c47ef43c1a74", "fusion_lon": 0.0, "rental_uris": {"android": "https://dc.lft.to/lastmile_qr_scan", "ios": "https://dc.lft.to/lastmile_qr_scan"}, "name": "f9e3ab47fda80fae83c6c47ef43c1a74", "type": "electric_scooter", "lat": 38.902628666666665, "is_disabled": 0}, {"fusion_lat": 0.0, "lon": -77.03220733333333, "is_reserved": 0, "bike_id": "e5f0292ed4774b55f9497dab10762290", "fusion_lon": 0.0, "rental_uris": {"android": "https://dc.lft.to/lastmile_qr_scan", "ios": "https://dc.lft.to/lastmile_qr_scan"}, "name": "e5f0292ed4774b55f9497dab10762290", "type": "electric_scooter", "lat": 38.921478, "is_disabled": 0}, {"fusion_lat": 0.0, "lon": -77.03669433333333, "is_reserved": 0, "bike_id": "dbff766da381e1b9bca6168b9d3f6340", "fusion_lon": 0.0, "rental_uris": {"android": "https://dc.lft.to/lastmile_qr_scan", "ios": "https://dc.lft.to/lastmile_qr_scan"}, "name": "dbff766da381e1b9bca6168b9d3f6340", "type": "electric_scooter", "lat": 38.9202875, "is_disabled": 0}, {"fusion_lat": 0.0, "lon": -76.94536333333333, "is_reserved": 0, "bike_id": "1c302b210dedf5bd11caa131d8ed43c5", "fusion_lon": 0.0, "rental_uris": {"android": "https://dc.lft.to/lastmile_qr_scan", "ios": "https://dc.lft.to/lastmile_qr_scan"}, "name": "1c302b210dedf5bd11caa131d8ed43c5", "type": "electric_bike", "lat": 38.86756716666667, "is_disabled": 0}, {"fusion_lat": 0.0, "lon": -77.02377133333333, "is_reserved": 0, "bike_id": "89557b570cdd0f1be206af61853fc057", "fusion_lon": 0.0, "rental_uris": {"android": "https://dc.lft.to/lastmile_qr_scan", "ios": "https://dc.lft.to/lastmile_qr_scan"}, "name": "89557b570cdd0f1be206af61853fc057", "type": "electric_scooter", "lat": 38.89778533333333, "is_disabled": 0}, {"fusion_lat": 0.0, "lon": -77.18312933333333, "is_reserved": 0, "bike_id": "333314b92188e01865ece72dd8494124", "fusion_lon": 0.0, "rental_uris": {"android": "https://dc.lft.to/lastmile_qr_scan", "ios": "https://dc.lft.to/lastmile_qr_scan"}, "name": "333314b92188e01865ece72dd8494124", "type": "electric_bike", "lat": 38.890862166666665, "is_disabled": 0}, {"fusion_lat": 0.0, "lon": -77.03196933333334, "is_reserved": 0, "bike_id": "e3c5cec30b809595f9fe3c025934acee", "fusion_lon": 0.0, "rental_uris": {"android": "https://dc.lft.to/lastmile_qr_scan", "ios": "https://dc.lft.to/lastmile_qr_scan"}, "name": "e3c5cec30b809595f9fe3c025934acee", "type": "electric_scooter", "lat": 38.91636716666667, "is_disabled": 0}, {"fusion_lat": 0.0, "lon": -76.98656116666666, "is_reserved": 0, "bike_id": "2042b2ae279357aacea07310e539b06a", "fusion_lon": 0.0, "rental_uris": {"android": "https://dc.lft.to/lastmile_qr_scan", "ios": "https://dc.lft.to/lastmile_qr_scan"}, "name": "2042b2ae279357aacea07310e539b06a", "type": "electric_scooter", "lat": 38.867297666666666, "is_disabled": 0}, {"fusion_lat": 0.0, "lon": -76.94423733333333, "is_reserved": 0, "bike_id": "0e71df5f2369969d945850531a054c1a", "fusion_lon": 0.0, "rental_uris": {"android": "https://dc.lft.to/lastmile_qr_scan", "ios": "https://dc.lft.to/lastmile_qr_scan"}, "name": "0e71df5f2369969d945850531a054c1a", "type": "electric_bike", "lat": 38.96619483333333, "is_disabled": 0}, {"fusion_lat": 0.0, "lon": -77.02844833333333, "is_reserved": 0, "bike_id": "18de222abd4528f75824a9e2bbdf4024", "fusion_lon": 0.0, "rental_uris": {"android": "https://dc.lft.to/lastmile_qr_scan", "ios": "https://dc.lft.to/lastmile_qr_scan"}, "name": "18de222abd4528f75824a9e2bbdf4024", "type": "electric_bike", "lat": 38.93302533333333, "is_disabled": 0}, {"fusion_lat": 0.0, "lon": -77.00690733333333, "is_reserved": 0, "bike_id": "c1268684fc111b19d108f960d0e4704b", "fusion_lon": 0.0, "rental_uris": {"android": "https://dc.lft.to/lastmile_qr_scan", "ios": "https://dc.lft.to/lastmile_qr_scan"}, "name": "c1268684fc111b19d108f960d0e4704b", "type": "electric_scooter", "lat": 38.905272333333336, "is_disabled": 0}, {"fusion_lat": 0.0, "lon": -77.05584216666666, "is_reserved": 0, "bike_id": "044082ab7c90e345b1c67df4b20bcf6d", "fusion_lon": 0.0, "rental_uris": {"android": "https://dc.lft.to/lastmile_qr_scan", "ios": "https://dc.lft.to/lastmile_qr_scan"}, "name": "044082ab7c90e345b1c67df4b20bcf6d", "type": "electric_scooter", "lat": 38.936168333333335, "is_disabled": 0}, {"fusion_lat": 0.0, "lon": -77.05130316666667, "is_reserved": 0, "bike_id": "432e247219df060163797c809876105f", "fusion_lon": 0.0, "rental_uris": {"android": "https://dc.lft.to/lastmile_qr_scan", "ios": "https://dc.lft.to/lastmile_qr_scan"}, "name": "432e247219df060163797c809876105f", "type": "electric_scooter", "lat": 38.90708983333333, "is_disabled": 0}, {"fusion_lat": 0.0, "lon": -76.99937333333334, "is_reserved": 0, "bike_id": "37e5de3791c3c73f97fa81e381bdd842", "fusion_lon": 0.0, "rental_uris": {"android": "https://dc.lft.to/lastmile_qr_scan", "ios": "https://dc.lft.to/lastmile_qr_scan"}, "name": "37e5de3791c3c73f97fa81e381bdd842", "type": "electric_scooter", "lat": 38.84299633333333, "is_disabled": 0}, {"fusion_lat": 0.0, "lon": -76.9983005, "is_reserved": 0, "bike_id": "73eefa83b4da458c3bfcf52171852bfa", "fusion_lon": 0.0, "rental_uris": {"android": "https://dc.lft.to/lastmile_qr_scan", "ios": "https://dc.lft.to/lastmile_qr_scan"}, "name": "73eefa83b4da458c3bfcf52171852bfa", "type": "electric_scooter", "lat": 38.88536283333333, "is_disabled": 0}, {"fusion_lat": 0.0, "lon": -77.0077665, "is_reserved": 0, "bike_id": "3811cf62e20ac2d333b925a9f1630327", "fusion_lon": 0.0, "rental_uris": {"android": "https://dc.lft.to/lastmile_qr_scan", "ios": "https://dc.lft.to/lastmile_qr_scan"}, "name": "3811cf62e20ac2d333b925a9f1630327", "type": "electric_scooter", "lat": 38.926725833333336, "is_disabled": 0}, {"fusion_lat": 0.0, "lon": -77.01666833333333, "is_reserved": 0, "bike_id": "b5195b535e7402bc77c3aad493c842e6", "fusion_lon": 0.0, "rental_uris": {"android": "https://dc.lft.to/lastmile_qr_scan", "ios": "https://dc.lft.to/lastmile_qr_scan"}, "name": "b5195b535e7402bc77c3aad493c842e6", "type": "electric_bike", "lat": 38.88109016666667, "is_disabled": 0}, {"fusion_lat": 0.0, "lon": -77.02716933333333, "is_reserved": 0, "bike_id": "476007acebb07fd237c027501a4981b6", "fusion_lon": 0.0, "rental_uris": {"android": "https://dc.lft.to/lastmile_qr_scan", "ios": "https://dc.lft.to/lastmile_qr_scan"}, "name": "476007acebb07fd237c027501a4981b6", "type": "electric_scooter", "lat": 38.91800883333333, "is_disabled": 0}, {"fusion_lat": 0.0, "lon": -77.0453105, "is_reserved": 0, "bike_id": "a1e551ea92efb34b35b8ba1c3009d549", "fusion_lon": 0.0, "rental_uris": {"android": "https://dc.lft.to/lastmile_qr_scan", "ios": "https://dc.lft.to/lastmile_qr_scan"}, "name": "a1e551ea92efb34b35b8ba1c3009d549", "type": "electric_scooter", "lat": 38.9128415, "is_disabled": 0}, {"fusion_lat": 0.0, "lon": -76.97309066666666, "is_reserved": 0, "bike_id": "87392553109b0e11d766cb0ff15452ca", "fusion_lon": 0.0, "rental_uris": {"android": "https://dc.lft.to/lastmile_qr_scan", "ios": "https://dc.lft.to/lastmile_qr_scan"}, "name": "87392553109b0e11d766cb0ff15452ca", "type": "electric_scooter", "lat": 38.84656233333333, "is_disabled": 0}, {"fusion_lat": 0.0, "lon": -77.0301435, "is_reserved": 0, "bike_id": "8f711cd67f78d0dce2b115e9b5576d9b", "fusion_lon": 0.0, "rental_uris": {"android": "https://dc.lft.to/lastmile_qr_scan", "ios": "https://dc.lft.to/lastmile_qr_scan"}, "name": "8f711cd67f78d0dce2b115e9b5576d9b", "type": "electric_scooter", "lat": 38.905375666666664, "is_disabled": 0}, {"fusion_lat": 0.0, "lon": -77.0006905, "is_reserved": 0, "bike_id": "2c84a23019619b65b9387446a1152d0d", "fusion_lon": 0.0, "rental_uris": {"android": "https://dc.lft.to/lastmile_qr_scan", "ios": "https://dc.lft.to/lastmile_qr_scan"}, "name": "2c84a23019619b65b9387446a1152d0d", "type": "electric_scooter", "lat": 38.92434933333333, "is_disabled": 0}, {"fusion_lat": 0.0, "lon": -77.02151466666666, "is_reserved": 0, "bike_id": "8592e67bd2b6b45bd56ea91194da2665", "fusion_lon": 0.0, "rental_uris": {"android": "https://dc.lft.to/lastmile_qr_scan", "ios": "https://dc.lft.to/lastmile_qr_scan"}, "name": "8592e67bd2b6b45bd56ea91194da2665", "type": "electric_scooter", "lat": 38.92604383333333, "is_disabled": 0}, {"fusion_lat": 0.0, "lon": -76.97095433333334, "is_reserved": 0, "bike_id": "8677d6abc478ec341d4a12ae6bcbe007", "fusion_lon": 0.0, "rental_uris": {"android": "https://dc.lft.to/lastmile_qr_scan", "ios": "https://dc.lft.to/lastmile_qr_scan"}, "name": "8677d6abc478ec341d4a12ae6bcbe007", "type": "electric_bike", "lat": 38.918067, "is_disabled": 0}, {"fusion_lat": 0.0, "lon": -77.04867283333333, "is_reserved": 0, "bike_id": "98249dc24585d5a3ebe35e76a652cd01", "fusion_lon": 0.0, "rental_uris": {"android": "https://dc.lft.to/lastmile_qr_scan", "ios": "https://dc.lft.to/lastmile_qr_scan"}, "name": "98249dc24585d5a3ebe35e76a652cd01", "type": "electric_scooter", "lat": 38.892238666666664, "is_disabled": 0}, {"fusion_lat": 0.0, "lon": -77.05038383333333, "is_reserved": 0, "bike_id": "61b711839a27ca5e531dc174eebe22fe", "fusion_lon": 0.0, "rental_uris": {"android": "https://dc.lft.to/lastmile_qr_scan", "ios": "https://dc.lft.to/lastmile_qr_scan"}, "name": "61b711839a27ca5e531dc174eebe22fe", "type": "electric_scooter", "lat": 38.9053385, "is_disabled": 0}, {"fusion_lat": 0.0, "lon": -77.06019216666667, "is_reserved": 0, "bike_id": "6debd4d59ecfb7e37949ae62c03e2488", "fusion_lon": 0.0, "rental_uris": {"android": "https://dc.lft.to/lastmile_qr_scan", "ios": "https://dc.lft.to/lastmile_qr_scan"}, "name": "6debd4d59ecfb7e37949ae62c03e2488", "type": "electric_bike", "lat": 38.905081833333334, "is_disabled": 0}, {"fusion_lat": 0.0, "lon": -77.03562, "is_reserved": 0, "bike_id": "cfe50ecc491c908351e8f4c98c3e3242", "fusion_lon": 0.0, "rental_uris": {"android": "https://dc.lft.to/lastmile_qr_scan", "ios": "https://dc.lft.to/lastmile_qr_scan"}, "name": "cfe50ecc491c908351e8f4c98c3e3242", "type": "electric_scooter", "lat": 38.917113, "is_disabled": 0}, {"fusion_lat": 0.0, "lon": -77.03854416666667, "is_reserved": 0, "bike_id": "8985ba3e2225d7b03440e181a358288d", "fusion_lon": 0.0, "rental_uris": {"android": "https://dc.lft.to/lastmile_qr_scan", "ios": "https://dc.lft.to/lastmile_qr_scan"}, "name": "8985ba3e2225d7b03440e181a358288d", "type": "electric_scooter", "lat": 38.907798166666666, "is_disabled": 0}, {"fusion_lat": 0.0, "lon": -77.00857333333333, "is_reserved": 0, "bike_id": "e54e0d5a133cc0be8846dc7f1e4df61c", "fusion_lon": 0.0, "rental_uris": {"android": "https://dc.lft.to/lastmile_qr_scan", "ios": "https://dc.lft.to/lastmile_qr_scan"}, "name": "e54e0d5a133cc0be8846dc7f1e4df61c", "type": "electric_scooter", "lat": 38.9121825, "is_disabled": 0}, {"fusion_lat": 0.0, "lon": -77.00855983333334, "is_reserved": 0, "bike_id": "2638fbd4d56f8a1bf33b4167f1714b33", "fusion_lon": 0.0, "rental_uris": {"android": "https://dc.lft.to/lastmile_qr_scan", "ios": "https://dc.lft.to/lastmile_qr_scan"}, "name": "2638fbd4d56f8a1bf33b4167f1714b33", "type": "electric_scooter", "lat": 38.906522333333335, "is_disabled": 0}, {"fusion_lat": 0.0, "lon": -77.0280065, "is_reserved": 0, "bike_id": "97bebd7791086de3d972e9b84c8d1399", "fusion_lon": 0.0, "rental_uris": {"android": "https://dc.lft.to/lastmile_qr_scan", "ios": "https://dc.lft.to/lastmile_qr_scan"}, "name": "97bebd7791086de3d972e9b84c8d1399", "type": "electric_scooter", "lat": 38.892326833333335, "is_disabled": 0}, {"fusion_lat": 0.0, "lon": -77.034838, "is_reserved": 0, "bike_id": "8d02e7a413c826e14d9718b36639d358", "fusion_lon": 0.0, "rental_uris": {"android": "https://dc.lft.to/lastmile_qr_scan", "ios": "https://dc.lft.to/lastmile_qr_scan"}, "name": "8d02e7a413c826e14d9718b36639d358", "type": "electric_scooter", "lat": 38.925292, "is_disabled": 0}, {"fusion_lat": 0.0, "lon": -77.01315183333334, "is_reserved": 0, "bike_id": "263cf98342b06bb834accfbb84a75878", "fusion_lon": 0.0, "rental_uris": {"android": "https://dc.lft.to/lastmile_qr_scan", "ios": "https://dc.lft.to/lastmile_qr_scan"}, "name": "263cf98342b06bb834accfbb84a75878", "type": "electric_scooter", "lat": 38.871405833333334, "is_disabled": 0}, {"fusion_lat": 0.0, "lon": -77.0865635, "is_reserved": 0, "bike_id": "e3e6abc50847eb75a1e23be6e4af3bc6", "fusion_lon": 0.0, "rental_uris": {"android": "https://dc.lft.to/lastmile_qr_scan", "ios": "https://dc.lft.to/lastmile_qr_scan"}, "name": "e3e6abc50847eb75a1e23be6e4af3bc6", "type": "electric_bike", "lat": 38.862516666666664, "is_disabled": 0}, {"fusion_lat": 0.0, "lon": -77.0430355, "is_reserved": 0, "bike_id": "648bb0c20ee489e2b4f01f4788fa29ab", "fusion_lon": 0.0, "rental_uris": {"android": "https://dc.lft.to/lastmile_qr_scan", "ios": "https://dc.lft.to/lastmile_qr_scan"}, "name": "648bb0c20ee489e2b4f01f4788fa29ab", "type": "electric_scooter", "lat": 38.9233345, "is_disabled": 0}, {"fusion_lat": 0.0, "lon": -76.99456983333333, "is_reserved": 0, "bike_id": "851abbd3bf2ddb2cb0cabf1bda3d9721", "fusion_lon": 0.0, "rental_uris": {"android": "https://dc.lft.to/lastmile_qr_scan", "ios": "https://dc.lft.to/lastmile_qr_scan"}, "name": "851abbd3bf2ddb2cb0cabf1bda3d9721", "type": "electric_bike", "lat": 38.966179833333335, "is_disabled": 0}, {"fusion_lat": 0.0, "lon": -77.01759383333334, "is_reserved": 0, "bike_id": "5509dbdd90d441621b4e63c1720c999f", "fusion_lon": 0.0, "rental_uris": {"android": "https://dc.lft.to/lastmile_qr_scan", "ios": "https://dc.lft.to/lastmile_qr_scan"}, "name": "5509dbdd90d441621b4e63c1720c999f", "type": "electric_scooter", "lat": 38.883286166666664, "is_disabled": 0}, {"fusion_lat": 0.0, "lon": -77.038661, "is_reserved": 0, "bike_id": "443f3ac3560eba99b13374b73287a8dc", "fusion_lon": 0.0, "rental_uris": {"android": "https://dc.lft.to/lastmile_qr_scan", "ios": "https://dc.lft.to/lastmile_qr_scan"}, "name": "443f3ac3560eba99b13374b73287a8dc", "type": "electric_scooter", "lat": 38.90791633333333, "is_disabled": 0}, {"fusion_lat": 0.0, "lon": -77.00368416666667, "is_reserved": 0, "bike_id": "93fca67bdcf5be3b47789ac955de9ccb", "fusion_lon": 0.0, "rental_uris": {"android": "https://dc.lft.to/lastmile_qr_scan", "ios": "https://dc.lft.to/lastmile_qr_scan"}, "name": "93fca67bdcf5be3b47789ac955de9ccb", "type": "electric_scooter", "lat": 38.89727, "is_disabled": 0}, {"fusion_lat": 0.0, "lon": -77.035536, "is_reserved": 0, "bike_id": "bb3c11df38818f069dcbae0f837580e9", "fusion_lon": 0.0, "rental_uris": {"android": "https://dc.lft.to/lastmile_qr_scan", "ios": "https://dc.lft.to/lastmile_qr_scan"}, "name": "bb3c11df38818f069dcbae0f837580e9", "type": "electric_scooter", "lat": 38.91707183333333, "is_disabled": 0}, {"fusion_lat": 0.0, "lon": -77.03046766666667, "is_reserved": 0, "bike_id": "86f1b40b5e1d2d7d71f57c3f8f94b0bd", "fusion_lon": 0.0, "rental_uris": {"android": "https://dc.lft.to/lastmile_qr_scan", "ios": "https://dc.lft.to/lastmile_qr_scan"}, "name": "86f1b40b5e1d2d7d71f57c3f8f94b0bd", "type": "electric_scooter", "lat": 38.884087666666666, "is_disabled": 0}, {"fusion_lat": 0.0, "lon": -77.0468955, "is_reserved": 0, "bike_id": "4691cd70dec313ec218d95c05cc06db8", "fusion_lon": 0.0, "rental_uris": {"android": "https://dc.lft.to/lastmile_qr_scan", "ios": "https://dc.lft.to/lastmile_qr_scan"}, "name": "4691cd70dec313ec218d95c05cc06db8", "type": "electric_scooter", "lat": 38.92156766666667, "is_disabled": 0}, {"fusion_lat": 0.0, "lon": -77.0308285, "is_reserved": 0, "bike_id": "7ce4e80bf1cff08815a748c39c658c81", "fusion_lon": 0.0, "rental_uris": {"android": "https://dc.lft.to/lastmile_qr_scan", "ios": "https://dc.lft.to/lastmile_qr_scan"}, "name": "7ce4e80bf1cff08815a748c39c658c81", "type": "electric_scooter", "lat": 38.92384966666667, "is_disabled": 0}, {"fusion_lat": 0.0, "lon": -77.00055183333333, "is_reserved": 0, "bike_id": "1398a2b3227464b5488f67c127d379b7", "fusion_lon": 0.0, "rental_uris": {"android": "https://dc.lft.to/lastmile_qr_scan", "ios": "https://dc.lft.to/lastmile_qr_scan"}, "name": "1398a2b3227464b5488f67c127d379b7", "type": "electric_scooter", "lat": 38.89640966666666, "is_disabled": 0}, {"fusion_lat": 0.0, "lon": -76.99548483333334, "is_reserved": 0, "bike_id": "842cdee6fef66bfb495496cfe950acb9", "fusion_lon": 0.0, "rental_uris": {"android": "https://dc.lft.to/lastmile_qr_scan", "ios": "https://dc.lft.to/lastmile_qr_scan"}, "name": "842cdee6fef66bfb495496cfe950acb9", "type": "electric_scooter", "lat": 38.8625905, "is_disabled": 0}, {"fusion_lat": 0.0, "lon": -77.02431633333333, "is_reserved": 0, "bike_id": "302180e2da6c5c60264816414ad2e0d1", "fusion_lon": 0.0, "rental_uris": {"android": "https://dc.lft.to/lastmile_qr_scan", "ios": "https://dc.lft.to/lastmile_qr_scan"}, "name": "302180e2da6c5c60264816414ad2e0d1", "type": "electric_scooter", "lat": 38.89998933333333, "is_disabled": 0}, {"fusion_lat": 0.0, "lon": -76.993323, "is_reserved": 0, "bike_id": "80ebbf4a9fb32ee73d16ff7db6e2f3d3", "fusion_lon": 0.0, "rental_uris": {"android": "https://dc.lft.to/lastmile_qr_scan", "ios": "https://dc.lft.to/lastmile_qr_scan"}, "name": "80ebbf4a9fb32ee73d16ff7db6e2f3d3", "type": "electric_scooter", "lat": 38.87143566666667, "is_disabled": 0}, {"fusion_lat": 0.0, "lon": -76.97902, "is_reserved": 0, "bike_id": "008d2ff6026460616b175eddcb822f86", "fusion_lon": 0.0, "rental_uris": {"android": "https://dc.lft.to/lastmile_qr_scan", "ios": "https://dc.lft.to/lastmile_qr_scan"}, "name": "008d2ff6026460616b175eddcb822f86", "type": "electric_bike", "lat": 38.87038183333333, "is_disabled": 0}, {"fusion_lat": 0.0, "lon": -77.04655933333333, "is_reserved": 0, "bike_id": "c5d29149732839c0ae5d4cdc7b801d7a", "fusion_lon": 0.0, "rental_uris": {"android": "https://dc.lft.to/lastmile_qr_scan", "ios": "https://dc.lft.to/lastmile_qr_scan"}, "name": "c5d29149732839c0ae5d4cdc7b801d7a", "type": "electric_scooter", "lat": 38.90957066666667, "is_disabled": 0}, {"fusion_lat": 0.0, "lon": -76.96053883333333, "is_reserved": 0, "bike_id": "fb2fdac408ce038c2fb6f11a1f4a6a75", "fusion_lon": 0.0, "rental_uris": {"android": "https://dc.lft.to/lastmile_qr_scan", "ios": "https://dc.lft.to/lastmile_qr_scan"}, "name": "fb2fdac408ce038c2fb6f11a1f4a6a75", "type": "electric_bike", "lat": 38.88398733333333, "is_disabled": 0}, {"fusion_lat": 0.0, "lon": -77.02823633333334, "is_reserved": 0, "bike_id": "46a22a64d1135859a7cb34811b395093", "fusion_lon": 0.0, "rental_uris": {"android": "https://dc.lft.to/lastmile_qr_scan", "ios": "https://dc.lft.to/lastmile_qr_scan"}, "name": "46a22a64d1135859a7cb34811b395093", "type": "electric_bike", "lat": 38.96507833333333, "is_disabled": 0}, {"fusion_lat": 0.0, "lon": -76.93749166666667, "is_reserved": 0, "bike_id": "8739aa3040bdcfa6025f723e365e7134", "fusion_lon": 0.0, "rental_uris": {"android": "https://dc.lft.to/lastmile_qr_scan", "ios": "https://dc.lft.to/lastmile_qr_scan"}, "name": "8739aa3040bdcfa6025f723e365e7134", "type": "electric_scooter", "lat": 38.89042716666667, "is_disabled": 0}, {"fusion_lat": 0.0, "lon": -77.01850416666667, "is_reserved": 0, "bike_id": "a2f32e16111355ae5f8057eb9b82ffbf", "fusion_lon": 0.0, "rental_uris": {"android": "https://dc.lft.to/lastmile_qr_scan", "ios": "https://dc.lft.to/lastmile_qr_scan"}, "name": "a2f32e16111355ae5f8057eb9b82ffbf", "type": "electric_scooter", "lat": 38.9736915, "is_disabled": 0}, {"fusion_lat": 0.0, "lon": -77.02656416666666, "is_reserved": 0, "bike_id": "a6bde2aa1649f22c1a1399febd41cb47", "fusion_lon": 0.0, "rental_uris": {"android": "https://dc.lft.to/lastmile_qr_scan", "ios": "https://dc.lft.to/lastmile_qr_scan"}, "name": "a6bde2aa1649f22c1a1399febd41cb47", "type": "electric_scooter", "lat": 38.892184666666665, "is_disabled": 0}, {"fusion_lat": 0.0, "lon": -77.029476, "is_reserved": 0, "bike_id": "9733fd58eb27a28bb90e744de6082310", "fusion_lon": 0.0, "rental_uris": {"android": "https://dc.lft.to/lastmile_qr_scan", "ios": "https://dc.lft.to/lastmile_qr_scan"}, "name": "9733fd58eb27a28bb90e744de6082310", "type": "electric_bike", "lat": 38.942811166666665, "is_disabled": 0}, {"fusion_lat": 0.0, "lon": -76.99837933333333, "is_reserved": 0, "bike_id": "88980cc69b346deacb645d0202ed01a6", "fusion_lon": 0.0, "rental_uris": {"android": "https://dc.lft.to/lastmile_qr_scan", "ios": "https://dc.lft.to/lastmile_qr_scan"}, "name": "88980cc69b346deacb645d0202ed01a6", "type": "electric_scooter", "lat": 38.90032, "is_disabled": 0}, {"fusion_lat": 0.0, "lon": -76.98865183333334, "is_reserved": 0, "bike_id": "dd303566985c26b1a42f1708d8e7edda", "fusion_lon": 0.0, "rental_uris": {"android": "https://dc.lft.to/lastmile_qr_scan", "ios": "https://dc.lft.to/lastmile_qr_scan"}, "name": "dd303566985c26b1a42f1708d8e7edda", "type": "electric_bike", "lat": 38.95479316666667, "is_disabled": 0}, {"fusion_lat": 0.0, "lon": -76.98661733333333, "is_reserved": 0, "bike_id": "922bea53827a585aea2a7477bf65905e", "fusion_lon": 0.0, "rental_uris": {"android": "https://dc.lft.to/lastmile_qr_scan", "ios": "https://dc.lft.to/lastmile_qr_scan"}, "name": "922bea53827a585aea2a7477bf65905e", "type": "electric_scooter", "lat": 38.89821716666667, "is_disabled": 0}, {"fusion_lat": 0.0, "lon": -77.03464633333333, "is_reserved": 0, "bike_id": "b31ebbf03398cc932edcede5f00fde54", "fusion_lon": 0.0, "rental_uris": {"android": "https://dc.lft.to/lastmile_qr_scan", "ios": "https://dc.lft.to/lastmile_qr_scan"}, "name": "b31ebbf03398cc932edcede5f00fde54", "type": "electric_scooter", "lat": 38.90815416666667, "is_disabled": 0}, {"fusion_lat": 0.0, "lon": -76.98723383333333, "is_reserved": 0, "bike_id": "93cdc170b376a7c52e1139af9a70f999", "fusion_lon": 0.0, "rental_uris": {"android": "https://dc.lft.to/lastmile_qr_scan", "ios": "https://dc.lft.to/lastmile_qr_scan"}, "name": "93cdc170b376a7c52e1139af9a70f999", "type": "electric_scooter", "lat": 38.86707416666667, "is_disabled": 0}, {"fusion_lat": 0.0, "lon": -77.03958633333333, "is_reserved": 0, "bike_id": "39677b6f175ae244dd55e2ca51cc7f4d", "fusion_lon": 0.0, "rental_uris": {"android": "https://dc.lft.to/lastmile_qr_scan", "ios": "https://dc.lft.to/lastmile_qr_scan"}, "name": "39677b6f175ae244dd55e2ca51cc7f4d", "type": "electric_scooter", "lat": 38.916290333333336, "is_disabled": 0}, {"fusion_lat": 0.0, "lon": -77.03316116666667, "is_reserved": 0, "bike_id": "3484b516b330826311cea1c6213565b5", "fusion_lon": 0.0, "rental_uris": {"android": "https://dc.lft.to/lastmile_qr_scan", "ios": "https://dc.lft.to/lastmile_qr_scan"}, "name": "3484b516b330826311cea1c6213565b5", "type": "electric_scooter", "lat": 38.9301155, "is_disabled": 0}, {"fusion_lat": 0.0, "lon": -76.99460416666666, "is_reserved": 0, "bike_id": "59c75f1f229131d221528beb9faf95b5", "fusion_lon": 0.0, "rental_uris": {"android": "https://dc.lft.to/lastmile_qr_scan", "ios": "https://dc.lft.to/lastmile_qr_scan"}, "name": "59c75f1f229131d221528beb9faf95b5", "type": "electric_scooter", "lat": 38.86215766666667, "is_disabled": 0}, {"fusion_lat": 0.0, "lon": -77.05314233333333, "is_reserved": 0, "bike_id": "b985480aeab3fec8f2037607ccdc399d", "fusion_lon": 0.0, "rental_uris": {"android": "https://dc.lft.to/lastmile_qr_scan", "ios": "https://dc.lft.to/lastmile_qr_scan"}, "name": "b985480aeab3fec8f2037607ccdc399d", "type": "electric_scooter", "lat": 38.900787666666666, "is_disabled": 0}, {"fusion_lat": 0.0, "lon": -77.0018715, "is_reserved": 0, "bike_id": "67c528c917d974f35b88efd17a1b8a03", "fusion_lon": 0.0, "rental_uris": {"android": "https://dc.lft.to/lastmile_qr_scan", "ios": "https://dc.lft.to/lastmile_qr_scan"}, "name": "67c528c917d974f35b88efd17a1b8a03", "type": "electric_scooter", "lat": 38.82198016666667, "is_disabled": 0}, {"fusion_lat": 0.0, "lon": -77.04349666666667, "is_reserved": 0, "bike_id": "5d43a83249e672e3542571ad57a13a62", "fusion_lon": 0.0, "rental_uris": {"android": "https://dc.lft.to/lastmile_qr_scan", "ios": "https://dc.lft.to/lastmile_qr_scan"}, "name": "5d43a83249e672e3542571ad57a13a62", "type": "electric_scooter", "lat": 38.90719766666667, "is_disabled": 0}, {"fusion_lat": 0.0, "lon": -77.02457383333333, "is_reserved": 0, "bike_id": "afe56051c0a502a1f1c35844d3fde4fe", "fusion_lon": 0.0, "rental_uris": {"android": "https://dc.lft.to/lastmile_qr_scan", "ios": "https://dc.lft.to/lastmile_qr_scan"}, "name": "afe56051c0a502a1f1c35844d3fde4fe", "type": "electric_scooter", "lat": 38.91683166666667, "is_disabled": 0}, {"fusion_lat": 0.0, "lon": -76.96157566666666, "is_reserved": 0, "bike_id": "af034b38985fc753bf5a726d093c01ca", "fusion_lon": 0.0, "rental_uris": {"android": "https://dc.lft.to/lastmile_qr_scan", "ios": "https://dc.lft.to/lastmile_qr_scan"}, "name": "af034b38985fc753bf5a726d093c01ca", "type": "electric_scooter", "lat": 38.883587, "is_disabled": 0}, {"fusion_lat": 0.0, "lon": -77.034831, "is_reserved": 0, "bike_id": "e31cfaaea30d25976ff010b8f9c76b1e", "fusion_lon": 0.0, "rental_uris": {"android": "https://dc.lft.to/lastmile_qr_scan", "ios": "https://dc.lft.to/lastmile_qr_scan"}, "name": "e31cfaaea30d25976ff010b8f9c76b1e", "type": "electric_scooter", "lat": 38.92352783333333, "is_disabled": 0}, {"fusion_lat": 0.0, "lon": -77.028428, "is_reserved": 0, "bike_id": "84b282fb561ecbe33360880dd12b4a67", "fusion_lon": 0.0, "rental_uris": {"android": "https://dc.lft.to/lastmile_qr_scan", "ios": "https://dc.lft.to/lastmile_qr_scan"}, "name": "84b282fb561ecbe33360880dd12b4a67", "type": "electric_scooter", "lat": 38.92572, "is_disabled": 0}, {"fusion_lat": 0.0, "lon": -77.04261666666666, "is_reserved": 0, "bike_id": "a73251ef1814faa7180f9a5588386d42", "fusion_lon": 0.0, "rental_uris": {"android": "https://dc.lft.to/lastmile_qr_scan", "ios": "https://dc.lft.to/lastmile_qr_scan"}, "name": "a73251ef1814faa7180f9a5588386d42", "type": "electric_scooter", "lat": 38.922469, "is_disabled": 0}, {"fusion_lat": 0.0, "lon": -76.98534616666667, "is_reserved": 0, "bike_id": "887c3a5a2cb29864e21a08358f5038db", "fusion_lon": 0.0, "rental_uris": {"android": "https://dc.lft.to/lastmile_qr_scan", "ios": "https://dc.lft.to/lastmile_qr_scan"}, "name": "887c3a5a2cb29864e21a08358f5038db", "type": "electric_scooter", "lat": 38.9102275, "is_disabled": 0}, {"fusion_lat": 0.0, "lon": -77.024762, "is_reserved": 0, "bike_id": "0faedc474d9cd2661c48a874f38aa20d", "fusion_lon": 0.0, "rental_uris": {"android": "https://dc.lft.to/lastmile_qr_scan", "ios": "https://dc.lft.to/lastmile_qr_scan"}, "name": "0faedc474d9cd2661c48a874f38aa20d", "type": "electric_scooter", "lat": 38.93104316666667, "is_disabled": 0}, {"fusion_lat": 0.0, "lon": -76.9858975, "is_reserved": 0, "bike_id": "c888d8c96597b41eb774536bc2d799ad", "fusion_lon": 0.0, "rental_uris": {"android": "https://dc.lft.to/lastmile_qr_scan", "ios": "https://dc.lft.to/lastmile_qr_scan"}, "name": "c888d8c96597b41eb774536bc2d799ad", "type": "electric_scooter", "lat": 38.8605915, "is_disabled": 0}, {"fusion_lat": 0.0, "lon": -77.10598616666667, "is_reserved": 0, "bike_id": "9b84ecb3ab3c00d6cf8bdc368ea5c013", "fusion_lon": 0.0, "rental_uris": {"android": "https://dc.lft.to/lastmile_qr_scan", "ios": "https://dc.lft.to/lastmile_qr_scan"}, "name": "9b84ecb3ab3c00d6cf8bdc368ea5c013", "type": "electric_bike", "lat": 38.9289395, "is_disabled": 0}, {"fusion_lat": 0.0, "lon": -76.98723433333333, "is_reserved": 0, "bike_id": "008bce0dbe778a87e550f9276e0a0dac", "fusion_lon": 0.0, "rental_uris": {"android": "https://dc.lft.to/lastmile_qr_scan", "ios": "https://dc.lft.to/lastmile_qr_scan"}, "name": "008bce0dbe778a87e550f9276e0a0dac", "type": "electric_scooter", "lat": 38.867075166666666, "is_disabled": 0}, {"fusion_lat": 0.0, "lon": -77.02531416666666, "is_reserved": 0, "bike_id": "89376a14d6ff1529483935434cea70d5", "fusion_lon": 0.0, "rental_uris": {"android": "https://dc.lft.to/lastmile_qr_scan", "ios": "https://dc.lft.to/lastmile_qr_scan"}, "name": "89376a14d6ff1529483935434cea70d5", "type": "electric_scooter", "lat": 38.91478983333333, "is_disabled": 0}, {"fusion_lat": 0.0, "lon": -77.04243583333333, "is_reserved": 0, "bike_id": "12bd6b90b2f97d0a8a3f059d4f60237e", "fusion_lon": 0.0, "rental_uris": {"android": "https://dc.lft.to/lastmile_qr_scan", "ios": "https://dc.lft.to/lastmile_qr_scan"}, "name": "12bd6b90b2f97d0a8a3f059d4f60237e", "type": "electric_scooter", "lat": 38.9242875, "is_disabled": 0}, {"fusion_lat": 0.0, "lon": -77.020786, "is_reserved": 0, "bike_id": "142b2a6f62ad585ae107aa55c278f826", "fusion_lon": 0.0, "rental_uris": {"android": "https://dc.lft.to/lastmile_qr_scan", "ios": "https://dc.lft.to/lastmile_qr_scan"}, "name": "142b2a6f62ad585ae107aa55c278f826", "type": "electric_scooter", "lat": 38.927027333333335, "is_disabled": 0}, {"fusion_lat": 0.0, "lon": -77.02532166666667, "is_reserved": 0, "bike_id": "e368dc7a710d62980a7e90f911538189", "fusion_lon": 0.0, "rental_uris": {"android": "https://dc.lft.to/lastmile_qr_scan", "ios": "https://dc.lft.to/lastmile_qr_scan"}, "name": "e368dc7a710d62980a7e90f911538189", "type": "electric_scooter", "lat": 38.921025, "is_disabled": 0}, {"fusion_lat": 0.0, "lon": -77.043318, "is_reserved": 0, "bike_id": "c4de73dc4c427bec739560b83b76373b", "fusion_lon": 0.0, "rental_uris": {"android": "https://dc.lft.to/lastmile_qr_scan", "ios": "https://dc.lft.to/lastmile_qr_scan"}, "name": "c4de73dc4c427bec739560b83b76373b", "type": "electric_scooter", "lat": 38.892210166666665, "is_disabled": 0}, {"fusion_lat": 0.0, "lon": -77.034612, "is_reserved": 0, "bike_id": "03540a107d829dfd2605d5a17b5571c1", "fusion_lon": 0.0, "rental_uris": {"android": "https://dc.lft.to/lastmile_qr_scan", "ios": "https://dc.lft.to/lastmile_qr_scan"}, "name": "03540a107d829dfd2605d5a17b5571c1", "type": "electric_scooter", "lat": 38.905605333333334, "is_disabled": 0}, {"fusion_lat": 0.0, "lon": -77.03282233333333, "is_reserved": 0, "bike_id": "41c533884ab76021fdf7f164ce8ed840", "fusion_lon": 0.0, "rental_uris": {"android": "https://dc.lft.to/lastmile_qr_scan", "ios": "https://dc.lft.to/lastmile_qr_scan"}, "name": "41c533884ab76021fdf7f164ce8ed840", "type": "electric_scooter", "lat": 38.92834716666667, "is_disabled": 0}, {"fusion_lat": 0.0, "lon": -77.00695233333333, "is_reserved": 0, "bike_id": "d232fe61a92864ce853b70905c04bed5", "fusion_lon": 0.0, "rental_uris": {"android": "https://dc.lft.to/lastmile_qr_scan", "ios": "https://dc.lft.to/lastmile_qr_scan"}, "name": "d232fe61a92864ce853b70905c04bed5", "type": "electric_scooter", "lat": 38.90542833333333, "is_disabled": 0}, {"fusion_lat": 0.0, "lon": -77.048787, "is_reserved": 0, "bike_id": "7779504f7d8defae9625de143e479b25", "fusion_lon": 0.0, "rental_uris": {"android": "https://dc.lft.to/lastmile_qr_scan", "ios": "https://dc.lft.to/lastmile_qr_scan"}, "name": "7779504f7d8defae9625de143e479b25", "type": "electric_scooter", "lat": 38.9010835, "is_disabled": 0}, {"fusion_lat": 0.0, "lon": -77.03644833333334, "is_reserved": 0, "bike_id": "1391e00d4b8587418109ea389f7b5a09", "fusion_lon": 0.0, "rental_uris": {"android": "https://dc.lft.to/lastmile_qr_scan", "ios": "https://dc.lft.to/lastmile_qr_scan"}, "name": "1391e00d4b8587418109ea389f7b5a09", "type": "electric_scooter", "lat": 38.92106033333334, "is_disabled": 0}, {"fusion_lat": 0.0, "lon": -77.03210383333334, "is_reserved": 0, "bike_id": "14eb53231edd18020e90478254c045db", "fusion_lon": 0.0, "rental_uris": {"android": "https://dc.lft.to/lastmile_qr_scan", "ios": "https://dc.lft.to/lastmile_qr_scan"}, "name": "14eb53231edd18020e90478254c045db", "type": "electric_scooter", "lat": 38.91776733333333, "is_disabled": 0}, {"fusion_lat": 0.0, "lon": -77.02804633333334, "is_reserved": 0, "bike_id": "c1af04294953b31950a5ae4d10df7100", "fusion_lon": 0.0, "rental_uris": {"android": "https://dc.lft.to/lastmile_qr_scan", "ios": "https://dc.lft.to/lastmile_qr_scan"}, "name": "c1af04294953b31950a5ae4d10df7100", "type": "electric_scooter", "lat": 38.90973016666667, "is_disabled": 0}, {"fusion_lat": 0.0, "lon": -76.98508283333334, "is_reserved": 0, "bike_id": "a80ed31ce4f148deac8585c6cbf45981", "fusion_lon": 0.0, "rental_uris": {"android": "https://dc.lft.to/lastmile_qr_scan", "ios": "https://dc.lft.to/lastmile_qr_scan"}, "name": "a80ed31ce4f148deac8585c6cbf45981", "type": "electric_scooter", "lat": 38.866496, "is_disabled": 0}, {"fusion_lat": 0.0, "lon": -77.04646183333334, "is_reserved": 0, "bike_id": "408ff5245279f1aa48758cc69afee44b", "fusion_lon": 0.0, "rental_uris": {"android": "https://dc.lft.to/lastmile_qr_scan", "ios": "https://dc.lft.to/lastmile_qr_scan"}, "name": "408ff5245279f1aa48758cc69afee44b", "type": "electric_scooter", "lat": 38.903341, "is_disabled": 0}, {"fusion_lat": 0.0, "lon": -76.98104933333333, "is_reserved": 0, "bike_id": "56fe5cd1141d84554d63b9c86dc34bdc", "fusion_lon": 0.0, "rental_uris": {"android": "https://dc.lft.to/lastmile_qr_scan", "ios": "https://dc.lft.to/lastmile_qr_scan"}, "name": "56fe5cd1141d84554d63b9c86dc34bdc", "type": "electric_scooter", "lat": 38.903915, "is_disabled": 0}, {"fusion_lat": 0.0, "lon": -76.99018033333333, "is_reserved": 0, "bike_id": "876582dd040083292a9926b4ff8f8104", "fusion_lon": 0.0, "rental_uris": {"android": "https://dc.lft.to/lastmile_qr_scan", "ios": "https://dc.lft.to/lastmile_qr_scan"}, "name": "876582dd040083292a9926b4ff8f8104", "type": "electric_scooter", "lat": 38.88185266666667, "is_disabled": 0}, {"fusion_lat": 0.0, "lon": -77.00065616666667, "is_reserved": 0, "bike_id": "334dbc1ebc793694a2b52fc3c56a9791", "fusion_lon": 0.0, "rental_uris": {"android": "https://dc.lft.to/lastmile_qr_scan", "ios": "https://dc.lft.to/lastmile_qr_scan"}, "name": "334dbc1ebc793694a2b52fc3c56a9791", "type": "electric_scooter", "lat": 38.8998805, "is_disabled": 0}, {"fusion_lat": 0.0, "lon": -77.027665, "is_reserved": 0, "bike_id": "8b3bb3a4be6995d576e3643e616d4590", "fusion_lon": 0.0, "rental_uris": {"android": "https://dc.lft.to/lastmile_qr_scan", "ios": "https://dc.lft.to/lastmile_qr_scan"}, "name": "8b3bb3a4be6995d576e3643e616d4590", "type": "electric_scooter", "lat": 38.929768, "is_disabled": 0}, {"fusion_lat": 0.0, "lon": -77.0005495, "is_reserved": 0, "bike_id": "43ea399a8a0a153e935c1b11414a0720", "fusion_lon": 0.0, "rental_uris": {"android": "https://dc.lft.to/lastmile_qr_scan", "ios": "https://dc.lft.to/lastmile_qr_scan"}, "name": "43ea399a8a0a153e935c1b11414a0720", "type": "electric_scooter", "lat": 38.891624, "is_disabled": 0}, {"fusion_lat": 0.0, "lon": -77.04025833333333, "is_reserved": 0, "bike_id": "a91ea4e3fa3fd52f1ee52e029d8f096e", "fusion_lon": 0.0, "rental_uris": {"android": "https://dc.lft.to/lastmile_qr_scan", "ios": "https://dc.lft.to/lastmile_qr_scan"}, "name": "a91ea4e3fa3fd52f1ee52e029d8f096e", "type": "electric_scooter", "lat": 38.917048666666666, "is_disabled": 0}, {"fusion_lat": 0.0, "lon": -77.05171066666666, "is_reserved": 0, "bike_id": "5f417c11fefc073ba1455553c056fab0", "fusion_lon": 0.0, "rental_uris": {"android": "https://dc.lft.to/lastmile_qr_scan", "ios": "https://dc.lft.to/lastmile_qr_scan"}, "name": "5f417c11fefc073ba1455553c056fab0", "type": "electric_scooter", "lat": 38.924047, "is_disabled": 0}, {"fusion_lat": 0.0, "lon": -77.04337666666666, "is_reserved": 0, "bike_id": "4fc29203a662ffb7288b3604ab99da2d", "fusion_lon": 0.0, "rental_uris": {"android": "https://dc.lft.to/lastmile_qr_scan", "ios": "https://dc.lft.to/lastmile_qr_scan"}, "name": "4fc29203a662ffb7288b3604ab99da2d", "type": "electric_scooter", "lat": 38.905905833333335, "is_disabled": 0}, {"fusion_lat": 0.0, "lon": -77.02095783333333, "is_reserved": 0, "bike_id": "485f16b67c9095c44a3655fbb80587eb", "fusion_lon": 0.0, "rental_uris": {"android": "https://dc.lft.to/lastmile_qr_scan", "ios": "https://dc.lft.to/lastmile_qr_scan"}, "name": "485f16b67c9095c44a3655fbb80587eb", "type": "electric_scooter", "lat": 38.921496, "is_disabled": 0}, {"fusion_lat": 0.0, "lon": -77.03512183333333, "is_reserved": 0, "bike_id": "d05efdaa0ecf355a7390424bba79f2b9", "fusion_lon": 0.0, "rental_uris": {"android": "https://dc.lft.to/lastmile_qr_scan", "ios": "https://dc.lft.to/lastmile_qr_scan"}, "name": "d05efdaa0ecf355a7390424bba79f2b9", "type": "electric_scooter", "lat": 38.918686666666666, "is_disabled": 0}, {"fusion_lat": 0.0, "lon": -76.99352516666667, "is_reserved": 0, "bike_id": "490843a3288fde1c8dade1f91bf1d655", "fusion_lon": 0.0, "rental_uris": {"android": "https://dc.lft.to/lastmile_qr_scan", "ios": "https://dc.lft.to/lastmile_qr_scan"}, "name": "490843a3288fde1c8dade1f91bf1d655", "type": "electric_scooter", "lat": 38.91484333333333, "is_disabled": 0}, {"fusion_lat": 0.0, "lon": -77.03433516666666, "is_reserved": 0, "bike_id": "2e31bca1ba72569f4ac2deca476e0feb", "fusion_lon": 0.0, "rental_uris": {"android": "https://dc.lft.to/lastmile_qr_scan", "ios": "https://dc.lft.to/lastmile_qr_scan"}, "name": "2e31bca1ba72569f4ac2deca476e0feb", "type": "electric_scooter", "lat": 38.904401666666665, "is_disabled": 0}, {"fusion_lat": 0.0, "lon": -76.98108516666667, "is_reserved": 0, "bike_id": "d83d63e88eacd598acd64d5480e1b283", "fusion_lon": 0.0, "rental_uris": {"android": "https://dc.lft.to/lastmile_qr_scan", "ios": "https://dc.lft.to/lastmile_qr_scan"}, "name": "d83d63e88eacd598acd64d5480e1b283", "type": "electric_bike", "lat": 38.877293, "is_disabled": 0}, {"fusion_lat": 0.0, "lon": -77.005694, "is_reserved": 0, "bike_id": "76d7a7673a8f7b762f2a8fb0a4d5d123", "fusion_lon": 0.0, "rental_uris": {"android": "https://dc.lft.to/lastmile_qr_scan", "ios": "https://dc.lft.to/lastmile_qr_scan"}, "name": "76d7a7673a8f7b762f2a8fb0a4d5d123", "type": "electric_scooter", "lat": 38.900308, "is_disabled": 0}, {"fusion_lat": 0.0, "lon": -77.0360755, "is_reserved": 0, "bike_id": "cdc913aff1916f03de20ec48b5c7f732", "fusion_lon": 0.0, "rental_uris": {"android": "https://dc.lft.to/lastmile_qr_scan", "ios": "https://dc.lft.to/lastmile_qr_scan"}, "name": "cdc913aff1916f03de20ec48b5c7f732", "type": "electric_scooter", "lat": 38.92326583333333, "is_disabled": 0}, {"fusion_lat": 0.0, "lon": -77.0159755, "is_reserved": 0, "bike_id": "c1c276fe1b4fc1df50c042b43753a742", "fusion_lon": 0.0, "rental_uris": {"android": "https://dc.lft.to/lastmile_qr_scan", "ios": "https://dc.lft.to/lastmile_qr_scan"}, "name": "c1c276fe1b4fc1df50c042b43753a742", "type": "electric_scooter", "lat": 38.949443, "is_disabled": 0}, {"fusion_lat": 0.0, "lon": -77.05257183333333, "is_reserved": 0, "bike_id": "7a8e62019943c50fffb93cb7180613f7", "fusion_lon": 0.0, "rental_uris": {"android": "https://dc.lft.to/lastmile_qr_scan", "ios": "https://dc.lft.to/lastmile_qr_scan"}, "name": "7a8e62019943c50fffb93cb7180613f7", "type": "electric_scooter", "lat": 38.923757, "is_disabled": 0}, {"fusion_lat": 0.0, "lon": -76.98552333333333, "is_reserved": 0, "bike_id": "7b970171df157bb399c4af793bf4b6dd", "fusion_lon": 0.0, "rental_uris": {"android": "https://dc.lft.to/lastmile_qr_scan", "ios": "https://dc.lft.to/lastmile_qr_scan"}, "name": "7b970171df157bb399c4af793bf4b6dd", "type": "electric_scooter", "lat": 38.910293833333334, "is_disabled": 0}, {"fusion_lat": 0.0, "lon": -76.983108, "is_reserved": 0, "bike_id": "4a34912db5efc6c6cc3f61621d70e43a", "fusion_lon": 0.0, "rental_uris": {"android": "https://dc.lft.to/lastmile_qr_scan", "ios": "https://dc.lft.to/lastmile_qr_scan"}, "name": "4a34912db5efc6c6cc3f61621d70e43a", "type": "electric_scooter", "lat": 38.8688705, "is_disabled": 0}, {"fusion_lat": 0.0, "lon": -77.0120675, "is_reserved": 0, "bike_id": "0120600850449234f82a94bfb8c65c1f", "fusion_lon": 0.0, "rental_uris": {"android": "https://dc.lft.to/lastmile_qr_scan", "ios": "https://dc.lft.to/lastmile_qr_scan"}, "name": "0120600850449234f82a94bfb8c65c1f", "type": "electric_scooter", "lat": 38.92120416666667, "is_disabled": 0}, {"fusion_lat": 0.0, "lon": -77.02533433333333, "is_reserved": 0, "bike_id": "329b7c32fa2391f6af898f07ea8af42f", "fusion_lon": 0.0, "rental_uris": {"android": "https://dc.lft.to/lastmile_qr_scan", "ios": "https://dc.lft.to/lastmile_qr_scan"}, "name": "329b7c32fa2391f6af898f07ea8af42f", "type": "electric_scooter", "lat": 38.92746316666667, "is_disabled": 0}, {"fusion_lat": 0.0, "lon": -77.03646733333333, "is_reserved": 0, "bike_id": "d70bbe82d50946927afc4505db73298c", "fusion_lon": 0.0, "rental_uris": {"android": "https://dc.lft.to/lastmile_qr_scan", "ios": "https://dc.lft.to/lastmile_qr_scan"}, "name": "d70bbe82d50946927afc4505db73298c", "type": "electric_scooter", "lat": 38.92260816666667, "is_disabled": 0}, {"fusion_lat": 0.0, "lon": -77.03287133333333, "is_reserved": 0, "bike_id": "80e0a87a21e3aeff744a1b364cc11592", "fusion_lon": 0.0, "rental_uris": {"android": "https://dc.lft.to/lastmile_qr_scan", "ios": "https://dc.lft.to/lastmile_qr_scan"}, "name": "80e0a87a21e3aeff744a1b364cc11592", "type": "electric_scooter", "lat": 38.935295333333336, "is_disabled": 0}, {"fusion_lat": 0.0, "lon": -76.99504816666666, "is_reserved": 0, "bike_id": "8e5cc211cc69bb84c9642301817014c9", "fusion_lon": 0.0, "rental_uris": {"android": "https://dc.lft.to/lastmile_qr_scan", "ios": "https://dc.lft.to/lastmile_qr_scan"}, "name": "8e5cc211cc69bb84c9642301817014c9", "type": "electric_scooter", "lat": 38.90978533333333, "is_disabled": 0}, {"fusion_lat": 0.0, "lon": -76.99643483333334, "is_reserved": 0, "bike_id": "c7f77c64117cc8dbacde48af4c1216c8", "fusion_lon": 0.0, "rental_uris": {"android": "https://dc.lft.to/lastmile_qr_scan", "ios": "https://dc.lft.to/lastmile_qr_scan"}, "name": "c7f77c64117cc8dbacde48af4c1216c8", "type": "electric_scooter", "lat": 38.88719783333333, "is_disabled": 0}, {"fusion_lat": 0.0, "lon": -77.02716366666667, "is_reserved": 0, "bike_id": "d6276e0d19f0bfff2952d2b179c0fa80", "fusion_lon": 0.0, "rental_uris": {"android": "https://dc.lft.to/lastmile_qr_scan", "ios": "https://dc.lft.to/lastmile_qr_scan"}, "name": "d6276e0d19f0bfff2952d2b179c0fa80", "type": "electric_scooter", "lat": 38.924681666666665, "is_disabled": 0}, {"fusion_lat": 0.0, "lon": -76.99793, "is_reserved": 0, "bike_id": "1a153303ae69075769a4115ab60d21c2", "fusion_lon": 0.0, "rental_uris": {"android": "https://dc.lft.to/lastmile_qr_scan", "ios": "https://dc.lft.to/lastmile_qr_scan"}, "name": "1a153303ae69075769a4115ab60d21c2", "type": "electric_scooter", "lat": 38.890900333333335, "is_disabled": 0}, {"fusion_lat": 0.0, "lon": -77.02590866666667, "is_reserved": 0, "bike_id": "c8c339867cd6549f380f861bc3bd70b1", "fusion_lon": 0.0, "rental_uris": {"android": "https://dc.lft.to/lastmile_qr_scan", "ios": "https://dc.lft.to/lastmile_qr_scan"}, "name": "c8c339867cd6549f380f861bc3bd70b1", "type": "electric_scooter", "lat": 38.96391783333333, "is_disabled": 0}, {"fusion_lat": 0.0, "lon": -76.97827233333334, "is_reserved": 0, "bike_id": "e6cf4dfb17a395c7e5617d9451da24c3", "fusion_lon": 0.0, "rental_uris": {"android": "https://dc.lft.to/lastmile_qr_scan", "ios": "https://dc.lft.to/lastmile_qr_scan"}, "name": "e6cf4dfb17a395c7e5617d9451da24c3", "type": "electric_bike", "lat": 38.8436685, "is_disabled": 0}, {"fusion_lat": 0.0, "lon": -76.97424766666667, "is_reserved": 0, "bike_id": "3f807f759afe3cf91de2fd6bf340ae20", "fusion_lon": 0.0, "rental_uris": {"android": "https://dc.lft.to/lastmile_qr_scan", "ios": "https://dc.lft.to/lastmile_qr_scan"}, "name": "3f807f759afe3cf91de2fd6bf340ae20", "type": "electric_scooter", "lat": 38.904011833333335, "is_disabled": 0}, {"fusion_lat": 0.0, "lon": -76.943831, "is_reserved": 0, "bike_id": "ce8141a654889622081e1d644bbbb1c0", "fusion_lon": 0.0, "rental_uris": {"android": "https://dc.lft.to/lastmile_qr_scan", "ios": "https://dc.lft.to/lastmile_qr_scan"}, "name": "ce8141a654889622081e1d644bbbb1c0", "type": "electric_scooter", "lat": 38.89324333333333, "is_disabled": 0}, {"fusion_lat": 0.0, "lon": -77.01907633333333, "is_reserved": 0, "bike_id": "dd24b003765f7f78f7be8eb1e79d6115", "fusion_lon": 0.0, "rental_uris": {"android": "https://dc.lft.to/lastmile_qr_scan", "ios": "https://dc.lft.to/lastmile_qr_scan"}, "name": "dd24b003765f7f78f7be8eb1e79d6115", "type": "electric_scooter", "lat": 38.9193505, "is_disabled": 0}, {"fusion_lat": 0.0, "lon": -76.93753616666666, "is_reserved": 0, "bike_id": "4275016646fe3c34a3c86e69cd31fc82", "fusion_lon": 0.0, "rental_uris": {"android": "https://dc.lft.to/lastmile_qr_scan", "ios": "https://dc.lft.to/lastmile_qr_scan"}, "name": "4275016646fe3c34a3c86e69cd31fc82", "type": "electric_scooter", "lat": 38.890434666666664, "is_disabled": 0}, {"fusion_lat": 0.0, "lon": -77.04351916666667, "is_reserved": 0, "bike_id": "d65e4b525427575c553db73fd66a6fa0", "fusion_lon": 0.0, "rental_uris": {"android": "https://dc.lft.to/lastmile_qr_scan", "ios": "https://dc.lft.to/lastmile_qr_scan"}, "name": "d65e4b525427575c553db73fd66a6fa0", "type": "electric_scooter", "lat": 38.907173666666665, "is_disabled": 0}, {"fusion_lat": 0.0, "lon": -77.00011583333334, "is_reserved": 0, "bike_id": "cd146767dd549427f42758dae14db0c8", "fusion_lon": 0.0, "rental_uris": {"android": "https://dc.lft.to/lastmile_qr_scan", "ios": "https://dc.lft.to/lastmile_qr_scan"}, "name": "cd146767dd549427f42758dae14db0c8", "type": "electric_scooter", "lat": 38.89302333333333, "is_disabled": 0}, {"fusion_lat": 0.0, "lon": -77.03368183333333, "is_reserved": 0, "bike_id": "6a32675f5393da9e6e011df7f8aad235", "fusion_lon": 0.0, "rental_uris": {"android": "https://dc.lft.to/lastmile_qr_scan", "ios": "https://dc.lft.to/lastmile_qr_scan"}, "name": "6a32675f5393da9e6e011df7f8aad235", "type": "electric_scooter", "lat": 38.89922033333333, "is_disabled": 0}, {"fusion_lat": 0.0, "lon": -76.98625383333334, "is_reserved": 0, "bike_id": "dfa15a74fb14fe5bcd7a4345dce14c1b", "fusion_lon": 0.0, "rental_uris": {"android": "https://dc.lft.to/lastmile_qr_scan", "ios": "https://dc.lft.to/lastmile_qr_scan"}, "name": "dfa15a74fb14fe5bcd7a4345dce14c1b", "type": "electric_scooter", "lat": 38.90114633333334, "is_disabled": 0}, {"fusion_lat": 0.0, "lon": -77.03220283333333, "is_reserved": 0, "bike_id": "cec3cd613df13d65a446fc7d72df9329", "fusion_lon": 0.0, "rental_uris": {"android": "https://dc.lft.to/lastmile_qr_scan", "ios": "https://dc.lft.to/lastmile_qr_scan"}, "name": "cec3cd613df13d65a446fc7d72df9329", "type": "electric_scooter", "lat": 38.915616666666665, "is_disabled": 0}, {"fusion_lat": 0.0, "lon": -77.00834883333333, "is_reserved": 0, "bike_id": "b30872454390e17754e9fe6de031dfc0", "fusion_lon": 0.0, "rental_uris": {"android": "https://dc.lft.to/lastmile_qr_scan", "ios": "https://dc.lft.to/lastmile_qr_scan"}, "name": "b30872454390e17754e9fe6de031dfc0", "type": "electric_scooter", "lat": 38.922434333333335, "is_disabled": 0}, {"fusion_lat": 0.0, "lon": -77.03190733333334, "is_reserved": 0, "bike_id": "4d99d195f3a4e4a5022e50264fbe8bc1", "fusion_lon": 0.0, "rental_uris": {"android": "https://dc.lft.to/lastmile_qr_scan", "ios": "https://dc.lft.to/lastmile_qr_scan"}, "name": "4d99d195f3a4e4a5022e50264fbe8bc1", "type": "electric_scooter", "lat": 38.89665316666667, "is_disabled": 0}, {"fusion_lat": 0.0, "lon": -76.99775683333333, "is_reserved": 0, "bike_id": "13c990d9481c4834a55b412d7913c359", "fusion_lon": 0.0, "rental_uris": {"android": "https://dc.lft.to/lastmile_qr_scan", "ios": "https://dc.lft.to/lastmile_qr_scan"}, "name": "13c990d9481c4834a55b412d7913c359", "type": "electric_scooter", "lat": 38.844294166666664, "is_disabled": 0}, {"fusion_lat": 0.0, "lon": -77.090644, "is_reserved": 0, "bike_id": "d2e3a112e996972cdfe1e3ee03ed46d4", "fusion_lon": 0.0, "rental_uris": {"android": "https://dc.lft.to/lastmile_qr_scan", "ios": "https://dc.lft.to/lastmile_qr_scan"}, "name": "d2e3a112e996972cdfe1e3ee03ed46d4", "type": "electric_bike", "lat": 38.86258933333333, "is_disabled": 0}, {"fusion_lat": 0.0, "lon": -77.01768116666666, "is_reserved": 0, "bike_id": "98f2db7f6fc7e3d76285fefaccc19462", "fusion_lon": 0.0, "rental_uris": {"android": "https://dc.lft.to/lastmile_qr_scan", "ios": "https://dc.lft.to/lastmile_qr_scan"}, "name": "98f2db7f6fc7e3d76285fefaccc19462", "type": "electric_scooter", "lat": 38.87703166666667, "is_disabled": 0}, {"fusion_lat": 0.0, "lon": -77.072353, "is_reserved": 0, "bike_id": "ba3fbc159380a1e757d19ba2418d369a", "fusion_lon": 0.0, "rental_uris": {"android": "https://dc.lft.to/lastmile_qr_scan", "ios": "https://dc.lft.to/lastmile_qr_scan"}, "name": "ba3fbc159380a1e757d19ba2418d369a", "type": "electric_scooter", "lat": 38.95969216666667, "is_disabled": 0}, {"fusion_lat": 0.0, "lon": -77.01816433333333, "is_reserved": 0, "bike_id": "8fb860261d36ed4bf73651a371a25eba", "fusion_lon": 0.0, "rental_uris": {"android": "https://dc.lft.to/lastmile_qr_scan", "ios": "https://dc.lft.to/lastmile_qr_scan"}, "name": "8fb860261d36ed4bf73651a371a25eba", "type": "electric_scooter", "lat": 38.9236715, "is_disabled": 0}, {"fusion_lat": 0.0, "lon": -76.98463183333334, "is_reserved": 0, "bike_id": "a83c04ef95884b7ac05880d6ec368106", "fusion_lon": 0.0, "rental_uris": {"android": "https://dc.lft.to/lastmile_qr_scan", "ios": "https://dc.lft.to/lastmile_qr_scan"}, "name": "a83c04ef95884b7ac05880d6ec368106", "type": "electric_scooter", "lat": 38.90000166666667, "is_disabled": 0}, {"fusion_lat": 0.0, "lon": -77.00440366666666, "is_reserved": 0, "bike_id": "67fdbddb02cc5203d6ef9d4efda600e0", "fusion_lon": 0.0, "rental_uris": {"android": "https://dc.lft.to/lastmile_qr_scan", "ios": "https://dc.lft.to/lastmile_qr_scan"}, "name": "67fdbddb02cc5203d6ef9d4efda600e0", "type": "electric_scooter", "lat": 38.8752515, "is_disabled": 0}, {"fusion_lat": 0.0, "lon": -77.023828, "is_reserved": 0, "bike_id": "94e1735d900d09125b7ff7d31aa18b7e", "fusion_lon": 0.0, "rental_uris": {"android": "https://dc.lft.to/lastmile_qr_scan", "ios": "https://dc.lft.to/lastmile_qr_scan"}, "name": "94e1735d900d09125b7ff7d31aa18b7e", "type": "electric_scooter", "lat": 38.929072, "is_disabled": 0}, {"fusion_lat": 0.0, "lon": -77.0125515, "is_reserved": 0, "bike_id": "3bfa24473f2058220576a49ff5475c0a", "fusion_lon": 0.0, "rental_uris": {"android": "https://dc.lft.to/lastmile_qr_scan", "ios": "https://dc.lft.to/lastmile_qr_scan"}, "name": "3bfa24473f2058220576a49ff5475c0a", "type": "electric_scooter", "lat": 38.908445, "is_disabled": 0}, {"fusion_lat": 0.0, "lon": -77.04544683333333, "is_reserved": 0, "bike_id": "f6c5af293967ef2f10d4b06e419ee2ce", "fusion_lon": 0.0, "rental_uris": {"android": "https://dc.lft.to/lastmile_qr_scan", "ios": "https://dc.lft.to/lastmile_qr_scan"}, "name": "f6c5af293967ef2f10d4b06e419ee2ce", "type": "electric_scooter", "lat": 38.909666, "is_disabled": 0}, {"fusion_lat": 0.0, "lon": -77.05108366666667, "is_reserved": 0, "bike_id": "3c0e2bdcc5385bd8018736ddf7c9647f", "fusion_lon": 0.0, "rental_uris": {"android": "https://dc.lft.to/lastmile_qr_scan", "ios": "https://dc.lft.to/lastmile_qr_scan"}, "name": "3c0e2bdcc5385bd8018736ddf7c9647f", "type": "electric_scooter", "lat": 38.89767633333334, "is_disabled": 0}, {"fusion_lat": 0.0, "lon": -77.0007175, "is_reserved": 0, "bike_id": "12447005442b22e4a5e1b46e1f3e14da", "fusion_lon": 0.0, "rental_uris": {"android": "https://dc.lft.to/lastmile_qr_scan", "ios": "https://dc.lft.to/lastmile_qr_scan"}, "name": "12447005442b22e4a5e1b46e1f3e14da", "type": "electric_scooter", "lat": 38.90050333333333, "is_disabled": 0}, {"fusion_lat": 0.0, "lon": -77.03838433333334, "is_reserved": 0, "bike_id": "6dc54cca4e3a1ffa361a73a438a70c37", "fusion_lon": 0.0, "rental_uris": {"android": "https://dc.lft.to/lastmile_qr_scan", "ios": "https://dc.lft.to/lastmile_qr_scan"}, "name": "6dc54cca4e3a1ffa361a73a438a70c37", "type": "electric_scooter", "lat": 38.9113295, "is_disabled": 0}, {"fusion_lat": 0.0, "lon": -77.03174833333334, "is_reserved": 0, "bike_id": "fc9643d92e92f2fd67b8c8731ec33ce4", "fusion_lon": 0.0, "rental_uris": {"android": "https://dc.lft.to/lastmile_qr_scan", "ios": "https://dc.lft.to/lastmile_qr_scan"}, "name": "fc9643d92e92f2fd67b8c8731ec33ce4", "type": "electric_scooter", "lat": 38.915546666666664, "is_disabled": 0}, {"fusion_lat": 0.0, "lon": -77.04421316666667, "is_reserved": 0, "bike_id": "f54d354fe0d546f9fe1bddae33a0ce54", "fusion_lon": 0.0, "rental_uris": {"android": "https://dc.lft.to/lastmile_qr_scan", "ios": "https://dc.lft.to/lastmile_qr_scan"}, "name": "f54d354fe0d546f9fe1bddae33a0ce54", "type": "electric_scooter", "lat": 38.913566, "is_disabled": 0}, {"fusion_lat": 0.0, "lon": -77.0378355, "is_reserved": 0, "bike_id": "517871cd50d7d571df4050757de2f323", "fusion_lon": 0.0, "rental_uris": {"android": "https://dc.lft.to/lastmile_qr_scan", "ios": "https://dc.lft.to/lastmile_qr_scan"}, "name": "517871cd50d7d571df4050757de2f323", "type": "electric_scooter", "lat": 38.92502783333333, "is_disabled": 0}, {"fusion_lat": 0.0, "lon": -77.0019175, "is_reserved": 0, "bike_id": "5df8402924d6ca06a035fba8455196e0", "fusion_lon": 0.0, "rental_uris": {"android": "https://dc.lft.to/lastmile_qr_scan", "ios": "https://dc.lft.to/lastmile_qr_scan"}, "name": "5df8402924d6ca06a035fba8455196e0", "type": "electric_scooter", "lat": 38.9037955, "is_disabled": 0}, {"fusion_lat": 0.0, "lon": -77.03205216666667, "is_reserved": 0, "bike_id": "d9a9c066a49ac1c08f1c3a86effcc567", "fusion_lon": 0.0, "rental_uris": {"android": "https://dc.lft.to/lastmile_qr_scan", "ios": "https://dc.lft.to/lastmile_qr_scan"}, "name": "d9a9c066a49ac1c08f1c3a86effcc567", "type": "electric_scooter", "lat": 38.914990833333334, "is_disabled": 0}, {"fusion_lat": 0.0, "lon": -77.01213116666666, "is_reserved": 0, "bike_id": "064e5efc6d6cf503e0baf2f30029ec6d", "fusion_lon": 0.0, "rental_uris": {"android": "https://dc.lft.to/lastmile_qr_scan", "ios": "https://dc.lft.to/lastmile_qr_scan"}, "name": "064e5efc6d6cf503e0baf2f30029ec6d", "type": "electric_scooter", "lat": 38.915175166666664, "is_disabled": 0}, {"fusion_lat": 0.0, "lon": -77.07277783333333, "is_reserved": 0, "bike_id": "216a003b83d3b86f6622857866124819", "fusion_lon": 0.0, "rental_uris": {"android": "https://dc.lft.to/lastmile_qr_scan", "ios": "https://dc.lft.to/lastmile_qr_scan"}, "name": "216a003b83d3b86f6622857866124819", "type": "electric_scooter", "lat": 38.934883666666664, "is_disabled": 0}, {"fusion_lat": 0.0, "lon": -77.029404, "is_reserved": 0, "bike_id": "4a47407800411e00db4a5d67f56c6139", "fusion_lon": 0.0, "rental_uris": {"android": "https://dc.lft.to/lastmile_qr_scan", "ios": "https://dc.lft.to/lastmile_qr_scan"}, "name": "4a47407800411e00db4a5d67f56c6139", "type": "electric_scooter", "lat": 38.932655833333335, "is_disabled": 0}, {"fusion_lat": 0.0, "lon": -77.03865133333333, "is_reserved": 0, "bike_id": "3ad4d49fbfa632f727a631c2a887d008", "fusion_lon": 0.0, "rental_uris": {"android": "https://dc.lft.to/lastmile_qr_scan", "ios": "https://dc.lft.to/lastmile_qr_scan"}, "name": "3ad4d49fbfa632f727a631c2a887d008", "type": "electric_scooter", "lat": 38.9066765, "is_disabled": 0}, {"fusion_lat": 0.0, "lon": -77.0485735, "is_reserved": 0, "bike_id": "4beeaf2e19dfa2131afc07c62733490e", "fusion_lon": 0.0, "rental_uris": {"android": "https://dc.lft.to/lastmile_qr_scan", "ios": "https://dc.lft.to/lastmile_qr_scan"}, "name": "4beeaf2e19dfa2131afc07c62733490e", "type": "electric_scooter", "lat": 38.91965966666667, "is_disabled": 0}, {"fusion_lat": 0.0, "lon": -77.02809166666667, "is_reserved": 0, "bike_id": "8aaace4c579bec787d2eeb66d77082da", "fusion_lon": 0.0, "rental_uris": {"android": "https://dc.lft.to/lastmile_qr_scan", "ios": "https://dc.lft.to/lastmile_qr_scan"}, "name": "8aaace4c579bec787d2eeb66d77082da", "type": "electric_scooter", "lat": 38.892237333333334, "is_disabled": 0}, {"fusion_lat": 0.0, "lon": -77.0199625, "is_reserved": 0, "bike_id": "30eeae1437d5a707c08ba3449caeacd9", "fusion_lon": 0.0, "rental_uris": {"android": "https://dc.lft.to/lastmile_qr_scan", "ios": "https://dc.lft.to/lastmile_qr_scan"}, "name": "30eeae1437d5a707c08ba3449caeacd9", "type": "electric_scooter", "lat": 38.875903, "is_disabled": 0}, {"fusion_lat": 0.0, "lon": -77.02190833333333, "is_reserved": 0, "bike_id": "9420b7efdb611a531f7f254e06ceb934", "fusion_lon": 0.0, "rental_uris": {"android": "https://dc.lft.to/lastmile_qr_scan", "ios": "https://dc.lft.to/lastmile_qr_scan"}, "name": "9420b7efdb611a531f7f254e06ceb934", "type": "electric_scooter", "lat": 38.901957333333335, "is_disabled": 0}, {"fusion_lat": 0.0, "lon": -76.98888333333333, "is_reserved": 0, "bike_id": "05a65a0a8ca572929521f0e5be72a1e4", "fusion_lon": 0.0, "rental_uris": {"android": "https://dc.lft.to/lastmile_qr_scan", "ios": "https://dc.lft.to/lastmile_qr_scan"}, "name": "05a65a0a8ca572929521f0e5be72a1e4", "type": "electric_scooter", "lat": 38.866576, "is_disabled": 0}, {"fusion_lat": 0.0, "lon": -77.04378133333333, "is_reserved": 0, "bike_id": "f6d1cc2eda32dbf3c9acb577cb115bf0", "fusion_lon": 0.0, "rental_uris": {"android": "https://dc.lft.to/lastmile_qr_scan", "ios": "https://dc.lft.to/lastmile_qr_scan"}, "name": "f6d1cc2eda32dbf3c9acb577cb115bf0", "type": "electric_scooter", "lat": 38.922286666666665, "is_disabled": 0}, {"fusion_lat": 0.0, "lon": -77.02401716666667, "is_reserved": 0, "bike_id": "f12f55889dd2286a7a66fcdafbd54d5c", "fusion_lon": 0.0, "rental_uris": {"android": "https://dc.lft.to/lastmile_qr_scan", "ios": "https://dc.lft.to/lastmile_qr_scan"}, "name": "f12f55889dd2286a7a66fcdafbd54d5c", "type": "electric_scooter", "lat": 38.93704366666667, "is_disabled": 0}, {"fusion_lat": 0.0, "lon": -76.988273, "is_reserved": 0, "bike_id": "f78df2ed48bbe2ce3dfcaf29afba7b32", "fusion_lon": 0.0, "rental_uris": {"android": "https://dc.lft.to/lastmile_qr_scan", "ios": "https://dc.lft.to/lastmile_qr_scan"}, "name": "f78df2ed48bbe2ce3dfcaf29afba7b32", "type": "electric_scooter", "lat": 38.9003915, "is_disabled": 0}, {"fusion_lat": 0.0, "lon": -77.0280285, "is_reserved": 0, "bike_id": "1b089db7fc5bef7dc30a5621eef81e97", "fusion_lon": 0.0, "rental_uris": {"android": "https://dc.lft.to/lastmile_qr_scan", "ios": "https://dc.lft.to/lastmile_qr_scan"}, "name": "1b089db7fc5bef7dc30a5621eef81e97", "type": "electric_scooter", "lat": 38.93080233333333, "is_disabled": 0}, {"fusion_lat": 0.0, "lon": -77.02163816666666, "is_reserved": 0, "bike_id": "c3ab296ec1204a4f010443a92f91d7ed", "fusion_lon": 0.0, "rental_uris": {"android": "https://dc.lft.to/lastmile_qr_scan", "ios": "https://dc.lft.to/lastmile_qr_scan"}, "name": "c3ab296ec1204a4f010443a92f91d7ed", "type": "electric_scooter", "lat": 38.92609816666667, "is_disabled": 0}, {"fusion_lat": 0.0, "lon": -76.9874785, "is_reserved": 0, "bike_id": "244b266bd4352d4cc87540da36bbd9c6", "fusion_lon": 0.0, "rental_uris": {"android": "https://dc.lft.to/lastmile_qr_scan", "ios": "https://dc.lft.to/lastmile_qr_scan"}, "name": "244b266bd4352d4cc87540da36bbd9c6", "type": "electric_scooter", "lat": 38.8861315, "is_disabled": 0}, {"fusion_lat": 0.0, "lon": -77.037691, "is_reserved": 0, "bike_id": "3b9e5f40bae7a49b49f094e22f60ca41", "fusion_lon": 0.0, "rental_uris": {"android": "https://dc.lft.to/lastmile_qr_scan", "ios": "https://dc.lft.to/lastmile_qr_scan"}, "name": "3b9e5f40bae7a49b49f094e22f60ca41", "type": "electric_scooter", "lat": 38.916901833333334, "is_disabled": 0}, {"fusion_lat": 0.0, "lon": -76.95098433333334, "is_reserved": 0, "bike_id": "c7a0d6ff69c0f09c85509dddfe070902", "fusion_lon": 0.0, "rental_uris": {"android": "https://dc.lft.to/lastmile_qr_scan", "ios": "https://dc.lft.to/lastmile_qr_scan"}, "name": "c7a0d6ff69c0f09c85509dddfe070902", "type": "electric_scooter", "lat": 38.8844835, "is_disabled": 0}, {"fusion_lat": 0.0, "lon": -76.93354083333334, "is_reserved": 0, "bike_id": "302b8b7258f7b4b7de05d2575c2f4324", "fusion_lon": 0.0, "rental_uris": {"android": "https://dc.lft.to/lastmile_qr_scan", "ios": "https://dc.lft.to/lastmile_qr_scan"}, "name": "302b8b7258f7b4b7de05d2575c2f4324", "type": "electric_scooter", "lat": 38.89922333333333, "is_disabled": 0}, {"fusion_lat": 0.0, "lon": -76.99605416666667, "is_reserved": 0, "bike_id": "b5882cff5447da5b740a508e8d403192", "fusion_lon": 0.0, "rental_uris": {"android": "https://dc.lft.to/lastmile_qr_scan", "ios": "https://dc.lft.to/lastmile_qr_scan"}, "name": "b5882cff5447da5b740a508e8d403192", "type": "electric_scooter", "lat": 38.892243, "is_disabled": 0}, {"fusion_lat": 0.0, "lon": -77.03495566666666, "is_reserved": 0, "bike_id": "1544a95974657d2081a2a43b26feab54", "fusion_lon": 0.0, "rental_uris": {"android": "https://dc.lft.to/lastmile_qr_scan", "ios": "https://dc.lft.to/lastmile_qr_scan"}, "name": "1544a95974657d2081a2a43b26feab54", "type": "electric_scooter", "lat": 38.92340033333333, "is_disabled": 0}, {"fusion_lat": 0.0, "lon": -77.01214833333333, "is_reserved": 0, "bike_id": "fc1c7c5b0a12177fc2fdfeb64fd8e72a", "fusion_lon": 0.0, "rental_uris": {"android": "https://dc.lft.to/lastmile_qr_scan", "ios": "https://dc.lft.to/lastmile_qr_scan"}, "name": "fc1c7c5b0a12177fc2fdfeb64fd8e72a", "type": "electric_bike", "lat": 38.87085966666667, "is_disabled": 0}, {"fusion_lat": 0.0, "lon": -77.08948766666667, "is_reserved": 0, "bike_id": "bacba2f7c9896535247d4d4270400e64", "fusion_lon": 0.0, "rental_uris": {"android": "https://dc.lft.to/lastmile_qr_scan", "ios": "https://dc.lft.to/lastmile_qr_scan"}, "name": "bacba2f7c9896535247d4d4270400e64", "type": "electric_bike", "lat": 38.841066, "is_disabled": 0}, {"fusion_lat": 0.0, "lon": -77.02397933333333, "is_reserved": 0, "bike_id": "b1cc0f8a7ffbc206c1dbae733d5c2561", "fusion_lon": 0.0, "rental_uris": {"android": "https://dc.lft.to/lastmile_qr_scan", "ios": "https://dc.lft.to/lastmile_qr_scan"}, "name": "b1cc0f8a7ffbc206c1dbae733d5c2561", "type": "electric_scooter", "lat": 38.91997683333334, "is_disabled": 0}, {"fusion_lat": 0.0, "lon": -77.04235366666667, "is_reserved": 0, "bike_id": "6296d46871e93fca190b458261e165a0", "fusion_lon": 0.0, "rental_uris": {"android": "https://dc.lft.to/lastmile_qr_scan", "ios": "https://dc.lft.to/lastmile_qr_scan"}, "name": "6296d46871e93fca190b458261e165a0", "type": "electric_scooter", "lat": 38.92171833333333, "is_disabled": 0}, {"fusion_lat": 0.0, "lon": -76.9950545, "is_reserved": 0, "bike_id": "690498530d32487ac446c9fc9a207b3b", "fusion_lon": 0.0, "rental_uris": {"android": "https://dc.lft.to/lastmile_qr_scan", "ios": "https://dc.lft.to/lastmile_qr_scan"}, "name": "690498530d32487ac446c9fc9a207b3b", "type": "electric_scooter", "lat": 38.90978616666666, "is_disabled": 0}, {"fusion_lat": 0.0, "lon": -77.02296583333333, "is_reserved": 0, "bike_id": "5ba8f869d595cc5914f5592b0f91ad24", "fusion_lon": 0.0, "rental_uris": {"android": "https://dc.lft.to/lastmile_qr_scan", "ios": "https://dc.lft.to/lastmile_qr_scan"}, "name": "5ba8f869d595cc5914f5592b0f91ad24", "type": "electric_scooter", "lat": 38.92719133333333, "is_disabled": 0}, {"fusion_lat": 0.0, "lon": -77.02558416666666, "is_reserved": 0, "bike_id": "692ef2b5b4021e494f23c42f1f7ef40d", "fusion_lon": 0.0, "rental_uris": {"android": "https://dc.lft.to/lastmile_qr_scan", "ios": "https://dc.lft.to/lastmile_qr_scan"}, "name": "692ef2b5b4021e494f23c42f1f7ef40d", "type": "electric_scooter", "lat": 38.92470733333333, "is_disabled": 0}, {"fusion_lat": 0.0, "lon": -77.01275183333334, "is_reserved": 0, "bike_id": "8d0358c96e042015cdbf92fa959e81d6", "fusion_lon": 0.0, "rental_uris": {"android": "https://dc.lft.to/lastmile_qr_scan", "ios": "https://dc.lft.to/lastmile_qr_scan"}, "name": "8d0358c96e042015cdbf92fa959e81d6", "type": "electric_scooter", "lat": 38.914167666666664, "is_disabled": 0}, {"fusion_lat": 0.0, "lon": -76.93758516666666, "is_reserved": 0, "bike_id": "a4508c36485b1620a98150d9047d9018", "fusion_lon": 0.0, "rental_uris": {"android": "https://dc.lft.to/lastmile_qr_scan", "ios": "https://dc.lft.to/lastmile_qr_scan"}, "name": "a4508c36485b1620a98150d9047d9018", "type": "electric_scooter", "lat": 38.890429833333336, "is_disabled": 0}, {"fusion_lat": 0.0, "lon": -76.98396966666667, "is_reserved": 0, "bike_id": "7d4643b3a9a89abb6010e1e54d49e2de", "fusion_lon": 0.0, "rental_uris": {"android": "https://dc.lft.to/lastmile_qr_scan", "ios": "https://dc.lft.to/lastmile_qr_scan"}, "name": "7d4643b3a9a89abb6010e1e54d49e2de", "type": "electric_scooter", "lat": 38.867002166666666, "is_disabled": 0}, {"fusion_lat": 0.0, "lon": -77.07585283333333, "is_reserved": 0, "bike_id": "59753ef2a03d4eace8af2c358c19efca", "fusion_lon": 0.0, "rental_uris": {"android": "https://dc.lft.to/lastmile_qr_scan", "ios": "https://dc.lft.to/lastmile_qr_scan"}, "name": "59753ef2a03d4eace8af2c358c19efca", "type": "electric_scooter", "lat": 38.9126735, "is_disabled": 0}, {"fusion_lat": 0.0, "lon": -77.00589233333334, "is_reserved": 0, "bike_id": "0b78afec71ffc8ef8ca3cbe9be4c032d", "fusion_lon": 0.0, "rental_uris": {"android": "https://dc.lft.to/lastmile_qr_scan", "ios": "https://dc.lft.to/lastmile_qr_scan"}, "name": "0b78afec71ffc8ef8ca3cbe9be4c032d", "type": "electric_scooter", "lat": 38.9056465, "is_disabled": 0}, {"fusion_lat": 0.0, "lon": -77.04509416666667, "is_reserved": 0, "bike_id": "f87225a13db8c3d55532a32be454afc9", "fusion_lon": 0.0, "rental_uris": {"android": "https://dc.lft.to/lastmile_qr_scan", "ios": "https://dc.lft.to/lastmile_qr_scan"}, "name": "f87225a13db8c3d55532a32be454afc9", "type": "electric_scooter", "lat": 38.9038055, "is_disabled": 0}, {"fusion_lat": 0.0, "lon": -76.99410566666667, "is_reserved": 0, "bike_id": "6ba5bc94ad63240a9fed171cd3818b21", "fusion_lon": 0.0, "rental_uris": {"android": "https://dc.lft.to/lastmile_qr_scan", "ios": "https://dc.lft.to/lastmile_qr_scan"}, "name": "6ba5bc94ad63240a9fed171cd3818b21", "type": "electric_scooter", "lat": 38.877871166666665, "is_disabled": 0}, {"fusion_lat": 0.0, "lon": -77.0371635, "is_reserved": 0, "bike_id": "c3f6e6d56be0f08d3384b85543ea4b3e", "fusion_lon": 0.0, "rental_uris": {"android": "https://dc.lft.to/lastmile_qr_scan", "ios": "https://dc.lft.to/lastmile_qr_scan"}, "name": "c3f6e6d56be0f08d3384b85543ea4b3e", "type": "electric_scooter", "lat": 38.903619, "is_disabled": 0}, {"fusion_lat": 0.0, "lon": -77.00631466666667, "is_reserved": 0, "bike_id": "a81e20ad1571d32aa903a4c0aba23eda", "fusion_lon": 0.0, "rental_uris": {"android": "https://dc.lft.to/lastmile_qr_scan", "ios": "https://dc.lft.to/lastmile_qr_scan"}, "name": "a81e20ad1571d32aa903a4c0aba23eda", "type": "electric_scooter", "lat": 38.8326995, "is_disabled": 0}, {"fusion_lat": 0.0, "lon": -77.00289766666667, "is_reserved": 0, "bike_id": "22baac45d7044f7147aa1b0443e2d8ff", "fusion_lon": 0.0, "rental_uris": {"android": "https://dc.lft.to/lastmile_qr_scan", "ios": "https://dc.lft.to/lastmile_qr_scan"}, "name": "22baac45d7044f7147aa1b0443e2d8ff", "type": "electric_scooter", "lat": 38.894925, "is_disabled": 0}, {"fusion_lat": 0.0, "lon": -76.91970333333333, "is_reserved": 0, "bike_id": "9b4874a6e10c2592ab19c0cb6365f5fe", "fusion_lon": 0.0, "rental_uris": {"android": "https://dc.lft.to/lastmile_qr_scan", "ios": "https://dc.lft.to/lastmile_qr_scan"}, "name": "9b4874a6e10c2592ab19c0cb6365f5fe", "type": "electric_scooter", "lat": 38.90027466666667, "is_disabled": 0}, {"fusion_lat": 0.0, "lon": -77.03901616666667, "is_reserved": 0, "bike_id": "74b270f9368b85a5c5b59f518f001f04", "fusion_lon": 0.0, "rental_uris": {"android": "https://dc.lft.to/lastmile_qr_scan", "ios": "https://dc.lft.to/lastmile_qr_scan"}, "name": "74b270f9368b85a5c5b59f518f001f04", "type": "electric_scooter", "lat": 38.92415033333333, "is_disabled": 0}, {"fusion_lat": 0.0, "lon": -77.03079483333333, "is_reserved": 0, "bike_id": "12662fc82d5c5f6dd3da78da6693d3f4", "fusion_lon": 0.0, "rental_uris": {"android": "https://dc.lft.to/lastmile_qr_scan", "ios": "https://dc.lft.to/lastmile_qr_scan"}, "name": "12662fc82d5c5f6dd3da78da6693d3f4", "type": "electric_scooter", "lat": 38.899553833333336, "is_disabled": 0}, {"fusion_lat": 0.0, "lon": -77.03230383333333, "is_reserved": 0, "bike_id": "5c545d0a44c6844f828303a9ce11b837", "fusion_lon": 0.0, "rental_uris": {"android": "https://dc.lft.to/lastmile_qr_scan", "ios": "https://dc.lft.to/lastmile_qr_scan"}, "name": "5c545d0a44c6844f828303a9ce11b837", "type": "electric_scooter", "lat": 38.928646, "is_disabled": 0}, {"fusion_lat": 0.0, "lon": -77.03175766666666, "is_reserved": 0, "bike_id": "1047bd5d86730c5f34a9984f6862eec7", "fusion_lon": 0.0, "rental_uris": {"android": "https://dc.lft.to/lastmile_qr_scan", "ios": "https://dc.lft.to/lastmile_qr_scan"}, "name": "1047bd5d86730c5f34a9984f6862eec7", "type": "electric_scooter", "lat": 38.91807216666667, "is_disabled": 0}, {"fusion_lat": 0.0, "lon": -77.034827, "is_reserved": 0, "bike_id": "fc455534baa198e687f2f2612ee82c52", "fusion_lon": 0.0, "rental_uris": {"android": "https://dc.lft.to/lastmile_qr_scan", "ios": "https://dc.lft.to/lastmile_qr_scan"}, "name": "fc455534baa198e687f2f2612ee82c52", "type": "electric_scooter", "lat": 38.90649416666667, "is_disabled": 0}, {"fusion_lat": 0.0, "lon": -77.00600383333334, "is_reserved": 0, "bike_id": "d3460504e21d7707cd250b6bb1b38f7b", "fusion_lon": 0.0, "rental_uris": {"android": "https://dc.lft.to/lastmile_qr_scan", "ios": "https://dc.lft.to/lastmile_qr_scan"}, "name": "d3460504e21d7707cd250b6bb1b38f7b", "type": "electric_scooter", "lat": 38.905598833333336, "is_disabled": 0}, {"fusion_lat": 0.0, "lon": -76.98120566666667, "is_reserved": 0, "bike_id": "b7fff95fe5ec489cf5ff3819a7ca878d", "fusion_lon": 0.0, "rental_uris": {"android": "https://dc.lft.to/lastmile_qr_scan", "ios": "https://dc.lft.to/lastmile_qr_scan"}, "name": "b7fff95fe5ec489cf5ff3819a7ca878d", "type": "electric_scooter", "lat": 38.90409116666667, "is_disabled": 0}, {"fusion_lat": 0.0, "lon": -77.0122235, "is_reserved": 0, "bike_id": "66d1d20ecf4f41fafddf8a42b9b2646b", "fusion_lon": 0.0, "rental_uris": {"android": "https://dc.lft.to/lastmile_qr_scan", "ios": "https://dc.lft.to/lastmile_qr_scan"}, "name": "66d1d20ecf4f41fafddf8a42b9b2646b", "type": "electric_scooter", "lat": 38.917522166666664, "is_disabled": 0}, {"fusion_lat": 0.0, "lon": -77.0308165, "is_reserved": 0, "bike_id": "917378a8f292fe6c7cf49ffd217492a9", "fusion_lon": 0.0, "rental_uris": {"android": "https://dc.lft.to/lastmile_qr_scan", "ios": "https://dc.lft.to/lastmile_qr_scan"}, "name": "917378a8f292fe6c7cf49ffd217492a9", "type": "electric_scooter", "lat": 38.922499333333334, "is_disabled": 0}, {"fusion_lat": 0.0, "lon": -76.98364016666666, "is_reserved": 0, "bike_id": "6a6117f5c0f12f2ef85f624e538852e7", "fusion_lon": 0.0, "rental_uris": {"android": "https://dc.lft.to/lastmile_qr_scan", "ios": "https://dc.lft.to/lastmile_qr_scan"}, "name": "6a6117f5c0f12f2ef85f624e538852e7", "type": "electric_scooter", "lat": 38.9154315, "is_disabled": 0}, {"fusion_lat": 0.0, "lon": -77.0279615, "is_reserved": 0, "bike_id": "a88b96eb36cdd74ca250c438dd1e40da", "fusion_lon": 0.0, "rental_uris": {"android": "https://dc.lft.to/lastmile_qr_scan", "ios": "https://dc.lft.to/lastmile_qr_scan"}, "name": "a88b96eb36cdd74ca250c438dd1e40da", "type": "electric_scooter", "lat": 38.953987, "is_disabled": 0}, {"fusion_lat": 0.0, "lon": -77.02676316666667, "is_reserved": 0, "bike_id": "439110fccc7299f9b60b6e26980d2e87", "fusion_lon": 0.0, "rental_uris": {"android": "https://dc.lft.to/lastmile_qr_scan", "ios": "https://dc.lft.to/lastmile_qr_scan"}, "name": "439110fccc7299f9b60b6e26980d2e87", "type": "electric_scooter", "lat": 38.90123283333333, "is_disabled": 0}, {"fusion_lat": 0.0, "lon": -77.0060165, "is_reserved": 0, "bike_id": "1cb0775c8ec9a5cc88a5a5cd2efe4637", "fusion_lon": 0.0, "rental_uris": {"android": "https://dc.lft.to/lastmile_qr_scan", "ios": "https://dc.lft.to/lastmile_qr_scan"}, "name": "1cb0775c8ec9a5cc88a5a5cd2efe4637", "type": "electric_scooter", "lat": 38.885192333333336, "is_disabled": 0}, {"fusion_lat": 0.0, "lon": -77.02688416666666, "is_reserved": 0, "bike_id": "d3ccad6ed08297aaf0461f2312d9e215", "fusion_lon": 0.0, "rental_uris": {"android": "https://dc.lft.to/lastmile_qr_scan", "ios": "https://dc.lft.to/lastmile_qr_scan"}, "name": "d3ccad6ed08297aaf0461f2312d9e215", "type": "electric_scooter", "lat": 38.9023885, "is_disabled": 0}, {"fusion_lat": 0.0, "lon": -77.01754166666667, "is_reserved": 0, "bike_id": "6ac93a96380eadfae3c4b0fe4ce0203c", "fusion_lon": 0.0, "rental_uris": {"android": "https://dc.lft.to/lastmile_qr_scan", "ios": "https://dc.lft.to/lastmile_qr_scan"}, "name": "6ac93a96380eadfae3c4b0fe4ce0203c", "type": "electric_scooter", "lat": 38.883228333333335, "is_disabled": 0}, {"fusion_lat": 0.0, "lon": -77.02363466666667, "is_reserved": 0, "bike_id": "78ca6973da63362fa27d28bccb04aeee", "fusion_lon": 0.0, "rental_uris": {"android": "https://dc.lft.to/lastmile_qr_scan", "ios": "https://dc.lft.to/lastmile_qr_scan"}, "name": "78ca6973da63362fa27d28bccb04aeee", "type": "electric_scooter", "lat": 38.89219933333333, "is_disabled": 0}, {"fusion_lat": 0.0, "lon": -77.0381615, "is_reserved": 0, "bike_id": "5343cbbb25060e91770f830f88e1dae7", "fusion_lon": 0.0, "rental_uris": {"android": "https://dc.lft.to/lastmile_qr_scan", "ios": "https://dc.lft.to/lastmile_qr_scan"}, "name": "5343cbbb25060e91770f830f88e1dae7", "type": "electric_scooter", "lat": 38.914161666666665, "is_disabled": 0}, {"fusion_lat": 0.0, "lon": -77.01926366666666, "is_reserved": 0, "bike_id": "cf2bb7a6f074e5572f0f66107e61c872", "fusion_lon": 0.0, "rental_uris": {"android": "https://dc.lft.to/lastmile_qr_scan", "ios": "https://dc.lft.to/lastmile_qr_scan"}, "name": "cf2bb7a6f074e5572f0f66107e61c872", "type": "electric_scooter", "lat": 38.90549433333333, "is_disabled": 0}, {"fusion_lat": 0.0, "lon": -76.91102666666667, "is_reserved": 0, "bike_id": "26498d43141520c9f240f40909ed8252", "fusion_lon": 0.0, "rental_uris": {"android": "https://dc.lft.to/lastmile_qr_scan", "ios": "https://dc.lft.to/lastmile_qr_scan"}, "name": "26498d43141520c9f240f40909ed8252", "type": "electric_bike", "lat": 39.01056966666667, "is_disabled": 0}, {"fusion_lat": 0.0, "lon": -77.025077, "is_reserved": 0, "bike_id": "5a7bc3e556e68c2357133780b3603063", "fusion_lon": 0.0, "rental_uris": {"android": "https://dc.lft.to/lastmile_qr_scan", "ios": "https://dc.lft.to/lastmile_qr_scan"}, "name": "5a7bc3e556e68c2357133780b3603063", "type": "electric_scooter", "lat": 38.93099466666666, "is_disabled": 0}, {"fusion_lat": 0.0, "lon": -77.02942283333333, "is_reserved": 0, "bike_id": "6946cc7888037c919c19b9390f465d9d", "fusion_lon": 0.0, "rental_uris": {"android": "https://dc.lft.to/lastmile_qr_scan", "ios": "https://dc.lft.to/lastmile_qr_scan"}, "name": "6946cc7888037c919c19b9390f465d9d", "type": "electric_scooter", "lat": 38.90505566666667, "is_disabled": 0}, {"fusion_lat": 0.0, "lon": -77.032557, "is_reserved": 0, "bike_id": "90f68dc2cc1803a2d5e0167e3acd8f00", "fusion_lon": 0.0, "rental_uris": {"android": "https://dc.lft.to/lastmile_qr_scan", "ios": "https://dc.lft.to/lastmile_qr_scan"}, "name": "90f68dc2cc1803a2d5e0167e3acd8f00", "type": "electric_scooter", "lat": 38.923615166666664, "is_disabled": 0}, {"fusion_lat": 0.0, "lon": -76.951497, "is_reserved": 0, "bike_id": "2fa10e49ebb476885cb82332877e23cf", "fusion_lon": 0.0, "rental_uris": {"android": "https://dc.lft.to/lastmile_qr_scan", "ios": "https://dc.lft.to/lastmile_qr_scan"}, "name": "2fa10e49ebb476885cb82332877e23cf", "type": "electric_scooter", "lat": 38.8903905, "is_disabled": 0}, {"fusion_lat": 0.0, "lon": -77.02622116666667, "is_reserved": 0, "bike_id": "6694bd3fdf0dbbf1755afd7a97b07bc4", "fusion_lon": 0.0, "rental_uris": {"android": "https://dc.lft.to/lastmile_qr_scan", "ios": "https://dc.lft.to/lastmile_qr_scan"}, "name": "6694bd3fdf0dbbf1755afd7a97b07bc4", "type": "electric_bike", "lat": 38.962208833333335, "is_disabled": 0}, {"fusion_lat": 0.0, "lon": -76.986137, "is_reserved": 0, "bike_id": "9d94c09c94efc7195ee6d3943614d3cd", "fusion_lon": 0.0, "rental_uris": {"android": "https://dc.lft.to/lastmile_qr_scan", "ios": "https://dc.lft.to/lastmile_qr_scan"}, "name": "9d94c09c94efc7195ee6d3943614d3cd", "type": "electric_scooter", "lat": 38.938265666666666, "is_disabled": 0}, {"fusion_lat": 0.0, "lon": -77.36095516666667, "is_reserved": 0, "bike_id": "193198ab1b79ff9b161b2b3dedba75f8", "fusion_lon": 0.0, "rental_uris": {"android": "https://dc.lft.to/lastmile_qr_scan", "ios": "https://dc.lft.to/lastmile_qr_scan"}, "name": "193198ab1b79ff9b161b2b3dedba75f8", "type": "electric_bike", "lat": 38.939575, "is_disabled": 0}, {"fusion_lat": 0.0, "lon": -77.00403316666667, "is_reserved": 0, "bike_id": "8094e268da19c7425e6daf8d02a7201a", "fusion_lon": 0.0, "rental_uris": {"android": "https://dc.lft.to/lastmile_qr_scan", "ios": "https://dc.lft.to/lastmile_qr_scan"}, "name": "8094e268da19c7425e6daf8d02a7201a", "type": "electric_scooter", "lat": 38.9213245, "is_disabled": 0}, {"fusion_lat": 0.0, "lon": -77.0397365, "is_reserved": 0, "bike_id": "5f68a2ef106061976edbd4e758690537", "fusion_lon": 0.0, "rental_uris": {"android": "https://dc.lft.to/lastmile_qr_scan", "ios": "https://dc.lft.to/lastmile_qr_scan"}, "name": "5f68a2ef106061976edbd4e758690537", "type": "electric_scooter", "lat": 38.920218, "is_disabled": 0}, {"fusion_lat": 0.0, "lon": -77.028909, "is_reserved": 0, "bike_id": "235b8fa2e2bed9d0287f66273a0a146e", "fusion_lon": 0.0, "rental_uris": {"android": "https://dc.lft.to/lastmile_qr_scan", "ios": "https://dc.lft.to/lastmile_qr_scan"}, "name": "235b8fa2e2bed9d0287f66273a0a146e", "type": "electric_scooter", "lat": 38.9398435, "is_disabled": 0}, {"fusion_lat": 0.0, "lon": -77.04876116666667, "is_reserved": 0, "bike_id": "dfff8f80ed81f66a362e87db19525be3", "fusion_lon": 0.0, "rental_uris": {"android": "https://dc.lft.to/lastmile_qr_scan", "ios": "https://dc.lft.to/lastmile_qr_scan"}, "name": "dfff8f80ed81f66a362e87db19525be3", "type": "electric_scooter", "lat": 38.9097545, "is_disabled": 0}, {"fusion_lat": 0.0, "lon": -76.977021, "is_reserved": 0, "bike_id": "25b5a8150609aad7cc81046b604422aa", "fusion_lon": 0.0, "rental_uris": {"android": "https://dc.lft.to/lastmile_qr_scan", "ios": "https://dc.lft.to/lastmile_qr_scan"}, "name": "25b5a8150609aad7cc81046b604422aa", "type": "electric_bike", "lat": 38.949131, "is_disabled": 0}, {"fusion_lat": 0.0, "lon": -76.95020983333333, "is_reserved": 0, "bike_id": "62f97f7c2eaa942ef2b8decf8e3a4b3d", "fusion_lon": 0.0, "rental_uris": {"android": "https://dc.lft.to/lastmile_qr_scan", "ios": "https://dc.lft.to/lastmile_qr_scan"}, "name": "62f97f7c2eaa942ef2b8decf8e3a4b3d", "type": "electric_scooter", "lat": 38.8938805, "is_disabled": 0}, {"fusion_lat": 0.0, "lon": -77.00602583333334, "is_reserved": 0, "bike_id": "37c7a2ce997f840a0b2eb79765bbb087", "fusion_lon": 0.0, "rental_uris": {"android": "https://dc.lft.to/lastmile_qr_scan", "ios": "https://dc.lft.to/lastmile_qr_scan"}, "name": "37c7a2ce997f840a0b2eb79765bbb087", "type": "electric_bike", "lat": 38.89806883333333, "is_disabled": 0}, {"fusion_lat": 0.0, "lon": -76.9874945, "is_reserved": 0, "bike_id": "a710d9392152ac64dde8219bf8566171", "fusion_lon": 0.0, "rental_uris": {"android": "https://dc.lft.to/lastmile_qr_scan", "ios": "https://dc.lft.to/lastmile_qr_scan"}, "name": "a710d9392152ac64dde8219bf8566171", "type": "electric_scooter", "lat": 38.844842166666666, "is_disabled": 0}, {"fusion_lat": 0.0, "lon": -77.0859415, "is_reserved": 0, "bike_id": "35ab4c4e349805f5c69262a6516c629d", "fusion_lon": 0.0, "rental_uris": {"android": "https://dc.lft.to/lastmile_qr_scan", "ios": "https://dc.lft.to/lastmile_qr_scan"}, "name": "35ab4c4e349805f5c69262a6516c629d", "type": "electric_scooter", "lat": 38.908671, "is_disabled": 0}, {"fusion_lat": 0.0, "lon": -76.9646615, "is_reserved": 0, "bike_id": "94e79098a19101995ad82b6957edb39f", "fusion_lon": 0.0, "rental_uris": {"android": "https://dc.lft.to/lastmile_qr_scan", "ios": "https://dc.lft.to/lastmile_qr_scan"}, "name": "94e79098a19101995ad82b6957edb39f", "type": "electric_scooter", "lat": 38.93447366666667, "is_disabled": 0}, {"fusion_lat": 0.0, "lon": -77.05198366666667, "is_reserved": 0, "bike_id": "b5ef15af5f70ba90039acf968302cc44", "fusion_lon": 0.0, "rental_uris": {"android": "https://dc.lft.to/lastmile_qr_scan", "ios": "https://dc.lft.to/lastmile_qr_scan"}, "name": "b5ef15af5f70ba90039acf968302cc44", "type": "electric_scooter", "lat": 38.924632, "is_disabled": 0}, {"fusion_lat": 0.0, "lon": -76.98538283333333, "is_reserved": 0, "bike_id": "0cba93833b1818b8f53f1aa991a108ec", "fusion_lon": 0.0, "rental_uris": {"android": "https://dc.lft.to/lastmile_qr_scan", "ios": "https://dc.lft.to/lastmile_qr_scan"}, "name": "0cba93833b1818b8f53f1aa991a108ec", "type": "electric_scooter", "lat": 38.910229, "is_disabled": 0}, {"fusion_lat": 0.0, "lon": -77.02682766666666, "is_reserved": 0, "bike_id": "350fbf901941a7525d7a58d3cad9f4dc", "fusion_lon": 0.0, "rental_uris": {"android": "https://dc.lft.to/lastmile_qr_scan", "ios": "https://dc.lft.to/lastmile_qr_scan"}, "name": "350fbf901941a7525d7a58d3cad9f4dc", "type": "electric_scooter", "lat": 38.9276905, "is_disabled": 0}, {"fusion_lat": 0.0, "lon": -77.05443766666667, "is_reserved": 0, "bike_id": "15192d487730f2b1f9e0d753f5210286", "fusion_lon": 0.0, "rental_uris": {"android": "https://dc.lft.to/lastmile_qr_scan", "ios": "https://dc.lft.to/lastmile_qr_scan"}, "name": "15192d487730f2b1f9e0d753f5210286", "type": "electric_scooter", "lat": 38.928482833333334, "is_disabled": 0}, {"fusion_lat": 0.0, "lon": -77.026839, "is_reserved": 0, "bike_id": "665905ec29f5d2e5964070f3c5043241", "fusion_lon": 0.0, "rental_uris": {"android": "https://dc.lft.to/lastmile_qr_scan", "ios": "https://dc.lft.to/lastmile_qr_scan"}, "name": "665905ec29f5d2e5964070f3c5043241", "type": "electric_scooter", "lat": 38.984841833333334, "is_disabled": 0}, {"fusion_lat": 0.0, "lon": -76.99222166666667, "is_reserved": 0, "bike_id": "87a20b5a737efaade0e3973d54012e5f", "fusion_lon": 0.0, "rental_uris": {"android": "https://dc.lft.to/lastmile_qr_scan", "ios": "https://dc.lft.to/lastmile_qr_scan"}, "name": "87a20b5a737efaade0e3973d54012e5f", "type": "electric_scooter", "lat": 38.89518, "is_disabled": 0}, {"fusion_lat": 0.0, "lon": -77.03179183333333, "is_reserved": 0, "bike_id": "a37ba7858a3a0a2763b80c04f0017cc3", "fusion_lon": 0.0, "rental_uris": {"android": "https://dc.lft.to/lastmile_qr_scan", "ios": "https://dc.lft.to/lastmile_qr_scan"}, "name": "a37ba7858a3a0a2763b80c04f0017cc3", "type": "electric_scooter", "lat": 38.884171, "is_disabled": 0}, {"fusion_lat": 0.0, "lon": -77.037726, "is_reserved": 0, "bike_id": "19017937595e44fd3d3a3779c7398bdd", "fusion_lon": 0.0, "rental_uris": {"android": "https://dc.lft.to/lastmile_qr_scan", "ios": "https://dc.lft.to/lastmile_qr_scan"}, "name": "19017937595e44fd3d3a3779c7398bdd", "type": "electric_scooter", "lat": 38.91689433333333, "is_disabled": 0}, {"fusion_lat": 0.0, "lon": -77.0233815, "is_reserved": 0, "bike_id": "08c7c71410735001fdf8cee5971313c3", "fusion_lon": 0.0, "rental_uris": {"android": "https://dc.lft.to/lastmile_qr_scan", "ios": "https://dc.lft.to/lastmile_qr_scan"}, "name": "08c7c71410735001fdf8cee5971313c3", "type": "electric_scooter", "lat": 38.919536666666666, "is_disabled": 0}, {"fusion_lat": 0.0, "lon": -77.0327705, "is_reserved": 0, "bike_id": "0ef9ca185c3fe7325e03c6cf0650950d", "fusion_lon": 0.0, "rental_uris": {"android": "https://dc.lft.to/lastmile_qr_scan", "ios": "https://dc.lft.to/lastmile_qr_scan"}, "name": "0ef9ca185c3fe7325e03c6cf0650950d", "type": "electric_scooter", "lat": 38.929015166666666, "is_disabled": 0}, {"fusion_lat": 0.0, "lon": -77.03533916666666, "is_reserved": 0, "bike_id": "d913a451914d8d344b8b5741c4884ff7", "fusion_lon": 0.0, "rental_uris": {"android": "https://dc.lft.to/lastmile_qr_scan", "ios": "https://dc.lft.to/lastmile_qr_scan"}, "name": "d913a451914d8d344b8b5741c4884ff7", "type": "electric_scooter", "lat": 38.915518, "is_disabled": 0}, {"fusion_lat": 0.0, "lon": -77.01807133333334, "is_reserved": 0, "bike_id": "a8f40912e2b0b7a52e14e766282299d5", "fusion_lon": 0.0, "rental_uris": {"android": "https://dc.lft.to/lastmile_qr_scan", "ios": "https://dc.lft.to/lastmile_qr_scan"}, "name": "a8f40912e2b0b7a52e14e766282299d5", "type": "electric_scooter", "lat": 38.893151, "is_disabled": 0}, {"fusion_lat": 0.0, "lon": -76.9919405, "is_reserved": 0, "bike_id": "ab12c43a2d3936c2f867818d05445335", "fusion_lon": 0.0, "rental_uris": {"android": "https://dc.lft.to/lastmile_qr_scan", "ios": "https://dc.lft.to/lastmile_qr_scan"}, "name": "ab12c43a2d3936c2f867818d05445335", "type": "electric_scooter", "lat": 38.90024733333333, "is_disabled": 0}, {"fusion_lat": 0.0, "lon": -77.026932, "is_reserved": 0, "bike_id": "2d9ea7f8a257fad80f8e517607473143", "fusion_lon": 0.0, "rental_uris": {"android": "https://dc.lft.to/lastmile_qr_scan", "ios": "https://dc.lft.to/lastmile_qr_scan"}, "name": "2d9ea7f8a257fad80f8e517607473143", "type": "electric_scooter", "lat": 38.9488765, "is_disabled": 0}, {"fusion_lat": 0.0, "lon": -77.01492083333333, "is_reserved": 0, "bike_id": "45e4d1470accb84a1c31df0ed39e1cd4", "fusion_lon": 0.0, "rental_uris": {"android": "https://dc.lft.to/lastmile_qr_scan", "ios": "https://dc.lft.to/lastmile_qr_scan"}, "name": "45e4d1470accb84a1c31df0ed39e1cd4", "type": "electric_scooter", "lat": 38.9268735, "is_disabled": 0}, {"fusion_lat": 0.0, "lon": -76.9969075, "is_reserved": 0, "bike_id": "47682d41085dafca12d61fd7f9e71bb5", "fusion_lon": 0.0, "rental_uris": {"android": "https://dc.lft.to/lastmile_qr_scan", "ios": "https://dc.lft.to/lastmile_qr_scan"}, "name": "47682d41085dafca12d61fd7f9e71bb5", "type": "electric_scooter", "lat": 38.90831283333333, "is_disabled": 0}, {"fusion_lat": 0.0, "lon": -77.04341183333334, "is_reserved": 0, "bike_id": "4bd107736810735bb9e6c48fab01129b", "fusion_lon": 0.0, "rental_uris": {"android": "https://dc.lft.to/lastmile_qr_scan", "ios": "https://dc.lft.to/lastmile_qr_scan"}, "name": "4bd107736810735bb9e6c48fab01129b", "type": "electric_scooter", "lat": 38.90292933333333, "is_disabled": 0}, {"fusion_lat": 0.0, "lon": -77.06380066666667, "is_reserved": 0, "bike_id": "f5d561566aac08442f6bacbd04d62d17", "fusion_lon": 0.0, "rental_uris": {"android": "https://dc.lft.to/lastmile_qr_scan", "ios": "https://dc.lft.to/lastmile_qr_scan"}, "name": "f5d561566aac08442f6bacbd04d62d17", "type": "electric_scooter", "lat": 38.908197333333334, "is_disabled": 0}, {"fusion_lat": 0.0, "lon": -77.01017466666667, "is_reserved": 0, "bike_id": "5c326820c72caeefa2fb55b5006f51fb", "fusion_lon": 0.0, "rental_uris": {"android": "https://dc.lft.to/lastmile_qr_scan", "ios": "https://dc.lft.to/lastmile_qr_scan"}, "name": "5c326820c72caeefa2fb55b5006f51fb", "type": "electric_bike", "lat": 38.8796575, "is_disabled": 0}, {"fusion_lat": 0.0, "lon": -77.046569, "is_reserved": 0, "bike_id": "04d3d26e0737cba88a446cb5ade6e621", "fusion_lon": 0.0, "rental_uris": {"android": "https://dc.lft.to/lastmile_qr_scan", "ios": "https://dc.lft.to/lastmile_qr_scan"}, "name": "04d3d26e0737cba88a446cb5ade6e621", "type": "electric_scooter", "lat": 38.913384, "is_disabled": 0}, {"fusion_lat": 0.0, "lon": -77.04075716666667, "is_reserved": 0, "bike_id": "96f8006175df141381ed0c47d79361c8", "fusion_lon": 0.0, "rental_uris": {"android": "https://dc.lft.to/lastmile_qr_scan", "ios": "https://dc.lft.to/lastmile_qr_scan"}, "name": "96f8006175df141381ed0c47d79361c8", "type": "electric_scooter", "lat": 38.917070333333335, "is_disabled": 0}, {"fusion_lat": 0.0, "lon": -77.0091435, "is_reserved": 0, "bike_id": "772ccd48b3d5e7d14c970477256151cb", "fusion_lon": 0.0, "rental_uris": {"android": "https://dc.lft.to/lastmile_qr_scan", "ios": "https://dc.lft.to/lastmile_qr_scan"}, "name": "772ccd48b3d5e7d14c970477256151cb", "type": "electric_scooter", "lat": 38.896432, "is_disabled": 0}, {"fusion_lat": 0.0, "lon": -77.02690333333334, "is_reserved": 0, "bike_id": "30d6191fd656bf2e42ff0293f2004c7b", "fusion_lon": 0.0, "rental_uris": {"android": "https://dc.lft.to/lastmile_qr_scan", "ios": "https://dc.lft.to/lastmile_qr_scan"}, "name": "30d6191fd656bf2e42ff0293f2004c7b", "type": "electric_scooter", "lat": 38.91248783333333, "is_disabled": 0}, {"fusion_lat": 0.0, "lon": -77.03488183333333, "is_reserved": 0, "bike_id": "979f7c7127a22d7e9354054d87a3d9a1", "fusion_lon": 0.0, "rental_uris": {"android": "https://dc.lft.to/lastmile_qr_scan", "ios": "https://dc.lft.to/lastmile_qr_scan"}, "name": "979f7c7127a22d7e9354054d87a3d9a1", "type": "electric_scooter", "lat": 38.9326925, "is_disabled": 0},