{"data": {"bikes": [{"rental_uris": {"ios": "https://dc.lft.to/lastmile_qr_scan", "android": "https://dc.lft.to/lastmile_qr_scan"}, "lon": -77.04901783333334, "type": "electric_bike", "fusion_lat": 0.0, "lat": 38.874945333333336, "name": "01d6f19e60c5c8a36fbe170a84eb1563", "fusion_lon": 0.0, "bike_id": "01d6f19e60c5c8a36fbe170a84eb1563", "is_disabled": 0, "is_reserved": 0}, {"rental_uris": {"ios": "https://dc.lft.to/lastmile_qr_scan", "android": "https://dc.lft.to/lastmile_qr_scan"}, "lon": -77.03211783333333, "type": "electric_scooter", "fusion_lat": 0.0, "lat": 38.907338, "name": "127ee9c5471aab65b6567aafb0516e24", "fusion_lon": 0.0, "bike_id": "127ee9c5471aab65b6567aafb0516e24", "is_disabled": 0, "is_reserved": 0}, {"rental_uris": {"ios": "https://dc.lft.to/lastmile_qr_scan", "android": "https://dc.lft.to/lastmile_qr_scan"}, "lon": -76.99605683333333, "type": "electric_scooter", "fusion_lat": 0.0, "lat": 38.90030316666667, "name": "c57619e98f212d8c9ba64ca27930c877", "fusion_lon": 0.0, "bike_id": "c57619e98f212d8c9ba64ca27930c877", "is_disabled": 0, "is_reserved": 0}, {"rental_uris": {"ios": "https://dc.lft.to/lastmile_qr_scan", "android": "https://dc.lft.to/lastmile_qr_scan"}, "lon": -77.04688566666667, "type": "electric_scooter", "fusion_lat": 0.0, "lat": 38.892238166666665, "name": "1da4e59f2fd9b4ba414e609c1de44332", "fusion_lon": 0.0, "bike_id": "1da4e59f2fd9b4ba414e609c1de44332", "is_disabled": 0, "is_reserved": 0}, {"rental_uris": {"ios": "https://dc.lft.to/lastmile_qr_scan", "android": "https://dc.lft.to/lastmile_qr_scan"}, "lon": -76.98571633333333, "type": "electric_scooter", "fusion_lat": 0.0, "lat": 38.8988715, "name": "44807e1c3df99907342a3b41ff6c3266", "fusion_lon": 0.0, "bike_id": "44807e1c3df99907342a3b41ff6c3266", "is_disabled": 0, "is_reserved": 0}, {"rental_uris": {"ios": "https://dc.lft.to/lastmile_qr_scan", "android": "https://dc.lft.to/lastmile_qr_scan"}, "lon": -77.03999933333333, "type": "electric_scooter", "fusion_lat": 0.0, "lat": 38.91330133333334, "name": "9f4a88f56a4858410ab2d1f2c60162bf", "fusion_lon": 0.0, "bike_id": "9f4a88f56a4858410ab2d1f2c60162bf", "is_disabled": 0, "is_reserved": 0}, {"rental_uris": {"ios": "https://dc.lft.to/lastmile_qr_scan", "android": "https://dc.lft.to/lastmile_qr_scan"}, "lon": -77.03220483333334, "type": "electric_scooter", "fusion_lat": 0.0, "lat": 38.9623815, "name": "12b7df8642d203fac1b9ef21e6b82dde", "fusion_lon": 0.0, "bike_id": "12b7df8642d203fac1b9ef21e6b82dde", "is_disabled": 0, "is_reserved": 0}, {"rental_uris": {"ios": "https://dc.lft.to/lastmile_qr_scan", "android": "https://dc.lft.to/lastmile_qr_scan"}, "lon": -77.01815216666667, "type": "electric_scooter", "fusion_lat": 0.0, "lat": 38.911961833333336, "name": "56448a87c37829068c5b1f0b8e93eb19", "fusion_lon": 0.0, "bike_id": "56448a87c37829068c5b1f0b8e93eb19", "is_disabled": 0, "is_reserved": 0}, {"rental_uris": {"ios": "https://dc.lft.to/lastmile_qr_scan", "android": "https://dc.lft.to/lastmile_qr_scan"}, "lon": -76.94652583333334, "type": "electric_scooter", "fusion_lat": 0.0, "lat": 38.898283666666664, "name": "aa2a4d680e50e0ec1b6f624a4a24a77c", "fusion_lon": 0.0, "bike_id": "aa2a4d680e50e0ec1b6f624a4a24a77c", "is_disabled": 0, "is_reserved": 0}, {"rental_uris": {"ios": "https://dc.lft.to/lastmile_qr_scan", "android": "https://dc.lft.to/lastmile_qr_scan"}, "lon": -77.062752, "type": "electric_scooter", "fusion_lat": 0.0, "lat": 38.906820833333335, "name": "84747277d412acc92f0658e88c71dc92", "fusion_lon": 0.0, "bike_id": "84747277d412acc92f0658e88c71dc92", "is_disabled": 0, "is_reserved": 0}, {"rental_uris": {"ios": "https://dc.lft.to/lastmile_qr_scan", "android": "https://dc.lft.to/lastmile_qr_scan"}, "lon": -77.039967, "type": "electric_scooter", "fusion_lat": 0.0, "lat": 38.914149, "name": "cddb803865c4bd832981d28819053ef8", "fusion_lon": 0.0, "bike_id": "cddb803865c4bd832981d28819053ef8", "is_disabled": 0, "is_reserved": 0}, {"rental_uris": {"ios": "https://dc.lft.to/lastmile_qr_scan", "android": "https://dc.lft.to/lastmile_qr_scan"}, "lon": -77.0241955, "type": "electric_scooter", "fusion_lat": 0.0, "lat": 38.918263333333336, "name": "69397af845120211652b81e2680f933c", "fusion_lon": 0.0, "bike_id": "69397af845120211652b81e2680f933c", "is_disabled": 0, "is_reserved": 0}, {"rental_uris": {"ios": "https://dc.lft.to/lastmile_qr_scan", "android": "https://dc.lft.to/lastmile_qr_scan"}, "lon": -77.016109, "type": "electric_scooter", "fusion_lat": 0.0, "lat": 38.876804, "name": "b35ca84f99f2c9097b590f4cf492fd4d", "fusion_lon": 0.0, "bike_id": "b35ca84f99f2c9097b590f4cf492fd4d", "is_disabled": 0, "is_reserved": 0}, {"rental_uris": {"ios": "https://dc.lft.to/lastmile_qr_scan", "android": "https://dc.lft.to/lastmile_qr_scan"}, "lon": -77.034327, "type": "electric_scooter", "fusion_lat": 0.0, "lat": 38.939691, "name": "5e1cb9d8257a0050058dd0968c5ac69e", "fusion_lon": 0.0, "bike_id": "5e1cb9d8257a0050058dd0968c5ac69e", "is_disabled": 0, "is_reserved": 0}, {"rental_uris": {"ios": "https://dc.lft.to/lastmile_qr_scan", "android": "https://dc.lft.to/lastmile_qr_scan"}, "lon": -77.10031466666666, "type": "electric_bike", "fusion_lat": 0.0, "lat": 38.990618, "name": "10fe91188a7c3ca7ef34871c83499c1f", "fusion_lon": 0.0, "bike_id": "10fe91188a7c3ca7ef34871c83499c1f", "is_disabled": 0, "is_reserved": 0}, {"rental_uris": {"ios": "https://dc.lft.to/lastmile_qr_scan", "android": "https://dc.lft.to/lastmile_qr_scan"}, "lon": -77.02989216666667, "type": "electric_bike", "fusion_lat": 0.0, "lat": 38.900352166666664, "name": "229707268f8467e0a61050ecdbc78e2d", "fusion_lon": 0.0, "bike_id": "229707268f8467e0a61050ecdbc78e2d", "is_disabled": 0, "is_reserved": 0}, {"rental_uris": {"ios": "https://dc.lft.to/lastmile_qr_scan", "android": "https://dc.lft.to/lastmile_qr_scan"}, "lon": -76.95738066666667, "type": "electric_scooter", "fusion_lat": 0.0, "lat": 38.892199833333336, "name": "01c3ae308b85b1179857dee0db3ff1e2", "fusion_lon": 0.0, "bike_id": "01c3ae308b85b1179857dee0db3ff1e2", "is_disabled": 0, "is_reserved": 0}, {"rental_uris": {"ios": "https://dc.lft.to/lastmile_qr_scan", "android": "https://dc.lft.to/lastmile_qr_scan"}, "lon": -77.13178883333333, "type": "electric_bike", "fusion_lat": 0.0, "lat": 38.86912916666667, "name": "98df24f5955063fbc30b18e2e038ec84", "fusion_lon": 0.0, "bike_id": "98df24f5955063fbc30b18e2e038ec84", "is_disabled": 0, "is_reserved": 0}, {"rental_uris": {"ios": "https://dc.lft.to/lastmile_qr_scan", "android": "https://dc.lft.to/lastmile_qr_scan"}, "lon": -77.03799283333333, "type": "electric_bike", "fusion_lat": 0.0, "lat": 38.99675633333333, "name": "2607ff1b35d426764862b5724e3a5132", "fusion_lon": 0.0, "bike_id": "2607ff1b35d426764862b5724e3a5132", "is_disabled": 0, "is_reserved": 0}, {"rental_uris": {"ios": "https://dc.lft.to/lastmile_qr_scan", "android": "https://dc.lft.to/lastmile_qr_scan"}, "lon": -77.03829716666667, "type": "electric_scooter", "fusion_lat": 0.0, "lat": 38.92166733333333, "name": "cab4282db2dcd774867b890881d63cc1", "fusion_lon": 0.0, "bike_id": "cab4282db2dcd774867b890881d63cc1", "is_disabled": 0, "is_reserved": 0}, {"rental_uris": {"ios": "https://dc.lft.to/lastmile_qr_scan", "android": "https://dc.lft.to/lastmile_qr_scan"}, "lon": -77.04800466666667, "type": "electric_scooter", "fusion_lat": 0.0, "lat": 38.916360833333336, "name": "0c708cd1f3af1af71b55362151cdf689", "fusion_lon": 0.0, "bike_id": "0c708cd1f3af1af71b55362151cdf689", "is_disabled": 0, "is_reserved": 0}, {"rental_uris": {"ios": "https://dc.lft.to/lastmile_qr_scan", "android": "https://dc.lft.to/lastmile_qr_scan"}, "lon": -77.01891566666667, "type": "electric_scooter", "fusion_lat": 0.0, "lat": 38.906128833333334, "name": "19a02e8154a559a07c27ca929da503d6", "fusion_lon": 0.0, "bike_id": "19a02e8154a559a07c27ca929da503d6", "is_disabled": 0, "is_reserved": 0}, {"rental_uris": {"ios": "https://dc.lft.to/lastmile_qr_scan", "android": "https://dc.lft.to/lastmile_qr_scan"}, "lon": -77.042918, "type": "electric_scooter", "fusion_lat": 0.0, "lat": 38.9072375, "name": "8ce87206fea95acf1f8ea308d8b2d91a", "fusion_lon": 0.0, "bike_id": "8ce87206fea95acf1f8ea308d8b2d91a", "is_disabled": 0, "is_reserved": 0}, {"rental_uris": {"ios": "https://dc.lft.to/lastmile_qr_scan", "android": "https://dc.lft.to/lastmile_qr_scan"}, "lon": -77.04032416666666, "type": "electric_scooter", "fusion_lat": 0.0, "lat": 38.924335166666665, "name": "bc188e7c43953004876c923b4ae34c58", "fusion_lon": 0.0, "bike_id": "bc188e7c43953004876c923b4ae34c58", "is_disabled": 0, "is_reserved": 0}, {"rental_uris": {"ios": "https://dc.lft.to/lastmile_qr_scan", "android": "https://dc.lft.to/lastmile_qr_scan"}, "lon": -77.01358966666666, "type": "electric_scooter", "fusion_lat": 0.0, "lat": 38.919827166666664, "name": "85da624fb6cddbaef934ea71ddbb75dc", "fusion_lon": 0.0, "bike_id": "85da624fb6cddbaef934ea71ddbb75dc", "is_disabled": 0, "is_reserved": 0}, {"rental_uris": {"ios": "https://dc.lft.to/lastmile_qr_scan", "android": "https://dc.lft.to/lastmile_qr_scan"}, "lon": -77.03251616666667, "type": "electric_scooter", "fusion_lat": 0.0, "lat": 38.919785, "name": "cf49760bc07ffc934e012115adfe8a69", "fusion_lon": 0.0, "bike_id": "cf49760bc07ffc934e012115adfe8a69", "is_disabled": 0, "is_reserved": 0}, {"rental_uris": {"ios": "https://dc.lft.to/lastmile_qr_scan", "android": "https://dc.lft.to/lastmile_qr_scan"}, "lon": -77.01681216666667, "type": "electric_scooter", "fusion_lat": 0.0, "lat": 38.902573833333335, "name": "f981716a5e9dbae631dddf58651518d2", "fusion_lon": 0.0, "bike_id": "f981716a5e9dbae631dddf58651518d2", "is_disabled": 0, "is_reserved": 0}, {"rental_uris": {"ios": "https://dc.lft.to/lastmile_qr_scan", "android": "https://dc.lft.to/lastmile_qr_scan"}, "lon": -77.03066316666667, "type": "electric_scooter", "fusion_lat": 0.0, "lat": 38.880463166666665, "name": "5a2e81a4a502a6a09e159fbe3f1f98bb", "fusion_lon": 0.0, "bike_id": "5a2e81a4a502a6a09e159fbe3f1f98bb", "is_disabled": 0, "is_reserved": 0}, {"rental_uris": {"ios": "https://dc.lft.to/lastmile_qr_scan", "android": "https://dc.lft.to/lastmile_qr_scan"}, "lon": -77.033318, "type": "electric_scooter", "fusion_lat": 0.0, "lat": 38.90320283333333, "name": "2d7435c48f7b399bc707e7c471265283", "fusion_lon": 0.0, "bike_id": "2d7435c48f7b399bc707e7c471265283", "is_disabled": 0, "is_reserved": 0}, {"rental_uris": {"ios": "https://dc.lft.to/lastmile_qr_scan", "android": "https://dc.lft.to/lastmile_qr_scan"}, "lon": -77.03939683333333, "type": "electric_scooter", "fusion_lat": 0.0, "lat": 38.931498500000004, "name": "284e5756f2a03a399f7e7108a2533e7c", "fusion_lon": 0.0, "bike_id": "284e5756f2a03a399f7e7108a2533e7c", "is_disabled": 0, "is_reserved": 0}, {"rental_uris": {"ios": "https://dc.lft.to/lastmile_qr_scan", "android": "https://dc.lft.to/lastmile_qr_scan"}, "lon": -76.94943083333334, "type": "electric_scooter", "fusion_lat": 0.0, "lat": 38.88380883333333, "name": "56d329acd4530c5e2944f98718309263", "fusion_lon": 0.0, "bike_id": "56d329acd4530c5e2944f98718309263", "is_disabled": 0, "is_reserved": 0}, {"rental_uris": {"ios": "https://dc.lft.to/lastmile_qr_scan", "android": "https://dc.lft.to/lastmile_qr_scan"}, "lon": -76.97730266666667, "type": "electric_scooter", "fusion_lat": 0.0, "lat": 38.872894333333335, "name": "3a1ec65a6dd217aff3f647f88cd269b6", "fusion_lon": 0.0, "bike_id": "3a1ec65a6dd217aff3f647f88cd269b6", "is_disabled": 0, "is_reserved": 0}, {"rental_uris": {"ios": "https://dc.lft.to/lastmile_qr_scan", "android": "https://dc.lft.to/lastmile_qr_scan"}, "lon": -77.04685416666666, "type": "electric_scooter", "fusion_lat": 0.0, "lat": 38.90867866666667, "name": "ca00fbede7b980bd7d3bc1c5bf782a46", "fusion_lon": 0.0, "bike_id": "ca00fbede7b980bd7d3bc1c5bf782a46", "is_disabled": 0, "is_reserved": 0}, {"rental_uris": {"ios": "https://dc.lft.to/lastmile_qr_scan", "android": "https://dc.lft.to/lastmile_qr_scan"}, "lon": -77.00072016666667, "type": "electric_scooter", "fusion_lat": 0.0, "lat": 38.900515166666665, "name": "17c4d944febbe8b31aba6652b6dc7aa9", "fusion_lon": 0.0, "bike_id": "17c4d944febbe8b31aba6652b6dc7aa9", "is_disabled": 0, "is_reserved": 0}, {"rental_uris": {"ios": "https://dc.lft.to/lastmile_qr_scan", "android": "https://dc.lft.to/lastmile_qr_scan"}, "lon": -77.05167483333334, "type": "electric_scooter", "fusion_lat": 0.0, "lat": 38.89773183333333, "name": "2eebd5a377b9d45feb6eb9cf7defdc5a", "fusion_lon": 0.0, "bike_id": "2eebd5a377b9d45feb6eb9cf7defdc5a", "is_disabled": 0, "is_reserved": 0}, {"rental_uris": {"ios": "https://dc.lft.to/lastmile_qr_scan", "android": "https://dc.lft.to/lastmile_qr_scan"}, "lon": -77.013941, "type": "electric_scooter", "fusion_lat": 0.0, "lat": 38.92864316666667, "name": "d973cf03643e14cebe6207d74e5ac7bf", "fusion_lon": 0.0, "bike_id": "d973cf03643e14cebe6207d74e5ac7bf", "is_disabled": 0, "is_reserved": 0}, {"rental_uris": {"ios": "https://dc.lft.to/lastmile_qr_scan", "android": "https://dc.lft.to/lastmile_qr_scan"}, "lon": -77.00267516666666, "type": "electric_scooter", "fusion_lat": 0.0, "lat": 38.87748416666667, "name": "a78f7496cbcd1b811fc84fd0f5285ccd", "fusion_lon": 0.0, "bike_id": "a78f7496cbcd1b811fc84fd0f5285ccd", "is_disabled": 0, "is_reserved": 0}, {"rental_uris": {"ios": "https://dc.lft.to/lastmile_qr_scan", "android": "https://dc.lft.to/lastmile_qr_scan"}, "lon": -77.02175766666667, "type": "electric_scooter", "fusion_lat": 0.0, "lat": 38.880363833333334, "name": "5fe648d6709a0fd43e76ef2981cac88b", "fusion_lon": 0.0, "bike_id": "5fe648d6709a0fd43e76ef2981cac88b", "is_disabled": 0, "is_reserved": 0}, {"rental_uris": {"ios": "https://dc.lft.to/lastmile_qr_scan", "android": "https://dc.lft.to/lastmile_qr_scan"}, "lon": -77.00318566666667, "type": "electric_scooter", "fusion_lat": 0.0, "lat": 38.9012505, "name": "0310ecb7d166b9905cf82c2b116cea49", "fusion_lon": 0.0, "bike_id": "0310ecb7d166b9905cf82c2b116cea49", "is_disabled": 0, "is_reserved": 0}, {"rental_uris": {"ios": "https://dc.lft.to/lastmile_qr_scan", "android": "https://dc.lft.to/lastmile_qr_scan"}, "lon": -76.965559, "type": "electric_bike", "fusion_lat": 0.0, "lat": 38.951007833333335, "name": "72d186af0ed057f7da2f7c25581e9c4c", "fusion_lon": 0.0, "bike_id": "72d186af0ed057f7da2f7c25581e9c4c", "is_disabled": 0, "is_reserved": 0}, {"rental_uris": {"ios": "https://dc.lft.to/lastmile_qr_scan", "android": "https://dc.lft.to/lastmile_qr_scan"}, "lon": -77.02344116666667, "type": "electric_scooter", "fusion_lat": 0.0, "lat": 38.962048833333334, "name": "a52784a7c4be37fc7d83712f6e110474", "fusion_lon": 0.0, "bike_id": "a52784a7c4be37fc7d83712f6e110474", "is_disabled": 0, "is_reserved": 0}, {"rental_uris": {"ios": "https://dc.lft.to/lastmile_qr_scan", "android": "https://dc.lft.to/lastmile_qr_scan"}, "lon": -77.0056345, "type": "electric_scooter", "fusion_lat": 0.0, "lat": 38.92717183333333, "name": "c6959ea68c40388897891c89e44bca6f", "fusion_lon": 0.0, "bike_id": "c6959ea68c40388897891c89e44bca6f", "is_disabled": 0, "is_reserved": 0}, {"rental_uris": {"ios": "https://dc.lft.to/lastmile_qr_scan", "android": "https://dc.lft.to/lastmile_qr_scan"}, "lon": -77.013973, "type": "electric_scooter", "fusion_lat": 0.0, "lat": 38.919449, "name": "0eaa5c372259e167d0c1242f2342486e", "fusion_lon": 0.0, "bike_id": "0eaa5c372259e167d0c1242f2342486e", "is_disabled": 0, "is_reserved": 0}, {"rental_uris": {"ios": "https://dc.lft.to/lastmile_qr_scan", "android": "https://dc.lft.to/lastmile_qr_scan"}, "lon": -77.05729166666667, "type": "electric_scooter", "fusion_lat": 0.0, "lat": 38.933663333333335, "name": "b47dc0bb8e03b416034c60418d5b9247", "fusion_lon": 0.0, "bike_id": "b47dc0bb8e03b416034c60418d5b9247", "is_disabled": 0, "is_reserved": 0}, {"rental_uris": {"ios": "https://dc.lft.to/lastmile_qr_scan", "android": "https://dc.lft.to/lastmile_qr_scan"}, "lon": -77.06349916666667, "type": "electric_scooter", "fusion_lat": 0.0, "lat": 38.9444615, "name": "6de978fbf7682613d58a38c36758be2d", "fusion_lon": 0.0, "bike_id": "6de978fbf7682613d58a38c36758be2d", "is_disabled": 0, "is_reserved": 0}, {"rental_uris": {"ios": "https://dc.lft.to/lastmile_qr_scan", "android": "https://dc.lft.to/lastmile_qr_scan"}, "lon": -77.04813933333334, "type": "electric_scooter", "fusion_lat": 0.0, "lat": 38.897441, "name": "2c1d989cf14517df1015d6baa57f7a16", "fusion_lon": 0.0, "bike_id": "2c1d989cf14517df1015d6baa57f7a16", "is_disabled": 0, "is_reserved": 0}, {"rental_uris": {"ios": "https://dc.lft.to/lastmile_qr_scan", "android": "https://dc.lft.to/lastmile_qr_scan"}, "lon": -77.00526233333333, "type": "electric_scooter", "fusion_lat": 0.0, "lat": 38.9290415, "name": "6842162023abe9d6d597ae211fe62f90", "fusion_lon": 0.0, "bike_id": "6842162023abe9d6d597ae211fe62f90", "is_disabled": 0, "is_reserved": 0}, {"rental_uris": {"ios": "https://dc.lft.to/lastmile_qr_scan", "android": "https://dc.lft.to/lastmile_qr_scan"}, "lon": -77.03961283333334, "type": "electric_scooter", "fusion_lat": 0.0, "lat": 38.914811, "name": "4a3cdbfb97ff1083760a6bd1addc3859", "fusion_lon": 0.0, "bike_id": "4a3cdbfb97ff1083760a6bd1addc3859", "is_disabled": 0, "is_reserved": 0}, {"rental_uris": {"ios": "https://dc.lft.to/lastmile_qr_scan", "android": "https://dc.lft.to/lastmile_qr_scan"}, "lon": -77.035396, "type": "electric_scooter", "fusion_lat": 0.0, "lat": 38.9259615, "name": "55b9efe1478c860f63104c01c335f8bc", "fusion_lon": 0.0, "bike_id": "55b9efe1478c860f63104c01c335f8bc", "is_disabled": 0, "is_reserved": 0}, {"rental_uris": {"ios": "https://dc.lft.to/lastmile_qr_scan", "android": "https://dc.lft.to/lastmile_qr_scan"}, "lon": -77.07269866666667, "type": "electric_scooter", "fusion_lat": 0.0, "lat": 38.934814, "name": "7edfac8a5995bc8370a322b41d7be430", "fusion_lon": 0.0, "bike_id": "7edfac8a5995bc8370a322b41d7be430", "is_disabled": 0, "is_reserved": 0}, {"rental_uris": {"ios": "https://dc.lft.to/lastmile_qr_scan", "android": "https://dc.lft.to/lastmile_qr_scan"}, "lon": -77.05308383333333, "type": "electric_scooter", "fusion_lat": 0.0, "lat": 38.9235185, "name": "d30f6f5740cb81f9b92a1c9a29dec963", "fusion_lon": 0.0, "bike_id": "d30f6f5740cb81f9b92a1c9a29dec963", "is_disabled": 0, "is_reserved": 0}, {"rental_uris": {"ios": "https://dc.lft.to/lastmile_qr_scan", "android": "https://dc.lft.to/lastmile_qr_scan"}, "lon": -77.03030466666667, "type": "electric_scooter", "fusion_lat": 0.0, "lat": 38.931168666666665, "name": "a24b926c088391bdc0deb8b24d8426d1", "fusion_lon": 0.0, "bike_id": "a24b926c088391bdc0deb8b24d8426d1", "is_disabled": 0, "is_reserved": 0}, {"rental_uris": {"ios": "https://dc.lft.to/lastmile_qr_scan", "android": "https://dc.lft.to/lastmile_qr_scan"}, "lon": -77.02210733333334, "type": "electric_scooter", "fusion_lat": 0.0, "lat": 38.89633366666666, "name": "e3dd4e5fea2bdb99aee8d4fc20dbba61", "fusion_lon": 0.0, "bike_id": "e3dd4e5fea2bdb99aee8d4fc20dbba61", "is_disabled": 0, "is_reserved": 0}, {"rental_uris": {"ios": "https://dc.lft.to/lastmile_qr_scan", "android": "https://dc.lft.to/lastmile_qr_scan"}, "lon": -77.0387525, "type": "electric_scooter", "fusion_lat": 0.0, "lat": 38.908303333333336, "name": "95cecbe706bbb0ccaa6d6fd481d57ca9", "fusion_lon": 0.0, "bike_id": "95cecbe706bbb0ccaa6d6fd481d57ca9", "is_disabled": 0, "is_reserved": 0}, {"rental_uris": {"ios": "https://dc.lft.to/lastmile_qr_scan", "android": "https://dc.lft.to/lastmile_qr_scan"}, "lon": -77.01192516666667, "type": "electric_scooter", "fusion_lat": 0.0, "lat": 38.90032383333333, "name": "468304f5d3d398d546961c8e03cb54c3", "fusion_lon": 0.0, "bike_id": "468304f5d3d398d546961c8e03cb54c3", "is_disabled": 0, "is_reserved": 0}, {"rental_uris": {"ios": "https://dc.lft.to/lastmile_qr_scan", "android": "https://dc.lft.to/lastmile_qr_scan"}, "lon": -77.03227883333334, "type": "electric_scooter", "fusion_lat": 0.0, "lat": 38.90725783333333, "name": "6f77a7483abe165687ced5f9e12efcab", "fusion_lon": 0.0, "bike_id": "6f77a7483abe165687ced5f9e12efcab", "is_disabled": 0, "is_reserved": 0}, {"rental_uris": {"ios": "https://dc.lft.to/lastmile_qr_scan", "android": "https://dc.lft.to/lastmile_qr_scan"}, "lon": -77.0217635, "type": "electric_scooter", "fusion_lat": 0.0, "lat": 38.89924116666667, "name": "46c4eabcafc5812d92b0faf17ff52acd", "fusion_lon": 0.0, "bike_id": "46c4eabcafc5812d92b0faf17ff52acd", "is_disabled": 0, "is_reserved": 0}, {"rental_uris": {"ios": "https://dc.lft.to/lastmile_qr_scan", "android": "https://dc.lft.to/lastmile_qr_scan"}, "lon": -76.93734216666667, "type": "electric_scooter", "fusion_lat": 0.0, "lat": 38.89011516666667, "name": "84997a23f56300b03be1a0da40b86762", "fusion_lon": 0.0, "bike_id": "84997a23f56300b03be1a0da40b86762", "is_disabled": 0, "is_reserved": 0}, {"rental_uris": {"ios": "https://dc.lft.to/lastmile_qr_scan", "android": "https://dc.lft.to/lastmile_qr_scan"}, "lon": -77.01412283333333, "type": "electric_scooter", "fusion_lat": 0.0, "lat": 38.92811566666666, "name": "6feaa913d5645d03c312c171c2f78429", "fusion_lon": 0.0, "bike_id": "6feaa913d5645d03c312c171c2f78429", "is_disabled": 0, "is_reserved": 0}, {"rental_uris": {"ios": "https://dc.lft.to/lastmile_qr_scan", "android": "https://dc.lft.to/lastmile_qr_scan"}, "lon": -76.94715083333334, "type": "electric_scooter", "fusion_lat": 0.0, "lat": 38.897345, "name": "5739b56704d1148099a31510c80198e6", "fusion_lon": 0.0, "bike_id": "5739b56704d1148099a31510c80198e6", "is_disabled": 0, "is_reserved": 0}, {"rental_uris": {"ios": "https://dc.lft.to/lastmile_qr_scan", "android": "https://dc.lft.to/lastmile_qr_scan"}, "lon": -77.03792966666667, "type": "electric_scooter", "fusion_lat": 0.0, "lat": 38.929977666666666, "name": "0945b3ddb9b2c53184718d77eaaf7df1", "fusion_lon": 0.0, "bike_id": "0945b3ddb9b2c53184718d77eaaf7df1", "is_disabled": 0, "is_reserved": 0}, {"rental_uris": {"ios": "https://dc.lft.to/lastmile_qr_scan", "android": "https://dc.lft.to/lastmile_qr_scan"}, "lon": -77.02017183333334, "type": "electric_scooter", "fusion_lat": 0.0, "lat": 38.94980916666667, "name": "a7f4bf913d26c90f2a3cee6791410f83", "fusion_lon": 0.0, "bike_id": "a7f4bf913d26c90f2a3cee6791410f83", "is_disabled": 0, "is_reserved": 0}, {"rental_uris": {"ios": "https://dc.lft.to/lastmile_qr_scan", "android": "https://dc.lft.to/lastmile_qr_scan"}, "lon": -76.98715683333333, "type": "electric_scooter", "fusion_lat": 0.0, "lat": 38.86262116666666, "name": "2870d445636ca59e2fbade0af1c68f75", "fusion_lon": 0.0, "bike_id": "2870d445636ca59e2fbade0af1c68f75", "is_disabled": 0, "is_reserved": 0}, {"rental_uris": {"ios": "https://dc.lft.to/lastmile_qr_scan", "android": "https://dc.lft.to/lastmile_qr_scan"}, "lon": -77.02766833333334, "type": "electric_scooter", "fusion_lat": 0.0, "lat": 38.894753333333334, "name": "fc4bb40782db0598968e20a4a835846e", "fusion_lon": 0.0, "bike_id": "fc4bb40782db0598968e20a4a835846e", "is_disabled": 0, "is_reserved": 0}, {"rental_uris": {"ios": "https://dc.lft.to/lastmile_qr_scan", "android": "https://dc.lft.to/lastmile_qr_scan"}, "lon": -77.01185083333333, "type": "electric_scooter", "fusion_lat": 0.0, "lat": 38.915513, "name": "f3b554a198a0f012a304239a8882b8d5", "fusion_lon": 0.0, "bike_id": "f3b554a198a0f012a304239a8882b8d5", "is_disabled": 0, "is_reserved": 0}, {"rental_uris": {"ios": "https://dc.lft.to/lastmile_qr_scan", "android": "https://dc.lft.to/lastmile_qr_scan"}, "lon": -77.04612283333333, "type": "electric_scooter", "fusion_lat": 0.0, "lat": 38.922334, "name": "d2e00284356d2fee4150110e4dc9c753", "fusion_lon": 0.0, "bike_id": "d2e00284356d2fee4150110e4dc9c753", "is_disabled": 0, "is_reserved": 0}, {"rental_uris": {"ios": "https://dc.lft.to/lastmile_qr_scan", "android": "https://dc.lft.to/lastmile_qr_scan"}, "lon": -77.05926316666667, "type": "electric_scooter", "fusion_lat": 0.0, "lat": 38.9094955, "name": "31fa55c40ba5a666c2a16cd98e3eea0f", "fusion_lon": 0.0, "bike_id": "31fa55c40ba5a666c2a16cd98e3eea0f", "is_disabled": 0, "is_reserved": 0}, {"rental_uris": {"ios": "https://dc.lft.to/lastmile_qr_scan", "android": "https://dc.lft.to/lastmile_qr_scan"}, "lon": -77.05851033333333, "type": "electric_scooter", "fusion_lat": 0.0, "lat": 38.9342475, "name": "1d80e02a4631fc07bdcef6bd9f42e935", "fusion_lon": 0.0, "bike_id": "1d80e02a4631fc07bdcef6bd9f42e935", "is_disabled": 0, "is_reserved": 0}, {"rental_uris": {"ios": "https://dc.lft.to/lastmile_qr_scan", "android": "https://dc.lft.to/lastmile_qr_scan"}, "lon": -77.02582833333334, "type": "electric_scooter", "fusion_lat": 0.0, "lat": 38.92036366666667, "name": "32ba9fbca58fe8135f07899aa8fb752c", "fusion_lon": 0.0, "bike_id": "32ba9fbca58fe8135f07899aa8fb752c", "is_disabled": 0, "is_reserved": 0}, {"rental_uris": {"ios": "https://dc.lft.to/lastmile_qr_scan", "android": "https://dc.lft.to/lastmile_qr_scan"}, "lon": -77.001368, "type": "electric_scooter", "fusion_lat": 0.0, "lat": 38.90405033333333, "name": "4e03a25e9dcf5d5def5f482e22bc784d", "fusion_lon": 0.0, "bike_id": "4e03a25e9dcf5d5def5f482e22bc784d", "is_disabled": 0, "is_reserved": 0}, {"rental_uris": {"ios": "https://dc.lft.to/lastmile_qr_scan", "android": "https://dc.lft.to/lastmile_qr_scan"}, "lon": -77.03349216666666, "type": "electric_scooter", "fusion_lat": 0.0, "lat": 38.9287645, "name": "5a0ea884f6aeae07d0f278a1ea79db15", "fusion_lon": 0.0, "bike_id": "5a0ea884f6aeae07d0f278a1ea79db15", "is_disabled": 0, "is_reserved": 0}, {"rental_uris": {"ios": "https://dc.lft.to/lastmile_qr_scan", "android": "https://dc.lft.to/lastmile_qr_scan"}, "lon": -77.03793316666666, "type": "electric_scooter", "fusion_lat": 0.0, "lat": 38.930349666666665, "name": "3bdbdfe04a5590067ae27528af41a8f6", "fusion_lon": 0.0, "bike_id": "3bdbdfe04a5590067ae27528af41a8f6", "is_disabled": 0, "is_reserved": 0}, {"rental_uris": {"ios": "https://dc.lft.to/lastmile_qr_scan", "android": "https://dc.lft.to/lastmile_qr_scan"}, "lon": -77.10901916666667, "type": "electric_bike", "fusion_lat": 0.0, "lat": 38.83039266666667, "name": "7276f0d3581b4085c2cb6e4c149e66e2", "fusion_lon": 0.0, "bike_id": "7276f0d3581b4085c2cb6e4c149e66e2", "is_disabled": 0, "is_reserved": 0}, {"rental_uris": {"ios": "https://dc.lft.to/lastmile_qr_scan", "android": "https://dc.lft.to/lastmile_qr_scan"}, "lon": -77.01105533333333, "type": "electric_bike", "fusion_lat": 0.0, "lat": 38.963080833333336, "name": "f5f379deee9ae2b29019617340f350cb", "fusion_lon": 0.0, "bike_id": "f5f379deee9ae2b29019617340f350cb", "is_disabled": 0, "is_reserved": 0}, {"rental_uris": {"ios": "https://dc.lft.to/lastmile_qr_scan", "android": "https://dc.lft.to/lastmile_qr_scan"}, "lon": -77.0485525, "type": "electric_scooter", "fusion_lat": 0.0, "lat": 38.90527016666667, "name": "e2018b58029e7b1c7545fc09c86d717e", "fusion_lon": 0.0, "bike_id": "e2018b58029e7b1c7545fc09c86d717e", "is_disabled": 0, "is_reserved": 0}, {"rental_uris": {"ios": "https://dc.lft.to/lastmile_qr_scan", "android": "https://dc.lft.to/lastmile_qr_scan"}, "lon": -76.99516816666667, "type": "electric_scooter", "fusion_lat": 0.0, "lat": 38.8837425, "name": "fe028fc47dc74904204047b722c05b3d", "fusion_lon": 0.0, "bike_id": "fe028fc47dc74904204047b722c05b3d", "is_disabled": 0, "is_reserved": 0}, {"rental_uris": {"ios": "https://dc.lft.to/lastmile_qr_scan", "android": "https://dc.lft.to/lastmile_qr_scan"}, "lon": -76.99148316666667, "type": "electric_scooter", "fusion_lat": 0.0, "lat": 38.89343933333333, "name": "2433cb2bdfd92e1349345179457f48ef", "fusion_lon": 0.0, "bike_id": "2433cb2bdfd92e1349345179457f48ef", "is_disabled": 0, "is_reserved": 0}, {"rental_uris": {"ios": "https://dc.lft.to/lastmile_qr_scan", "android": "https://dc.lft.to/lastmile_qr_scan"}, "lon": -77.01801916666666, "type": "electric_scooter", "fusion_lat": 0.0, "lat": 38.904162666666664, "name": "f9e0582204ce08f80732e1d50028d554", "fusion_lon": 0.0, "bike_id": "f9e0582204ce08f80732e1d50028d554", "is_disabled": 0, "is_reserved": 0}, {"rental_uris": {"ios": "https://dc.lft.to/lastmile_qr_scan", "android": "https://dc.lft.to/lastmile_qr_scan"}, "lon": -76.97331666666666, "type": "electric_scooter", "fusion_lat": 0.0, "lat": 38.904800333333334, "name": "0970ea36bd2979c94807282cff966d4a", "fusion_lon": 0.0, "bike_id": "0970ea36bd2979c94807282cff966d4a", "is_disabled": 0, "is_reserved": 0}, {"rental_uris": {"ios": "https://dc.lft.to/lastmile_qr_scan", "android": "https://dc.lft.to/lastmile_qr_scan"}, "lon": -77.0228275, "type": "electric_scooter", "fusion_lat": 0.0, "lat": 38.909619, "name": "4019d86f55efe2ab25c1704128465080", "fusion_lon": 0.0, "bike_id": "4019d86f55efe2ab25c1704128465080", "is_disabled": 0, "is_reserved": 0}, {"rental_uris": {"ios": "https://dc.lft.to/lastmile_qr_scan", "android": "https://dc.lft.to/lastmile_qr_scan"}, "lon": -77.0013895, "type": "electric_scooter", "fusion_lat": 0.0, "lat": 38.9041705, "name": "e6bc19527c75ac4dee6798bc214b42ee", "fusion_lon": 0.0, "bike_id": "e6bc19527c75ac4dee6798bc214b42ee", "is_disabled": 0, "is_reserved": 0}, {"rental_uris": {"ios": "https://dc.lft.to/lastmile_qr_scan", "android": "https://dc.lft.to/lastmile_qr_scan"}, "lon": -77.00595416666667, "type": "electric_scooter", "fusion_lat": 0.0, "lat": 38.905549, "name": "f22ac8a94fdbef80d13b276686d427dc", "fusion_lon": 0.0, "bike_id": "f22ac8a94fdbef80d13b276686d427dc", "is_disabled": 0, "is_reserved": 0}, {"rental_uris": {"ios": "https://dc.lft.to/lastmile_qr_scan", "android": "https://dc.lft.to/lastmile_qr_scan"}, "lon": -77.01967383333333, "type": "electric_scooter", "fusion_lat": 0.0, "lat": 38.87842033333333, "name": "749fa4b480201a848597212c67356793", "fusion_lon": 0.0, "bike_id": "749fa4b480201a848597212c67356793", "is_disabled": 0, "is_reserved": 0}, {"rental_uris": {"ios": "https://dc.lft.to/lastmile_qr_scan", "android": "https://dc.lft.to/lastmile_qr_scan"}, "lon": -77.04713983333333, "type": "electric_scooter", "fusion_lat": 0.0, "lat": 38.90961733333333, "name": "1ebbad38803ef0b0f6ebdd65b166c805", "fusion_lon": 0.0, "bike_id": "1ebbad38803ef0b0f6ebdd65b166c805", "is_disabled": 0, "is_reserved": 0}, {"rental_uris": {"ios": "https://dc.lft.to/lastmile_qr_scan", "android": "https://dc.lft.to/lastmile_qr_scan"}, "lon": -77.071558, "type": "electric_scooter", "fusion_lat": 0.0, "lat": 38.907427166666665, "name": "ec07b5e1386e683f0c4cd17dc23e64b5", "fusion_lon": 0.0, "bike_id": "ec07b5e1386e683f0c4cd17dc23e64b5", "is_disabled": 0, "is_reserved": 0}, {"rental_uris": {"ios": "https://dc.lft.to/lastmile_qr_scan", "android": "https://dc.lft.to/lastmile_qr_scan"}, "lon": -77.025059, "type": "electric_scooter", "fusion_lat": 0.0, "lat": 38.907162166666666, "name": "b54c0e1a3a75be38d56fba20058771c6", "fusion_lon": 0.0, "bike_id": "b54c0e1a3a75be38d56fba20058771c6", "is_disabled": 0, "is_reserved": 0}, {"rental_uris": {"ios": "https://dc.lft.to/lastmile_qr_scan", "android": "https://dc.lft.to/lastmile_qr_scan"}, "lon": -77.03442683333333, "type": "electric_scooter", "fusion_lat": 0.0, "lat": 38.91841466666666, "name": "ca21f32975987c335ace3b8c72c45de5", "fusion_lon": 0.0, "bike_id": "ca21f32975987c335ace3b8c72c45de5", "is_disabled": 0, "is_reserved": 0}, {"rental_uris": {"ios": "https://dc.lft.to/lastmile_qr_scan", "android": "https://dc.lft.to/lastmile_qr_scan"}, "lon": -76.9318435, "type": "electric_scooter", "fusion_lat": 0.0, "lat": 38.89875, "name": "387ad81146969d349a19c73052bea4b9", "fusion_lon": 0.0, "bike_id": "387ad81146969d349a19c73052bea4b9", "is_disabled": 0, "is_reserved": 0}, {"rental_uris": {"ios": "https://dc.lft.to/lastmile_qr_scan", "android": "https://dc.lft.to/lastmile_qr_scan"}, "lon": -77.0086725, "type": "electric_scooter", "fusion_lat": 0.0, "lat": 38.911752666666665, "name": "4f5eed9574cf511e39a093195df84f1c", "fusion_lon": 0.0, "bike_id": "4f5eed9574cf511e39a093195df84f1c", "is_disabled": 0, "is_reserved": 0}, {"rental_uris": {"ios": "https://dc.lft.to/lastmile_qr_scan", "android": "https://dc.lft.to/lastmile_qr_scan"}, "lon": -77.024825, "type": "electric_scooter", "fusion_lat": 0.0, "lat": 38.897308833333334, "name": "4187799b70d1ee5540bb0d5bfbdfbe0f", "fusion_lon": 0.0, "bike_id": "4187799b70d1ee5540bb0d5bfbdfbe0f", "is_disabled": 0, "is_reserved": 0}, {"rental_uris": {"ios": "https://dc.lft.to/lastmile_qr_scan", "android": "https://dc.lft.to/lastmile_qr_scan"}, "lon": -76.95202183333333, "type": "electric_bike", "fusion_lat": 0.0, "lat": 38.93666, "name": "833400952ebed6c496088302ca1ccf52", "fusion_lon": 0.0, "bike_id": "833400952ebed6c496088302ca1ccf52", "is_disabled": 0, "is_reserved": 0}, {"rental_uris": {"ios": "https://dc.lft.to/lastmile_qr_scan", "android": "https://dc.lft.to/lastmile_qr_scan"}, "lon": -77.02558216666667, "type": "electric_scooter", "fusion_lat": 0.0, "lat": 38.9397975, "name": "cc8e072731d7af79e514ae68a31c10a0", "fusion_lon": 0.0, "bike_id": "cc8e072731d7af79e514ae68a31c10a0", "is_disabled": 0, "is_reserved": 0}, {"rental_uris": {"ios": "https://dc.lft.to/lastmile_qr_scan", "android": "https://dc.lft.to/lastmile_qr_scan"}, "lon": -77.04441533333333, "type": "electric_scooter", "fusion_lat": 0.0, "lat": 38.90561266666667, "name": "a60ce043380e9905b2d421d46e8f16ba", "fusion_lon": 0.0, "bike_id": "a60ce043380e9905b2d421d46e8f16ba", "is_disabled": 0, "is_reserved": 0}, {"rental_uris": {"ios": "https://dc.lft.to/lastmile_qr_scan", "android": "https://dc.lft.to/lastmile_qr_scan"}, "lon": -77.03848083333334, "type": "electric_scooter", "fusion_lat": 0.0, "lat": 38.913345666666665, "name": "f06f21c04354a975d3641f881fda1a75", "fusion_lon": 0.0, "bike_id": "f06f21c04354a975d3641f881fda1a75", "is_disabled": 0, "is_reserved": 0}, {"rental_uris": {"ios": "https://dc.lft.to/lastmile_qr_scan", "android": "https://dc.lft.to/lastmile_qr_scan"}, "lon": -77.03207266666666, "type": "electric_scooter", "fusion_lat": 0.0, "lat": 38.90775716666667, "name": "c46da29e2ac3d93bb1aa267ab8aed96d", "fusion_lon": 0.0, "bike_id": "c46da29e2ac3d93bb1aa267ab8aed96d", "is_disabled": 0, "is_reserved": 0}, {"rental_uris": {"ios": "https://dc.lft.to/lastmile_qr_scan", "android": "https://dc.lft.to/lastmile_qr_scan"}, "lon": -76.98981233333333, "type": "electric_scooter", "fusion_lat": 0.0, "lat": 38.89044716666667, "name": "0d8700eeac9d498f9024d4f84524317b", "fusion_lon": 0.0, "bike_id": "0d8700eeac9d498f9024d4f84524317b", "is_disabled": 0, "is_reserved": 0}, {"rental_uris": {"ios": "https://dc.lft.to/lastmile_qr_scan", "android": "https://dc.lft.to/lastmile_qr_scan"}, "lon": -77.0388345, "type": "electric_scooter", "fusion_lat": 0.0, "lat": 38.9232295, "name": "98710e3bba252071750d66667f04e2cb", "fusion_lon": 0.0, "bike_id": "98710e3bba252071750d66667f04e2cb", "is_disabled": 0, "is_reserved": 0}, {"rental_uris": {"ios": "https://dc.lft.to/lastmile_qr_scan", "android": "https://dc.lft.to/lastmile_qr_scan"}, "lon": -76.96491433333334, "type": "electric_bike", "fusion_lat": 0.0, "lat": 38.875469333333335, "name": "d209e3db6122faf1770db7b4a7f01792", "fusion_lon": 0.0, "bike_id": "d209e3db6122faf1770db7b4a7f01792", "is_disabled": 0, "is_reserved": 0}, {"rental_uris": {"ios": "https://dc.lft.to/lastmile_qr_scan", "android": "https://dc.lft.to/lastmile_qr_scan"}, "lon": -76.99872683333334, "type": "electric_scooter", "fusion_lat": 0.0, "lat": 38.90033, "name": "dd3dc16fd77c3a561818d34f00c89422", "fusion_lon": 0.0, "bike_id": "dd3dc16fd77c3a561818d34f00c89422", "is_disabled": 0, "is_reserved": 0}, {"rental_uris": {"ios": "https://dc.lft.to/lastmile_qr_scan", "android": "https://dc.lft.to/lastmile_qr_scan"}, "lon": -77.0512395, "type": "electric_scooter", "fusion_lat": 0.0, "lat": 38.923579, "name": "269b2719f1412476315eff4533ab6ce4", "fusion_lon": 0.0, "bike_id": "269b2719f1412476315eff4533ab6ce4", "is_disabled": 0, "is_reserved": 0}, {"rental_uris": {"ios": "https://dc.lft.to/lastmile_qr_scan", "android": "https://dc.lft.to/lastmile_qr_scan"}, "lon": -77.01291616666667, "type": "electric_bike", "fusion_lat": 0.0, "lat": 39.003836166666666, "name": "ffb30239405b8efeca3d84c97ac1a104", "fusion_lon": 0.0, "bike_id": "ffb30239405b8efeca3d84c97ac1a104", "is_disabled": 0, "is_reserved": 0}, {"rental_uris": {"ios": "https://dc.lft.to/lastmile_qr_scan", "android": "https://dc.lft.to/lastmile_qr_scan"}, "lon": -77.01113216666667, "type": "electric_scooter", "fusion_lat": 0.0, "lat": 38.9035925, "name": "294528af3b30124b5268d9b6f457ad4f", "fusion_lon": 0.0, "bike_id": "294528af3b30124b5268d9b6f457ad4f", "is_disabled": 0, "is_reserved": 0}, {"rental_uris": {"ios": "https://dc.lft.to/lastmile_qr_scan", "android": "https://dc.lft.to/lastmile_qr_scan"}, "lon": -77.01702366666666, "type": "electric_scooter", "fusion_lat": 0.0, "lat": 38.879244, "name": "5545007701b5c6e0251aca81fdb44736", "fusion_lon": 0.0, "bike_id": "5545007701b5c6e0251aca81fdb44736", "is_disabled": 0, "is_reserved": 0}, {"rental_uris": {"ios": "https://dc.lft.to/lastmile_qr_scan", "android": "https://dc.lft.to/lastmile_qr_scan"}, "lon": -77.0384215, "type": "electric_scooter", "fusion_lat": 0.0, "lat": 38.91090033333333, "name": "56b1cf00fb85c82695f36bc33848f6a4", "fusion_lon": 0.0, "bike_id": "56b1cf00fb85c82695f36bc33848f6a4", "is_disabled": 0, "is_reserved": 0}, {"rental_uris": {"ios": "https://dc.lft.to/lastmile_qr_scan", "android": "https://dc.lft.to/lastmile_qr_scan"}, "lon": -77.0005215, "type": "electric_scooter", "fusion_lat": 0.0, "lat": 38.88899766666667, "name": "8c2479135b4a8bc46355d7ebcdc79920", "fusion_lon": 0.0, "bike_id": "8c2479135b4a8bc46355d7ebcdc79920", "is_disabled": 0, "is_reserved": 0}, {"rental_uris": {"ios": "https://dc.lft.to/lastmile_qr_scan", "android": "https://dc.lft.to/lastmile_qr_scan"}, "lon": -77.0369615, "type": "electric_bike", "fusion_lat": 0.0, "lat": 38.93563566666667, "name": "a8a611610e44b6784460be244962f326", "fusion_lon": 0.0, "bike_id": "a8a611610e44b6784460be244962f326", "is_disabled": 0, "is_reserved": 0}, {"rental_uris": {"ios": "https://dc.lft.to/lastmile_qr_scan", "android": "https://dc.lft.to/lastmile_qr_scan"}, "lon": -77.07558966666667, "type": "electric_bike", "fusion_lat": 0.0, "lat": 38.910522, "name": "80b2fc8e9ccea6c728ccbac2277c7c32", "fusion_lon": 0.0, "bike_id": "80b2fc8e9ccea6c728ccbac2277c7c32", "is_disabled": 0, "is_reserved": 0}, {"rental_uris": {"ios": "https://dc.lft.to/lastmile_qr_scan", "android": "https://dc.lft.to/lastmile_qr_scan"}, "lon": -77.08844633333334, "type": "electric_bike", "fusion_lat": 0.0, "lat": 38.840756166666665, "name": "7f4d8b6490733575729412cf52681a37", "fusion_lon": 0.0, "bike_id": "7f4d8b6490733575729412cf52681a37", "is_disabled": 0, "is_reserved": 0}, {"rental_uris": {"ios": "https://dc.lft.to/lastmile_qr_scan", "android": "https://dc.lft.to/lastmile_qr_scan"}, "lon": -77.025457, "type": "electric_scooter", "fusion_lat": 0.0, "lat": 38.892229666666665, "name": "a3781eaad11617872de527aea8e6a009", "fusion_lon": 0.0, "bike_id": "a3781eaad11617872de527aea8e6a009", "is_disabled": 0, "is_reserved": 0}, {"rental_uris": {"ios": "https://dc.lft.to/lastmile_qr_scan", "android": "https://dc.lft.to/lastmile_qr_scan"}, "lon": -77.057467, "type": "electric_scooter", "fusion_lat": 0.0, "lat": 38.935395666666665, "name": "f12a2b9837773de01d5fc1b3b1f29115", "fusion_lon": 0.0, "bike_id": "f12a2b9837773de01d5fc1b3b1f29115", "is_disabled": 0, "is_reserved": 0}, {"rental_uris": {"ios": "https://dc.lft.to/lastmile_qr_scan", "android": "https://dc.lft.to/lastmile_qr_scan"}, "lon": -77.09519483333334, "type": "electric_bike", "fusion_lat": 0.0, "lat": 38.838098333333335, "name": "88ee751e9c6dcd2aebe1e7bf584e1163", "fusion_lon": 0.0, "bike_id": "88ee751e9c6dcd2aebe1e7bf584e1163", "is_disabled": 0, "is_reserved": 0}, {"rental_uris": {"ios": "https://dc.lft.to/lastmile_qr_scan", "android": "https://dc.lft.to/lastmile_qr_scan"}, "lon": -76.99481516666667, "type": "electric_scooter", "fusion_lat": 0.0, "lat": 38.862336666666664, "name": "4d0815dd594bb29f3b39a108e8d7313b", "fusion_lon": 0.0, "bike_id": "4d0815dd594bb29f3b39a108e8d7313b", "is_disabled": 0, "is_reserved": 0}, {"rental_uris": {"ios": "https://dc.lft.to/lastmile_qr_scan", "android": "https://dc.lft.to/lastmile_qr_scan"}, "lon": -77.04357283333333, "type": "electric_scooter", "fusion_lat": 0.0, "lat": 38.90260033333333, "name": "a440f42901a051ba0f214e00f22fb9d8", "fusion_lon": 0.0, "bike_id": "a440f42901a051ba0f214e00f22fb9d8", "is_disabled": 0, "is_reserved": 0}, {"rental_uris": {"ios": "https://dc.lft.to/lastmile_qr_scan", "android": "https://dc.lft.to/lastmile_qr_scan"}, "lon": -77.03827683333333, "type": "electric_scooter", "fusion_lat": 0.0, "lat": 38.92047816666667, "name": "51fa6a7b45cb2d73dde9fb6cc5c0ffde", "fusion_lon": 0.0, "bike_id": "51fa6a7b45cb2d73dde9fb6cc5c0ffde", "is_disabled": 0, "is_reserved": 0}, {"rental_uris": {"ios": "https://dc.lft.to/lastmile_qr_scan", "android": "https://dc.lft.to/lastmile_qr_scan"}, "lon": -77.03998083333333, "type": "electric_scooter", "fusion_lat": 0.0, "lat": 38.88886733333333, "name": "9195f5fa7d59a6cdb7b99e9b090787d0", "fusion_lon": 0.0, "bike_id": "9195f5fa7d59a6cdb7b99e9b090787d0", "is_disabled": 0, "is_reserved": 0}, {"rental_uris": {"ios": "https://dc.lft.to/lastmile_qr_scan", "android": "https://dc.lft.to/lastmile_qr_scan"}, "lon": -77.03274983333333, "type": "electric_scooter", "fusion_lat": 0.0, "lat": 38.8941285, "name": "aa582b2a29a5576f993a44bf645aab1c", "fusion_lon": 0.0, "bike_id": "aa582b2a29a5576f993a44bf645aab1c", "is_disabled": 0, "is_reserved": 0}, {"rental_uris": {"ios": "https://dc.lft.to/lastmile_qr_scan", "android": "https://dc.lft.to/lastmile_qr_scan"}, "lon": -77.0357055, "type": "electric_scooter", "fusion_lat": 0.0, "lat": 38.918166166666666, "name": "35769e2031a58b1dd5a4289b588367c1", "fusion_lon": 0.0, "bike_id": "35769e2031a58b1dd5a4289b588367c1", "is_disabled": 0, "is_reserved": 0}, {"rental_uris": {"ios": "https://dc.lft.to/lastmile_qr_scan", "android": "https://dc.lft.to/lastmile_qr_scan"}, "lon": -77.03211466666667, "type": "electric_scooter", "fusion_lat": 0.0, "lat": 38.9169875, "name": "363a148d0fca25afb1a560a7b4179e8f", "fusion_lon": 0.0, "bike_id": "363a148d0fca25afb1a560a7b4179e8f", "is_disabled": 0, "is_reserved": 0}, {"rental_uris": {"ios": "https://dc.lft.to/lastmile_qr_scan", "android": "https://dc.lft.to/lastmile_qr_scan"}, "lon": -77.0320425, "type": "electric_scooter", "fusion_lat": 0.0, "lat": 38.91738516666667, "name": "a67fd60415e6b339b85981907d37e652", "fusion_lon": 0.0, "bike_id": "a67fd60415e6b339b85981907d37e652", "is_disabled": 0, "is_reserved": 0}, {"rental_uris": {"ios": "https://dc.lft.to/lastmile_qr_scan", "android": "https://dc.lft.to/lastmile_qr_scan"}, "lon": -76.95820583333334, "type": "electric_scooter", "fusion_lat": 0.0, "lat": 38.890561, "name": "483685a7e0711a7c4d6261e1e3da7bfb", "fusion_lon": 0.0, "bike_id": "483685a7e0711a7c4d6261e1e3da7bfb", "is_disabled": 0, "is_reserved": 0}, {"rental_uris": {"ios": "https://dc.lft.to/lastmile_qr_scan", "android": "https://dc.lft.to/lastmile_qr_scan"}, "lon": -77.0325575, "type": "electric_scooter", "fusion_lat": 0.0, "lat": 38.91818516666667, "name": "97fba7bf250c410849ae6fc9448b2b7b", "fusion_lon": 0.0, "bike_id": "97fba7bf250c410849ae6fc9448b2b7b", "is_disabled": 0, "is_reserved": 0}, {"rental_uris": {"ios": "https://dc.lft.to/lastmile_qr_scan", "android": "https://dc.lft.to/lastmile_qr_scan"}, "lon": -77.05595383333333, "type": "electric_scooter", "fusion_lat": 0.0, "lat": 38.92780233333333, "name": "9a4ba5ca8a4a7513f0e3286ea55d4097", "fusion_lon": 0.0, "bike_id": "9a4ba5ca8a4a7513f0e3286ea55d4097", "is_disabled": 0, "is_reserved": 0}, {"rental_uris": {"ios": "https://dc.lft.to/lastmile_qr_scan", "android": "https://dc.lft.to/lastmile_qr_scan"}, "lon": -77.0452095, "type": "electric_scooter", "fusion_lat": 0.0, "lat": 38.90972433333334, "name": "a46adf9ac2658ec7e02104216d80870d", "fusion_lon": 0.0, "bike_id": "a46adf9ac2658ec7e02104216d80870d", "is_disabled": 0, "is_reserved": 0}, {"rental_uris": {"ios": "https://dc.lft.to/lastmile_qr_scan", "android": "https://dc.lft.to/lastmile_qr_scan"}, "lon": -77.03354666666667, "type": "electric_scooter", "fusion_lat": 0.0, "lat": 38.885056666666664, "name": "07506aebdf619a5a2f1185312f296c11", "fusion_lon": 0.0, "bike_id": "07506aebdf619a5a2f1185312f296c11", "is_disabled": 0, "is_reserved": 0}, {"rental_uris": {"ios": "https://dc.lft.to/lastmile_qr_scan", "android": "https://dc.lft.to/lastmile_qr_scan"}, "lon": -77.03200616666666, "type": "electric_scooter", "fusion_lat": 0.0, "lat": 38.9131805, "name": "4b6924b1059763de6505b263a1168a0b", "fusion_lon": 0.0, "bike_id": "4b6924b1059763de6505b263a1168a0b", "is_disabled": 0, "is_reserved": 0}, {"rental_uris": {"ios": "https://dc.lft.to/lastmile_qr_scan", "android": "https://dc.lft.to/lastmile_qr_scan"}, "lon": -77.0444695, "type": "electric_scooter", "fusion_lat": 0.0, "lat": 38.9187955, "name": "6b2f252b5d5e820c27eef9b6c5cb20bd", "fusion_lon": 0.0, "bike_id": "6b2f252b5d5e820c27eef9b6c5cb20bd", "is_disabled": 0, "is_reserved": 0}, {"rental_uris": {"ios": "https://dc.lft.to/lastmile_qr_scan", "android": "https://dc.lft.to/lastmile_qr_scan"}, "lon": -77.0213, "type": "electric_scooter", "fusion_lat": 0.0, "lat": 38.90007933333333, "name": "2e24ed34c491ec82d2dd0d0ba7c03fad", "fusion_lon": 0.0, "bike_id": "2e24ed34c491ec82d2dd0d0ba7c03fad", "is_disabled": 0, "is_reserved": 0}, {"rental_uris": {"ios": "https://dc.lft.to/lastmile_qr_scan", "android": "https://dc.lft.to/lastmile_qr_scan"}, "lon": -77.00048966666667, "type": "electric_bike", "fusion_lat": 0.0, "lat": 38.874284, "name": "cda76d5238e694bd0b592975b8b1b3b7", "fusion_lon": 0.0, "bike_id": "cda76d5238e694bd0b592975b8b1b3b7", "is_disabled": 0, "is_reserved": 0}, {"rental_uris": {"ios": "https://dc.lft.to/lastmile_qr_scan", "android": "https://dc.lft.to/lastmile_qr_scan"}, "lon": -76.98427666666667, "type": "electric_scooter", "fusion_lat": 0.0, "lat": 38.914264833333334, "name": "868d6dd7eac65b0bb449e9533df20be0", "fusion_lon": 0.0, "bike_id": "868d6dd7eac65b0bb449e9533df20be0", "is_disabled": 0, "is_reserved": 0}, {"rental_uris": {"ios": "https://dc.lft.to/lastmile_qr_scan", "android": "https://dc.lft.to/lastmile_qr_scan"}, "lon": -77.02528066666666, "type": "electric_scooter", "fusion_lat": 0.0, "lat": 38.918199, "name": "841102fa4b997b4f438ab1f02d89202c", "fusion_lon": 0.0, "bike_id": "841102fa4b997b4f438ab1f02d89202c", "is_disabled": 0, "is_reserved": 0}, {"rental_uris": {"ios": "https://dc.lft.to/lastmile_qr_scan", "android": "https://dc.lft.to/lastmile_qr_scan"}, "lon": -77.02713716666666, "type": "electric_scooter", "fusion_lat": 0.0, "lat": 38.903589833333335, "name": "095388bd2965a4625b0c428f8d993967", "fusion_lon": 0.0, "bike_id": "095388bd2965a4625b0c428f8d993967", "is_disabled": 0, "is_reserved": 0}, {"rental_uris": {"ios": "https://dc.lft.to/lastmile_qr_scan", "android": "https://dc.lft.to/lastmile_qr_scan"}, "lon": -77.048192, "type": "electric_scooter", "fusion_lat": 0.0, "lat": 38.91332033333333, "name": "73f2183312971bc591e2f6ee88a2f647", "fusion_lon": 0.0, "bike_id": "73f2183312971bc591e2f6ee88a2f647", "is_disabled": 0, "is_reserved": 0}, {"rental_uris": {"ios": "https://dc.lft.to/lastmile_qr_scan", "android": "https://dc.lft.to/lastmile_qr_scan"}, "lon": -77.0652905, "type": "electric_scooter", "fusion_lat": 0.0, "lat": 38.9347315, "name": "095d322b81b77d1a34bb0dfddd86d4e0", "fusion_lon": 0.0, "bike_id": "095d322b81b77d1a34bb0dfddd86d4e0", "is_disabled": 0, "is_reserved": 0}, {"rental_uris": {"ios": "https://dc.lft.to/lastmile_qr_scan", "android": "https://dc.lft.to/lastmile_qr_scan"}, "lon": -77.028335, "type": "electric_scooter", "fusion_lat": 0.0, "lat": 38.92474166666667, "name": "cee549ed2b559c7eeb08595a873b0daa", "fusion_lon": 0.0, "bike_id": "cee549ed2b559c7eeb08595a873b0daa", "is_disabled": 0, "is_reserved": 0}, {"rental_uris": {"ios": "https://dc.lft.to/lastmile_qr_scan", "android": "https://dc.lft.to/lastmile_qr_scan"}, "lon": -77.09561733333334, "type": "electric_bike", "fusion_lat": 0.0, "lat": 38.91706283333333, "name": "081b0a9c8568bb1d2ca90b1d06c07be8", "fusion_lon": 0.0, "bike_id": "081b0a9c8568bb1d2ca90b1d06c07be8", "is_disabled": 0, "is_reserved": 0}, {"rental_uris": {"ios": "https://dc.lft.to/lastmile_qr_scan", "android": "https://dc.lft.to/lastmile_qr_scan"}, "lon": -76.908153, "type": "electric_bike", "fusion_lat": 0.0, "lat": 38.99454583333333, "name": "2dc8856224f3461e45dc706721bb81fc", "fusion_lon": 0.0, "bike_id": "2dc8856224f3461e45dc706721bb81fc", "is_disabled": 0, "is_reserved": 0}, {"rental_uris": {"ios": "https://dc.lft.to/lastmile_qr_scan", "android": "https://dc.lft.to/lastmile_qr_scan"}, "lon": -77.01323233333333, "type": "electric_scooter", "fusion_lat": 0.0, "lat": 38.892377333333336, "name": "fc2a69cedba97af6da92d82fe2388a42", "fusion_lon": 0.0, "bike_id": "fc2a69cedba97af6da92d82fe2388a42", "is_disabled": 0, "is_reserved": 0}, {"rental_uris": {"ios": "https://dc.lft.to/lastmile_qr_scan", "android": "https://dc.lft.to/lastmile_qr_scan"}, "lon": -77.06753683333334, "type": "electric_scooter", "fusion_lat": 0.0, "lat": 38.91559633333333, "name": "75f997e6906abecca28b8403e4157221", "fusion_lon": 0.0, "bike_id": "75f997e6906abecca28b8403e4157221", "is_disabled": 0, "is_reserved": 0}, {"rental_uris": {"ios": "https://dc.lft.to/lastmile_qr_scan", "android": "https://dc.lft.to/lastmile_qr_scan"}, "lon": -77.025902, "type": "electric_scooter", "fusion_lat": 0.0, "lat": 38.895985833333334, "name": "218e80dc46e9439cce777d01c79b7b92", "fusion_lon": 0.0, "bike_id": "218e80dc46e9439cce777d01c79b7b92", "is_disabled": 0, "is_reserved": 0}, {"rental_uris": {"ios": "https://dc.lft.to/lastmile_qr_scan", "android": "https://dc.lft.to/lastmile_qr_scan"}, "lon": -76.966299, "type": "electric_bike", "fusion_lat": 0.0, "lat": 38.942025666666666, "name": "331b7a240a1b8b89a0dbe982bf15e86b", "fusion_lon": 0.0, "bike_id": "331b7a240a1b8b89a0dbe982bf15e86b", "is_disabled": 0, "is_reserved": 0}, {"rental_uris": {"ios": "https://dc.lft.to/lastmile_qr_scan", "android": "https://dc.lft.to/lastmile_qr_scan"}, "lon": -77.01110566666667, "type": "electric_scooter", "fusion_lat": 0.0, "lat": 38.9079105, "name": "8d621ae7bd9cd86e252b247ca12bdd53", "fusion_lon": 0.0, "bike_id": "8d621ae7bd9cd86e252b247ca12bdd53", "is_disabled": 0, "is_reserved": 0}, {"rental_uris": {"ios": "https://dc.lft.to/lastmile_qr_scan", "android": "https://dc.lft.to/lastmile_qr_scan"}, "lon": -77.021094, "type": "electric_scooter", "fusion_lat": 0.0, "lat": 38.913166, "name": "2df3098f5f7bcc60949880359c0fb278", "fusion_lon": 0.0, "bike_id": "2df3098f5f7bcc60949880359c0fb278", "is_disabled": 0, "is_reserved": 0}, {"rental_uris": {"ios": "https://dc.lft.to/lastmile_qr_scan", "android": "https://dc.lft.to/lastmile_qr_scan"}, "lon": -76.93755933333334, "type": "electric_scooter", "fusion_lat": 0.0, "lat": 38.89053916666667, "name": "69cd7876277be1f0ba99b3b84fd41a70", "fusion_lon": 0.0, "bike_id": "69cd7876277be1f0ba99b3b84fd41a70", "is_disabled": 0, "is_reserved": 0}, {"rental_uris": {"ios": "https://dc.lft.to/lastmile_qr_scan", "android": "https://dc.lft.to/lastmile_qr_scan"}, "lon": -77.0202735, "type": "electric_scooter", "fusion_lat": 0.0, "lat": 38.93228716666667, "name": "d238822613f94d4a39eeeac3626f1613", "fusion_lon": 0.0, "bike_id": "d238822613f94d4a39eeeac3626f1613", "is_disabled": 0, "is_reserved": 0}, {"rental_uris": {"ios": "https://dc.lft.to/lastmile_qr_scan", "android": "https://dc.lft.to/lastmile_qr_scan"}, "lon": -77.02647433333334, "type": "electric_scooter", "fusion_lat": 0.0, "lat": 38.938595666666664, "name": "6bd6f138a8aa25ed6fb87221d11ef5d3", "fusion_lon": 0.0, "bike_id": "6bd6f138a8aa25ed6fb87221d11ef5d3", "is_disabled": 0, "is_reserved": 0}, {"rental_uris": {"ios": "https://dc.lft.to/lastmile_qr_scan", "android": "https://dc.lft.to/lastmile_qr_scan"}, "lon": -77.00592466666667, "type": "electric_scooter", "fusion_lat": 0.0, "lat": 38.90251083333333, "name": "e8b9d665cf8cb7a75007f458a5ef2d22", "fusion_lon": 0.0, "bike_id": "e8b9d665cf8cb7a75007f458a5ef2d22", "is_disabled": 0, "is_reserved": 0}, {"rental_uris": {"ios": "https://dc.lft.to/lastmile_qr_scan", "android": "https://dc.lft.to/lastmile_qr_scan"}, "lon": -77.02397433333333, "type": "electric_scooter", "fusion_lat": 0.0, "lat": 38.952860666666666, "name": "f101eca4b543fb9e4cf7e0f0c2184b76", "fusion_lon": 0.0, "bike_id": "f101eca4b543fb9e4cf7e0f0c2184b76", "is_disabled": 0, "is_reserved": 0}, {"rental_uris": {"ios": "https://dc.lft.to/lastmile_qr_scan", "android": "https://dc.lft.to/lastmile_qr_scan"}, "lon": -77.0259135, "type": "electric_scooter", "fusion_lat": 0.0, "lat": 38.91499666666667, "name": "847ca33254e218d9c2483105d15b949c", "fusion_lon": 0.0, "bike_id": "847ca33254e218d9c2483105d15b949c", "is_disabled": 0, "is_reserved": 0}, {"rental_uris": {"ios": "https://dc.lft.to/lastmile_qr_scan", "android": "https://dc.lft.to/lastmile_qr_scan"}, "lon": -77.017633, "type": "electric_scooter", "fusion_lat": 0.0, "lat": 38.900276, "name": "cdc47858ae56f0afd963f4c9a7b988fa", "fusion_lon": 0.0, "bike_id": "cdc47858ae56f0afd963f4c9a7b988fa", "is_disabled": 0, "is_reserved": 0}, {"rental_uris": {"ios": "https://dc.lft.to/lastmile_qr_scan", "android": "https://dc.lft.to/lastmile_qr_scan"}, "lon": -77.00986033333334, "type": "electric_scooter", "fusion_lat": 0.0, "lat": 38.91493233333333, "name": "3bf062aff0f5854a4ba515332c984cb9", "fusion_lon": 0.0, "bike_id": "3bf062aff0f5854a4ba515332c984cb9", "is_disabled": 0, "is_reserved": 0}, {"rental_uris": {"ios": "https://dc.lft.to/lastmile_qr_scan", "android": "https://dc.lft.to/lastmile_qr_scan"}, "lon": -77.03781983333333, "type": "electric_scooter", "fusion_lat": 0.0, "lat": 38.9357195, "name": "5b5c953c1a94a6d6d2335f5f507874b7", "fusion_lon": 0.0, "bike_id": "5b5c953c1a94a6d6d2335f5f507874b7", "is_disabled": 0, "is_reserved": 0}, {"rental_uris": {"ios": "https://dc.lft.to/lastmile_qr_scan", "android": "https://dc.lft.to/lastmile_qr_scan"}, "lon": -77.03566533333333, "type": "electric_scooter", "fusion_lat": 0.0, "lat": 38.90866166666667, "name": "21da38a099f22ee2673822cafe4a5cdc", "fusion_lon": 0.0, "bike_id": "21da38a099f22ee2673822cafe4a5cdc", "is_disabled": 0, "is_reserved": 0}, {"rental_uris": {"ios": "https://dc.lft.to/lastmile_qr_scan", "android": "https://dc.lft.to/lastmile_qr_scan"}, "lon": -77.01050466666666, "type": "electric_scooter", "fusion_lat": 0.0, "lat": 38.87935233333333, "name": "4b15d064567f944260ed7284ed4d8a1d", "fusion_lon": 0.0, "bike_id": "4b15d064567f944260ed7284ed4d8a1d", "is_disabled": 0, "is_reserved": 0}, {"rental_uris": {"ios": "https://dc.lft.to/lastmile_qr_scan", "android": "https://dc.lft.to/lastmile_qr_scan"}, "lon": -77.0162445, "type": "electric_scooter", "fusion_lat": 0.0, "lat": 38.903347833333335, "name": "9db4d2010a44cb8b1f11737b4c95398c", "fusion_lon": 0.0, "bike_id": "9db4d2010a44cb8b1f11737b4c95398c", "is_disabled": 0, "is_reserved": 0}, {"rental_uris": {"ios": "https://dc.lft.to/lastmile_qr_scan", "android": "https://dc.lft.to/lastmile_qr_scan"}, "lon": -77.0511925, "type": "electric_bike", "fusion_lat": 0.0, "lat": 38.99963366666667, "name": "ef5ff28b7915b492b091af019d77fa4c", "fusion_lon": 0.0, "bike_id": "ef5ff28b7915b492b091af019d77fa4c", "is_disabled": 0, "is_reserved": 0}, {"rental_uris": {"ios": "https://dc.lft.to/lastmile_qr_scan", "android": "https://dc.lft.to/lastmile_qr_scan"}, "lon": -77.02422433333334, "type": "electric_scooter", "fusion_lat": 0.0, "lat": 38.91827766666667, "name": "d7c8373c48d8ad82588eccdf057c5dab", "fusion_lon": 0.0, "bike_id": "d7c8373c48d8ad82588eccdf057c5dab", "is_disabled": 0, "is_reserved": 0}, {"rental_uris": {"ios": "https://dc.lft.to/lastmile_qr_scan", "android": "https://dc.lft.to/lastmile_qr_scan"}, "lon": -76.98610716666667, "type": "electric_bike", "fusion_lat": 0.0, "lat": 38.9062125, "name": "2e8d5fe70e51be1c75a22ce4ff1433d8", "fusion_lon": 0.0, "bike_id": "2e8d5fe70e51be1c75a22ce4ff1433d8", "is_disabled": 0, "is_reserved": 0}, {"rental_uris": {"ios": "https://dc.lft.to/lastmile_qr_scan", "android": "https://dc.lft.to/lastmile_qr_scan"}, "lon": -77.088235, "type": "electric_bike", "fusion_lat": 0.0, "lat": 38.9097185, "name": "89a6c57b913945cc27c31011a68c0f13", "fusion_lon": 0.0, "bike_id": "89a6c57b913945cc27c31011a68c0f13", "is_disabled": 0, "is_reserved": 0}, {"rental_uris": {"ios": "https://dc.lft.to/lastmile_qr_scan", "android": "https://dc.lft.to/lastmile_qr_scan"}, "lon": -76.98882666666667, "type": "electric_scooter", "fusion_lat": 0.0, "lat": 38.866565333333334, "name": "6f48ef3202896351e4bf0a014bc7a0f7", "fusion_lon": 0.0, "bike_id": "6f48ef3202896351e4bf0a014bc7a0f7", "is_disabled": 0, "is_reserved": 0}, {"rental_uris": {"ios": "https://dc.lft.to/lastmile_qr_scan", "android": "https://dc.lft.to/lastmile_qr_scan"}, "lon": -77.02430333333334, "type": "electric_scooter", "fusion_lat": 0.0, "lat": 38.91849466666667, "name": "f5a765595f987593824e56ab7adb63d4", "fusion_lon": 0.0, "bike_id": "f5a765595f987593824e56ab7adb63d4", "is_disabled": 0, "is_reserved": 0}, {"rental_uris": {"ios": "https://dc.lft.to/lastmile_qr_scan", "android": "https://dc.lft.to/lastmile_qr_scan"}, "lon": -77.01651433333333, "type": "electric_scooter", "fusion_lat": 0.0, "lat": 38.95329516666666, "name": "e66e2e787bc9fb727d3d60ef1e964026", "fusion_lon": 0.0, "bike_id": "e66e2e787bc9fb727d3d60ef1e964026", "is_disabled": 0, "is_reserved": 0}, {"rental_uris": {"ios": "https://dc.lft.to/lastmile_qr_scan", "android": "https://dc.lft.to/lastmile_qr_scan"}, "lon": -77.05438033333333, "type": "electric_scooter", "fusion_lat": 0.0, "lat": 38.896086333333336, "name": "a25a0912d695440b0a91c27cf94a8645", "fusion_lon": 0.0, "bike_id": "a25a0912d695440b0a91c27cf94a8645", "is_disabled": 0, "is_reserved": 0}, {"rental_uris": {"ios": "https://dc.lft.to/lastmile_qr_scan", "android": "https://dc.lft.to/lastmile_qr_scan"}, "lon": -77.03818633333333, "type": "electric_scooter", "fusion_lat": 0.0, "lat": 38.909676833333336, "name": "84d13c4df544324ff594a7e4edc0863b", "fusion_lon": 0.0, "bike_id": "84d13c4df544324ff594a7e4edc0863b", "is_disabled": 0, "is_reserved": 0}, {"rental_uris": {"ios": "https://dc.lft.to/lastmile_qr_scan", "android": "https://dc.lft.to/lastmile_qr_scan"}, "lon": -77.00260783333333, "type": "electric_scooter", "fusion_lat": 0.0, "lat": 38.877457, "name": "c970e33154728d1151601a2f09d35b26", "fusion_lon": 0.0, "bike_id": "c970e33154728d1151601a2f09d35b26", "is_disabled": 0, "is_reserved": 0}, {"rental_uris": {"ios": "https://dc.lft.to/lastmile_qr_scan", "android": "https://dc.lft.to/lastmile_qr_scan"}, "lon": -77.04795116666666, "type": "electric_scooter", "fusion_lat": 0.0, "lat": 38.893700833333334, "name": "47a8fd48c65ffd22ba79b6daa5671a1d", "fusion_lon": 0.0, "bike_id": "47a8fd48c65ffd22ba79b6daa5671a1d", "is_disabled": 0, "is_reserved": 0}, {"rental_uris": {"ios": "https://dc.lft.to/lastmile_qr_scan", "android": "https://dc.lft.to/lastmile_qr_scan"}, "lon": -77.02129033333334, "type": "electric_scooter", "fusion_lat": 0.0, "lat": 38.90968633333333, "name": "b438006c4767744e43ebcf4b53c7ecbd", "fusion_lon": 0.0, "bike_id": "b438006c4767744e43ebcf4b53c7ecbd", "is_disabled": 0, "is_reserved": 0}, {"rental_uris": {"ios": "https://dc.lft.to/lastmile_qr_scan", "android": "https://dc.lft.to/lastmile_qr_scan"}, "lon": -77.0441775, "type": "electric_scooter", "fusion_lat": 0.0, "lat": 38.905732666666665, "name": "f6cd11e2a629ed55f13457f984a53aee", "fusion_lon": 0.0, "bike_id": "f6cd11e2a629ed55f13457f984a53aee", "is_disabled": 0, "is_reserved": 0}, {"rental_uris": {"ios": "https://dc.lft.to/lastmile_qr_scan", "android": "https://dc.lft.to/lastmile_qr_scan"}, "lon": -76.98557716666667, "type": "electric_bike", "fusion_lat": 0.0, "lat": 38.892154833333336, "name": "337e3076da5b5bb5f1e87b917dbbe5fd", "fusion_lon": 0.0, "bike_id": "337e3076da5b5bb5f1e87b917dbbe5fd", "is_disabled": 0, "is_reserved": 0}, {"rental_uris": {"ios": "https://dc.lft.to/lastmile_qr_scan", "android": "https://dc.lft.to/lastmile_qr_scan"}, "lon": -77.03389383333334, "type": "electric_scooter", "fusion_lat": 0.0, "lat": 38.93845016666667, "name": "6c33a34bcb1b270bc59d6c61bd3bff74", "fusion_lon": 0.0, "bike_id": "6c33a34bcb1b270bc59d6c61bd3bff74", "is_disabled": 0, "is_reserved": 0}, {"rental_uris": {"ios": "https://dc.lft.to/lastmile_qr_scan", "android": "https://dc.lft.to/lastmile_qr_scan"}, "lon": -77.018334, "type": "electric_scooter", "fusion_lat": 0.0, "lat": 38.908797666666665, "name": "7063a2721ae0fb2163617803ad27a93e", "fusion_lon": 0.0, "bike_id": "7063a2721ae0fb2163617803ad27a93e", "is_disabled": 0, "is_reserved": 0}, {"rental_uris": {"ios": "https://dc.lft.to/lastmile_qr_scan", "android": "https://dc.lft.to/lastmile_qr_scan"}, "lon": -77.0112045, "type": "electric_scooter", "fusion_lat": 0.0, "lat": 38.900144833333336, "name": "a26f542a508b87c2fad9a59a8f44fa6d", "fusion_lon": 0.0, "bike_id": "a26f542a508b87c2fad9a59a8f44fa6d", "is_disabled": 0, "is_reserved": 0}, {"rental_uris": {"ios": "https://dc.lft.to/lastmile_qr_scan", "android": "https://dc.lft.to/lastmile_qr_scan"}, "lon": -76.98264533333334, "type": "electric_scooter", "fusion_lat": 0.0, "lat": 38.86354583333333, "name": "acf615118664b98454f487ec72461126", "fusion_lon": 0.0, "bike_id": "acf615118664b98454f487ec72461126", "is_disabled": 0, "is_reserved": 0}, {"rental_uris": {"ios": "https://dc.lft.to/lastmile_qr_scan", "android": "https://dc.lft.to/lastmile_qr_scan"}, "lon": -77.00523833333334, "type": "electric_scooter", "fusion_lat": 0.0, "lat": 38.9289275, "name": "c07e9481976546be44662c9617d36623", "fusion_lon": 0.0, "bike_id": "c07e9481976546be44662c9617d36623", "is_disabled": 0, "is_reserved": 0}, {"rental_uris": {"ios": "https://dc.lft.to/lastmile_qr_scan", "android": "https://dc.lft.to/lastmile_qr_scan"}, "lon": -76.9997345, "type": "electric_scooter", "fusion_lat": 0.0, "lat": 38.83840766666667, "name": "008cd72ff29178beb1689742453484d0", "fusion_lon": 0.0, "bike_id": "008cd72ff29178beb1689742453484d0", "is_disabled": 0, "is_reserved": 0}, {"rental_uris": {"ios": "https://dc.lft.to/lastmile_qr_scan", "android": "https://dc.lft.to/lastmile_qr_scan"}, "lon": -77.03918616666667, "type": "electric_scooter", "fusion_lat": 0.0, "lat": 38.91106666666667, "name": "dfcddd1aed7ddef02c215874a85a113f", "fusion_lon": 0.0, "bike_id": "dfcddd1aed7ddef02c215874a85a113f", "is_disabled": 0, "is_reserved": 0}, {"rental_uris": {"ios": "https://dc.lft.to/lastmile_qr_scan", "android": "https://dc.lft.to/lastmile_qr_scan"}, "lon": -77.03449216666667, "type": "electric_scooter", "fusion_lat": 0.0, "lat": 38.90912133333333, "name": "5e3e4292be2c558ce107445e6d6414f7", "fusion_lon": 0.0, "bike_id": "5e3e4292be2c558ce107445e6d6414f7", "is_disabled": 0, "is_reserved": 0}, {"rental_uris": {"ios": "https://dc.lft.to/lastmile_qr_scan", "android": "https://dc.lft.to/lastmile_qr_scan"}, "lon": -77.07261333333334, "type": "electric_scooter", "fusion_lat": 0.0, "lat": 38.93483466666667, "name": "d86fe8da9eb7666ff410d1478edf637b", "fusion_lon": 0.0, "bike_id": "d86fe8da9eb7666ff410d1478edf637b", "is_disabled": 0, "is_reserved": 0}, {"rental_uris": {"ios": "https://dc.lft.to/lastmile_qr_scan", "android": "https://dc.lft.to/lastmile_qr_scan"}, "lon": -77.04291816666667, "type": "electric_scooter", "fusion_lat": 0.0, "lat": 38.922680166666666, "name": "79c180193ea9f55b2542cf01f3456ca3", "fusion_lon": 0.0, "bike_id": "79c180193ea9f55b2542cf01f3456ca3", "is_disabled": 0, "is_reserved": 0}, {"rental_uris": {"ios": "https://dc.lft.to/lastmile_qr_scan", "android": "https://dc.lft.to/lastmile_qr_scan"}, "lon": -77.049904, "type": "electric_scooter", "fusion_lat": 0.0, "lat": 38.901169333333335, "name": "b826482016d1a8a8177c8939810c78cc", "fusion_lon": 0.0, "bike_id": "b826482016d1a8a8177c8939810c78cc", "is_disabled": 0, "is_reserved": 0}, {"rental_uris": {"ios": "https://dc.lft.to/lastmile_qr_scan", "android": "https://dc.lft.to/lastmile_qr_scan"}, "lon": -77.0010145, "type": "electric_scooter", "fusion_lat": 0.0, "lat": 38.9076995, "name": "35194849469f9551510aa3140fcdab59", "fusion_lon": 0.0, "bike_id": "35194849469f9551510aa3140fcdab59", "is_disabled": 0, "is_reserved": 0}, {"rental_uris": {"ios": "https://dc.lft.to/lastmile_qr_scan", "android": "https://dc.lft.to/lastmile_qr_scan"}, "lon": -76.99002266666666, "type": "electric_scooter", "fusion_lat": 0.0, "lat": 38.865073333333335, "name": "41712195f3389ce9ce7ab67d4cb59d92", "fusion_lon": 0.0, "bike_id": "41712195f3389ce9ce7ab67d4cb59d92", "is_disabled": 0, "is_reserved": 0}, {"rental_uris": {"ios": "https://dc.lft.to/lastmile_qr_scan", "android": "https://dc.lft.to/lastmile_qr_scan"}, "lon": -77.04034866666667, "type": "electric_scooter", "fusion_lat": 0.0, "lat": 38.9233785, "name": "4c61483d7715d211b050e48f81d5e8f1", "fusion_lon": 0.0, "bike_id": "4c61483d7715d211b050e48f81d5e8f1", "is_disabled": 0, "is_reserved": 0}, {"rental_uris": {"ios": "https://dc.lft.to/lastmile_qr_scan", "android": "https://dc.lft.to/lastmile_qr_scan"}, "lon": -77.00256316666666, "type": "electric_scooter", "fusion_lat": 0.0, "lat": 38.901275166666665, "name": "2b4ab5d574148da50bd2fb42a435bd6f", "fusion_lon": 0.0, "bike_id": "2b4ab5d574148da50bd2fb42a435bd6f", "is_disabled": 0, "is_reserved": 0}, {"rental_uris": {"ios": "https://dc.lft.to/lastmile_qr_scan", "android": "https://dc.lft.to/lastmile_qr_scan"}, "lon": -77.0111665, "type": "electric_scooter", "fusion_lat": 0.0, "lat": 38.9036165, "name": "b9492ab50296e823a524ea3b3a5c916a", "fusion_lon": 0.0, "bike_id": "b9492ab50296e823a524ea3b3a5c916a", "is_disabled": 0, "is_reserved": 0}, {"rental_uris": {"ios": "https://dc.lft.to/lastmile_qr_scan", "android": "https://dc.lft.to/lastmile_qr_scan"}, "lon": -77.01514616666667, "type": "electric_scooter", "fusion_lat": 0.0, "lat": 38.916096333333336, "name": "80dc2eef1722f33c7e907ac2dbe1176a", "fusion_lon": 0.0, "bike_id": "80dc2eef1722f33c7e907ac2dbe1176a", "is_disabled": 0, "is_reserved": 0}, {"rental_uris": {"ios": "https://dc.lft.to/lastmile_qr_scan", "android": "https://dc.lft.to/lastmile_qr_scan"}, "lon": -77.0281495, "type": "electric_scooter", "fusion_lat": 0.0, "lat": 38.899205, "name": "f8c73a2305e969d5b007e5dfcb1a584d", "fusion_lon": 0.0, "bike_id": "f8c73a2305e969d5b007e5dfcb1a584d", "is_disabled": 0, "is_reserved": 0}, {"rental_uris": {"ios": "https://dc.lft.to/lastmile_qr_scan", "android": "https://dc.lft.to/lastmile_qr_scan"}, "lon": -77.02705616666667, "type": "electric_scooter", "fusion_lat": 0.0, "lat": 38.91176816666667, "name": "45851d4772bae1e7cea948605bf77ef7", "fusion_lon": 0.0, "bike_id": "45851d4772bae1e7cea948605bf77ef7", "is_disabled": 0, "is_reserved": 0}, {"rental_uris": {"ios": "https://dc.lft.to/lastmile_qr_scan", "android": "https://dc.lft.to/lastmile_qr_scan"}, "lon": -76.9652595, "type": "electric_scooter", "fusion_lat": 0.0, "lat": 38.8762835, "name": "2ec3b2bde9a251ab0297f1edc3e982ab", "fusion_lon": 0.0, "bike_id": "2ec3b2bde9a251ab0297f1edc3e982ab", "is_disabled": 0, "is_reserved": 0}, {"rental_uris": {"ios": "https://dc.lft.to/lastmile_qr_scan", "android": "https://dc.lft.to/lastmile_qr_scan"}, "lon": -77.04016083333333, "type": "electric_scooter", "fusion_lat": 0.0, "lat": 38.921834833333335, "name": "fe6af27aab3f1b88fa55f54989f31bf3", "fusion_lon": 0.0, "bike_id": "fe6af27aab3f1b88fa55f54989f31bf3", "is_disabled": 0, "is_reserved": 0}, {"rental_uris": {"ios": "https://dc.lft.to/lastmile_qr_scan", "android": "https://dc.lft.to/lastmile_qr_scan"}, "lon": -77.04187866666666, "type": "electric_scooter", "fusion_lat": 0.0, "lat": 38.91262583333334, "name": "a2861d85f34f97d177bb4522c3f17f7f", "fusion_lon": 0.0, "bike_id": "a2861d85f34f97d177bb4522c3f17f7f", "is_disabled": 0, "is_reserved": 0}, {"rental_uris": {"ios": "https://dc.lft.to/lastmile_qr_scan", "android": "https://dc.lft.to/lastmile_qr_scan"}, "lon": -77.0330235, "type": "electric_scooter", "fusion_lat": 0.0, "lat": 38.91118916666667, "name": "11207c54c4c5aabfa854f21bd58646de", "fusion_lon": 0.0, "bike_id": "11207c54c4c5aabfa854f21bd58646de", "is_disabled": 0, "is_reserved": 0}, {"rental_uris": {"ios": "https://dc.lft.to/lastmile_qr_scan", "android": "https://dc.lft.to/lastmile_qr_scan"}, "lon": -77.01607533333333, "type": "electric_scooter", "fusion_lat": 0.0, "lat": 38.8998, "name": "d537482d6b48b0bf00d976011daf7de3", "fusion_lon": 0.0, "bike_id": "d537482d6b48b0bf00d976011daf7de3", "is_disabled": 0, "is_reserved": 0}, {"rental_uris": {"ios": "https://dc.lft.to/lastmile_qr_scan", "android": "https://dc.lft.to/lastmile_qr_scan"}, "lon": -77.03129866666667, "type": "electric_scooter", "fusion_lat": 0.0, "lat": 38.92367516666667, "name": "ab1adeb79e89e1f1504708174a35be4a", "fusion_lon": 0.0, "bike_id": "ab1adeb79e89e1f1504708174a35be4a", "is_disabled": 0, "is_reserved": 0}, {"rental_uris": {"ios": "https://dc.lft.to/lastmile_qr_scan", "android": "https://dc.lft.to/lastmile_qr_scan"}, "lon": -76.938316, "type": "electric_scooter", "fusion_lat": 0.0, "lat": 38.8976465, "name": "22cf0441f84d0fbd7359b9aea91a313a", "fusion_lon": 0.0, "bike_id": "22cf0441f84d0fbd7359b9aea91a313a", "is_disabled": 0, "is_reserved": 0}, {"rental_uris": {"ios": "https://dc.lft.to/lastmile_qr_scan", "android": "https://dc.lft.to/lastmile_qr_scan"}, "lon": -77.05002483333334, "type": "electric_scooter", "fusion_lat": 0.0, "lat": 38.89226133333333, "name": "09e7f65b29b7e375fa13421c644e6045", "fusion_lon": 0.0, "bike_id": "09e7f65b29b7e375fa13421c644e6045", "is_disabled": 0, "is_reserved": 0}, {"rental_uris": {"ios": "https://dc.lft.to/lastmile_qr_scan", "android": "https://dc.lft.to/lastmile_qr_scan"}, "lon": -77.03425416666667, "type": "electric_scooter", "fusion_lat": 0.0, "lat": 38.91913733333333, "name": "cc7fe1fef493396292c5d4f3fecbf487", "fusion_lon": 0.0, "bike_id": "cc7fe1fef493396292c5d4f3fecbf487", "is_disabled": 0, "is_reserved": 0}, {"rental_uris": {"ios": "https://dc.lft.to/lastmile_qr_scan", "android": "https://dc.lft.to/lastmile_qr_scan"}, "lon": -77.0353185, "type": "electric_scooter", "fusion_lat": 0.0, "lat": 38.924195833333336, "name": "67262f8d917bbb77a47257afd1842208", "fusion_lon": 0.0, "bike_id": "67262f8d917bbb77a47257afd1842208", "is_disabled": 0, "is_reserved": 0}, {"rental_uris": {"ios": "https://dc.lft.to/lastmile_qr_scan", "android": "https://dc.lft.to/lastmile_qr_scan"}, "lon": -77.044119, "type": "electric_scooter", "fusion_lat": 0.0, "lat": 38.92139066666667, "name": "838903070a3e56b06273ed07431adea2", "fusion_lon": 0.0, "bike_id": "838903070a3e56b06273ed07431adea2", "is_disabled": 0, "is_reserved": 0}, {"rental_uris": {"ios": "https://dc.lft.to/lastmile_qr_scan", "android": "https://dc.lft.to/lastmile_qr_scan"}, "lon": -77.027225, "type": "electric_scooter", "fusion_lat": 0.0, "lat": 38.892256833333334, "name": "3ba15b0556c82e1df2c4805511d678a2", "fusion_lon": 0.0, "bike_id": "3ba15b0556c82e1df2c4805511d678a2", "is_disabled": 0, "is_reserved": 0}, {"rental_uris": {"ios": "https://dc.lft.to/lastmile_qr_scan", "android": "https://dc.lft.to/lastmile_qr_scan"}, "lon": -76.99486466666667, "type": "electric_scooter", "fusion_lat": 0.0, "lat": 38.932017, "name": "144de53c94b691dc042d851ea206addd", "fusion_lon": 0.0, "bike_id": "144de53c94b691dc042d851ea206addd", "is_disabled": 0, "is_reserved": 0}, {"rental_uris": {"ios": "https://dc.lft.to/lastmile_qr_scan", "android": "https://dc.lft.to/lastmile_qr_scan"}, "lon": -77.022152, "type": "electric_scooter", "fusion_lat": 0.0, "lat": 38.90575183333333, "name": "3e21018d7f5832fb27db02703fafe291", "fusion_lon": 0.0, "bike_id": "3e21018d7f5832fb27db02703fafe291", "is_disabled": 0, "is_reserved": 0}, {"rental_uris": {"ios": "https://dc.lft.to/lastmile_qr_scan", "android": "https://dc.lft.to/lastmile_qr_scan"}, "lon": -77.00114366666666, "type": "electric_scooter", "fusion_lat": 0.0, "lat": 38.8943525, "name": "d26b44772f2fbddbf1355570b6e38bf1", "fusion_lon": 0.0, "bike_id": "d26b44772f2fbddbf1355570b6e38bf1", "is_disabled": 0, "is_reserved": 0}, {"rental_uris": {"ios": "https://dc.lft.to/lastmile_qr_scan", "android": "https://dc.lft.to/lastmile_qr_scan"}, "lon": -77.02415416666666, "type": "electric_scooter", "fusion_lat": 0.0, "lat": 38.91700483333334, "name": "ca104bec09fd537e1ef7ce702b3dbe61", "fusion_lon": 0.0, "bike_id": "ca104bec09fd537e1ef7ce702b3dbe61", "is_disabled": 0, "is_reserved": 0}, {"rental_uris": {"ios": "https://dc.lft.to/lastmile_qr_scan", "android": "https://dc.lft.to/lastmile_qr_scan"}, "lon": -77.02517433333334, "type": "electric_scooter", "fusion_lat": 0.0, "lat": 38.930988666666664, "name": "d99ab6e90c44acb3330f1e58ef00f21b", "fusion_lon": 0.0, "bike_id": "d99ab6e90c44acb3330f1e58ef00f21b", "is_disabled": 0, "is_reserved": 0}, {"rental_uris": {"ios": "https://dc.lft.to/lastmile_qr_scan", "android": "https://dc.lft.to/lastmile_qr_scan"}, "lon": -77.00200666666667, "type": "electric_scooter", "fusion_lat": 0.0, "lat": 38.822513666666666, "name": "aceed2e6fd9a869bb8561b75bcb84cb3", "fusion_lon": 0.0, "bike_id": "aceed2e6fd9a869bb8561b75bcb84cb3", "is_disabled": 0, "is_reserved": 0}, {"rental_uris": {"ios": "https://dc.lft.to/lastmile_qr_scan", "android": "https://dc.lft.to/lastmile_qr_scan"}, "lon": -77.05686483333334, "type": "electric_scooter", "fusion_lat": 0.0, "lat": 38.92332016666667, "name": "7e6c512d4bf7c6bf8453af9cec5af715", "fusion_lon": 0.0, "bike_id": "7e6c512d4bf7c6bf8453af9cec5af715", "is_disabled": 0, "is_reserved": 0}, {"rental_uris": {"ios": "https://dc.lft.to/lastmile_qr_scan", "android": "https://dc.lft.to/lastmile_qr_scan"}, "lon": -77.031793, "type": "electric_scooter", "fusion_lat": 0.0, "lat": 38.91930766666667, "name": "510cb46c1beccd10b491d8b32c57e193", "fusion_lon": 0.0, "bike_id": "510cb46c1beccd10b491d8b32c57e193", "is_disabled": 0, "is_reserved": 0}, {"rental_uris": {"ios": "https://dc.lft.to/lastmile_qr_scan", "android": "https://dc.lft.to/lastmile_qr_scan"}, "lon": -77.03909633333333, "type": "electric_scooter", "fusion_lat": 0.0, "lat": 38.91419616666667, "name": "3dc0d579fbc4ee05df602e973d2b9297", "fusion_lon": 0.0, "bike_id": "3dc0d579fbc4ee05df602e973d2b9297", "is_disabled": 0, "is_reserved": 0}, {"rental_uris": {"ios": "https://dc.lft.to/lastmile_qr_scan", "android": "https://dc.lft.to/lastmile_qr_scan"}, "lon": -77.037591, "type": "electric_scooter", "fusion_lat": 0.0, "lat": 38.929187166666665, "name": "3f4f63d91810c0526116935133493535", "fusion_lon": 0.0, "bike_id": "3f4f63d91810c0526116935133493535", "is_disabled": 0, "is_reserved": 0}, {"rental_uris": {"ios": "https://dc.lft.to/lastmile_qr_scan", "android": "https://dc.lft.to/lastmile_qr_scan"}, "lon": -77.03637983333333, "type": "electric_scooter", "fusion_lat": 0.0, "lat": 38.9248355, "name": "aeb560909aa357ceda87909ac3a7a587", "fusion_lon": 0.0, "bike_id": "aeb560909aa357ceda87909ac3a7a587", "is_disabled": 0, "is_reserved": 0}, {"rental_uris": {"ios": "https://dc.lft.to/lastmile_qr_scan", "android": "https://dc.lft.to/lastmile_qr_scan"}, "lon": -77.01149216666667, "type": "electric_scooter", "fusion_lat": 0.0, "lat": 38.95677716666667, "name": "ced639a25d6bb4c9e4aed18712843e2a", "fusion_lon": 0.0, "bike_id": "ced639a25d6bb4c9e4aed18712843e2a", "is_disabled": 0, "is_reserved": 0}, {"rental_uris": {"ios": "https://dc.lft.to/lastmile_qr_scan", "android": "https://dc.lft.to/lastmile_qr_scan"}, "lon": -77.04152533333334, "type": "electric_scooter", "fusion_lat": 0.0, "lat": 38.91809583333333, "name": "f7211119b0ad09b8fff88ae447baa905", "fusion_lon": 0.0, "bike_id": "f7211119b0ad09b8fff88ae447baa905", "is_disabled": 0, "is_reserved": 0}, {"rental_uris": {"ios": "https://dc.lft.to/lastmile_qr_scan", "android": "https://dc.lft.to/lastmile_qr_scan"}, "lon": -77.03149316666666, "type": "electric_scooter", "fusion_lat": 0.0, "lat": 38.912703, "name": "d672520020280c3d2a92d7ae720e7c51", "fusion_lon": 0.0, "bike_id": "d672520020280c3d2a92d7ae720e7c51", "is_disabled": 0, "is_reserved": 0}, {"rental_uris": {"ios": "https://dc.lft.to/lastmile_qr_scan", "android": "https://dc.lft.to/lastmile_qr_scan"}, "lon": -76.98004766666666, "type": "electric_bike", "fusion_lat": 0.0, "lat": 38.90249033333333, "name": "b945fe524ee18db762b768e9b270d075", "fusion_lon": 0.0, "bike_id": "b945fe524ee18db762b768e9b270d075", "is_disabled": 0, "is_reserved": 0}, {"rental_uris": {"ios": "https://dc.lft.to/lastmile_qr_scan", "android": "https://dc.lft.to/lastmile_qr_scan"}, "lon": -77.02779916666667, "type": "electric_scooter", "fusion_lat": 0.0, "lat": 38.926848666666665, "name": "7facd642fafa29fc8722f338f20c1227", "fusion_lon": 0.0, "bike_id": "7facd642fafa29fc8722f338f20c1227", "is_disabled": 0, "is_reserved": 0}, {"rental_uris": {"ios": "https://dc.lft.to/lastmile_qr_scan", "android": "https://dc.lft.to/lastmile_qr_scan"}, "lon": -76.94757116666666, "type": "electric_scooter", "fusion_lat": 0.0, "lat": 38.900546, "name": "02de628f401b17c94a6f13445feb9683", "fusion_lon": 0.0, "bike_id": "02de628f401b17c94a6f13445feb9683", "is_disabled": 0, "is_reserved": 0}, {"rental_uris": {"ios": "https://dc.lft.to/lastmile_qr_scan", "android": "https://dc.lft.to/lastmile_qr_scan"}, "lon": -77.03306283333333, "type": "electric_scooter", "fusion_lat": 0.0, "lat": 38.926471666666664, "name": "a56eda445105eeb9417960d3d3d5a64f", "fusion_lon": 0.0, "bike_id": "a56eda445105eeb9417960d3d3d5a64f", "is_disabled": 0, "is_reserved": 0}, {"rental_uris": {"ios": "https://dc.lft.to/lastmile_qr_scan", "android": "https://dc.lft.to/lastmile_qr_scan"}, "lon": -77.02133083333334, "type": "electric_scooter", "fusion_lat": 0.0, "lat": 38.937621666666665, "name": "43ef197aec22352517ae35d87e9bd2cf", "fusion_lon": 0.0, "bike_id": "43ef197aec22352517ae35d87e9bd2cf", "is_disabled": 0, "is_reserved": 0}, {"rental_uris": {"ios": "https://dc.lft.to/lastmile_qr_scan", "android": "https://dc.lft.to/lastmile_qr_scan"}, "lon": -76.97678933333333, "type": "electric_scooter", "fusion_lat": 0.0, "lat": 38.89877933333333, "name": "c8a5fe5e271088f7f50f9c1b2b379c78", "fusion_lon": 0.0, "bike_id": "c8a5fe5e271088f7f50f9c1b2b379c78", "is_disabled": 0, "is_reserved": 0}, {"rental_uris": {"ios": "https://dc.lft.to/lastmile_qr_scan", "android": "https://dc.lft.to/lastmile_qr_scan"}, "lon": -77.0451605, "type": "electric_scooter", "fusion_lat": 0.0, "lat": 38.9076925, "name": "9aa45345dab829ac775356c79661e588", "fusion_lon": 0.0, "bike_id": "9aa45345dab829ac775356c79661e588", "is_disabled": 0, "is_reserved": 0}, {"rental_uris": {"ios": "https://dc.lft.to/lastmile_qr_scan", "android": "https://dc.lft.to/lastmile_qr_scan"}, "lon": -76.99633166666666, "type": "electric_scooter", "fusion_lat": 0.0, "lat": 38.84619083333333, "name": "5d6b4f383d0a6d012c720c8b366f45d0", "fusion_lon": 0.0, "bike_id": "5d6b4f383d0a6d012c720c8b366f45d0", "is_disabled": 0, "is_reserved": 0}, {"rental_uris": {"ios": "https://dc.lft.to/lastmile_qr_scan", "android": "https://dc.lft.to/lastmile_qr_scan"}, "lon": -77.02382233333333, "type": "electric_scooter", "fusion_lat": 0.0, "lat": 38.952405166666665, "name": "c2fb5506120d01f706c2dd67031a090a", "fusion_lon": 0.0, "bike_id": "c2fb5506120d01f706c2dd67031a090a", "is_disabled": 0, "is_reserved": 0}, {"rental_uris": {"ios": "https://dc.lft.to/lastmile_qr_scan", "android": "https://dc.lft.to/lastmile_qr_scan"}, "lon": -76.99012416666666, "type": "electric_scooter", "fusion_lat": 0.0, "lat": 38.8610175, "name": "0d781c6d5aa00f1ada53a218ede56d50", "fusion_lon": 0.0, "bike_id": "0d781c6d5aa00f1ada53a218ede56d50", "is_disabled": 0, "is_reserved": 0}, {"rental_uris": {"ios": "https://dc.lft.to/lastmile_qr_scan", "android": "https://dc.lft.to/lastmile_qr_scan"}, "lon": -76.99755516666667, "type": "electric_scooter", "fusion_lat": 0.0, "lat": 38.9002455, "name": "696f692ab52141ed8ae6a296c6406c07", "fusion_lon": 0.0, "bike_id": "696f692ab52141ed8ae6a296c6406c07", "is_disabled": 0, "is_reserved": 0}, {"rental_uris": {"ios": "https://dc.lft.to/lastmile_qr_scan", "android": "https://dc.lft.to/lastmile_qr_scan"}, "lon": -77.03084333333334, "type": "electric_scooter", "fusion_lat": 0.0, "lat": 38.905609, "name": "cb669c2d55e2b5e3a31dba950c6d3333", "fusion_lon": 0.0, "bike_id": "cb669c2d55e2b5e3a31dba950c6d3333", "is_disabled": 0, "is_reserved": 0}, {"rental_uris": {"ios": "https://dc.lft.to/lastmile_qr_scan", "android": "https://dc.lft.to/lastmile_qr_scan"}, "lon": -77.17841533333333, "type": "electric_bike", "fusion_lat": 0.0, "lat": 39.089019666666665, "name": "4e658bc8d915e6810ecf423aa41c3449", "fusion_lon": 0.0, "bike_id": "4e658bc8d915e6810ecf423aa41c3449", "is_disabled": 0, "is_reserved": 0}, {"rental_uris": {"ios": "https://dc.lft.to/lastmile_qr_scan", "android": "https://dc.lft.to/lastmile_qr_scan"}, "lon": -77.085397, "type": "electric_bike", "fusion_lat": 0.0, "lat": 38.856189, "name": "366863c10ec0b858bfe06680fa18730d", "fusion_lon": 0.0, "bike_id": "366863c10ec0b858bfe06680fa18730d", "is_disabled": 0, "is_reserved": 0}, {"rental_uris": {"ios": "https://dc.lft.to/lastmile_qr_scan", "android": "https://dc.lft.to/lastmile_qr_scan"}, "lon": -77.03337433333333, "type": "electric_scooter", "fusion_lat": 0.0, "lat": 38.885100333333334, "name": "6e0e465c5f03a84b73e2d6ea2948c797", "fusion_lon": 0.0, "bike_id": "6e0e465c5f03a84b73e2d6ea2948c797", "is_disabled": 0, "is_reserved": 0}, {"rental_uris": {"ios": "https://dc.lft.to/lastmile_qr_scan", "android": "https://dc.lft.to/lastmile_qr_scan"}, "lon": -77.020975, "type": "electric_scooter", "fusion_lat": 0.0, "lat": 38.9311635, "name": "b42eae41d6c6902cea13588b4e354fe6", "fusion_lon": 0.0, "bike_id": "b42eae41d6c6902cea13588b4e354fe6", "is_disabled": 0, "is_reserved": 0}, {"rental_uris": {"ios": "https://dc.lft.to/lastmile_qr_scan", "android": "https://dc.lft.to/lastmile_qr_scan"}, "lon": -77.038261, "type": "electric_scooter", "fusion_lat": 0.0, "lat": 38.91108533333333, "name": "95a0a8c51cf6286d8115099d737735fc", "fusion_lon": 0.0, "bike_id": "95a0a8c51cf6286d8115099d737735fc", "is_disabled": 0, "is_reserved": 0}, {"rental_uris": {"ios": "https://dc.lft.to/lastmile_qr_scan", "android": "https://dc.lft.to/lastmile_qr_scan"}, "lon": -77.02977933333334, "type": "electric_scooter", "fusion_lat": 0.0, "lat": 38.962305666666666, "name": "6c2e4eebc4a5073418e4f2640ec7e6c2", "fusion_lon": 0.0, "bike_id": "6c2e4eebc4a5073418e4f2640ec7e6c2", "is_disabled": 0, "is_reserved": 0}, {"rental_uris": {"ios": "https://dc.lft.to/lastmile_qr_scan", "android": "https://dc.lft.to/lastmile_qr_scan"}, "lon": -77.04102616666667, "type": "electric_scooter", "fusion_lat": 0.0, "lat": 38.9185365, "name": "42e5832d89a9a7348cef24747f66b2b9", "fusion_lon": 0.0, "bike_id": "42e5832d89a9a7348cef24747f66b2b9", "is_disabled": 0, "is_reserved": 0}, {"rental_uris": {"ios": "https://dc.lft.to/lastmile_qr_scan", "android": "https://dc.lft.to/lastmile_qr_scan"}, "lon": -77.02628016666667, "type": "electric_bike", "fusion_lat": 0.0, "lat": 38.9622735, "name": "f19f32f9a92f0a8a294dd624c7d5c1f2", "fusion_lon": 0.0, "bike_id": "f19f32f9a92f0a8a294dd624c7d5c1f2", "is_disabled": 0, "is_reserved": 0}, {"rental_uris": {"ios": "https://dc.lft.to/lastmile_qr_scan", "android": "https://dc.lft.to/lastmile_qr_scan"}, "lon": -77.04423216666666, "type": "electric_scooter", "fusion_lat": 0.0, "lat": 38.892207166666665, "name": "7f2cdea86a9f598feb35cfd4bfbbf93f", "fusion_lon": 0.0, "bike_id": "7f2cdea86a9f598feb35cfd4bfbbf93f", "is_disabled": 0, "is_reserved": 0}, {"rental_uris": {"ios": "https://dc.lft.to/lastmile_qr_scan", "android": "https://dc.lft.to/lastmile_qr_scan"}, "lon": -77.03466716666667, "type": "electric_scooter", "fusion_lat": 0.0, "lat": 38.934475166666665, "name": "c50b96ca6a27a4bed53d79ac94268cc9", "fusion_lon": 0.0, "bike_id": "c50b96ca6a27a4bed53d79ac94268cc9", "is_disabled": 0, "is_reserved": 0}, {"rental_uris": {"ios": "https://dc.lft.to/lastmile_qr_scan", "android": "https://dc.lft.to/lastmile_qr_scan"}, "lon": -77.00726633333333, "type": "electric_scooter", "fusion_lat": 0.0, "lat": 38.88492516666667, "name": "e2bfb862a14a0831dee47d201217a2da", "fusion_lon": 0.0, "bike_id": "e2bfb862a14a0831dee47d201217a2da", "is_disabled": 0, "is_reserved": 0}, {"rental_uris": {"ios": "https://dc.lft.to/lastmile_qr_scan", "android": "https://dc.lft.to/lastmile_qr_scan"}, "lon": -77.01628383333333, "type": "electric_scooter", "fusion_lat": 0.0, "lat": 38.8722885, "name": "7a4c4f92a37c738b0eb459d96b6f8a03", "fusion_lon": 0.0, "bike_id": "7a4c4f92a37c738b0eb459d96b6f8a03", "is_disabled": 0, "is_reserved": 0}, {"rental_uris": {"ios": "https://dc.lft.to/lastmile_qr_scan", "android": "https://dc.lft.to/lastmile_qr_scan"}, "lon": -77.0478555, "type": "electric_scooter", "fusion_lat": 0.0, "lat": 38.89223616666666, "name": "6070adabbde2581145f20f2bbe609329", "fusion_lon": 0.0, "bike_id": "6070adabbde2581145f20f2bbe609329", "is_disabled": 0, "is_reserved": 0}, {"rental_uris": {"ios": "https://dc.lft.to/lastmile_qr_scan", "android": "https://dc.lft.to/lastmile_qr_scan"}, "lon": -77.00214466666667, "type": "electric_scooter", "fusion_lat": 0.0, "lat": 38.90033716666667, "name": "cedbfe7eefd0bd75a400c340476e90a8", "fusion_lon": 0.0, "bike_id": "cedbfe7eefd0bd75a400c340476e90a8", "is_disabled": 0, "is_reserved": 0}, {"rental_uris": {"ios": "https://dc.lft.to/lastmile_qr_scan", "android": "https://dc.lft.to/lastmile_qr_scan"}, "lon": -77.02443416666667, "type": "electric_scooter", "fusion_lat": 0.0, "lat": 38.919028833333336, "name": "c3a2f12d189bafa0a12e395cbc0bf457", "fusion_lon": 0.0, "bike_id": "c3a2f12d189bafa0a12e395cbc0bf457", "is_disabled": 0, "is_reserved": 0}, {"rental_uris": {"ios": "https://dc.lft.to/lastmile_qr_scan", "android": "https://dc.lft.to/lastmile_qr_scan"}, "lon": -77.02199316666666, "type": "electric_scooter", "fusion_lat": 0.0, "lat": 38.9153565, "name": "cb514325c39dd8860208c33cb9d71f74", "fusion_lon": 0.0, "bike_id": "cb514325c39dd8860208c33cb9d71f74", "is_disabled": 0, "is_reserved": 0}, {"rental_uris": {"ios": "https://dc.lft.to/lastmile_qr_scan", "android": "https://dc.lft.to/lastmile_qr_scan"}, "lon": -77.015103, "type": "electric_scooter", "fusion_lat": 0.0, "lat": 38.9105405, "name": "17096db4803ca56d8b86e11ae31985a7", "fusion_lon": 0.0, "bike_id": "17096db4803ca56d8b86e11ae31985a7", "is_disabled": 0, "is_reserved": 0}, {"rental_uris": {"ios": "https://dc.lft.to/lastmile_qr_scan", "android": "https://dc.lft.to/lastmile_qr_scan"}, "lon": -77.088256, "type": "electric_bike", "fusion_lat": 0.0, "lat": 38.90973016666667, "name": "63c039bed10b03e4a177cba7a9c181e0", "fusion_lon": 0.0, "bike_id": "63c039bed10b03e4a177cba7a9c181e0", "is_disabled": 0, "is_reserved": 0}, {"rental_uris": {"ios": "https://dc.lft.to/lastmile_qr_scan", "android": "https://dc.lft.to/lastmile_qr_scan"}, "lon": -77.04054316666667, "type": "electric_scooter", "fusion_lat": 0.0, "lat": 38.92712383333333, "name": "de7dcc1a4b30cb2b1ce0496ea73930f9", "fusion_lon": 0.0, "bike_id": "de7dcc1a4b30cb2b1ce0496ea73930f9", "is_disabled": 0, "is_reserved": 0}, {"rental_uris": {"ios": "https://dc.lft.to/lastmile_qr_scan", "android": "https://dc.lft.to/lastmile_qr_scan"}, "lon": -77.01206233333333, "type": "electric_scooter", "fusion_lat": 0.0, "lat": 38.91980083333333, "name": "cbbb65ede3f5255b398567167a126a9e", "fusion_lon": 0.0, "bike_id": "cbbb65ede3f5255b398567167a126a9e", "is_disabled": 0, "is_reserved": 0}, {"rental_uris": {"ios": "https://dc.lft.to/lastmile_qr_scan", "android": "https://dc.lft.to/lastmile_qr_scan"}, "lon": -76.9872975, "type": "electric_scooter", "fusion_lat": 0.0, "lat": 38.86709533333333, "name": "22ca0193469d6de991398d5e94fe2a40", "fusion_lon": 0.0, "bike_id": "22ca0193469d6de991398d5e94fe2a40", "is_disabled": 0, "is_reserved": 0}, {"rental_uris": {"ios": "https://dc.lft.to/lastmile_qr_scan", "android": "https://dc.lft.to/lastmile_qr_scan"}, "lon": -77.08080166666667, "type": "electric_bike", "fusion_lat": 0.0, "lat": 38.90699016666667, "name": "edc523535af57b2830e6150e73e5c3b7", "fusion_lon": 0.0, "bike_id": "edc523535af57b2830e6150e73e5c3b7", "is_disabled": 0, "is_reserved": 0}, {"rental_uris": {"ios": "https://dc.lft.to/lastmile_qr_scan", "android": "https://dc.lft.to/lastmile_qr_scan"}, "lon": -77.0996635, "type": "electric_bike", "fusion_lat": 0.0, "lat": 38.85794166666667, "name": "ab6dfdf4f5d8d09dd7c0b99063dceff6", "fusion_lon": 0.0, "bike_id": "ab6dfdf4f5d8d09dd7c0b99063dceff6", "is_disabled": 0, "is_reserved": 0}, {"rental_uris": {"ios": "https://dc.lft.to/lastmile_qr_scan", "android": "https://dc.lft.to/lastmile_qr_scan"}, "lon": -77.03985666666667, "type": "electric_scooter", "fusion_lat": 0.0, "lat": 38.90132416666667, "name": "ccaf681b62f317fbd6def9afa46c2f19", "fusion_lon": 0.0, "bike_id": "ccaf681b62f317fbd6def9afa46c2f19", "is_disabled": 0, "is_reserved": 0}, {"rental_uris": {"ios": "https://dc.lft.to/lastmile_qr_scan", "android": "https://dc.lft.to/lastmile_qr_scan"}, "lon": -76.9475015, "type": "electric_scooter", "fusion_lat": 0.0, "lat": 38.89673583333333, "name": "ed06bbc8753409a7bd2752e53555c8b2", "fusion_lon": 0.0, "bike_id": "ed06bbc8753409a7bd2752e53555c8b2", "is_disabled": 0, "is_reserved": 0}, {"rental_uris": {"ios": "https://dc.lft.to/lastmile_qr_scan", "android": "https://dc.lft.to/lastmile_qr_scan"}, "lon": -77.03677533333334, "type": "electric_scooter", "fusion_lat": 0.0, "lat": 38.906892166666665, "name": "83946ec8d071c41ee4d265429ddb59ef", "fusion_lon": 0.0, "bike_id": "83946ec8d071c41ee4d265429ddb59ef", "is_disabled": 0, "is_reserved": 0}, {"rental_uris": {"ios": "https://dc.lft.to/lastmile_qr_scan", "android": "https://dc.lft.to/lastmile_qr_scan"}, "lon": -77.031855, "type": "electric_scooter", "fusion_lat": 0.0, "lat": 38.91768166666667, "name": "56b1bec130e66d8bf6155fe9bd63586a", "fusion_lon": 0.0, "bike_id": "56b1bec130e66d8bf6155fe9bd63586a", "is_disabled": 0, "is_reserved": 0}, {"rental_uris": {"ios": "https://dc.lft.to/lastmile_qr_scan", "android": "https://dc.lft.to/lastmile_qr_scan"}, "lon": -77.01700183333334, "type": "electric_scooter", "fusion_lat": 0.0, "lat": 38.920303, "name": "8128bb9a5a807a7261ec9b44e49ddb11", "fusion_lon": 0.0, "bike_id": "8128bb9a5a807a7261ec9b44e49ddb11", "is_disabled": 0, "is_reserved": 0}, {"rental_uris": {"ios": "https://dc.lft.to/lastmile_qr_scan", "android": "https://dc.lft.to/lastmile_qr_scan"}, "lon": -76.99933633333333, "type": "electric_scooter", "fusion_lat": 0.0, "lat": 38.896169, "name": "ce96673fa23505b881ff3d0ec0e5bb59", "fusion_lon": 0.0, "bike_id": "ce96673fa23505b881ff3d0ec0e5bb59", "is_disabled": 0, "is_reserved": 0}, {"rental_uris": {"ios": "https://dc.lft.to/lastmile_qr_scan", "android": "https://dc.lft.to/lastmile_qr_scan"}, "lon": -77.04542983333333, "type": "electric_scooter", "fusion_lat": 0.0, "lat": 38.9179055, "name": "f52ccdf0b3f15070677180e3eb48f70e", "fusion_lon": 0.0, "bike_id": "f52ccdf0b3f15070677180e3eb48f70e", "is_disabled": 0, "is_reserved": 0}, {"rental_uris": {"ios": "https://dc.lft.to/lastmile_qr_scan", "android": "https://dc.lft.to/lastmile_qr_scan"}, "lon": -77.01285083333333, "type": "electric_scooter", "fusion_lat": 0.0, "lat": 38.90053833333333, "name": "6ef8895443ffeaebf45427bf8b5e4d74", "fusion_lon": 0.0, "bike_id": "6ef8895443ffeaebf45427bf8b5e4d74", "is_disabled": 0, "is_reserved": 0}, {"rental_uris": {"ios": "https://dc.lft.to/lastmile_qr_scan", "android": "https://dc.lft.to/lastmile_qr_scan"}, "lon": -77.02405883333333, "type": "electric_scooter", "fusion_lat": 0.0, "lat": 38.911062333333334, "name": "2ebbc87c8d43d116b72b167b3d5e6f51", "fusion_lon": 0.0, "bike_id": "2ebbc87c8d43d116b72b167b3d5e6f51", "is_disabled": 0, "is_reserved": 0}, {"rental_uris": {"ios": "https://dc.lft.to/lastmile_qr_scan", "android": "https://dc.lft.to/lastmile_qr_scan"}, "lon": -77.045771, "type": "electric_scooter", "fusion_lat": 0.0, "lat": 38.910552833333334, "name": "ee558d07cbc49061dc903131d6e38f25", "fusion_lon": 0.0, "bike_id": "ee558d07cbc49061dc903131d6e38f25", "is_disabled": 0, "is_reserved": 0}, {"rental_uris": {"ios": "https://dc.lft.to/lastmile_qr_scan", "android": "https://dc.lft.to/lastmile_qr_scan"}, "lon": -77.028337, "type": "electric_scooter", "fusion_lat": 0.0, "lat": 38.8876715, "name": "9839333df1a1111670636c12a01a9e4a", "fusion_lon": 0.0, "bike_id": "9839333df1a1111670636c12a01a9e4a", "is_disabled": 0, "is_reserved": 0}, {"rental_uris": {"ios": "https://dc.lft.to/lastmile_qr_scan", "android": "https://dc.lft.to/lastmile_qr_scan"}, "lon": -77.03864883333334, "type": "electric_scooter", "fusion_lat": 0.0, "lat": 38.932481, "name": "064c7cf4b2e0adc1865e84ae855b618a", "fusion_lon": 0.0, "bike_id": "064c7cf4b2e0adc1865e84ae855b618a", "is_disabled": 0, "is_reserved": 0}, {"rental_uris": {"ios": "https://dc.lft.to/lastmile_qr_scan", "android": "https://dc.lft.to/lastmile_qr_scan"}, "lon": -77.03826266666667, "type": "electric_scooter", "fusion_lat": 0.0, "lat": 38.907756166666665, "name": "18d322de2f2af2fbc85f3b939713c27c", "fusion_lon": 0.0, "bike_id": "18d322de2f2af2fbc85f3b939713c27c", "is_disabled": 0, "is_reserved": 0}, {"rental_uris": {"ios": "https://dc.lft.to/lastmile_qr_scan", "android": "https://dc.lft.to/lastmile_qr_scan"}, "lon": -77.03686583333334, "type": "electric_scooter", "fusion_lat": 0.0, "lat": 38.922602, "name": "910459f4682dcd0fb6ef3092b030a95d", "fusion_lon": 0.0, "bike_id": "910459f4682dcd0fb6ef3092b030a95d", "is_disabled": 0, "is_reserved": 0}, {"rental_uris": {"ios": "https://dc.lft.to/lastmile_qr_scan", "android": "https://dc.lft.to/lastmile_qr_scan"}, "lon": -77.03893433333333, "type": "electric_scooter", "fusion_lat": 0.0, "lat": 38.92222433333333, "name": "381e43d55aa461e996e6aa430035062d", "fusion_lon": 0.0, "bike_id": "381e43d55aa461e996e6aa430035062d", "is_disabled": 0, "is_reserved": 0}, {"rental_uris": {"ios": "https://dc.lft.to/lastmile_qr_scan", "android": "https://dc.lft.to/lastmile_qr_scan"}, "lon": -77.03431266666666, "type": "electric_scooter", "fusion_lat": 0.0, "lat": 38.9191545, "name": "226e3662cca8e59abf0c15bdf87c58bc", "fusion_lon": 0.0, "bike_id": "226e3662cca8e59abf0c15bdf87c58bc", "is_disabled": 0, "is_reserved": 0}, {"rental_uris": {"ios": "https://dc.lft.to/lastmile_qr_scan", "android": "https://dc.lft.to/lastmile_qr_scan"}, "lon": -77.04014633333334, "type": "electric_bike", "fusion_lat": 0.0, "lat": 38.92375233333333, "name": "e72df2b68ccd57ac49d5dc9ddf6a979d", "fusion_lon": 0.0, "bike_id": "e72df2b68ccd57ac49d5dc9ddf6a979d", "is_disabled": 0, "is_reserved": 0}, {"rental_uris": {"ios": "https://dc.lft.to/lastmile_qr_scan", "android": "https://dc.lft.to/lastmile_qr_scan"}, "lon": -77.03708983333334, "type": "electric_scooter", "fusion_lat": 0.0, "lat": 38.926369, "name": "81eb6a401f25b8cd8181a395cd334be0", "fusion_lon": 0.0, "bike_id": "81eb6a401f25b8cd8181a395cd334be0", "is_disabled": 0, "is_reserved": 0}, {"rental_uris": {"ios": "https://dc.lft.to/lastmile_qr_scan", "android": "https://dc.lft.to/lastmile_qr_scan"}, "lon": -77.02638333333333, "type": "electric_scooter", "fusion_lat": 0.0, "lat": 38.898516, "name": "f0628b7772a1cbff1c8db30a30ea2221", "fusion_lon": 0.0, "bike_id": "f0628b7772a1cbff1c8db30a30ea2221", "is_disabled": 0, "is_reserved": 0}, {"rental_uris": {"ios": "https://dc.lft.to/lastmile_qr_scan", "android": "https://dc.lft.to/lastmile_qr_scan"}, "lon": -77.00227233333334, "type": "electric_scooter", "fusion_lat": 0.0, "lat": 38.913393666666664, "name": "90cfc2f05b3e62e933f159a47bfc9c63", "fusion_lon": 0.0, "bike_id": "90cfc2f05b3e62e933f159a47bfc9c63", "is_disabled": 0, "is_reserved": 0}, {"rental_uris": {"ios": "https://dc.lft.to/lastmile_qr_scan", "android": "https://dc.lft.to/lastmile_qr_scan"}, "lon": -77.12507033333333, "type": "electric_bike", "fusion_lat": 0.0, "lat": 39.024265666666665, "name": "71d3c708fe0511ce90e94c0ecd55c287", "fusion_lon": 0.0, "bike_id": "71d3c708fe0511ce90e94c0ecd55c287", "is_disabled": 0, "is_reserved": 0}, {"rental_uris": {"ios": "https://dc.lft.to/lastmile_qr_scan", "android": "https://dc.lft.to/lastmile_qr_scan"}, "lon": -76.99679516666667, "type": "electric_scooter", "fusion_lat": 0.0, "lat": 38.904993166666664, "name": "718ad8d1de7603898d749e3a9a01df57", "fusion_lon": 0.0, "bike_id": "718ad8d1de7603898d749e3a9a01df57", "is_disabled": 0, "is_reserved": 0}, {"rental_uris": {"ios": "https://dc.lft.to/lastmile_qr_scan", "android": "https://dc.lft.to/lastmile_qr_scan"}, "lon": -77.02711483333333, "type": "electric_scooter", "fusion_lat": 0.0, "lat": 38.90669233333333, "name": "7bd9769a5cdbaadbe5656cc118f733cc", "fusion_lon": 0.0, "bike_id": "7bd9769a5cdbaadbe5656cc118f733cc", "is_disabled": 0, "is_reserved": 0}, {"rental_uris": {"ios": "https://dc.lft.to/lastmile_qr_scan", "android": "https://dc.lft.to/lastmile_qr_scan"}, "lon": -77.0465475, "type": "electric_scooter", "fusion_lat": 0.0, "lat": 38.8934485, "name": "3792819118f0a6a77df65201134666b5", "fusion_lon": 0.0, "bike_id": "3792819118f0a6a77df65201134666b5", "is_disabled": 0, "is_reserved": 0}, {"rental_uris": {"ios": "https://dc.lft.to/lastmile_qr_scan", "android": "https://dc.lft.to/lastmile_qr_scan"}, "lon": -77.10682066666666, "type": "electric_bike", "fusion_lat": 0.0, "lat": 38.935796333333336, "name": "70cd438b458f34d6798ffee802ffe00a", "fusion_lon": 0.0, "bike_id": "70cd438b458f34d6798ffee802ffe00a", "is_disabled": 0, "is_reserved": 0}, {"rental_uris": {"ios": "https://dc.lft.to/lastmile_qr_scan", "android": "https://dc.lft.to/lastmile_qr_scan"}, "lon": -77.0490045, "type": "electric_scooter", "fusion_lat": 0.0, "lat": 38.905432833333336, "name": "fa7a4b39bdc592a5c4a58c8d4acf9472", "fusion_lon": 0.0, "bike_id": "fa7a4b39bdc592a5c4a58c8d4acf9472", "is_disabled": 0, "is_reserved": 0}, {"rental_uris": {"ios": "https://dc.lft.to/lastmile_qr_scan", "android": "https://dc.lft.to/lastmile_qr_scan"}, "lon": -77.02218333333333, "type": "electric_scooter", "fusion_lat": 0.0, "lat": 38.90573466666667, "name": "8c074215fffada4ced42b94e7975ca62", "fusion_lon": 0.0, "bike_id": "8c074215fffada4ced42b94e7975ca62", "is_disabled": 0, "is_reserved": 0}, {"rental_uris": {"ios": "https://dc.lft.to/lastmile_qr_scan", "android": "https://dc.lft.to/lastmile_qr_scan"}, "lon": -77.0020385, "type": "electric_scooter", "fusion_lat": 0.0, "lat": 38.90034966666666, "name": "18501ad25cc0cdb6c27a7797cb97b90b", "fusion_lon": 0.0, "bike_id": "18501ad25cc0cdb6c27a7797cb97b90b", "is_disabled": 0, "is_reserved": 0}, {"rental_uris": {"ios": "https://dc.lft.to/lastmile_qr_scan", "android": "https://dc.lft.to/lastmile_qr_scan"}, "lon": -77.018342, "type": "electric_bike", "fusion_lat": 0.0, "lat": 38.908637666666664, "name": "ced0c8ed77398d4f1d696f417339c3d5", "fusion_lon": 0.0, "bike_id": "ced0c8ed77398d4f1d696f417339c3d5", "is_disabled": 0, "is_reserved": 0}, {"rental_uris": {"ios": "https://dc.lft.to/lastmile_qr_scan", "android": "https://dc.lft.to/lastmile_qr_scan"}, "lon": -77.010898, "type": "electric_scooter", "fusion_lat": 0.0, "lat": 38.894903, "name": "79b2e1d81e4a4db63b207d3f02a13201", "fusion_lon": 0.0, "bike_id": "79b2e1d81e4a4db63b207d3f02a13201", "is_disabled": 0, "is_reserved": 0}, {"rental_uris": {"ios": "https://dc.lft.to/lastmile_qr_scan", "android": "https://dc.lft.to/lastmile_qr_scan"}, "lon": -77.0512445, "type": "electric_scooter", "fusion_lat": 0.0, "lat": 38.92358683333333, "name": "0b4f5f9ff888c4464d4e9a7a4e17eff8", "fusion_lon": 0.0, "bike_id": "0b4f5f9ff888c4464d4e9a7a4e17eff8", "is_disabled": 0, "is_reserved": 0}, {"rental_uris": {"ios": "https://dc.lft.to/lastmile_qr_scan", "android": "https://dc.lft.to/lastmile_qr_scan"}, "lon": -77.04259433333333, "type": "electric_scooter", "fusion_lat": 0.0, "lat": 38.90275033333333, "name": "ea705e01233141c837e9c60395ada184", "fusion_lon": 0.0, "bike_id": "ea705e01233141c837e9c60395ada184", "is_disabled": 0, "is_reserved": 0}, {"rental_uris": {"ios": "https://dc.lft.to/lastmile_qr_scan", "android": "https://dc.lft.to/lastmile_qr_scan"}, "lon": -77.03070233333334, "type": "electric_scooter", "fusion_lat": 0.0, "lat": 38.89961316666667, "name": "0254b591735376d8eb8874f46e966004", "fusion_lon": 0.0, "bike_id": "0254b591735376d8eb8874f46e966004", "is_disabled": 0, "is_reserved": 0}, {"rental_uris": {"ios": "https://dc.lft.to/lastmile_qr_scan", "android": "https://dc.lft.to/lastmile_qr_scan"}, "lon": -77.02195266666666, "type": "electric_scooter", "fusion_lat": 0.0, "lat": 38.9084675, "name": "1514b21cac961151480472ada8e493c3", "fusion_lon": 0.0, "bike_id": "1514b21cac961151480472ada8e493c3", "is_disabled": 0, "is_reserved": 0},