{"data": {"bikes": [{"bike_id": "dcd6f07d603d55077cc598cca7df74e6", "type": "electric_scooter", "fusion_lat": 0.0, "lat": 38.918078666666666, "lon": -77.02430033333333, "fusion_lon": 0.0, "name": "dcd6f07d603d55077cc598cca7df74e6", "rental_uris": {"ios": "https://dc.lft.to/lastmile_qr_scan", "android": "https://dc.lft.to/lastmile_qr_scan"}, "is_disabled": 0, "is_reserved": 0}, {"bike_id": "3424f5943b23277e52e4aa3d161d3fb6", "type": "electric_scooter", "fusion_lat": 0.0, "lat": 38.92665733333333, "lon": -77.01494516666666, "fusion_lon": 0.0, "name": "3424f5943b23277e52e4aa3d161d3fb6", "rental_uris": {"ios": "https://dc.lft.to/lastmile_qr_scan", "android": "https://dc.lft.to/lastmile_qr_scan"}, "is_disabled": 0, "is_reserved": 0}, {"bike_id": "f5ddf7d3358490d9c2afd023d80dee67", "type": "electric_bike", "fusion_lat": 0.0, "lat": 38.86594, "lon": -77.129375, "fusion_lon": 0.0, "name": "f5ddf7d3358490d9c2afd023d80dee67", "rental_uris": {"ios": "https://dc.lft.to/lastmile_qr_scan", "android": "https://dc.lft.to/lastmile_qr_scan"}, "is_disabled": 0, "is_reserved": 0}, {"bike_id": "3e37e8d1df60031145737027002a44a8", "type": "electric_scooter", "fusion_lat": 0.0, "lat": 38.89866966666666, "lon": -77.02012716666667, "fusion_lon": 0.0, "name": "3e37e8d1df60031145737027002a44a8", "rental_uris": {"ios": "https://dc.lft.to/lastmile_qr_scan", "android": "https://dc.lft.to/lastmile_qr_scan"}, "is_disabled": 0, "is_reserved": 0}, {"bike_id": "f9643563a8cf3b92d6c8cf077322fa44", "type": "electric_scooter", "fusion_lat": 0.0, "lat": 38.90348983333333, "lon": -76.9861435, "fusion_lon": 0.0, "name": "f9643563a8cf3b92d6c8cf077322fa44", "rental_uris": {"ios": "https://dc.lft.to/lastmile_qr_scan", "android": "https://dc.lft.to/lastmile_qr_scan"}, "is_disabled": 0, "is_reserved": 0}, {"bike_id": "79804ac16f611f624ad14719e972ea17", "type": "electric_scooter", "fusion_lat": 0.0, "lat": 38.888191166666665, "lon": -76.9771855, "fusion_lon": 0.0, "name": "79804ac16f611f624ad14719e972ea17", "rental_uris": {"ios": "https://dc.lft.to/lastmile_qr_scan", "android": "https://dc.lft.to/lastmile_qr_scan"}, "is_disabled": 0, "is_reserved": 0}, {"bike_id": "986be7f0f380290c509b5983d568bfb0", "type": "electric_scooter", "fusion_lat": 0.0, "lat": 38.89232883333333, "lon": -77.04997866666666, "fusion_lon": 0.0, "name": "986be7f0f380290c509b5983d568bfb0", "rental_uris": {"ios": "https://dc.lft.to/lastmile_qr_scan", "android": "https://dc.lft.to/lastmile_qr_scan"}, "is_disabled": 0, "is_reserved": 0}, {"bike_id": "625fc1b64513bc65ad16172e7c96bd16", "type": "electric_scooter", "fusion_lat": 0.0, "lat": 38.92282083333333, "lon": -77.020697, "fusion_lon": 0.0, "name": "625fc1b64513bc65ad16172e7c96bd16", "rental_uris": {"ios": "https://dc.lft.to/lastmile_qr_scan", "android": "https://dc.lft.to/lastmile_qr_scan"}, "is_disabled": 0, "is_reserved": 0}, {"bike_id": "fb204759ea9410b4feed83fabb36f9ac", "type": "electric_scooter", "fusion_lat": 0.0, "lat": 38.9198325, "lon": -77.0379125, "fusion_lon": 0.0, "name": "fb204759ea9410b4feed83fabb36f9ac", "rental_uris": {"ios": "https://dc.lft.to/lastmile_qr_scan", "android": "https://dc.lft.to/lastmile_qr_scan"}, "is_disabled": 0, "is_reserved": 0}, {"bike_id": "7832940d7614c3e442d63aca93f26bf6", "type": "electric_bike", "fusion_lat": 0.0, "lat": 38.862533166666665, "lon": -76.983491, "fusion_lon": 0.0, "name": "7832940d7614c3e442d63aca93f26bf6", "rental_uris": {"ios": "https://dc.lft.to/lastmile_qr_scan", "android": "https://dc.lft.to/lastmile_qr_scan"}, "is_disabled": 0, "is_reserved": 0}, {"bike_id": "b54c39dc2489a58bdcb0b408e9ff00f3", "type": "electric_scooter", "fusion_lat": 0.0, "lat": 38.89216416666667, "lon": -77.02412666666666, "fusion_lon": 0.0, "name": "b54c39dc2489a58bdcb0b408e9ff00f3", "rental_uris": {"ios": "https://dc.lft.to/lastmile_qr_scan", "android": "https://dc.lft.to/lastmile_qr_scan"}, "is_disabled": 0, "is_reserved": 0}, {"bike_id": "b496463331ae3768e947c8500fb42382", "type": "electric_scooter", "fusion_lat": 0.0, "lat": 38.89973783333333, "lon": -76.93974016666667, "fusion_lon": 0.0, "name": "b496463331ae3768e947c8500fb42382", "rental_uris": {"ios": "https://dc.lft.to/lastmile_qr_scan", "android": "https://dc.lft.to/lastmile_qr_scan"}, "is_disabled": 0, "is_reserved": 0}, {"bike_id": "3f555286cafdd470478683d7e1ad98af", "type": "electric_bike", "fusion_lat": 0.0, "lat": 38.9353985, "lon": -77.05825783333333, "fusion_lon": 0.0, "name": "3f555286cafdd470478683d7e1ad98af", "rental_uris": {"ios": "https://dc.lft.to/lastmile_qr_scan", "android": "https://dc.lft.to/lastmile_qr_scan"}, "is_disabled": 0, "is_reserved": 0}, {"bike_id": "39afac53e5e58fd6c8255b19cd98e007", "type": "electric_scooter", "fusion_lat": 0.0, "lat": 38.92100083333333, "lon": -77.02080466666666, "fusion_lon": 0.0, "name": "39afac53e5e58fd6c8255b19cd98e007", "rental_uris": {"ios": "https://dc.lft.to/lastmile_qr_scan", "android": "https://dc.lft.to/lastmile_qr_scan"}, "is_disabled": 0, "is_reserved": 0}, {"bike_id": "ac33919e1f6e4010d308cfa0605b0287", "type": "electric_scooter", "fusion_lat": 0.0, "lat": 38.89413783333333, "lon": -77.02446066666667, "fusion_lon": 0.0, "name": "ac33919e1f6e4010d308cfa0605b0287", "rental_uris": {"ios": "https://dc.lft.to/lastmile_qr_scan", "android": "https://dc.lft.to/lastmile_qr_scan"}, "is_disabled": 0, "is_reserved": 0}, {"bike_id": "33be064375fe4f62109fe647eb337f7a", "type": "electric_scooter", "fusion_lat": 0.0, "lat": 38.95189583333333, "lon": -77.02636583333333, "fusion_lon": 0.0, "name": "33be064375fe4f62109fe647eb337f7a", "rental_uris": {"ios": "https://dc.lft.to/lastmile_qr_scan", "android": "https://dc.lft.to/lastmile_qr_scan"}, "is_disabled": 0, "is_reserved": 0}, {"bike_id": "01d0a5ffb6a55c6bd5045d34eb9ea0f1", "type": "electric_bike", "fusion_lat": 0.0, "lat": 39.0229545, "lon": -77.02102033333334, "fusion_lon": 0.0, "name": "01d0a5ffb6a55c6bd5045d34eb9ea0f1", "rental_uris": {"ios": "https://dc.lft.to/lastmile_qr_scan", "android": "https://dc.lft.to/lastmile_qr_scan"}, "is_disabled": 0, "is_reserved": 0}, {"bike_id": "85aa9efa1431144e28fd90c722fa28cd", "type": "electric_scooter", "fusion_lat": 0.0, "lat": 38.8957015, "lon": -77.02913516666666, "fusion_lon": 0.0, "name": "85aa9efa1431144e28fd90c722fa28cd", "rental_uris": {"ios": "https://dc.lft.to/lastmile_qr_scan", "android": "https://dc.lft.to/lastmile_qr_scan"}, "is_disabled": 0, "is_reserved": 0}, {"bike_id": "ad01f964a896e3f9cf39de656df47f6d", "type": "electric_bike", "fusion_lat": 0.0, "lat": 38.94473166666667, "lon": -76.9868715, "fusion_lon": 0.0, "name": "ad01f964a896e3f9cf39de656df47f6d", "rental_uris": {"ios": "https://dc.lft.to/lastmile_qr_scan", "android": "https://dc.lft.to/lastmile_qr_scan"}, "is_disabled": 0, "is_reserved": 0}, {"bike_id": "b03e06c51ac2dc1d9d43f2786da380f7", "type": "electric_scooter", "fusion_lat": 0.0, "lat": 38.90876816666667, "lon": -77.04078433333333, "fusion_lon": 0.0, "name": "b03e06c51ac2dc1d9d43f2786da380f7", "rental_uris": {"ios": "https://dc.lft.to/lastmile_qr_scan", "android": "https://dc.lft.to/lastmile_qr_scan"}, "is_disabled": 0, "is_reserved": 0}, {"bike_id": "ba459f0f53eb1c9a15005960d18c1e38", "type": "electric_scooter", "fusion_lat": 0.0, "lat": 38.905111, "lon": -77.06873483333334, "fusion_lon": 0.0, "name": "ba459f0f53eb1c9a15005960d18c1e38", "rental_uris": {"ios": "https://dc.lft.to/lastmile_qr_scan", "android": "https://dc.lft.to/lastmile_qr_scan"}, "is_disabled": 0, "is_reserved": 0}, {"bike_id": "ba0d7a2a8114c7a9645b234b1b60ee00", "type": "electric_scooter", "fusion_lat": 0.0, "lat": 38.9224805, "lon": -77.02814933333333, "fusion_lon": 0.0, "name": "ba0d7a2a8114c7a9645b234b1b60ee00", "rental_uris": {"ios": "https://dc.lft.to/lastmile_qr_scan", "android": "https://dc.lft.to/lastmile_qr_scan"}, "is_disabled": 0, "is_reserved": 0}, {"bike_id": "e89a3f8e7019e7fed6174c275ad39f93", "type": "electric_scooter", "fusion_lat": 0.0, "lat": 38.88611083333333, "lon": -77.01794933333333, "fusion_lon": 0.0, "name": "e89a3f8e7019e7fed6174c275ad39f93", "rental_uris": {"ios": "https://dc.lft.to/lastmile_qr_scan", "android": "https://dc.lft.to/lastmile_qr_scan"}, "is_disabled": 0, "is_reserved": 0}, {"bike_id": "dcc0c3527b1f2ce15aae12d703e76908", "type": "electric_scooter", "fusion_lat": 0.0, "lat": 38.944412166666666, "lon": -77.02914466666667, "fusion_lon": 0.0, "name": "dcc0c3527b1f2ce15aae12d703e76908", "rental_uris": {"ios": "https://dc.lft.to/lastmile_qr_scan", "android": "https://dc.lft.to/lastmile_qr_scan"}, "is_disabled": 0, "is_reserved": 0}, {"bike_id": "af72a9d28bbbc901f387db38b62139f2", "type": "electric_scooter", "fusion_lat": 0.0, "lat": 38.9014, "lon": -76.996092, "fusion_lon": 0.0, "name": "af72a9d28bbbc901f387db38b62139f2", "rental_uris": {"ios": "https://dc.lft.to/lastmile_qr_scan", "android": "https://dc.lft.to/lastmile_qr_scan"}, "is_disabled": 0, "is_reserved": 0}, {"bike_id": "12e9d62c87c68ace0893ea89a27a1bf8", "type": "electric_scooter", "fusion_lat": 0.0, "lat": 38.90524883333333, "lon": -77.03059583333334, "fusion_lon": 0.0, "name": "12e9d62c87c68ace0893ea89a27a1bf8", "rental_uris": {"ios": "https://dc.lft.to/lastmile_qr_scan", "android": "https://dc.lft.to/lastmile_qr_scan"}, "is_disabled": 0, "is_reserved": 0}, {"bike_id": "e486c1f364450ac93d4bd6b6c05127f7", "type": "electric_scooter", "fusion_lat": 0.0, "lat": 38.89215033333333, "lon": -77.02534333333334, "fusion_lon": 0.0, "name": "e486c1f364450ac93d4bd6b6c05127f7", "rental_uris": {"ios": "https://dc.lft.to/lastmile_qr_scan", "android": "https://dc.lft.to/lastmile_qr_scan"}, "is_disabled": 0, "is_reserved": 0}, {"bike_id": "dc69288aebe02d82543214ee7d191d36", "type": "electric_scooter", "fusion_lat": 0.0, "lat": 38.878832833333334, "lon": -77.00055633333334, "fusion_lon": 0.0, "name": "dc69288aebe02d82543214ee7d191d36", "rental_uris": {"ios": "https://dc.lft.to/lastmile_qr_scan", "android": "https://dc.lft.to/lastmile_qr_scan"}, "is_disabled": 0, "is_reserved": 0}, {"bike_id": "cbdb039717bf4756a85a7fe0ea178981", "type": "electric_scooter", "fusion_lat": 0.0, "lat": 38.92467366666666, "lon": -77.052379, "fusion_lon": 0.0, "name": "cbdb039717bf4756a85a7fe0ea178981", "rental_uris": {"ios": "https://dc.lft.to/lastmile_qr_scan", "android": "https://dc.lft.to/lastmile_qr_scan"}, "is_disabled": 0, "is_reserved": 0}, {"bike_id": "692ef11566c859d1cff7f0da249cdf00", "type": "electric_scooter", "fusion_lat": 0.0, "lat": 38.877921, "lon": -77.0012445, "fusion_lon": 0.0, "name": "692ef11566c859d1cff7f0da249cdf00", "rental_uris": {"ios": "https://dc.lft.to/lastmile_qr_scan", "android": "https://dc.lft.to/lastmile_qr_scan"}, "is_disabled": 0, "is_reserved": 0}, {"bike_id": "e8828e3ff5de2131266ac3989b2f1d69", "type": "electric_scooter", "fusion_lat": 0.0, "lat": 38.921369, "lon": -77.0179025, "fusion_lon": 0.0, "name": "e8828e3ff5de2131266ac3989b2f1d69", "rental_uris": {"ios": "https://dc.lft.to/lastmile_qr_scan", "android": "https://dc.lft.to/lastmile_qr_scan"}, "is_disabled": 0, "is_reserved": 0}, {"bike_id": "25a2cc21c784c5a0fcfe3c06662e9e08", "type": "electric_scooter", "fusion_lat": 0.0, "lat": 38.89547983333333, "lon": -77.00917483333333, "fusion_lon": 0.0, "name": "25a2cc21c784c5a0fcfe3c06662e9e08", "rental_uris": {"ios": "https://dc.lft.to/lastmile_qr_scan", "android": "https://dc.lft.to/lastmile_qr_scan"}, "is_disabled": 0, "is_reserved": 0}, {"bike_id": "f5cf29aeee739436fb2ec8067fdeb420", "type": "electric_scooter", "fusion_lat": 0.0, "lat": 38.92698383333333, "lon": -77.02077116666666, "fusion_lon": 0.0, "name": "f5cf29aeee739436fb2ec8067fdeb420", "rental_uris": {"ios": "https://dc.lft.to/lastmile_qr_scan", "android": "https://dc.lft.to/lastmile_qr_scan"}, "is_disabled": 0, "is_reserved": 0}, {"bike_id": "200b8bad6291d17ef1df574f582ba757", "type": "electric_scooter", "fusion_lat": 0.0, "lat": 38.8943645, "lon": -76.9808385, "fusion_lon": 0.0, "name": "200b8bad6291d17ef1df574f582ba757", "rental_uris": {"ios": "https://dc.lft.to/lastmile_qr_scan", "android": "https://dc.lft.to/lastmile_qr_scan"}, "is_disabled": 0, "is_reserved": 0}, {"bike_id": "63b698ad3bb34d8648da16d108bb4b96", "type": "electric_scooter", "fusion_lat": 0.0, "lat": 38.9133125, "lon": -77.04814683333333, "fusion_lon": 0.0, "name": "63b698ad3bb34d8648da16d108bb4b96", "rental_uris": {"ios": "https://dc.lft.to/lastmile_qr_scan", "android": "https://dc.lft.to/lastmile_qr_scan"}, "is_disabled": 0, "is_reserved": 0}, {"bike_id": "1cebce46857a4eddc36dc9ed2a19f128", "type": "electric_scooter", "fusion_lat": 0.0, "lat": 38.89727233333333, "lon": -76.92584383333333, "fusion_lon": 0.0, "name": "1cebce46857a4eddc36dc9ed2a19f128", "rental_uris": {"ios": "https://dc.lft.to/lastmile_qr_scan", "android": "https://dc.lft.to/lastmile_qr_scan"}, "is_disabled": 0, "is_reserved": 0}, {"bike_id": "b97b543fc15db5bc6093e3a8a36db008", "type": "electric_bike", "fusion_lat": 0.0, "lat": 38.9663355, "lon": -77.01055283333334, "fusion_lon": 0.0, "name": "b97b543fc15db5bc6093e3a8a36db008", "rental_uris": {"ios": "https://dc.lft.to/lastmile_qr_scan", "android": "https://dc.lft.to/lastmile_qr_scan"}, "is_disabled": 0, "is_reserved": 0}, {"bike_id": "b5050f26803b21565563b4e5bcc4c1ab", "type": "electric_scooter", "fusion_lat": 0.0, "lat": 38.92033283333333, "lon": -77.025834, "fusion_lon": 0.0, "name": "b5050f26803b21565563b4e5bcc4c1ab", "rental_uris": {"ios": "https://dc.lft.to/lastmile_qr_scan", "android": "https://dc.lft.to/lastmile_qr_scan"}, "is_disabled": 0, "is_reserved": 0}, {"bike_id": "945ec5b6901b6c3b4e54ed59f2747bd8", "type": "electric_scooter", "fusion_lat": 0.0, "lat": 38.924857833333334, "lon": -77.02132066666667, "fusion_lon": 0.0, "name": "945ec5b6901b6c3b4e54ed59f2747bd8", "rental_uris": {"ios": "https://dc.lft.to/lastmile_qr_scan", "android": "https://dc.lft.to/lastmile_qr_scan"}, "is_disabled": 0, "is_reserved": 0}, {"bike_id": "2b0cf2813d2235c84e448dce199e5693", "type": "electric_scooter", "fusion_lat": 0.0, "lat": 38.93139733333334, "lon": -77.05726716666666, "fusion_lon": 0.0, "name": "2b0cf2813d2235c84e448dce199e5693", "rental_uris": {"ios": "https://dc.lft.to/lastmile_qr_scan", "android": "https://dc.lft.to/lastmile_qr_scan"}, "is_disabled": 0, "is_reserved": 0}, {"bike_id": "ee6ee673f8e5553092bfa65f2c93c087", "type": "electric_scooter", "fusion_lat": 0.0, "lat": 38.9213875, "lon": -77.042173, "fusion_lon": 0.0, "name": "ee6ee673f8e5553092bfa65f2c93c087", "rental_uris": {"ios": "https://dc.lft.to/lastmile_qr_scan", "android": "https://dc.lft.to/lastmile_qr_scan"}, "is_disabled": 0, "is_reserved": 0}, {"bike_id": "914df99d39e1d4df6b2d59c74c4e1cf0", "type": "electric_scooter", "fusion_lat": 0.0, "lat": 38.9163485, "lon": -77.0220865, "fusion_lon": 0.0, "name": "914df99d39e1d4df6b2d59c74c4e1cf0", "rental_uris": {"ios": "https://dc.lft.to/lastmile_qr_scan", "android": "https://dc.lft.to/lastmile_qr_scan"}, "is_disabled": 0, "is_reserved": 0}, {"bike_id": "b8196cde98bd7f4b308fa15289afdddf", "type": "electric_scooter", "fusion_lat": 0.0, "lat": 38.93988733333333, "lon": -77.02314083333333, "fusion_lon": 0.0, "name": "b8196cde98bd7f4b308fa15289afdddf", "rental_uris": {"ios": "https://dc.lft.to/lastmile_qr_scan", "android": "https://dc.lft.to/lastmile_qr_scan"}, "is_disabled": 0, "is_reserved": 0}, {"bike_id": "c18e49604fd75b2911453db34fba2cde", "type": "electric_scooter", "fusion_lat": 0.0, "lat": 38.91238533333333, "lon": -76.98670366666667, "fusion_lon": 0.0, "name": "c18e49604fd75b2911453db34fba2cde", "rental_uris": {"ios": "https://dc.lft.to/lastmile_qr_scan", "android": "https://dc.lft.to/lastmile_qr_scan"}, "is_disabled": 0, "is_reserved": 0}, {"bike_id": "8f4f59fb6a5f540f82969470daa3a48c", "type": "electric_scooter", "fusion_lat": 0.0, "lat": 38.903497, "lon": -77.0344275, "fusion_lon": 0.0, "name": "8f4f59fb6a5f540f82969470daa3a48c", "rental_uris": {"ios": "https://dc.lft.to/lastmile_qr_scan", "android": "https://dc.lft.to/lastmile_qr_scan"}, "is_disabled": 0, "is_reserved": 0}, {"bike_id": "143b878083f39faf0cc5349fb45177cf", "type": "electric_scooter", "fusion_lat": 0.0, "lat": 38.91403783333333, "lon": -77.01803366666667, "fusion_lon": 0.0, "name": "143b878083f39faf0cc5349fb45177cf", "rental_uris": {"ios": "https://dc.lft.to/lastmile_qr_scan", "android": "https://dc.lft.to/lastmile_qr_scan"}, "is_disabled": 0, "is_reserved": 0}, {"bike_id": "6186230edc7c9e7faefa71e3d76d1f06", "type": "electric_scooter", "fusion_lat": 0.0, "lat": 38.932776833333335, "lon": -76.99090883333334, "fusion_lon": 0.0, "name": "6186230edc7c9e7faefa71e3d76d1f06", "rental_uris": {"ios": "https://dc.lft.to/lastmile_qr_scan", "android": "https://dc.lft.to/lastmile_qr_scan"}, "is_disabled": 0, "is_reserved": 0}, {"bike_id": "23f7f09156ec05d04794debfd3243299", "type": "electric_scooter", "fusion_lat": 0.0, "lat": 38.924830666666665, "lon": -77.02222783333333, "fusion_lon": 0.0, "name": "23f7f09156ec05d04794debfd3243299", "rental_uris": {"ios": "https://dc.lft.to/lastmile_qr_scan", "android": "https://dc.lft.to/lastmile_qr_scan"}, "is_disabled": 0, "is_reserved": 0}, {"bike_id": "2e5782a760e56effdfd7e89643cea240", "type": "electric_bike", "fusion_lat": 0.0, "lat": 39.01577416666667, "lon": -77.04306016666666, "fusion_lon": 0.0, "name": "2e5782a760e56effdfd7e89643cea240", "rental_uris": {"ios": "https://dc.lft.to/lastmile_qr_scan", "android": "https://dc.lft.to/lastmile_qr_scan"}, "is_disabled": 0, "is_reserved": 0}, {"bike_id": "da3330ebbd1543165763c1d8017e820b", "type": "electric_scooter", "fusion_lat": 0.0, "lat": 38.91663233333333, "lon": -77.02567583333334, "fusion_lon": 0.0, "name": "da3330ebbd1543165763c1d8017e820b", "rental_uris": {"ios": "https://dc.lft.to/lastmile_qr_scan", "android": "https://dc.lft.to/lastmile_qr_scan"}, "is_disabled": 0, "is_reserved": 0}, {"bike_id": "a433e9ecc4b809753a18eaf9b50fb8a1", "type": "electric_scooter", "fusion_lat": 0.0, "lat": 38.87665166666667, "lon": -77.00344383333334, "fusion_lon": 0.0, "name": "a433e9ecc4b809753a18eaf9b50fb8a1", "rental_uris": {"ios": "https://dc.lft.to/lastmile_qr_scan", "android": "https://dc.lft.to/lastmile_qr_scan"}, "is_disabled": 0, "is_reserved": 0}, {"bike_id": "286eaaef8cb731dd382e988133cdad1f", "type": "electric_scooter", "fusion_lat": 0.0, "lat": 38.91368966666667, "lon": -77.06619066666667, "fusion_lon": 0.0, "name": "286eaaef8cb731dd382e988133cdad1f", "rental_uris": {"ios": "https://dc.lft.to/lastmile_qr_scan", "android": "https://dc.lft.to/lastmile_qr_scan"}, "is_disabled": 0, "is_reserved": 0}, {"bike_id": "078fd1cd9338767f648c02cbde266c33", "type": "electric_scooter", "fusion_lat": 0.0, "lat": 38.88389016666667, "lon": -77.0316725, "fusion_lon": 0.0, "name": "078fd1cd9338767f648c02cbde266c33", "rental_uris": {"ios": "https://dc.lft.to/lastmile_qr_scan", "android": "https://dc.lft.to/lastmile_qr_scan"}, "is_disabled": 0, "is_reserved": 0}, {"bike_id": "e43f29be663b8f1fdd1d1038276f2e92", "type": "electric_scooter", "fusion_lat": 0.0, "lat": 38.920175, "lon": -76.9956465, "fusion_lon": 0.0, "name": "e43f29be663b8f1fdd1d1038276f2e92", "rental_uris": {"ios": "https://dc.lft.to/lastmile_qr_scan", "android": "https://dc.lft.to/lastmile_qr_scan"}, "is_disabled": 0, "is_reserved": 0}, {"bike_id": "02a8671393326006d986db004e36df8d", "type": "electric_scooter", "fusion_lat": 0.0, "lat": 38.904689833333336, "lon": -77.02142866666667, "fusion_lon": 0.0, "name": "02a8671393326006d986db004e36df8d", "rental_uris": {"ios": "https://dc.lft.to/lastmile_qr_scan", "android": "https://dc.lft.to/lastmile_qr_scan"}, "is_disabled": 0, "is_reserved": 0}, {"bike_id": "56ac873fc3ae0d8e956a9fd41acfa6c0", "type": "electric_scooter", "fusion_lat": 0.0, "lat": 38.89949166666667, "lon": -77.0398665, "fusion_lon": 0.0, "name": "56ac873fc3ae0d8e956a9fd41acfa6c0", "rental_uris": {"ios": "https://dc.lft.to/lastmile_qr_scan", "android": "https://dc.lft.to/lastmile_qr_scan"}, "is_disabled": 0, "is_reserved": 0}, {"bike_id": "d30f2d36c8b4155bce972a36b9333003", "type": "electric_scooter", "fusion_lat": 0.0, "lat": 38.906324, "lon": -77.05125816666667, "fusion_lon": 0.0, "name": "d30f2d36c8b4155bce972a36b9333003", "rental_uris": {"ios": "https://dc.lft.to/lastmile_qr_scan", "android": "https://dc.lft.to/lastmile_qr_scan"}, "is_disabled": 0, "is_reserved": 0}, {"bike_id": "56da6be72c10105fe50408ec8383df7b", "type": "electric_scooter", "fusion_lat": 0.0, "lat": 38.92122766666667, "lon": -77.04114133333333, "fusion_lon": 0.0, "name": "56da6be72c10105fe50408ec8383df7b", "rental_uris": {"ios": "https://dc.lft.to/lastmile_qr_scan", "android": "https://dc.lft.to/lastmile_qr_scan"}, "is_disabled": 0, "is_reserved": 0}, {"bike_id": "3c1fc4c30927b6c925980dfd8880eb51", "type": "electric_scooter", "fusion_lat": 0.0, "lat": 38.907964666666665, "lon": -77.00004683333333, "fusion_lon": 0.0, "name": "3c1fc4c30927b6c925980dfd8880eb51", "rental_uris": {"ios": "https://dc.lft.to/lastmile_qr_scan", "android": "https://dc.lft.to/lastmile_qr_scan"}, "is_disabled": 0, "is_reserved": 0}, {"bike_id": "44697de6f51a7fb3a0ece6838a691fa9", "type": "electric_scooter", "fusion_lat": 0.0, "lat": 38.92031266666667, "lon": -77.0258395, "fusion_lon": 0.0, "name": "44697de6f51a7fb3a0ece6838a691fa9", "rental_uris": {"ios": "https://dc.lft.to/lastmile_qr_scan", "android": "https://dc.lft.to/lastmile_qr_scan"}, "is_disabled": 0, "is_reserved": 0}, {"bike_id": "17630af9c7b5931e434b2ae11469f4dd", "type": "electric_scooter", "fusion_lat": 0.0, "lat": 38.897144, "lon": -77.00796983333333, "fusion_lon": 0.0, "name": "17630af9c7b5931e434b2ae11469f4dd", "rental_uris": {"ios": "https://dc.lft.to/lastmile_qr_scan", "android": "https://dc.lft.to/lastmile_qr_scan"}, "is_disabled": 0, "is_reserved": 0}, {"bike_id": "a1d822e62ab9a452f860179acbb807d3", "type": "electric_scooter", "fusion_lat": 0.0, "lat": 38.8851455, "lon": -77.00565083333333, "fusion_lon": 0.0, "name": "a1d822e62ab9a452f860179acbb807d3", "rental_uris": {"ios": "https://dc.lft.to/lastmile_qr_scan", "android": "https://dc.lft.to/lastmile_qr_scan"}, "is_disabled": 0, "is_reserved": 0}, {"bike_id": "6b451c791871ea31eba96f54bdf4e7ef", "type": "electric_scooter", "fusion_lat": 0.0, "lat": 38.883916, "lon": -76.9950785, "fusion_lon": 0.0, "name": "6b451c791871ea31eba96f54bdf4e7ef", "rental_uris": {"ios": "https://dc.lft.to/lastmile_qr_scan", "android": "https://dc.lft.to/lastmile_qr_scan"}, "is_disabled": 0, "is_reserved": 0}, {"bike_id": "58c4bb526669eff97e43dd416fdd2901", "type": "electric_scooter", "fusion_lat": 0.0, "lat": 38.924693, "lon": -77.052342, "fusion_lon": 0.0, "name": "58c4bb526669eff97e43dd416fdd2901", "rental_uris": {"ios": "https://dc.lft.to/lastmile_qr_scan", "android": "https://dc.lft.to/lastmile_qr_scan"}, "is_disabled": 0, "is_reserved": 0}, {"bike_id": "4c4a89fcdc9f98547411d2383a52e319", "type": "electric_scooter", "fusion_lat": 0.0, "lat": 38.902965, "lon": -77.03321233333334, "fusion_lon": 0.0, "name": "4c4a89fcdc9f98547411d2383a52e319", "rental_uris": {"ios": "https://dc.lft.to/lastmile_qr_scan", "android": "https://dc.lft.to/lastmile_qr_scan"}, "is_disabled": 0, "is_reserved": 0}, {"bike_id": "3b828939842f313dc083c0cdd4799633", "type": "electric_scooter", "fusion_lat": 0.0, "lat": 38.91649666666667, "lon": -77.02164416666666, "fusion_lon": 0.0, "name": "3b828939842f313dc083c0cdd4799633", "rental_uris": {"ios": "https://dc.lft.to/lastmile_qr_scan", "android": "https://dc.lft.to/lastmile_qr_scan"}, "is_disabled": 0, "is_reserved": 0}, {"bike_id": "2243defaa16ac3d04cdfcdaf177a1405", "type": "electric_scooter", "fusion_lat": 0.0, "lat": 38.87893483333333, "lon": -77.01388933333334, "fusion_lon": 0.0, "name": "2243defaa16ac3d04cdfcdaf177a1405", "rental_uris": {"ios": "https://dc.lft.to/lastmile_qr_scan", "android": "https://dc.lft.to/lastmile_qr_scan"}, "is_disabled": 0, "is_reserved": 0}, {"bike_id": "4ec945b996a52333290b33ca18e5ba4d", "type": "electric_scooter", "fusion_lat": 0.0, "lat": 38.902306833333334, "lon": -77.02599666666667, "fusion_lon": 0.0, "name": "4ec945b996a52333290b33ca18e5ba4d", "rental_uris": {"ios": "https://dc.lft.to/lastmile_qr_scan", "android": "https://dc.lft.to/lastmile_qr_scan"}, "is_disabled": 0, "is_reserved": 0}, {"bike_id": "adf475bd188b6ba70b20ef07e89424d8", "type": "electric_scooter", "fusion_lat": 0.0, "lat": 38.9092215, "lon": -77.02181866666666, "fusion_lon": 0.0, "name": "adf475bd188b6ba70b20ef07e89424d8", "rental_uris": {"ios": "https://dc.lft.to/lastmile_qr_scan", "android": "https://dc.lft.to/lastmile_qr_scan"}, "is_disabled": 0, "is_reserved": 0}, {"bike_id": "3286335f261b2fd905e8884e7aa68684", "type": "electric_scooter", "fusion_lat": 0.0, "lat": 38.892437666666666, "lon": -77.03182033333333, "fusion_lon": 0.0, "name": "3286335f261b2fd905e8884e7aa68684", "rental_uris": {"ios": "https://dc.lft.to/lastmile_qr_scan", "android": "https://dc.lft.to/lastmile_qr_scan"}, "is_disabled": 0, "is_reserved": 0}, {"bike_id": "a2deaf512aedf92710fd6f9473fe5715", "type": "electric_bike", "fusion_lat": 0.0, "lat": 38.8648845, "lon": -76.9773985, "fusion_lon": 0.0, "name": "a2deaf512aedf92710fd6f9473fe5715", "rental_uris": {"ios": "https://dc.lft.to/lastmile_qr_scan", "android": "https://dc.lft.to/lastmile_qr_scan"}, "is_disabled": 0, "is_reserved": 0}, {"bike_id": "e53d9aa3bdd59f8f0aba030155d3427b", "type": "electric_scooter", "fusion_lat": 0.0, "lat": 38.9296365, "lon": -77.05521833333333, "fusion_lon": 0.0, "name": "e53d9aa3bdd59f8f0aba030155d3427b", "rental_uris": {"ios": "https://dc.lft.to/lastmile_qr_scan", "android": "https://dc.lft.to/lastmile_qr_scan"}, "is_disabled": 0, "is_reserved": 0}, {"bike_id": "781fdc094d969b816d51686a124a1316", "type": "electric_scooter", "fusion_lat": 0.0, "lat": 38.910079333333336, "lon": -77.04004366666666, "fusion_lon": 0.0, "name": "781fdc094d969b816d51686a124a1316", "rental_uris": {"ios": "https://dc.lft.to/lastmile_qr_scan", "android": "https://dc.lft.to/lastmile_qr_scan"}, "is_disabled": 0, "is_reserved": 0}, {"bike_id": "331feab313b011183194437c24cce0a4", "type": "electric_scooter", "fusion_lat": 0.0, "lat": 38.90288783333333, "lon": -77.036468, "fusion_lon": 0.0, "name": "331feab313b011183194437c24cce0a4", "rental_uris": {"ios": "https://dc.lft.to/lastmile_qr_scan", "android": "https://dc.lft.to/lastmile_qr_scan"}, "is_disabled": 0, "is_reserved": 0}, {"bike_id": "2940b5b4ab436e27f26197ce7b8bf631", "type": "electric_scooter", "fusion_lat": 0.0, "lat": 38.90424266666667, "lon": -77.05326916666667, "fusion_lon": 0.0, "name": "2940b5b4ab436e27f26197ce7b8bf631", "rental_uris": {"ios": "https://dc.lft.to/lastmile_qr_scan", "android": "https://dc.lft.to/lastmile_qr_scan"}, "is_disabled": 0, "is_reserved": 0}, {"bike_id": "52d0313e903a26d873d27dbd92f34248", "type": "electric_scooter", "fusion_lat": 0.0, "lat": 38.917413333333336, "lon": -77.02117183333333, "fusion_lon": 0.0, "name": "52d0313e903a26d873d27dbd92f34248", "rental_uris": {"ios": "https://dc.lft.to/lastmile_qr_scan", "android": "https://dc.lft.to/lastmile_qr_scan"}, "is_disabled": 0, "is_reserved": 0}, {"bike_id": "18d19dee8d8e8fbe3ba94f5130dd23bf", "type": "electric_scooter", "fusion_lat": 0.0, "lat": 38.90973483333333, "lon": -77.04662816666666, "fusion_lon": 0.0, "name": "18d19dee8d8e8fbe3ba94f5130dd23bf", "rental_uris": {"ios": "https://dc.lft.to/lastmile_qr_scan", "android": "https://dc.lft.to/lastmile_qr_scan"}, "is_disabled": 0, "is_reserved": 0}, {"bike_id": "b0bac2c34dc88e56098cbad500612dce", "type": "electric_scooter", "fusion_lat": 0.0, "lat": 38.884272833333334, "lon": -77.00139716666666, "fusion_lon": 0.0, "name": "b0bac2c34dc88e56098cbad500612dce", "rental_uris": {"ios": "https://dc.lft.to/lastmile_qr_scan", "android": "https://dc.lft.to/lastmile_qr_scan"}, "is_disabled": 0, "is_reserved": 0}, {"bike_id": "c17629a19f4d91150a4cc419212e157d", "type": "electric_scooter", "fusion_lat": 0.0, "lat": 38.88522716666667, "lon": -77.015907, "fusion_lon": 0.0, "name": "c17629a19f4d91150a4cc419212e157d", "rental_uris": {"ios": "https://dc.lft.to/lastmile_qr_scan", "android": "https://dc.lft.to/lastmile_qr_scan"}, "is_disabled": 0, "is_reserved": 0}, {"bike_id": "c4171568e4193062c31290d0a81df1cb", "type": "electric_scooter", "fusion_lat": 0.0, "lat": 38.891617833333335, "lon": -76.99145983333334, "fusion_lon": 0.0, "name": "c4171568e4193062c31290d0a81df1cb", "rental_uris": {"ios": "https://dc.lft.to/lastmile_qr_scan", "android": "https://dc.lft.to/lastmile_qr_scan"}, "is_disabled": 0, "is_reserved": 0}, {"bike_id": "40efa818952158b5f0d8336c561a0f34", "type": "electric_scooter", "fusion_lat": 0.0, "lat": 38.8849615, "lon": -77.02505083333334, "fusion_lon": 0.0, "name": "40efa818952158b5f0d8336c561a0f34", "rental_uris": {"ios": "https://dc.lft.to/lastmile_qr_scan", "android": "https://dc.lft.to/lastmile_qr_scan"}, "is_disabled": 0, "is_reserved": 0}, {"bike_id": "adea1a42789c2d36093d0c796198c1f8", "type": "electric_scooter", "fusion_lat": 0.0, "lat": 38.91971783333334, "lon": -77.02494216666666, "fusion_lon": 0.0, "name": "adea1a42789c2d36093d0c796198c1f8", "rental_uris": {"ios": "https://dc.lft.to/lastmile_qr_scan", "android": "https://dc.lft.to/lastmile_qr_scan"}, "is_disabled": 0, "is_reserved": 0}, {"bike_id": "55466ee26fd9fc3bd36488d0b2fcc846", "type": "electric_scooter", "fusion_lat": 0.0, "lat": 38.9201965, "lon": -77.06364983333333, "fusion_lon": 0.0, "name": "55466ee26fd9fc3bd36488d0b2fcc846", "rental_uris": {"ios": "https://dc.lft.to/lastmile_qr_scan", "android": "https://dc.lft.to/lastmile_qr_scan"}, "is_disabled": 0, "is_reserved": 0}, {"bike_id": "025f54f663bf81fba329903c1e8c719a", "type": "electric_scooter", "fusion_lat": 0.0, "lat": 38.941777, "lon": -77.02336883333334, "fusion_lon": 0.0, "name": "025f54f663bf81fba329903c1e8c719a", "rental_uris": {"ios": "https://dc.lft.to/lastmile_qr_scan", "android": "https://dc.lft.to/lastmile_qr_scan"}, "is_disabled": 0, "is_reserved": 0}, {"bike_id": "f9c1c5f3daa77f8f800145a06ddf4b41", "type": "electric_scooter", "fusion_lat": 0.0, "lat": 38.8999125, "lon": -77.02746583333334, "fusion_lon": 0.0, "name": "f9c1c5f3daa77f8f800145a06ddf4b41", "rental_uris": {"ios": "https://dc.lft.to/lastmile_qr_scan", "android": "https://dc.lft.to/lastmile_qr_scan"}, "is_disabled": 0, "is_reserved": 0}, {"bike_id": "fc0e42be968fd4ece199507115146cfc", "type": "electric_scooter", "fusion_lat": 0.0, "lat": 38.9142125, "lon": -77.02587416666667, "fusion_lon": 0.0, "name": "fc0e42be968fd4ece199507115146cfc", "rental_uris": {"ios": "https://dc.lft.to/lastmile_qr_scan", "android": "https://dc.lft.to/lastmile_qr_scan"}, "is_disabled": 0, "is_reserved": 0}, {"bike_id": "5162ae8b4b1edbfe517dd80c316f84df", "type": "electric_scooter", "fusion_lat": 0.0, "lat": 38.92863583333333, "lon": -77.03169283333334, "fusion_lon": 0.0, "name": "5162ae8b4b1edbfe517dd80c316f84df", "rental_uris": {"ios": "https://dc.lft.to/lastmile_qr_scan", "android": "https://dc.lft.to/lastmile_qr_scan"}, "is_disabled": 0, "is_reserved": 0}, {"bike_id": "0d11b89b6884f3377368e3db08e0aa7e", "type": "electric_scooter", "fusion_lat": 0.0, "lat": 38.9052495, "lon": -77.0504655, "fusion_lon": 0.0, "name": "0d11b89b6884f3377368e3db08e0aa7e", "rental_uris": {"ios": "https://dc.lft.to/lastmile_qr_scan", "android": "https://dc.lft.to/lastmile_qr_scan"}, "is_disabled": 0, "is_reserved": 0}, {"bike_id": "50b154ed080e39cb5368f75e648446cd", "type": "electric_scooter", "fusion_lat": 0.0, "lat": 38.937714, "lon": -77.0595945, "fusion_lon": 0.0, "name": "50b154ed080e39cb5368f75e648446cd", "rental_uris": {"ios": "https://dc.lft.to/lastmile_qr_scan", "android": "https://dc.lft.to/lastmile_qr_scan"}, "is_disabled": 0, "is_reserved": 0}, {"bike_id": "3d0e8759b9bf8e08bc9441ee333d0fae", "type": "electric_scooter", "fusion_lat": 0.0, "lat": 38.939846333333335, "lon": -77.02314716666666, "fusion_lon": 0.0, "name": "3d0e8759b9bf8e08bc9441ee333d0fae", "rental_uris": {"ios": "https://dc.lft.to/lastmile_qr_scan", "android": "https://dc.lft.to/lastmile_qr_scan"}, "is_disabled": 0, "is_reserved": 0}, {"bike_id": "bc4bbfadf4d7078eb85f4bc67da2f894", "type": "electric_scooter", "fusion_lat": 0.0, "lat": 38.898397333333335, "lon": -77.04376916666666, "fusion_lon": 0.0, "name": "bc4bbfadf4d7078eb85f4bc67da2f894", "rental_uris": {"ios": "https://dc.lft.to/lastmile_qr_scan", "android": "https://dc.lft.to/lastmile_qr_scan"}, "is_disabled": 0, "is_reserved": 0}, {"bike_id": "f053174253d32e52c0a8674c76ce0466", "type": "electric_bike", "fusion_lat": 0.0, "lat": 38.932617, "lon": -77.06569566666667, "fusion_lon": 0.0, "name": "f053174253d32e52c0a8674c76ce0466", "rental_uris": {"ios": "https://dc.lft.to/lastmile_qr_scan", "android": "https://dc.lft.to/lastmile_qr_scan"}, "is_disabled": 0, "is_reserved": 0}, {"bike_id": "711fb26f98d273eab71f7c81df27a24b", "type": "electric_scooter", "fusion_lat": 0.0, "lat": 38.8957615, "lon": -77.02726283333334, "fusion_lon": 0.0, "name": "711fb26f98d273eab71f7c81df27a24b", "rental_uris": {"ios": "https://dc.lft.to/lastmile_qr_scan", "android": "https://dc.lft.to/lastmile_qr_scan"}, "is_disabled": 0, "is_reserved": 0}, {"bike_id": "81ce7b633858cea23ff8251cedfc7502", "type": "electric_scooter", "fusion_lat": 0.0, "lat": 38.90416233333333, "lon": -77.04355666666666, "fusion_lon": 0.0, "name": "81ce7b633858cea23ff8251cedfc7502", "rental_uris": {"ios": "https://dc.lft.to/lastmile_qr_scan", "android": "https://dc.lft.to/lastmile_qr_scan"}, "is_disabled": 0, "is_reserved": 0}, {"bike_id": "4aa564bae4fa26c54e0e7dd1c0ef8b94", "type": "electric_scooter", "fusion_lat": 0.0, "lat": 38.92353383333333, "lon": -77.04148883333333, "fusion_lon": 0.0, "name": "4aa564bae4fa26c54e0e7dd1c0ef8b94", "rental_uris": {"ios": "https://dc.lft.to/lastmile_qr_scan", "android": "https://dc.lft.to/lastmile_qr_scan"}, "is_disabled": 0, "is_reserved": 0}, {"bike_id": "95ce21184de49ae7bdf350ee3e902624", "type": "electric_scooter", "fusion_lat": 0.0, "lat": 38.91046216666667, "lon": -77.064632, "fusion_lon": 0.0, "name": "95ce21184de49ae7bdf350ee3e902624", "rental_uris": {"ios": "https://dc.lft.to/lastmile_qr_scan", "android": "https://dc.lft.to/lastmile_qr_scan"}, "is_disabled": 0, "is_reserved": 0}, {"bike_id": "f41dbda6bdbcdb6298153ef5b58b0979", "type": "electric_bike", "fusion_lat": 0.0, "lat": 38.881360666666666, "lon": -76.98110066666666, "fusion_lon": 0.0, "name": "f41dbda6bdbcdb6298153ef5b58b0979", "rental_uris": {"ios": "https://dc.lft.to/lastmile_qr_scan", "android": "https://dc.lft.to/lastmile_qr_scan"}, "is_disabled": 0, "is_reserved": 0}, {"bike_id": "9cca7a34f2a25eecb858c0b85c7996f3", "type": "electric_scooter", "fusion_lat": 0.0, "lat": 38.922441666666664, "lon": -77.03898083333333, "fusion_lon": 0.0, "name": "9cca7a34f2a25eecb858c0b85c7996f3", "rental_uris": {"ios": "https://dc.lft.to/lastmile_qr_scan", "android": "https://dc.lft.to/lastmile_qr_scan"}, "is_disabled": 0, "is_reserved": 0}, {"bike_id": "4d32c5c50904d6804cef65339e0d49e7", "type": "electric_scooter", "fusion_lat": 0.0, "lat": 38.892033, "lon": -77.002221, "fusion_lon": 0.0, "name": "4d32c5c50904d6804cef65339e0d49e7", "rental_uris": {"ios": "https://dc.lft.to/lastmile_qr_scan", "android": "https://dc.lft.to/lastmile_qr_scan"}, "is_disabled": 0, "is_reserved": 0}, {"bike_id": "46678d3d3c27a5d770fa509dbd588338", "type": "electric_scooter", "fusion_lat": 0.0, "lat": 38.908767833333336, "lon": -77.0452385, "fusion_lon": 0.0, "name": "46678d3d3c27a5d770fa509dbd588338", "rental_uris": {"ios": "https://dc.lft.to/lastmile_qr_scan", "android": "https://dc.lft.to/lastmile_qr_scan"}, "is_disabled": 0, "is_reserved": 0}, {"bike_id": "2a982287615c59928bc062415f57312b", "type": "electric_scooter", "fusion_lat": 0.0, "lat": 38.91487266666667, "lon": -77.0455105, "fusion_lon": 0.0, "name": "2a982287615c59928bc062415f57312b", "rental_uris": {"ios": "https://dc.lft.to/lastmile_qr_scan", "android": "https://dc.lft.to/lastmile_qr_scan"}, "is_disabled": 0, "is_reserved": 0}, {"bike_id": "3dfa7183bc7f2da9a75594d2bbb565d1", "type": "electric_scooter", "fusion_lat": 0.0, "lat": 38.89675533333333, "lon": -76.93209666666667, "fusion_lon": 0.0, "name": "3dfa7183bc7f2da9a75594d2bbb565d1", "rental_uris": {"ios": "https://dc.lft.to/lastmile_qr_scan", "android": "https://dc.lft.to/lastmile_qr_scan"}, "is_disabled": 0, "is_reserved": 0}, {"bike_id": "ec4803266968d4d431c9d5db1f925a8d", "type": "electric_bike", "fusion_lat": 0.0, "lat": 38.98523183333333, "lon": -77.00408583333333, "fusion_lon": 0.0, "name": "ec4803266968d4d431c9d5db1f925a8d", "rental_uris": {"ios": "https://dc.lft.to/lastmile_qr_scan", "android": "https://dc.lft.to/lastmile_qr_scan"}, "is_disabled": 0, "is_reserved": 0}, {"bike_id": "013c454c642266bfc7f149de88c3e8a1", "type": "electric_scooter", "fusion_lat": 0.0, "lat": 38.924165333333335, "lon": -77.01946266666667, "fusion_lon": 0.0, "name": "013c454c642266bfc7f149de88c3e8a1", "rental_uris": {"ios": "https://dc.lft.to/lastmile_qr_scan", "android": "https://dc.lft.to/lastmile_qr_scan"}, "is_disabled": 0, "is_reserved": 0}, {"bike_id": "e42fa0637a6d189366ae7c9368b3eea0", "type": "electric_scooter", "fusion_lat": 0.0, "lat": 38.901840166666666, "lon": -76.93463416666667, "fusion_lon": 0.0, "name": "e42fa0637a6d189366ae7c9368b3eea0", "rental_uris": {"ios": "https://dc.lft.to/lastmile_qr_scan", "android": "https://dc.lft.to/lastmile_qr_scan"}, "is_disabled": 0, "is_reserved": 0}, {"bike_id": "c60480e54d446cddc61b942715ae16ba", "type": "electric_scooter", "fusion_lat": 0.0, "lat": 38.916541, "lon": -77.04154316666667, "fusion_lon": 0.0, "name": "c60480e54d446cddc61b942715ae16ba", "rental_uris": {"ios": "https://dc.lft.to/lastmile_qr_scan", "android": "https://dc.lft.to/lastmile_qr_scan"}, "is_disabled": 0, "is_reserved": 0}, {"bike_id": "2dd786b1cc2d7369c0355f0030493922", "type": "electric_scooter", "fusion_lat": 0.0, "lat": 38.896358666666664, "lon": -77.0114725, "fusion_lon": 0.0, "name": "2dd786b1cc2d7369c0355f0030493922", "rental_uris": {"ios": "https://dc.lft.to/lastmile_qr_scan", "android": "https://dc.lft.to/lastmile_qr_scan"}, "is_disabled": 0, "is_reserved": 0}, {"bike_id": "221fb77082a0c4629eaa3c567ddd603b", "type": "electric_scooter", "fusion_lat": 0.0, "lat": 38.919237833333334, "lon": -77.02491483333333, "fusion_lon": 0.0, "name": "221fb77082a0c4629eaa3c567ddd603b", "rental_uris": {"ios": "https://dc.lft.to/lastmile_qr_scan", "android": "https://dc.lft.to/lastmile_qr_scan"}, "is_disabled": 0, "is_reserved": 0}, {"bike_id": "3763f6aeedda32cc6ab643c01cd3f350", "type": "electric_scooter", "fusion_lat": 0.0, "lat": 38.901234333333335, "lon": -77.043573, "fusion_lon": 0.0, "name": "3763f6aeedda32cc6ab643c01cd3f350", "rental_uris": {"ios": "https://dc.lft.to/lastmile_qr_scan", "android": "https://dc.lft.to/lastmile_qr_scan"}, "is_disabled": 0, "is_reserved": 0}, {"bike_id": "ff75c84e7d4efd8fe28807ff635e7fe5", "type": "electric_scooter", "fusion_lat": 0.0, "lat": 38.89957966666667, "lon": -77.046844, "fusion_lon": 0.0, "name": "ff75c84e7d4efd8fe28807ff635e7fe5", "rental_uris": {"ios": "https://dc.lft.to/lastmile_qr_scan", "android": "https://dc.lft.to/lastmile_qr_scan"}, "is_disabled": 0, "is_reserved": 0}, {"bike_id": "16f88eac5a989840c1af12466a3ba52d", "type": "electric_scooter", "fusion_lat": 0.0, "lat": 38.90152, "lon": -77.02716866666667, "fusion_lon": 0.0, "name": "16f88eac5a989840c1af12466a3ba52d", "rental_uris": {"ios": "https://dc.lft.to/lastmile_qr_scan", "android": "https://dc.lft.to/lastmile_qr_scan"}, "is_disabled": 0, "is_reserved": 0}, {"bike_id": "21d707dc5c29576e475f7648cf398389", "type": "electric_scooter", "fusion_lat": 0.0, "lat": 38.901538333333335, "lon": -77.05307616666667, "fusion_lon": 0.0, "name": "21d707dc5c29576e475f7648cf398389", "rental_uris": {"ios": "https://dc.lft.to/lastmile_qr_scan", "android": "https://dc.lft.to/lastmile_qr_scan"}, "is_disabled": 0, "is_reserved": 0}, {"bike_id": "66f2cdd331805d1cdd7cc08b607861c4", "type": "electric_bike", "fusion_lat": 0.0, "lat": 38.896189166666666, "lon": -76.90747466666667, "fusion_lon": 0.0, "name": "66f2cdd331805d1cdd7cc08b607861c4", "rental_uris": {"ios": "https://dc.lft.to/lastmile_qr_scan", "android": "https://dc.lft.to/lastmile_qr_scan"}, "is_disabled": 0, "is_reserved": 0}, {"bike_id": "3639d55774b790ca683adcbe48937400", "type": "electric_scooter", "fusion_lat": 0.0, "lat": 38.90969166666667, "lon": -77.04458833333334, "fusion_lon": 0.0, "name": "3639d55774b790ca683adcbe48937400", "rental_uris": {"ios": "https://dc.lft.to/lastmile_qr_scan", "android": "https://dc.lft.to/lastmile_qr_scan"}, "is_disabled": 0, "is_reserved": 0}, {"bike_id": "f87270351713954c604e45d4791a0a34", "type": "electric_scooter", "fusion_lat": 0.0, "lat": 38.926509, "lon": -77.03708833333333, "fusion_lon": 0.0, "name": "f87270351713954c604e45d4791a0a34", "rental_uris": {"ios": "https://dc.lft.to/lastmile_qr_scan", "android": "https://dc.lft.to/lastmile_qr_scan"}, "is_disabled": 0, "is_reserved": 0}, {"bike_id": "d99832be447afca0e866973a0f0b3b73", "type": "electric_scooter", "fusion_lat": 0.0, "lat": 38.91692483333333, "lon": -77.03641133333333, "fusion_lon": 0.0, "name": "d99832be447afca0e866973a0f0b3b73", "rental_uris": {"ios": "https://dc.lft.to/lastmile_qr_scan", "android": "https://dc.lft.to/lastmile_qr_scan"}, "is_disabled": 0, "is_reserved": 0}, {"bike_id": "e84ad4e3546a27a46499b7f8c7bb77d5", "type": "electric_scooter", "fusion_lat": 0.0, "lat": 38.95412533333333, "lon": -77.0275115, "fusion_lon": 0.0, "name": "e84ad4e3546a27a46499b7f8c7bb77d5", "rental_uris": {"ios": "https://dc.lft.to/lastmile_qr_scan", "android": "https://dc.lft.to/lastmile_qr_scan"}, "is_disabled": 0, "is_reserved": 0}, {"bike_id": "9301f5b05ed1c2bcbb1cec4a4eaca593", "type": "electric_scooter", "fusion_lat": 0.0, "lat": 38.92257216666667, "lon": -77.01930633333333, "fusion_lon": 0.0, "name": "9301f5b05ed1c2bcbb1cec4a4eaca593", "rental_uris": {"ios": "https://dc.lft.to/lastmile_qr_scan", "android": "https://dc.lft.to/lastmile_qr_scan"}, "is_disabled": 0, "is_reserved": 0}, {"bike_id": "78e6e47c1822cebb3c1d510361f039ae", "type": "electric_scooter", "fusion_lat": 0.0, "lat": 38.930681, "lon": -77.03803216666667, "fusion_lon": 0.0, "name": "78e6e47c1822cebb3c1d510361f039ae", "rental_uris": {"ios": "https://dc.lft.to/lastmile_qr_scan", "android": "https://dc.lft.to/lastmile_qr_scan"}, "is_disabled": 0, "is_reserved": 0}, {"bike_id": "f8a576a143887e71d6e27a333029347f", "type": "electric_scooter", "fusion_lat": 0.0, "lat": 38.875433666666666, "lon": -77.00534133333333, "fusion_lon": 0.0, "name": "f8a576a143887e71d6e27a333029347f", "rental_uris": {"ios": "https://dc.lft.to/lastmile_qr_scan", "android": "https://dc.lft.to/lastmile_qr_scan"}, "is_disabled": 0, "is_reserved": 0}, {"bike_id": "31c6f91047797ef37e4dd5c8003f8988", "type": "electric_scooter", "fusion_lat": 0.0, "lat": 38.89828466666667, "lon": -77.04339333333333, "fusion_lon": 0.0, "name": "31c6f91047797ef37e4dd5c8003f8988", "rental_uris": {"ios": "https://dc.lft.to/lastmile_qr_scan", "android": "https://dc.lft.to/lastmile_qr_scan"}, "is_disabled": 0, "is_reserved": 0}, {"bike_id": "2002a2fc0ac053cf4e321fc759d3f45e", "type": "electric_scooter", "fusion_lat": 0.0, "lat": 38.91350766666667, "lon": -76.971377, "fusion_lon": 0.0, "name": "2002a2fc0ac053cf4e321fc759d3f45e", "rental_uris": {"ios": "https://dc.lft.to/lastmile_qr_scan", "android": "https://dc.lft.to/lastmile_qr_scan"}, "is_disabled": 0, "is_reserved": 0}, {"bike_id": "288ee71dd57099592ee8c89333490da1", "type": "electric_scooter", "fusion_lat": 0.0, "lat": 38.89733433333333, "lon": -77.02684783333333, "fusion_lon": 0.0, "name": "288ee71dd57099592ee8c89333490da1", "rental_uris": {"ios": "https://dc.lft.to/lastmile_qr_scan", "android": "https://dc.lft.to/lastmile_qr_scan"}, "is_disabled": 0, "is_reserved": 0}, {"bike_id": "8dad7e8b60f0757bbdaeef06c1818dbe", "type": "electric_scooter", "fusion_lat": 0.0, "lat": 38.88353583333333, "lon": -76.95768166666667, "fusion_lon": 0.0, "name": "8dad7e8b60f0757bbdaeef06c1818dbe", "rental_uris": {"ios": "https://dc.lft.to/lastmile_qr_scan", "android": "https://dc.lft.to/lastmile_qr_scan"}, "is_disabled": 0, "is_reserved": 0}, {"bike_id": "b3050362d38e8427cad7339eee88e4d6", "type": "electric_scooter", "fusion_lat": 0.0, "lat": 38.91112016666666, "lon": -77.00603483333333, "fusion_lon": 0.0, "name": "b3050362d38e8427cad7339eee88e4d6", "rental_uris": {"ios": "https://dc.lft.to/lastmile_qr_scan", "android": "https://dc.lft.to/lastmile_qr_scan"}, "is_disabled": 0, "is_reserved": 0}, {"bike_id": "aec65f31ec7418541ac329a94fc88d54", "type": "electric_scooter", "fusion_lat": 0.0, "lat": 38.902759, "lon": -77.03951166666667, "fusion_lon": 0.0, "name": "aec65f31ec7418541ac329a94fc88d54", "rental_uris": {"ios": "https://dc.lft.to/lastmile_qr_scan", "android": "https://dc.lft.to/lastmile_qr_scan"}, "is_disabled": 0, "is_reserved": 0}, {"bike_id": "b9dc6a1bd0ecee5e7821e7b6b01ebc39", "type": "electric_scooter", "fusion_lat": 0.0, "lat": 38.92483933333333, "lon": -77.0222235, "fusion_lon": 0.0, "name": "b9dc6a1bd0ecee5e7821e7b6b01ebc39", "rental_uris": {"ios": "https://dc.lft.to/lastmile_qr_scan", "android": "https://dc.lft.to/lastmile_qr_scan"}, "is_disabled": 0, "is_reserved": 0}, {"bike_id": "dee752fc516a57d3c55f67e6897f9530", "type": "electric_scooter", "fusion_lat": 0.0, "lat": 38.892239833333335, "lon": -77.0317045, "fusion_lon": 0.0, "name": "dee752fc516a57d3c55f67e6897f9530", "rental_uris": {"ios": "https://dc.lft.to/lastmile_qr_scan", "android": "https://dc.lft.to/lastmile_qr_scan"}, "is_disabled": 0, "is_reserved": 0}, {"bike_id": "a2040103f0b7031eaf22f0a48eca3db2", "type": "electric_scooter", "fusion_lat": 0.0, "lat": 38.8993995, "lon": -77.03213216666667, "fusion_lon": 0.0, "name": "a2040103f0b7031eaf22f0a48eca3db2", "rental_uris": {"ios": "https://dc.lft.to/lastmile_qr_scan", "android": "https://dc.lft.to/lastmile_qr_scan"}, "is_disabled": 0, "is_reserved": 0}, {"bike_id": "df338b73bec88d88bc5fc2affeccb95e", "type": "electric_scooter", "fusion_lat": 0.0, "lat": 38.90777583333333, "lon": -77.0724345, "fusion_lon": 0.0, "name": "df338b73bec88d88bc5fc2affeccb95e", "rental_uris": {"ios": "https://dc.lft.to/lastmile_qr_scan", "android": "https://dc.lft.to/lastmile_qr_scan"}, "is_disabled": 0, "is_reserved": 0}, {"bike_id": "5982b042a51d870e7d36240b85287446", "type": "electric_scooter", "fusion_lat": 0.0, "lat": 38.908428666666666, "lon": -77.03995766666667, "fusion_lon": 0.0, "name": "5982b042a51d870e7d36240b85287446", "rental_uris": {"ios": "https://dc.lft.to/lastmile_qr_scan", "android": "https://dc.lft.to/lastmile_qr_scan"}, "is_disabled": 0, "is_reserved": 0}, {"bike_id": "7406d0e32b937041ad52a4c0fd9ccf4a", "type": "electric_scooter", "fusion_lat": 0.0, "lat": 38.90980483333333, "lon": -77.00887216666666, "fusion_lon": 0.0, "name": "7406d0e32b937041ad52a4c0fd9ccf4a", "rental_uris": {"ios": "https://dc.lft.to/lastmile_qr_scan", "android": "https://dc.lft.to/lastmile_qr_scan"}, "is_disabled": 0, "is_reserved": 0}, {"bike_id": "a6ca5b229e777b1157d303f008fddddc", "type": "electric_scooter", "fusion_lat": 0.0, "lat": 38.89469416666667, "lon": -77.01751616666667, "fusion_lon": 0.0, "name": "a6ca5b229e777b1157d303f008fddddc", "rental_uris": {"ios": "https://dc.lft.to/lastmile_qr_scan", "android": "https://dc.lft.to/lastmile_qr_scan"}, "is_disabled": 0, "is_reserved": 0}, {"bike_id": "beb606573ea27ced3e34c2c1c420a145", "type": "electric_scooter", "fusion_lat": 0.0, "lat": 38.9209725, "lon": -77.02519116666667, "fusion_lon": 0.0, "name": "beb606573ea27ced3e34c2c1c420a145", "rental_uris": {"ios": "https://dc.lft.to/lastmile_qr_scan", "android": "https://dc.lft.to/lastmile_qr_scan"}, "is_disabled": 0, "is_reserved": 0}, {"bike_id": "497f26038466fee6484f585d56a50f30", "type": "electric_scooter", "fusion_lat": 0.0, "lat": 38.887435333333336, "lon": -77.02857916666666, "fusion_lon": 0.0, "name": "497f26038466fee6484f585d56a50f30", "rental_uris": {"ios": "https://dc.lft.to/lastmile_qr_scan", "android": "https://dc.lft.to/lastmile_qr_scan"}, "is_disabled": 0, "is_reserved": 0}, {"bike_id": "99b93fa6f8de60f0457baac6915fb9ee", "type": "electric_scooter", "fusion_lat": 0.0, "lat": 38.919243, "lon": -77.0342425, "fusion_lon": 0.0, "name": "99b93fa6f8de60f0457baac6915fb9ee", "rental_uris": {"ios": "https://dc.lft.to/lastmile_qr_scan", "android": "https://dc.lft.to/lastmile_qr_scan"}, "is_disabled": 0, "is_reserved": 0}, {"bike_id": "fc737c21f15cd607e6393a9b2219cf54", "type": "electric_scooter", "fusion_lat": 0.0, "lat": 38.920732666666666, "lon": -77.04379633333333, "fusion_lon": 0.0, "name": "fc737c21f15cd607e6393a9b2219cf54", "rental_uris": {"ios": "https://dc.lft.to/lastmile_qr_scan", "android": "https://dc.lft.to/lastmile_qr_scan"}, "is_disabled": 0, "is_reserved": 0}, {"bike_id": "3a3c9cfff4da7eb1ad9254e74692df01", "type": "electric_scooter", "fusion_lat": 0.0, "lat": 38.92686583333333, "lon": -77.02789666666666, "fusion_lon": 0.0, "name": "3a3c9cfff4da7eb1ad9254e74692df01", "rental_uris": {"ios": "https://dc.lft.to/lastmile_qr_scan", "android": "https://dc.lft.to/lastmile_qr_scan"}, "is_disabled": 0, "is_reserved": 0}, {"bike_id": "7949186fb17c88a2803df73acb1fd0f0", "type": "electric_scooter", "fusion_lat": 0.0, "lat": 38.883486166666664, "lon": -77.01595233333333, "fusion_lon": 0.0, "name": "7949186fb17c88a2803df73acb1fd0f0", "rental_uris": {"ios": "https://dc.lft.to/lastmile_qr_scan", "android": "https://dc.lft.to/lastmile_qr_scan"}, "is_disabled": 0, "is_reserved": 0}, {"bike_id": "73b9b2499c18f2db5241eee733bceeb1", "type": "electric_scooter", "fusion_lat": 0.0, "lat": 38.8991005, "lon": -77.04154883333334, "fusion_lon": 0.0, "name": "73b9b2499c18f2db5241eee733bceeb1", "rental_uris": {"ios": "https://dc.lft.to/lastmile_qr_scan", "android": "https://dc.lft.to/lastmile_qr_scan"}, "is_disabled": 0, "is_reserved": 0}, {"bike_id": "77206d4df9b7e6d154614bdf1c50028a", "type": "electric_scooter", "fusion_lat": 0.0, "lat": 38.901992, "lon": -77.04720716666667, "fusion_lon": 0.0, "name": "77206d4df9b7e6d154614bdf1c50028a", "rental_uris": {"ios": "https://dc.lft.to/lastmile_qr_scan", "android": "https://dc.lft.to/lastmile_qr_scan"}, "is_disabled": 0, "is_reserved": 0}, {"bike_id": "524208bd293800b6afb9f5096538ae34", "type": "electric_scooter", "fusion_lat": 0.0, "lat": 38.893977166666666, "lon": -76.97817466666666, "fusion_lon": 0.0, "name": "524208bd293800b6afb9f5096538ae34", "rental_uris": {"ios": "https://dc.lft.to/lastmile_qr_scan", "android": "https://dc.lft.to/lastmile_qr_scan"}, "is_disabled": 0, "is_reserved": 0}, {"bike_id": "182bcd5de6c7a63d0b527596d31e9ec1", "type": "electric_bike", "fusion_lat": 0.0, "lat": 38.8097805, "lon": -77.07659733333334, "fusion_lon": 0.0, "name": "182bcd5de6c7a63d0b527596d31e9ec1", "rental_uris": {"ios": "https://dc.lft.to/lastmile_qr_scan", "android": "https://dc.lft.to/lastmile_qr_scan"}, "is_disabled": 0, "is_reserved": 0}, {"bike_id": "3fb1f125d3815ce4e296c3d538e681c8", "type": "electric_scooter", "fusion_lat": 0.0, "lat": 38.92405483333334, "lon": -77.02140583333333, "fusion_lon": 0.0, "name": "3fb1f125d3815ce4e296c3d538e681c8", "rental_uris": {"ios": "https://dc.lft.to/lastmile_qr_scan", "android": "https://dc.lft.to/lastmile_qr_scan"}, "is_disabled": 0, "is_reserved": 0}, {"bike_id": "fd654f4f053509529ce3aa5b801c77d6", "type": "electric_scooter", "fusion_lat": 0.0, "lat": 38.8984015, "lon": -77.04185066666666, "fusion_lon": 0.0, "name": "fd654f4f053509529ce3aa5b801c77d6", "rental_uris": {"ios": "https://dc.lft.to/lastmile_qr_scan", "android": "https://dc.lft.to/lastmile_qr_scan"}, "is_disabled": 0, "is_reserved": 0}, {"bike_id": "ac9f25b290e0daedc33e9af25acaae49", "type": "electric_scooter", "fusion_lat": 0.0, "lat": 38.92413366666667, "lon": -77.02008883333333, "fusion_lon": 0.0, "name": "ac9f25b290e0daedc33e9af25acaae49", "rental_uris": {"ios": "https://dc.lft.to/lastmile_qr_scan", "android": "https://dc.lft.to/lastmile_qr_scan"}, "is_disabled": 0, "is_reserved": 0}, {"bike_id": "0922d2562c5cd79057fed4afa3c481f2", "type": "electric_scooter", "fusion_lat": 0.0, "lat": 38.89839683333334, "lon": -77.04667483333333, "fusion_lon": 0.0, "name": "0922d2562c5cd79057fed4afa3c481f2", "rental_uris": {"ios": "https://dc.lft.to/lastmile_qr_scan", "android": "https://dc.lft.to/lastmile_qr_scan"}, "is_disabled": 0, "is_reserved": 0}, {"bike_id": "d8683981ea6ca4ca2600359601da57c7", "type": "electric_scooter", "fusion_lat": 0.0, "lat": 38.917007166666664, "lon": -77.037713, "fusion_lon": 0.0, "name": "d8683981ea6ca4ca2600359601da57c7", "rental_uris": {"ios": "https://dc.lft.to/lastmile_qr_scan", "android": "https://dc.lft.to/lastmile_qr_scan"}, "is_disabled": 0, "is_reserved": 0}, {"bike_id": "ec757335a58e18b4194eddf9b5bf4309", "type": "electric_scooter", "fusion_lat": 0.0, "lat": 38.8950725, "lon": -76.94886383333333, "fusion_lon": 0.0, "name": "ec757335a58e18b4194eddf9b5bf4309", "rental_uris": {"ios": "https://dc.lft.to/lastmile_qr_scan", "android": "https://dc.lft.to/lastmile_qr_scan"}, "is_disabled": 0, "is_reserved": 0}, {"bike_id": "58ecdb4a4dfc52db65ae6a21b2a9de06", "type": "electric_scooter", "fusion_lat": 0.0, "lat": 38.959189, "lon": -77.022971, "fusion_lon": 0.0, "name": "58ecdb4a4dfc52db65ae6a21b2a9de06", "rental_uris": {"ios": "https://dc.lft.to/lastmile_qr_scan", "android": "https://dc.lft.to/lastmile_qr_scan"}, "is_disabled": 0, "is_reserved": 0}, {"bike_id": "bb53b3a0e80bf63e9caa7e51b55b8734", "type": "electric_scooter", "fusion_lat": 0.0, "lat": 38.900892166666665, "lon": -77.03444566666667, "fusion_lon": 0.0, "name": "bb53b3a0e80bf63e9caa7e51b55b8734", "rental_uris": {"ios": "https://dc.lft.to/lastmile_qr_scan", "android": "https://dc.lft.to/lastmile_qr_scan"}, "is_disabled": 0, "is_reserved": 0}, {"bike_id": "cdf365668f0eb1c9268f2fca124c0489", "type": "electric_scooter", "fusion_lat": 0.0, "lat": 38.892284, "lon": -77.049996, "fusion_lon": 0.0, "name": "cdf365668f0eb1c9268f2fca124c0489", "rental_uris": {"ios": "https://dc.lft.to/lastmile_qr_scan", "android": "https://dc.lft.to/lastmile_qr_scan"}, "is_disabled": 0, "is_reserved": 0}, {"bike_id": "d97cf3c540ed318877d4ad6d926e550a", "type": "electric_bike", "fusion_lat": 0.0, "lat": 38.865154, "lon": -76.9731755, "fusion_lon": 0.0, "name": "d97cf3c540ed318877d4ad6d926e550a", "rental_uris": {"ios": "https://dc.lft.to/lastmile_qr_scan", "android": "https://dc.lft.to/lastmile_qr_scan"}, "is_disabled": 0, "is_reserved": 0}, {"bike_id": "38eb41fd60ab49e2cafd97f0bc4fcd60", "type": "electric_scooter", "fusion_lat": 0.0, "lat": 38.94190433333333, "lon": -77.024048, "fusion_lon": 0.0, "name": "38eb41fd60ab49e2cafd97f0bc4fcd60", "rental_uris": {"ios": "https://dc.lft.to/lastmile_qr_scan", "android": "https://dc.lft.to/lastmile_qr_scan"}, "is_disabled": 0, "is_reserved": 0}, {"bike_id": "8bc660747896e2620ebfdc81d43be827", "type": "electric_scooter", "fusion_lat": 0.0, "lat": 38.907612666666665, "lon": -77.01696416666667, "fusion_lon": 0.0, "name": "8bc660747896e2620ebfdc81d43be827", "rental_uris": {"ios": "https://dc.lft.to/lastmile_qr_scan", "android": "https://dc.lft.to/lastmile_qr_scan"}, "is_disabled": 0, "is_reserved": 0}, {"bike_id": "d84ddf0b310f57734a7c7b2e2288d296", "type": "electric_scooter", "fusion_lat": 0.0, "lat": 38.9237675, "lon": -77.0352695, "fusion_lon": 0.0, "name": "d84ddf0b310f57734a7c7b2e2288d296", "rental_uris": {"ios": "https://dc.lft.to/lastmile_qr_scan", "android": "https://dc.lft.to/lastmile_qr_scan"}, "is_disabled": 0, "is_reserved": 0}, {"bike_id": "913d66a4ae1d0f3b0e38ac10796a6fe4", "type": "electric_scooter", "fusion_lat": 0.0, "lat": 38.893614666666664, "lon": -77.003333, "fusion_lon": 0.0, "name": "913d66a4ae1d0f3b0e38ac10796a6fe4", "rental_uris": {"ios": "https://dc.lft.to/lastmile_qr_scan", "android": "https://dc.lft.to/lastmile_qr_scan"}, "is_disabled": 0, "is_reserved": 0}, {"bike_id": "791bdeb0ec071fce567e410c6859320e", "type": "electric_bike", "fusion_lat": 0.0, "lat": 38.8773995, "lon": -77.1486955, "fusion_lon": 0.0, "name": "791bdeb0ec071fce567e410c6859320e", "rental_uris": {"ios": "https://dc.lft.to/lastmile_qr_scan", "android": "https://dc.lft.to/lastmile_qr_scan"}, "is_disabled": 0, "is_reserved": 0}, {"bike_id": "e1c4816971c922ad792c64ba6692a6b2", "type": "electric_scooter", "fusion_lat": 0.0, "lat": 38.91179283333334, "lon": -77.0750855, "fusion_lon": 0.0, "name": "e1c4816971c922ad792c64ba6692a6b2", "rental_uris": {"ios": "https://dc.lft.to/lastmile_qr_scan", "android": "https://dc.lft.to/lastmile_qr_scan"}, "is_disabled": 0, "is_reserved": 0}, {"bike_id": "b05c0b49223dd1f998f8972f670290f4", "type": "electric_scooter", "fusion_lat": 0.0, "lat": 38.898901333333335, "lon": -77.04562333333334, "fusion_lon": 0.0, "name": "b05c0b49223dd1f998f8972f670290f4", "rental_uris": {"ios": "https://dc.lft.to/lastmile_qr_scan", "android": "https://dc.lft.to/lastmile_qr_scan"}, "is_disabled": 0, "is_reserved": 0}, {"bike_id": "0a1430e40a58a7b03d26fbea50ac8853", "type": "electric_scooter", "fusion_lat": 0.0, "lat": 38.90151766666666, "lon": -77.039243, "fusion_lon": 0.0, "name": "0a1430e40a58a7b03d26fbea50ac8853", "rental_uris": {"ios": "https://dc.lft.to/lastmile_qr_scan", "android": "https://dc.lft.to/lastmile_qr_scan"}, "is_disabled": 0, "is_reserved": 0}, {"bike_id": "c008d1107f1c4a3fc28043b82d811ef6", "type": "electric_bike", "fusion_lat": 0.0, "lat": 38.89815733333333, "lon": -76.9906675, "fusion_lon": 0.0, "name": "c008d1107f1c4a3fc28043b82d811ef6", "rental_uris": {"ios": "https://dc.lft.to/lastmile_qr_scan", "android": "https://dc.lft.to/lastmile_qr_scan"}, "is_disabled": 0, "is_reserved": 0}, {"bike_id": "42b00a88b4e49c777f6929c2af8a99b1", "type": "electric_scooter", "fusion_lat": 0.0, "lat": 38.90047466666667, "lon": -77.0412305, "fusion_lon": 0.0, "name": "42b00a88b4e49c777f6929c2af8a99b1", "rental_uris": {"ios": "https://dc.lft.to/lastmile_qr_scan", "android": "https://dc.lft.to/lastmile_qr_scan"}, "is_disabled": 0, "is_reserved": 0}, {"bike_id": "f50c72b1423f3d535bd8a6877e73dbcc", "type": "electric_scooter", "fusion_lat": 0.0, "lat": 38.9247175, "lon": -77.03730266666666, "fusion_lon": 0.0, "name": "f50c72b1423f3d535bd8a6877e73dbcc", "rental_uris": {"ios": "https://dc.lft.to/lastmile_qr_scan", "android": "https://dc.lft.to/lastmile_qr_scan"}, "is_disabled": 0, "is_reserved": 0}, {"bike_id": "58f0c6057ed8ae071e4149ba7585dc4c", "type": "electric_bike", "fusion_lat": 0.0, "lat": 38.812392833333334, "lon": -77.04070833333333, "fusion_lon": 0.0, "name": "58f0c6057ed8ae071e4149ba7585dc4c", "rental_uris": {"ios": "https://dc.lft.to/lastmile_qr_scan", "android": "https://dc.lft.to/lastmile_qr_scan"}, "is_disabled": 0, "is_reserved": 0}, {"bike_id": "21a801676bab8db361a9e4a874ff3d50", "type": "electric_scooter", "fusion_lat": 0.0, "lat": 38.9234205, "lon": -77.01896316666667, "fusion_lon": 0.0, "name": "21a801676bab8db361a9e4a874ff3d50", "rental_uris": {"ios": "https://dc.lft.to/lastmile_qr_scan", "android": "https://dc.lft.to/lastmile_qr_scan"}, "is_disabled": 0, "is_reserved": 0}, {"bike_id": "530ee73f93c01601e2d07ae89c4c91a9", "type": "electric_scooter", "fusion_lat": 0.0, "lat": 38.89738933333334, "lon": -77.0267975, "fusion_lon": 0.0, "name": "530ee73f93c01601e2d07ae89c4c91a9", "rental_uris": {"ios": "https://dc.lft.to/lastmile_qr_scan", "android": "https://dc.lft.to/lastmile_qr_scan"}, "is_disabled": 0, "is_reserved": 0}, {"bike_id": "d7c7175207ccd924286c2659513f1bae", "type": "electric_scooter", "fusion_lat": 0.0, "lat": 38.900138, "lon": -77.00213416666666, "fusion_lon": 0.0, "name": "d7c7175207ccd924286c2659513f1bae", "rental_uris": {"ios": "https://dc.lft.to/lastmile_qr_scan", "android": "https://dc.lft.to/lastmile_qr_scan"}, "is_disabled": 0, "is_reserved": 0}, {"bike_id": "40570b5ef1efc421abe8f0b85409c6eb", "type": "electric_scooter", "fusion_lat": 0.0, "lat": 38.9048135, "lon": -77.03562883333333, "fusion_lon": 0.0, "name": "40570b5ef1efc421abe8f0b85409c6eb", "rental_uris": {"ios": "https://dc.lft.to/lastmile_qr_scan", "android": "https://dc.lft.to/lastmile_qr_scan"}, "is_disabled": 0, "is_reserved": 0}, {"bike_id": "834f0c1a6890bfe43e740a579d763618", "type": "electric_scooter", "fusion_lat": 0.0, "lat": 38.883289166666664, "lon": -77.029922, "fusion_lon": 0.0, "name": "834f0c1a6890bfe43e740a579d763618", "rental_uris": {"ios": "https://dc.lft.to/lastmile_qr_scan", "android": "https://dc.lft.to/lastmile_qr_scan"}, "is_disabled": 0, "is_reserved": 0}, {"bike_id": "e9e043d43a4ee60ff44a71ed883053ac", "type": "electric_scooter", "fusion_lat": 0.0, "lat": 38.9032925, "lon": -77.03311083333334, "fusion_lon": 0.0, "name": "e9e043d43a4ee60ff44a71ed883053ac", "rental_uris": {"ios": "https://dc.lft.to/lastmile_qr_scan", "android": "https://dc.lft.to/lastmile_qr_scan"}, "is_disabled": 0, "is_reserved": 0}, {"bike_id": "ac20355d4a67f5d4fbd9d640bc9f9c12", "type": "electric_scooter", "fusion_lat": 0.0, "lat": 38.901743833333335, "lon": -77.05090333333334, "fusion_lon": 0.0, "name": "ac20355d4a67f5d4fbd9d640bc9f9c12", "rental_uris": {"ios": "https://dc.lft.to/lastmile_qr_scan", "android": "https://dc.lft.to/lastmile_qr_scan"}, "is_disabled": 0, "is_reserved": 0}, {"bike_id": "07b4f8edad97758272854d7250e3610b", "type": "electric_scooter", "fusion_lat": 0.0, "lat": 38.92583183333333, "lon": -77.0440795, "fusion_lon": 0.0, "name": "07b4f8edad97758272854d7250e3610b", "rental_uris": {"ios": "https://dc.lft.to/lastmile_qr_scan", "android": "https://dc.lft.to/lastmile_qr_scan"}, "is_disabled": 0, "is_reserved": 0}, {"bike_id": "9a0510bfb4ef7722afc3fce8dffda911", "type": "electric_scooter", "fusion_lat": 0.0, "lat": 38.94610083333333, "lon": -77.08018866666667, "fusion_lon": 0.0, "name": "9a0510bfb4ef7722afc3fce8dffda911", "rental_uris": {"ios": "https://dc.lft.to/lastmile_qr_scan", "android": "https://dc.lft.to/lastmile_qr_scan"}, "is_disabled": 0, "is_reserved": 0}, {"bike_id": "b3cc6ce70225002d7a6721690c97ac83", "type": "electric_scooter", "fusion_lat": 0.0, "lat": 38.89756783333333, "lon": -76.92587083333333, "fusion_lon": 0.0, "name": "b3cc6ce70225002d7a6721690c97ac83", "rental_uris": {"ios": "https://dc.lft.to/lastmile_qr_scan", "android": "https://dc.lft.to/lastmile_qr_scan"}, "is_disabled": 0, "is_reserved": 0}, {"bike_id": "43c570de3b3d41c0ca037caddf60cc75", "type": "electric_scooter", "fusion_lat": 0.0, "lat": 38.8999265, "lon": -76.99014866666667, "fusion_lon": 0.0, "name": "43c570de3b3d41c0ca037caddf60cc75", "rental_uris": {"ios": "https://dc.lft.to/lastmile_qr_scan", "android": "https://dc.lft.to/lastmile_qr_scan"}, "is_disabled": 0, "is_reserved": 0}, {"bike_id": "84dceaf3376e7f4eda7a4455892368cf", "type": "electric_scooter", "fusion_lat": 0.0, "lat": 38.90026533333333, "lon": -76.98858483333333, "fusion_lon": 0.0, "name": "84dceaf3376e7f4eda7a4455892368cf", "rental_uris": {"ios": "https://dc.lft.to/lastmile_qr_scan", "android": "https://dc.lft.to/lastmile_qr_scan"}, "is_disabled": 0, "is_reserved": 0}, {"bike_id": "1adcebb19fbf3aaf8c4304be8cf2c1cb", "type": "electric_scooter", "fusion_lat": 0.0, "lat": 38.90357216666666, "lon": -77.01101583333333, "fusion_lon": 0.0, "name": "1adcebb19fbf3aaf8c4304be8cf2c1cb", "rental_uris": {"ios": "https://dc.lft.to/lastmile_qr_scan", "android": "https://dc.lft.to/lastmile_qr_scan"}, "is_disabled": 0, "is_reserved": 0}, {"bike_id": "477bbfadbe4a37ed7fce4cd345b298c8", "type": "electric_scooter", "fusion_lat": 0.0, "lat": 38.90291416666667, "lon": -77.0211855, "fusion_lon": 0.0, "name": "477bbfadbe4a37ed7fce4cd345b298c8", "rental_uris": {"ios": "https://dc.lft.to/lastmile_qr_scan", "android": "https://dc.lft.to/lastmile_qr_scan"}, "is_disabled": 0, "is_reserved": 0}, {"bike_id": "b1eb14bce1e31c786166783bb58c9a28", "type": "electric_scooter", "fusion_lat": 0.0, "lat": 38.966242333333334, "lon": -77.01996283333334, "fusion_lon": 0.0, "name": "b1eb14bce1e31c786166783bb58c9a28", "rental_uris": {"ios": "https://dc.lft.to/lastmile_qr_scan", "android": "https://dc.lft.to/lastmile_qr_scan"}, "is_disabled": 0, "is_reserved": 0}, {"bike_id": "ef33d77022267b1402accf98b7f34677", "type": "electric_scooter", "fusion_lat": 0.0, "lat": 38.9041955, "lon": -77.04355666666666, "fusion_lon": 0.0, "name": "ef33d77022267b1402accf98b7f34677", "rental_uris": {"ios": "https://dc.lft.to/lastmile_qr_scan", "android": "https://dc.lft.to/lastmile_qr_scan"}, "is_disabled": 0, "is_reserved": 0}, {"bike_id": "4f5ae9df6b5e0266467cd4a4560e7f13", "type": "electric_scooter", "fusion_lat": 0.0, "lat": 38.9260015, "lon": -77.02156633333334, "fusion_lon": 0.0, "name": "4f5ae9df6b5e0266467cd4a4560e7f13", "rental_uris": {"ios": "https://dc.lft.to/lastmile_qr_scan", "android": "https://dc.lft.to/lastmile_qr_scan"}, "is_disabled": 0, "is_reserved": 0}, {"bike_id": "662f6fe963e9893055c6001c37f80cc8", "type": "electric_scooter", "fusion_lat": 0.0, "lat": 38.88049616666667, "lon": -76.93217066666666, "fusion_lon": 0.0, "name": "662f6fe963e9893055c6001c37f80cc8", "rental_uris": {"ios": "https://dc.lft.to/lastmile_qr_scan", "android": "https://dc.lft.to/lastmile_qr_scan"}, "is_disabled": 0, "is_reserved": 0}, {"bike_id": "227c3fc296b2b4de391447661bec78c3", "type": "electric_scooter", "fusion_lat": 0.0, "lat": 38.9271955, "lon": -77.06001916666666, "fusion_lon": 0.0, "name": "227c3fc296b2b4de391447661bec78c3", "rental_uris": {"ios": "https://dc.lft.to/lastmile_qr_scan", "android": "https://dc.lft.to/lastmile_qr_scan"}, "is_disabled": 0, "is_reserved": 0}, {"bike_id": "fa16d1632985c213bece6599f60be23c", "type": "electric_scooter", "fusion_lat": 0.0, "lat": 38.921354666666666, "lon": -77.02399966666667, "fusion_lon": 0.0, "name": "fa16d1632985c213bece6599f60be23c", "rental_uris": {"ios": "https://dc.lft.to/lastmile_qr_scan", "android": "https://dc.lft.to/lastmile_qr_scan"}, "is_disabled": 0, "is_reserved": 0}, {"bike_id": "5c2e6007f8fe5546fdf373db4fcf9cd1", "type": "electric_scooter", "fusion_lat": 0.0, "lat": 38.920817, "lon": -77.02320316666666, "fusion_lon": 0.0, "name": "5c2e6007f8fe5546fdf373db4fcf9cd1", "rental_uris": {"ios": "https://dc.lft.to/lastmile_qr_scan", "android": "https://dc.lft.to/lastmile_qr_scan"}, "is_disabled": 0, "is_reserved": 0}, {"bike_id": "28887a193ce8571b1ab893d2ed087003", "type": "electric_scooter", "fusion_lat": 0.0, "lat": 38.90000283333333, "lon": -77.02584833333333, "fusion_lon": 0.0, "name": "28887a193ce8571b1ab893d2ed087003", "rental_uris": {"ios": "https://dc.lft.to/lastmile_qr_scan", "android": "https://dc.lft.to/lastmile_qr_scan"}, "is_disabled": 0, "is_reserved": 0}, {"bike_id": "def59caa2cc953978575744d598cc4e8", "type": "electric_scooter", "fusion_lat": 0.0, "lat": 38.89610233333333, "lon": -77.02651666666667, "fusion_lon": 0.0, "name": "def59caa2cc953978575744d598cc4e8", "rental_uris": {"ios": "https://dc.lft.to/lastmile_qr_scan", "android": "https://dc.lft.to/lastmile_qr_scan"}, "is_disabled": 0, "is_reserved": 0}, {"bike_id": "bffd7b75a3305115b83cf037453395ce", "type": "electric_scooter", "fusion_lat": 0.0, "lat": 38.89919183333333, "lon": -77.03182066666666, "fusion_lon": 0.0, "name": "bffd7b75a3305115b83cf037453395ce", "rental_uris": {"ios": "https://dc.lft.to/lastmile_qr_scan", "android": "https://dc.lft.to/lastmile_qr_scan"}, "is_disabled": 0, "is_reserved": 0}, {"bike_id": "68b16d80ad6c1a65f284665e0b4afc56", "type": "electric_scooter", "fusion_lat": 0.0, "lat": 38.90891883333333, "lon": -76.98238316666666, "fusion_lon": 0.0, "name": "68b16d80ad6c1a65f284665e0b4afc56", "rental_uris": {"ios": "https://dc.lft.to/lastmile_qr_scan", "android": "https://dc.lft.to/lastmile_qr_scan"}, "is_disabled": 0, "is_reserved": 0}, {"bike_id": "2befc6edaaef6ac9d6b7343a5a789e2d", "type": "electric_scooter", "fusion_lat": 0.0, "lat": 38.92075883333333, "lon": -77.01813416666667, "fusion_lon": 0.0, "name": "2befc6edaaef6ac9d6b7343a5a789e2d", "rental_uris": {"ios": "https://dc.lft.to/lastmile_qr_scan", "android": "https://dc.lft.to/lastmile_qr_scan"}, "is_disabled": 0, "is_reserved": 0}, {"bike_id": "172ea6a3ddcfe6119bb910b15c418ca4", "type": "electric_scooter", "fusion_lat": 0.0, "lat": 38.89927133333333, "lon": -77.02171816666667, "fusion_lon": 0.0, "name": "172ea6a3ddcfe6119bb910b15c418ca4", "rental_uris": {"ios": "https://dc.lft.to/lastmile_qr_scan", "android": "https://dc.lft.to/lastmile_qr_scan"}, "is_disabled": 0, "is_reserved": 0}, {"bike_id": "9d24b7d707cb5c49f41ce91fd8c6c8df", "type": "electric_scooter", "fusion_lat": 0.0, "lat": 38.8881995, "lon": -76.9771715, "fusion_lon": 0.0, "name": "9d24b7d707cb5c49f41ce91fd8c6c8df", "rental_uris": {"ios": "https://dc.lft.to/lastmile_qr_scan", "android": "https://dc.lft.to/lastmile_qr_scan"}, "is_disabled": 0, "is_reserved": 0}, {"bike_id": "cae44607297ee2efa41dab6ec75a4a96", "type": "electric_scooter", "fusion_lat": 0.0, "lat": 38.91693216666667, "lon": -77.03507166666667, "fusion_lon": 0.0, "name": "cae44607297ee2efa41dab6ec75a4a96", "rental_uris": {"ios": "https://dc.lft.to/lastmile_qr_scan", "android": "https://dc.lft.to/lastmile_qr_scan"}, "is_disabled": 0, "is_reserved": 0}, {"bike_id": "6f076dfb50d72e01c943c33a1d938ada", "type": "electric_scooter", "fusion_lat": 0.0, "lat": 38.898905, "lon": -77.03264616666667, "fusion_lon": 0.0, "name": "6f076dfb50d72e01c943c33a1d938ada", "rental_uris": {"ios": "https://dc.lft.to/lastmile_qr_scan", "android": "https://dc.lft.to/lastmile_qr_scan"}, "is_disabled": 0, "is_reserved": 0}, {"bike_id": "2dc38d05d582c922915d979b420285f8", "type": "electric_scooter", "fusion_lat": 0.0, "lat": 38.906543166666665, "lon": -76.985976, "fusion_lon": 0.0, "name": "2dc38d05d582c922915d979b420285f8", "rental_uris": {"ios": "https://dc.lft.to/lastmile_qr_scan", "android": "https://dc.lft.to/lastmile_qr_scan"}, "is_disabled": 0, "is_reserved": 0}, {"bike_id": "cdce9947f856eb1e38e1438ebdb2c079", "type": "electric_scooter", "fusion_lat": 0.0, "lat": 38.924175, "lon": -77.02555783333334, "fusion_lon": 0.0, "name": "cdce9947f856eb1e38e1438ebdb2c079", "rental_uris": {"ios": "https://dc.lft.to/lastmile_qr_scan", "android": "https://dc.lft.to/lastmile_qr_scan"}, "is_disabled": 0, "is_reserved": 0}, {"bike_id": "0220147a36225552c51f7d3ced39eec1", "type": "electric_bike", "fusion_lat": 0.0, "lat": 38.99823716666667, "lon": -76.99789583333333, "fusion_lon": 0.0, "name": "0220147a36225552c51f7d3ced39eec1", "rental_uris": {"ios": "https://dc.lft.to/lastmile_qr_scan", "android": "https://dc.lft.to/lastmile_qr_scan"}, "is_disabled": 0, "is_reserved": 0}, {"bike_id": "c8936f99f18119c133da32ee0a80f9d7", "type": "electric_scooter", "fusion_lat": 0.0, "lat": 38.924925, "lon": -77.02176266666666, "fusion_lon": 0.0, "name": "c8936f99f18119c133da32ee0a80f9d7", "rental_uris": {"ios": "https://dc.lft.to/lastmile_qr_scan", "android": "https://dc.lft.to/lastmile_qr_scan"}, "is_disabled": 0, "is_reserved": 0}, {"bike_id": "68200b7b981f970379d25d0d23db0f8d", "type": "electric_scooter", "fusion_lat": 0.0, "lat": 38.863711, "lon": -76.990584, "fusion_lon": 0.0, "name": "68200b7b981f970379d25d0d23db0f8d", "rental_uris": {"ios": "https://dc.lft.to/lastmile_qr_scan", "android": "https://dc.lft.to/lastmile_qr_scan"}, "is_disabled": 0, "is_reserved": 0}, {"bike_id": "df7e23096de1588aaee0abdd3275a6fd", "type": "electric_scooter", "fusion_lat": 0.0, "lat": 38.906545, "lon": -76.98380283333333, "fusion_lon": 0.0, "name": "df7e23096de1588aaee0abdd3275a6fd", "rental_uris": {"ios": "https://dc.lft.to/lastmile_qr_scan", "android": "https://dc.lft.to/lastmile_qr_scan"}, "is_disabled": 0, "is_reserved": 0}, {"bike_id": "58f35a64f721ca8132e2eb8b463d3e15", "type": "electric_scooter", "fusion_lat": 0.0, "lat": 38.914714833333335, "lon": -76.9811175, "fusion_lon": 0.0, "name": "58f35a64f721ca8132e2eb8b463d3e15", "rental_uris": {"ios": "https://dc.lft.to/lastmile_qr_scan", "android": "https://dc.lft.to/lastmile_qr_scan"}, "is_disabled": 0, "is_reserved": 0}, {"bike_id": "da3982f4956094e7b3d0c6e04b218a3c", "type": "electric_scooter", "fusion_lat": 0.0, "lat": 38.89116683333334, "lon": -76.94381433333334, "fusion_lon": 0.0, "name": "da3982f4956094e7b3d0c6e04b218a3c", "rental_uris": {"ios": "https://dc.lft.to/lastmile_qr_scan", "android": "https://dc.lft.to/lastmile_qr_scan"}, "is_disabled": 0, "is_reserved": 0}, {"bike_id": "21c57b97d3f552ef419877729aedc719", "type": "electric_scooter", "fusion_lat": 0.0, "lat": 38.89919283333333, "lon": -77.03913566666667, "fusion_lon": 0.0, "name": "21c57b97d3f552ef419877729aedc719", "rental_uris": {"ios": "https://dc.lft.to/lastmile_qr_scan", "android": "https://dc.lft.to/lastmile_qr_scan"}, "is_disabled": 0, "is_reserved": 0}, {"bike_id": "69ae69d041f739eddc995539be06702b", "type": "electric_scooter", "fusion_lat": 0.0, "lat": 38.87216383333333, "lon": -77.00575633333334, "fusion_lon": 0.0, "name": "69ae69d041f739eddc995539be06702b", "rental_uris": {"ios": "https://dc.lft.to/lastmile_qr_scan", "android": "https://dc.lft.to/lastmile_qr_scan"}, "is_disabled": 0, "is_reserved": 0}, {"bike_id": "8af3d05e33c2aced38e9939b889eb381", "type": "electric_scooter", "fusion_lat": 0.0, "lat": 38.88509616666666, "lon": -77.00570583333334, "fusion_lon": 0.0, "name": "8af3d05e33c2aced38e9939b889eb381", "rental_uris": {"ios": "https://dc.lft.to/lastmile_qr_scan", "android": "https://dc.lft.to/lastmile_qr_scan"}, "is_disabled": 0, "is_reserved": 0}, {"bike_id": "48e7e433ae0c0702741ac4d71f46cf05", "type": "electric_bike", "fusion_lat": 0.0, "lat": 38.838111166666664, "lon": -77.0952245, "fusion_lon": 0.0, "name": "48e7e433ae0c0702741ac4d71f46cf05", "rental_uris": {"ios": "https://dc.lft.to/lastmile_qr_scan", "android": "https://dc.lft.to/lastmile_qr_scan"}, "is_disabled": 0, "is_reserved": 0}, {"bike_id": "1e05a1ade79a3e3e66ca97d4ffd89eea", "type": "electric_scooter", "fusion_lat": 0.0, "lat": 38.936079666666664, "lon": -77.08320633333334, "fusion_lon": 0.0, "name": "1e05a1ade79a3e3e66ca97d4ffd89eea", "rental_uris": {"ios": "https://dc.lft.to/lastmile_qr_scan", "android": "https://dc.lft.to/lastmile_qr_scan"}, "is_disabled": 0, "is_reserved": 0}, {"bike_id": "df38463765e8d05bc3a1e98a8962a86e", "type": "electric_scooter", "fusion_lat": 0.0, "lat": 38.90848783333333, "lon": -77.0399675, "fusion_lon": 0.0, "name": "df38463765e8d05bc3a1e98a8962a86e", "rental_uris": {"ios": "https://dc.lft.to/lastmile_qr_scan", "android": "https://dc.lft.to/lastmile_qr_scan"}, "is_disabled": 0, "is_reserved": 0}, {"bike_id": "47c5c1871df94961701520c80ac25cf3", "type": "electric_scooter", "fusion_lat": 0.0, "lat": 38.902875, "lon": -77.05042333333333, "fusion_lon": 0.0, "name": "47c5c1871df94961701520c80ac25cf3", "rental_uris": {"ios": "https://dc.lft.to/lastmile_qr_scan", "android": "https://dc.lft.to/lastmile_qr_scan"}, "is_disabled": 0, "is_reserved": 0}, {"bike_id": "89732e1166caed4741dacbc3ba7261ee", "type": "electric_scooter", "fusion_lat": 0.0, "lat": 38.91526233333333, "lon": -77.04453183333334, "fusion_lon": 0.0, "name": "89732e1166caed4741dacbc3ba7261ee", "rental_uris": {"ios": "https://dc.lft.to/lastmile_qr_scan", "android": "https://dc.lft.to/lastmile_qr_scan"}, "is_disabled": 0, "is_reserved": 0}, {"bike_id": "e16c9ca531035b07e387ea1209ce04b5", "type": "electric_scooter", "fusion_lat": 0.0, "lat": 38.923321, "lon": -77.04191133333333, "fusion_lon": 0.0, "name": "e16c9ca531035b07e387ea1209ce04b5", "rental_uris": {"ios": "https://dc.lft.to/lastmile_qr_scan", "android": "https://dc.lft.to/lastmile_qr_scan"}, "is_disabled": 0, "is_reserved": 0}, {"bike_id": "811666c6fad3a809b3b64ee6e3d94e52", "type": "electric_scooter", "fusion_lat": 0.0, "lat": 38.908259666666666, "lon": -76.99447166666667, "fusion_lon": 0.0, "name": "811666c6fad3a809b3b64ee6e3d94e52", "rental_uris": {"ios": "https://dc.lft.to/lastmile_qr_scan", "android": "https://dc.lft.to/lastmile_qr_scan"}, "is_disabled": 0, "is_reserved": 0}, {"bike_id": "2af9c62a9b34db16795a3d560665dfc7", "type": "electric_scooter", "fusion_lat": 0.0, "lat": 38.905929, "lon": -76.98797216666667, "fusion_lon": 0.0, "name": "2af9c62a9b34db16795a3d560665dfc7", "rental_uris": {"ios": "https://dc.lft.to/lastmile_qr_scan", "android": "https://dc.lft.to/lastmile_qr_scan"}, "is_disabled": 0, "is_reserved": 0}, {"bike_id": "99efb06e6298cfde353688e55ac851a3", "type": "electric_scooter", "fusion_lat": 0.0, "lat": 38.919054833333334, "lon": -77.0208205, "fusion_lon": 0.0, "name": "99efb06e6298cfde353688e55ac851a3", "rental_uris": {"ios": "https://dc.lft.to/lastmile_qr_scan", "android": "https://dc.lft.to/lastmile_qr_scan"}, "is_disabled": 0, "is_reserved": 0}, {"bike_id": "f810488aa984b73b96226a2a759d6d31", "type": "electric_scooter", "fusion_lat": 0.0, "lat": 38.90613466666667, "lon": -77.005779, "fusion_lon": 0.0, "name": "f810488aa984b73b96226a2a759d6d31", "rental_uris": {"ios": "https://dc.lft.to/lastmile_qr_scan", "android": "https://dc.lft.to/lastmile_qr_scan"}, "is_disabled": 0, "is_reserved": 0}, {"bike_id": "12831db9dbb1418e45511d26ed564ae6", "type": "electric_scooter", "fusion_lat": 0.0, "lat": 38.902301666666666, "lon": -77.04051716666666, "fusion_lon": 0.0, "name": "12831db9dbb1418e45511d26ed564ae6", "rental_uris": {"ios": "https://dc.lft.to/lastmile_qr_scan", "android": "https://dc.lft.to/lastmile_qr_scan"}, "is_disabled": 0, "is_reserved": 0}, {"bike_id": "fedcf6981f78ccea15a7df1988672cd5", "type": "electric_scooter", "fusion_lat": 0.0, "lat": 38.883053333333336, "lon": -77.01773133333333, "fusion_lon": 0.0, "name": "fedcf6981f78ccea15a7df1988672cd5", "rental_uris": {"ios": "https://dc.lft.to/lastmile_qr_scan", "android": "https://dc.lft.to/lastmile_qr_scan"}, "is_disabled": 0, "is_reserved": 0}, {"bike_id": "4f2d46b43ba0a8bb2a8e2dee19d77655", "type": "electric_scooter", "fusion_lat": 0.0, "lat": 38.91428833333333, "lon": -77.02813833333333, "fusion_lon": 0.0, "name": "4f2d46b43ba0a8bb2a8e2dee19d77655", "rental_uris": {"ios": "https://dc.lft.to/lastmile_qr_scan", "android": "https://dc.lft.to/lastmile_qr_scan"}, "is_disabled": 0, "is_reserved": 0}, {"bike_id": "2a0126baa7921310e5f6dfb1c910a0b4", "type": "electric_scooter", "fusion_lat": 0.0, "lat": 38.897584333333334, "lon": -77.026986, "fusion_lon": 0.0, "name": "2a0126baa7921310e5f6dfb1c910a0b4", "rental_uris": {"ios": "https://dc.lft.to/lastmile_qr_scan", "android": "https://dc.lft.to/lastmile_qr_scan"}, "is_disabled": 0, "is_reserved": 0}, {"bike_id": "5d15c5efa3b11ce36c3343c78aefea5e", "type": "electric_scooter", "fusion_lat": 0.0, "lat": 38.89856433333333, "lon": -77.04125983333333, "fusion_lon": 0.0, "name": "5d15c5efa3b11ce36c3343c78aefea5e", "rental_uris": {"ios": "https://dc.lft.to/lastmile_qr_scan", "android": "https://dc.lft.to/lastmile_qr_scan"}, "is_disabled": 0, "is_reserved": 0}, {"bike_id": "d3a2edbc283255ace4f9355242ede23b", "type": "electric_scooter", "fusion_lat": 0.0, "lat": 38.97390633333333, "lon": -77.01812033333333, "fusion_lon": 0.0, "name": "d3a2edbc283255ace4f9355242ede23b", "rental_uris": {"ios": "https://dc.lft.to/lastmile_qr_scan", "android": "https://dc.lft.to/lastmile_qr_scan"}, "is_disabled": 0, "is_reserved": 0}, {"bike_id": "2d99c353fe39b9d94d1c6e5e3645e50a", "type": "electric_scooter", "fusion_lat": 0.0, "lat": 38.918766833333336, "lon": -77.04311266666667, "fusion_lon": 0.0, "name": "2d99c353fe39b9d94d1c6e5e3645e50a", "rental_uris": {"ios": "https://dc.lft.to/lastmile_qr_scan", "android": "https://dc.lft.to/lastmile_qr_scan"}, "is_disabled": 0, "is_reserved": 0}, {"bike_id": "b0be26d54ce6cf753164684e52833115", "type": "electric_scooter", "fusion_lat": 0.0, "lat": 38.9202295, "lon": -77.02604883333333, "fusion_lon": 0.0, "name": "b0be26d54ce6cf753164684e52833115", "rental_uris": {"ios": "https://dc.lft.to/lastmile_qr_scan", "android": "https://dc.lft.to/lastmile_qr_scan"}, "is_disabled": 0, "is_reserved": 0}, {"bike_id": "bd701a7e6614160374f5927699b3c761", "type": "electric_scooter", "fusion_lat": 0.0, "lat": 38.919348666666664, "lon": -77.01912533333333, "fusion_lon": 0.0, "name": "bd701a7e6614160374f5927699b3c761", "rental_uris": {"ios": "https://dc.lft.to/lastmile_qr_scan", "android": "https://dc.lft.to/lastmile_qr_scan"}, "is_disabled": 0, "is_reserved": 0}, {"bike_id": "d09d2005774874cf899fc3a69092206b", "type": "electric_scooter", "fusion_lat": 0.0, "lat": 38.92136816666667, "lon": -77.0190275, "fusion_lon": 0.0, "name": "d09d2005774874cf899fc3a69092206b", "rental_uris": {"ios": "https://dc.lft.to/lastmile_qr_scan", "android": "https://dc.lft.to/lastmile_qr_scan"}, "is_disabled": 0, "is_reserved": 0}, {"bike_id": "0838fecbac6027aab4dc4777975bc29c", "type": "electric_bike", "fusion_lat": 0.0, "lat": 38.95875866666667, "lon": -77.010243, "fusion_lon": 0.0, "name": "0838fecbac6027aab4dc4777975bc29c", "rental_uris": {"ios": "https://dc.lft.to/lastmile_qr_scan", "android": "https://dc.lft.to/lastmile_qr_scan"}, "is_disabled": 0, "is_reserved": 0}, {"bike_id": "3a5d11a838cac5325e4dc405b73deec6", "type": "electric_scooter", "fusion_lat": 0.0, "lat": 38.89224083333333, "lon": -77.0240925, "fusion_lon": 0.0, "name": "3a5d11a838cac5325e4dc405b73deec6", "rental_uris": {"ios": "https://dc.lft.to/lastmile_qr_scan", "android": "https://dc.lft.to/lastmile_qr_scan"}, "is_disabled": 0, "is_reserved": 0}, {"bike_id": "d153cf381334b45d1d82773b4c704805", "type": "electric_scooter", "fusion_lat": 0.0, "lat": 38.92659233333333, "lon": -77.02280216666666, "fusion_lon": 0.0, "name": "d153cf381334b45d1d82773b4c704805", "rental_uris": {"ios": "https://dc.lft.to/lastmile_qr_scan", "android": "https://dc.lft.to/lastmile_qr_scan"}, "is_disabled": 0, "is_reserved": 0}, {"bike_id": "cab701d630eea89a8cd18b86edc68560", "type": "electric_scooter", "fusion_lat": 0.0, "lat": 38.89925133333333, "lon": -77.029482, "fusion_lon": 0.0, "name": "cab701d630eea89a8cd18b86edc68560", "rental_uris": {"ios": "https://dc.lft.to/lastmile_qr_scan", "android": "https://dc.lft.to/lastmile_qr_scan"}, "is_disabled": 0, "is_reserved": 0}, {"bike_id": "796be86822c231d46ca500a492379533", "type": "electric_scooter", "fusion_lat": 0.0, "lat": 38.966474, "lon": -77.02748133333333, "fusion_lon": 0.0, "name": "796be86822c231d46ca500a492379533", "rental_uris": {"ios": "https://dc.lft.to/lastmile_qr_scan", "android": "https://dc.lft.to/lastmile_qr_scan"}, "is_disabled": 0, "is_reserved": 0}, {"bike_id": "5aef94d7c88949bf6c818df25f58ee60", "type": "electric_scooter", "fusion_lat": 0.0, "lat": 38.86513866666667, "lon": -76.99018783333334, "fusion_lon": 0.0, "name": "5aef94d7c88949bf6c818df25f58ee60", "rental_uris": {"ios": "https://dc.lft.to/lastmile_qr_scan", "android": "https://dc.lft.to/lastmile_qr_scan"}, "is_disabled": 0, "is_reserved": 0}, {"bike_id": "c55c4d6638b78d3d7b6499ab661ad277", "type": "electric_scooter", "fusion_lat": 0.0, "lat": 38.903530333333336, "lon": -77.03184116666667, "fusion_lon": 0.0, "name": "c55c4d6638b78d3d7b6499ab661ad277", "rental_uris": {"ios": "https://dc.lft.to/lastmile_qr_scan", "android": "https://dc.lft.to/lastmile_qr_scan"}, "is_disabled": 0, "is_reserved": 0}, {"bike_id": "7a24d621f4d7685fcd4d3528d1474c1b", "type": "electric_scooter", "fusion_lat": 0.0, "lat": 38.89720716666667, "lon": -77.02682866666666, "fusion_lon": 0.0, "name": "7a24d621f4d7685fcd4d3528d1474c1b", "rental_uris": {"ios": "https://dc.lft.to/lastmile_qr_scan", "android": "https://dc.lft.to/lastmile_qr_scan"}, "is_disabled": 0, "is_reserved": 0}, {"bike_id": "8f73410d2f439b81672dda5f8bc9bbfe", "type": "electric_bike", "fusion_lat": 0.0, "lat": 38.99224066666667, "lon": -77.03584216666667, "fusion_lon": 0.0, "name": "8f73410d2f439b81672dda5f8bc9bbfe", "rental_uris": {"ios": "https://dc.lft.to/lastmile_qr_scan", "android": "https://dc.lft.to/lastmile_qr_scan"}, "is_disabled": 0, "is_reserved": 0}, {"bike_id": "8cee818c2ad601d3eb3bf730bf058787", "type": "electric_bike", "fusion_lat": 0.0, "lat": 38.83608616666667, "lon": -77.00377816666666, "fusion_lon": 0.0, "name": "8cee818c2ad601d3eb3bf730bf058787", "rental_uris": {"ios": "https://dc.lft.to/lastmile_qr_scan", "android": "https://dc.lft.to/lastmile_qr_scan"}, "is_disabled": 0, "is_reserved": 0}, {"bike_id": "d20d6403550edc42ee05e4de37ba828e", "type": "electric_scooter", "fusion_lat": 0.0, "lat": 38.90032016666667, "lon": -77.04157316666667, "fusion_lon": 0.0, "name": "d20d6403550edc42ee05e4de37ba828e", "rental_uris": {"ios": "https://dc.lft.to/lastmile_qr_scan", "android": "https://dc.lft.to/lastmile_qr_scan"}, "is_disabled": 0, "is_reserved": 0}, {"bike_id": "76dd72ea9b781a153201d545180df78e", "type": "electric_scooter", "fusion_lat": 0.0, "lat": 38.913193, "lon": -77.01618583333334, "fusion_lon": 0.0, "name": "76dd72ea9b781a153201d545180df78e", "rental_uris": {"ios": "https://dc.lft.to/lastmile_qr_scan", "android": "https://dc.lft.to/lastmile_qr_scan"}, "is_disabled": 0, "is_reserved": 0}, {"bike_id": "00e043c379c2818501917048b97a77ae", "type": "electric_scooter", "fusion_lat": 0.0, "lat": 38.909529666666664, "lon": -77.0089125, "fusion_lon": 0.0, "name": "00e043c379c2818501917048b97a77ae", "rental_uris": {"ios": "https://dc.lft.to/lastmile_qr_scan", "android": "https://dc.lft.to/lastmile_qr_scan"}, "is_disabled": 0, "is_reserved": 0}, {"bike_id": "b1461a2996919f5ef7fee8fb77151f3a", "type": "electric_scooter", "fusion_lat": 0.0, "lat": 38.909108, "lon": -76.9989015, "fusion_lon": 0.0, "name": "b1461a2996919f5ef7fee8fb77151f3a", "rental_uris": {"ios": "https://dc.lft.to/lastmile_qr_scan", "android": "https://dc.lft.to/lastmile_qr_scan"}, "is_disabled": 0, "is_reserved": 0}, {"bike_id": "469e2ec08dcfa9f920696c2aa537a230", "type": "electric_bike", "fusion_lat": 0.0, "lat": 38.838081833333334, "lon": -77.00283233333333, "fusion_lon": 0.0, "name": "469e2ec08dcfa9f920696c2aa537a230", "rental_uris": {"ios": "https://dc.lft.to/lastmile_qr_scan", "android": "https://dc.lft.to/lastmile_qr_scan"}, "is_disabled": 0, "is_reserved": 0}, {"bike_id": "3a281ecf4aed4ca375388f3a9fe99ce1", "type": "electric_scooter", "fusion_lat": 0.0, "lat": 38.94735466666667, "lon": -77.02366366666666, "fusion_lon": 0.0, "name": "3a281ecf4aed4ca375388f3a9fe99ce1", "rental_uris": {"ios": "https://dc.lft.to/lastmile_qr_scan", "android": "https://dc.lft.to/lastmile_qr_scan"}, "is_disabled": 0, "is_reserved": 0}, {"bike_id": "d8bb4916d0238cd96a2f06ba73d6b8c3", "type": "electric_scooter", "fusion_lat": 0.0, "lat": 38.910430166666664, "lon": -77.013756, "fusion_lon": 0.0, "name": "d8bb4916d0238cd96a2f06ba73d6b8c3", "rental_uris": {"ios": "https://dc.lft.to/lastmile_qr_scan", "android": "https://dc.lft.to/lastmile_qr_scan"}, "is_disabled": 0, "is_reserved": 0}, {"bike_id": "a1fb755b2b5e78d285dad5611fccbabb", "type": "electric_scooter", "fusion_lat": 0.0, "lat": 38.90486166666667, "lon": -77.02939133333334, "fusion_lon": 0.0, "name": "a1fb755b2b5e78d285dad5611fccbabb", "rental_uris": {"ios": "https://dc.lft.to/lastmile_qr_scan", "android": "https://dc.lft.to/lastmile_qr_scan"}, "is_disabled": 0, "is_reserved": 0}, {"bike_id": "c11636b24f957628c27f213d67904077", "type": "electric_scooter", "fusion_lat": 0.0, "lat": 38.912043833333335, "lon": -77.0731185, "fusion_lon": 0.0, "name": "c11636b24f957628c27f213d67904077", "rental_uris": {"ios": "https://dc.lft.to/lastmile_qr_scan", "android": "https://dc.lft.to/lastmile_qr_scan"}, "is_disabled": 0, "is_reserved": 0}, {"bike_id": "d75cc1147c36ddf860aac69ee70960f1", "type": "electric_scooter", "fusion_lat": 0.0, "lat": 38.91038483333333, "lon": -77.03443633333333, "fusion_lon": 0.0, "name": "d75cc1147c36ddf860aac69ee70960f1", "rental_uris": {"ios": "https://dc.lft.to/lastmile_qr_scan", "android": "https://dc.lft.to/lastmile_qr_scan"}, "is_disabled": 0, "is_reserved": 0}, {"bike_id": "116f7d4ce92ffe74d14c6d32ae89edda", "type": "electric_scooter", "fusion_lat": 0.0, "lat": 38.91568783333334, "lon": -77.03177966666667, "fusion_lon": 0.0, "name": "116f7d4ce92ffe74d14c6d32ae89edda", "rental_uris": {"ios": "https://dc.lft.to/lastmile_qr_scan", "android": "https://dc.lft.to/lastmile_qr_scan"}, "is_disabled": 0, "is_reserved": 0}, {"bike_id": "fa57c3395b1e6ee2a400ba402b3b96b5", "type": "electric_scooter", "fusion_lat": 0.0, "lat": 38.9322435, "lon": -77.07281983333333, "fusion_lon": 0.0, "name": "fa57c3395b1e6ee2a400ba402b3b96b5", "rental_uris": {"ios": "https://dc.lft.to/lastmile_qr_scan", "android": "https://dc.lft.to/lastmile_qr_scan"}, "is_disabled": 0, "is_reserved": 0}, {"bike_id": "a7fb0caef00d20b911c09e516047bf0c", "type": "electric_scooter", "fusion_lat": 0.0, "lat": 38.916023333333335, "lon": -77.0490575, "fusion_lon": 0.0, "name": "a7fb0caef00d20b911c09e516047bf0c", "rental_uris": {"ios": "https://dc.lft.to/lastmile_qr_scan", "android": "https://dc.lft.to/lastmile_qr_scan"}, "is_disabled": 0, "is_reserved": 0}, {"bike_id": "009eafc330c2adc3e550005494c50ff8", "type": "electric_scooter", "fusion_lat": 0.0, "lat": 38.89362466666667, "lon": -77.003291, "fusion_lon": 0.0, "name": "009eafc330c2adc3e550005494c50ff8", "rental_uris": {"ios": "https://dc.lft.to/lastmile_qr_scan", "android": "https://dc.lft.to/lastmile_qr_scan"}, "is_disabled": 0, "is_reserved": 0}, {"bike_id": "324c7360c1e806b3f410d1c53c9e9be7", "type": "electric_scooter", "fusion_lat": 0.0, "lat": 38.92493183333333, "lon": -77.02176933333334, "fusion_lon": 0.0, "name": "324c7360c1e806b3f410d1c53c9e9be7", "rental_uris": {"ios": "https://dc.lft.to/lastmile_qr_scan", "android": "https://dc.lft.to/lastmile_qr_scan"}, "is_disabled": 0, "is_reserved": 0}, {"bike_id": "5d6b06d27b708c8b59a6ad153a9c6f23", "type": "electric_scooter", "fusion_lat": 0.0, "lat": 38.87382183333333, "lon": -77.00194866666666, "fusion_lon": 0.0, "name": "5d6b06d27b708c8b59a6ad153a9c6f23", "rental_uris": {"ios": "https://dc.lft.to/lastmile_qr_scan", "android": "https://dc.lft.to/lastmile_qr_scan"}, "is_disabled": 0, "is_reserved": 0}, {"bike_id": "be24f6dfea629a277e6d5cfed275c36f", "type": "electric_scooter", "fusion_lat": 0.0, "lat": 38.920632833333336, "lon": -77.01535916666667, "fusion_lon": 0.0, "name": "be24f6dfea629a277e6d5cfed275c36f", "rental_uris": {"ios": "https://dc.lft.to/lastmile_qr_scan", "android": "https://dc.lft.to/lastmile_qr_scan"}, "is_disabled": 0, "is_reserved": 0}, {"bike_id": "97ed8d7d618fb94cfd0034a4f4b2a582", "type": "electric_scooter", "fusion_lat": 0.0, "lat": 38.898014333333336, "lon": -77.01227266666666, "fusion_lon": 0.0, "name": "97ed8d7d618fb94cfd0034a4f4b2a582", "rental_uris": {"ios": "https://dc.lft.to/lastmile_qr_scan", "android": "https://dc.lft.to/lastmile_qr_scan"}, "is_disabled": 0, "is_reserved": 0}, {"bike_id": "d1fb4cda2f527acf343fc838d76a1196", "type": "electric_scooter", "fusion_lat": 0.0, "lat": 38.897261666666665, "lon": -77.01894183333333, "fusion_lon": 0.0, "name": "d1fb4cda2f527acf343fc838d76a1196", "rental_uris": {"ios": "https://dc.lft.to/lastmile_qr_scan", "android": "https://dc.lft.to/lastmile_qr_scan"}, "is_disabled": 0, "is_reserved": 0}, {"bike_id": "47cab1bffa9d9b5fc0f5fa3e0e05cecd", "type": "electric_scooter", "fusion_lat": 0.0, "lat": 38.936845166666664, "lon": -77.03630616666666, "fusion_lon": 0.0, "name": "47cab1bffa9d9b5fc0f5fa3e0e05cecd", "rental_uris": {"ios": "https://dc.lft.to/lastmile_qr_scan", "android": "https://dc.lft.to/lastmile_qr_scan"}, "is_disabled": 0, "is_reserved": 0}, {"bike_id": "f4db0312baadcce8db8c37cd1c2d2b8a", "type": "electric_scooter", "fusion_lat": 0.0, "lat": 38.918134333333334, "lon": -77.03632733333333, "fusion_lon": 0.0, "name": "f4db0312baadcce8db8c37cd1c2d2b8a", "rental_uris": {"ios": "https://dc.lft.to/lastmile_qr_scan", "android": "https://dc.lft.to/lastmile_qr_scan"}, "is_disabled": 0, "is_reserved": 0}, {"bike_id": "065437ebe05af0c47fbcde454c0d18d6", "type": "electric_scooter", "fusion_lat": 0.0, "lat": 38.907250833333336, "lon": -77.02802816666667, "fusion_lon": 0.0, "name": "065437ebe05af0c47fbcde454c0d18d6", "rental_uris": {"ios": "https://dc.lft.to/lastmile_qr_scan", "android": "https://dc.lft.to/lastmile_qr_scan"}, "is_disabled": 0, "is_reserved": 0}, {"bike_id": "ca8329bb5c8db342c248b1ef71188174", "type": "electric_scooter", "fusion_lat": 0.0, "lat": 38.9554075, "lon": -77.027789, "fusion_lon": 0.0, "name": "ca8329bb5c8db342c248b1ef71188174", "rental_uris": {"ios": "https://dc.lft.to/lastmile_qr_scan", "android": "https://dc.lft.to/lastmile_qr_scan"}, "is_disabled": 0, "is_reserved": 0}, {"bike_id": "c22d3a32632163911198c7790bc6c6f0", "type": "electric_bike", "fusion_lat": 0.0, "lat": 38.880273333333335, "lon": -76.9171845, "fusion_lon": 0.0, "name": "c22d3a32632163911198c7790bc6c6f0", "rental_uris": {"ios": "https://dc.lft.to/lastmile_qr_scan", "android": "https://dc.lft.to/lastmile_qr_scan"}, "is_disabled": 0, "is_reserved": 0}, {"bike_id": "1bc2f7a8c764033caa863149e6bd107b", "type": "electric_scooter", "fusion_lat": 0.0, "lat": 38.923709333333335, "lon": -77.0203945, "fusion_lon": 0.0, "name": "1bc2f7a8c764033caa863149e6bd107b", "rental_uris": {"ios": "https://dc.lft.to/lastmile_qr_scan", "android": "https://dc.lft.to/lastmile_qr_scan"}, "is_disabled": 0, "is_reserved": 0}, {"bike_id": "d0796b26172835266013672423507979", "type": "electric_scooter", "fusion_lat": 0.0, "lat": 38.90528033333333, "lon": -77.04753616666666, "fusion_lon": 0.0, "name": "d0796b26172835266013672423507979", "rental_uris": {"ios": "https://dc.lft.to/lastmile_qr_scan", "android": "https://dc.lft.to/lastmile_qr_scan"}, "is_disabled": 0, "is_reserved": 0}, {"bike_id": "1331c2885999d19ffcea88d2c8738203", "type": "electric_scooter", "fusion_lat": 0.0, "lat": 38.9166485, "lon": -77.00436133333334, "fusion_lon": 0.0, "name": "1331c2885999d19ffcea88d2c8738203", "rental_uris": {"ios": "https://dc.lft.to/lastmile_qr_scan", "android": "https://dc.lft.to/lastmile_qr_scan"}, "is_disabled": 0, "is_reserved": 0}, {"bike_id": "0d3c8e2c5a67624b4bd4936fcc5c6633", "type": "electric_scooter", "fusion_lat": 0.0, "lat": 38.89950133333333, "lon": -77.01411583333334, "fusion_lon": 0.0, "name": "0d3c8e2c5a67624b4bd4936fcc5c6633", "rental_uris": {"ios": "https://dc.lft.to/lastmile_qr_scan", "android": "https://dc.lft.to/lastmile_qr_scan"}, "is_disabled": 0, "is_reserved": 0}, {"bike_id": "78fb368deab353acccdbd50f4d38d136", "type": "electric_scooter", "fusion_lat": 0.0, "lat": 38.9136855, "lon": -77.07222766666666, "fusion_lon": 0.0, "name": "78fb368deab353acccdbd50f4d38d136", "rental_uris": {"ios": "https://dc.lft.to/lastmile_qr_scan", "android": "https://dc.lft.to/lastmile_qr_scan"}, "is_disabled": 0, "is_reserved": 0}, {"bike_id": "2a3d3768e9ddb40eae406b0e5e13399d", "type": "electric_scooter", "fusion_lat": 0.0, "lat": 38.89604666666666, "lon": -77.01197916666666, "fusion_lon": 0.0, "name": "2a3d3768e9ddb40eae406b0e5e13399d", "rental_uris": {"ios": "https://dc.lft.to/lastmile_qr_scan", "android": "https://dc.lft.to/lastmile_qr_scan"}, "is_disabled": 0, "is_reserved": 0}, {"bike_id": "b3a4cd1e5892a17f6a9ba893f08a7264", "type": "electric_scooter", "fusion_lat": 0.0, "lat": 38.895558333333334, "lon": -76.93060683333333, "fusion_lon": 0.0, "name": "b3a4cd1e5892a17f6a9ba893f08a7264", "rental_uris": {"ios": "https://dc.lft.to/lastmile_qr_scan", "android": "https://dc.lft.to/lastmile_qr_scan"}, "is_disabled": 0, "is_reserved": 0}, {"bike_id": "2cbae0b63070e23417e9956120fc886f", "type": "electric_scooter", "fusion_lat": 0.0, "lat": 38.902909, "lon": -77.04162733333334, "fusion_lon": 0.0, "name": "2cbae0b63070e23417e9956120fc886f", "rental_uris": {"ios": "https://dc.lft.to/lastmile_qr_scan", "android": "https://dc.lft.to/lastmile_qr_scan"}, "is_disabled": 0, "is_reserved": 0}, {"bike_id": "bff2615267e938ba595841fb8a8ed163", "type": "electric_scooter", "fusion_lat": 0.0, "lat": 38.89452566666667, "lon": -77.01111983333334, "fusion_lon": 0.0, "name": "bff2615267e938ba595841fb8a8ed163", "rental_uris": {"ios": "https://dc.lft.to/lastmile_qr_scan", "android": "https://dc.lft.to/lastmile_qr_scan"}, "is_disabled": 0, "is_reserved": 0}, {"bike_id": "2dccdfaaa313e428948cfb58547f0369", "type": "electric_scooter", "fusion_lat": 0.0, "lat": 38.92170383333333, "lon": -77.0219315, "fusion_lon": 0.0, "name": "2dccdfaaa313e428948cfb58547f0369", "rental_uris": {"ios": "https://dc.lft.to/lastmile_qr_scan", "android": "https://dc.lft.to/lastmile_qr_scan"}, "is_disabled": 0, "is_reserved": 0}, {"bike_id": "234fc1323867283d62e5985933882f04", "type": "electric_scooter", "fusion_lat": 0.0, "lat": 38.909734, "lon": -77.0463195, "fusion_lon": 0.0, "name": "234fc1323867283d62e5985933882f04", "rental_uris": {"ios": "https://dc.lft.to/lastmile_qr_scan", "android": "https://dc.lft.to/lastmile_qr_scan"}, "is_disabled": 0, "is_reserved": 0}, {"bike_id": "cbdabf78686be2ae42d7729245a6ed91", "type": "electric_scooter", "fusion_lat": 0.0, "lat": 38.91965533333333, "lon": -77.039583, "fusion_lon": 0.0, "name": "cbdabf78686be2ae42d7729245a6ed91", "rental_uris": {"ios": "https://dc.lft.to/lastmile_qr_scan", "android": "https://dc.lft.to/lastmile_qr_scan"}, "is_disabled": 0, "is_reserved": 0}, {"bike_id": "201f3f9949e5d67566d8944e41ac02cd", "type": "electric_scooter", "fusion_lat": 0.0, "lat": 38.88512583333333, "lon": -77.01113866666667, "fusion_lon": 0.0, "name": "201f3f9949e5d67566d8944e41ac02cd", "rental_uris": {"ios": "https://dc.lft.to/lastmile_qr_scan", "android": "https://dc.lft.to/lastmile_qr_scan"}, "is_disabled": 0, "is_reserved": 0}, {"bike_id": "46298246e1b195e104f1c20d277a42ac", "type": "electric_scooter", "fusion_lat": 0.0, "lat": 38.90020466666667, "lon": -77.04678133333333, "fusion_lon": 0.0, "name": "46298246e1b195e104f1c20d277a42ac", "rental_uris": {"ios": "https://dc.lft.to/lastmile_qr_scan", "android": "https://dc.lft.to/lastmile_qr_scan"}, "is_disabled": 0, "is_reserved": 0}, {"bike_id": "5dfb069f029d3ba54ddb42059b0bc681", "type": "electric_scooter", "fusion_lat": 0.0, "lat": 38.89029816666667, "lon": -76.94463883333333, "fusion_lon": 0.0, "name": "5dfb069f029d3ba54ddb42059b0bc681", "rental_uris": {"ios": "https://dc.lft.to/lastmile_qr_scan", "android": "https://dc.lft.to/lastmile_qr_scan"}, "is_disabled": 0, "is_reserved": 0}, {"bike_id": "382359db88cee7318979cb6303c703c5", "type": "electric_scooter", "fusion_lat": 0.0, "lat": 38.900281, "lon": -77.01218716666666, "fusion_lon": 0.0, "name": "382359db88cee7318979cb6303c703c5", "rental_uris": {"ios": "https://dc.lft.to/lastmile_qr_scan", "android": "https://dc.lft.to/lastmile_qr_scan"}, "is_disabled": 0, "is_reserved": 0}, {"bike_id": "aa1a5b1b9cec9f2456922e0fd228d773", "type": "electric_scooter", "fusion_lat": 0.0, "lat": 38.893615833333335, "lon": -77.0028425, "fusion_lon": 0.0, "name": "aa1a5b1b9cec9f2456922e0fd228d773", "rental_uris": {"ios": "https://dc.lft.to/lastmile_qr_scan", "android": "https://dc.lft.to/lastmile_qr_scan"}, "is_disabled": 0, "is_reserved": 0}, {"bike_id": "4bdb33cec00894ed13810a9ab39133e1", "type": "electric_scooter", "fusion_lat": 0.0, "lat": 38.93203783333333, "lon": -77.018733, "fusion_lon": 0.0, "name": "4bdb33cec00894ed13810a9ab39133e1", "rental_uris": {"ios": "https://dc.lft.to/lastmile_qr_scan", "android": "https://dc.lft.to/lastmile_qr_scan"}, "is_disabled": 0, "is_reserved": 0}, {"bike_id": "fad81a408a7fd1a9392d3e921094f1c4", "type": "electric_scooter", "fusion_lat": 0.0, "lat": 38.9021155, "lon": -77.0480585, "fusion_lon": 0.0, "name": "fad81a408a7fd1a9392d3e921094f1c4", "rental_uris": {"ios": "https://dc.lft.to/lastmile_qr_scan", "android": "https://dc.lft.to/lastmile_qr_scan"}, "is_disabled": 0, "is_reserved": 0}, {"bike_id": "d7ad84a73c6f4b92ecfdc95537c8a273", "type": "electric_scooter", "fusion_lat": 0.0, "lat": 38.91440433333333, "lon": -77.022896, "fusion_lon": 0.0, "name": "d7ad84a73c6f4b92ecfdc95537c8a273", "rental_uris": {"ios": "https://dc.lft.to/lastmile_qr_scan", "android": "https://dc.lft.to/lastmile_qr_scan"}, "is_disabled": 0, "is_reserved": 0}, {"bike_id": "d17333040f3a91a80f5ac1929f246e0e", "type": "electric_scooter", "fusion_lat": 0.0, "lat": 38.88968966666667, "lon": -76.98033833333334, "fusion_lon": 0.0, "name": "d17333040f3a91a80f5ac1929f246e0e", "rental_uris": {"ios": "https://dc.lft.to/lastmile_qr_scan", "android": "https://dc.lft.to/lastmile_qr_scan"}, "is_disabled": 0, "is_reserved": 0}, {"bike_id": "790d498aff7a073893f50ca7596b8d50", "type": "electric_scooter", "fusion_lat": 0.0, "lat": 38.8961665, "lon": -77.00191783333334, "fusion_lon": 0.0, "name": "790d498aff7a073893f50ca7596b8d50", "rental_uris": {"ios": "https://dc.lft.to/lastmile_qr_scan", "android": "https://dc.lft.to/lastmile_qr_scan"}, "is_disabled": 0, "is_reserved": 0},