{"data": {"bikes": [{"lon": -77.0218765, "name": "64001ece06ac70baa200e62e41af580c", "is_disabled": 0, "type": "electric_scooter", "is_reserved": 0, "fusion_lon": 0.0, "lat": 38.89415116666667, "rental_uris": {"ios": "https://dc.lft.to/lastmile_qr_scan", "android": "https://dc.lft.to/lastmile_qr_scan"}, "bike_id": "64001ece06ac70baa200e62e41af580c", "fusion_lat": 0.0}, {"lon": -76.98861383333333, "name": "e8d9d1550b80d2bac876ce9b5f4d8477", "is_disabled": 0, "type": "electric_scooter", "is_reserved": 0, "fusion_lon": 0.0, "lat": 38.900298, "rental_uris": {"ios": "https://dc.lft.to/lastmile_qr_scan", "android": "https://dc.lft.to/lastmile_qr_scan"}, "bike_id": "e8d9d1550b80d2bac876ce9b5f4d8477", "fusion_lat": 0.0}, {"lon": -77.0274415, "name": "a243fa89e250ea0be62fbe51aca9ce57", "is_disabled": 0, "type": "electric_scooter", "is_reserved": 0, "fusion_lon": 0.0, "lat": 38.92407716666666, "rental_uris": {"ios": "https://dc.lft.to/lastmile_qr_scan", "android": "https://dc.lft.to/lastmile_qr_scan"}, "bike_id": "a243fa89e250ea0be62fbe51aca9ce57", "fusion_lat": 0.0}, {"lon": -77.0694325, "name": "f7b4746ad870c5c5aa3f645171cc85d8", "is_disabled": 0, "type": "electric_bike", "is_reserved": 0, "fusion_lon": 0.0, "lat": 38.8476325, "rental_uris": {"ios": "https://dc.lft.to/lastmile_qr_scan", "android": "https://dc.lft.to/lastmile_qr_scan"}, "bike_id": "f7b4746ad870c5c5aa3f645171cc85d8", "fusion_lat": 0.0}, {"lon": -76.97333533333334, "name": "5559ef0e58f578c21b779e85f024611f", "is_disabled": 0, "type": "electric_bike", "is_reserved": 0, "fusion_lon": 0.0, "lat": 38.8655825, "rental_uris": {"ios": "https://dc.lft.to/lastmile_qr_scan", "android": "https://dc.lft.to/lastmile_qr_scan"}, "bike_id": "5559ef0e58f578c21b779e85f024611f", "fusion_lat": 0.0}, {"lon": -77.01177383333334, "name": "7b119d8ad52ab69a96e82a62c636bddd", "is_disabled": 0, "type": "electric_scooter", "is_reserved": 0, "fusion_lon": 0.0, "lat": 38.88589966666667, "rental_uris": {"ios": "https://dc.lft.to/lastmile_qr_scan", "android": "https://dc.lft.to/lastmile_qr_scan"}, "bike_id": "7b119d8ad52ab69a96e82a62c636bddd", "fusion_lat": 0.0}, {"lon": -77.02028883333334, "name": "2f199a6f9133c4609a5a9240e44d6a9e", "is_disabled": 0, "type": "electric_scooter", "is_reserved": 0, "fusion_lon": 0.0, "lat": 38.9245, "rental_uris": {"ios": "https://dc.lft.to/lastmile_qr_scan", "android": "https://dc.lft.to/lastmile_qr_scan"}, "bike_id": "2f199a6f9133c4609a5a9240e44d6a9e", "fusion_lat": 0.0}, {"lon": -77.03216383333333, "name": "8766110d593366e4dd172f1a9d81b3dd", "is_disabled": 0, "type": "electric_scooter", "is_reserved": 0, "fusion_lon": 0.0, "lat": 38.89217433333334, "rental_uris": {"ios": "https://dc.lft.to/lastmile_qr_scan", "android": "https://dc.lft.to/lastmile_qr_scan"}, "bike_id": "8766110d593366e4dd172f1a9d81b3dd", "fusion_lat": 0.0}, {"lon": -77.013664, "name": "bcdf45a57b2f038bf1b921d066b62c3c", "is_disabled": 0, "type": "electric_scooter", "is_reserved": 0, "fusion_lon": 0.0, "lat": 38.928785500000004, "rental_uris": {"ios": "https://dc.lft.to/lastmile_qr_scan", "android": "https://dc.lft.to/lastmile_qr_scan"}, "bike_id": "bcdf45a57b2f038bf1b921d066b62c3c", "fusion_lat": 0.0}, {"lon": -77.02309666666666, "name": "ba319534185431a9e9856e5bf6169629", "is_disabled": 0, "type": "electric_scooter", "is_reserved": 0, "fusion_lon": 0.0, "lat": 38.92074816666667, "rental_uris": {"ios": "https://dc.lft.to/lastmile_qr_scan", "android": "https://dc.lft.to/lastmile_qr_scan"}, "bike_id": "ba319534185431a9e9856e5bf6169629", "fusion_lat": 0.0}, {"lon": -77.00057433333333, "name": "0e7921282f98c6e25d88bc844320f6c1", "is_disabled": 0, "type": "electric_scooter", "is_reserved": 0, "fusion_lon": 0.0, "lat": 38.876804, "rental_uris": {"ios": "https://dc.lft.to/lastmile_qr_scan", "android": "https://dc.lft.to/lastmile_qr_scan"}, "bike_id": "0e7921282f98c6e25d88bc844320f6c1", "fusion_lat": 0.0}, {"lon": -76.9250175, "name": "ff6789ffeb560f121bed3bfcb6ae3a43", "is_disabled": 0, "type": "electric_scooter", "is_reserved": 0, "fusion_lon": 0.0, "lat": 38.88600116666667, "rental_uris": {"ios": "https://dc.lft.to/lastmile_qr_scan", "android": "https://dc.lft.to/lastmile_qr_scan"}, "bike_id": "ff6789ffeb560f121bed3bfcb6ae3a43", "fusion_lat": 0.0}, {"lon": -77.04384283333333, "name": "cbd44b226d823103f7b7aeffdb293c1b", "is_disabled": 0, "type": "electric_scooter", "is_reserved": 0, "fusion_lon": 0.0, "lat": 38.8984295, "rental_uris": {"ios": "https://dc.lft.to/lastmile_qr_scan", "android": "https://dc.lft.to/lastmile_qr_scan"}, "bike_id": "cbd44b226d823103f7b7aeffdb293c1b", "fusion_lat": 0.0}, {"lon": -76.99157616666666, "name": "6ad73cdba6ae7ea6de2e8ddb940c7ba6", "is_disabled": 0, "type": "electric_scooter", "is_reserved": 0, "fusion_lon": 0.0, "lat": 38.899038166666664, "rental_uris": {"ios": "https://dc.lft.to/lastmile_qr_scan", "android": "https://dc.lft.to/lastmile_qr_scan"}, "bike_id": "6ad73cdba6ae7ea6de2e8ddb940c7ba6", "fusion_lat": 0.0}, {"lon": -77.02758066666667, "name": "5c80410bfabbae272fd947a759228d9b", "is_disabled": 0, "type": "electric_scooter", "is_reserved": 0, "fusion_lon": 0.0, "lat": 38.956109, "rental_uris": {"ios": "https://dc.lft.to/lastmile_qr_scan", "android": "https://dc.lft.to/lastmile_qr_scan"}, "bike_id": "5c80410bfabbae272fd947a759228d9b", "fusion_lat": 0.0}, {"lon": -77.05700933333334, "name": "920d833997259750d06007ef3529b9c9", "is_disabled": 0, "type": "electric_scooter", "is_reserved": 0, "fusion_lon": 0.0, "lat": 38.9166885, "rental_uris": {"ios": "https://dc.lft.to/lastmile_qr_scan", "android": "https://dc.lft.to/lastmile_qr_scan"}, "bike_id": "920d833997259750d06007ef3529b9c9", "fusion_lat": 0.0}, {"lon": -76.99502016666666, "name": "b69f2f0aa2c7980ef124eed797f691f4", "is_disabled": 0, "type": "electric_scooter", "is_reserved": 0, "fusion_lon": 0.0, "lat": 38.8808175, "rental_uris": {"ios": "https://dc.lft.to/lastmile_qr_scan", "android": "https://dc.lft.to/lastmile_qr_scan"}, "bike_id": "b69f2f0aa2c7980ef124eed797f691f4", "fusion_lat": 0.0}, {"lon": -76.99858033333334, "name": "a2f7b30f15c2c837c6bbf8b91203f920", "is_disabled": 0, "type": "electric_scooter", "is_reserved": 0, "fusion_lon": 0.0, "lat": 38.902583166666666, "rental_uris": {"ios": "https://dc.lft.to/lastmile_qr_scan", "android": "https://dc.lft.to/lastmile_qr_scan"}, "bike_id": "a2f7b30f15c2c837c6bbf8b91203f920", "fusion_lat": 0.0}, {"lon": -77.02456933333333, "name": "ca9363252c8db25df592f02bf361842f", "is_disabled": 0, "type": "electric_scooter", "is_reserved": 0, "fusion_lon": 0.0, "lat": 38.91692483333333, "rental_uris": {"ios": "https://dc.lft.to/lastmile_qr_scan", "android": "https://dc.lft.to/lastmile_qr_scan"}, "bike_id": "ca9363252c8db25df592f02bf361842f", "fusion_lat": 0.0}, {"lon": -77.001916, "name": "2d26552b373c46a2921e06205bd7ce08", "is_disabled": 0, "type": "electric_scooter", "is_reserved": 0, "fusion_lon": 0.0, "lat": 38.896203166666666, "rental_uris": {"ios": "https://dc.lft.to/lastmile_qr_scan", "android": "https://dc.lft.to/lastmile_qr_scan"}, "bike_id": "2d26552b373c46a2921e06205bd7ce08", "fusion_lat": 0.0}, {"lon": -77.01968783333334, "name": "ae859f3a160dc00959a48f6e16ec97f6", "is_disabled": 0, "type": "electric_scooter", "is_reserved": 0, "fusion_lon": 0.0, "lat": 38.885807666666665, "rental_uris": {"ios": "https://dc.lft.to/lastmile_qr_scan", "android": "https://dc.lft.to/lastmile_qr_scan"}, "bike_id": "ae859f3a160dc00959a48f6e16ec97f6", "fusion_lat": 0.0}, {"lon": -76.99501833333333, "name": "10b79b6ba4244bc7c4a67a0eac48769e", "is_disabled": 0, "type": "electric_scooter", "is_reserved": 0, "fusion_lon": 0.0, "lat": 38.881971, "rental_uris": {"ios": "https://dc.lft.to/lastmile_qr_scan", "android": "https://dc.lft.to/lastmile_qr_scan"}, "bike_id": "10b79b6ba4244bc7c4a67a0eac48769e", "fusion_lat": 0.0}, {"lon": -76.98034666666666, "name": "97aeb12cf5a16b70098b9b07935b5932", "is_disabled": 0, "type": "electric_scooter", "is_reserved": 0, "fusion_lon": 0.0, "lat": 38.88972316666667, "rental_uris": {"ios": "https://dc.lft.to/lastmile_qr_scan", "android": "https://dc.lft.to/lastmile_qr_scan"}, "bike_id": "97aeb12cf5a16b70098b9b07935b5932", "fusion_lat": 0.0}, {"lon": -77.0297765, "name": "db59da9e64dce167199482f0adbd0f73", "is_disabled": 0, "type": "electric_scooter", "is_reserved": 0, "fusion_lon": 0.0, "lat": 38.89892616666667, "rental_uris": {"ios": "https://dc.lft.to/lastmile_qr_scan", "android": "https://dc.lft.to/lastmile_qr_scan"}, "bike_id": "db59da9e64dce167199482f0adbd0f73", "fusion_lat": 0.0}, {"lon": -76.94466366666667, "name": "7684b0515e4c14f88904f90208d1e78d", "is_disabled": 0, "type": "electric_scooter", "is_reserved": 0, "fusion_lon": 0.0, "lat": 38.890268666666664, "rental_uris": {"ios": "https://dc.lft.to/lastmile_qr_scan", "android": "https://dc.lft.to/lastmile_qr_scan"}, "bike_id": "7684b0515e4c14f88904f90208d1e78d", "fusion_lat": 0.0}, {"lon": -77.03857233333333, "name": "e4557cd88446713caecdada6d29c8bd8", "is_disabled": 0, "type": "electric_scooter", "is_reserved": 0, "fusion_lon": 0.0, "lat": 38.925386, "rental_uris": {"ios": "https://dc.lft.to/lastmile_qr_scan", "android": "https://dc.lft.to/lastmile_qr_scan"}, "bike_id": "e4557cd88446713caecdada6d29c8bd8", "fusion_lat": 0.0}, {"lon": -77.026112, "name": "00aa0cd042fed8f5c3a3476d8b3a42f9", "is_disabled": 0, "type": "electric_scooter", "is_reserved": 0, "fusion_lon": 0.0, "lat": 38.8974515, "rental_uris": {"ios": "https://dc.lft.to/lastmile_qr_scan", "android": "https://dc.lft.to/lastmile_qr_scan"}, "bike_id": "00aa0cd042fed8f5c3a3476d8b3a42f9", "fusion_lat": 0.0}, {"lon": -76.9802465, "name": "6c7723d905caa60649be0c37a4ad7da1", "is_disabled": 0, "type": "electric_bike", "is_reserved": 0, "fusion_lon": 0.0, "lat": 38.86821333333333, "rental_uris": {"ios": "https://dc.lft.to/lastmile_qr_scan", "android": "https://dc.lft.to/lastmile_qr_scan"}, "bike_id": "6c7723d905caa60649be0c37a4ad7da1", "fusion_lat": 0.0}, {"lon": -77.01871983333334, "name": "fdb266a38549ffe6055d60c04a9316db", "is_disabled": 0, "type": "electric_scooter", "is_reserved": 0, "fusion_lon": 0.0, "lat": 38.932028, "rental_uris": {"ios": "https://dc.lft.to/lastmile_qr_scan", "android": "https://dc.lft.to/lastmile_qr_scan"}, "bike_id": "fdb266a38549ffe6055d60c04a9316db", "fusion_lat": 0.0}, {"lon": -77.00281116666666, "name": "5c1cbe7ba0b0cd4da952f88c7844cde5", "is_disabled": 0, "type": "electric_scooter", "is_reserved": 0, "fusion_lon": 0.0, "lat": 38.89357966666667, "rental_uris": {"ios": "https://dc.lft.to/lastmile_qr_scan", "android": "https://dc.lft.to/lastmile_qr_scan"}, "bike_id": "5c1cbe7ba0b0cd4da952f88c7844cde5", "fusion_lat": 0.0}, {"lon": -77.02291333333334, "name": "70c7ce8673ccfe2e10e424b26d2b1655", "is_disabled": 0, "type": "electric_scooter", "is_reserved": 0, "fusion_lon": 0.0, "lat": 38.914442333333334, "rental_uris": {"ios": "https://dc.lft.to/lastmile_qr_scan", "android": "https://dc.lft.to/lastmile_qr_scan"}, "bike_id": "70c7ce8673ccfe2e10e424b26d2b1655", "fusion_lat": 0.0}, {"lon": -77.0480565, "name": "3f604e716e215f6f604523a109bd6e79", "is_disabled": 0, "type": "electric_scooter", "is_reserved": 0, "fusion_lon": 0.0, "lat": 38.90202683333333, "rental_uris": {"ios": "https://dc.lft.to/lastmile_qr_scan", "android": "https://dc.lft.to/lastmile_qr_scan"}, "bike_id": "3f604e716e215f6f604523a109bd6e79", "fusion_lat": 0.0}, {"lon": -77.02321166666667, "name": "306d16b5f522864db45a3aa30452597f", "is_disabled": 0, "type": "electric_scooter", "is_reserved": 0, "fusion_lon": 0.0, "lat": 38.9276325, "rental_uris": {"ios": "https://dc.lft.to/lastmile_qr_scan", "android": "https://dc.lft.to/lastmile_qr_scan"}, "bike_id": "306d16b5f522864db45a3aa30452597f", "fusion_lat": 0.0}, {"lon": -76.92583483333334, "name": "c6ab2574d5c59fbca6ceae7448b74d87", "is_disabled": 0, "type": "electric_scooter", "is_reserved": 0, "fusion_lon": 0.0, "lat": 38.897296833333336, "rental_uris": {"ios": "https://dc.lft.to/lastmile_qr_scan", "android": "https://dc.lft.to/lastmile_qr_scan"}, "bike_id": "c6ab2574d5c59fbca6ceae7448b74d87", "fusion_lat": 0.0}, {"lon": -77.042188, "name": "ea3166ad3073625bf8b4d88765bf049e", "is_disabled": 0, "type": "electric_scooter", "is_reserved": 0, "fusion_lon": 0.0, "lat": 38.92146866666667, "rental_uris": {"ios": "https://dc.lft.to/lastmile_qr_scan", "android": "https://dc.lft.to/lastmile_qr_scan"}, "bike_id": "ea3166ad3073625bf8b4d88765bf049e", "fusion_lat": 0.0}, {"lon": -77.020024, "name": "1fe71f23e547305c66e53b0ffe195ee7", "is_disabled": 0, "type": "electric_scooter", "is_reserved": 0, "fusion_lon": 0.0, "lat": 38.923575, "rental_uris": {"ios": "https://dc.lft.to/lastmile_qr_scan", "android": "https://dc.lft.to/lastmile_qr_scan"}, "bike_id": "1fe71f23e547305c66e53b0ffe195ee7", "fusion_lat": 0.0}, {"lon": -77.0229765, "name": "3c8a665d21da6c1ce9927269f2d4d8de", "is_disabled": 0, "type": "electric_scooter", "is_reserved": 0, "fusion_lon": 0.0, "lat": 38.92060933333333, "rental_uris": {"ios": "https://dc.lft.to/lastmile_qr_scan", "android": "https://dc.lft.to/lastmile_qr_scan"}, "bike_id": "3c8a665d21da6c1ce9927269f2d4d8de", "fusion_lat": 0.0}, {"lon": -76.98085016666667, "name": "d1c708b4e1ed6f2c99a10499a1ceacbe", "is_disabled": 0, "type": "electric_scooter", "is_reserved": 0, "fusion_lon": 0.0, "lat": 38.89435983333333, "rental_uris": {"ios": "https://dc.lft.to/lastmile_qr_scan", "android": "https://dc.lft.to/lastmile_qr_scan"}, "bike_id": "d1c708b4e1ed6f2c99a10499a1ceacbe", "fusion_lat": 0.0}, {"lon": -77.04412516666666, "name": "53c280016fd7b15dbf6f841b7b07bacf", "is_disabled": 0, "type": "electric_scooter", "is_reserved": 0, "fusion_lon": 0.0, "lat": 38.92042933333333, "rental_uris": {"ios": "https://dc.lft.to/lastmile_qr_scan", "android": "https://dc.lft.to/lastmile_qr_scan"}, "bike_id": "53c280016fd7b15dbf6f841b7b07bacf", "fusion_lat": 0.0}, {"lon": -77.05229366666667, "name": "010bfce5f2331867f70e233c5b64dbd4", "is_disabled": 0, "type": "electric_scooter", "is_reserved": 0, "fusion_lon": 0.0, "lat": 38.924643333333336, "rental_uris": {"ios": "https://dc.lft.to/lastmile_qr_scan", "android": "https://dc.lft.to/lastmile_qr_scan"}, "bike_id": "010bfce5f2331867f70e233c5b64dbd4", "fusion_lat": 0.0}, {"lon": -77.022106, "name": "d57aa171b0fa0a7e94441f422df6ed31", "is_disabled": 0, "type": "electric_scooter", "is_reserved": 0, "fusion_lon": 0.0, "lat": 38.91638316666667, "rental_uris": {"ios": "https://dc.lft.to/lastmile_qr_scan", "android": "https://dc.lft.to/lastmile_qr_scan"}, "bike_id": "d57aa171b0fa0a7e94441f422df6ed31", "fusion_lat": 0.0}, {"lon": -77.05717716666666, "name": "33673fa1ed548b9eb3bfc3997b006857", "is_disabled": 0, "type": "electric_scooter", "is_reserved": 0, "fusion_lon": 0.0, "lat": 38.93135566666667, "rental_uris": {"ios": "https://dc.lft.to/lastmile_qr_scan", "android": "https://dc.lft.to/lastmile_qr_scan"}, "bike_id": "33673fa1ed548b9eb3bfc3997b006857", "fusion_lat": 0.0}, {"lon": -77.0344745, "name": "1c1356661f3d1dfa74d8f274928fcdeb", "is_disabled": 0, "type": "electric_scooter", "is_reserved": 0, "fusion_lon": 0.0, "lat": 38.91171683333334, "rental_uris": {"ios": "https://dc.lft.to/lastmile_qr_scan", "android": "https://dc.lft.to/lastmile_qr_scan"}, "bike_id": "1c1356661f3d1dfa74d8f274928fcdeb", "fusion_lat": 0.0}, {"lon": -77.02579233333333, "name": "bbc1a3c9827ce6c9a3a9b9c8e2c75dcf", "is_disabled": 0, "type": "electric_scooter", "is_reserved": 0, "fusion_lon": 0.0, "lat": 38.920288666666664, "rental_uris": {"ios": "https://dc.lft.to/lastmile_qr_scan", "android": "https://dc.lft.to/lastmile_qr_scan"}, "bike_id": "bbc1a3c9827ce6c9a3a9b9c8e2c75dcf", "fusion_lat": 0.0}, {"lon": -77.01050283333333, "name": "a8f1c72cb2c8f09e12be01fdcd8673eb", "is_disabled": 0, "type": "electric_bike", "is_reserved": 0, "fusion_lon": 0.0, "lat": 38.966302666666664, "rental_uris": {"ios": "https://dc.lft.to/lastmile_qr_scan", "android": "https://dc.lft.to/lastmile_qr_scan"}, "bike_id": "a8f1c72cb2c8f09e12be01fdcd8673eb", "fusion_lat": 0.0}, {"lon": -77.00046766666667, "name": "54a7cfd9a92638a9b1c242d2348d328b", "is_disabled": 0, "type": "electric_scooter", "is_reserved": 0, "fusion_lon": 0.0, "lat": 38.878765666666666, "rental_uris": {"ios": "https://dc.lft.to/lastmile_qr_scan", "android": "https://dc.lft.to/lastmile_qr_scan"}, "bike_id": "54a7cfd9a92638a9b1c242d2348d328b", "fusion_lat": 0.0}, {"lon": -77.02137266666666, "name": "930211e252b9b35f0ed0132fc0e6f73b", "is_disabled": 0, "type": "electric_scooter", "is_reserved": 0, "fusion_lon": 0.0, "lat": 38.924883, "rental_uris": {"ios": "https://dc.lft.to/lastmile_qr_scan", "android": "https://dc.lft.to/lastmile_qr_scan"}, "bike_id": "930211e252b9b35f0ed0132fc0e6f73b", "fusion_lat": 0.0}, {"lon": -77.04870033333333, "name": "d1c4379edb0d63ee6018c06d95de369a", "is_disabled": 0, "type": "electric_scooter", "is_reserved": 0, "fusion_lon": 0.0, "lat": 38.916274666666666, "rental_uris": {"ios": "https://dc.lft.to/lastmile_qr_scan", "android": "https://dc.lft.to/lastmile_qr_scan"}, "bike_id": "d1c4379edb0d63ee6018c06d95de369a", "fusion_lat": 0.0}, {"lon": -77.03200533333333, "name": "02481483d29cf89749ff6d74291c7678", "is_disabled": 0, "type": "electric_scooter", "is_reserved": 0, "fusion_lon": 0.0, "lat": 38.88366533333333, "rental_uris": {"ios": "https://dc.lft.to/lastmile_qr_scan", "android": "https://dc.lft.to/lastmile_qr_scan"}, "bike_id": "02481483d29cf89749ff6d74291c7678", "fusion_lat": 0.0}, {"lon": -77.00197933333334, "name": "88cbc3709ff97f7075fd71922661e6f6", "is_disabled": 0, "type": "electric_scooter", "is_reserved": 0, "fusion_lon": 0.0, "lat": 38.88157416666667, "rental_uris": {"ios": "https://dc.lft.to/lastmile_qr_scan", "android": "https://dc.lft.to/lastmile_qr_scan"}, "bike_id": "88cbc3709ff97f7075fd71922661e6f6", "fusion_lat": 0.0}, {"lon": -76.99088283333333, "name": "8f5df79e7a297d41c286b08949780629", "is_disabled": 0, "type": "electric_scooter", "is_reserved": 0, "fusion_lon": 0.0, "lat": 38.93271466666667, "rental_uris": {"ios": "https://dc.lft.to/lastmile_qr_scan", "android": "https://dc.lft.to/lastmile_qr_scan"}, "bike_id": "8f5df79e7a297d41c286b08949780629", "fusion_lat": 0.0}, {"lon": -77.025713, "name": "75ad78c68c1074761e47b53a0c8ee7a6", "is_disabled": 0, "type": "electric_scooter", "is_reserved": 0, "fusion_lon": 0.0, "lat": 38.916571166666664, "rental_uris": {"ios": "https://dc.lft.to/lastmile_qr_scan", "android": "https://dc.lft.to/lastmile_qr_scan"}, "bike_id": "75ad78c68c1074761e47b53a0c8ee7a6", "fusion_lat": 0.0}, {"lon": -77.032512, "name": "78b2a098950952fc96777de53b4db94f", "is_disabled": 0, "type": "electric_scooter", "is_reserved": 0, "fusion_lon": 0.0, "lat": 38.902538666666665, "rental_uris": {"ios": "https://dc.lft.to/lastmile_qr_scan", "android": "https://dc.lft.to/lastmile_qr_scan"}, "bike_id": "78b2a098950952fc96777de53b4db94f", "fusion_lat": 0.0}, {"lon": -77.01806816666667, "name": "35b00facb3c6e4e4953926772041948b", "is_disabled": 0, "type": "electric_scooter", "is_reserved": 0, "fusion_lon": 0.0, "lat": 38.91402083333333, "rental_uris": {"ios": "https://dc.lft.to/lastmile_qr_scan", "android": "https://dc.lft.to/lastmile_qr_scan"}, "bike_id": "35b00facb3c6e4e4953926772041948b", "fusion_lat": 0.0}, {"lon": -76.98662916666666, "name": "c590b0e8e2757c445617246880e449d9", "is_disabled": 0, "type": "electric_scooter", "is_reserved": 0, "fusion_lon": 0.0, "lat": 38.91239683333333, "rental_uris": {"ios": "https://dc.lft.to/lastmile_qr_scan", "android": "https://dc.lft.to/lastmile_qr_scan"}, "bike_id": "c590b0e8e2757c445617246880e449d9", "fusion_lat": 0.0}, {"lon": -77.023156, "name": "8fce789dcac4eafecde4874ccee73340", "is_disabled": 0, "type": "electric_scooter", "is_reserved": 0, "fusion_lon": 0.0, "lat": 38.93984916666667, "rental_uris": {"ios": "https://dc.lft.to/lastmile_qr_scan", "android": "https://dc.lft.to/lastmile_qr_scan"}, "bike_id": "8fce789dcac4eafecde4874ccee73340", "fusion_lat": 0.0}, {"lon": -77.0415085, "name": "176ce126a4fc595d7be5e42375a1f319", "is_disabled": 0, "type": "electric_scooter", "is_reserved": 0, "fusion_lon": 0.0, "lat": 38.918108, "rental_uris": {"ios": "https://dc.lft.to/lastmile_qr_scan", "android": "https://dc.lft.to/lastmile_qr_scan"}, "bike_id": "176ce126a4fc595d7be5e42375a1f319", "fusion_lat": 0.0}, {"lon": -77.05057116666667, "name": "a205946f7a86ff9e43e1ddee285a6e53", "is_disabled": 0, "type": "electric_scooter", "is_reserved": 0, "fusion_lon": 0.0, "lat": 38.90057516666667, "rental_uris": {"ios": "https://dc.lft.to/lastmile_qr_scan", "android": "https://dc.lft.to/lastmile_qr_scan"}, "bike_id": "a205946f7a86ff9e43e1ddee285a6e53", "fusion_lat": 0.0}, {"lon": -77.091093, "name": "c7649d6af902ecba5e78e7f4e344c718", "is_disabled": 0, "type": "electric_scooter", "is_reserved": 0, "fusion_lon": 0.0, "lat": 38.930981833333334, "rental_uris": {"ios": "https://dc.lft.to/lastmile_qr_scan", "android": "https://dc.lft.to/lastmile_qr_scan"}, "bike_id": "c7649d6af902ecba5e78e7f4e344c718", "fusion_lat": 0.0}, {"lon": -77.0021785, "name": "a0e1d880f47aff35771250a5b30c42ab", "is_disabled": 0, "type": "electric_scooter", "is_reserved": 0, "fusion_lon": 0.0, "lat": 38.90187616666667, "rental_uris": {"ios": "https://dc.lft.to/lastmile_qr_scan", "android": "https://dc.lft.to/lastmile_qr_scan"}, "bike_id": "a0e1d880f47aff35771250a5b30c42ab", "fusion_lat": 0.0}, {"lon": -76.94662916666667, "name": "7dbac72938cabb82df50eed0fb9384ad", "is_disabled": 0, "type": "electric_scooter", "is_reserved": 0, "fusion_lon": 0.0, "lat": 38.89866983333334, "rental_uris": {"ios": "https://dc.lft.to/lastmile_qr_scan", "android": "https://dc.lft.to/lastmile_qr_scan"}, "bike_id": "7dbac72938cabb82df50eed0fb9384ad", "fusion_lat": 0.0}, {"lon": -77.0240955, "name": "507707a74ab5872f8960323da919f133", "is_disabled": 0, "type": "electric_scooter", "is_reserved": 0, "fusion_lon": 0.0, "lat": 38.892257666666666, "rental_uris": {"ios": "https://dc.lft.to/lastmile_qr_scan", "android": "https://dc.lft.to/lastmile_qr_scan"}, "bike_id": "507707a74ab5872f8960323da919f133", "fusion_lat": 0.0}, {"lon": -77.04082866666667, "name": "b8296a400f126943dba7a9ae91e09861", "is_disabled": 0, "type": "electric_scooter", "is_reserved": 0, "fusion_lon": 0.0, "lat": 38.9238275, "rental_uris": {"ios": "https://dc.lft.to/lastmile_qr_scan", "android": "https://dc.lft.to/lastmile_qr_scan"}, "bike_id": "b8296a400f126943dba7a9ae91e09861", "fusion_lat": 0.0}, {"lon": -76.99888333333334, "name": "9a648d0fb34b00a74a5b64906cae83bb", "is_disabled": 0, "type": "electric_bike", "is_reserved": 0, "fusion_lon": 0.0, "lat": 38.943004, "rental_uris": {"ios": "https://dc.lft.to/lastmile_qr_scan", "android": "https://dc.lft.to/lastmile_qr_scan"}, "bike_id": "9a648d0fb34b00a74a5b64906cae83bb", "fusion_lat": 0.0}, {"lon": -77.04981483333333, "name": "38b3218208b74f42a567a29dbda85247", "is_disabled": 0, "type": "electric_scooter", "is_reserved": 0, "fusion_lon": 0.0, "lat": 38.90109916666667, "rental_uris": {"ios": "https://dc.lft.to/lastmile_qr_scan", "android": "https://dc.lft.to/lastmile_qr_scan"}, "bike_id": "38b3218208b74f42a567a29dbda85247", "fusion_lat": 0.0}, {"lon": -77.033651, "name": "f8e2a62c2171b7737d8e85ffafa91163", "is_disabled": 0, "type": "electric_scooter", "is_reserved": 0, "fusion_lon": 0.0, "lat": 38.90121033333333, "rental_uris": {"ios": "https://dc.lft.to/lastmile_qr_scan", "android": "https://dc.lft.to/lastmile_qr_scan"}, "bike_id": "f8e2a62c2171b7737d8e85ffafa91163", "fusion_lat": 0.0}, {"lon": -77.03328416666666, "name": "29e1e7e4d5d8c916bb14b740c73e301b", "is_disabled": 0, "type": "electric_scooter", "is_reserved": 0, "fusion_lon": 0.0, "lat": 38.928813, "rental_uris": {"ios": "https://dc.lft.to/lastmile_qr_scan", "android": "https://dc.lft.to/lastmile_qr_scan"}, "bike_id": "29e1e7e4d5d8c916bb14b740c73e301b", "fusion_lat": 0.0}, {"lon": -77.04466533333333, "name": "faadae36b018e19b1622cfbaee8a2b14", "is_disabled": 0, "type": "electric_scooter", "is_reserved": 0, "fusion_lon": 0.0, "lat": 38.91533616666667, "rental_uris": {"ios": "https://dc.lft.to/lastmile_qr_scan", "android": "https://dc.lft.to/lastmile_qr_scan"}, "bike_id": "faadae36b018e19b1622cfbaee8a2b14", "fusion_lat": 0.0}, {"lon": -76.9457605, "name": "613a1e218f0f102eac4fd5e7472d9715", "is_disabled": 0, "type": "electric_scooter", "is_reserved": 0, "fusion_lon": 0.0, "lat": 38.8992195, "rental_uris": {"ios": "https://dc.lft.to/lastmile_qr_scan", "android": "https://dc.lft.to/lastmile_qr_scan"}, "bike_id": "613a1e218f0f102eac4fd5e7472d9715", "fusion_lat": 0.0}, {"lon": -77.02633566666667, "name": "423cf101d0a888bc2502ca0c3ba21f4c", "is_disabled": 0, "type": "electric_scooter", "is_reserved": 0, "fusion_lon": 0.0, "lat": 38.8960285, "rental_uris": {"ios": "https://dc.lft.to/lastmile_qr_scan", "android": "https://dc.lft.to/lastmile_qr_scan"}, "bike_id": "423cf101d0a888bc2502ca0c3ba21f4c", "fusion_lat": 0.0}, {"lon": -77.03876583333333, "name": "7f240b31a088ad1abacc46e371358d03", "is_disabled": 0, "type": "electric_bike", "is_reserved": 0, "fusion_lon": 0.0, "lat": 39.026218, "rental_uris": {"ios": "https://dc.lft.to/lastmile_qr_scan", "android": "https://dc.lft.to/lastmile_qr_scan"}, "bike_id": "7f240b31a088ad1abacc46e371358d03", "fusion_lat": 0.0}, {"lon": -77.162291, "name": "b688c2d02238423564c9416417ac5dfd", "is_disabled": 0, "type": "electric_bike", "is_reserved": 0, "fusion_lon": 0.0, "lat": 38.886598, "rental_uris": {"ios": "https://dc.lft.to/lastmile_qr_scan", "android": "https://dc.lft.to/lastmile_qr_scan"}, "bike_id": "b688c2d02238423564c9416417ac5dfd", "fusion_lat": 0.0}, {"lon": -77.00645283333333, "name": "1c6e271923de4cf41c2a8142fdf46d56", "is_disabled": 0, "type": "electric_scooter", "is_reserved": 0, "fusion_lon": 0.0, "lat": 38.900032, "rental_uris": {"ios": "https://dc.lft.to/lastmile_qr_scan", "android": "https://dc.lft.to/lastmile_qr_scan"}, "bike_id": "1c6e271923de4cf41c2a8142fdf46d56", "fusion_lat": 0.0}, {"lon": -77.00281716666667, "name": "28722f45309e2a177392f2984c62997a", "is_disabled": 0, "type": "electric_scooter", "is_reserved": 0, "fusion_lon": 0.0, "lat": 38.89354516666667, "rental_uris": {"ios": "https://dc.lft.to/lastmile_qr_scan", "android": "https://dc.lft.to/lastmile_qr_scan"}, "bike_id": "28722f45309e2a177392f2984c62997a", "fusion_lat": 0.0}, {"lon": -77.03616066666666, "name": "409bd41e28bc83ffaa75bf02c2c3204c", "is_disabled": 0, "type": "electric_scooter", "is_reserved": 0, "fusion_lon": 0.0, "lat": 38.90706616666667, "rental_uris": {"ios": "https://dc.lft.to/lastmile_qr_scan", "android": "https://dc.lft.to/lastmile_qr_scan"}, "bike_id": "409bd41e28bc83ffaa75bf02c2c3204c", "fusion_lat": 0.0}, {"lon": -77.05442866666667, "name": "6f9a26aaee256e533ade74cb3c7099cc", "is_disabled": 0, "type": "electric_scooter", "is_reserved": 0, "fusion_lon": 0.0, "lat": 38.9147435, "rental_uris": {"ios": "https://dc.lft.to/lastmile_qr_scan", "android": "https://dc.lft.to/lastmile_qr_scan"}, "bike_id": "6f9a26aaee256e533ade74cb3c7099cc", "fusion_lat": 0.0}, {"lon": -77.0621435, "name": "02c85af44ca6e65155405298f8c5cee3", "is_disabled": 0, "type": "electric_scooter", "is_reserved": 0, "fusion_lon": 0.0, "lat": 38.942231666666665, "rental_uris": {"ios": "https://dc.lft.to/lastmile_qr_scan", "android": "https://dc.lft.to/lastmile_qr_scan"}, "bike_id": "02c85af44ca6e65155405298f8c5cee3", "fusion_lat": 0.0}, {"lon": -77.01327616666667, "name": "c78752f89d6d8f5e699951948fe26b91", "is_disabled": 0, "type": "electric_scooter", "is_reserved": 0, "fusion_lon": 0.0, "lat": 38.900708, "rental_uris": {"ios": "https://dc.lft.to/lastmile_qr_scan", "android": "https://dc.lft.to/lastmile_qr_scan"}, "bike_id": "c78752f89d6d8f5e699951948fe26b91", "fusion_lat": 0.0}, {"lon": -77.04174316666666, "name": "cc4c1ec53de1f1f834189f70101a8dc1", "is_disabled": 0, "type": "electric_scooter", "is_reserved": 0, "fusion_lon": 0.0, "lat": 38.90481883333333, "rental_uris": {"ios": "https://dc.lft.to/lastmile_qr_scan", "android": "https://dc.lft.to/lastmile_qr_scan"}, "bike_id": "cc4c1ec53de1f1f834189f70101a8dc1", "fusion_lat": 0.0}, {"lon": -77.028325, "name": "b1194f779e8124ce041927d1ed403125", "is_disabled": 0, "type": "electric_scooter", "is_reserved": 0, "fusion_lon": 0.0, "lat": 38.938833833333334, "rental_uris": {"ios": "https://dc.lft.to/lastmile_qr_scan", "android": "https://dc.lft.to/lastmile_qr_scan"}, "bike_id": "b1194f779e8124ce041927d1ed403125", "fusion_lat": 0.0}, {"lon": -77.02276016666667, "name": "c2f045fd02193a59dd5f08a7a10ae592", "is_disabled": 0, "type": "electric_scooter", "is_reserved": 0, "fusion_lon": 0.0, "lat": 38.87845266666667, "rental_uris": {"ios": "https://dc.lft.to/lastmile_qr_scan", "android": "https://dc.lft.to/lastmile_qr_scan"}, "bike_id": "c2f045fd02193a59dd5f08a7a10ae592", "fusion_lat": 0.0}, {"lon": -77.1332675, "name": "d5b8fd4b48cc210df05cf21a435259f6", "is_disabled": 0, "type": "electric_bike", "is_reserved": 0, "fusion_lon": 0.0, "lat": 39.060355333333334, "rental_uris": {"ios": "https://dc.lft.to/lastmile_qr_scan", "android": "https://dc.lft.to/lastmile_qr_scan"}, "bike_id": "d5b8fd4b48cc210df05cf21a435259f6", "fusion_lat": 0.0}, {"lon": -77.01571533333333, "name": "ac06047820ac2026e98238675cff8eaf", "is_disabled": 0, "type": "electric_scooter", "is_reserved": 0, "fusion_lon": 0.0, "lat": 38.926841, "rental_uris": {"ios": "https://dc.lft.to/lastmile_qr_scan", "android": "https://dc.lft.to/lastmile_qr_scan"}, "bike_id": "ac06047820ac2026e98238675cff8eaf", "fusion_lat": 0.0}, {"lon": -76.97265633333333, "name": "95103f89a1d878fb10819fa089ca6875", "is_disabled": 0, "type": "electric_bike", "is_reserved": 0, "fusion_lon": 0.0, "lat": 38.856001666666664, "rental_uris": {"ios": "https://dc.lft.to/lastmile_qr_scan", "android": "https://dc.lft.to/lastmile_qr_scan"}, "bike_id": "95103f89a1d878fb10819fa089ca6875", "fusion_lat": 0.0}, {"lon": -77.01008016666667, "name": "62129426fda4c37cc7537dda33f7f50a", "is_disabled": 0, "type": "electric_scooter", "is_reserved": 0, "fusion_lon": 0.0, "lat": 38.86715066666667, "rental_uris": {"ios": "https://dc.lft.to/lastmile_qr_scan", "android": "https://dc.lft.to/lastmile_qr_scan"}, "bike_id": "62129426fda4c37cc7537dda33f7f50a", "fusion_lat": 0.0}, {"lon": -77.04476516666666, "name": "9f8ce4b576d4db6b12fd699747f5c850", "is_disabled": 0, "type": "electric_scooter", "is_reserved": 0, "fusion_lon": 0.0, "lat": 38.893556, "rental_uris": {"ios": "https://dc.lft.to/lastmile_qr_scan", "android": "https://dc.lft.to/lastmile_qr_scan"}, "bike_id": "9f8ce4b576d4db6b12fd699747f5c850", "fusion_lat": 0.0}, {"lon": -77.01665583333333, "name": "3799e03098e568a5d1e6f50a4dda5c5b", "is_disabled": 0, "type": "electric_scooter", "is_reserved": 0, "fusion_lon": 0.0, "lat": 38.92053933333333, "rental_uris": {"ios": "https://dc.lft.to/lastmile_qr_scan", "android": "https://dc.lft.to/lastmile_qr_scan"}, "bike_id": "3799e03098e568a5d1e6f50a4dda5c5b", "fusion_lat": 0.0}, {"lon": -77.00395233333333, "name": "affb861359de6b208d1f55b31391bb72", "is_disabled": 0, "type": "electric_bike", "is_reserved": 0, "fusion_lon": 0.0, "lat": 38.985553, "rental_uris": {"ios": "https://dc.lft.to/lastmile_qr_scan", "android": "https://dc.lft.to/lastmile_qr_scan"}, "bike_id": "affb861359de6b208d1f55b31391bb72", "fusion_lat": 0.0}, {"lon": -77.229796, "name": "f9e7acee3ac2546ffc198b88928e90db", "is_disabled": 0, "type": "electric_bike", "is_reserved": 0, "fusion_lon": 0.0, "lat": 38.871401166666665, "rental_uris": {"ios": "https://dc.lft.to/lastmile_qr_scan", "android": "https://dc.lft.to/lastmile_qr_scan"}, "bike_id": "f9e7acee3ac2546ffc198b88928e90db", "fusion_lat": 0.0}, {"lon": -77.005938, "name": "228ba6dd66308ad8cd4c3defab33ac28", "is_disabled": 0, "type": "electric_scooter", "is_reserved": 0, "fusion_lon": 0.0, "lat": 38.90612633333333, "rental_uris": {"ios": "https://dc.lft.to/lastmile_qr_scan", "android": "https://dc.lft.to/lastmile_qr_scan"}, "bike_id": "228ba6dd66308ad8cd4c3defab33ac28", "fusion_lat": 0.0}, {"lon": -77.026117, "name": "c8003f7b6949c3f9f591858d49d23712", "is_disabled": 0, "type": "electric_scooter", "is_reserved": 0, "fusion_lon": 0.0, "lat": 38.89626533333333, "rental_uris": {"ios": "https://dc.lft.to/lastmile_qr_scan", "android": "https://dc.lft.to/lastmile_qr_scan"}, "bike_id": "c8003f7b6949c3f9f591858d49d23712", "fusion_lat": 0.0}, {"lon": -77.02195633333334, "name": "95124af00f8d12de5940b54295191b88", "is_disabled": 0, "type": "electric_scooter", "is_reserved": 0, "fusion_lon": 0.0, "lat": 38.905375, "rental_uris": {"ios": "https://dc.lft.to/lastmile_qr_scan", "android": "https://dc.lft.to/lastmile_qr_scan"}, "bike_id": "95124af00f8d12de5940b54295191b88", "fusion_lat": 0.0}, {"lon": -76.98835266666667, "name": "513d85b315d983a3768a2d102bfc4fca", "is_disabled": 0, "type": "electric_scooter", "is_reserved": 0, "fusion_lon": 0.0, "lat": 38.93468933333333, "rental_uris": {"ios": "https://dc.lft.to/lastmile_qr_scan", "android": "https://dc.lft.to/lastmile_qr_scan"}, "bike_id": "513d85b315d983a3768a2d102bfc4fca", "fusion_lat": 0.0}, {"lon": -77.028436, "name": "77e0ada9fd65bce9a9b07c235e5fd79c", "is_disabled": 0, "type": "electric_scooter", "is_reserved": 0, "fusion_lon": 0.0, "lat": 38.94499166666667, "rental_uris": {"ios": "https://dc.lft.to/lastmile_qr_scan", "android": "https://dc.lft.to/lastmile_qr_scan"}, "bike_id": "77e0ada9fd65bce9a9b07c235e5fd79c", "fusion_lat": 0.0}, {"lon": -77.020543, "name": "9cea5217f551efbace9e113ffd3027fd", "is_disabled": 0, "type": "electric_scooter", "is_reserved": 0, "fusion_lon": 0.0, "lat": 38.9235965, "rental_uris": {"ios": "https://dc.lft.to/lastmile_qr_scan", "android": "https://dc.lft.to/lastmile_qr_scan"}, "bike_id": "9cea5217f551efbace9e113ffd3027fd", "fusion_lat": 0.0}, {"lon": -77.03661233333334, "name": "057b1980cac77cce15d56cc9568746d1", "is_disabled": 0, "type": "electric_scooter", "is_reserved": 0, "fusion_lon": 0.0, "lat": 38.9223955, "rental_uris": {"ios": "https://dc.lft.to/lastmile_qr_scan", "android": "https://dc.lft.to/lastmile_qr_scan"}, "bike_id": "057b1980cac77cce15d56cc9568746d1", "fusion_lat": 0.0}, {"lon": -77.03923366666666, "name": "dd7ea7e9eb2ecef6e6ec2d286c852583", "is_disabled": 0, "type": "electric_scooter", "is_reserved": 0, "fusion_lon": 0.0, "lat": 38.8991975, "rental_uris": {"ios": "https://dc.lft.to/lastmile_qr_scan", "android": "https://dc.lft.to/lastmile_qr_scan"}, "bike_id": "dd7ea7e9eb2ecef6e6ec2d286c852583", "fusion_lat": 0.0}, {"lon": -77.02532933333333, "name": "8ba7fdf8beeb421189df5bbd44595351", "is_disabled": 0, "type": "electric_scooter", "is_reserved": 0, "fusion_lon": 0.0, "lat": 38.892201, "rental_uris": {"ios": "https://dc.lft.to/lastmile_qr_scan", "android": "https://dc.lft.to/lastmile_qr_scan"}, "bike_id": "8ba7fdf8beeb421189df5bbd44595351", "fusion_lat": 0.0}, {"lon": -77.02469183333334, "name": "7e3b928b4816c5f175ed5fdd54ebc1c8", "is_disabled": 0, "type": "electric_scooter", "is_reserved": 0, "fusion_lon": 0.0, "lat": 38.90651616666667, "rental_uris": {"ios": "https://dc.lft.to/lastmile_qr_scan", "android": "https://dc.lft.to/lastmile_qr_scan"}, "bike_id": "7e3b928b4816c5f175ed5fdd54ebc1c8", "fusion_lat": 0.0}, {"lon": -77.02673516666667, "name": "f2fd01cb2cb5e514a62cb89bef779451", "is_disabled": 0, "type": "electric_scooter", "is_reserved": 0, "fusion_lon": 0.0, "lat": 38.921705833333334, "rental_uris": {"ios": "https://dc.lft.to/lastmile_qr_scan", "android": "https://dc.lft.to/lastmile_qr_scan"}, "bike_id": "f2fd01cb2cb5e514a62cb89bef779451", "fusion_lat": 0.0}, {"lon": -77.0318315, "name": "1553d6d9100ae189e2a392d46f52e868", "is_disabled": 0, "type": "electric_scooter", "is_reserved": 0, "fusion_lon": 0.0, "lat": 38.892383833333334, "rental_uris": {"ios": "https://dc.lft.to/lastmile_qr_scan", "android": "https://dc.lft.to/lastmile_qr_scan"}, "bike_id": "1553d6d9100ae189e2a392d46f52e868", "fusion_lat": 0.0}, {"lon": -77.028084, "name": "9fafd1b09155e914a43186c3441fdd68", "is_disabled": 0, "type": "electric_scooter", "is_reserved": 0, "fusion_lon": 0.0, "lat": 38.922405833333336, "rental_uris": {"ios": "https://dc.lft.to/lastmile_qr_scan", "android": "https://dc.lft.to/lastmile_qr_scan"}, "bike_id": "9fafd1b09155e914a43186c3441fdd68", "fusion_lat": 0.0}, {"lon": -77.02532533333333, "name": "0affd12e1362b6165531bb7bc3c1c099", "is_disabled": 0, "type": "electric_scooter", "is_reserved": 0, "fusion_lon": 0.0, "lat": 38.8921715, "rental_uris": {"ios": "https://dc.lft.to/lastmile_qr_scan", "android": "https://dc.lft.to/lastmile_qr_scan"}, "bike_id": "0affd12e1362b6165531bb7bc3c1c099", "fusion_lat": 0.0}, {"lon": -77.04415266666666, "name": "b9ce7755b2b89cbd1182d7f0135e4a70", "is_disabled": 0, "type": "electric_scooter", "is_reserved": 0, "fusion_lon": 0.0, "lat": 38.91119333333333, "rental_uris": {"ios": "https://dc.lft.to/lastmile_qr_scan", "android": "https://dc.lft.to/lastmile_qr_scan"}, "bike_id": "b9ce7755b2b89cbd1182d7f0135e4a70", "fusion_lat": 0.0}, {"lon": -77.06875283333333, "name": "13715e0d373a3dbb1788c09f69775897", "is_disabled": 0, "type": "electric_scooter", "is_reserved": 0, "fusion_lon": 0.0, "lat": 38.90516866666667, "rental_uris": {"ios": "https://dc.lft.to/lastmile_qr_scan", "android": "https://dc.lft.to/lastmile_qr_scan"}, "bike_id": "13715e0d373a3dbb1788c09f69775897", "fusion_lat": 0.0}, {"lon": -77.04058316666666, "name": "c7d905867975214b9e3cf6bbc5d90266", "is_disabled": 0, "type": "electric_scooter", "is_reserved": 0, "fusion_lon": 0.0, "lat": 38.89896366666667, "rental_uris": {"ios": "https://dc.lft.to/lastmile_qr_scan", "android": "https://dc.lft.to/lastmile_qr_scan"}, "bike_id": "c7d905867975214b9e3cf6bbc5d90266", "fusion_lat": 0.0}, {"lon": -76.951247, "name": "34d6a8de017740e7c67501e57bd6ac75", "is_disabled": 0, "type": "electric_bike", "is_reserved": 0, "fusion_lon": 0.0, "lat": 38.9518585, "rental_uris": {"ios": "https://dc.lft.to/lastmile_qr_scan", "android": "https://dc.lft.to/lastmile_qr_scan"}, "bike_id": "34d6a8de017740e7c67501e57bd6ac75", "fusion_lat": 0.0}, {"lon": -77.02396333333333, "name": "204a2bd4641f21837d8ef37ec8926452", "is_disabled": 0, "type": "electric_scooter", "is_reserved": 0, "fusion_lon": 0.0, "lat": 38.91599216666667, "rental_uris": {"ios": "https://dc.lft.to/lastmile_qr_scan", "android": "https://dc.lft.to/lastmile_qr_scan"}, "bike_id": "204a2bd4641f21837d8ef37ec8926452", "fusion_lat": 0.0}, {"lon": -77.031185, "name": "3862a5ac9ad4d04e92d887a7f5c1facf", "is_disabled": 0, "type": "electric_scooter", "is_reserved": 0, "fusion_lon": 0.0, "lat": 38.92016383333333, "rental_uris": {"ios": "https://dc.lft.to/lastmile_qr_scan", "android": "https://dc.lft.to/lastmile_qr_scan"}, "bike_id": "3862a5ac9ad4d04e92d887a7f5c1facf", "fusion_lat": 0.0}, {"lon": -77.0220635, "name": "efca4b61e8b04351c32bb5ba5e0aaf45", "is_disabled": 0, "type": "electric_scooter", "is_reserved": 0, "fusion_lon": 0.0, "lat": 38.92470016666667, "rental_uris": {"ios": "https://dc.lft.to/lastmile_qr_scan", "android": "https://dc.lft.to/lastmile_qr_scan"}, "bike_id": "efca4b61e8b04351c32bb5ba5e0aaf45", "fusion_lat": 0.0}, {"lon": -77.039561, "name": "571b55785d6771b603aee9aac9092f57", "is_disabled": 0, "type": "electric_scooter", "is_reserved": 0, "fusion_lon": 0.0, "lat": 38.8924445, "rental_uris": {"ios": "https://dc.lft.to/lastmile_qr_scan", "android": "https://dc.lft.to/lastmile_qr_scan"}, "bike_id": "571b55785d6771b603aee9aac9092f57", "fusion_lat": 0.0}, {"lon": -77.02240466666667, "name": "4d080b55594f7fc7cf3b51dbe4443034", "is_disabled": 0, "type": "electric_scooter", "is_reserved": 0, "fusion_lon": 0.0, "lat": 38.924326666666666, "rental_uris": {"ios": "https://dc.lft.to/lastmile_qr_scan", "android": "https://dc.lft.to/lastmile_qr_scan"}, "bike_id": "4d080b55594f7fc7cf3b51dbe4443034", "fusion_lat": 0.0}, {"lon": -76.996928, "name": "732bd36b7ae0086f11ea001a04b663c4", "is_disabled": 0, "type": "electric_bike", "is_reserved": 0, "fusion_lon": 0.0, "lat": 38.83866416666667, "rental_uris": {"ios": "https://dc.lft.to/lastmile_qr_scan", "android": "https://dc.lft.to/lastmile_qr_scan"}, "bike_id": "732bd36b7ae0086f11ea001a04b663c4", "fusion_lat": 0.0}, {"lon": -77.02966933333333, "name": "3e4df35b7efbd4f938dd9eb827479be8", "is_disabled": 0, "type": "electric_scooter", "is_reserved": 0, "fusion_lon": 0.0, "lat": 38.90491083333333, "rental_uris": {"ios": "https://dc.lft.to/lastmile_qr_scan", "android": "https://dc.lft.to/lastmile_qr_scan"}, "bike_id": "3e4df35b7efbd4f938dd9eb827479be8", "fusion_lat": 0.0}, {"lon": -77.04156166666667, "name": "80b31b7118fe325c547b76e186a0837d", "is_disabled": 0, "type": "electric_scooter", "is_reserved": 0, "fusion_lon": 0.0, "lat": 38.9176815, "rental_uris": {"ios": "https://dc.lft.to/lastmile_qr_scan", "android": "https://dc.lft.to/lastmile_qr_scan"}, "bike_id": "80b31b7118fe325c547b76e186a0837d", "fusion_lat": 0.0}, {"lon": -77.028308, "name": "2bede5763de18d50c8f9b26dbb99c709", "is_disabled": 0, "type": "electric_scooter", "is_reserved": 0, "fusion_lon": 0.0, "lat": 38.91404966666666, "rental_uris": {"ios": "https://dc.lft.to/lastmile_qr_scan", "android": "https://dc.lft.to/lastmile_qr_scan"}, "bike_id": "2bede5763de18d50c8f9b26dbb99c709", "fusion_lat": 0.0}, {"lon": -76.9909795, "name": "63099b50bec8d8b68525a5ea2765f957", "is_disabled": 0, "type": "electric_scooter", "is_reserved": 0, "fusion_lon": 0.0, "lat": 38.910130833333334, "rental_uris": {"ios": "https://dc.lft.to/lastmile_qr_scan", "android": "https://dc.lft.to/lastmile_qr_scan"}, "bike_id": "63099b50bec8d8b68525a5ea2765f957", "fusion_lat": 0.0}, {"lon": -77.02464916666666, "name": "816f6718d3b88938d89e39e9fa8b80d3", "is_disabled": 0, "type": "electric_scooter", "is_reserved": 0, "fusion_lon": 0.0, "lat": 38.92590233333333, "rental_uris": {"ios": "https://dc.lft.to/lastmile_qr_scan", "android": "https://dc.lft.to/lastmile_qr_scan"}, "bike_id": "816f6718d3b88938d89e39e9fa8b80d3", "fusion_lat": 0.0}, {"lon": -76.98756866666666, "name": "b53c687639cf0b75f745d67f88101d11", "is_disabled": 0, "type": "electric_bike", "is_reserved": 0, "fusion_lon": 0.0, "lat": 38.8578375, "rental_uris": {"ios": "https://dc.lft.to/lastmile_qr_scan", "android": "https://dc.lft.to/lastmile_qr_scan"}, "bike_id": "b53c687639cf0b75f745d67f88101d11", "fusion_lat": 0.0}, {"lon": -77.02699816666667, "name": "c2fe6cc5167a257026e8f8f9e29b7c9d", "is_disabled": 0, "type": "electric_scooter", "is_reserved": 0, "fusion_lon": 0.0, "lat": 38.97306783333333, "rental_uris": {"ios": "https://dc.lft.to/lastmile_qr_scan", "android": "https://dc.lft.to/lastmile_qr_scan"}, "bike_id": "c2fe6cc5167a257026e8f8f9e29b7c9d", "fusion_lat": 0.0}, {"lon": -76.99680566666666, "name": "df1a22c3a7df0109508468b0f13cc312", "is_disabled": 0, "type": "electric_scooter", "is_reserved": 0, "fusion_lon": 0.0, "lat": 38.884343666666666, "rental_uris": {"ios": "https://dc.lft.to/lastmile_qr_scan", "android": "https://dc.lft.to/lastmile_qr_scan"}, "bike_id": "df1a22c3a7df0109508468b0f13cc312", "fusion_lat": 0.0}, {"lon": -77.02361933333333, "name": "01b9e460480a6cf756763792781b99ea", "is_disabled": 0, "type": "electric_scooter", "is_reserved": 0, "fusion_lon": 0.0, "lat": 38.89909216666667, "rental_uris": {"ios": "https://dc.lft.to/lastmile_qr_scan", "android": "https://dc.lft.to/lastmile_qr_scan"}, "bike_id": "01b9e460480a6cf756763792781b99ea", "fusion_lat": 0.0}, {"lon": -77.09877833333333, "name": "7aae64e1076c11021dba6ba26192a34b", "is_disabled": 0, "type": "electric_bike", "is_reserved": 0, "fusion_lon": 0.0, "lat": 38.947236, "rental_uris": {"ios": "https://dc.lft.to/lastmile_qr_scan", "android": "https://dc.lft.to/lastmile_qr_scan"}, "bike_id": "7aae64e1076c11021dba6ba26192a34b", "fusion_lat": 0.0}, {"lon": -77.06519633333333, "name": "cd20b3885e770459a389963465f6b132", "is_disabled": 0, "type": "electric_bike", "is_reserved": 0, "fusion_lon": 0.0, "lat": 38.992285, "rental_uris": {"ios": "https://dc.lft.to/lastmile_qr_scan", "android": "https://dc.lft.to/lastmile_qr_scan"}, "bike_id": "cd20b3885e770459a389963465f6b132", "fusion_lat": 0.0}, {"lon": -76.99508133333333, "name": "40d11406f9b3596c59c73d03fc9a3004", "is_disabled": 0, "type": "electric_scooter", "is_reserved": 0, "fusion_lon": 0.0, "lat": 38.8839055, "rental_uris": {"ios": "https://dc.lft.to/lastmile_qr_scan", "android": "https://dc.lft.to/lastmile_qr_scan"}, "bike_id": "40d11406f9b3596c59c73d03fc9a3004", "fusion_lat": 0.0}, {"lon": -77.03339833333334, "name": "8eb897d35260704363bed92a1687147e", "is_disabled": 0, "type": "electric_scooter", "is_reserved": 0, "fusion_lon": 0.0, "lat": 38.90313183333333, "rental_uris": {"ios": "https://dc.lft.to/lastmile_qr_scan", "android": "https://dc.lft.to/lastmile_qr_scan"}, "bike_id": "8eb897d35260704363bed92a1687147e", "fusion_lat": 0.0}, {"lon": -77.019148, "name": "5fce6c54b7206ee79b24ab0e5f605552", "is_disabled": 0, "type": "electric_scooter", "is_reserved": 0, "fusion_lon": 0.0, "lat": 38.9294625, "rental_uris": {"ios": "https://dc.lft.to/lastmile_qr_scan", "android": "https://dc.lft.to/lastmile_qr_scan"}, "bike_id": "5fce6c54b7206ee79b24ab0e5f605552", "fusion_lat": 0.0}, {"lon": -77.021889, "name": "6fa5349c811112ea03277db2a93f8722", "is_disabled": 0, "type": "electric_scooter", "is_reserved": 0, "fusion_lon": 0.0, "lat": 38.916631833333334, "rental_uris": {"ios": "https://dc.lft.to/lastmile_qr_scan", "android": "https://dc.lft.to/lastmile_qr_scan"}, "bike_id": "6fa5349c811112ea03277db2a93f8722", "fusion_lat": 0.0}, {"lon": -77.042483, "name": "023a820e17e31fba06a7705f228ad5d8", "is_disabled": 0, "type": "electric_scooter", "is_reserved": 0, "fusion_lon": 0.0, "lat": 38.92231966666667, "rental_uris": {"ios": "https://dc.lft.to/lastmile_qr_scan", "android": "https://dc.lft.to/lastmile_qr_scan"}, "bike_id": "023a820e17e31fba06a7705f228ad5d8", "fusion_lat": 0.0}, {"lon": -77.05231666666667, "name": "4ee77ef34c122c734244cade3414d3f5", "is_disabled": 0, "type": "electric_scooter", "is_reserved": 0, "fusion_lon": 0.0, "lat": 38.92465116666666, "rental_uris": {"ios": "https://dc.lft.to/lastmile_qr_scan", "android": "https://dc.lft.to/lastmile_qr_scan"}, "bike_id": "4ee77ef34c122c734244cade3414d3f5", "fusion_lat": 0.0}, {"lon": -77.04693883333333, "name": "0be43ea456c2e873a70f959a8b2b2e21", "is_disabled": 0, "type": "electric_scooter", "is_reserved": 0, "fusion_lon": 0.0, "lat": 38.921626833333335, "rental_uris": {"ios": "https://dc.lft.to/lastmile_qr_scan", "android": "https://dc.lft.to/lastmile_qr_scan"}, "bike_id": "0be43ea456c2e873a70f959a8b2b2e21", "fusion_lat": 0.0}, {"lon": -77.02053133333334, "name": "82695b70b4b591f5da4a87127f46514e", "is_disabled": 0, "type": "electric_scooter", "is_reserved": 0, "fusion_lon": 0.0, "lat": 38.9235315, "rental_uris": {"ios": "https://dc.lft.to/lastmile_qr_scan", "android": "https://dc.lft.to/lastmile_qr_scan"}, "bike_id": "82695b70b4b591f5da4a87127f46514e", "fusion_lat": 0.0}, {"lon": -77.00797383333334, "name": "c97e64479efa95c6a1bafb27d16fdbf2", "is_disabled": 0, "type": "electric_scooter", "is_reserved": 0, "fusion_lon": 0.0, "lat": 38.897124, "rental_uris": {"ios": "https://dc.lft.to/lastmile_qr_scan", "android": "https://dc.lft.to/lastmile_qr_scan"}, "bike_id": "c97e64479efa95c6a1bafb27d16fdbf2", "fusion_lat": 0.0}, {"lon": -77.04117133333334, "name": "d7eb827df37e966333603c092e131d27", "is_disabled": 0, "type": "electric_scooter", "is_reserved": 0, "fusion_lon": 0.0, "lat": 38.921248166666665, "rental_uris": {"ios": "https://dc.lft.to/lastmile_qr_scan", "android": "https://dc.lft.to/lastmile_qr_scan"}, "bike_id": "d7eb827df37e966333603c092e131d27", "fusion_lat": 0.0}, {"lon": -77.000043, "name": "184257751bace0f64b8411504a0fb12b", "is_disabled": 0, "type": "electric_scooter", "is_reserved": 0, "fusion_lon": 0.0, "lat": 38.90798266666667, "rental_uris": {"ios": "https://dc.lft.to/lastmile_qr_scan", "android": "https://dc.lft.to/lastmile_qr_scan"}, "bike_id": "184257751bace0f64b8411504a0fb12b", "fusion_lat": 0.0}, {"lon": -77.04148366666666, "name": "429f9361e6e6f3e091d802cbf76c09ef", "is_disabled": 0, "type": "electric_scooter", "is_reserved": 0, "fusion_lon": 0.0, "lat": 38.91651916666667, "rental_uris": {"ios": "https://dc.lft.to/lastmile_qr_scan", "android": "https://dc.lft.to/lastmile_qr_scan"}, "bike_id": "429f9361e6e6f3e091d802cbf76c09ef", "fusion_lat": 0.0}, {"lon": -77.01163066666666, "name": "eda34a6e9361c3d93df48cadca788e02", "is_disabled": 0, "type": "electric_scooter", "is_reserved": 0, "fusion_lon": 0.0, "lat": 38.8961915, "rental_uris": {"ios": "https://dc.lft.to/lastmile_qr_scan", "android": "https://dc.lft.to/lastmile_qr_scan"}, "bike_id": "eda34a6e9361c3d93df48cadca788e02", "fusion_lat": 0.0}, {"lon": -77.04682466666667, "name": "d36f56b7b3d748f4b71cd0b908c59238", "is_disabled": 0, "type": "electric_scooter", "is_reserved": 0, "fusion_lon": 0.0, "lat": 38.89965883333333, "rental_uris": {"ios": "https://dc.lft.to/lastmile_qr_scan", "android": "https://dc.lft.to/lastmile_qr_scan"}, "bike_id": "d36f56b7b3d748f4b71cd0b908c59238", "fusion_lat": 0.0}, {"lon": -77.03468466666666, "name": "1977a5f342e750bfdebf9a9b58e3d61e", "is_disabled": 0, "type": "electric_scooter", "is_reserved": 0, "fusion_lon": 0.0, "lat": 38.9193935, "rental_uris": {"ios": "https://dc.lft.to/lastmile_qr_scan", "android": "https://dc.lft.to/lastmile_qr_scan"}, "bike_id": "1977a5f342e750bfdebf9a9b58e3d61e", "fusion_lat": 0.0}, {"lon": -76.93208033333333, "name": "36ef14fdcca46b236b53fe350cc5d64e", "is_disabled": 0, "type": "electric_scooter", "is_reserved": 0, "fusion_lon": 0.0, "lat": 38.896696666666664, "rental_uris": {"ios": "https://dc.lft.to/lastmile_qr_scan", "android": "https://dc.lft.to/lastmile_qr_scan"}, "bike_id": "36ef14fdcca46b236b53fe350cc5d64e", "fusion_lat": 0.0}, {"lon": -77.01943983333334, "name": "d0837839cd6604e9ca09a3d677584eae", "is_disabled": 0, "type": "electric_scooter", "is_reserved": 0, "fusion_lon": 0.0, "lat": 38.924168333333334, "rental_uris": {"ios": "https://dc.lft.to/lastmile_qr_scan", "android": "https://dc.lft.to/lastmile_qr_scan"}, "bike_id": "d0837839cd6604e9ca09a3d677584eae", "fusion_lat": 0.0}, {"lon": -76.9346565, "name": "609b31a3c64bb2c5756344f56877f575", "is_disabled": 0, "type": "electric_scooter", "is_reserved": 0, "fusion_lon": 0.0, "lat": 38.901816833333335, "rental_uris": {"ios": "https://dc.lft.to/lastmile_qr_scan", "android": "https://dc.lft.to/lastmile_qr_scan"}, "bike_id": "609b31a3c64bb2c5756344f56877f575", "fusion_lat": 0.0}, {"lon": -77.00412283333333, "name": "5f20ab80cdc11b68c0ab4c5592f18150", "is_disabled": 0, "type": "electric_bike", "is_reserved": 0, "fusion_lon": 0.0, "lat": 38.9853065, "rental_uris": {"ios": "https://dc.lft.to/lastmile_qr_scan", "android": "https://dc.lft.to/lastmile_qr_scan"}, "bike_id": "5f20ab80cdc11b68c0ab4c5592f18150", "fusion_lat": 0.0}, {"lon": -76.98153883333333, "name": "dee816937f17ae1a691f735171a5b66f", "is_disabled": 0, "type": "electric_scooter", "is_reserved": 0, "fusion_lon": 0.0, "lat": 38.92553083333333, "rental_uris": {"ios": "https://dc.lft.to/lastmile_qr_scan", "android": "https://dc.lft.to/lastmile_qr_scan"}, "bike_id": "dee816937f17ae1a691f735171a5b66f", "fusion_lat": 0.0}, {"lon": -77.08718966666666, "name": "c506f69ea8e6b4d149caa265cf07bad3", "is_disabled": 0, "type": "electric_bike", "is_reserved": 0, "fusion_lon": 0.0, "lat": 38.93872133333333, "rental_uris": {"ios": "https://dc.lft.to/lastmile_qr_scan", "android": "https://dc.lft.to/lastmile_qr_scan"}, "bike_id": "c506f69ea8e6b4d149caa265cf07bad3", "fusion_lat": 0.0}, {"lon": -76.939429, "name": "f50ab2d830c4eb5536ad8c55dec324dc", "is_disabled": 0, "type": "electric_scooter", "is_reserved": 0, "fusion_lon": 0.0, "lat": 38.90863783333333, "rental_uris": {"ios": "https://dc.lft.to/lastmile_qr_scan", "android": "https://dc.lft.to/lastmile_qr_scan"}, "bike_id": "f50ab2d830c4eb5536ad8c55dec324dc", "fusion_lat": 0.0}, {"lon": -77.01900166666667, "name": "a71b5c4c029dd4cf27c7ca0bd6f2b1f4", "is_disabled": 0, "type": "electric_scooter", "is_reserved": 0, "fusion_lon": 0.0, "lat": 38.91943066666666, "rental_uris": {"ios": "https://dc.lft.to/lastmile_qr_scan", "android": "https://dc.lft.to/lastmile_qr_scan"}, "bike_id": "a71b5c4c029dd4cf27c7ca0bd6f2b1f4", "fusion_lat": 0.0}, {"lon": -77.02272316666667, "name": "401a5dffdb1ded0d9910582fe4e42c18", "is_disabled": 0, "type": "electric_scooter", "is_reserved": 0, "fusion_lon": 0.0, "lat": 38.926535333333334, "rental_uris": {"ios": "https://dc.lft.to/lastmile_qr_scan", "android": "https://dc.lft.to/lastmile_qr_scan"}, "bike_id": "401a5dffdb1ded0d9910582fe4e42c18", "fusion_lat": 0.0}, {"lon": -77.024082, "name": "d777cdbe6260068294434f5e01a4bb49", "is_disabled": 0, "type": "electric_scooter", "is_reserved": 0, "fusion_lon": 0.0, "lat": 38.892284833333335, "rental_uris": {"ios": "https://dc.lft.to/lastmile_qr_scan", "android": "https://dc.lft.to/lastmile_qr_scan"}, "bike_id": "d777cdbe6260068294434f5e01a4bb49", "fusion_lat": 0.0}, {"lon": -77.02968566666667, "name": "4fa1cc1a1cc3c0b28bc6020f806d7861", "is_disabled": 0, "type": "electric_scooter", "is_reserved": 0, "fusion_lon": 0.0, "lat": 38.899437, "rental_uris": {"ios": "https://dc.lft.to/lastmile_qr_scan", "android": "https://dc.lft.to/lastmile_qr_scan"}, "bike_id": "4fa1cc1a1cc3c0b28bc6020f806d7861", "fusion_lat": 0.0}, {"lon": -77.01025716666666, "name": "522c41aeb5f06aab7e8525753563bbfe", "is_disabled": 0, "type": "electric_bike", "is_reserved": 0, "fusion_lon": 0.0, "lat": 38.958800333333336, "rental_uris": {"ios": "https://dc.lft.to/lastmile_qr_scan", "android": "https://dc.lft.to/lastmile_qr_scan"}, "bike_id": "522c41aeb5f06aab7e8525753563bbfe", "fusion_lat": 0.0}, {"lon": -77.05325216666667, "name": "b6f4dc21b52f21a0dcc495d21fe11c2a", "is_disabled": 0, "type": "electric_scooter", "is_reserved": 0, "fusion_lon": 0.0, "lat": 38.910501, "rental_uris": {"ios": "https://dc.lft.to/lastmile_qr_scan", "android": "https://dc.lft.to/lastmile_qr_scan"}, "bike_id": "b6f4dc21b52f21a0dcc495d21fe11c2a", "fusion_lat": 0.0}, {"lon": -76.95697783333334, "name": "069db025e91be1b0744a6520900a27b1", "is_disabled": 0, "type": "electric_bike", "is_reserved": 0, "fusion_lon": 0.0, "lat": 38.888695166666665, "rental_uris": {"ios": "https://dc.lft.to/lastmile_qr_scan", "android": "https://dc.lft.to/lastmile_qr_scan"}, "bike_id": "069db025e91be1b0744a6520900a27b1", "fusion_lat": 0.0}, {"lon": -77.02779116666666, "name": "f1c979d8f8d347b85ca5f1c7b7fb31bc", "is_disabled": 0, "type": "electric_scooter", "is_reserved": 0, "fusion_lon": 0.0, "lat": 38.962113, "rental_uris": {"ios": "https://dc.lft.to/lastmile_qr_scan", "android": "https://dc.lft.to/lastmile_qr_scan"}, "bike_id": "f1c979d8f8d347b85ca5f1c7b7fb31bc", "fusion_lat": 0.0}, {"lon": -77.0197585, "name": "408214c70dde7a82ca9bd19c73f983d2", "is_disabled": 0, "type": "electric_scooter", "is_reserved": 0, "fusion_lon": 0.0, "lat": 38.9301545, "rental_uris": {"ios": "https://dc.lft.to/lastmile_qr_scan", "android": "https://dc.lft.to/lastmile_qr_scan"}, "bike_id": "408214c70dde7a82ca9bd19c73f983d2", "fusion_lat": 0.0}, {"lon": -77.0237285, "name": "362ed87bdad3c7827852a36230ef158f", "is_disabled": 0, "type": "electric_scooter", "is_reserved": 0, "fusion_lon": 0.0, "lat": 38.90207933333333, "rental_uris": {"ios": "https://dc.lft.to/lastmile_qr_scan", "android": "https://dc.lft.to/lastmile_qr_scan"}, "bike_id": "362ed87bdad3c7827852a36230ef158f", "fusion_lat": 0.0}, {"lon": -77.04459683333333, "name": "3139ac2963f57ec0528cf89767d5c2b5", "is_disabled": 0, "type": "electric_scooter", "is_reserved": 0, "fusion_lon": 0.0, "lat": 38.915441666666666, "rental_uris": {"ios": "https://dc.lft.to/lastmile_qr_scan", "android": "https://dc.lft.to/lastmile_qr_scan"}, "bike_id": "3139ac2963f57ec0528cf89767d5c2b5", "fusion_lat": 0.0}, {"lon": -77.0319235, "name": "82d698f02480a90c5f9f257678a63117", "is_disabled": 0, "type": "electric_scooter", "is_reserved": 0, "fusion_lon": 0.0, "lat": 38.916742166666666, "rental_uris": {"ios": "https://dc.lft.to/lastmile_qr_scan", "android": "https://dc.lft.to/lastmile_qr_scan"}, "bike_id": "82d698f02480a90c5f9f257678a63117", "fusion_lat": 0.0}, {"lon": -77.05297266666666, "name": "111eccb69032981b29baddf516956232", "is_disabled": 0, "type": "electric_scooter", "is_reserved": 0, "fusion_lon": 0.0, "lat": 38.92553216666667, "rental_uris": {"ios": "https://dc.lft.to/lastmile_qr_scan", "android": "https://dc.lft.to/lastmile_qr_scan"}, "bike_id": "111eccb69032981b29baddf516956232", "fusion_lat": 0.0}, {"lon": -77.01950466666666, "name": "3a9c7e436739c95b8ec5472c71bfc2a2", "is_disabled": 0, "type": "electric_scooter", "is_reserved": 0, "fusion_lon": 0.0, "lat": 38.898395666666666, "rental_uris": {"ios": "https://dc.lft.to/lastmile_qr_scan", "android": "https://dc.lft.to/lastmile_qr_scan"}, "bike_id": "3a9c7e436739c95b8ec5472c71bfc2a2", "fusion_lat": 0.0}, {"lon": -77.02070966666666, "name": "d4d1ba4c921a028ef6271505190318a0", "is_disabled": 0, "type": "electric_scooter", "is_reserved": 0, "fusion_lon": 0.0, "lat": 38.9228945, "rental_uris": {"ios": "https://dc.lft.to/lastmile_qr_scan", "android": "https://dc.lft.to/lastmile_qr_scan"}, "bike_id": "d4d1ba4c921a028ef6271505190318a0", "fusion_lat": 0.0}, {"lon": -77.03209283333334, "name": "a5d7c72947d03e8f40d480842448b725", "is_disabled": 0, "type": "electric_scooter", "is_reserved": 0, "fusion_lon": 0.0, "lat": 38.91728883333333, "rental_uris": {"ios": "https://dc.lft.to/lastmile_qr_scan", "android": "https://dc.lft.to/lastmile_qr_scan"}, "bike_id": "a5d7c72947d03e8f40d480842448b725", "fusion_lat": 0.0}, {"lon": -77.0334395, "name": "0239cd66ff7b67cc2b1a327c1020e28e", "is_disabled": 0, "type": "electric_scooter", "is_reserved": 0, "fusion_lon": 0.0, "lat": 38.9170945, "rental_uris": {"ios": "https://dc.lft.to/lastmile_qr_scan", "android": "https://dc.lft.to/lastmile_qr_scan"}, "bike_id": "0239cd66ff7b67cc2b1a327c1020e28e", "fusion_lat": 0.0}, {"lon": -77.02416183333334, "name": "73c90485c932b27d138f91b45af3a962", "is_disabled": 0, "type": "electric_scooter", "is_reserved": 0, "fusion_lon": 0.0, "lat": 38.892175, "rental_uris": {"ios": "https://dc.lft.to/lastmile_qr_scan", "android": "https://dc.lft.to/lastmile_qr_scan"}, "bike_id": "73c90485c932b27d138f91b45af3a962", "fusion_lat": 0.0}, {"lon": -76.93974916666667, "name": "ceb58264cb3b59394188b6de0305881e", "is_disabled": 0, "type": "electric_scooter", "is_reserved": 0, "fusion_lon": 0.0, "lat": 38.899643166666664, "rental_uris": {"ios": "https://dc.lft.to/lastmile_qr_scan", "android": "https://dc.lft.to/lastmile_qr_scan"}, "bike_id": "ceb58264cb3b59394188b6de0305881e", "fusion_lat": 0.0}, {"lon": -77.04997633333333, "name": "60b7911bec2dde076c447eb78232a87a", "is_disabled": 0, "type": "electric_scooter", "is_reserved": 0, "fusion_lon": 0.0, "lat": 38.892297166666665, "rental_uris": {"ios": "https://dc.lft.to/lastmile_qr_scan", "android": "https://dc.lft.to/lastmile_qr_scan"}, "bike_id": "60b7911bec2dde076c447eb78232a87a", "fusion_lat": 0.0}, {"lon": -76.98354166666667, "name": "dcce0c68fdb0868e3f46df83806a844f", "is_disabled": 0, "type": "electric_bike", "is_reserved": 0, "fusion_lon": 0.0, "lat": 38.862564666666664, "rental_uris": {"ios": "https://dc.lft.to/lastmile_qr_scan", "android": "https://dc.lft.to/lastmile_qr_scan"}, "bike_id": "dcce0c68fdb0868e3f46df83806a844f", "fusion_lat": 0.0}, {"lon": -77.0221735, "name": "b9b8557c4772d0e5fcbb3f906b1e04d2", "is_disabled": 0, "type": "electric_scooter", "is_reserved": 0, "fusion_lon": 0.0, "lat": 38.92477216666666, "rental_uris": {"ios": "https://dc.lft.to/lastmile_qr_scan", "android": "https://dc.lft.to/lastmile_qr_scan"}, "bike_id": "b9b8557c4772d0e5fcbb3f906b1e04d2", "fusion_lat": 0.0}, {"lon": -76.98454633333333, "name": "4af25caf4dff4d6d5080ba51478aab8b", "is_disabled": 0, "type": "electric_scooter", "is_reserved": 0, "fusion_lon": 0.0, "lat": 38.892347, "rental_uris": {"ios": "https://dc.lft.to/lastmile_qr_scan", "android": "https://dc.lft.to/lastmile_qr_scan"}, "bike_id": "4af25caf4dff4d6d5080ba51478aab8b", "fusion_lat": 0.0}, {"lon": -77.00216916666666, "name": "dcd42c715e064c5a42d54f2c8dcb3964", "is_disabled": 0, "type": "electric_scooter", "is_reserved": 0, "fusion_lon": 0.0, "lat": 38.90187366666667, "rental_uris": {"ios": "https://dc.lft.to/lastmile_qr_scan", "android": "https://dc.lft.to/lastmile_qr_scan"}, "bike_id": "dcd42c715e064c5a42d54f2c8dcb3964", "fusion_lat": 0.0}, {"lon": -77.0339245, "name": "2c95f928ba9e6d6e16c2b819f24c10bd", "is_disabled": 0, "type": "electric_scooter", "is_reserved": 0, "fusion_lon": 0.0, "lat": 38.90020033333333, "rental_uris": {"ios": "https://dc.lft.to/lastmile_qr_scan", "android": "https://dc.lft.to/lastmile_qr_scan"}, "bike_id": "2c95f928ba9e6d6e16c2b819f24c10bd", "fusion_lat": 0.0}, {"lon": -77.12924433333333, "name": "39a169b4726fcaf958681781d6f71223", "is_disabled": 0, "type": "electric_bike", "is_reserved": 0, "fusion_lon": 0.0, "lat": 38.8657865, "rental_uris": {"ios": "https://dc.lft.to/lastmile_qr_scan", "android": "https://dc.lft.to/lastmile_qr_scan"}, "bike_id": "39a169b4726fcaf958681781d6f71223", "fusion_lat": 0.0}, {"lon": -76.98610683333334, "name": "4133bde28527a2cd3a74dc9a78c1d1ac", "is_disabled": 0, "type": "electric_scooter", "is_reserved": 0, "fusion_lon": 0.0, "lat": 38.903459, "rental_uris": {"ios": "https://dc.lft.to/lastmile_qr_scan", "android": "https://dc.lft.to/lastmile_qr_scan"}, "bike_id": "4133bde28527a2cd3a74dc9a78c1d1ac", "fusion_lat": 0.0}, {"lon": -77.01948516666667, "name": "f1e00fefc37d15f5be9b279e3c574744", "is_disabled": 0, "type": "electric_scooter", "is_reserved": 0, "fusion_lon": 0.0, "lat": 38.9225305, "rental_uris": {"ios": "https://dc.lft.to/lastmile_qr_scan", "android": "https://dc.lft.to/lastmile_qr_scan"}, "bike_id": "f1e00fefc37d15f5be9b279e3c574744", "fusion_lat": 0.0}, {"lon": -77.0328005, "name": "36f68f87f7905829190905a532b3fa9a", "is_disabled": 0, "type": "electric_scooter", "is_reserved": 0, "fusion_lon": 0.0, "lat": 38.956495833333335, "rental_uris": {"ios": "https://dc.lft.to/lastmile_qr_scan", "android": "https://dc.lft.to/lastmile_qr_scan"}, "bike_id": "36f68f87f7905829190905a532b3fa9a", "fusion_lat": 0.0}, {"lon": -76.94666, "name": "9ca9ae32aecdf7dbd1d91b9ed6854d9a", "is_disabled": 0, "type": "electric_scooter", "is_reserved": 0, "fusion_lon": 0.0, "lat": 38.898699, "rental_uris": {"ios": "https://dc.lft.to/lastmile_qr_scan", "android": "https://dc.lft.to/lastmile_qr_scan"}, "bike_id": "9ca9ae32aecdf7dbd1d91b9ed6854d9a", "fusion_lat": 0.0}, {"lon": -77.05389583333333, "name": "a4fdab03fd566ed7baa47c3c7de1c792", "is_disabled": 0, "type": "electric_scooter", "is_reserved": 0, "fusion_lon": 0.0, "lat": 38.90942666666667, "rental_uris": {"ios": "https://dc.lft.to/lastmile_qr_scan", "android": "https://dc.lft.to/lastmile_qr_scan"}, "bike_id": "a4fdab03fd566ed7baa47c3c7de1c792", "fusion_lat": 0.0}, {"lon": -77.07141366666667, "name": "18d32de458a00296c81081a379463d73", "is_disabled": 0, "type": "electric_scooter", "is_reserved": 0, "fusion_lon": 0.0, "lat": 38.92021583333333, "rental_uris": {"ios": "https://dc.lft.to/lastmile_qr_scan", "android": "https://dc.lft.to/lastmile_qr_scan"}, "bike_id": "18d32de458a00296c81081a379463d73", "fusion_lat": 0.0}, {"lon": -77.072841, "name": "8712952e32d5cfb2e7a56afe50db9537", "is_disabled": 0, "type": "electric_scooter", "is_reserved": 0, "fusion_lon": 0.0, "lat": 38.92977333333333, "rental_uris": {"ios": "https://dc.lft.to/lastmile_qr_scan", "android": "https://dc.lft.to/lastmile_qr_scan"}, "bike_id": "8712952e32d5cfb2e7a56afe50db9537", "fusion_lat": 0.0}, {"lon": -77.03347183333334, "name": "79b6f92f999703e976658a698c8ea2b1", "is_disabled": 0, "type": "electric_scooter", "is_reserved": 0, "fusion_lon": 0.0, "lat": 38.917052, "rental_uris": {"ios": "https://dc.lft.to/lastmile_qr_scan", "android": "https://dc.lft.to/lastmile_qr_scan"}, "bike_id": "79b6f92f999703e976658a698c8ea2b1", "fusion_lat": 0.0}, {"lon": -77.08994333333334, "name": "9aed1789c2a3c29e489d2ee0e5f9886a", "is_disabled": 0, "type": "electric_bike", "is_reserved": 0, "fusion_lon": 0.0, "lat": 38.909046833333335, "rental_uris": {"ios": "https://dc.lft.to/lastmile_qr_scan", "android": "https://dc.lft.to/lastmile_qr_scan"}, "bike_id": "9aed1789c2a3c29e489d2ee0e5f9886a", "fusion_lat": 0.0}, {"lon": -77.03216916666666, "name": "e1b55d99c002385c6d0be72be9a317c4", "is_disabled": 0, "type": "electric_scooter", "is_reserved": 0, "fusion_lon": 0.0, "lat": 38.892263, "rental_uris": {"ios": "https://dc.lft.to/lastmile_qr_scan", "android": "https://dc.lft.to/lastmile_qr_scan"}, "bike_id": "e1b55d99c002385c6d0be72be9a317c4", "fusion_lat": 0.0}, {"lon": -77.04151916666666, "name": "cc909912e890200100fe83fe9ad8e936", "is_disabled": 0, "type": "electric_scooter", "is_reserved": 0, "fusion_lon": 0.0, "lat": 38.918121166666666, "rental_uris": {"ios": "https://dc.lft.to/lastmile_qr_scan", "android": "https://dc.lft.to/lastmile_qr_scan"}, "bike_id": "cc909912e890200100fe83fe9ad8e936", "fusion_lat": 0.0}, {"lon": -76.987873, "name": "416a7c6fb268956e88918e1c3e0f73bb", "is_disabled": 0, "type": "electric_bike", "is_reserved": 0, "fusion_lon": 0.0, "lat": 38.84465766666667, "rental_uris": {"ios": "https://dc.lft.to/lastmile_qr_scan", "android": "https://dc.lft.to/lastmile_qr_scan"}, "bike_id": "416a7c6fb268956e88918e1c3e0f73bb", "fusion_lat": 0.0}, {"lon": -77.04872283333333, "name": "c87d058e4ec9042db4d49c37ef4514f9", "is_disabled": 0, "type": "electric_scooter", "is_reserved": 0, "fusion_lon": 0.0, "lat": 38.90029633333333, "rental_uris": {"ios": "https://dc.lft.to/lastmile_qr_scan", "android": "https://dc.lft.to/lastmile_qr_scan"}, "bike_id": "c87d058e4ec9042db4d49c37ef4514f9", "fusion_lat": 0.0}, {"lon": -77.0091175, "name": "ea99a806482caf734c906ec4f6fbdcf7", "is_disabled": 0, "type": "electric_scooter", "is_reserved": 0, "fusion_lon": 0.0, "lat": 38.923404, "rental_uris": {"ios": "https://dc.lft.to/lastmile_qr_scan", "android": "https://dc.lft.to/lastmile_qr_scan"}, "bike_id": "ea99a806482caf734c906ec4f6fbdcf7", "fusion_lat": 0.0}, {"lon": -77.06400266666667, "name": "0d03e01655b3ffcfe9e5d6c30da7dbed", "is_disabled": 0, "type": "electric_scooter", "is_reserved": 0, "fusion_lon": 0.0, "lat": 38.9443225, "rental_uris": {"ios": "https://dc.lft.to/lastmile_qr_scan", "android": "https://dc.lft.to/lastmile_qr_scan"}, "bike_id": "0d03e01655b3ffcfe9e5d6c30da7dbed", "fusion_lat": 0.0}, {"lon": -77.02430783333334, "name": "33e92cc3107408c732151444943ad62e", "is_disabled": 0, "type": "electric_scooter", "is_reserved": 0, "fusion_lon": 0.0, "lat": 38.933550833333335, "rental_uris": {"ios": "https://dc.lft.to/lastmile_qr_scan", "android": "https://dc.lft.to/lastmile_qr_scan"}, "bike_id": "33e92cc3107408c732151444943ad62e", "fusion_lat": 0.0}, {"lon": -77.0322265, "name": "e77f80e53d08f83a7fd832c9253a7021", "is_disabled": 0, "type": "electric_scooter", "is_reserved": 0, "fusion_lon": 0.0, "lat": 38.89217983333333, "rental_uris": {"ios": "https://dc.lft.to/lastmile_qr_scan", "android": "https://dc.lft.to/lastmile_qr_scan"}, "bike_id": "e77f80e53d08f83a7fd832c9253a7021", "fusion_lat": 0.0}, {"lon": -77.019024, "name": "f8992d8e2ba2c7c3080f4bea1a44fbf7", "is_disabled": 0, "type": "electric_scooter", "is_reserved": 0, "fusion_lon": 0.0, "lat": 38.923361166666666, "rental_uris": {"ios": "https://dc.lft.to/lastmile_qr_scan", "android": "https://dc.lft.to/lastmile_qr_scan"}, "bike_id": "f8992d8e2ba2c7c3080f4bea1a44fbf7", "fusion_lat": 0.0}, {"lon": -77.05690883333334, "name": "5ceb6557b40ffb009fb593dc73cb9853", "is_disabled": 0, "type": "electric_scooter", "is_reserved": 0, "fusion_lon": 0.0, "lat": 38.90600516666667, "rental_uris": {"ios": "https://dc.lft.to/lastmile_qr_scan", "android": "https://dc.lft.to/lastmile_qr_scan"}, "bike_id": "5ceb6557b40ffb009fb593dc73cb9853", "fusion_lat": 0.0}, {"lon": -77.03187166666666, "name": "309df6be607af122dd63ab46a4475540", "is_disabled": 0, "type": "electric_scooter", "is_reserved": 0, "fusion_lon": 0.0, "lat": 38.91741783333333, "rental_uris": {"ios": "https://dc.lft.to/lastmile_qr_scan", "android": "https://dc.lft.to/lastmile_qr_scan"}, "bike_id": "309df6be607af122dd63ab46a4475540", "fusion_lat": 0.0}, {"lon": -77.02441183333333, "name": "30706521e5bc36ba63d75488b4c4201f", "is_disabled": 0, "type": "electric_scooter", "is_reserved": 0, "fusion_lon": 0.0, "lat": 38.90717566666667, "rental_uris": {"ios": "https://dc.lft.to/lastmile_qr_scan", "android": "https://dc.lft.to/lastmile_qr_scan"}, "bike_id": "30706521e5bc36ba63d75488b4c4201f", "fusion_lat": 0.0}, {"lon": -77.03169033333333, "name": "9902be4700ef4ce3eddc9b64f7a52c72", "is_disabled": 0, "type": "electric_scooter", "is_reserved": 0, "fusion_lon": 0.0, "lat": 38.8921405, "rental_uris": {"ios": "https://dc.lft.to/lastmile_qr_scan", "android": "https://dc.lft.to/lastmile_qr_scan"}, "bike_id": "9902be4700ef4ce3eddc9b64f7a52c72", "fusion_lat": 0.0}, {"lon": -77.07140316666667, "name": "87a1d551ac09d13eb3d8c985eec5e545", "is_disabled": 0, "type": "electric_scooter", "is_reserved": 0, "fusion_lon": 0.0, "lat": 38.90867983333333, "rental_uris": {"ios": "https://dc.lft.to/lastmile_qr_scan", "android": "https://dc.lft.to/lastmile_qr_scan"}, "bike_id": "87a1d551ac09d13eb3d8c985eec5e545", "fusion_lat": 0.0}, {"lon": -77.020957, "name": "ed242dd41526d9361d2d26d26d877ecb", "is_disabled": 0, "type": "electric_scooter", "is_reserved": 0, "fusion_lon": 0.0, "lat": 38.931158833333335, "rental_uris": {"ios": "https://dc.lft.to/lastmile_qr_scan", "android": "https://dc.lft.to/lastmile_qr_scan"}, "bike_id": "ed242dd41526d9361d2d26d26d877ecb", "fusion_lat": 0.0}, {"lon": -77.01604033333334, "name": "71fe9524f02c24091481701bdd5c58ee", "is_disabled": 0, "type": "electric_scooter", "is_reserved": 0, "fusion_lon": 0.0, "lat": 38.91277216666667, "rental_uris": {"ios": "https://dc.lft.to/lastmile_qr_scan", "android": "https://dc.lft.to/lastmile_qr_scan"}, "bike_id": "71fe9524f02c24091481701bdd5c58ee", "fusion_lat": 0.0}, {"lon": -77.03379116666666, "name": "0de2477d0f04b19fcb57723a607c6f3b", "is_disabled": 0, "type": "electric_scooter", "is_reserved": 0, "fusion_lon": 0.0, "lat": 38.92469366666667, "rental_uris": {"ios": "https://dc.lft.to/lastmile_qr_scan", "android": "https://dc.lft.to/lastmile_qr_scan"}, "bike_id": "0de2477d0f04b19fcb57723a607c6f3b", "fusion_lat": 0.0}, {"lon": -76.92942983333333, "name": "fa3fdd7281202b1932cd4b4dfd125543", "is_disabled": 0, "type": "electric_scooter", "is_reserved": 0, "fusion_lon": 0.0, "lat": 38.90347333333333, "rental_uris": {"ios": "https://dc.lft.to/lastmile_qr_scan", "android": "https://dc.lft.to/lastmile_qr_scan"}, "bike_id": "fa3fdd7281202b1932cd4b4dfd125543", "fusion_lat": 0.0}, {"lon": -76.918048, "name": "3eead7128749505e315071866cdd54b4", "is_disabled": 0, "type": "electric_bike", "is_reserved": 0, "fusion_lon": 0.0, "lat": 39.00000283333333, "rental_uris": {"ios": "https://dc.lft.to/lastmile_qr_scan", "android": "https://dc.lft.to/lastmile_qr_scan"}, "bike_id": "3eead7128749505e315071866cdd54b4", "fusion_lat": 0.0}, {"lon": -77.006718, "name": "c1ed327f5a9fa20b9c4740b60abe8afa", "is_disabled": 0, "type": "electric_scooter", "is_reserved": 0, "fusion_lon": 0.0, "lat": 38.8717895, "rental_uris": {"ios": "https://dc.lft.to/lastmile_qr_scan", "android": "https://dc.lft.to/lastmile_qr_scan"}, "bike_id": "c1ed327f5a9fa20b9c4740b60abe8afa", "fusion_lat": 0.0}, {"lon": -77.08700416666667, "name": "6f256c29878021087d4066eb81507152", "is_disabled": 0, "type": "electric_scooter", "is_reserved": 0, "fusion_lon": 0.0, "lat": 38.935198666666665, "rental_uris": {"ios": "https://dc.lft.to/lastmile_qr_scan", "android": "https://dc.lft.to/lastmile_qr_scan"}, "bike_id": "6f256c29878021087d4066eb81507152", "fusion_lat": 0.0}, {"lon": -77.0503275, "name": "9c321ee437b0f43a8db3826f5e3c35f6", "is_disabled": 0, "type": "electric_scooter", "is_reserved": 0, "fusion_lon": 0.0, "lat": 38.9111785, "rental_uris": {"ios": "https://dc.lft.to/lastmile_qr_scan", "android": "https://dc.lft.to/lastmile_qr_scan"}, "bike_id": "9c321ee437b0f43a8db3826f5e3c35f6", "fusion_lat": 0.0}, {"lon": -77.027175, "name": "759ba201d75a88a78deaf14be81bc2d8", "is_disabled": 0, "type": "electric_scooter", "is_reserved": 0, "fusion_lon": 0.0, "lat": 38.90419633333333, "rental_uris": {"ios": "https://dc.lft.to/lastmile_qr_scan", "android": "https://dc.lft.to/lastmile_qr_scan"}, "bike_id": "759ba201d75a88a78deaf14be81bc2d8", "fusion_lat": 0.0}, {"lon": -76.99749333333334, "name": "6c582fc960add4dc9731edcfcb13ce66", "is_disabled": 0, "type": "electric_scooter", "is_reserved": 0, "fusion_lon": 0.0, "lat": 38.881209166666665, "rental_uris": {"ios": "https://dc.lft.to/lastmile_qr_scan", "android": "https://dc.lft.to/lastmile_qr_scan"}, "bike_id": "6c582fc960add4dc9731edcfcb13ce66", "fusion_lat": 0.0}, {"lon": -77.09616133333333, "name": "b69f39bff469b9b57e4e7b87ca1092b3", "is_disabled": 0, "type": "electric_bike", "is_reserved": 0, "fusion_lon": 0.0, "lat": 38.974397, "rental_uris": {"ios": "https://dc.lft.to/lastmile_qr_scan", "android": "https://dc.lft.to/lastmile_qr_scan"}, "bike_id": "b69f39bff469b9b57e4e7b87ca1092b3", "fusion_lat": 0.0}, {"lon": -77.0317805, "name": "47f96d117bf4e1ef48c9cc584dae957e", "is_disabled": 0, "type": "electric_scooter", "is_reserved": 0, "fusion_lon": 0.0, "lat": 38.912617, "rental_uris": {"ios": "https://dc.lft.to/lastmile_qr_scan", "android": "https://dc.lft.to/lastmile_qr_scan"}, "bike_id": "47f96d117bf4e1ef48c9cc584dae957e", "fusion_lat": 0.0}, {"lon": -77.01210183333333, "name": "ff0e404082040758d6518b016e41c8ed", "is_disabled": 0, "type": "electric_scooter", "is_reserved": 0, "fusion_lon": 0.0, "lat": 38.900027, "rental_uris": {"ios": "https://dc.lft.to/lastmile_qr_scan", "android": "https://dc.lft.to/lastmile_qr_scan"}, "bike_id": "ff0e404082040758d6518b016e41c8ed", "fusion_lat": 0.0}, {"lon": -76.92657033333333, "name": "8c8a21d1cd32363eb3dd34aeff33b291", "is_disabled": 0, "type": "electric_scooter", "is_reserved": 0, "fusion_lon": 0.0, "lat": 38.8954875, "rental_uris": {"ios": "https://dc.lft.to/lastmile_qr_scan", "android": "https://dc.lft.to/lastmile_qr_scan"}, "bike_id": "8c8a21d1cd32363eb3dd34aeff33b291", "fusion_lat": 0.0}, {"lon": -77.04001583333333, "name": "314c8ec0ce263731534036d08800dbe8", "is_disabled": 0, "type": "electric_scooter", "is_reserved": 0, "fusion_lon": 0.0, "lat": 38.93428633333333, "rental_uris": {"ios": "https://dc.lft.to/lastmile_qr_scan", "android": "https://dc.lft.to/lastmile_qr_scan"}, "bike_id": "314c8ec0ce263731534036d08800dbe8", "fusion_lat": 0.0}, {"lon": -77.01946316666667, "name": "09e4c8c4d50040994988fdf4a35d4d86", "is_disabled": 0, "type": "electric_scooter", "is_reserved": 0, "fusion_lon": 0.0, "lat": 38.92250466666667, "rental_uris": {"ios": "https://dc.lft.to/lastmile_qr_scan", "android": "https://dc.lft.to/lastmile_qr_scan"}, "bike_id": "09e4c8c4d50040994988fdf4a35d4d86", "fusion_lat": 0.0}, {"lon": -77.0091455, "name": "9f3c65903f0d4cb90d15ab328ce0cf44", "is_disabled": 0, "type": "electric_scooter", "is_reserved": 0, "fusion_lon": 0.0, "lat": 38.918775, "rental_uris": {"ios": "https://dc.lft.to/lastmile_qr_scan", "android": "https://dc.lft.to/lastmile_qr_scan"}, "bike_id": "9f3c65903f0d4cb90d15ab328ce0cf44", "fusion_lat": 0.0}, {"lon": -77.05000866666667, "name": "dfbd154c6a44352b778f4fbe5d31baf7", "is_disabled": 0, "type": "electric_scooter", "is_reserved": 0, "fusion_lon": 0.0, "lat": 38.90074383333334, "rental_uris": {"ios": "https://dc.lft.to/lastmile_qr_scan", "android": "https://dc.lft.to/lastmile_qr_scan"}, "bike_id": "dfbd154c6a44352b778f4fbe5d31baf7", "fusion_lat": 0.0}, {"lon": -76.95351283333333, "name": "eeac46f8848ec8069bcccdf63813504d", "is_disabled": 0, "type": "electric_bike", "is_reserved": 0, "fusion_lon": 0.0, "lat": 38.94171683333333, "rental_uris": {"ios": "https://dc.lft.to/lastmile_qr_scan", "android": "https://dc.lft.to/lastmile_qr_scan"}, "bike_id": "eeac46f8848ec8069bcccdf63813504d", "fusion_lat": 0.0}, {"lon": -76.938507, "name": "c54e7864022beeb65d894fa5539ac23c", "is_disabled": 0, "type": "electric_scooter", "is_reserved": 0, "fusion_lon": 0.0, "lat": 38.891106, "rental_uris": {"ios": "https://dc.lft.to/lastmile_qr_scan", "android": "https://dc.lft.to/lastmile_qr_scan"}, "bike_id": "c54e7864022beeb65d894fa5539ac23c", "fusion_lat": 0.0}, {"lon": -77.04311516666667, "name": "059d75c5bef0c652187698a053ff678b", "is_disabled": 0, "type": "electric_scooter", "is_reserved": 0, "fusion_lon": 0.0, "lat": 38.90112233333333, "rental_uris": {"ios": "https://dc.lft.to/lastmile_qr_scan", "android": "https://dc.lft.to/lastmile_qr_scan"}, "bike_id": "059d75c5bef0c652187698a053ff678b", "fusion_lat": 0.0}, {"lon": -76.98270466666666, "name": "bb49b59bcf540b73cf337eec5bdff73b", "is_disabled": 0, "type": "electric_scooter", "is_reserved": 0, "fusion_lon": 0.0, "lat": 38.90341333333333, "rental_uris": {"ios": "https://dc.lft.to/lastmile_qr_scan", "android": "https://dc.lft.to/lastmile_qr_scan"}, "bike_id": "bb49b59bcf540b73cf337eec5bdff73b", "fusion_lat": 0.0}, {"lon": -77.042594, "name": "03a0578504375c34e07d0d36de9baf6b", "is_disabled": 0, "type": "electric_scooter", "is_reserved": 0, "fusion_lon": 0.0, "lat": 38.9098065, "rental_uris": {"ios": "https://dc.lft.to/lastmile_qr_scan", "android": "https://dc.lft.to/lastmile_qr_scan"}, "bike_id": "03a0578504375c34e07d0d36de9baf6b", "fusion_lat": 0.0}, {"lon": -77.02189466666667, "name": "7dba7e0c1f44954e2e01f92d1a22162d", "is_disabled": 0, "type": "electric_scooter", "is_reserved": 0, "fusion_lon": 0.0, "lat": 38.92164566666667, "rental_uris": {"ios": "https://dc.lft.to/lastmile_qr_scan", "android": "https://dc.lft.to/lastmile_qr_scan"}, "bike_id": "7dba7e0c1f44954e2e01f92d1a22162d", "fusion_lat": 0.0}, {"lon": -77.00798183333333, "name": "9946fba658ccdf13e407749c8403e9e3", "is_disabled": 0, "type": "electric_scooter", "is_reserved": 0, "fusion_lon": 0.0, "lat": 38.897139, "rental_uris": {"ios": "https://dc.lft.to/lastmile_qr_scan", "android": "https://dc.lft.to/lastmile_qr_scan"}, "bike_id": "9946fba658ccdf13e407749c8403e9e3", "fusion_lat": 0.0}, {"lon": -76.93058383333333, "name": "7006258d66e20688da6367ff1b967c9d", "is_disabled": 0, "type": "electric_scooter", "is_reserved": 0, "fusion_lon": 0.0, "lat": 38.89559366666667, "rental_uris": {"ios": "https://dc.lft.to/lastmile_qr_scan", "android": "https://dc.lft.to/lastmile_qr_scan"}, "bike_id": "7006258d66e20688da6367ff1b967c9d", "fusion_lat": 0.0}, {"lon": -77.011085, "name": "0b2c5a37a49e7c44b4aefdd508d39666", "is_disabled": 0, "type": "electric_scooter", "is_reserved": 0, "fusion_lon": 0.0, "lat": 38.885104, "rental_uris": {"ios": "https://dc.lft.to/lastmile_qr_scan", "android": "https://dc.lft.to/lastmile_qr_scan"}, "bike_id": "0b2c5a37a49e7c44b4aefdd508d39666", "fusion_lat": 0.0}, {"lon": -77.04703333333333, "name": "30a93fa490431e2f7aa83262e002b6e1", "is_disabled": 0, "type": "electric_scooter", "is_reserved": 0, "fusion_lon": 0.0, "lat": 38.9003455, "rental_uris": {"ios": "https://dc.lft.to/lastmile_qr_scan", "android": "https://dc.lft.to/lastmile_qr_scan"}, "bike_id": "30a93fa490431e2f7aa83262e002b6e1", "fusion_lat": 0.0}, {"lon": -77.03955866666666, "name": "1644c38be8b6052f80247a4349209510", "is_disabled": 0, "type": "electric_scooter", "is_reserved": 0, "fusion_lon": 0.0, "lat": 38.919647833333336, "rental_uris": {"ios": "https://dc.lft.to/lastmile_qr_scan", "android": "https://dc.lft.to/lastmile_qr_scan"}, "bike_id": "1644c38be8b6052f80247a4349209510", "fusion_lat": 0.0}, {"lon": -77.04625883333334, "name": "4ae9f6012c1c14e6afe053f4847e9815", "is_disabled": 0, "type": "electric_scooter", "is_reserved": 0, "fusion_lon": 0.0, "lat": 38.909584833333334, "rental_uris": {"ios": "https://dc.lft.to/lastmile_qr_scan", "android": "https://dc.lft.to/lastmile_qr_scan"}, "bike_id": "4ae9f6012c1c14e6afe053f4847e9815", "fusion_lat": 0.0}, {"lon": -77.028163, "name": "a3212655d4da109d80bca1036dbf980b", "is_disabled": 0, "type": "electric_scooter", "is_reserved": 0, "fusion_lon": 0.0, "lat": 38.914277166666665, "rental_uris": {"ios": "https://dc.lft.to/lastmile_qr_scan", "android": "https://dc.lft.to/lastmile_qr_scan"}, "bike_id": "a3212655d4da109d80bca1036dbf980b", "fusion_lat": 0.0}, {"lon": -77.01815383333333, "name": "d408014557b3ed384ece3469a80ebe12", "is_disabled": 0, "type": "electric_scooter", "is_reserved": 0, "fusion_lon": 0.0, "lat": 38.973923, "rental_uris": {"ios": "https://dc.lft.to/lastmile_qr_scan", "android": "https://dc.lft.to/lastmile_qr_scan"}, "bike_id": "d408014557b3ed384ece3469a80ebe12", "fusion_lat": 0.0}, {"lon": -77.02236833333333, "name": "4eff9a5326d5eb1ada76394df26412e0", "is_disabled": 0, "type": "electric_scooter", "is_reserved": 0, "fusion_lon": 0.0, "lat": 38.878874833333334, "rental_uris": {"ios": "https://dc.lft.to/lastmile_qr_scan", "android": "https://dc.lft.to/lastmile_qr_scan"}, "bike_id": "4eff9a5326d5eb1ada76394df26412e0", "fusion_lat": 0.0}, {"lon": -77.02693183333334, "name": "1ec7ab8a03562efca6c8fda447c80755", "is_disabled": 0, "type": "electric_scooter", "is_reserved": 0, "fusion_lon": 0.0, "lat": 38.91831483333333, "rental_uris": {"ios": "https://dc.lft.to/lastmile_qr_scan", "android": "https://dc.lft.to/lastmile_qr_scan"}, "bike_id": "1ec7ab8a03562efca6c8fda447c80755", "fusion_lat": 0.0}, {"lon": -77.02606383333334, "name": "8c8348a7842c4f4dbb21977a26eb235c", "is_disabled": 0, "type": "electric_scooter", "is_reserved": 0, "fusion_lon": 0.0, "lat": 38.92026533333333, "rental_uris": {"ios": "https://dc.lft.to/lastmile_qr_scan", "android": "https://dc.lft.to/lastmile_qr_scan"}, "bike_id": "8c8348a7842c4f4dbb21977a26eb235c", "fusion_lat": 0.0}, {"lon": -77.02667483333333, "name": "45cd0582b8a4736729c0ac74445f16ee", "is_disabled": 0, "type": "electric_scooter", "is_reserved": 0, "fusion_lon": 0.0, "lat": 38.89717233333333, "rental_uris": {"ios": "https://dc.lft.to/lastmile_qr_scan", "android": "https://dc.lft.to/lastmile_qr_scan"}, "bike_id": "45cd0582b8a4736729c0ac74445f16ee", "fusion_lat": 0.0}, {"lon": -77.0635175, "name": "cf2d7cea224e60fdc28fd074b8b68ac2", "is_disabled": 0, "type": "electric_scooter", "is_reserved": 0, "fusion_lon": 0.0, "lat": 38.90684016666667, "rental_uris": {"ios": "https://dc.lft.to/lastmile_qr_scan", "android": "https://dc.lft.to/lastmile_qr_scan"}, "bike_id": "cf2d7cea224e60fdc28fd074b8b68ac2", "fusion_lat": 0.0}, {"lon": -76.99548833333333, "name": "48dc9f1846a976685fe2dd918b9ab33a", "is_disabled": 0, "type": "electric_scooter", "is_reserved": 0, "fusion_lon": 0.0, "lat": 38.92662216666667, "rental_uris": {"ios": "https://dc.lft.to/lastmile_qr_scan", "android": "https://dc.lft.to/lastmile_qr_scan"}, "bike_id": "48dc9f1846a976685fe2dd918b9ab33a", "fusion_lat": 0.0}, {"lon": -76.99019216666667, "name": "33eeaee75628852a6db1cf4c29240d31", "is_disabled": 0, "type": "electric_scooter", "is_reserved": 0, "fusion_lon": 0.0, "lat": 38.86516266666667, "rental_uris": {"ios": "https://dc.lft.to/lastmile_qr_scan", "android": "https://dc.lft.to/lastmile_qr_scan"}, "bike_id": "33eeaee75628852a6db1cf4c29240d31", "fusion_lat": 0.0}, {"lon": -77.00953966666667, "name": "aca23e3419a5ab14f36b1d1da54525e4", "is_disabled": 0, "type": "electric_scooter", "is_reserved": 0, "fusion_lon": 0.0, "lat": 38.87628766666667, "rental_uris": {"ios": "https://dc.lft.to/lastmile_qr_scan", "android": "https://dc.lft.to/lastmile_qr_scan"}, "bike_id": "aca23e3419a5ab14f36b1d1da54525e4", "fusion_lat": 0.0}, {"lon": -76.98937166666667, "name": "4be33baa5926f0dd534bdc12747422e2", "is_disabled": 0, "type": "electric_scooter", "is_reserved": 0, "fusion_lon": 0.0, "lat": 38.88290966666667, "rental_uris": {"ios": "https://dc.lft.to/lastmile_qr_scan", "android": "https://dc.lft.to/lastmile_qr_scan"}, "bike_id": "4be33baa5926f0dd534bdc12747422e2", "fusion_lat": 0.0}, {"lon": -77.003454, "name": "956ed50a2053b04ba9d3a855fd22e7c6", "is_disabled": 0, "type": "electric_scooter", "is_reserved": 0, "fusion_lon": 0.0, "lat": 38.8926085, "rental_uris": {"ios": "https://dc.lft.to/lastmile_qr_scan", "android": "https://dc.lft.to/lastmile_qr_scan"}, "bike_id": "956ed50a2053b04ba9d3a855fd22e7c6", "fusion_lat": 0.0}, {"lon": -77.03747583333333, "name": "4257df77bf07c93f8a18463c935eaef1", "is_disabled": 0, "type": "electric_scooter", "is_reserved": 0, "fusion_lon": 0.0, "lat": 38.9320255, "rental_uris": {"ios": "https://dc.lft.to/lastmile_qr_scan", "android": "https://dc.lft.to/lastmile_qr_scan"}, "bike_id": "4257df77bf07c93f8a18463c935eaef1", "fusion_lat": 0.0}, {"lon": -77.0594095, "name": "4d59de2ecf1d2da20b6e2e998275c4b3", "is_disabled": 0, "type": "electric_scooter", "is_reserved": 0, "fusion_lon": 0.0, "lat": 38.901548166666664, "rental_uris": {"ios": "https://dc.lft.to/lastmile_qr_scan", "android": "https://dc.lft.to/lastmile_qr_scan"}, "bike_id": "4d59de2ecf1d2da20b6e2e998275c4b3", "fusion_lat": 0.0}, {"lon": -77.0437005, "name": "a1196a4c99f0d46c62dc34b6cf7b8db3", "is_disabled": 0, "type": "electric_scooter", "is_reserved": 0, "fusion_lon": 0.0, "lat": 38.90841133333333, "rental_uris": {"ios": "https://dc.lft.to/lastmile_qr_scan", "android": "https://dc.lft.to/lastmile_qr_scan"}, "bike_id": "a1196a4c99f0d46c62dc34b6cf7b8db3", "fusion_lat": 0.0}, {"lon": -77.03769916666667, "name": "27074bc882f30ec9fdc7d23d02614458", "is_disabled": 0, "type": "electric_scooter", "is_reserved": 0, "fusion_lon": 0.0, "lat": 38.925133833333334, "rental_uris": {"ios": "https://dc.lft.to/lastmile_qr_scan", "android": "https://dc.lft.to/lastmile_qr_scan"}, "bike_id": "27074bc882f30ec9fdc7d23d02614458", "fusion_lat": 0.0}, {"lon": -77.03362116666666, "name": "b9acfdf06fe0849e06687ad8426e0840", "is_disabled": 0, "type": "electric_scooter", "is_reserved": 0, "fusion_lon": 0.0, "lat": 38.92233866666667, "rental_uris": {"ios": "https://dc.lft.to/lastmile_qr_scan", "android": "https://dc.lft.to/lastmile_qr_scan"}, "bike_id": "b9acfdf06fe0849e06687ad8426e0840", "fusion_lat": 0.0}, {"lon": -77.01387916666667, "name": "f1d5dfe3efebfc18a7b776bd4fd24333", "is_disabled": 0, "type": "electric_scooter", "is_reserved": 0, "fusion_lon": 0.0, "lat": 38.89849683333333, "rental_uris": {"ios": "https://dc.lft.to/lastmile_qr_scan", "android": "https://dc.lft.to/lastmile_qr_scan"}, "bike_id": "f1d5dfe3efebfc18a7b776bd4fd24333", "fusion_lat": 0.0}, {"lon": -77.01988533333333, "name": "27ed34e5087fcf769c4e4be892aa4ed1", "is_disabled": 0, "type": "electric_scooter", "is_reserved": 0, "fusion_lon": 0.0, "lat": 38.93195, "rental_uris": {"ios": "https://dc.lft.to/lastmile_qr_scan", "android": "https://dc.lft.to/lastmile_qr_scan"}, "bike_id": "27ed34e5087fcf769c4e4be892aa4ed1", "fusion_lat": 0.0}, {"lon": -77.00727966666666, "name": "085ea4a5d2bc401932c1cf8151a7a05f", "is_disabled": 0, "type": "electric_scooter", "is_reserved": 0, "fusion_lon": 0.0, "lat": 38.91195866666666, "rental_uris": {"ios": "https://dc.lft.to/lastmile_qr_scan", "android": "https://dc.lft.to/lastmile_qr_scan"}, "bike_id": "085ea4a5d2bc401932c1cf8151a7a05f", "fusion_lat": 0.0}, {"lon": -77.00343683333334, "name": "d763f86e5b311c6b9c89c880be58c27c", "is_disabled": 0, "type": "electric_scooter", "is_reserved": 0, "fusion_lon": 0.0, "lat": 38.890829333333336, "rental_uris": {"ios": "https://dc.lft.to/lastmile_qr_scan", "android": "https://dc.lft.to/lastmile_qr_scan"}, "bike_id": "d763f86e5b311c6b9c89c880be58c27c", "fusion_lat": 0.0}, {"lon": -76.98565983333333, "name": "3bb285d674fdae2f7673d0f2fa76b725", "is_disabled": 0, "type": "electric_scooter", "is_reserved": 0, "fusion_lon": 0.0, "lat": 38.8962185, "rental_uris": {"ios": "https://dc.lft.to/lastmile_qr_scan", "android": "https://dc.lft.to/lastmile_qr_scan"}, "bike_id": "3bb285d674fdae2f7673d0f2fa76b725", "fusion_lat": 0.0}, {"lon": -77.02708433333333, "name": "8afcf615c18e67698439c469038439f2", "is_disabled": 0, "type": "electric_scooter", "is_reserved": 0, "fusion_lon": 0.0, "lat": 38.927720666666666, "rental_uris": {"ios": "https://dc.lft.to/lastmile_qr_scan", "android": "https://dc.lft.to/lastmile_qr_scan"}, "bike_id": "8afcf615c18e67698439c469038439f2", "fusion_lat": 0.0}, {"lon": -77.00579883333333, "name": "763adbe714434b686a9dd9f3757c1012", "is_disabled": 0, "type": "electric_scooter", "is_reserved": 0, "fusion_lon": 0.0, "lat": 38.87172733333333, "rental_uris": {"ios": "https://dc.lft.to/lastmile_qr_scan", "android": "https://dc.lft.to/lastmile_qr_scan"}, "bike_id": "763adbe714434b686a9dd9f3757c1012", "fusion_lat": 0.0}, {"lon": -76.92962016666667, "name": "e37f4949ea6ce985def2a8da9e6c7e87", "is_disabled": 0, "type": "electric_scooter", "is_reserved": 0, "fusion_lon": 0.0, "lat": 38.88451583333333, "rental_uris": {"ios": "https://dc.lft.to/lastmile_qr_scan", "android": "https://dc.lft.to/lastmile_qr_scan"}, "bike_id": "e37f4949ea6ce985def2a8da9e6c7e87", "fusion_lat": 0.0}, {"lon": -77.04090383333333, "name": "f41371bc7be7e3df51764e9789335260", "is_disabled": 0, "type": "electric_scooter", "is_reserved": 0, "fusion_lon": 0.0, "lat": 38.9051805, "rental_uris": {"ios": "https://dc.lft.to/lastmile_qr_scan", "android": "https://dc.lft.to/lastmile_qr_scan"}, "bike_id": "f41371bc7be7e3df51764e9789335260", "fusion_lat": 0.0}, {"lon": -77.043167, "name": "5ca623df39d2b460abea592e3e5cff7a", "is_disabled": 0, "type": "electric_scooter", "is_reserved": 0, "fusion_lon": 0.0, "lat": 38.92615766666667, "rental_uris": {"ios": "https://dc.lft.to/lastmile_qr_scan", "android": "https://dc.lft.to/lastmile_qr_scan"}, "bike_id": "5ca623df39d2b460abea592e3e5cff7a", "fusion_lat": 0.0}, {"lon": -77.0230025, "name": "0d26c93350f3efd51348ad7ca7bbc33c", "is_disabled": 0, "type": "electric_scooter", "is_reserved": 0, "fusion_lon": 0.0, "lat": 38.89061016666667, "rental_uris": {"ios": "https://dc.lft.to/lastmile_qr_scan", "android": "https://dc.lft.to/lastmile_qr_scan"}, "bike_id": "0d26c93350f3efd51348ad7ca7bbc33c", "fusion_lat": 0.0}, {"lon": -77.01855516666667, "name": "8f754a054f103c96f358db625e6abb23", "is_disabled": 0, "type": "electric_scooter", "is_reserved": 0, "fusion_lon": 0.0, "lat": 38.94916166666667, "rental_uris": {"ios": "https://dc.lft.to/lastmile_qr_scan", "android": "https://dc.lft.to/lastmile_qr_scan"}, "bike_id": "8f754a054f103c96f358db625e6abb23", "fusion_lat": 0.0}, {"lon": -77.0219115, "name": "62e41843971d675783814450a120d124", "is_disabled": 0, "type": "electric_scooter", "is_reserved": 0, "fusion_lon": 0.0, "lat": 38.89950283333334, "rental_uris": {"ios": "https://dc.lft.to/lastmile_qr_scan", "android": "https://dc.lft.to/lastmile_qr_scan"}, "bike_id": "62e41843971d675783814450a120d124", "fusion_lat": 0.0}, {"lon": -77.0207865, "name": "8421b1d446e05232de719997e57a09dc", "is_disabled": 0, "type": "electric_scooter", "is_reserved": 0, "fusion_lon": 0.0, "lat": 38.92707716666666, "rental_uris": {"ios": "https://dc.lft.to/lastmile_qr_scan", "android": "https://dc.lft.to/lastmile_qr_scan"}, "bike_id": "8421b1d446e05232de719997e57a09dc", "fusion_lat": 0.0}, {"lon": -77.02312316666666, "name": "18afcf28691c2e5d7f8655984c7aa839", "is_disabled": 0, "type": "electric_scooter", "is_reserved": 0, "fusion_lon": 0.0, "lat": 38.92072366666667, "rental_uris": {"ios": "https://dc.lft.to/lastmile_qr_scan", "android": "https://dc.lft.to/lastmile_qr_scan"}, "bike_id": "18afcf28691c2e5d7f8655984c7aa839", "fusion_lat": 0.0}, {"lon": -76.96102066666667, "name": "9dd1b141fa01b676cbd5e3db0605f71d", "is_disabled": 0, "type": "electric_scooter", "is_reserved": 0, "fusion_lon": 0.0, "lat": 38.892072666666664, "rental_uris": {"ios": "https://dc.lft.to/lastmile_qr_scan", "android": "https://dc.lft.to/lastmile_qr_scan"}, "bike_id": "9dd1b141fa01b676cbd5e3db0605f71d", "fusion_lat": 0.0}, {"lon": -76.98375283333333, "name": "1af6a7317a45c001d92a1c6512cf8ce3", "is_disabled": 0, "type": "electric_scooter", "is_reserved": 0, "fusion_lon": 0.0, "lat": 38.9064575, "rental_uris": {"ios": "https://dc.lft.to/lastmile_qr_scan", "android": "https://dc.lft.to/lastmile_qr_scan"}, "bike_id": "1af6a7317a45c001d92a1c6512cf8ce3", "fusion_lat": 0.0}, {"lon": -76.98955533333333, "name": "5227d89eefa1241f0b602804bd814b7b", "is_disabled": 0, "type": "electric_scooter", "is_reserved": 0, "fusion_lon": 0.0, "lat": 38.85695966666667, "rental_uris": {"ios": "https://dc.lft.to/lastmile_qr_scan", "android": "https://dc.lft.to/lastmile_qr_scan"}, "bike_id": "5227d89eefa1241f0b602804bd814b7b", "fusion_lat": 0.0}, {"lon": -77.02110916666666, "name": "53aa9800da21c2c9495c4d96fb740a3d", "is_disabled": 0, "type": "electric_scooter", "is_reserved": 0, "fusion_lon": 0.0, "lat": 38.927858, "rental_uris": {"ios": "https://dc.lft.to/lastmile_qr_scan", "android": "https://dc.lft.to/lastmile_qr_scan"}, "bike_id": "53aa9800da21c2c9495c4d96fb740a3d", "fusion_lat": 0.0}, {"lon": -76.985972, "name": "1799549e7e53de3341186a6946099df7", "is_disabled": 0, "type": "electric_scooter", "is_reserved": 0, "fusion_lon": 0.0, "lat": 38.9065435, "rental_uris": {"ios": "https://dc.lft.to/lastmile_qr_scan", "android": "https://dc.lft.to/lastmile_qr_scan"}, "bike_id": "1799549e7e53de3341186a6946099df7", "fusion_lat": 0.0}, {"lon": -77.033005, "name": "0e053d6161e8a32b11a0c18b41898fca", "is_disabled": 0, "type": "electric_scooter", "is_reserved": 0, "fusion_lon": 0.0, "lat": 38.9180525, "rental_uris": {"ios": "https://dc.lft.to/lastmile_qr_scan", "android": "https://dc.lft.to/lastmile_qr_scan"}, "bike_id": "0e053d6161e8a32b11a0c18b41898fca", "fusion_lat": 0.0}, {"lon": -76.99766933333333, "name": "7b1690e2dc7627ceb583b8fe8c302957", "is_disabled": 0, "type": "electric_bike", "is_reserved": 0, "fusion_lon": 0.0, "lat": 38.9980815, "rental_uris": {"ios": "https://dc.lft.to/lastmile_qr_scan", "android": "https://dc.lft.to/lastmile_qr_scan"}, "bike_id": "7b1690e2dc7627ceb583b8fe8c302957", "fusion_lat": 0.0}, {"lon": -77.03284716666667, "name": "03c88c94abd50119ba5610929820a273", "is_disabled": 0, "type": "electric_scooter", "is_reserved": 0, "fusion_lon": 0.0, "lat": 38.898982333333336, "rental_uris": {"ios": "https://dc.lft.to/lastmile_qr_scan", "android": "https://dc.lft.to/lastmile_qr_scan"}, "bike_id": "03c88c94abd50119ba5610929820a273", "fusion_lat": 0.0}, {"lon": -77.02642966666667, "name": "2541454e3c32dbfa3c00d64e862c0c95", "is_disabled": 0, "type": "electric_scooter", "is_reserved": 0, "fusion_lon": 0.0, "lat": 38.923831666666665, "rental_uris": {"ios": "https://dc.lft.to/lastmile_qr_scan", "android": "https://dc.lft.to/lastmile_qr_scan"}, "bike_id": "2541454e3c32dbfa3c00d64e862c0c95", "fusion_lat": 0.0}, {"lon": -77.00324716666667, "name": "040bd3c0c78054acd56f20c308ecb43d", "is_disabled": 0, "type": "electric_scooter", "is_reserved": 0, "fusion_lon": 0.0, "lat": 38.89351383333333, "rental_uris": {"ios": "https://dc.lft.to/lastmile_qr_scan", "android": "https://dc.lft.to/lastmile_qr_scan"}, "bike_id": "040bd3c0c78054acd56f20c308ecb43d", "fusion_lat": 0.0}, {"lon": -77.02472966666667, "name": "1392299f0dbbd01350b7d2d968f43d62", "is_disabled": 0, "type": "electric_scooter", "is_reserved": 0, "fusion_lon": 0.0, "lat": 38.930978333333336, "rental_uris": {"ios": "https://dc.lft.to/lastmile_qr_scan", "android": "https://dc.lft.to/lastmile_qr_scan"}, "bike_id": "1392299f0dbbd01350b7d2d968f43d62", "fusion_lat": 0.0}, {"lon": -77.03558466666667, "name": "512a7d0d06763ce269daaa58fdbf5622", "is_disabled": 0, "type": "electric_bike", "is_reserved": 0, "fusion_lon": 0.0, "lat": 38.964688, "rental_uris": {"ios": "https://dc.lft.to/lastmile_qr_scan", "android": "https://dc.lft.to/lastmile_qr_scan"}, "bike_id": "512a7d0d06763ce269daaa58fdbf5622", "fusion_lat": 0.0}, {"lon": -77.007536, "name": "b7cf14eb32888da6dc1daf7a1f6b3366", "is_disabled": 0, "type": "electric_bike", "is_reserved": 0, "fusion_lon": 0.0, "lat": 38.99788133333333, "rental_uris": {"ios": "https://dc.lft.to/lastmile_qr_scan", "android": "https://dc.lft.to/lastmile_qr_scan"}, "bike_id": "b7cf14eb32888da6dc1daf7a1f6b3366", "fusion_lat": 0.0}, {"lon": -77.02917266666667, "name": "d435fb5cc9b92edc1d68c2dc3f2dfc1e", "is_disabled": 0, "type": "electric_scooter", "is_reserved": 0, "fusion_lon": 0.0, "lat": 38.9101675, "rental_uris": {"ios": "https://dc.lft.to/lastmile_qr_scan", "android": "https://dc.lft.to/lastmile_qr_scan"}, "bike_id": "d435fb5cc9b92edc1d68c2dc3f2dfc1e", "fusion_lat": 0.0}, {"lon": -77.096243, "name": "5bd1174e0b053c2d2942cd9a87db374d", "is_disabled": 0, "type": "electric_bike", "is_reserved": 0, "fusion_lon": 0.0, "lat": 38.9525035, "rental_uris": {"ios": "https://dc.lft.to/lastmile_qr_scan", "android": "https://dc.lft.to/lastmile_qr_scan"}, "bike_id": "5bd1174e0b053c2d2942cd9a87db374d", "fusion_lat": 0.0}, {"lon": -77.01009433333333, "name": "f2e8ac084e6440a1b61f76dde54ff94c", "is_disabled": 0, "type": "electric_bike", "is_reserved": 0, "fusion_lon": 0.0, "lat": 38.87965066666667, "rental_uris": {"ios": "https://dc.lft.to/lastmile_qr_scan", "android": "https://dc.lft.to/lastmile_qr_scan"}, "bike_id": "f2e8ac084e6440a1b61f76dde54ff94c", "fusion_lat": 0.0}, {"lon": -77.0021785, "name": "77573aec7301990197e8ddff5b3e3c55", "is_disabled": 0, "type": "electric_bike", "is_reserved": 0, "fusion_lon": 0.0, "lat": 38.936048, "rental_uris": {"ios": "https://dc.lft.to/lastmile_qr_scan", "android": "https://dc.lft.to/lastmile_qr_scan"}, "bike_id": "77573aec7301990197e8ddff5b3e3c55", "fusion_lat": 0.0}, {"lon": -77.0109945, "name": "971b8faf26a8cbebb48a48bfdfc28b50", "is_disabled": 0, "type": "electric_scooter", "is_reserved": 0, "fusion_lon": 0.0, "lat": 38.89526683333333, "rental_uris": {"ios": "https://dc.lft.to/lastmile_qr_scan", "android": "https://dc.lft.to/lastmile_qr_scan"}, "bike_id": "971b8faf26a8cbebb48a48bfdfc28b50", "fusion_lat": 0.0}, {"lon": -77.05228833333334, "name": "fb331c539580037776a807165b745951", "is_disabled": 0, "type": "electric_scooter", "is_reserved": 0, "fusion_lon": 0.0, "lat": 38.924650166666666, "rental_uris": {"ios": "https://dc.lft.to/lastmile_qr_scan", "android": "https://dc.lft.to/lastmile_qr_scan"}, "bike_id": "fb331c539580037776a807165b745951", "fusion_lat": 0.0}, {"lon": -77.00214933333334, "name": "9b73856e8a9892ca6c500a0f29756e95", "is_disabled": 0, "type": "electric_scooter", "is_reserved": 0, "fusion_lon": 0.0, "lat": 38.92447, "rental_uris": {"ios": "https://dc.lft.to/lastmile_qr_scan", "android": "https://dc.lft.to/lastmile_qr_scan"}, "bike_id": "9b73856e8a9892ca6c500a0f29756e95", "fusion_lat": 0.0}, {"lon": -77.044727, "name": "7b242a57b30f7113f940897299e9f314", "is_disabled": 0, "type": "electric_scooter", "is_reserved": 0, "fusion_lon": 0.0, "lat": 38.909709, "rental_uris": {"ios": "https://dc.lft.to/lastmile_qr_scan", "android": "https://dc.lft.to/lastmile_qr_scan"}, "bike_id": "7b242a57b30f7113f940897299e9f314", "fusion_lat": 0.0}, {"lon": -77.0044605, "name": "df53ae16c459074334386077fa2f6689", "is_disabled": 0, "type": "electric_scooter", "is_reserved": 0, "fusion_lon": 0.0, "lat": 38.87661466666667, "rental_uris": {"ios": "https://dc.lft.to/lastmile_qr_scan", "android": "https://dc.lft.to/lastmile_qr_scan"}, "bike_id": "df53ae16c459074334386077fa2f6689", "fusion_lat": 0.0}, {"lon": -76.9471875, "name": "b2a783f230f42c5e44be2452d9e9d5ff", "is_disabled": 0, "type": "electric_bike", "is_reserved": 0, "fusion_lon": 0.0, "lat": 38.9838305, "rental_uris": {"ios": "https://dc.lft.to/lastmile_qr_scan", "android": "https://dc.lft.to/lastmile_qr_scan"}, "bike_id": "b2a783f230f42c5e44be2452d9e9d5ff", "fusion_lat": 0.0}, {"lon": -77.01040666666667, "name": "600a1bd0e2d8990f4720c5cd61b2cd8c", "is_disabled": 0, "type": "electric_scooter", "is_reserved": 0, "fusion_lon": 0.0, "lat": 38.894711666666666, "rental_uris": {"ios": "https://dc.lft.to/lastmile_qr_scan", "android": "https://dc.lft.to/lastmile_qr_scan"}, "bike_id": "600a1bd0e2d8990f4720c5cd61b2cd8c", "fusion_lat": 0.0}, {"lon": -77.01491133333333, "name": "41ea824c129e57b6c91d636d63cc4c99", "is_disabled": 0, "type": "electric_scooter", "is_reserved": 0, "fusion_lon": 0.0, "lat": 38.901424666666664, "rental_uris": {"ios": "https://dc.lft.to/lastmile_qr_scan", "android": "https://dc.lft.to/lastmile_qr_scan"}, "bike_id": "41ea824c129e57b6c91d636d63cc4c99", "fusion_lat": 0.0},