{"data": {"bikes": [{"is_disabled": 0, "is_reserved": 0, "fusion_lat": 0.0, "lat": 38.911028, "fusion_lon": 0.0, "rental_uris": {"ios": "https://dc.lft.to/lastmile_qr_scan", "android": "https://dc.lft.to/lastmile_qr_scan"}, "lon": -77.00220066666667, "bike_id": "1cffee0a7ee3f0572f226fb460f1bda7", "type": "electric_scooter", "name": "1cffee0a7ee3f0572f226fb460f1bda7"}, {"is_disabled": 0, "is_reserved": 0, "fusion_lat": 0.0, "lat": 38.9223075, "fusion_lon": 0.0, "rental_uris": {"ios": "https://dc.lft.to/lastmile_qr_scan", "android": "https://dc.lft.to/lastmile_qr_scan"}, "lon": -77.01830016666666, "bike_id": "2583914661825ba0fbe95538930003b4", "type": "electric_scooter", "name": "2583914661825ba0fbe95538930003b4"}, {"is_disabled": 0, "is_reserved": 0, "fusion_lat": 0.0, "lat": 38.904674666666665, "fusion_lon": 0.0, "rental_uris": {"ios": "https://dc.lft.to/lastmile_qr_scan", "android": "https://dc.lft.to/lastmile_qr_scan"}, "lon": -76.98423066666666, "bike_id": "0b52a7f178479f07a4951f57abb1aeec", "type": "electric_bike", "name": "0b52a7f178479f07a4951f57abb1aeec"}, {"is_disabled": 0, "is_reserved": 0, "fusion_lat": 0.0, "lat": 38.92772566666667, "fusion_lon": 0.0, "rental_uris": {"ios": "https://dc.lft.to/lastmile_qr_scan", "android": "https://dc.lft.to/lastmile_qr_scan"}, "lon": -77.02313333333333, "bike_id": "2bea69a01ba07b09f95c9a97e9fea129", "type": "electric_scooter", "name": "2bea69a01ba07b09f95c9a97e9fea129"}, {"is_disabled": 0, "is_reserved": 0, "fusion_lat": 0.0, "lat": 38.85793783333333, "fusion_lon": 0.0, "rental_uris": {"ios": "https://dc.lft.to/lastmile_qr_scan", "android": "https://dc.lft.to/lastmile_qr_scan"}, "lon": -76.987533, "bike_id": "39e07666eb18b93e84832740e3449c40", "type": "electric_bike", "name": "39e07666eb18b93e84832740e3449c40"}, {"is_disabled": 0, "is_reserved": 0, "fusion_lat": 0.0, "lat": 38.92237316666667, "fusion_lon": 0.0, "rental_uris": {"ios": "https://dc.lft.to/lastmile_qr_scan", "android": "https://dc.lft.to/lastmile_qr_scan"}, "lon": -77.04013016666667, "bike_id": "6614a43b77fa23ab00bea1c69c9e8708", "type": "electric_scooter", "name": "6614a43b77fa23ab00bea1c69c9e8708"}, {"is_disabled": 0, "is_reserved": 0, "fusion_lat": 0.0, "lat": 38.8916495, "fusion_lon": 0.0, "rental_uris": {"ios": "https://dc.lft.to/lastmile_qr_scan", "android": "https://dc.lft.to/lastmile_qr_scan"}, "lon": -77.0154305, "bike_id": "9d3ecb08bc50135d7adeb78ccc87e21f", "type": "electric_scooter", "name": "9d3ecb08bc50135d7adeb78ccc87e21f"}, {"is_disabled": 0, "is_reserved": 0, "fusion_lat": 0.0, "lat": 38.9004845, "fusion_lon": 0.0, "rental_uris": {"ios": "https://dc.lft.to/lastmile_qr_scan", "android": "https://dc.lft.to/lastmile_qr_scan"}, "lon": -77.01387133333333, "bike_id": "89e6a0a2986f509e81c39d32146174d5", "type": "electric_scooter", "name": "89e6a0a2986f509e81c39d32146174d5"}, {"is_disabled": 0, "is_reserved": 0, "fusion_lat": 0.0, "lat": 39.026224666666664, "fusion_lon": 0.0, "rental_uris": {"ios": "https://dc.lft.to/lastmile_qr_scan", "android": "https://dc.lft.to/lastmile_qr_scan"}, "lon": -77.03882083333333, "bike_id": "22a1b2b7dd9765786ca7d40cdd09ff2a", "type": "electric_bike", "name": "22a1b2b7dd9765786ca7d40cdd09ff2a"}, {"is_disabled": 0, "is_reserved": 0, "fusion_lat": 0.0, "lat": 38.909751666666665, "fusion_lon": 0.0, "rental_uris": {"ios": "https://dc.lft.to/lastmile_qr_scan", "android": "https://dc.lft.to/lastmile_qr_scan"}, "lon": -77.03245883333334, "bike_id": "acccaff0d5ad396cf646b03e7ebc3904", "type": "electric_scooter", "name": "acccaff0d5ad396cf646b03e7ebc3904"}, {"is_disabled": 0, "is_reserved": 0, "fusion_lat": 0.0, "lat": 38.84646716666666, "fusion_lon": 0.0, "rental_uris": {"ios": "https://dc.lft.to/lastmile_qr_scan", "android": "https://dc.lft.to/lastmile_qr_scan"}, "lon": -77.003675, "bike_id": "2a93516f801e5a62c5cf0bc07e59648f", "type": "electric_scooter", "name": "2a93516f801e5a62c5cf0bc07e59648f"}, {"is_disabled": 0, "is_reserved": 0, "fusion_lat": 0.0, "lat": 38.887094166666664, "fusion_lon": 0.0, "rental_uris": {"ios": "https://dc.lft.to/lastmile_qr_scan", "android": "https://dc.lft.to/lastmile_qr_scan"}, "lon": -76.98345833333333, "bike_id": "520a9535d9ed16432e9391942e9db715", "type": "electric_scooter", "name": "520a9535d9ed16432e9391942e9db715"}, {"is_disabled": 0, "is_reserved": 0, "fusion_lat": 0.0, "lat": 38.91311233333333, "fusion_lon": 0.0, "rental_uris": {"ios": "https://dc.lft.to/lastmile_qr_scan", "android": "https://dc.lft.to/lastmile_qr_scan"}, "lon": -77.0143805, "bike_id": "e3da420bbebe6dcf61046697f2f8c9e8", "type": "electric_scooter", "name": "e3da420bbebe6dcf61046697f2f8c9e8"}, {"is_disabled": 0, "is_reserved": 0, "fusion_lat": 0.0, "lat": 38.9003275, "fusion_lon": 0.0, "rental_uris": {"ios": "https://dc.lft.to/lastmile_qr_scan", "android": "https://dc.lft.to/lastmile_qr_scan"}, "lon": -77.01772516666666, "bike_id": "f58f55e0f42f8517e35b4ffa8c73d430", "type": "electric_scooter", "name": "f58f55e0f42f8517e35b4ffa8c73d430"}, {"is_disabled": 0, "is_reserved": 0, "fusion_lat": 0.0, "lat": 38.91777966666667, "fusion_lon": 0.0, "rental_uris": {"ios": "https://dc.lft.to/lastmile_qr_scan", "android": "https://dc.lft.to/lastmile_qr_scan"}, "lon": -77.02700733333333, "bike_id": "5609cbfb05ee99d4f61e5ebfde57994b", "type": "electric_scooter", "name": "5609cbfb05ee99d4f61e5ebfde57994b"}, {"is_disabled": 0, "is_reserved": 0, "fusion_lat": 0.0, "lat": 38.88023466666667, "fusion_lon": 0.0, "rental_uris": {"ios": "https://dc.lft.to/lastmile_qr_scan", "android": "https://dc.lft.to/lastmile_qr_scan"}, "lon": -76.94324466666667, "bike_id": "93fa5068a5c64322193de89f870dc76f", "type": "electric_scooter", "name": "93fa5068a5c64322193de89f870dc76f"}, {"is_disabled": 0, "is_reserved": 0, "fusion_lat": 0.0, "lat": 38.870818, "fusion_lon": 0.0, "rental_uris": {"ios": "https://dc.lft.to/lastmile_qr_scan", "android": "https://dc.lft.to/lastmile_qr_scan"}, "lon": -77.13333333333334, "bike_id": "8e289c614328f34f362988f61cd621e5", "type": "electric_bike", "name": "8e289c614328f34f362988f61cd621e5"}, {"is_disabled": 0, "is_reserved": 0, "fusion_lat": 0.0, "lat": 38.831553, "fusion_lon": 0.0, "rental_uris": {"ios": "https://dc.lft.to/lastmile_qr_scan", "android": "https://dc.lft.to/lastmile_qr_scan"}, "lon": -76.99575083333333, "bike_id": "aba88937be05099aba5575f6770d89fa", "type": "electric_bike", "name": "aba88937be05099aba5575f6770d89fa"}, {"is_disabled": 0, "is_reserved": 0, "fusion_lat": 0.0, "lat": 38.91438266666667, "fusion_lon": 0.0, "rental_uris": {"ios": "https://dc.lft.to/lastmile_qr_scan", "android": "https://dc.lft.to/lastmile_qr_scan"}, "lon": -77.02195966666666, "bike_id": "7ebff36217509ba358de52b5e33d489a", "type": "electric_scooter", "name": "7ebff36217509ba358de52b5e33d489a"}, {"is_disabled": 0, "is_reserved": 0, "fusion_lat": 0.0, "lat": 38.920523833333334, "fusion_lon": 0.0, "rental_uris": {"ios": "https://dc.lft.to/lastmile_qr_scan", "android": "https://dc.lft.to/lastmile_qr_scan"}, "lon": -77.04389133333333, "bike_id": "6ce56c903ff4dddbb4a8e546cfdbf278", "type": "electric_scooter", "name": "6ce56c903ff4dddbb4a8e546cfdbf278"}, {"is_disabled": 0, "is_reserved": 0, "fusion_lat": 0.0, "lat": 38.930561, "fusion_lon": 0.0, "rental_uris": {"ios": "https://dc.lft.to/lastmile_qr_scan", "android": "https://dc.lft.to/lastmile_qr_scan"}, "lon": -77.04030166666666, "bike_id": "1627a79cfc9f3686d9052bf4537ec605", "type": "electric_scooter", "name": "1627a79cfc9f3686d9052bf4537ec605"}, {"is_disabled": 0, "is_reserved": 0, "fusion_lat": 0.0, "lat": 38.92319366666667, "fusion_lon": 0.0, "rental_uris": {"ios": "https://dc.lft.to/lastmile_qr_scan", "android": "https://dc.lft.to/lastmile_qr_scan"}, "lon": -77.04188, "bike_id": "ed4e4df547d666c6ef29be9751249a55", "type": "electric_scooter", "name": "ed4e4df547d666c6ef29be9751249a55"}, {"is_disabled": 0, "is_reserved": 0, "fusion_lat": 0.0, "lat": 38.92548983333333, "fusion_lon": 0.0, "rental_uris": {"ios": "https://dc.lft.to/lastmile_qr_scan", "android": "https://dc.lft.to/lastmile_qr_scan"}, "lon": -77.0032445, "bike_id": "8acd184b5810e9b669f3a99c05ad4f46", "type": "electric_scooter", "name": "8acd184b5810e9b669f3a99c05ad4f46"}, {"is_disabled": 0, "is_reserved": 0, "fusion_lat": 0.0, "lat": 38.91629066666667, "fusion_lon": 0.0, "rental_uris": {"ios": "https://dc.lft.to/lastmile_qr_scan", "android": "https://dc.lft.to/lastmile_qr_scan"}, "lon": -77.0085355, "bike_id": "e82cb7976e967db876e382a1c8947164", "type": "electric_scooter", "name": "e82cb7976e967db876e382a1c8947164"}, {"is_disabled": 0, "is_reserved": 0, "fusion_lat": 0.0, "lat": 38.87476983333333, "fusion_lon": 0.0, "rental_uris": {"ios": "https://dc.lft.to/lastmile_qr_scan", "android": "https://dc.lft.to/lastmile_qr_scan"}, "lon": -77.01070316666667, "bike_id": "1e60443478a748b2604438c95d0a6707", "type": "electric_scooter", "name": "1e60443478a748b2604438c95d0a6707"}, {"is_disabled": 0, "is_reserved": 0, "fusion_lat": 0.0, "lat": 38.909546666666664, "fusion_lon": 0.0, "rental_uris": {"ios": "https://dc.lft.to/lastmile_qr_scan", "android": "https://dc.lft.to/lastmile_qr_scan"}, "lon": -77.023133, "bike_id": "4f9029a15fd4e4dc6b03609ffeef8eb8", "type": "electric_scooter", "name": "4f9029a15fd4e4dc6b03609ffeef8eb8"}, {"is_disabled": 0, "is_reserved": 0, "fusion_lat": 0.0, "lat": 38.88731133333334, "fusion_lon": 0.0, "rental_uris": {"ios": "https://dc.lft.to/lastmile_qr_scan", "android": "https://dc.lft.to/lastmile_qr_scan"}, "lon": -77.02205916666666, "bike_id": "4a725a4d7b5f509d4cc2b753c16a7e23", "type": "electric_scooter", "name": "4a725a4d7b5f509d4cc2b753c16a7e23"}, {"is_disabled": 0, "is_reserved": 0, "fusion_lat": 0.0, "lat": 38.93659683333333, "fusion_lon": 0.0, "rental_uris": {"ios": "https://dc.lft.to/lastmile_qr_scan", "android": "https://dc.lft.to/lastmile_qr_scan"}, "lon": -77.06609433333334, "bike_id": "0951a9c07ff0eea376431fd4baadb0ca", "type": "electric_scooter", "name": "0951a9c07ff0eea376431fd4baadb0ca"}, {"is_disabled": 0, "is_reserved": 0, "fusion_lat": 0.0, "lat": 38.93119183333334, "fusion_lon": 0.0, "rental_uris": {"ios": "https://dc.lft.to/lastmile_qr_scan", "android": "https://dc.lft.to/lastmile_qr_scan"}, "lon": -77.020733, "bike_id": "be4414698f5e34fa8560f534bf0fbfcf", "type": "electric_scooter", "name": "be4414698f5e34fa8560f534bf0fbfcf"}, {"is_disabled": 0, "is_reserved": 0, "fusion_lat": 0.0, "lat": 38.882646, "fusion_lon": 0.0, "rental_uris": {"ios": "https://dc.lft.to/lastmile_qr_scan", "android": "https://dc.lft.to/lastmile_qr_scan"}, "lon": -77.0007055, "bike_id": "452f668f6ba904855e1318a6c8b511b9", "type": "electric_scooter", "name": "452f668f6ba904855e1318a6c8b511b9"}, {"is_disabled": 0, "is_reserved": 0, "fusion_lat": 0.0, "lat": 38.962154166666664, "fusion_lon": 0.0, "rental_uris": {"ios": "https://dc.lft.to/lastmile_qr_scan", "android": "https://dc.lft.to/lastmile_qr_scan"}, "lon": -77.02626816666667, "bike_id": "140c31cbaf748bc5163e52b5494c6fcb", "type": "electric_bike", "name": "140c31cbaf748bc5163e52b5494c6fcb"}, {"is_disabled": 0, "is_reserved": 0, "fusion_lat": 0.0, "lat": 38.922751, "fusion_lon": 0.0, "rental_uris": {"ios": "https://dc.lft.to/lastmile_qr_scan", "android": "https://dc.lft.to/lastmile_qr_scan"}, "lon": -77.02972516666667, "bike_id": "411e1f0c6218d82ad7b2d398940ba082", "type": "electric_scooter", "name": "411e1f0c6218d82ad7b2d398940ba082"}, {"is_disabled": 0, "is_reserved": 0, "fusion_lat": 0.0, "lat": 38.9244435, "fusion_lon": 0.0, "rental_uris": {"ios": "https://dc.lft.to/lastmile_qr_scan", "android": "https://dc.lft.to/lastmile_qr_scan"}, "lon": -77.020432, "bike_id": "e2f2ae68809d8c71bbb9542b8e7082f7", "type": "electric_scooter", "name": "e2f2ae68809d8c71bbb9542b8e7082f7"}, {"is_disabled": 0, "is_reserved": 0, "fusion_lat": 0.0, "lat": 38.92353333333333, "fusion_lon": 0.0, "rental_uris": {"ios": "https://dc.lft.to/lastmile_qr_scan", "android": "https://dc.lft.to/lastmile_qr_scan"}, "lon": -77.00198433333334, "bike_id": "c115e2e6ef5e7314bc9b952f069afa9f", "type": "electric_scooter", "name": "c115e2e6ef5e7314bc9b952f069afa9f"}, {"is_disabled": 0, "is_reserved": 0, "fusion_lat": 0.0, "lat": 38.8833065, "fusion_lon": 0.0, "rental_uris": {"ios": "https://dc.lft.to/lastmile_qr_scan", "android": "https://dc.lft.to/lastmile_qr_scan"}, "lon": -77.01742016666667, "bike_id": "23762954324e405499320ad76d141d8b", "type": "electric_scooter", "name": "23762954324e405499320ad76d141d8b"}, {"is_disabled": 0, "is_reserved": 0, "fusion_lat": 0.0, "lat": 38.892278166666664, "fusion_lon": 0.0, "rental_uris": {"ios": "https://dc.lft.to/lastmile_qr_scan", "android": "https://dc.lft.to/lastmile_qr_scan"}, "lon": -77.02605066666666, "bike_id": "92e6f38098561b05e76ed7989633ff07", "type": "electric_scooter", "name": "92e6f38098561b05e76ed7989633ff07"}, {"is_disabled": 0, "is_reserved": 0, "fusion_lat": 0.0, "lat": 38.91989216666666, "fusion_lon": 0.0, "rental_uris": {"ios": "https://dc.lft.to/lastmile_qr_scan", "android": "https://dc.lft.to/lastmile_qr_scan"}, "lon": -77.03255283333333, "bike_id": "84fc7c6ad537db011c1d983109567cc1", "type": "electric_scooter", "name": "84fc7c6ad537db011c1d983109567cc1"}, {"is_disabled": 0, "is_reserved": 0, "fusion_lat": 0.0, "lat": 38.907726833333335, "fusion_lon": 0.0, "rental_uris": {"ios": "https://dc.lft.to/lastmile_qr_scan", "android": "https://dc.lft.to/lastmile_qr_scan"}, "lon": -77.04548166666666, "bike_id": "7835d1834a4e0eb4a5fa4b048ce1ae12", "type": "electric_scooter", "name": "7835d1834a4e0eb4a5fa4b048ce1ae12"}, {"is_disabled": 0, "is_reserved": 0, "fusion_lat": 0.0, "lat": 38.80727, "fusion_lon": 0.0, "rental_uris": {"ios": "https://dc.lft.to/lastmile_qr_scan", "android": "https://dc.lft.to/lastmile_qr_scan"}, "lon": -76.99264283333333, "bike_id": "99edaca15396790e277849f488b6a5a1", "type": "electric_bike", "name": "99edaca15396790e277849f488b6a5a1"}, {"is_disabled": 0, "is_reserved": 0, "fusion_lat": 0.0, "lat": 38.960423666666664, "fusion_lon": 0.0, "rental_uris": {"ios": "https://dc.lft.to/lastmile_qr_scan", "android": "https://dc.lft.to/lastmile_qr_scan"}, "lon": -77.00510216666666, "bike_id": "e352d8f43d32a36e9ca240c6834e4346", "type": "electric_scooter", "name": "e352d8f43d32a36e9ca240c6834e4346"}, {"is_disabled": 0, "is_reserved": 0, "fusion_lat": 0.0, "lat": 38.88421, "fusion_lon": 0.0, "rental_uris": {"ios": "https://dc.lft.to/lastmile_qr_scan", "android": "https://dc.lft.to/lastmile_qr_scan"}, "lon": -77.02554366666666, "bike_id": "0f19faf2dfd8d6224de007366c521299", "type": "electric_bike", "name": "0f19faf2dfd8d6224de007366c521299"}, {"is_disabled": 0, "is_reserved": 0, "fusion_lat": 0.0, "lat": 38.92694133333333, "fusion_lon": 0.0, "rental_uris": {"ios": "https://dc.lft.to/lastmile_qr_scan", "android": "https://dc.lft.to/lastmile_qr_scan"}, "lon": -77.014694, "bike_id": "5b835afc16fb51e776b54f6c2f7d1115", "type": "electric_scooter", "name": "5b835afc16fb51e776b54f6c2f7d1115"}, {"is_disabled": 0, "is_reserved": 0, "fusion_lat": 0.0, "lat": 38.915766833333336, "fusion_lon": 0.0, "rental_uris": {"ios": "https://dc.lft.to/lastmile_qr_scan", "android": "https://dc.lft.to/lastmile_qr_scan"}, "lon": -77.02187166666667, "bike_id": "f1983c2808518ff972d966ed06a26023", "type": "electric_scooter", "name": "f1983c2808518ff972d966ed06a26023"}, {"is_disabled": 0, "is_reserved": 0, "fusion_lat": 0.0, "lat": 38.96377783333333, "fusion_lon": 0.0, "rental_uris": {"ios": "https://dc.lft.to/lastmile_qr_scan", "android": "https://dc.lft.to/lastmile_qr_scan"}, "lon": -77.01981716666667, "bike_id": "0c1ce1b35354e0d63217cb404a8be2c6", "type": "electric_bike", "name": "0c1ce1b35354e0d63217cb404a8be2c6"}, {"is_disabled": 0, "is_reserved": 0, "fusion_lat": 0.0, "lat": 38.947909333333335, "fusion_lon": 0.0, "rental_uris": {"ios": "https://dc.lft.to/lastmile_qr_scan", "android": "https://dc.lft.to/lastmile_qr_scan"}, "lon": -77.07904333333333, "bike_id": "92535c66f813b427aba5c78e06b37498", "type": "electric_scooter", "name": "92535c66f813b427aba5c78e06b37498"}, {"is_disabled": 0, "is_reserved": 0, "fusion_lat": 0.0, "lat": 38.9527985, "fusion_lon": 0.0, "rental_uris": {"ios": "https://dc.lft.to/lastmile_qr_scan", "android": "https://dc.lft.to/lastmile_qr_scan"}, "lon": -77.068687, "bike_id": "cf4d484cf0a7287e259d38781e134593", "type": "electric_scooter", "name": "cf4d484cf0a7287e259d38781e134593"}, {"is_disabled": 0, "is_reserved": 0, "fusion_lat": 0.0, "lat": 38.89218133333333, "fusion_lon": 0.0, "rental_uris": {"ios": "https://dc.lft.to/lastmile_qr_scan", "android": "https://dc.lft.to/lastmile_qr_scan"}, "lon": -77.04691916666667, "bike_id": "9fc15d942a5f51bb1db8316af4b09371", "type": "electric_scooter", "name": "9fc15d942a5f51bb1db8316af4b09371"}, {"is_disabled": 0, "is_reserved": 0, "fusion_lat": 0.0, "lat": 38.90580283333333, "fusion_lon": 0.0, "rental_uris": {"ios": "https://dc.lft.to/lastmile_qr_scan", "android": "https://dc.lft.to/lastmile_qr_scan"}, "lon": -77.02390816666667, "bike_id": "423d77661a1afd5f1c6aa12b30d6e74b", "type": "electric_scooter", "name": "423d77661a1afd5f1c6aa12b30d6e74b"}, {"is_disabled": 0, "is_reserved": 0, "fusion_lat": 0.0, "lat": 38.89332783333333, "fusion_lon": 0.0, "rental_uris": {"ios": "https://dc.lft.to/lastmile_qr_scan", "android": "https://dc.lft.to/lastmile_qr_scan"}, "lon": -76.92890366666667, "bike_id": "37f0c9aa58508b28d470b105f3a26951", "type": "electric_scooter", "name": "37f0c9aa58508b28d470b105f3a26951"}, {"is_disabled": 0, "is_reserved": 0, "fusion_lat": 0.0, "lat": 38.90781466666667, "fusion_lon": 0.0, "rental_uris": {"ios": "https://dc.lft.to/lastmile_qr_scan", "android": "https://dc.lft.to/lastmile_qr_scan"}, "lon": -76.99725483333333, "bike_id": "45b5e1f6724889d3f3d8d7ec02414ef3", "type": "electric_scooter", "name": "45b5e1f6724889d3f3d8d7ec02414ef3"}, {"is_disabled": 0, "is_reserved": 0, "fusion_lat": 0.0, "lat": 38.90149533333334, "fusion_lon": 0.0, "rental_uris": {"ios": "https://dc.lft.to/lastmile_qr_scan", "android": "https://dc.lft.to/lastmile_qr_scan"}, "lon": -77.0323675, "bike_id": "eb7a186afd4b7cc01dc4ea49195987fc", "type": "electric_scooter", "name": "eb7a186afd4b7cc01dc4ea49195987fc"}, {"is_disabled": 0, "is_reserved": 0, "fusion_lat": 0.0, "lat": 38.93682483333333, "fusion_lon": 0.0, "rental_uris": {"ios": "https://dc.lft.to/lastmile_qr_scan", "android": "https://dc.lft.to/lastmile_qr_scan"}, "lon": -77.03625466666666, "bike_id": "dbd2dd7e75fcbb4ea5f89db8d0e6a1be", "type": "electric_scooter", "name": "dbd2dd7e75fcbb4ea5f89db8d0e6a1be"}, {"is_disabled": 0, "is_reserved": 0, "fusion_lat": 0.0, "lat": 38.918101666666665, "fusion_lon": 0.0, "rental_uris": {"ios": "https://dc.lft.to/lastmile_qr_scan", "android": "https://dc.lft.to/lastmile_qr_scan"}, "lon": -77.02781433333334, "bike_id": "81fcb3ed67a52a893d815479ab648e16", "type": "electric_scooter", "name": "81fcb3ed67a52a893d815479ab648e16"}, {"is_disabled": 0, "is_reserved": 0, "fusion_lat": 0.0, "lat": 38.912916333333335, "fusion_lon": 0.0, "rental_uris": {"ios": "https://dc.lft.to/lastmile_qr_scan", "android": "https://dc.lft.to/lastmile_qr_scan"}, "lon": -77.04514783333333, "bike_id": "6c7f2b51b346877a87c868cc49e01e43", "type": "electric_scooter", "name": "6c7f2b51b346877a87c868cc49e01e43"}, {"is_disabled": 0, "is_reserved": 0, "fusion_lat": 0.0, "lat": 38.93657733333333, "fusion_lon": 0.0, "rental_uris": {"ios": "https://dc.lft.to/lastmile_qr_scan", "android": "https://dc.lft.to/lastmile_qr_scan"}, "lon": -77.06610516666667, "bike_id": "08c67518178cdf3152f47414d786e529", "type": "electric_scooter", "name": "08c67518178cdf3152f47414d786e529"}, {"is_disabled": 0, "is_reserved": 0, "fusion_lat": 0.0, "lat": 38.89502933333333, "fusion_lon": 0.0, "rental_uris": {"ios": "https://dc.lft.to/lastmile_qr_scan", "android": "https://dc.lft.to/lastmile_qr_scan"}, "lon": -77.022966, "bike_id": "cba9b85902fa5d855b62c192db42ff3f", "type": "electric_scooter", "name": "cba9b85902fa5d855b62c192db42ff3f"}, {"is_disabled": 0, "is_reserved": 0, "fusion_lat": 0.0, "lat": 38.91178216666667, "fusion_lon": 0.0, "rental_uris": {"ios": "https://dc.lft.to/lastmile_qr_scan", "android": "https://dc.lft.to/lastmile_qr_scan"}, "lon": -77.01220366666666, "bike_id": "0f12defe1bae5f6d9b9d8a0deb28bf47", "type": "electric_scooter", "name": "0f12defe1bae5f6d9b9d8a0deb28bf47"}, {"is_disabled": 0, "is_reserved": 0, "fusion_lat": 0.0, "lat": 38.89883616666667, "fusion_lon": 0.0, "rental_uris": {"ios": "https://dc.lft.to/lastmile_qr_scan", "android": "https://dc.lft.to/lastmile_qr_scan"}, "lon": -76.9867905, "bike_id": "e7c9a545eecaef224a3b14fd30065b5b", "type": "electric_scooter", "name": "e7c9a545eecaef224a3b14fd30065b5b"}, {"is_disabled": 0, "is_reserved": 0, "fusion_lat": 0.0, "lat": 38.934532, "fusion_lon": 0.0, "rental_uris": {"ios": "https://dc.lft.to/lastmile_qr_scan", "android": "https://dc.lft.to/lastmile_qr_scan"}, "lon": -77.02916883333333, "bike_id": "e5288ea6630621bd67066028761b6496", "type": "electric_scooter", "name": "e5288ea6630621bd67066028761b6496"}, {"is_disabled": 0, "is_reserved": 0, "fusion_lat": 0.0, "lat": 38.91646316666667, "fusion_lon": 0.0, "rental_uris": {"ios": "https://dc.lft.to/lastmile_qr_scan", "android": "https://dc.lft.to/lastmile_qr_scan"}, "lon": -77.046704, "bike_id": "6b11f8b7ceb6446ad74566f16762828f", "type": "electric_scooter", "name": "6b11f8b7ceb6446ad74566f16762828f"}, {"is_disabled": 0, "is_reserved": 0, "fusion_lat": 0.0, "lat": 38.8783295, "fusion_lon": 0.0, "rental_uris": {"ios": "https://dc.lft.to/lastmile_qr_scan", "android": "https://dc.lft.to/lastmile_qr_scan"}, "lon": -77.02282366666667, "bike_id": "198ea2f89e9c07f6b038e2477e47da79", "type": "electric_scooter", "name": "198ea2f89e9c07f6b038e2477e47da79"}, {"is_disabled": 0, "is_reserved": 0, "fusion_lat": 0.0, "lat": 38.89948433333333, "fusion_lon": 0.0, "rental_uris": {"ios": "https://dc.lft.to/lastmile_qr_scan", "android": "https://dc.lft.to/lastmile_qr_scan"}, "lon": -76.93758916666667, "bike_id": "4103ee21282265846a4c877cf6abaf7e", "type": "electric_scooter", "name": "4103ee21282265846a4c877cf6abaf7e"}, {"is_disabled": 0, "is_reserved": 0, "fusion_lat": 0.0, "lat": 38.892228333333335, "fusion_lon": 0.0, "rental_uris": {"ios": "https://dc.lft.to/lastmile_qr_scan", "android": "https://dc.lft.to/lastmile_qr_scan"}, "lon": -77.031501, "bike_id": "a85741b9bc9af9ea72b862fa883d9b69", "type": "electric_scooter", "name": "a85741b9bc9af9ea72b862fa883d9b69"}, {"is_disabled": 0, "is_reserved": 0, "fusion_lat": 0.0, "lat": 38.889734, "fusion_lon": 0.0, "rental_uris": {"ios": "https://dc.lft.to/lastmile_qr_scan", "android": "https://dc.lft.to/lastmile_qr_scan"}, "lon": -76.98179816666666, "bike_id": "e847f4f4997fa193ea6e4175b0a1424a", "type": "electric_scooter", "name": "e847f4f4997fa193ea6e4175b0a1424a"}, {"is_disabled": 0, "is_reserved": 0, "fusion_lat": 0.0, "lat": 38.92819333333333, "fusion_lon": 0.0, "rental_uris": {"ios": "https://dc.lft.to/lastmile_qr_scan", "android": "https://dc.lft.to/lastmile_qr_scan"}, "lon": -77.05969616666667, "bike_id": "76c056dcdef96062ad017c772c779fde", "type": "electric_bike", "name": "76c056dcdef96062ad017c772c779fde"}, {"is_disabled": 0, "is_reserved": 0, "fusion_lat": 0.0, "lat": 38.9180725, "fusion_lon": 0.0, "rental_uris": {"ios": "https://dc.lft.to/lastmile_qr_scan", "android": "https://dc.lft.to/lastmile_qr_scan"}, "lon": -77.00007983333333, "bike_id": "4585b3c1825d034e1246337de2cdaab3", "type": "electric_scooter", "name": "4585b3c1825d034e1246337de2cdaab3"}, {"is_disabled": 0, "is_reserved": 0, "fusion_lat": 0.0, "lat": 38.8950065, "fusion_lon": 0.0, "rental_uris": {"ios": "https://dc.lft.to/lastmile_qr_scan", "android": "https://dc.lft.to/lastmile_qr_scan"}, "lon": -77.02095983333334, "bike_id": "70e1e35d7e01c35b749f2064767aba49", "type": "electric_scooter", "name": "70e1e35d7e01c35b749f2064767aba49"}, {"is_disabled": 0, "is_reserved": 0, "fusion_lat": 0.0, "lat": 38.938678333333336, "fusion_lon": 0.0, "rental_uris": {"ios": "https://dc.lft.to/lastmile_qr_scan", "android": "https://dc.lft.to/lastmile_qr_scan"}, "lon": -77.06028833333333, "bike_id": "47dc8f534d415132c8e1dc15a7a62969", "type": "electric_scooter", "name": "47dc8f534d415132c8e1dc15a7a62969"}, {"is_disabled": 0, "is_reserved": 0, "fusion_lat": 0.0, "lat": 38.921750833333334, "fusion_lon": 0.0, "rental_uris": {"ios": "https://dc.lft.to/lastmile_qr_scan", "android": "https://dc.lft.to/lastmile_qr_scan"}, "lon": -77.04702433333334, "bike_id": "1b3fa263026dda6bddd6dac130643f6c", "type": "electric_scooter", "name": "1b3fa263026dda6bddd6dac130643f6c"}, {"is_disabled": 0, "is_reserved": 0, "fusion_lat": 0.0, "lat": 38.892373666666664, "fusion_lon": 0.0, "rental_uris": {"ios": "https://dc.lft.to/lastmile_qr_scan", "android": "https://dc.lft.to/lastmile_qr_scan"}, "lon": -77.026125, "bike_id": "464710a17ba2f4833703a4c33e7d3c44", "type": "electric_scooter", "name": "464710a17ba2f4833703a4c33e7d3c44"}, {"is_disabled": 0, "is_reserved": 0, "fusion_lat": 0.0, "lat": 38.9066275, "fusion_lon": 0.0, "rental_uris": {"ios": "https://dc.lft.to/lastmile_qr_scan", "android": "https://dc.lft.to/lastmile_qr_scan"}, "lon": -76.98598116666666, "bike_id": "660291f252a44704ead9b4e6af4de704", "type": "electric_scooter", "name": "660291f252a44704ead9b4e6af4de704"}, {"is_disabled": 0, "is_reserved": 0, "fusion_lat": 0.0, "lat": 38.93740483333333, "fusion_lon": 0.0, "rental_uris": {"ios": "https://dc.lft.to/lastmile_qr_scan", "android": "https://dc.lft.to/lastmile_qr_scan"}, "lon": -77.02130583333333, "bike_id": "fa47fde9c515e6dfce62d8de9e396eee", "type": "electric_scooter", "name": "fa47fde9c515e6dfce62d8de9e396eee"}, {"is_disabled": 0, "is_reserved": 0, "fusion_lat": 0.0, "lat": 38.960445666666665, "fusion_lon": 0.0, "rental_uris": {"ios": "https://dc.lft.to/lastmile_qr_scan", "android": "https://dc.lft.to/lastmile_qr_scan"}, "lon": -77.00509466666666, "bike_id": "b5ed8960cfae474dab28951049c6ffe9", "type": "electric_scooter", "name": "b5ed8960cfae474dab28951049c6ffe9"}, {"is_disabled": 0, "is_reserved": 0, "fusion_lat": 0.0, "lat": 38.93062533333333, "fusion_lon": 0.0, "rental_uris": {"ios": "https://dc.lft.to/lastmile_qr_scan", "android": "https://dc.lft.to/lastmile_qr_scan"}, "lon": -77.04324166666666, "bike_id": "c779ed2fdbcf91a8d27584b899823151", "type": "electric_scooter", "name": "c779ed2fdbcf91a8d27584b899823151"}, {"is_disabled": 0, "is_reserved": 0, "fusion_lat": 0.0, "lat": 38.91400316666667, "fusion_lon": 0.0, "rental_uris": {"ios": "https://dc.lft.to/lastmile_qr_scan", "android": "https://dc.lft.to/lastmile_qr_scan"}, "lon": -77.0322595, "bike_id": "fa8ffb3084b7f8f618e0aaad4332d6b0", "type": "electric_scooter", "name": "fa8ffb3084b7f8f618e0aaad4332d6b0"}, {"is_disabled": 0, "is_reserved": 0, "fusion_lat": 0.0, "lat": 38.93102066666667, "fusion_lon": 0.0, "rental_uris": {"ios": "https://dc.lft.to/lastmile_qr_scan", "android": "https://dc.lft.to/lastmile_qr_scan"}, "lon": -77.0247945, "bike_id": "ee880857aee327dca09231a5f6aebfe2", "type": "electric_scooter", "name": "ee880857aee327dca09231a5f6aebfe2"}, {"is_disabled": 0, "is_reserved": 0, "fusion_lat": 0.0, "lat": 38.918583, "fusion_lon": 0.0, "rental_uris": {"ios": "https://dc.lft.to/lastmile_qr_scan", "android": "https://dc.lft.to/lastmile_qr_scan"}, "lon": -77.04039116666667, "bike_id": "73fe080d76ef310f235071efe93ecea1", "type": "electric_scooter", "name": "73fe080d76ef310f235071efe93ecea1"}, {"is_disabled": 0, "is_reserved": 0, "fusion_lat": 0.0, "lat": 38.915409333333336, "fusion_lon": 0.0, "rental_uris": {"ios": "https://dc.lft.to/lastmile_qr_scan", "android": "https://dc.lft.to/lastmile_qr_scan"}, "lon": -77.04632333333333, "bike_id": "47c751b0232b3cfd3fff4a9fd09d64a3", "type": "electric_scooter", "name": "47c751b0232b3cfd3fff4a9fd09d64a3"}, {"is_disabled": 0, "is_reserved": 0, "fusion_lat": 0.0, "lat": 38.917003333333334, "fusion_lon": 0.0, "rental_uris": {"ios": "https://dc.lft.to/lastmile_qr_scan", "android": "https://dc.lft.to/lastmile_qr_scan"}, "lon": -77.01187266666666, "bike_id": "0169fc244ee17dc9e5aeabe9d9eb17c2", "type": "electric_scooter", "name": "0169fc244ee17dc9e5aeabe9d9eb17c2"}, {"is_disabled": 0, "is_reserved": 0, "fusion_lat": 0.0, "lat": 38.86261583333334, "fusion_lon": 0.0, "rental_uris": {"ios": "https://dc.lft.to/lastmile_qr_scan", "android": "https://dc.lft.to/lastmile_qr_scan"}, "lon": -76.98350566666667, "bike_id": "8c147f76ebf12b45c77e6d2a8e1ef1e7", "type": "electric_bike", "name": "8c147f76ebf12b45c77e6d2a8e1ef1e7"}, {"is_disabled": 0, "is_reserved": 0, "fusion_lat": 0.0, "lat": 38.89223783333333, "fusion_lon": 0.0, "rental_uris": {"ios": "https://dc.lft.to/lastmile_qr_scan", "android": "https://dc.lft.to/lastmile_qr_scan"}, "lon": -77.04368, "bike_id": "90c6684e97613c8692439d1a947629ea", "type": "electric_scooter", "name": "90c6684e97613c8692439d1a947629ea"}, {"is_disabled": 0, "is_reserved": 0, "fusion_lat": 0.0, "lat": 38.89198833333333, "fusion_lon": 0.0, "rental_uris": {"ios": "https://dc.lft.to/lastmile_qr_scan", "android": "https://dc.lft.to/lastmile_qr_scan"}, "lon": -77.04391066666666, "bike_id": "35fe97aa5f9ba373a8ea6ff4b0ed6d7f", "type": "electric_scooter", "name": "35fe97aa5f9ba373a8ea6ff4b0ed6d7f"}, {"is_disabled": 0, "is_reserved": 0, "fusion_lat": 0.0, "lat": 38.93171366666667, "fusion_lon": 0.0, "rental_uris": {"ios": "https://dc.lft.to/lastmile_qr_scan", "android": "https://dc.lft.to/lastmile_qr_scan"}, "lon": -77.02818166666667, "bike_id": "c4c3e69eb499ae718470caffd9f4bbcb", "type": "electric_scooter", "name": "c4c3e69eb499ae718470caffd9f4bbcb"}, {"is_disabled": 0, "is_reserved": 0, "fusion_lat": 0.0, "lat": 38.8275695, "fusion_lon": 0.0, "rental_uris": {"ios": "https://dc.lft.to/lastmile_qr_scan", "android": "https://dc.lft.to/lastmile_qr_scan"}, "lon": -77.05032766666666, "bike_id": "ae46f289607e4ce713d86cac57d9b491", "type": "electric_bike", "name": "ae46f289607e4ce713d86cac57d9b491"}, {"is_disabled": 0, "is_reserved": 0, "fusion_lat": 0.0, "lat": 38.918603, "fusion_lon": 0.0, "rental_uris": {"ios": "https://dc.lft.to/lastmile_qr_scan", "android": "https://dc.lft.to/lastmile_qr_scan"}, "lon": -77.04465866666666, "bike_id": "1f8e4c367f6f0df501762ebddb09f6ba", "type": "electric_scooter", "name": "1f8e4c367f6f0df501762ebddb09f6ba"}, {"is_disabled": 0, "is_reserved": 0, "fusion_lat": 0.0, "lat": 38.90797233333333, "fusion_lon": 0.0, "rental_uris": {"ios": "https://dc.lft.to/lastmile_qr_scan", "android": "https://dc.lft.to/lastmile_qr_scan"}, "lon": -77.0498605, "bike_id": "31f3d569492c1b5c5d9874d94bc918ae", "type": "electric_scooter", "name": "31f3d569492c1b5c5d9874d94bc918ae"}, {"is_disabled": 0, "is_reserved": 0, "fusion_lat": 0.0, "lat": 38.92346883333333, "fusion_lon": 0.0, "rental_uris": {"ios": "https://dc.lft.to/lastmile_qr_scan", "android": "https://dc.lft.to/lastmile_qr_scan"}, "lon": -77.073154, "bike_id": "04e465d556c65507e0e74e55aad6bf97", "type": "electric_scooter", "name": "04e465d556c65507e0e74e55aad6bf97"}, {"is_disabled": 0, "is_reserved": 0, "fusion_lat": 0.0, "lat": 38.9000915, "fusion_lon": 0.0, "rental_uris": {"ios": "https://dc.lft.to/lastmile_qr_scan", "android": "https://dc.lft.to/lastmile_qr_scan"}, "lon": -77.02181216666666, "bike_id": "02ffeda9bc5ce9bfb4457612c9cda9fc", "type": "electric_scooter", "name": "02ffeda9bc5ce9bfb4457612c9cda9fc"}, {"is_disabled": 0, "is_reserved": 0, "fusion_lat": 0.0, "lat": 38.9369665, "fusion_lon": 0.0, "rental_uris": {"ios": "https://dc.lft.to/lastmile_qr_scan", "android": "https://dc.lft.to/lastmile_qr_scan"}, "lon": -77.056023, "bike_id": "575a572ecaa01fc1d0ed32a5cf2adb1b", "type": "electric_scooter", "name": "575a572ecaa01fc1d0ed32a5cf2adb1b"}, {"is_disabled": 0, "is_reserved": 0, "fusion_lat": 0.0, "lat": 38.89288766666667, "fusion_lon": 0.0, "rental_uris": {"ios": "https://dc.lft.to/lastmile_qr_scan", "android": "https://dc.lft.to/lastmile_qr_scan"}, "lon": -76.97617383333333, "bike_id": "f53d6844c490aaa3f0af654c467fd3ec", "type": "electric_bike", "name": "f53d6844c490aaa3f0af654c467fd3ec"}, {"is_disabled": 0, "is_reserved": 0, "fusion_lat": 0.0, "lat": 38.924003166666665, "fusion_lon": 0.0, "rental_uris": {"ios": "https://dc.lft.to/lastmile_qr_scan", "android": "https://dc.lft.to/lastmile_qr_scan"}, "lon": -76.99373033333333, "bike_id": "c6f439486fb0842c70033f0ccffb81b0", "type": "electric_scooter", "name": "c6f439486fb0842c70033f0ccffb81b0"}, {"is_disabled": 0, "is_reserved": 0, "fusion_lat": 0.0, "lat": 38.917224833333336, "fusion_lon": 0.0, "rental_uris": {"ios": "https://dc.lft.to/lastmile_qr_scan", "android": "https://dc.lft.to/lastmile_qr_scan"}, "lon": -77.026978, "bike_id": "d8b87e4147e61304c3981f559215938d", "type": "electric_scooter", "name": "d8b87e4147e61304c3981f559215938d"}, {"is_disabled": 0, "is_reserved": 0, "fusion_lat": 0.0, "lat": 38.892057333333334, "fusion_lon": 0.0, "rental_uris": {"ios": "https://dc.lft.to/lastmile_qr_scan", "android": "https://dc.lft.to/lastmile_qr_scan"}, "lon": -76.99844716666666, "bike_id": "41c5a46280602975dad154a47b0f469f", "type": "electric_scooter", "name": "41c5a46280602975dad154a47b0f469f"}, {"is_disabled": 0, "is_reserved": 0, "fusion_lat": 0.0, "lat": 38.9265185, "fusion_lon": 0.0, "rental_uris": {"ios": "https://dc.lft.to/lastmile_qr_scan", "android": "https://dc.lft.to/lastmile_qr_scan"}, "lon": -77.02447166666667, "bike_id": "b43185d65956d4899a3596f48eb433ef", "type": "electric_scooter", "name": "b43185d65956d4899a3596f48eb433ef"}, {"is_disabled": 0, "is_reserved": 0, "fusion_lat": 0.0, "lat": 38.92653133333334, "fusion_lon": 0.0, "rental_uris": {"ios": "https://dc.lft.to/lastmile_qr_scan", "android": "https://dc.lft.to/lastmile_qr_scan"}, "lon": -77.0242365, "bike_id": "1a128ff11c4a867d9f408c924371dbbf", "type": "electric_scooter", "name": "1a128ff11c4a867d9f408c924371dbbf"}, {"is_disabled": 0, "is_reserved": 0, "fusion_lat": 0.0, "lat": 38.9311735, "fusion_lon": 0.0, "rental_uris": {"ios": "https://dc.lft.to/lastmile_qr_scan", "android": "https://dc.lft.to/lastmile_qr_scan"}, "lon": -77.02071433333333, "bike_id": "22f199d30f536f41127f9433db7b8fa2", "type": "electric_scooter", "name": "22f199d30f536f41127f9433db7b8fa2"}, {"is_disabled": 0, "is_reserved": 0, "fusion_lat": 0.0, "lat": 38.9200485, "fusion_lon": 0.0, "rental_uris": {"ios": "https://dc.lft.to/lastmile_qr_scan", "android": "https://dc.lft.to/lastmile_qr_scan"}, "lon": -77.04177966666667, "bike_id": "0c57a253661f9057645977762ac9829e", "type": "electric_scooter", "name": "0c57a253661f9057645977762ac9829e"}, {"is_disabled": 0, "is_reserved": 0, "fusion_lat": 0.0, "lat": 38.8935665, "fusion_lon": 0.0, "rental_uris": {"ios": "https://dc.lft.to/lastmile_qr_scan", "android": "https://dc.lft.to/lastmile_qr_scan"}, "lon": -76.9411315, "bike_id": "773e4525ad04ab67eeff1e5bc5cc5171", "type": "electric_scooter", "name": "773e4525ad04ab67eeff1e5bc5cc5171"}, {"is_disabled": 0, "is_reserved": 0, "fusion_lat": 0.0, "lat": 38.9998665, "fusion_lon": 0.0, "rental_uris": {"ios": "https://dc.lft.to/lastmile_qr_scan", "android": "https://dc.lft.to/lastmile_qr_scan"}, "lon": -76.92488733333333, "bike_id": "225ec23ac85d7835be23f2c413219fd6", "type": "electric_bike", "name": "225ec23ac85d7835be23f2c413219fd6"}, {"is_disabled": 0, "is_reserved": 0, "fusion_lat": 0.0, "lat": 38.90075, "fusion_lon": 0.0, "rental_uris": {"ios": "https://dc.lft.to/lastmile_qr_scan", "android": "https://dc.lft.to/lastmile_qr_scan"}, "lon": -77.04933516666667, "bike_id": "49c5865173aa5f5797322747d1a8b57c", "type": "electric_scooter", "name": "49c5865173aa5f5797322747d1a8b57c"}, {"is_disabled": 0, "is_reserved": 0, "fusion_lat": 0.0, "lat": 38.92411233333333, "fusion_lon": 0.0, "rental_uris": {"ios": "https://dc.lft.to/lastmile_qr_scan", "android": "https://dc.lft.to/lastmile_qr_scan"}, "lon": -77.0271415, "bike_id": "56a3f67355dd27eca869891fe0b8c157", "type": "electric_scooter", "name": "56a3f67355dd27eca869891fe0b8c157"}, {"is_disabled": 0, "is_reserved": 0, "fusion_lat": 0.0, "lat": 38.80735, "fusion_lon": 0.0, "rental_uris": {"ios": "https://dc.lft.to/lastmile_qr_scan", "android": "https://dc.lft.to/lastmile_qr_scan"}, "lon": -77.09687983333333, "bike_id": "403fee67f32b1a957b6c5c85a7b97fa9", "type": "electric_bike", "name": "403fee67f32b1a957b6c5c85a7b97fa9"}, {"is_disabled": 0, "is_reserved": 0, "fusion_lat": 0.0, "lat": 38.953145666666664, "fusion_lon": 0.0, "rental_uris": {"ios": "https://dc.lft.to/lastmile_qr_scan", "android": "https://dc.lft.to/lastmile_qr_scan"}, "lon": -76.99462216666667, "bike_id": "e27783ea6ae24e16aa8d0c0b6e996b51", "type": "electric_scooter", "name": "e27783ea6ae24e16aa8d0c0b6e996b51"}, {"is_disabled": 0, "is_reserved": 0, "fusion_lat": 0.0, "lat": 38.87175083333333, "fusion_lon": 0.0, "rental_uris": {"ios": "https://dc.lft.to/lastmile_qr_scan", "android": "https://dc.lft.to/lastmile_qr_scan"}, "lon": -77.2339365, "bike_id": "d120a5fea223d009b3fffbfec6977025", "type": "electric_bike", "name": "d120a5fea223d009b3fffbfec6977025"}, {"is_disabled": 0, "is_reserved": 0, "fusion_lat": 0.0, "lat": 38.91549633333333, "fusion_lon": 0.0, "rental_uris": {"ios": "https://dc.lft.to/lastmile_qr_scan", "android": "https://dc.lft.to/lastmile_qr_scan"}, "lon": -77.01187066666667, "bike_id": "3aa4f1f45a9f6787dc6e16ff707b04d2", "type": "electric_scooter", "name": "3aa4f1f45a9f6787dc6e16ff707b04d2"}, {"is_disabled": 0, "is_reserved": 0, "fusion_lat": 0.0, "lat": 38.888699, "fusion_lon": 0.0, "rental_uris": {"ios": "https://dc.lft.to/lastmile_qr_scan", "android": "https://dc.lft.to/lastmile_qr_scan"}, "lon": -76.99033666666666, "bike_id": "8315388105a0f4ed8072aba9ca335588", "type": "electric_scooter", "name": "8315388105a0f4ed8072aba9ca335588"}, {"is_disabled": 0, "is_reserved": 0, "fusion_lat": 0.0, "lat": 38.91984683333333, "fusion_lon": 0.0, "rental_uris": {"ios": "https://dc.lft.to/lastmile_qr_scan", "android": "https://dc.lft.to/lastmile_qr_scan"}, "lon": -77.02510233333334, "bike_id": "3760dd34f633c816e0611382bdca20ae", "type": "electric_scooter", "name": "3760dd34f633c816e0611382bdca20ae"}, {"is_disabled": 0, "is_reserved": 0, "fusion_lat": 0.0, "lat": 38.899768333333334, "fusion_lon": 0.0, "rental_uris": {"ios": "https://dc.lft.to/lastmile_qr_scan", "android": "https://dc.lft.to/lastmile_qr_scan"}, "lon": -77.00922066666666, "bike_id": "06a984fb2739796e89ea4578820d35dc", "type": "electric_scooter", "name": "06a984fb2739796e89ea4578820d35dc"}, {"is_disabled": 0, "is_reserved": 0, "fusion_lat": 0.0, "lat": 38.927428666666664, "fusion_lon": 0.0, "rental_uris": {"ios": "https://dc.lft.to/lastmile_qr_scan", "android": "https://dc.lft.to/lastmile_qr_scan"}, "lon": -77.03308066666666, "bike_id": "4134aa0563a3c61cd72704cfd5fa9c46", "type": "electric_scooter", "name": "4134aa0563a3c61cd72704cfd5fa9c46"}, {"is_disabled": 0, "is_reserved": 0, "fusion_lat": 0.0, "lat": 38.921334, "fusion_lon": 0.0, "rental_uris": {"ios": "https://dc.lft.to/lastmile_qr_scan", "android": "https://dc.lft.to/lastmile_qr_scan"}, "lon": -77.00181466666666, "bike_id": "b9c394fedd76fae6635362041f185be7", "type": "electric_bike", "name": "b9c394fedd76fae6635362041f185be7"}, {"is_disabled": 0, "is_reserved": 0, "fusion_lat": 0.0, "lat": 38.936969, "fusion_lon": 0.0, "rental_uris": {"ios": "https://dc.lft.to/lastmile_qr_scan", "android": "https://dc.lft.to/lastmile_qr_scan"}, "lon": -77.05603033333334, "bike_id": "1cca6ca800ba48f82e45c0bfbdb44125", "type": "electric_scooter", "name": "1cca6ca800ba48f82e45c0bfbdb44125"}, {"is_disabled": 0, "is_reserved": 0, "fusion_lat": 0.0, "lat": 38.866793333333334, "fusion_lon": 0.0, "rental_uris": {"ios": "https://dc.lft.to/lastmile_qr_scan", "android": "https://dc.lft.to/lastmile_qr_scan"}, "lon": -77.0103165, "bike_id": "0d4051640696b7ccafa78c56c46b93f0", "type": "electric_scooter", "name": "0d4051640696b7ccafa78c56c46b93f0"}, {"is_disabled": 0, "is_reserved": 0, "fusion_lat": 0.0, "lat": 38.885237833333335, "fusion_lon": 0.0, "rental_uris": {"ios": "https://dc.lft.to/lastmile_qr_scan", "android": "https://dc.lft.to/lastmile_qr_scan"}, "lon": -76.997984, "bike_id": "3eebf3862c43699f69429407b9a34c7b", "type": "electric_scooter", "name": "3eebf3862c43699f69429407b9a34c7b"}, {"is_disabled": 0, "is_reserved": 0, "fusion_lat": 0.0, "lat": 38.91190133333333, "fusion_lon": 0.0, "rental_uris": {"ios": "https://dc.lft.to/lastmile_qr_scan", "android": "https://dc.lft.to/lastmile_qr_scan"}, "lon": -77.02988716666667, "bike_id": "eaa22bfd175d5989bc1599c63c9fed16", "type": "electric_scooter", "name": "eaa22bfd175d5989bc1599c63c9fed16"}, {"is_disabled": 0, "is_reserved": 0, "fusion_lat": 0.0, "lat": 38.911184666666664, "fusion_lon": 0.0, "rental_uris": {"ios": "https://dc.lft.to/lastmile_qr_scan", "android": "https://dc.lft.to/lastmile_qr_scan"}, "lon": -77.0364655, "bike_id": "7537e83ea6f89c8433d4cb04b58acea3", "type": "electric_scooter", "name": "7537e83ea6f89c8433d4cb04b58acea3"}, {"is_disabled": 0, "is_reserved": 0, "fusion_lat": 0.0, "lat": 38.93306416666667, "fusion_lon": 0.0, "rental_uris": {"ios": "https://dc.lft.to/lastmile_qr_scan", "android": "https://dc.lft.to/lastmile_qr_scan"}, "lon": -77.02180983333334, "bike_id": "4ca6f959bbdf4b4b537c1c2c929d6771", "type": "electric_scooter", "name": "4ca6f959bbdf4b4b537c1c2c929d6771"}, {"is_disabled": 0, "is_reserved": 0, "fusion_lat": 0.0, "lat": 38.9174115, "fusion_lon": 0.0, "rental_uris": {"ios": "https://dc.lft.to/lastmile_qr_scan", "android": "https://dc.lft.to/lastmile_qr_scan"}, "lon": -77.02400566666667, "bike_id": "f7eb03f6cd628ad87256da99a4fc580e", "type": "electric_scooter", "name": "f7eb03f6cd628ad87256da99a4fc580e"}, {"is_disabled": 0, "is_reserved": 0, "fusion_lat": 0.0, "lat": 38.8806525, "fusion_lon": 0.0, "rental_uris": {"ios": "https://dc.lft.to/lastmile_qr_scan", "android": "https://dc.lft.to/lastmile_qr_scan"}, "lon": -77.0255845, "bike_id": "5edc90ccd602bb7bfae2969641c806e9", "type": "electric_bike", "name": "5edc90ccd602bb7bfae2969641c806e9"}, {"is_disabled": 0, "is_reserved": 0, "fusion_lat": 0.0, "lat": 38.9120405, "fusion_lon": 0.0, "rental_uris": {"ios": "https://dc.lft.to/lastmile_qr_scan", "android": "https://dc.lft.to/lastmile_qr_scan"}, "lon": -76.98768166666666, "bike_id": "2945a781c70ec2309f607949f8d16796", "type": "electric_scooter", "name": "2945a781c70ec2309f607949f8d16796"}, {"is_disabled": 0, "is_reserved": 0, "fusion_lat": 0.0, "lat": 38.908998, "fusion_lon": 0.0, "rental_uris": {"ios": "https://dc.lft.to/lastmile_qr_scan", "android": "https://dc.lft.to/lastmile_qr_scan"}, "lon": -77.02307066666667, "bike_id": "b825db0e743ed82821c637b6f2e69009", "type": "electric_scooter", "name": "b825db0e743ed82821c637b6f2e69009"}, {"is_disabled": 0, "is_reserved": 0, "fusion_lat": 0.0, "lat": 38.90101133333334, "fusion_lon": 0.0, "rental_uris": {"ios": "https://dc.lft.to/lastmile_qr_scan", "android": "https://dc.lft.to/lastmile_qr_scan"}, "lon": -77.01820166666667, "bike_id": "0c5146d83c07bd11e1052205000be30d", "type": "electric_scooter", "name": "0c5146d83c07bd11e1052205000be30d"}, {"is_disabled": 0, "is_reserved": 0, "fusion_lat": 0.0, "lat": 38.916170666666666, "fusion_lon": 0.0, "rental_uris": {"ios": "https://dc.lft.to/lastmile_qr_scan", "android": "https://dc.lft.to/lastmile_qr_scan"}, "lon": -77.0029, "bike_id": "7edc45ff75c433083eec788e6cdc5111", "type": "electric_bike", "name": "7edc45ff75c433083eec788e6cdc5111"}, {"is_disabled": 0, "is_reserved": 0, "fusion_lat": 0.0, "lat": 38.90518733333333, "fusion_lon": 0.0, "rental_uris": {"ios": "https://dc.lft.to/lastmile_qr_scan", "android": "https://dc.lft.to/lastmile_qr_scan"}, "lon": -77.06608466666667, "bike_id": "26177d3433748fdca255e2f2e0569551", "type": "electric_scooter", "name": "26177d3433748fdca255e2f2e0569551"}, {"is_disabled": 0, "is_reserved": 0, "fusion_lat": 0.0, "lat": 38.928636833333336, "fusion_lon": 0.0, "rental_uris": {"ios": "https://dc.lft.to/lastmile_qr_scan", "android": "https://dc.lft.to/lastmile_qr_scan"}, "lon": -77.01392933333334, "bike_id": "670915411d1f0ec53dfacbb58bfc8073", "type": "electric_scooter", "name": "670915411d1f0ec53dfacbb58bfc8073"}, {"is_disabled": 0, "is_reserved": 0, "fusion_lat": 0.0, "lat": 38.881325, "fusion_lon": 0.0, "rental_uris": {"ios": "https://dc.lft.to/lastmile_qr_scan", "android": "https://dc.lft.to/lastmile_qr_scan"}, "lon": -77.02272983333333, "bike_id": "d5bf727b6048a155a5558a0fb37795e5", "type": "electric_scooter", "name": "d5bf727b6048a155a5558a0fb37795e5"}, {"is_disabled": 0, "is_reserved": 0, "fusion_lat": 0.0, "lat": 38.882966333333336, "fusion_lon": 0.0, "rental_uris": {"ios": "https://dc.lft.to/lastmile_qr_scan", "android": "https://dc.lft.to/lastmile_qr_scan"}, "lon": -76.94856616666667, "bike_id": "703c3de7e71e587cddc9e919d33a3a45", "type": "electric_scooter", "name": "703c3de7e71e587cddc9e919d33a3a45"}, {"is_disabled": 0, "is_reserved": 0, "fusion_lat": 0.0, "lat": 38.90538883333333, "fusion_lon": 0.0, "rental_uris": {"ios": "https://dc.lft.to/lastmile_qr_scan", "android": "https://dc.lft.to/lastmile_qr_scan"}, "lon": -77.05938683333333, "bike_id": "9385db2965921f755fe5c53ea0182d3f", "type": "electric_scooter", "name": "9385db2965921f755fe5c53ea0182d3f"}, {"is_disabled": 0, "is_reserved": 0, "fusion_lat": 0.0, "lat": 38.84259383333333, "fusion_lon": 0.0, "rental_uris": {"ios": "https://dc.lft.to/lastmile_qr_scan", "android": "https://dc.lft.to/lastmile_qr_scan"}, "lon": -76.988523, "bike_id": "eb6e5815130ef5c2c1f7d6f2c74c5c86", "type": "electric_scooter", "name": "eb6e5815130ef5c2c1f7d6f2c74c5c86"}, {"is_disabled": 0, "is_reserved": 0, "fusion_lat": 0.0, "lat": 38.903613, "fusion_lon": 0.0, "rental_uris": {"ios": "https://dc.lft.to/lastmile_qr_scan", "android": "https://dc.lft.to/lastmile_qr_scan"}, "lon": -77.06008116666666, "bike_id": "e73286c2cd4ca6a13a0802892801567c", "type": "electric_scooter", "name": "e73286c2cd4ca6a13a0802892801567c"}, {"is_disabled": 0, "is_reserved": 0, "fusion_lat": 0.0, "lat": 38.9230615, "fusion_lon": 0.0, "rental_uris": {"ios": "https://dc.lft.to/lastmile_qr_scan", "android": "https://dc.lft.to/lastmile_qr_scan"}, "lon": -77.07311666666666, "bike_id": "a3a8aa73e2911e41b410efbab73f2629", "type": "electric_scooter", "name": "a3a8aa73e2911e41b410efbab73f2629"}, {"is_disabled": 0, "is_reserved": 0, "fusion_lat": 0.0, "lat": 38.90440616666667, "fusion_lon": 0.0, "rental_uris": {"ios": "https://dc.lft.to/lastmile_qr_scan", "android": "https://dc.lft.to/lastmile_qr_scan"}, "lon": -76.97313583333333, "bike_id": "98cb7057470317633068970561016bec", "type": "electric_scooter", "name": "98cb7057470317633068970561016bec"}, {"is_disabled": 0, "is_reserved": 0, "fusion_lat": 0.0, "lat": 38.96354316666667, "fusion_lon": 0.0, "rental_uris": {"ios": "https://dc.lft.to/lastmile_qr_scan", "android": "https://dc.lft.to/lastmile_qr_scan"}, "lon": -77.03445716666667, "bike_id": "73f88702eb3b4daf77511087f61dacdf", "type": "electric_scooter", "name": "73f88702eb3b4daf77511087f61dacdf"}, {"is_disabled": 0, "is_reserved": 0, "fusion_lat": 0.0, "lat": 38.85899166666667, "fusion_lon": 0.0, "rental_uris": {"ios": "https://dc.lft.to/lastmile_qr_scan", "android": "https://dc.lft.to/lastmile_qr_scan"}, "lon": -77.095588, "bike_id": "546534bb8a7099decb7d18ac85d5be0f", "type": "electric_bike", "name": "546534bb8a7099decb7d18ac85d5be0f"}, {"is_disabled": 0, "is_reserved": 0, "fusion_lat": 0.0, "lat": 38.8925235, "fusion_lon": 0.0, "rental_uris": {"ios": "https://dc.lft.to/lastmile_qr_scan", "android": "https://dc.lft.to/lastmile_qr_scan"}, "lon": -77.05032383333334, "bike_id": "4dddd657310dfe5bc0fd362abe55c504", "type": "electric_scooter", "name": "4dddd657310dfe5bc0fd362abe55c504"}, {"is_disabled": 0, "is_reserved": 0, "fusion_lat": 0.0, "lat": 38.9041735, "fusion_lon": 0.0, "rental_uris": {"ios": "https://dc.lft.to/lastmile_qr_scan", "android": "https://dc.lft.to/lastmile_qr_scan"}, "lon": -76.99077866666667, "bike_id": "f6dc9142e77f689f6ae9cf903b376930", "type": "electric_scooter", "name": "f6dc9142e77f689f6ae9cf903b376930"}, {"is_disabled": 0, "is_reserved": 0, "fusion_lat": 0.0, "lat": 38.919337166666665, "fusion_lon": 0.0, "rental_uris": {"ios": "https://dc.lft.to/lastmile_qr_scan", "android": "https://dc.lft.to/lastmile_qr_scan"}, "lon": -77.04148233333333, "bike_id": "11ffb57ad6a05f699467a7d418cd43c5", "type": "electric_scooter", "name": "11ffb57ad6a05f699467a7d418cd43c5"}, {"is_disabled": 0, "is_reserved": 0, "fusion_lat": 0.0, "lat": 38.92172166666667, "fusion_lon": 0.0, "rental_uris": {"ios": "https://dc.lft.to/lastmile_qr_scan", "android": "https://dc.lft.to/lastmile_qr_scan"}, "lon": -77.02108783333334, "bike_id": "e09a538c0b146cd66b2423c46c0264d0", "type": "electric_scooter", "name": "e09a538c0b146cd66b2423c46c0264d0"}, {"is_disabled": 0, "is_reserved": 0, "fusion_lat": 0.0, "lat": 38.957003, "fusion_lon": 0.0, "rental_uris": {"ios": "https://dc.lft.to/lastmile_qr_scan", "android": "https://dc.lft.to/lastmile_qr_scan"}, "lon": -77.35977283333334, "bike_id": "c928b36bbfd3e1a068918562bd69c892", "type": "electric_bike", "name": "c928b36bbfd3e1a068918562bd69c892"}, {"is_disabled": 0, "is_reserved": 0, "fusion_lat": 0.0, "lat": 39.084272666666664, "fusion_lon": 0.0, "rental_uris": {"ios": "https://dc.lft.to/lastmile_qr_scan", "android": "https://dc.lft.to/lastmile_qr_scan"}, "lon": -76.95143016666667, "bike_id": "9d6bcc039ac9623d86ac37e789b1c20d", "type": "electric_bike", "name": "9d6bcc039ac9623d86ac37e789b1c20d"}, {"is_disabled": 0, "is_reserved": 0, "fusion_lat": 0.0, "lat": 38.9147835, "fusion_lon": 0.0, "rental_uris": {"ios": "https://dc.lft.to/lastmile_qr_scan", "android": "https://dc.lft.to/lastmile_qr_scan"}, "lon": -77.032137, "bike_id": "53ec7bf67fec57155d4085b1012ebb82", "type": "electric_scooter", "name": "53ec7bf67fec57155d4085b1012ebb82"}, {"is_disabled": 0, "is_reserved": 0, "fusion_lat": 0.0, "lat": 38.88389, "fusion_lon": 0.0, "rental_uris": {"ios": "https://dc.lft.to/lastmile_qr_scan", "android": "https://dc.lft.to/lastmile_qr_scan"}, "lon": -76.93031533333334, "bike_id": "407bd9e4b40237257cff1ac1ec6f1e8a", "type": "electric_scooter", "name": "407bd9e4b40237257cff1ac1ec6f1e8a"}, {"is_disabled": 0, "is_reserved": 0, "fusion_lat": 0.0, "lat": 38.928725666666665, "fusion_lon": 0.0, "rental_uris": {"ios": "https://dc.lft.to/lastmile_qr_scan", "android": "https://dc.lft.to/lastmile_qr_scan"}, "lon": -77.03830316666667, "bike_id": "23947598c8dcf3eebab1e479349bdb92", "type": "electric_scooter", "name": "23947598c8dcf3eebab1e479349bdb92"}, {"is_disabled": 0, "is_reserved": 0, "fusion_lat": 0.0, "lat": 38.88377083333334, "fusion_lon": 0.0, "rental_uris": {"ios": "https://dc.lft.to/lastmile_qr_scan", "android": "https://dc.lft.to/lastmile_qr_scan"}, "lon": -76.92373116666667, "bike_id": "c4115a1ff2bc4dbcf44a0a38b19e814c", "type": "electric_bike", "name": "c4115a1ff2bc4dbcf44a0a38b19e814c"}, {"is_disabled": 0, "is_reserved": 0, "fusion_lat": 0.0, "lat": 38.92434683333333, "fusion_lon": 0.0, "rental_uris": {"ios": "https://dc.lft.to/lastmile_qr_scan", "android": "https://dc.lft.to/lastmile_qr_scan"}, "lon": -77.03406816666667, "bike_id": "c0349254cc3bf014bd78d04c166f7181", "type": "electric_scooter", "name": "c0349254cc3bf014bd78d04c166f7181"}, {"is_disabled": 0, "is_reserved": 0, "fusion_lat": 0.0, "lat": 38.89603433333333, "fusion_lon": 0.0, "rental_uris": {"ios": "https://dc.lft.to/lastmile_qr_scan", "android": "https://dc.lft.to/lastmile_qr_scan"}, "lon": -77.04545383333334, "bike_id": "1dd7bc25de892431f36f6664197c3461", "type": "electric_scooter", "name": "1dd7bc25de892431f36f6664197c3461"}, {"is_disabled": 0, "is_reserved": 0, "fusion_lat": 0.0, "lat": 38.936881, "fusion_lon": 0.0, "rental_uris": {"ios": "https://dc.lft.to/lastmile_qr_scan", "android": "https://dc.lft.to/lastmile_qr_scan"}, "lon": -77.05645416666667, "bike_id": "23722a6cd76ca59221b431d891d1f93f", "type": "electric_bike", "name": "23722a6cd76ca59221b431d891d1f93f"}, {"is_disabled": 0, "is_reserved": 0, "fusion_lat": 0.0, "lat": 38.94985483333333, "fusion_lon": 0.0, "rental_uris": {"ios": "https://dc.lft.to/lastmile_qr_scan", "android": "https://dc.lft.to/lastmile_qr_scan"}, "lon": -77.080803, "bike_id": "6f4d52803bf74dcb4c119aeab8675a6a", "type": "electric_scooter", "name": "6f4d52803bf74dcb4c119aeab8675a6a"}, {"is_disabled": 0, "is_reserved": 0, "fusion_lat": 0.0, "lat": 38.89738283333333, "fusion_lon": 0.0, "rental_uris": {"ios": "https://dc.lft.to/lastmile_qr_scan", "android": "https://dc.lft.to/lastmile_qr_scan"}, "lon": -77.02130083333333, "bike_id": "c9eb98512c6abed7e4e0d5e85ef34cb6", "type": "electric_scooter", "name": "c9eb98512c6abed7e4e0d5e85ef34cb6"}, {"is_disabled": 0, "is_reserved": 0, "fusion_lat": 0.0, "lat": 38.88342033333333, "fusion_lon": 0.0, "rental_uris": {"ios": "https://dc.lft.to/lastmile_qr_scan", "android": "https://dc.lft.to/lastmile_qr_scan"}, "lon": -76.9950465, "bike_id": "bd335e0f033eb91c2f605175ce800df4", "type": "electric_scooter", "name": "bd335e0f033eb91c2f605175ce800df4"}, {"is_disabled": 0, "is_reserved": 0, "fusion_lat": 0.0, "lat": 38.898667833333334, "fusion_lon": 0.0, "rental_uris": {"ios": "https://dc.lft.to/lastmile_qr_scan", "android": "https://dc.lft.to/lastmile_qr_scan"}, "lon": -76.94666466666666, "bike_id": "556a29b71bcabf4081d1ec66484a4f40", "type": "electric_scooter", "name": "556a29b71bcabf4081d1ec66484a4f40"}, {"is_disabled": 0, "is_reserved": 0, "fusion_lat": 0.0, "lat": 38.857148, "fusion_lon": 0.0, "rental_uris": {"ios": "https://dc.lft.to/lastmile_qr_scan", "android": "https://dc.lft.to/lastmile_qr_scan"}, "lon": -76.9809295, "bike_id": "caaffc058846782111ccf6b278c88dfa", "type": "electric_scooter", "name": "caaffc058846782111ccf6b278c88dfa"}, {"is_disabled": 0, "is_reserved": 0, "fusion_lat": 0.0, "lat": 38.89675316666667, "fusion_lon": 0.0, "rental_uris": {"ios": "https://dc.lft.to/lastmile_qr_scan", "android": "https://dc.lft.to/lastmile_qr_scan"}, "lon": -77.05466083333333, "bike_id": "aaa47afa70138e20b9fafdc174a89f93", "type": "electric_scooter", "name": "aaa47afa70138e20b9fafdc174a89f93"}, {"is_disabled": 0, "is_reserved": 0, "fusion_lat": 0.0, "lat": 38.94922916666667, "fusion_lon": 0.0, "rental_uris": {"ios": "https://dc.lft.to/lastmile_qr_scan", "android": "https://dc.lft.to/lastmile_qr_scan"}, "lon": -77.02320533333334, "bike_id": "0b606ed2e37a7496846ea575e54d35da", "type": "electric_scooter", "name": "0b606ed2e37a7496846ea575e54d35da"}, {"is_disabled": 0, "is_reserved": 0, "fusion_lat": 0.0, "lat": 38.884659666666664, "fusion_lon": 0.0, "rental_uris": {"ios": "https://dc.lft.to/lastmile_qr_scan", "android": "https://dc.lft.to/lastmile_qr_scan"}, "lon": -77.02648233333333, "bike_id": "45bcafbc30cd0aeb1888143b933c2575", "type": "electric_scooter", "name": "45bcafbc30cd0aeb1888143b933c2575"}, {"is_disabled": 0, "is_reserved": 0, "fusion_lat": 0.0, "lat": 38.83403466666667, "fusion_lon": 0.0, "rental_uris": {"ios": "https://dc.lft.to/lastmile_qr_scan", "android": "https://dc.lft.to/lastmile_qr_scan"}, "lon": -77.05016616666667, "bike_id": "e9b14ce413ec66b745867787f3114540", "type": "electric_bike", "name": "e9b14ce413ec66b745867787f3114540"}, {"is_disabled": 0, "is_reserved": 0, "fusion_lat": 0.0, "lat": 38.918346666666665, "fusion_lon": 0.0, "rental_uris": {"ios": "https://dc.lft.to/lastmile_qr_scan", "android": "https://dc.lft.to/lastmile_qr_scan"}, "lon": -77.04176766666667, "bike_id": "175c533882af9fc2e44950bc5c236ede", "type": "electric_scooter", "name": "175c533882af9fc2e44950bc5c236ede"}, {"is_disabled": 0, "is_reserved": 0, "fusion_lat": 0.0, "lat": 38.916856333333335, "fusion_lon": 0.0, "rental_uris": {"ios": "https://dc.lft.to/lastmile_qr_scan", "android": "https://dc.lft.to/lastmile_qr_scan"}, "lon": -77.02713116666666, "bike_id": "1c3b5e191610d3b10aa466e1555567c1", "type": "electric_scooter", "name": "1c3b5e191610d3b10aa466e1555567c1"}, {"is_disabled": 0, "is_reserved": 0, "fusion_lat": 0.0, "lat": 38.90859616666667, "fusion_lon": 0.0, "rental_uris": {"ios": "https://dc.lft.to/lastmile_qr_scan", "android": "https://dc.lft.to/lastmile_qr_scan"}, "lon": -77.04472816666667, "bike_id": "24c619795644ec6e5d235a4dfa5db294", "type": "electric_scooter", "name": "24c619795644ec6e5d235a4dfa5db294"}, {"is_disabled": 0, "is_reserved": 0, "fusion_lat": 0.0, "lat": 38.88487583333333, "fusion_lon": 0.0, "rental_uris": {"ios": "https://dc.lft.to/lastmile_qr_scan", "android": "https://dc.lft.to/lastmile_qr_scan"}, "lon": -77.034807, "bike_id": "59538e5d3d4a5c9f6a00def3b86a65bc", "type": "electric_scooter", "name": "59538e5d3d4a5c9f6a00def3b86a65bc"}, {"is_disabled": 0, "is_reserved": 0, "fusion_lat": 0.0, "lat": 38.9308305, "fusion_lon": 0.0, "rental_uris": {"ios": "https://dc.lft.to/lastmile_qr_scan", "android": "https://dc.lft.to/lastmile_qr_scan"}, "lon": -77.02804466666667, "bike_id": "5e22b9d9fe91758d09961d34d5a73429", "type": "electric_scooter", "name": "5e22b9d9fe91758d09961d34d5a73429"}, {"is_disabled": 0, "is_reserved": 0, "fusion_lat": 0.0, "lat": 38.901243666666666, "fusion_lon": 0.0, "rental_uris": {"ios": "https://dc.lft.to/lastmile_qr_scan", "android": "https://dc.lft.to/lastmile_qr_scan"}, "lon": -77.00285116666667, "bike_id": "6ee76ac139108347f79809c0b3a6230f", "type": "electric_scooter", "name": "6ee76ac139108347f79809c0b3a6230f"}, {"is_disabled": 0, "is_reserved": 0, "fusion_lat": 0.0, "lat": 38.85517633333333, "fusion_lon": 0.0, "rental_uris": {"ios": "https://dc.lft.to/lastmile_qr_scan", "android": "https://dc.lft.to/lastmile_qr_scan"}, "lon": -76.99169016666667, "bike_id": "301ab40c5a23cb844c1d606757f9fa58", "type": "electric_scooter", "name": "301ab40c5a23cb844c1d606757f9fa58"}, {"is_disabled": 0, "is_reserved": 0, "fusion_lat": 0.0, "lat": 38.89216833333333, "fusion_lon": 0.0, "rental_uris": {"ios": "https://dc.lft.to/lastmile_qr_scan", "android": "https://dc.lft.to/lastmile_qr_scan"}, "lon": -77.02787283333333, "bike_id": "3fd8b002180706382beca3db904ba7b7", "type": "electric_scooter", "name": "3fd8b002180706382beca3db904ba7b7"}, {"is_disabled": 0, "is_reserved": 0, "fusion_lat": 0.0, "lat": 38.89816783333333, "fusion_lon": 0.0, "rental_uris": {"ios": "https://dc.lft.to/lastmile_qr_scan", "android": "https://dc.lft.to/lastmile_qr_scan"}, "lon": -77.02950083333333, "bike_id": "a4c5c1408dcea84ff92aeb755c9d560a", "type": "electric_scooter", "name": "a4c5c1408dcea84ff92aeb755c9d560a"}, {"is_disabled": 0, "is_reserved": 0, "fusion_lat": 0.0, "lat": 38.90484, "fusion_lon": 0.0, "rental_uris": {"ios": "https://dc.lft.to/lastmile_qr_scan", "android": "https://dc.lft.to/lastmile_qr_scan"}, "lon": -77.04853283333334, "bike_id": "55185cb092a637e5fb76345afbee2950", "type": "electric_scooter", "name": "55185cb092a637e5fb76345afbee2950"}, {"is_disabled": 0, "is_reserved": 0, "fusion_lat": 0.0, "lat": 38.904677666666664, "fusion_lon": 0.0, "rental_uris": {"ios": "https://dc.lft.to/lastmile_qr_scan", "android": "https://dc.lft.to/lastmile_qr_scan"}, "lon": -76.9505545, "bike_id": "c0576794247805d53e04e7b117f16c22", "type": "electric_scooter", "name": "c0576794247805d53e04e7b117f16c22"}, {"is_disabled": 0, "is_reserved": 0, "fusion_lat": 0.0, "lat": 38.8996605, "fusion_lon": 0.0, "rental_uris": {"ios": "https://dc.lft.to/lastmile_qr_scan", "android": "https://dc.lft.to/lastmile_qr_scan"}, "lon": -76.926336, "bike_id": "f3010a3b4bf74f2348990aab6c7bebb1", "type": "electric_scooter", "name": "f3010a3b4bf74f2348990aab6c7bebb1"}, {"is_disabled": 0, "is_reserved": 0, "fusion_lat": 0.0, "lat": 39.034719, "fusion_lon": 0.0, "rental_uris": {"ios": "https://dc.lft.to/lastmile_qr_scan", "android": "https://dc.lft.to/lastmile_qr_scan"}, "lon": -77.0166245, "bike_id": "0ee5a3a425fb48f671cfae18c70b287a", "type": "electric_bike", "name": "0ee5a3a425fb48f671cfae18c70b287a"}, {"is_disabled": 0, "is_reserved": 0, "fusion_lat": 0.0, "lat": 38.9002545, "fusion_lon": 0.0, "rental_uris": {"ios": "https://dc.lft.to/lastmile_qr_scan", "android": "https://dc.lft.to/lastmile_qr_scan"}, "lon": -76.99861016666667, "bike_id": "e6b30bf31db6a0eebe8e45d854987b38", "type": "electric_scooter", "name": "e6b30bf31db6a0eebe8e45d854987b38"}, {"is_disabled": 0, "is_reserved": 0, "fusion_lat": 0.0, "lat": 38.89195816666667, "fusion_lon": 0.0, "rental_uris": {"ios": "https://dc.lft.to/lastmile_qr_scan", "android": "https://dc.lft.to/lastmile_qr_scan"}, "lon": -77.024796, "bike_id": "499ec808bbfcfc5a7ef27539a779492e", "type": "electric_scooter", "name": "499ec808bbfcfc5a7ef27539a779492e"}, {"is_disabled": 0, "is_reserved": 0, "fusion_lat": 0.0, "lat": 38.95348583333333, "fusion_lon": 0.0, "rental_uris": {"ios": "https://dc.lft.to/lastmile_qr_scan", "android": "https://dc.lft.to/lastmile_qr_scan"}, "lon": -77.08155833333333, "bike_id": "74a2413ed4f4a006d3ad11af9d19067d", "type": "electric_scooter", "name": "74a2413ed4f4a006d3ad11af9d19067d"}, {"is_disabled": 0, "is_reserved": 0, "fusion_lat": 0.0, "lat": 39.084704, "fusion_lon": 0.0, "rental_uris": {"ios": "https://dc.lft.to/lastmile_qr_scan", "android": "https://dc.lft.to/lastmile_qr_scan"}, "lon": -76.950689, "bike_id": "866385378a6e48924d1a14c302f31032", "type": "electric_bike", "name": "866385378a6e48924d1a14c302f31032"}, {"is_disabled": 0, "is_reserved": 0, "fusion_lat": 0.0, "lat": 38.90560416666667, "fusion_lon": 0.0, "rental_uris": {"ios": "https://dc.lft.to/lastmile_qr_scan", "android": "https://dc.lft.to/lastmile_qr_scan"}, "lon": -77.03272483333333, "bike_id": "30141536625181450a8b8cde03fe0e7e", "type": "electric_scooter", "name": "30141536625181450a8b8cde03fe0e7e"}, {"is_disabled": 0, "is_reserved": 0, "fusion_lat": 0.0, "lat": 38.9235105, "fusion_lon": 0.0, "rental_uris": {"ios": "https://dc.lft.to/lastmile_qr_scan", "android": "https://dc.lft.to/lastmile_qr_scan"}, "lon": -76.97209366666667, "bike_id": "4c1b2fb1c5e549ba6cc953892d75533e", "type": "electric_scooter", "name": "4c1b2fb1c5e549ba6cc953892d75533e"}, {"is_disabled": 0, "is_reserved": 0, "fusion_lat": 0.0, "lat": 38.914127666666666, "fusion_lon": 0.0, "rental_uris": {"ios": "https://dc.lft.to/lastmile_qr_scan", "android": "https://dc.lft.to/lastmile_qr_scan"}, "lon": -77.022322, "bike_id": "d21d19e8a93ec8f6b8cb4772664788ba", "type": "electric_scooter", "name": "d21d19e8a93ec8f6b8cb4772664788ba"}, {"is_disabled": 0, "is_reserved": 0, "fusion_lat": 0.0, "lat": 38.90301983333333, "fusion_lon": 0.0, "rental_uris": {"ios": "https://dc.lft.to/lastmile_qr_scan", "android": "https://dc.lft.to/lastmile_qr_scan"}, "lon": -77.032281, "bike_id": "f716ce5f2988847c000d02e21bd4354f", "type": "electric_scooter", "name": "f716ce5f2988847c000d02e21bd4354f"}, {"is_disabled": 0, "is_reserved": 0, "fusion_lat": 0.0, "lat": 38.923790833333335, "fusion_lon": 0.0, "rental_uris": {"ios": "https://dc.lft.to/lastmile_qr_scan", "android": "https://dc.lft.to/lastmile_qr_scan"}, "lon": -77.040251, "bike_id": "b52e761736cd949933923214ea9c8d5a", "type": "electric_scooter", "name": "b52e761736cd949933923214ea9c8d5a"}, {"is_disabled": 0, "is_reserved": 0, "fusion_lat": 0.0, "lat": 38.9458615, "fusion_lon": 0.0, "rental_uris": {"ios": "https://dc.lft.to/lastmile_qr_scan", "android": "https://dc.lft.to/lastmile_qr_scan"}, "lon": -77.02038483333334, "bike_id": "3d10f5c1b731871a245ce9a11c89d49c", "type": "electric_scooter", "name": "3d10f5c1b731871a245ce9a11c89d49c"}, {"is_disabled": 0, "is_reserved": 0, "fusion_lat": 0.0, "lat": 38.906750833333334, "fusion_lon": 0.0, "rental_uris": {"ios": "https://dc.lft.to/lastmile_qr_scan", "android": "https://dc.lft.to/lastmile_qr_scan"}, "lon": -77.06254166666666, "bike_id": "090554088b37631020c6045cfd3b8c6c", "type": "electric_scooter", "name": "090554088b37631020c6045cfd3b8c6c"}, {"is_disabled": 0, "is_reserved": 0, "fusion_lat": 0.0, "lat": 38.9463075, "fusion_lon": 0.0, "rental_uris": {"ios": "https://dc.lft.to/lastmile_qr_scan", "android": "https://dc.lft.to/lastmile_qr_scan"}, "lon": -77.01843416666667, "bike_id": "f1d20730557563b98e275719f2f84159", "type": "electric_scooter", "name": "f1d20730557563b98e275719f2f84159"}, {"is_disabled": 0, "is_reserved": 0, "fusion_lat": 0.0, "lat": 38.93420883333334, "fusion_lon": 0.0, "rental_uris": {"ios": "https://dc.lft.to/lastmile_qr_scan", "android": "https://dc.lft.to/lastmile_qr_scan"}, "lon": -77.04316366666667, "bike_id": "b4282df4f86b666b879e03c501ba2bd6", "type": "electric_scooter", "name": "b4282df4f86b666b879e03c501ba2bd6"}, {"is_disabled": 0, "is_reserved": 0, "fusion_lat": 0.0, "lat": 38.8926195, "fusion_lon": 0.0, "rental_uris": {"ios": "https://dc.lft.to/lastmile_qr_scan", "android": "https://dc.lft.to/lastmile_qr_scan"}, "lon": -77.0420345, "bike_id": "6d7decc349f63753323f5f312e0ed880", "type": "electric_scooter", "name": "6d7decc349f63753323f5f312e0ed880"}, {"is_disabled": 0, "is_reserved": 0, "fusion_lat": 0.0, "lat": 38.9104445, "fusion_lon": 0.0, "rental_uris": {"ios": "https://dc.lft.to/lastmile_qr_scan", "android": "https://dc.lft.to/lastmile_qr_scan"}, "lon": -77.01514483333334, "bike_id": "5e993228dd47c7f24541ed02daf66495", "type": "electric_scooter", "name": "5e993228dd47c7f24541ed02daf66495"}, {"is_disabled": 0, "is_reserved": 0, "fusion_lat": 0.0, "lat": 38.951013, "fusion_lon": 0.0, "rental_uris": {"ios": "https://dc.lft.to/lastmile_qr_scan", "android": "https://dc.lft.to/lastmile_qr_scan"}, "lon": -77.01573916666666, "bike_id": "407286444f9120a78c626d9eb0919421", "type": "electric_scooter", "name": "407286444f9120a78c626d9eb0919421"}, {"is_disabled": 0, "is_reserved": 0, "fusion_lat": 0.0, "lat": 38.80671383333333, "fusion_lon": 0.0, "rental_uris": {"ios": "https://dc.lft.to/lastmile_qr_scan", "android": "https://dc.lft.to/lastmile_qr_scan"}, "lon": -77.06917666666666, "bike_id": "ec28840dc183fba3b17ad4b5c2c64c6f", "type": "electric_bike", "name": "ec28840dc183fba3b17ad4b5c2c64c6f"}, {"is_disabled": 0, "is_reserved": 0, "fusion_lat": 0.0, "lat": 38.869726, "fusion_lon": 0.0, "rental_uris": {"ios": "https://dc.lft.to/lastmile_qr_scan", "android": "https://dc.lft.to/lastmile_qr_scan"}, "lon": -77.01369166666667, "bike_id": "050758e115fbb105e7da380778e9ddd4", "type": "electric_scooter", "name": "050758e115fbb105e7da380778e9ddd4"}, {"is_disabled": 0, "is_reserved": 0, "fusion_lat": 0.0, "lat": 38.927475333333334, "fusion_lon": 0.0, "rental_uris": {"ios": "https://dc.lft.to/lastmile_qr_scan", "android": "https://dc.lft.to/lastmile_qr_scan"}, "lon": -77.03311666666667, "bike_id": "19667882cee6c1d921374744a285f96a", "type": "electric_scooter", "name": "19667882cee6c1d921374744a285f96a"}, {"is_disabled": 0, "is_reserved": 0, "fusion_lat": 0.0, "lat": 38.9084095, "fusion_lon": 0.0, "rental_uris": {"ios": "https://dc.lft.to/lastmile_qr_scan", "android": "https://dc.lft.to/lastmile_qr_scan"}, "lon": -76.934456, "bike_id": "a1c14649e2f3d363f76c543bbf48613c", "type": "electric_scooter", "name": "a1c14649e2f3d363f76c543bbf48613c"}, {"is_disabled": 0, "is_reserved": 0, "fusion_lat": 0.0, "lat": 38.924596333333334, "fusion_lon": 0.0, "rental_uris": {"ios": "https://dc.lft.to/lastmile_qr_scan", "android": "https://dc.lft.to/lastmile_qr_scan"}, "lon": -77.03638083333334, "bike_id": "d3cf88855cf14d524cdb3374c26f0d36", "type": "electric_scooter", "name": "d3cf88855cf14d524cdb3374c26f0d36"}, {"is_disabled": 0, "is_reserved": 0, "fusion_lat": 0.0, "lat": 38.92745133333333, "fusion_lon": 0.0, "rental_uris": {"ios": "https://dc.lft.to/lastmile_qr_scan", "android": "https://dc.lft.to/lastmile_qr_scan"}, "lon": -77.0331355, "bike_id": "953e5ef484dacf30f69c911a54842652", "type": "electric_scooter", "name": "953e5ef484dacf30f69c911a54842652"}, {"is_disabled": 0, "is_reserved": 0, "fusion_lat": 0.0, "lat": 38.96793816666667, "fusion_lon": 0.0, "rental_uris": {"ios": "https://dc.lft.to/lastmile_qr_scan", "android": "https://dc.lft.to/lastmile_qr_scan"}, "lon": -77.0243565, "bike_id": "fc7629f5d794e2c663971a764ae5d3e3", "type": "electric_scooter", "name": "fc7629f5d794e2c663971a764ae5d3e3"}, {"is_disabled": 0, "is_reserved": 0, "fusion_lat": 0.0, "lat": 38.923825666666666, "fusion_lon": 0.0, "rental_uris": {"ios": "https://dc.lft.to/lastmile_qr_scan", "android": "https://dc.lft.to/lastmile_qr_scan"}, "lon": -77.0310075, "bike_id": "9f41ab81ba75d603cee6b25ce41a68fd", "type": "electric_scooter", "name": "9f41ab81ba75d603cee6b25ce41a68fd"}, {"is_disabled": 0, "is_reserved": 0, "fusion_lat": 0.0, "lat": 38.902514833333335, "fusion_lon": 0.0, "rental_uris": {"ios": "https://dc.lft.to/lastmile_qr_scan", "android": "https://dc.lft.to/lastmile_qr_scan"}, "lon": -77.015275, "bike_id": "23347c9099b054a0068931f95663d3d1", "type": "electric_scooter", "name": "23347c9099b054a0068931f95663d3d1"}, {"is_disabled": 0, "is_reserved": 0, "fusion_lat": 0.0, "lat": 38.942468166666664, "fusion_lon": 0.0, "rental_uris": {"ios": "https://dc.lft.to/lastmile_qr_scan", "android": "https://dc.lft.to/lastmile_qr_scan"}, "lon": -76.98458316666667, "bike_id": "244c54c04247efa89935964e4a5be3c5", "type": "electric_scooter", "name": "244c54c04247efa89935964e4a5be3c5"}, {"is_disabled": 0, "is_reserved": 0, "fusion_lat": 0.0, "lat": 38.883578, "fusion_lon": 0.0, "rental_uris": {"ios": "https://dc.lft.to/lastmile_qr_scan", "android": "https://dc.lft.to/lastmile_qr_scan"}, "lon": -76.95765366666667, "bike_id": "a68e8e42a9709907cdcacb271d79608b", "type": "electric_scooter", "name": "a68e8e42a9709907cdcacb271d79608b"}, {"is_disabled": 0, "is_reserved": 0, "fusion_lat": 0.0, "lat": 38.919965, "fusion_lon": 0.0, "rental_uris": {"ios": "https://dc.lft.to/lastmile_qr_scan", "android": "https://dc.lft.to/lastmile_qr_scan"}, "lon": -77.04746816666666, "bike_id": "46fc22f824586b14e4b17c1970433560", "type": "electric_scooter", "name": "46fc22f824586b14e4b17c1970433560"}, {"is_disabled": 0, "is_reserved": 0, "fusion_lat": 0.0, "lat": 38.917534833333335, "fusion_lon": 0.0, "rental_uris": {"ios": "https://dc.lft.to/lastmile_qr_scan", "android": "https://dc.lft.to/lastmile_qr_scan"}, "lon": -77.039123, "bike_id": "237a4bc1ccc33e3b50b7c42feba45ea8", "type": "electric_scooter", "name": "237a4bc1ccc33e3b50b7c42feba45ea8"}, {"is_disabled": 0, "is_reserved": 0, "fusion_lat": 0.0, "lat": 38.892279, "fusion_lon": 0.0, "rental_uris": {"ios": "https://dc.lft.to/lastmile_qr_scan", "android": "https://dc.lft.to/lastmile_qr_scan"}, "lon": -77.050072, "bike_id": "c6d013b103960029df8def939787329b", "type": "electric_scooter", "name": "c6d013b103960029df8def939787329b"}, {"is_disabled": 0, "is_reserved": 0, "fusion_lat": 0.0, "lat": 38.89998116666666, "fusion_lon": 0.0, "rental_uris": {"ios": "https://dc.lft.to/lastmile_qr_scan", "android": "https://dc.lft.to/lastmile_qr_scan"}, "lon": -77.00671333333334, "bike_id": "785626a267ed23b5b619aa8590ba2a5e", "type": "electric_scooter", "name": "785626a267ed23b5b619aa8590ba2a5e"}, {"is_disabled": 0, "is_reserved": 0, "fusion_lat": 0.0, "lat": 38.948389666666664, "fusion_lon": 0.0, "rental_uris": {"ios": "https://dc.lft.to/lastmile_qr_scan", "android": "https://dc.lft.to/lastmile_qr_scan"}, "lon": -77.0797855, "bike_id": "6845cfd5de78e47ec3fccb3059d300b9", "type": "electric_scooter", "name": "6845cfd5de78e47ec3fccb3059d300b9"}, {"is_disabled": 0, "is_reserved": 0, "fusion_lat": 0.0, "lat": 38.85243666666667, "fusion_lon": 0.0, "rental_uris": {"ios": "https://dc.lft.to/lastmile_qr_scan", "android": "https://dc.lft.to/lastmile_qr_scan"}, "lon": -77.11408416666667, "bike_id": "014dbf0db1d3ad80b5ac424d9b1c6365", "type": "electric_bike", "name": "014dbf0db1d3ad80b5ac424d9b1c6365"}, {"is_disabled": 0, "is_reserved": 0, "fusion_lat": 0.0, "lat": 38.87573883333334, "fusion_lon": 0.0, "rental_uris": {"ios": "https://dc.lft.to/lastmile_qr_scan", "android": "https://dc.lft.to/lastmile_qr_scan"}, "lon": -77.00576183333334, "bike_id": "79752faefd1c580c93621d0035147bdb", "type": "electric_scooter", "name": "79752faefd1c580c93621d0035147bdb"}, {"is_disabled": 0, "is_reserved": 0, "fusion_lat": 0.0, "lat": 38.90454416666667, "fusion_lon": 0.0, "rental_uris": {"ios": "https://dc.lft.to/lastmile_qr_scan", "android": "https://dc.lft.to/lastmile_qr_scan"}, "lon": -77.043277, "bike_id": "6809c5b61474dfeff5af532588150858", "type": "electric_scooter", "name": "6809c5b61474dfeff5af532588150858"}, {"is_disabled": 0, "is_reserved": 0, "fusion_lat": 0.0, "lat": 38.904680666666664, "fusion_lon": 0.0, "rental_uris": {"ios": "https://dc.lft.to/lastmile_qr_scan", "android": "https://dc.lft.to/lastmile_qr_scan"}, "lon": -77.0659705, "bike_id": "c0a66a877ea13257b55dcfdc3a932208", "type": "electric_scooter", "name": "c0a66a877ea13257b55dcfdc3a932208"}, {"is_disabled": 0, "is_reserved": 0, "fusion_lat": 0.0, "lat": 38.9116145, "fusion_lon": 0.0, "rental_uris": {"ios": "https://dc.lft.to/lastmile_qr_scan", "android": "https://dc.lft.to/lastmile_qr_scan"}, "lon": -77.02197116666666, "bike_id": "0b3e21896a5e5aabb5721211e6b173ef", "type": "electric_scooter", "name": "0b3e21896a5e5aabb5721211e6b173ef"}, {"is_disabled": 0, "is_reserved": 0, "fusion_lat": 0.0, "lat": 38.93192483333333, "fusion_lon": 0.0, "rental_uris": {"ios": "https://dc.lft.to/lastmile_qr_scan", "android": "https://dc.lft.to/lastmile_qr_scan"}, "lon": -77.02385516666666, "bike_id": "07b71bcfa65bed36efc6249bd471cbb7", "type": "electric_scooter", "name": "07b71bcfa65bed36efc6249bd471cbb7"}, {"is_disabled": 0, "is_reserved": 0, "fusion_lat": 0.0, "lat": 38.923055833333336, "fusion_lon": 0.0, "rental_uris": {"ios": "https://dc.lft.to/lastmile_qr_scan", "android": "https://dc.lft.to/lastmile_qr_scan"}, "lon": -77.02916033333334, "bike_id": "e1979edc93483ae7665e97418b696d66", "type": "electric_scooter", "name": "e1979edc93483ae7665e97418b696d66"}, {"is_disabled": 0, "is_reserved": 0, "fusion_lat": 0.0, "lat": 38.88297166666667, "fusion_lon": 0.0, "rental_uris": {"ios": "https://dc.lft.to/lastmile_qr_scan", "android": "https://dc.lft.to/lastmile_qr_scan"}, "lon": -76.93491333333333, "bike_id": "5defed1059b6e91ca4150564b74dde42", "type": "electric_scooter", "name": "5defed1059b6e91ca4150564b74dde42"}, {"is_disabled": 0, "is_reserved": 0, "fusion_lat": 0.0, "lat": 38.89229433333333, "fusion_lon": 0.0, "rental_uris": {"ios": "https://dc.lft.to/lastmile_qr_scan", "android": "https://dc.lft.to/lastmile_qr_scan"}, "lon": -77.04874, "bike_id": "844c1ed0ce1cb04bcafa77f37c16eaf1", "type": "electric_scooter", "name": "844c1ed0ce1cb04bcafa77f37c16eaf1"}, {"is_disabled": 0, "is_reserved": 0, "fusion_lat": 0.0, "lat": 38.946499833333334, "fusion_lon": 0.0, "rental_uris": {"ios": "https://dc.lft.to/lastmile_qr_scan", "android": "https://dc.lft.to/lastmile_qr_scan"}, "lon": -77.06480333333333, "bike_id": "d47adbc122fef9a6e47f2a39c1e9c8bf", "type": "electric_scooter", "name": "d47adbc122fef9a6e47f2a39c1e9c8bf"}, {"is_disabled": 0, "is_reserved": 0, "fusion_lat": 0.0, "lat": 38.906341833333336, "fusion_lon": 0.0, "rental_uris": {"ios": "https://dc.lft.to/lastmile_qr_scan", "android": "https://dc.lft.to/lastmile_qr_scan"}, "lon": -77.045619, "bike_id": "28303e246a8f5797ae4d33f087379aac", "type": "electric_scooter", "name": "28303e246a8f5797ae4d33f087379aac"}, {"is_disabled": 0, "is_reserved": 0, "fusion_lat": 0.0, "lat": 38.84269033333333, "fusion_lon": 0.0, "rental_uris": {"ios": "https://dc.lft.to/lastmile_qr_scan", "android": "https://dc.lft.to/lastmile_qr_scan"}, "lon": -76.98841966666667, "bike_id": "433e22557da25992cc1f565f34f3c949", "type": "electric_scooter", "name": "433e22557da25992cc1f565f34f3c949"}, {"is_disabled": 0, "is_reserved": 0, "fusion_lat": 0.0, "lat": 38.90144566666667, "fusion_lon": 0.0, "rental_uris": {"ios": "https://dc.lft.to/lastmile_qr_scan", "android": "https://dc.lft.to/lastmile_qr_scan"}, "lon": -76.92989733333333, "bike_id": "208aababcbe968ba1083a3687c4e4e5f", "type": "electric_scooter", "name": "208aababcbe968ba1083a3687c4e4e5f"}, {"is_disabled": 0, "is_reserved": 0, "fusion_lat": 0.0, "lat": 38.9233065, "fusion_lon": 0.0, "rental_uris": {"ios": "https://dc.lft.to/lastmile_qr_scan", "android": "https://dc.lft.to/lastmile_qr_scan"}, "lon": -77.0567885, "bike_id": "f693444db4809b93d811a2dc88d8273b", "type": "electric_scooter", "name": "f693444db4809b93d811a2dc88d8273b"}, {"is_disabled": 0, "is_reserved": 0, "fusion_lat": 0.0, "lat": 38.9207295, "fusion_lon": 0.0, "rental_uris": {"ios": "https://dc.lft.to/lastmile_qr_scan", "android": "https://dc.lft.to/lastmile_qr_scan"}, "lon": -77.0046125, "bike_id": "0025bda619f7ee61b8e2434fa4e30764", "type": "electric_scooter", "name": "0025bda619f7ee61b8e2434fa4e30764"}, {"is_disabled": 0, "is_reserved": 0, "fusion_lat": 0.0, "lat": 38.86299866666667, "fusion_lon": 0.0, "rental_uris": {"ios": "https://dc.lft.to/lastmile_qr_scan", "android": "https://dc.lft.to/lastmile_qr_scan"}, "lon": -77.0622045, "bike_id": "91eee7404860d27cfb14e07eb9cc2160", "type": "electric_bike", "name": "91eee7404860d27cfb14e07eb9cc2160"}, {"is_disabled": 0, "is_reserved": 0, "fusion_lat": 0.0, "lat": 38.916796166666664, "fusion_lon": 0.0, "rental_uris": {"ios": "https://dc.lft.to/lastmile_qr_scan", "android": "https://dc.lft.to/lastmile_qr_scan"}, "lon": -77.0280415, "bike_id": "16e30e9af3062a5d632feb79cc60420b", "type": "electric_scooter", "name": "16e30e9af3062a5d632feb79cc60420b"}, {"is_disabled": 0, "is_reserved": 0, "fusion_lat": 0.0, "lat": 38.916913666666666, "fusion_lon": 0.0, "rental_uris": {"ios": "https://dc.lft.to/lastmile_qr_scan", "android": "https://dc.lft.to/lastmile_qr_scan"}, "lon": -77.02729833333333, "bike_id": "7a7607e78ce98cfadbc970f6cc4d7992", "type": "electric_scooter", "name": "7a7607e78ce98cfadbc970f6cc4d7992"}, {"is_disabled": 0, "is_reserved": 0, "fusion_lat": 0.0, "lat": 38.900132, "fusion_lon": 0.0, "rental_uris": {"ios": "https://dc.lft.to/lastmile_qr_scan", "android": "https://dc.lft.to/lastmile_qr_scan"}, "lon": -77.03327783333333, "bike_id": "13514795c746b1b2f726c556839fb109", "type": "electric_scooter", "name": "13514795c746b1b2f726c556839fb109"}, {"is_disabled": 0, "is_reserved": 0, "fusion_lat": 0.0, "lat": 38.93468166666667, "fusion_lon": 0.0, "rental_uris": {"ios": "https://dc.lft.to/lastmile_qr_scan", "android": "https://dc.lft.to/lastmile_qr_scan"}, "lon": -77.0239835, "bike_id": "f828a3b420d34aa09c22e3e41d14ed02", "type": "electric_scooter", "name": "f828a3b420d34aa09c22e3e41d14ed02"}, {"is_disabled": 0, "is_reserved": 0, "fusion_lat": 0.0, "lat": 38.953041999999996, "fusion_lon": 0.0, "rental_uris": {"ios": "https://dc.lft.to/lastmile_qr_scan", "android": "https://dc.lft.to/lastmile_qr_scan"}, "lon": -77.02018566666666, "bike_id": "97c47be2348f436f39b4f5803d7cccfb", "type": "electric_scooter", "name": "97c47be2348f436f39b4f5803d7cccfb"}, {"is_disabled": 0, "is_reserved": 0, "fusion_lat": 0.0, "lat": 38.93192366666667, "fusion_lon": 0.0, "rental_uris": {"ios": "https://dc.lft.to/lastmile_qr_scan", "android": "https://dc.lft.to/lastmile_qr_scan"}, "lon": -77.02451566666667, "bike_id": "540d2e7db8e65cd4de49c4913abfb753", "type": "electric_scooter", "name": "540d2e7db8e65cd4de49c4913abfb753"}, {"is_disabled": 0, "is_reserved": 0, "fusion_lat": 0.0, "lat": 38.89197983333333, "fusion_lon": 0.0, "rental_uris": {"ios": "https://dc.lft.to/lastmile_qr_scan", "android": "https://dc.lft.to/lastmile_qr_scan"}, "lon": -77.04385733333334, "bike_id": "ebc44ca9d493076460a96c33e6c13c9f", "type": "electric_scooter", "name": "ebc44ca9d493076460a96c33e6c13c9f"}, {"is_disabled": 0, "is_reserved": 0, "fusion_lat": 0.0, "lat": 38.922554, "fusion_lon": 0.0, "rental_uris": {"ios": "https://dc.lft.to/lastmile_qr_scan", "android": "https://dc.lft.to/lastmile_qr_scan"}, "lon": -77.03671933333334, "bike_id": "61c20792391dc437d93ef93bbc4e7e8f", "type": "electric_scooter", "name": "61c20792391dc437d93ef93bbc4e7e8f"}, {"is_disabled": 0, "is_reserved": 0, "fusion_lat": 0.0, "lat": 38.937514166666666, "fusion_lon": 0.0, "rental_uris": {"ios": "https://dc.lft.to/lastmile_qr_scan", "android": "https://dc.lft.to/lastmile_qr_scan"}, "lon": -77.032588, "bike_id": "6dfffd6e40d3925e55dffc3ff95d4702", "type": "electric_scooter", "name": "6dfffd6e40d3925e55dffc3ff95d4702"}, {"is_disabled": 0, "is_reserved": 0, "fusion_lat": 0.0, "lat": 38.8899165, "fusion_lon": 0.0, "rental_uris": {"ios": "https://dc.lft.to/lastmile_qr_scan", "android": "https://dc.lft.to/lastmile_qr_scan"}, "lon": -77.00045016666667, "bike_id": "e86265dc2fca673aa4e2daa8cc4d230b", "type": "electric_bike", "name": "e86265dc2fca673aa4e2daa8cc4d230b"}, {"is_disabled": 0, "is_reserved": 0, "fusion_lat": 0.0, "lat": 38.88868166666666, "fusion_lon": 0.0, "rental_uris": {"ios": "https://dc.lft.to/lastmile_qr_scan", "android": "https://dc.lft.to/lastmile_qr_scan"}, "lon": -76.9570285, "bike_id": "37d2c81f475f1f74fb0b9b8cabc40a4c", "type": "electric_bike", "name": "37d2c81f475f1f74fb0b9b8cabc40a4c"}, {"is_disabled": 0, "is_reserved": 0, "fusion_lat": 0.0, "lat": 38.881851, "fusion_lon": 0.0, "rental_uris": {"ios": "https://dc.lft.to/lastmile_qr_scan", "android": "https://dc.lft.to/lastmile_qr_scan"}, "lon": -77.005949, "bike_id": "3555ec970e13323eba558ef8d6341510", "type": "electric_scooter", "name": "3555ec970e13323eba558ef8d6341510"}, {"is_disabled": 0, "is_reserved": 0, "fusion_lat": 0.0, "lat": 38.917047, "fusion_lon": 0.0, "rental_uris": {"ios": "https://dc.lft.to/lastmile_qr_scan", "android": "https://dc.lft.to/lastmile_qr_scan"}, "lon": -77.03876183333334, "bike_id": "8d9661ec89a3001a18b4c311eb19ad42", "type": "electric_scooter", "name": "8d9661ec89a3001a18b4c311eb19ad42"}, {"is_disabled": 0, "is_reserved": 0, "fusion_lat": 0.0, "lat": 38.8765765, "fusion_lon": 0.0, "rental_uris": {"ios": "https://dc.lft.to/lastmile_qr_scan", "android": "https://dc.lft.to/lastmile_qr_scan"}, "lon": -77.00885283333334, "bike_id": "dd4863c51c939f7e3c2734f44363b641", "type": "electric_scooter", "name": "dd4863c51c939f7e3c2734f44363b641"}, {"is_disabled": 0, "is_reserved": 0, "fusion_lat": 0.0, "lat": 38.883600333333334, "fusion_lon": 0.0, "rental_uris": {"ios": "https://dc.lft.to/lastmile_qr_scan", "android": "https://dc.lft.to/lastmile_qr_scan"}, "lon": -76.92794283333333, "bike_id": "e0d58a3b44900496bab975e719fb8e9e", "type": "electric_scooter", "name": "e0d58a3b44900496bab975e719fb8e9e"}, {"is_disabled": 0, "is_reserved": 0, "fusion_lat": 0.0, "lat": 38.91313183333333, "fusion_lon": 0.0, "rental_uris": {"ios": "https://dc.lft.to/lastmile_qr_scan", "android": "https://dc.lft.to/lastmile_qr_scan"}, "lon": -77.0326635, "bike_id": "71c3ed52d1b4845e6ace2d8a30f06656", "type": "electric_scooter", "name": "71c3ed52d1b4845e6ace2d8a30f06656"}, {"is_disabled": 0, "is_reserved": 0, "fusion_lat": 0.0, "lat": 38.91832733333333, "fusion_lon": 0.0, "rental_uris": {"ios": "https://dc.lft.to/lastmile_qr_scan", "android": "https://dc.lft.to/lastmile_qr_scan"}, "lon": -77.04170233333333, "bike_id": "16717fff072a8a196f4991acafb1da6b", "type": "electric_scooter", "name": "16717fff072a8a196f4991acafb1da6b"}, {"is_disabled": 0, "is_reserved": 0, "fusion_lat": 0.0, "lat": 38.904661, "fusion_lon": 0.0, "rental_uris": {"ios": "https://dc.lft.to/lastmile_qr_scan", "android": "https://dc.lft.to/lastmile_qr_scan"}, "lon": -77.04894283333333, "bike_id": "7c25bf263a23e2501fa553b71d7cc107", "type": "electric_scooter", "name": "7c25bf263a23e2501fa553b71d7cc107"}, {"is_disabled": 0, "is_reserved": 0, "fusion_lat": 0.0, "lat": 38.92864516666667, "fusion_lon": 0.0, "rental_uris": {"ios": "https://dc.lft.to/lastmile_qr_scan", "android": "https://dc.lft.to/lastmile_qr_scan"}, "lon": -77.07891266666667, "bike_id": "b19b0f5c754742d766df9bbb0c66d868", "type": "electric_scooter", "name": "b19b0f5c754742d766df9bbb0c66d868"}, {"is_disabled": 0, "is_reserved": 0, "fusion_lat": 0.0, "lat": 38.918225666666665, "fusion_lon": 0.0, "rental_uris": {"ios": "https://dc.lft.to/lastmile_qr_scan", "android": "https://dc.lft.to/lastmile_qr_scan"}, "lon": -77.02421583333333, "bike_id": "d03503cd34a6c95bc4d438c958dd4290", "type": "electric_scooter", "name": "d03503cd34a6c95bc4d438c958dd4290"}, {"is_disabled": 0, "is_reserved": 0, "fusion_lat": 0.0, "lat": 38.923330666666665, "fusion_lon": 0.0, "rental_uris": {"ios": "https://dc.lft.to/lastmile_qr_scan", "android": "https://dc.lft.to/lastmile_qr_scan"}, "lon": -77.05681816666667, "bike_id": "4a034ecf23fece261f6b97fe87dd5998", "type": "electric_scooter", "name": "4a034ecf23fece261f6b97fe87dd5998"}, {"is_disabled": 0, "is_reserved": 0, "fusion_lat": 0.0, "lat": 38.91962766666666, "fusion_lon": 0.0, "rental_uris": {"ios": "https://dc.lft.to/lastmile_qr_scan", "android": "https://dc.lft.to/lastmile_qr_scan"}, "lon": -77.01900833333333, "bike_id": "b7ea4405c0cf50853b29e7596aef0f5d", "type": "electric_scooter", "name": "b7ea4405c0cf50853b29e7596aef0f5d"}, {"is_disabled": 0, "is_reserved": 0, "fusion_lat": 0.0, "lat": 38.8648945, "fusion_lon": 0.0, "rental_uris": {"ios": "https://dc.lft.to/lastmile_qr_scan", "android": "https://dc.lft.to/lastmile_qr_scan"}, "lon": -76.96990466666666, "bike_id": "9dc71a806bb75228693fe8f71eac8509", "type": "electric_bike", "name": "9dc71a806bb75228693fe8f71eac8509"}, {"is_disabled": 0, "is_reserved": 0, "fusion_lat": 0.0, "lat": 38.92667566666667, "fusion_lon": 0.0, "rental_uris": {"ios": "https://dc.lft.to/lastmile_qr_scan", "android": "https://dc.lft.to/lastmile_qr_scan"}, "lon": -77.02275583333333, "bike_id": "05b8895dcd0588464bd6f4b7fdf53fb1", "type": "electric_scooter", "name": "05b8895dcd0588464bd6f4b7fdf53fb1"}, {"is_disabled": 0, "is_reserved": 0, "fusion_lat": 0.0, "lat": 38.92221966666666, "fusion_lon": 0.0, "rental_uris": {"ios": "https://dc.lft.to/lastmile_qr_scan", "android": "https://dc.lft.to/lastmile_qr_scan"}, "lon": -77.03891, "bike_id": "a43c328920465b2e65a4551de1d01c2c", "type": "electric_scooter", "name": "a43c328920465b2e65a4551de1d01c2c"}, {"is_disabled": 0, "is_reserved": 0, "fusion_lat": 0.0, "lat": 38.911316, "fusion_lon": 0.0, "rental_uris": {"ios": "https://dc.lft.to/lastmile_qr_scan", "android": "https://dc.lft.to/lastmile_qr_scan"}, "lon": -77.03200666666666, "bike_id": "ef7e10313f097ca17b031df062c20127", "type": "electric_scooter", "name": "ef7e10313f097ca17b031df062c20127"}, {"is_disabled": 0, "is_reserved": 0, "fusion_lat": 0.0, "lat": 38.91436066666667, "fusion_lon": 0.0, "rental_uris": {"ios": "https://dc.lft.to/lastmile_qr_scan", "android": "https://dc.lft.to/lastmile_qr_scan"}, "lon": -76.9843905, "bike_id": "b6c6e62e1a669e4329c2732378ea14ff", "type": "electric_scooter", "name": "b6c6e62e1a669e4329c2732378ea14ff"}, {"is_disabled": 0, "is_reserved": 0, "fusion_lat": 0.0, "lat": 38.87888616666667, "fusion_lon": 0.0, "rental_uris": {"ios": "https://dc.lft.to/lastmile_qr_scan", "android": "https://dc.lft.to/lastmile_qr_scan"}, "lon": -76.93530866666667, "bike_id": "313439a2fd1befa4b6a9a1d6d48e8173", "type": "electric_scooter", "name": "313439a2fd1befa4b6a9a1d6d48e8173"}, {"is_disabled": 0, "is_reserved": 0, "fusion_lat": 0.0, "lat": 38.896069, "fusion_lon": 0.0, "rental_uris": {"ios": "https://dc.lft.to/lastmile_qr_scan", "android": "https://dc.lft.to/lastmile_qr_scan"}, "lon": -77.02642266666666, "bike_id": "293d5fa60a1e476b8b7b7703bdcc5f19", "type": "electric_scooter", "name": "293d5fa60a1e476b8b7b7703bdcc5f19"}, {"is_disabled": 0, "is_reserved": 0, "fusion_lat": 0.0, "lat": 38.895064166666664, "fusion_lon": 0.0, "rental_uris": {"ios": "https://dc.lft.to/lastmile_qr_scan", "android": "https://dc.lft.to/lastmile_qr_scan"}, "lon": -77.02298616666667, "bike_id": "1f04cfcd27ccb0501cc9c4dc3901d9ad", "type": "electric_scooter", "name": "1f04cfcd27ccb0501cc9c4dc3901d9ad"}, {"is_disabled": 0, "is_reserved": 0, "fusion_lat": 0.0, "lat": 38.902403166666666, "fusion_lon": 0.0, "rental_uris": {"ios": "https://dc.lft.to/lastmile_qr_scan", "android": "https://dc.lft.to/lastmile_qr_scan"}, "lon": -77.05199683333333, "bike_id": "c98c9681e5686b4a6527e5e1bab8a427", "type": "electric_scooter", "name": "c98c9681e5686b4a6527e5e1bab8a427"}, {"is_disabled": 0, "is_reserved": 0, "fusion_lat": 0.0, "lat": 38.941389, "fusion_lon": 0.0, "rental_uris": {"ios": "https://dc.lft.to/lastmile_qr_scan", "android": "https://dc.lft.to/lastmile_qr_scan"}, "lon": -77.02327916666667, "bike_id": "9593bd0aa0e10de9672366720cb4322c", "type": "electric_scooter", "name": "9593bd0aa0e10de9672366720cb4322c"}, {"is_disabled": 0, "is_reserved": 0, "fusion_lat": 0.0, "lat": 38.89496316666666, "fusion_lon": 0.0, "rental_uris": {"ios": "https://dc.lft.to/lastmile_qr_scan", "android": "https://dc.lft.to/lastmile_qr_scan"}, "lon": -77.02298966666666, "bike_id": "6bb6143fb10e05c8d167f41933702fe5", "type": "electric_scooter", "name": "6bb6143fb10e05c8d167f41933702fe5"}, {"is_disabled": 0, "is_reserved": 0, "fusion_lat": 0.0, "lat": 38.896658333333335, "fusion_lon": 0.0, "rental_uris": {"ios": "https://dc.lft.to/lastmile_qr_scan", "android": "https://dc.lft.to/lastmile_qr_scan"}, "lon": -77.02615133333333, "bike_id": "92b4ab07b539b453bdf10b5a3a2a0661", "type": "electric_scooter", "name": "92b4ab07b539b453bdf10b5a3a2a0661"}, {"is_disabled": 0, "is_reserved": 0, "fusion_lat": 0.0, "lat": 38.896528, "fusion_lon": 0.0, "rental_uris": {"ios": "https://dc.lft.to/lastmile_qr_scan", "android": "https://dc.lft.to/lastmile_qr_scan"}, "lon": -77.03215883333333, "bike_id": "e722a2076b8d4b2361d934cd39c26c05", "type": "electric_scooter", "name": "e722a2076b8d4b2361d934cd39c26c05"}, {"is_disabled": 0, "is_reserved": 0, "fusion_lat": 0.0, "lat": 38.90530116666667, "fusion_lon": 0.0, "rental_uris": {"ios": "https://dc.lft.to/lastmile_qr_scan", "android": "https://dc.lft.to/lastmile_qr_scan"}, "lon": -77.06526883333333, "bike_id": "9a3606170dfee300c5d16f36206e7c3e", "type": "electric_scooter", "name": "9a3606170dfee300c5d16f36206e7c3e"}, {"is_disabled": 0, "is_reserved": 0, "fusion_lat": 0.0, "lat": 38.8688765, "fusion_lon": 0.0, "rental_uris": {"ios": "https://dc.lft.to/lastmile_qr_scan", "android": "https://dc.lft.to/lastmile_qr_scan"}, "lon": -76.990026, "bike_id": "530e1ee0ed42e8e48adef3df074cdfa5", "type": "electric_scooter", "name": "530e1ee0ed42e8e48adef3df074cdfa5"}, {"is_disabled": 0, "is_reserved": 0, "fusion_lat": 0.0, "lat": 38.895961166666666, "fusion_lon": 0.0, "rental_uris": {"ios": "https://dc.lft.to/lastmile_qr_scan", "android": "https://dc.lft.to/lastmile_qr_scan"}, "lon": -76.98315816666667, "bike_id": "85003105d7e01335be1e0d8b068684b0", "type": "electric_scooter", "name": "85003105d7e01335be1e0d8b068684b0"}, {"is_disabled": 0, "is_reserved": 0, "fusion_lat": 0.0, "lat": 38.869745, "fusion_lon": 0.0, "rental_uris": {"ios": "https://dc.lft.to/lastmile_qr_scan", "android": "https://dc.lft.to/lastmile_qr_scan"}, "lon": -77.0137555, "bike_id": "fbbcfb3939080cedc150ec420eb9d8d9", "type": "electric_scooter", "name": "fbbcfb3939080cedc150ec420eb9d8d9"}, {"is_disabled": 0, "is_reserved": 0, "fusion_lat": 0.0, "lat": 38.915724166666664, "fusion_lon": 0.0, "rental_uris": {"ios": "https://dc.lft.to/lastmile_qr_scan", "android": "https://dc.lft.to/lastmile_qr_scan"}, "lon": -77.05050383333334, "bike_id": "dd40defaf588e4763a06d0ad16cad6f8", "type": "electric_scooter", "name": "dd40defaf588e4763a06d0ad16cad6f8"}, {"is_disabled": 0, "is_reserved": 0, "fusion_lat": 0.0, "lat": 38.912640333333336, "fusion_lon": 0.0, "rental_uris": {"ios": "https://dc.lft.to/lastmile_qr_scan", "android": "https://dc.lft.to/lastmile_qr_scan"}, "lon": -77.03298016666666, "bike_id": "77b92a29b40a2ad27dec7add9cc869e7", "type": "electric_scooter", "name": "77b92a29b40a2ad27dec7add9cc869e7"}, {"is_disabled": 0, "is_reserved": 0, "fusion_lat": 0.0, "lat": 38.90548833333333, "fusion_lon": 0.0, "rental_uris": {"ios": "https://dc.lft.to/lastmile_qr_scan", "android": "https://dc.lft.to/lastmile_qr_scan"}, "lon": -77.01706833333333, "bike_id": "f210cb8426706901b10a129ef0ca12e0", "type": "electric_scooter", "name": "f210cb8426706901b10a129ef0ca12e0"}, {"is_disabled": 0, "is_reserved": 0, "fusion_lat": 0.0, "lat": 38.898303, "fusion_lon": 0.0, "rental_uris": {"ios": "https://dc.lft.to/lastmile_qr_scan", "android": "https://dc.lft.to/lastmile_qr_scan"}, "lon": -76.94635383333333, "bike_id": "eea874005a3df46b4e2049af6b136a18", "type": "electric_scooter", "name": "eea874005a3df46b4e2049af6b136a18"}, {"is_disabled": 0, "is_reserved": 0, "fusion_lat": 0.0, "lat": 38.923144666666666, "fusion_lon": 0.0, "rental_uris": {"ios": "https://dc.lft.to/lastmile_qr_scan", "android": "https://dc.lft.to/lastmile_qr_scan"}, "lon": -77.04182366666667, "bike_id": "c076b3044a5b66d7a8ed86c6eafc6b9d", "type": "electric_scooter", "name": "c076b3044a5b66d7a8ed86c6eafc6b9d"}, {"is_disabled": 0, "is_reserved": 0, "fusion_lat": 0.0, "lat": 38.892957333333335, "fusion_lon": 0.0, "rental_uris": {"ios": "https://dc.lft.to/lastmile_qr_scan", "android": "https://dc.lft.to/lastmile_qr_scan"}, "lon": -76.99962316666667, "bike_id": "8584809f048ecf14b4ef7aa5baa6d6e0", "type": "electric_scooter", "name": "8584809f048ecf14b4ef7aa5baa6d6e0"}, {"is_disabled": 0, "is_reserved": 0, "fusion_lat": 0.0, "lat": 38.8889575, "fusion_lon": 0.0, "rental_uris": {"ios": "https://dc.lft.to/lastmile_qr_scan", "android": "https://dc.lft.to/lastmile_qr_scan"}, "lon": -76.98372, "bike_id": "ec2e3d8fde9eaa655b7a8fd0aa906f69", "type": "electric_scooter", "name": "ec2e3d8fde9eaa655b7a8fd0aa906f69"}, {"is_disabled": 0, "is_reserved": 0, "fusion_lat": 0.0, "lat": 38.93279666666667, "fusion_lon": 0.0, "rental_uris": {"ios": "https://dc.lft.to/lastmile_qr_scan", "android": "https://dc.lft.to/lastmile_qr_scan"}, "lon": -77.03550933333334, "bike_id": "78df51f4b7baff92e95afd4e483aaf42", "type": "electric_scooter", "name": "78df51f4b7baff92e95afd4e483aaf42"}, {"is_disabled": 0, "is_reserved": 0, "fusion_lat": 0.0, "lat": 38.8973, "fusion_lon": 0.0, "rental_uris": {"ios": "https://dc.lft.to/lastmile_qr_scan", "android": "https://dc.lft.to/lastmile_qr_scan"}, "lon": -77.027011, "bike_id": "c1663b6bf8f1f7241524f86714b06193", "type": "electric_scooter", "name": "c1663b6bf8f1f7241524f86714b06193"}, {"is_disabled": 0, "is_reserved": 0, "fusion_lat": 0.0, "lat": 38.8986165, "fusion_lon": 0.0, "rental_uris": {"ios": "https://dc.lft.to/lastmile_qr_scan", "android": "https://dc.lft.to/lastmile_qr_scan"}, "lon": -76.94646183333333, "bike_id": "d962a04a2c1c2f2dcaf0eca5a1b07184", "type": "electric_scooter", "name": "d962a04a2c1c2f2dcaf0eca5a1b07184"}, {"is_disabled": 0, "is_reserved": 0, "fusion_lat": 0.0, "lat": 38.956839333333335, "fusion_lon": 0.0, "rental_uris": {"ios": "https://dc.lft.to/lastmile_qr_scan", "android": "https://dc.lft.to/lastmile_qr_scan"}, "lon": -77.02239416666667, "bike_id": "7936aa381adf65a1e05b9409015b95df", "type": "electric_bike", "name": "7936aa381adf65a1e05b9409015b95df"}, {"is_disabled": 0, "is_reserved": 0, "fusion_lat": 0.0, "lat": 38.9119295, "fusion_lon": 0.0, "rental_uris": {"ios": "https://dc.lft.to/lastmile_qr_scan", "android": "https://dc.lft.to/lastmile_qr_scan"}, "lon": -77.00207866666666, "bike_id": "4e4ccb5a590bfa1f1c22ec9ef82acf08", "type": "electric_scooter", "name": "4e4ccb5a590bfa1f1c22ec9ef82acf08"}, {"is_disabled": 0, "is_reserved": 0, "fusion_lat": 0.0, "lat": 38.938754, "fusion_lon": 0.0, "rental_uris": {"ios": "https://dc.lft.to/lastmile_qr_scan", "android": "https://dc.lft.to/lastmile_qr_scan"}, "lon": -77.03040683333333, "bike_id": "527f31c2d676c46c184c0ee7c8075809", "type": "electric_scooter", "name": "527f31c2d676c46c184c0ee7c8075809"}, {"is_disabled": 0, "is_reserved": 0, "fusion_lat": 0.0, "lat": 38.870659333333336, "fusion_lon": 0.0, "rental_uris": {"ios": "https://dc.lft.to/lastmile_qr_scan", "android": "https://dc.lft.to/lastmile_qr_scan"}, "lon": -76.97941683333333, "bike_id": "3d8da38e5fbe18636b3dbe57d3657662", "type": "electric_scooter", "name": "3d8da38e5fbe18636b3dbe57d3657662"}, {"is_disabled": 0, "is_reserved": 0, "fusion_lat": 0.0, "lat": 38.896728333333336, "fusion_lon": 0.0, "rental_uris": {"ios": "https://dc.lft.to/lastmile_qr_scan", "android": "https://dc.lft.to/lastmile_qr_scan"}, "lon": -77.0513475, "bike_id": "768a3c39af50e5878bbb1882e2a07506", "type": "electric_scooter", "name": "768a3c39af50e5878bbb1882e2a07506"}, {"is_disabled": 0, "is_reserved": 0, "fusion_lat": 0.0, "lat": 38.9198875, "fusion_lon": 0.0, "rental_uris": {"ios": "https://dc.lft.to/lastmile_qr_scan", "android": "https://dc.lft.to/lastmile_qr_scan"}, "lon": -77.0324975, "bike_id": "c0c485cba60a31a3f8da88f373c02cbb", "type": "electric_scooter", "name": "c0c485cba60a31a3f8da88f373c02cbb"}, {"is_disabled": 0, "is_reserved": 0, "fusion_lat": 0.0, "lat": 39.029318, "fusion_lon": 0.0, "rental_uris": {"ios": "https://dc.lft.to/lastmile_qr_scan", "android": "https://dc.lft.to/lastmile_qr_scan"}, "lon": -77.01354983333333, "bike_id": "0bea440d1db8781a243cf989d4e1d1d4", "type": "electric_bike", "name": "0bea440d1db8781a243cf989d4e1d1d4"}, {"is_disabled": 0, "is_reserved": 0, "fusion_lat": 0.0, "lat": 38.834907666666666, "fusion_lon": 0.0, "rental_uris": {"ios": "https://dc.lft.to/lastmile_qr_scan", "android": "https://dc.lft.to/lastmile_qr_scan"}, "lon": -77.00436966666666, "bike_id": "e3a9485200a084175acda0cfed15d4a8", "type": "electric_bike", "name": "e3a9485200a084175acda0cfed15d4a8"}, {"is_disabled": 0, "is_reserved": 0, "fusion_lat": 0.0, "lat": 38.898314, "fusion_lon": 0.0, "rental_uris": {"ios": "https://dc.lft.to/lastmile_qr_scan", "android": "https://dc.lft.to/lastmile_qr_scan"}, "lon": -77.02936133333333, "bike_id": "c3a002f12784ecbcf78cf9ef04ee12fd", "type": "electric_scooter", "name": "c3a002f12784ecbcf78cf9ef04ee12fd"}, {"is_disabled": 0, "is_reserved": 0, "fusion_lat": 0.0, "lat": 38.88716133333333, "fusion_lon": 0.0, "rental_uris": {"ios": "https://dc.lft.to/lastmile_qr_scan", "android": "https://dc.lft.to/lastmile_qr_scan"}, "lon": -76.996111, "bike_id": "3474b19b2b6cdc7fba9af6d3973e8e88", "type": "electric_scooter", "name": "3474b19b2b6cdc7fba9af6d3973e8e88"}, {"is_disabled": 0, "is_reserved": 0, "fusion_lat": 0.0, "lat": 38.9084705, "fusion_lon": 0.0, "rental_uris": {"ios": "https://dc.lft.to/lastmile_qr_scan", "android": "https://dc.lft.to/lastmile_qr_scan"}, "lon": -76.99794766666666, "bike_id": "25fd97120b5b0d8300360c9d5936c984", "type": "electric_scooter", "name": "25fd97120b5b0d8300360c9d5936c984"}, {"is_disabled": 0, "is_reserved": 0, "fusion_lat": 0.0, "lat": 38.90260816666667, "fusion_lon": 0.0, "rental_uris": {"ios": "https://dc.lft.to/lastmile_qr_scan", "android": "https://dc.lft.to/lastmile_qr_scan"}, "lon": -77.02649333333333, "bike_id": "4ffaed0b1078b24b5e452d145ebcb721", "type": "electric_scooter", "name": "4ffaed0b1078b24b5e452d145ebcb721"}, {"is_disabled": 0, "is_reserved": 0, "fusion_lat": 0.0, "lat": 38.974779833333336, "fusion_lon": 0.0, "rental_uris": {"ios": "https://dc.lft.to/lastmile_qr_scan", "android": "https://dc.lft.to/lastmile_qr_scan"}, "lon": -76.986673, "bike_id": "eab942b413915ace1abc01def7ac834f", "type": "electric_bike", "name": "eab942b413915ace1abc01def7ac834f"}, {"is_disabled": 0, "is_reserved": 0, "fusion_lat": 0.0, "lat": 38.91777666666667, "fusion_lon": 0.0, "rental_uris": {"ios": "https://dc.lft.to/lastmile_qr_scan", "android": "https://dc.lft.to/lastmile_qr_scan"}, "lon": -77.04249783333333, "bike_id": "1b63cce08bf20f682ca68febb64253da", "type": "electric_scooter", "name": "1b63cce08bf20f682ca68febb64253da"}, {"is_disabled": 0, "is_reserved": 0, "fusion_lat": 0.0, "lat": 38.905033333333336, "fusion_lon": 0.0, "rental_uris": {"ios": "https://dc.lft.to/lastmile_qr_scan", "android": "https://dc.lft.to/lastmile_qr_scan"}, "lon": -77.05687383333333, "bike_id": "6657f5f97215bdb192c6a15b70c020b1", "type": "electric_bike", "name": "6657f5f97215bdb192c6a15b70c020b1"}, {"is_disabled": 0, "is_reserved": 0, "fusion_lat": 0.0, "lat": 38.846281833333336, "fusion_lon": 0.0, "rental_uris": {"ios": "https://dc.lft.to/lastmile_qr_scan", "android": "https://dc.lft.to/lastmile_qr_scan"}, "lon": -76.96907266666666, "bike_id": "4090d7e6da71a6dca8cde649e028c975", "type": "electric_bike", "name": "4090d7e6da71a6dca8cde649e028c975"}, {"is_disabled": 0, "is_reserved": 0, "fusion_lat": 0.0, "lat": 38.94278966666667, "fusion_lon": 0.0, "rental_uris": {"ios": "https://dc.lft.to/lastmile_qr_scan", "android": "https://dc.lft.to/lastmile_qr_scan"}, "lon": -77.07723183333333, "bike_id": "f93d8352f3ecde42d81cdaa89dd1bed4", "type": "electric_scooter", "name": "f93d8352f3ecde42d81cdaa89dd1bed4"},