{"data": {"bikes": [{"fusion_lat": 0.0, "type": "electric_scooter", "name": "d1a86833068592ce636226c1b2cdbed5", "fusion_lon": 0.0, "bike_id": "d1a86833068592ce636226c1b2cdbed5", "is_reserved": 0, "rental_uris": {"android": "https://dc.lft.to/lastmile_qr_scan", "ios": "https://dc.lft.to/lastmile_qr_scan"}, "lat": 38.9005795, "is_disabled": 0, "lon": -77.04533883333333}, {"fusion_lat": 0.0, "type": "electric_scooter", "name": "b7ce4a4dd23529596de0f48942b77cfa", "fusion_lon": 0.0, "bike_id": "b7ce4a4dd23529596de0f48942b77cfa", "is_reserved": 0, "rental_uris": {"android": "https://dc.lft.to/lastmile_qr_scan", "ios": "https://dc.lft.to/lastmile_qr_scan"}, "lat": 38.901446166666666, "is_disabled": 0, "lon": -77.04338516666667}, {"fusion_lat": 0.0, "type": "electric_scooter", "name": "1ea8e32dd0fd3b886550173ed226e07a", "fusion_lon": 0.0, "bike_id": "1ea8e32dd0fd3b886550173ed226e07a", "is_reserved": 0, "rental_uris": {"android": "https://dc.lft.to/lastmile_qr_scan", "ios": "https://dc.lft.to/lastmile_qr_scan"}, "lat": 38.885071833333335, "is_disabled": 0, "lon": -76.9975155}, {"fusion_lat": 0.0, "type": "electric_scooter", "name": "348ff13f7a3b91a6dcf21f57a39441e7", "fusion_lon": 0.0, "bike_id": "348ff13f7a3b91a6dcf21f57a39441e7", "is_reserved": 0, "rental_uris": {"android": "https://dc.lft.to/lastmile_qr_scan", "ios": "https://dc.lft.to/lastmile_qr_scan"}, "lat": 38.89949466666667, "is_disabled": 0, "lon": -77.01447633333333}, {"fusion_lat": 0.0, "type": "electric_scooter", "name": "4353e5c85254610ce91040dc6f82c2f7", "fusion_lon": 0.0, "bike_id": "4353e5c85254610ce91040dc6f82c2f7", "is_reserved": 0, "rental_uris": {"android": "https://dc.lft.to/lastmile_qr_scan", "ios": "https://dc.lft.to/lastmile_qr_scan"}, "lat": 38.916943833333335, "is_disabled": 0, "lon": -77.03310833333333}, {"fusion_lat": 0.0, "type": "electric_scooter", "name": "d0962ab288349964c4632fa2fa22b828", "fusion_lon": 0.0, "bike_id": "d0962ab288349964c4632fa2fa22b828", "is_reserved": 0, "rental_uris": {"android": "https://dc.lft.to/lastmile_qr_scan", "ios": "https://dc.lft.to/lastmile_qr_scan"}, "lat": 38.90638233333333, "is_disabled": 0, "lon": -77.06891566666667}, {"fusion_lat": 0.0, "type": "electric_scooter", "name": "199ba0b48f90322d9a25cdfc30e1d218", "fusion_lon": 0.0, "bike_id": "199ba0b48f90322d9a25cdfc30e1d218", "is_reserved": 0, "rental_uris": {"android": "https://dc.lft.to/lastmile_qr_scan", "ios": "https://dc.lft.to/lastmile_qr_scan"}, "lat": 38.90432716666667, "is_disabled": 0, "lon": -77.04335183333333}, {"fusion_lat": 0.0, "type": "electric_scooter", "name": "676f19ada766de3b99ac9792b66b2e5f", "fusion_lon": 0.0, "bike_id": "676f19ada766de3b99ac9792b66b2e5f", "is_reserved": 0, "rental_uris": {"android": "https://dc.lft.to/lastmile_qr_scan", "ios": "https://dc.lft.to/lastmile_qr_scan"}, "lat": 38.93421583333333, "is_disabled": 0, "lon": -77.04405483333333}, {"fusion_lat": 0.0, "type": "electric_scooter", "name": "605dc2fbd5f5144729bc8589f4305bca", "fusion_lon": 0.0, "bike_id": "605dc2fbd5f5144729bc8589f4305bca", "is_reserved": 0, "rental_uris": {"android": "https://dc.lft.to/lastmile_qr_scan", "ios": "https://dc.lft.to/lastmile_qr_scan"}, "lat": 38.94310516666667, "is_disabled": 0, "lon": -77.0172505}, {"fusion_lat": 0.0, "type": "electric_scooter", "name": "a632f5e1c017b8f864e748afce9feafe", "fusion_lon": 0.0, "bike_id": "a632f5e1c017b8f864e748afce9feafe", "is_reserved": 0, "rental_uris": {"android": "https://dc.lft.to/lastmile_qr_scan", "ios": "https://dc.lft.to/lastmile_qr_scan"}, "lat": 38.922386333333336, "is_disabled": 0, "lon": -77.03659483333334}, {"fusion_lat": 0.0, "type": "electric_scooter", "name": "ab6f4b164f3968ff4a13d5bc45ca5de1", "fusion_lon": 0.0, "bike_id": "ab6f4b164f3968ff4a13d5bc45ca5de1", "is_reserved": 0, "rental_uris": {"android": "https://dc.lft.to/lastmile_qr_scan", "ios": "https://dc.lft.to/lastmile_qr_scan"}, "lat": 38.92072366666667, "is_disabled": 0, "lon": -77.02395333333334}, {"fusion_lat": 0.0, "type": "electric_scooter", "name": "661837ca7f998aa26be57ab6374519bc", "fusion_lon": 0.0, "bike_id": "661837ca7f998aa26be57ab6374519bc", "is_reserved": 0, "rental_uris": {"android": "https://dc.lft.to/lastmile_qr_scan", "ios": "https://dc.lft.to/lastmile_qr_scan"}, "lat": 38.907979833333336, "is_disabled": 0, "lon": -76.99977633333333}, {"fusion_lat": 0.0, "type": "electric_scooter", "name": "c319a32a49b807320cd3b3adae301854", "fusion_lon": 0.0, "bike_id": "c319a32a49b807320cd3b3adae301854", "is_reserved": 0, "rental_uris": {"android": "https://dc.lft.to/lastmile_qr_scan", "ios": "https://dc.lft.to/lastmile_qr_scan"}, "lat": 38.903945666666665, "is_disabled": 0, "lon": -77.04347716666666}, {"fusion_lat": 0.0, "type": "electric_scooter", "name": "6efaa916eeba36d98a89b23586ee32c1", "fusion_lon": 0.0, "bike_id": "6efaa916eeba36d98a89b23586ee32c1", "is_reserved": 0, "rental_uris": {"android": "https://dc.lft.to/lastmile_qr_scan", "ios": "https://dc.lft.to/lastmile_qr_scan"}, "lat": 38.92902816666667, "is_disabled": 0, "lon": -77.06265016666667}, {"fusion_lat": 0.0, "type": "electric_scooter", "name": "62315300203568d223b393155009200e", "fusion_lon": 0.0, "bike_id": "62315300203568d223b393155009200e", "is_reserved": 0, "rental_uris": {"android": "https://dc.lft.to/lastmile_qr_scan", "ios": "https://dc.lft.to/lastmile_qr_scan"}, "lat": 38.935843166666665, "is_disabled": 0, "lon": -77.058561}, {"fusion_lat": 0.0, "type": "electric_scooter", "name": "ec78431a1a51f389e51e440fcab40623", "fusion_lon": 0.0, "bike_id": "ec78431a1a51f389e51e440fcab40623", "is_reserved": 0, "rental_uris": {"android": "https://dc.lft.to/lastmile_qr_scan", "ios": "https://dc.lft.to/lastmile_qr_scan"}, "lat": 38.916635, "is_disabled": 0, "lon": -77.031675}, {"fusion_lat": 0.0, "type": "electric_scooter", "name": "348d2c2613aab01e476f553773562267", "fusion_lon": 0.0, "bike_id": "348d2c2613aab01e476f553773562267", "is_reserved": 0, "rental_uris": {"android": "https://dc.lft.to/lastmile_qr_scan", "ios": "https://dc.lft.to/lastmile_qr_scan"}, "lat": 38.8707085, "is_disabled": 0, "lon": -76.98880383333334}, {"fusion_lat": 0.0, "type": "electric_scooter", "name": "36798da29beb615fa67d41bd30e1b574", "fusion_lon": 0.0, "bike_id": "36798da29beb615fa67d41bd30e1b574", "is_reserved": 0, "rental_uris": {"android": "https://dc.lft.to/lastmile_qr_scan", "ios": "https://dc.lft.to/lastmile_qr_scan"}, "lat": 38.97367233333333, "is_disabled": 0, "lon": -77.01867316666667}, {"fusion_lat": 0.0, "type": "electric_scooter", "name": "f1162abe84cf909579c1d1a91d1e425c", "fusion_lon": 0.0, "bike_id": "f1162abe84cf909579c1d1a91d1e425c", "is_reserved": 0, "rental_uris": {"android": "https://dc.lft.to/lastmile_qr_scan", "ios": "https://dc.lft.to/lastmile_qr_scan"}, "lat": 38.914854, "is_disabled": 0, "lon": -77.02584316666666}, {"fusion_lat": 0.0, "type": "electric_scooter", "name": "0505f8ec764baf9a3ddb281fc938b035", "fusion_lon": 0.0, "bike_id": "0505f8ec764baf9a3ddb281fc938b035", "is_reserved": 0, "rental_uris": {"android": "https://dc.lft.to/lastmile_qr_scan", "ios": "https://dc.lft.to/lastmile_qr_scan"}, "lat": 38.9204505, "is_disabled": 0, "lon": -77.024428}, {"fusion_lat": 0.0, "type": "electric_scooter", "name": "942ed456d6e1cca229d97d640c98435e", "fusion_lon": 0.0, "bike_id": "942ed456d6e1cca229d97d640c98435e", "is_reserved": 0, "rental_uris": {"android": "https://dc.lft.to/lastmile_qr_scan", "ios": "https://dc.lft.to/lastmile_qr_scan"}, "lat": 38.90809333333333, "is_disabled": 0, "lon": -77.0385585}, {"fusion_lat": 0.0, "type": "electric_scooter", "name": "e7bd34bcd139e05197ae5ebef7b64462", "fusion_lon": 0.0, "bike_id": "e7bd34bcd139e05197ae5ebef7b64462", "is_reserved": 0, "rental_uris": {"android": "https://dc.lft.to/lastmile_qr_scan", "ios": "https://dc.lft.to/lastmile_qr_scan"}, "lat": 38.89877633333333, "is_disabled": 0, "lon": -77.0139275}, {"fusion_lat": 0.0, "type": "electric_scooter", "name": "2e3d0c2129f6a26d7f1db4d771bf5420", "fusion_lon": 0.0, "bike_id": "2e3d0c2129f6a26d7f1db4d771bf5420", "is_reserved": 0, "rental_uris": {"android": "https://dc.lft.to/lastmile_qr_scan", "ios": "https://dc.lft.to/lastmile_qr_scan"}, "lat": 38.9082895, "is_disabled": 0, "lon": -77.043509}, {"fusion_lat": 0.0, "type": "electric_scooter", "name": "cc33c5738413f288023de73c1652d1a7", "fusion_lon": 0.0, "bike_id": "cc33c5738413f288023de73c1652d1a7", "is_reserved": 0, "rental_uris": {"android": "https://dc.lft.to/lastmile_qr_scan", "ios": "https://dc.lft.to/lastmile_qr_scan"}, "lat": 38.892222, "is_disabled": 0, "lon": -77.02339866666667}, {"fusion_lat": 0.0, "type": "electric_scooter", "name": "bf49737ceda8cb3ad65e0e71cb8ee512", "fusion_lon": 0.0, "bike_id": "bf49737ceda8cb3ad65e0e71cb8ee512", "is_reserved": 0, "rental_uris": {"android": "https://dc.lft.to/lastmile_qr_scan", "ios": "https://dc.lft.to/lastmile_qr_scan"}, "lat": 38.91554283333333, "is_disabled": 0, "lon": -77.02429533333333}, {"fusion_lat": 0.0, "type": "electric_scooter", "name": "8449100d5ffa7d8fde3432ac08e17af9", "fusion_lon": 0.0, "bike_id": "8449100d5ffa7d8fde3432ac08e17af9", "is_reserved": 0, "rental_uris": {"android": "https://dc.lft.to/lastmile_qr_scan", "ios": "https://dc.lft.to/lastmile_qr_scan"}, "lat": 38.90203183333333, "is_disabled": 0, "lon": -77.03194483333333}, {"fusion_lat": 0.0, "type": "electric_scooter", "name": "0d68073c9464b5e1bc0df07b811726db", "fusion_lon": 0.0, "bike_id": "0d68073c9464b5e1bc0df07b811726db", "is_reserved": 0, "rental_uris": {"android": "https://dc.lft.to/lastmile_qr_scan", "ios": "https://dc.lft.to/lastmile_qr_scan"}, "lat": 38.9034435, "is_disabled": 0, "lon": -76.98273466666667}, {"fusion_lat": 0.0, "type": "electric_scooter", "name": "1dfb30c481c00dc4527b152c5b38c671", "fusion_lon": 0.0, "bike_id": "1dfb30c481c00dc4527b152c5b38c671", "is_reserved": 0, "rental_uris": {"android": "https://dc.lft.to/lastmile_qr_scan", "ios": "https://dc.lft.to/lastmile_qr_scan"}, "lat": 38.91117583333333, "is_disabled": 0, "lon": -77.020801}, {"fusion_lat": 0.0, "type": "electric_scooter", "name": "be94be08052d6c304f9db6b26ef9745f", "fusion_lon": 0.0, "bike_id": "be94be08052d6c304f9db6b26ef9745f", "is_reserved": 0, "rental_uris": {"android": "https://dc.lft.to/lastmile_qr_scan", "ios": "https://dc.lft.to/lastmile_qr_scan"}, "lat": 38.926174333333336, "is_disabled": 0, "lon": -77.0431945}, {"fusion_lat": 0.0, "type": "electric_scooter", "name": "0a48443fd0d68c321314ad4fcb86ab04", "fusion_lon": 0.0, "bike_id": "0a48443fd0d68c321314ad4fcb86ab04", "is_reserved": 0, "rental_uris": {"android": "https://dc.lft.to/lastmile_qr_scan", "ios": "https://dc.lft.to/lastmile_qr_scan"}, "lat": 38.892759833333336, "is_disabled": 0, "lon": -77.048709}, {"fusion_lat": 0.0, "type": "electric_scooter", "name": "b60794c72ff293bdd290dbda80844c0b", "fusion_lon": 0.0, "bike_id": "b60794c72ff293bdd290dbda80844c0b", "is_reserved": 0, "rental_uris": {"android": "https://dc.lft.to/lastmile_qr_scan", "ios": "https://dc.lft.to/lastmile_qr_scan"}, "lat": 38.90371583333334, "is_disabled": 0, "lon": -76.98953983333334}, {"fusion_lat": 0.0, "type": "electric_scooter", "name": "1084e89d890ae1de5663a377fb430e13", "fusion_lon": 0.0, "bike_id": "1084e89d890ae1de5663a377fb430e13", "is_reserved": 0, "rental_uris": {"android": "https://dc.lft.to/lastmile_qr_scan", "ios": "https://dc.lft.to/lastmile_qr_scan"}, "lat": 38.900329166666666, "is_disabled": 0, "lon": -77.04853616666666}, {"fusion_lat": 0.0, "type": "electric_scooter", "name": "957b1771adfea857876497ff728296fb", "fusion_lon": 0.0, "bike_id": "957b1771adfea857876497ff728296fb", "is_reserved": 0, "rental_uris": {"android": "https://dc.lft.to/lastmile_qr_scan", "ios": "https://dc.lft.to/lastmile_qr_scan"}, "lat": 38.8995765, "is_disabled": 0, "lon": -77.04519216666667}, {"fusion_lat": 0.0, "type": "electric_scooter", "name": "29e83355c18aa34621fe0e1d793ec0e6", "fusion_lon": 0.0, "bike_id": "29e83355c18aa34621fe0e1d793ec0e6", "is_reserved": 0, "rental_uris": {"android": "https://dc.lft.to/lastmile_qr_scan", "ios": "https://dc.lft.to/lastmile_qr_scan"}, "lat": 38.8804195, "is_disabled": 0, "lon": -77.00533083333333}, {"fusion_lat": 0.0, "type": "electric_scooter", "name": "d6a64b303e2b482a4f431eac76eaff79", "fusion_lon": 0.0, "bike_id": "d6a64b303e2b482a4f431eac76eaff79", "is_reserved": 0, "rental_uris": {"android": "https://dc.lft.to/lastmile_qr_scan", "ios": "https://dc.lft.to/lastmile_qr_scan"}, "lat": 38.95733233333333, "is_disabled": 0, "lon": -77.02405016666667}, {"fusion_lat": 0.0, "type": "electric_scooter", "name": "703009b7a6e2f6e484fe07b5211bc234", "fusion_lon": 0.0, "bike_id": "703009b7a6e2f6e484fe07b5211bc234", "is_reserved": 0, "rental_uris": {"android": "https://dc.lft.to/lastmile_qr_scan", "ios": "https://dc.lft.to/lastmile_qr_scan"}, "lat": 38.924147166666664, "is_disabled": 0, "lon": -77.023025}, {"fusion_lat": 0.0, "type": "electric_scooter", "name": "560ebeddb96744562f9990d8ca7385b8", "fusion_lon": 0.0, "bike_id": "560ebeddb96744562f9990d8ca7385b8", "is_reserved": 0, "rental_uris": {"android": "https://dc.lft.to/lastmile_qr_scan", "ios": "https://dc.lft.to/lastmile_qr_scan"}, "lat": 38.892217333333335, "is_disabled": 0, "lon": -77.03157416666667}, {"fusion_lat": 0.0, "type": "electric_scooter", "name": "e54fd853e647ee52a51d0d4b99573420", "fusion_lon": 0.0, "bike_id": "e54fd853e647ee52a51d0d4b99573420", "is_reserved": 0, "rental_uris": {"android": "https://dc.lft.to/lastmile_qr_scan", "ios": "https://dc.lft.to/lastmile_qr_scan"}, "lat": 38.894888333333334, "is_disabled": 0, "lon": -77.023176}, {"fusion_lat": 0.0, "type": "electric_scooter", "name": "b7cebf014db14d6667c09b67c1be793a", "fusion_lon": 0.0, "bike_id": "b7cebf014db14d6667c09b67c1be793a", "is_reserved": 0, "rental_uris": {"android": "https://dc.lft.to/lastmile_qr_scan", "ios": "https://dc.lft.to/lastmile_qr_scan"}, "lat": 38.86415316666667, "is_disabled": 0, "lon": -76.991307}, {"fusion_lat": 0.0, "type": "electric_bike", "name": "86ac2bd567e2b514c268cae902fb1605", "fusion_lon": 0.0, "bike_id": "86ac2bd567e2b514c268cae902fb1605", "is_reserved": 0, "rental_uris": {"android": "https://dc.lft.to/lastmile_qr_scan", "ios": "https://dc.lft.to/lastmile_qr_scan"}, "lat": 38.95551183333333, "is_disabled": 0, "lon": -77.069308}, {"fusion_lat": 0.0, "type": "electric_scooter", "name": "bdedc11be9001bb21416d8e2a10e6c5d", "fusion_lon": 0.0, "bike_id": "bdedc11be9001bb21416d8e2a10e6c5d", "is_reserved": 0, "rental_uris": {"android": "https://dc.lft.to/lastmile_qr_scan", "ios": "https://dc.lft.to/lastmile_qr_scan"}, "lat": 38.9127965, "is_disabled": 0, "lon": -77.03190866666667}, {"fusion_lat": 0.0, "type": "electric_scooter", "name": "35deebcdee0a14b38d82e980e5d2be3d", "fusion_lon": 0.0, "bike_id": "35deebcdee0a14b38d82e980e5d2be3d", "is_reserved": 0, "rental_uris": {"android": "https://dc.lft.to/lastmile_qr_scan", "ios": "https://dc.lft.to/lastmile_qr_scan"}, "lat": 38.9377005, "is_disabled": 0, "lon": -77.032607}, {"fusion_lat": 0.0, "type": "electric_scooter", "name": "9cb81f8b0d2d35789a61d3a2bb0321ac", "fusion_lon": 0.0, "bike_id": "9cb81f8b0d2d35789a61d3a2bb0321ac", "is_reserved": 0, "rental_uris": {"android": "https://dc.lft.to/lastmile_qr_scan", "ios": "https://dc.lft.to/lastmile_qr_scan"}, "lat": 38.8896225, "is_disabled": 0, "lon": -76.93708283333333}, {"fusion_lat": 0.0, "type": "electric_scooter", "name": "6eeb32ee6ccfd11eb7889e14148e70cc", "fusion_lon": 0.0, "bike_id": "6eeb32ee6ccfd11eb7889e14148e70cc", "is_reserved": 0, "rental_uris": {"android": "https://dc.lft.to/lastmile_qr_scan", "ios": "https://dc.lft.to/lastmile_qr_scan"}, "lat": 38.91837483333333, "is_disabled": 0, "lon": -77.059505}, {"fusion_lat": 0.0, "type": "electric_scooter", "name": "847ba37de351fe7c68f2f5d633ac3670", "fusion_lon": 0.0, "bike_id": "847ba37de351fe7c68f2f5d633ac3670", "is_reserved": 0, "rental_uris": {"android": "https://dc.lft.to/lastmile_qr_scan", "ios": "https://dc.lft.to/lastmile_qr_scan"}, "lat": 38.9148465, "is_disabled": 0, "lon": -77.02188533333333}, {"fusion_lat": 0.0, "type": "electric_scooter", "name": "4fc29c63c372b36364500e0f4ed27869", "fusion_lon": 0.0, "bike_id": "4fc29c63c372b36364500e0f4ed27869", "is_reserved": 0, "rental_uris": {"android": "https://dc.lft.to/lastmile_qr_scan", "ios": "https://dc.lft.to/lastmile_qr_scan"}, "lat": 38.9519945, "is_disabled": 0, "lon": -77.02738566666666}, {"fusion_lat": 0.0, "type": "electric_scooter", "name": "d7fa0c2a2c5e26d8a2e18ebf6bb97659", "fusion_lon": 0.0, "bike_id": "d7fa0c2a2c5e26d8a2e18ebf6bb97659", "is_reserved": 0, "rental_uris": {"android": "https://dc.lft.to/lastmile_qr_scan", "ios": "https://dc.lft.to/lastmile_qr_scan"}, "lat": 38.88733, "is_disabled": 0, "lon": -77.0258135}, {"fusion_lat": 0.0, "type": "electric_scooter", "name": "0c09b38fc3f13b1d5bf3fb50fd6e711a", "fusion_lon": 0.0, "bike_id": "0c09b38fc3f13b1d5bf3fb50fd6e711a", "is_reserved": 0, "rental_uris": {"android": "https://dc.lft.to/lastmile_qr_scan", "ios": "https://dc.lft.to/lastmile_qr_scan"}, "lat": 38.915592833333335, "is_disabled": 0, "lon": -77.0393645}, {"fusion_lat": 0.0, "type": "electric_scooter", "name": "3d104700c8bb44a2a7156231c44c1a55", "fusion_lon": 0.0, "bike_id": "3d104700c8bb44a2a7156231c44c1a55", "is_reserved": 0, "rental_uris": {"android": "https://dc.lft.to/lastmile_qr_scan", "ios": "https://dc.lft.to/lastmile_qr_scan"}, "lat": 38.90611833333333, "is_disabled": 0, "lon": -77.0434615}, {"fusion_lat": 0.0, "type": "electric_scooter", "name": "da6c014d50e8b816e068d7cf8484d269", "fusion_lon": 0.0, "bike_id": "da6c014d50e8b816e068d7cf8484d269", "is_reserved": 0, "rental_uris": {"android": "https://dc.lft.to/lastmile_qr_scan", "ios": "https://dc.lft.to/lastmile_qr_scan"}, "lat": 38.94264066666667, "is_disabled": 0, "lon": -77.02842066666666}, {"fusion_lat": 0.0, "type": "electric_scooter", "name": "91f022313b5dcab51448729af2de3f2a", "fusion_lon": 0.0, "bike_id": "91f022313b5dcab51448729af2de3f2a", "is_reserved": 0, "rental_uris": {"android": "https://dc.lft.to/lastmile_qr_scan", "ios": "https://dc.lft.to/lastmile_qr_scan"}, "lat": 38.92142616666667, "is_disabled": 0, "lon": -77.02077483333333}, {"fusion_lat": 0.0, "type": "electric_scooter", "name": "d8e3a670d750e61433e4bc9e1bd24f3f", "fusion_lon": 0.0, "bike_id": "d8e3a670d750e61433e4bc9e1bd24f3f", "is_reserved": 0, "rental_uris": {"android": "https://dc.lft.to/lastmile_qr_scan", "ios": "https://dc.lft.to/lastmile_qr_scan"}, "lat": 38.886092166666664, "is_disabled": 0, "lon": -76.99658016666666}, {"fusion_lat": 0.0, "type": "electric_bike", "name": "95936cee5eb8b1ed274cc53da5424e6d", "fusion_lon": 0.0, "bike_id": "95936cee5eb8b1ed274cc53da5424e6d", "is_reserved": 0, "rental_uris": {"android": "https://dc.lft.to/lastmile_qr_scan", "ios": "https://dc.lft.to/lastmile_qr_scan"}, "lat": 38.94546783333333, "is_disabled": 0, "lon": -76.89536733333334}, {"fusion_lat": 0.0, "type": "electric_scooter", "name": "2b3f2673674c0a205e4ce3536b934509", "fusion_lon": 0.0, "bike_id": "2b3f2673674c0a205e4ce3536b934509", "is_reserved": 0, "rental_uris": {"android": "https://dc.lft.to/lastmile_qr_scan", "ios": "https://dc.lft.to/lastmile_qr_scan"}, "lat": 38.90966616666667, "is_disabled": 0, "lon": -77.01446516666667}, {"fusion_lat": 0.0, "type": "electric_scooter", "name": "c61db6af8947d6441ed128d2a6097f9f", "fusion_lon": 0.0, "bike_id": "c61db6af8947d6441ed128d2a6097f9f", "is_reserved": 0, "rental_uris": {"android": "https://dc.lft.to/lastmile_qr_scan", "ios": "https://dc.lft.to/lastmile_qr_scan"}, "lat": 38.909111333333335, "is_disabled": 0, "lon": -77.03184183333333}, {"fusion_lat": 0.0, "type": "electric_scooter", "name": "117639f47f3774b0a1d1a33b9f242c9b", "fusion_lon": 0.0, "bike_id": "117639f47f3774b0a1d1a33b9f242c9b", "is_reserved": 0, "rental_uris": {"android": "https://dc.lft.to/lastmile_qr_scan", "ios": "https://dc.lft.to/lastmile_qr_scan"}, "lat": 38.92968533333333, "is_disabled": 0, "lon": -77.05500716666667}, {"fusion_lat": 0.0, "type": "electric_scooter", "name": "dda925ff36a62e84c646463fa809cb48", "fusion_lon": 0.0, "bike_id": "dda925ff36a62e84c646463fa809cb48", "is_reserved": 0, "rental_uris": {"android": "https://dc.lft.to/lastmile_qr_scan", "ios": "https://dc.lft.to/lastmile_qr_scan"}, "lat": 38.9292495, "is_disabled": 0, "lon": -77.03754966666666}, {"fusion_lat": 0.0, "type": "electric_scooter", "name": "8295e29b670f9ba0a1f1df7a70c74fa8", "fusion_lon": 0.0, "bike_id": "8295e29b670f9ba0a1f1df7a70c74fa8", "is_reserved": 0, "rental_uris": {"android": "https://dc.lft.to/lastmile_qr_scan", "ios": "https://dc.lft.to/lastmile_qr_scan"}, "lat": 38.90955483333333, "is_disabled": 0, "lon": -77.04117583333333}, {"fusion_lat": 0.0, "type": "electric_scooter", "name": "bf65569a6c971225dbe70dcf6d0ff702", "fusion_lon": 0.0, "bike_id": "bf65569a6c971225dbe70dcf6d0ff702", "is_reserved": 0, "rental_uris": {"android": "https://dc.lft.to/lastmile_qr_scan", "ios": "https://dc.lft.to/lastmile_qr_scan"}, "lat": 38.89776333333333, "is_disabled": 0, "lon": -77.03940216666666}, {"fusion_lat": 0.0, "type": "electric_scooter", "name": "f84c9819f89874407a7a5d0f7fc0a0fb", "fusion_lon": 0.0, "bike_id": "f84c9819f89874407a7a5d0f7fc0a0fb", "is_reserved": 0, "rental_uris": {"android": "https://dc.lft.to/lastmile_qr_scan", "ios": "https://dc.lft.to/lastmile_qr_scan"}, "lat": 38.91687533333333, "is_disabled": 0, "lon": -77.04256566666666}, {"fusion_lat": 0.0, "type": "electric_bike", "name": "5cdc49620135548fe003d965708e0eb5", "fusion_lon": 0.0, "bike_id": "5cdc49620135548fe003d965708e0eb5", "is_reserved": 0, "rental_uris": {"android": "https://dc.lft.to/lastmile_qr_scan", "ios": "https://dc.lft.to/lastmile_qr_scan"}, "lat": 38.949725666666666, "is_disabled": 0, "lon": -77.0738645}, {"fusion_lat": 0.0, "type": "electric_scooter", "name": "0b55417acf92c3db4ea2da77e6b4f09c", "fusion_lon": 0.0, "bike_id": "0b55417acf92c3db4ea2da77e6b4f09c", "is_reserved": 0, "rental_uris": {"android": "https://dc.lft.to/lastmile_qr_scan", "ios": "https://dc.lft.to/lastmile_qr_scan"}, "lat": 38.92159183333333, "is_disabled": 0, "lon": -77.02090733333333}, {"fusion_lat": 0.0, "type": "electric_scooter", "name": "07baa410082c6b67b346a272f447e9d7", "fusion_lon": 0.0, "bike_id": "07baa410082c6b67b346a272f447e9d7", "is_reserved": 0, "rental_uris": {"android": "https://dc.lft.to/lastmile_qr_scan", "ios": "https://dc.lft.to/lastmile_qr_scan"}, "lat": 38.90228066666667, "is_disabled": 0, "lon": -77.03927866666666}, {"fusion_lat": 0.0, "type": "electric_scooter", "name": "7acbc841efdfb0654864b45a393e7f5e", "fusion_lon": 0.0, "bike_id": "7acbc841efdfb0654864b45a393e7f5e", "is_reserved": 0, "rental_uris": {"android": "https://dc.lft.to/lastmile_qr_scan", "ios": "https://dc.lft.to/lastmile_qr_scan"}, "lat": 38.8996875, "is_disabled": 0, "lon": -77.01573166666667}, {"fusion_lat": 0.0, "type": "electric_scooter", "name": "47330dcf510709a10f306450ecc10d40", "fusion_lon": 0.0, "bike_id": "47330dcf510709a10f306450ecc10d40", "is_reserved": 0, "rental_uris": {"android": "https://dc.lft.to/lastmile_qr_scan", "ios": "https://dc.lft.to/lastmile_qr_scan"}, "lat": 38.8349225, "is_disabled": 0, "lon": -77.0067665}, {"fusion_lat": 0.0, "type": "electric_scooter", "name": "e2c050ffb4954a356587804f7c96983d", "fusion_lon": 0.0, "bike_id": "e2c050ffb4954a356587804f7c96983d", "is_reserved": 0, "rental_uris": {"android": "https://dc.lft.to/lastmile_qr_scan", "ios": "https://dc.lft.to/lastmile_qr_scan"}, "lat": 38.8949295, "is_disabled": 0, "lon": -77.010891}, {"fusion_lat": 0.0, "type": "electric_scooter", "name": "c59a977f394c1b8ce8cab4f9bed4cfb5", "fusion_lon": 0.0, "bike_id": "c59a977f394c1b8ce8cab4f9bed4cfb5", "is_reserved": 0, "rental_uris": {"android": "https://dc.lft.to/lastmile_qr_scan", "ios": "https://dc.lft.to/lastmile_qr_scan"}, "lat": 38.88142416666667, "is_disabled": 0, "lon": -76.994917}, {"fusion_lat": 0.0, "type": "electric_scooter", "name": "3d3502a1a44c6751f8a0e2fc6ae33770", "fusion_lon": 0.0, "bike_id": "3d3502a1a44c6751f8a0e2fc6ae33770", "is_reserved": 0, "rental_uris": {"android": "https://dc.lft.to/lastmile_qr_scan", "ios": "https://dc.lft.to/lastmile_qr_scan"}, "lat": 38.92614016666667, "is_disabled": 0, "lon": -77.04323633333334}, {"fusion_lat": 0.0, "type": "electric_scooter", "name": "fe11858f1cdefc6a8245766bb787a8bc", "fusion_lon": 0.0, "bike_id": "fe11858f1cdefc6a8245766bb787a8bc", "is_reserved": 0, "rental_uris": {"android": "https://dc.lft.to/lastmile_qr_scan", "ios": "https://dc.lft.to/lastmile_qr_scan"}, "lat": 38.895026666666666, "is_disabled": 0, "lon": -76.93476383333334}, {"fusion_lat": 0.0, "type": "electric_scooter", "name": "c3cde9f34d06684840205e0bbff6f070", "fusion_lon": 0.0, "bike_id": "c3cde9f34d06684840205e0bbff6f070", "is_reserved": 0, "rental_uris": {"android": "https://dc.lft.to/lastmile_qr_scan", "ios": "https://dc.lft.to/lastmile_qr_scan"}, "lat": 38.89744866666667, "is_disabled": 0, "lon": -77.03068566666667}, {"fusion_lat": 0.0, "type": "electric_scooter", "name": "94624afd1d1c2ad567a544a26c922703", "fusion_lon": 0.0, "bike_id": "94624afd1d1c2ad567a544a26c922703", "is_reserved": 0, "rental_uris": {"android": "https://dc.lft.to/lastmile_qr_scan", "ios": "https://dc.lft.to/lastmile_qr_scan"}, "lat": 38.898960833333334, "is_disabled": 0, "lon": -77.03944483333333}, {"fusion_lat": 0.0, "type": "electric_bike", "name": "ffd918a0516f15c7e77703945c5e18c3", "fusion_lon": 0.0, "bike_id": "ffd918a0516f15c7e77703945c5e18c3", "is_reserved": 0, "rental_uris": {"android": "https://dc.lft.to/lastmile_qr_scan", "ios": "https://dc.lft.to/lastmile_qr_scan"}, "lat": 38.83780816666667, "is_disabled": 0, "lon": -76.99754816666666}, {"fusion_lat": 0.0, "type": "electric_scooter", "name": "3b64df45b4b1126c21f0f3dd76bd51fa", "fusion_lon": 0.0, "bike_id": "3b64df45b4b1126c21f0f3dd76bd51fa", "is_reserved": 0, "rental_uris": {"android": "https://dc.lft.to/lastmile_qr_scan", "ios": "https://dc.lft.to/lastmile_qr_scan"}, "lat": 38.892228833333334, "is_disabled": 0, "lon": -77.02778283333333}, {"fusion_lat": 0.0, "type": "electric_scooter", "name": "07ee4d499e17d375f0712a1d93e854b6", "fusion_lon": 0.0, "bike_id": "07ee4d499e17d375f0712a1d93e854b6", "is_reserved": 0, "rental_uris": {"android": "https://dc.lft.to/lastmile_qr_scan", "ios": "https://dc.lft.to/lastmile_qr_scan"}, "lat": 38.90336666666666, "is_disabled": 0, "lon": -77.0464205}, {"fusion_lat": 0.0, "type": "electric_scooter", "name": "0b700828f8adb24d0218e7f816bcc552", "fusion_lon": 0.0, "bike_id": "0b700828f8adb24d0218e7f816bcc552", "is_reserved": 0, "rental_uris": {"android": "https://dc.lft.to/lastmile_qr_scan", "ios": "https://dc.lft.to/lastmile_qr_scan"}, "lat": 38.8767, "is_disabled": 0, "lon": -76.9945205}, {"fusion_lat": 0.0, "type": "electric_scooter", "name": "5c5f415c4a94aff20df02132882d435f", "fusion_lon": 0.0, "bike_id": "5c5f415c4a94aff20df02132882d435f", "is_reserved": 0, "rental_uris": {"android": "https://dc.lft.to/lastmile_qr_scan", "ios": "https://dc.lft.to/lastmile_qr_scan"}, "lat": 38.92847016666666, "is_disabled": 0, "lon": -77.014117}, {"fusion_lat": 0.0, "type": "electric_bike", "name": "dbcdea2023b3cfe137d4c4f85ccd655c", "fusion_lon": 0.0, "bike_id": "dbcdea2023b3cfe137d4c4f85ccd655c", "is_reserved": 0, "rental_uris": {"android": "https://dc.lft.to/lastmile_qr_scan", "ios": "https://dc.lft.to/lastmile_qr_scan"}, "lat": 38.9739125, "is_disabled": 0, "lon": -77.06457533333334}, {"fusion_lat": 0.0, "type": "electric_scooter", "name": "ce2e097450a66a85d5497ea800e7c4ed", "fusion_lon": 0.0, "bike_id": "ce2e097450a66a85d5497ea800e7c4ed", "is_reserved": 0, "rental_uris": {"android": "https://dc.lft.to/lastmile_qr_scan", "ios": "https://dc.lft.to/lastmile_qr_scan"}, "lat": 38.915499833333335, "is_disabled": 0, "lon": -77.05320866666666}, {"fusion_lat": 0.0, "type": "electric_scooter", "name": "8ed00b99c2c3b48a2ad213d086b28145", "fusion_lon": 0.0, "bike_id": "8ed00b99c2c3b48a2ad213d086b28145", "is_reserved": 0, "rental_uris": {"android": "https://dc.lft.to/lastmile_qr_scan", "ios": "https://dc.lft.to/lastmile_qr_scan"}, "lat": 38.91427083333333, "is_disabled": 0, "lon": -77.02809983333333}, {"fusion_lat": 0.0, "type": "electric_scooter", "name": "b5a3114eb76e9e5ac8c1a1e02c08a986", "fusion_lon": 0.0, "bike_id": "b5a3114eb76e9e5ac8c1a1e02c08a986", "is_reserved": 0, "rental_uris": {"android": "https://dc.lft.to/lastmile_qr_scan", "ios": "https://dc.lft.to/lastmile_qr_scan"}, "lat": 38.926752666666665, "is_disabled": 0, "lon": -77.02868033333333}, {"fusion_lat": 0.0, "type": "electric_scooter", "name": "2069a5715dc4f59364f552520d99062b", "fusion_lon": 0.0, "bike_id": "2069a5715dc4f59364f552520d99062b", "is_reserved": 0, "rental_uris": {"android": "https://dc.lft.to/lastmile_qr_scan", "ios": "https://dc.lft.to/lastmile_qr_scan"}, "lat": 38.892323, "is_disabled": 0, "lon": -77.02382083333333}, {"fusion_lat": 0.0, "type": "electric_scooter", "name": "c668ab38ab6d2952adcae3c74a42beff", "fusion_lon": 0.0, "bike_id": "c668ab38ab6d2952adcae3c74a42beff", "is_reserved": 0, "rental_uris": {"android": "https://dc.lft.to/lastmile_qr_scan", "ios": "https://dc.lft.to/lastmile_qr_scan"}, "lat": 38.923700833333335, "is_disabled": 0, "lon": -77.03094383333334}, {"fusion_lat": 0.0, "type": "electric_scooter", "name": "8c066e3194804efd830601e751306574", "fusion_lon": 0.0, "bike_id": "8c066e3194804efd830601e751306574", "is_reserved": 0, "rental_uris": {"android": "https://dc.lft.to/lastmile_qr_scan", "ios": "https://dc.lft.to/lastmile_qr_scan"}, "lat": 38.898825333333335, "is_disabled": 0, "lon": -77.05301266666666}, {"fusion_lat": 0.0, "type": "electric_bike", "name": "045602ef8a0903e0844c6ca5e571d102", "fusion_lon": 0.0, "bike_id": "045602ef8a0903e0844c6ca5e571d102", "is_reserved": 0, "rental_uris": {"android": "https://dc.lft.to/lastmile_qr_scan", "ios": "https://dc.lft.to/lastmile_qr_scan"}, "lat": 38.92247183333333, "is_disabled": 0, "lon": -77.03909166666666}, {"fusion_lat": 0.0, "type": "electric_scooter", "name": "d0a400dedf038eb149369276ad21faf1", "fusion_lon": 0.0, "bike_id": "d0a400dedf038eb149369276ad21faf1", "is_reserved": 0, "rental_uris": {"android": "https://dc.lft.to/lastmile_qr_scan", "ios": "https://dc.lft.to/lastmile_qr_scan"}, "lat": 38.919670833333335, "is_disabled": 0, "lon": -77.0639915}, {"fusion_lat": 0.0, "type": "electric_scooter", "name": "7de968551c181578d3cd9e5fda1ab1f6", "fusion_lon": 0.0, "bike_id": "7de968551c181578d3cd9e5fda1ab1f6", "is_reserved": 0, "rental_uris": {"android": "https://dc.lft.to/lastmile_qr_scan", "ios": "https://dc.lft.to/lastmile_qr_scan"}, "lat": 38.914761, "is_disabled": 0, "lon": -77.02577516666666}, {"fusion_lat": 0.0, "type": "electric_scooter", "name": "c190201a6ce6b7dcf8073738fae2b531", "fusion_lon": 0.0, "bike_id": "c190201a6ce6b7dcf8073738fae2b531", "is_reserved": 0, "rental_uris": {"android": "https://dc.lft.to/lastmile_qr_scan", "ios": "https://dc.lft.to/lastmile_qr_scan"}, "lat": 38.90978716666667, "is_disabled": 0, "lon": -77.042696}, {"fusion_lat": 0.0, "type": "electric_scooter", "name": "1458a1c6dc04dab913b0b37b0650e125", "fusion_lon": 0.0, "bike_id": "1458a1c6dc04dab913b0b37b0650e125", "is_reserved": 0, "rental_uris": {"android": "https://dc.lft.to/lastmile_qr_scan", "ios": "https://dc.lft.to/lastmile_qr_scan"}, "lat": 38.89222316666667, "is_disabled": 0, "lon": -77.0433375}, {"fusion_lat": 0.0, "type": "electric_scooter", "name": "dd5e2b40f058057f2e7bac1746e7c512", "fusion_lon": 0.0, "bike_id": "dd5e2b40f058057f2e7bac1746e7c512", "is_reserved": 0, "rental_uris": {"android": "https://dc.lft.to/lastmile_qr_scan", "ios": "https://dc.lft.to/lastmile_qr_scan"}, "lat": 38.90727716666667, "is_disabled": 0, "lon": -76.9322705}, {"fusion_lat": 0.0, "type": "electric_scooter", "name": "3270f081cf1b4b242bd25f0c3ff35fb0", "fusion_lon": 0.0, "bike_id": "3270f081cf1b4b242bd25f0c3ff35fb0", "is_reserved": 0, "rental_uris": {"android": "https://dc.lft.to/lastmile_qr_scan", "ios": "https://dc.lft.to/lastmile_qr_scan"}, "lat": 38.90799916666667, "is_disabled": 0, "lon": -76.98735683333334}, {"fusion_lat": 0.0, "type": "electric_scooter", "name": "1dd2f2aec846b86e2425028ab7e1527e", "fusion_lon": 0.0, "bike_id": "1dd2f2aec846b86e2425028ab7e1527e", "is_reserved": 0, "rental_uris": {"android": "https://dc.lft.to/lastmile_qr_scan", "ios": "https://dc.lft.to/lastmile_qr_scan"}, "lat": 38.92743316666667, "is_disabled": 0, "lon": -77.0253945}, {"fusion_lat": 0.0, "type": "electric_scooter", "name": "702ecbb5a10bbeb7b59cfbd956971354", "fusion_lon": 0.0, "bike_id": "702ecbb5a10bbeb7b59cfbd956971354", "is_reserved": 0, "rental_uris": {"android": "https://dc.lft.to/lastmile_qr_scan", "ios": "https://dc.lft.to/lastmile_qr_scan"}, "lat": 38.888282, "is_disabled": 0, "lon": -76.9937215}, {"fusion_lat": 0.0, "type": "electric_bike", "name": "2c61a1c44fa927392e65cfab9f88853c", "fusion_lon": 0.0, "bike_id": "2c61a1c44fa927392e65cfab9f88853c", "is_reserved": 0, "rental_uris": {"android": "https://dc.lft.to/lastmile_qr_scan", "ios": "https://dc.lft.to/lastmile_qr_scan"}, "lat": 38.9622075, "is_disabled": 0, "lon": -77.02631383333333}, {"fusion_lat": 0.0, "type": "electric_scooter", "name": "d2904b9a8e89df4627674464174faaff", "fusion_lon": 0.0, "bike_id": "d2904b9a8e89df4627674464174faaff", "is_reserved": 0, "rental_uris": {"android": "https://dc.lft.to/lastmile_qr_scan", "ios": "https://dc.lft.to/lastmile_qr_scan"}, "lat": 38.9000865, "is_disabled": 0, "lon": -76.99304233333334}, {"fusion_lat": 0.0, "type": "electric_scooter", "name": "d6da3a11441be309424bd9cb6e26746f", "fusion_lon": 0.0, "bike_id": "d6da3a11441be309424bd9cb6e26746f", "is_reserved": 0, "rental_uris": {"android": "https://dc.lft.to/lastmile_qr_scan", "ios": "https://dc.lft.to/lastmile_qr_scan"}, "lat": 38.93704233333333, "is_disabled": 0, "lon": -77.06101783333334}, {"fusion_lat": 0.0, "type": "electric_scooter", "name": "4c765daa6a85a7b754d19d6c28f1d340", "fusion_lon": 0.0, "bike_id": "4c765daa6a85a7b754d19d6c28f1d340", "is_reserved": 0, "rental_uris": {"android": "https://dc.lft.to/lastmile_qr_scan", "ios": "https://dc.lft.to/lastmile_qr_scan"}, "lat": 38.902312333333334, "is_disabled": 0, "lon": -77.03332866666666}, {"fusion_lat": 0.0, "type": "electric_scooter", "name": "a2b6045ab00f7d5cf893ef00895c2b27", "fusion_lon": 0.0, "bike_id": "a2b6045ab00f7d5cf893ef00895c2b27", "is_reserved": 0, "rental_uris": {"android": "https://dc.lft.to/lastmile_qr_scan", "ios": "https://dc.lft.to/lastmile_qr_scan"}, "lat": 38.86690433333333, "is_disabled": 0, "lon": -76.98606883333333}, {"fusion_lat": 0.0, "type": "electric_scooter", "name": "1e974a2c28322acc48c596920dcca76c", "fusion_lon": 0.0, "bike_id": "1e974a2c28322acc48c596920dcca76c", "is_reserved": 0, "rental_uris": {"android": "https://dc.lft.to/lastmile_qr_scan", "ios": "https://dc.lft.to/lastmile_qr_scan"}, "lat": 38.89739216666667, "is_disabled": 0, "lon": -77.01310316666667}, {"fusion_lat": 0.0, "type": "electric_scooter", "name": "06352b6da8d514988a80546cefcc2f0c", "fusion_lon": 0.0, "bike_id": "06352b6da8d514988a80546cefcc2f0c", "is_reserved": 0, "rental_uris": {"android": "https://dc.lft.to/lastmile_qr_scan", "ios": "https://dc.lft.to/lastmile_qr_scan"}, "lat": 38.927387, "is_disabled": 0, "lon": -77.03242933333334}, {"fusion_lat": 0.0, "type": "electric_scooter", "name": "43abde0c234bba76565b4ac44b6df0b3", "fusion_lon": 0.0, "bike_id": "43abde0c234bba76565b4ac44b6df0b3", "is_reserved": 0, "rental_uris": {"android": "https://dc.lft.to/lastmile_qr_scan", "ios": "https://dc.lft.to/lastmile_qr_scan"}, "lat": 38.927458333333334, "is_disabled": 0, "lon": -77.03283166666667}, {"fusion_lat": 0.0, "type": "electric_scooter", "name": "17c98119c9cbe2a2de8ca638796b157a", "fusion_lon": 0.0, "bike_id": "17c98119c9cbe2a2de8ca638796b157a", "is_reserved": 0, "rental_uris": {"android": "https://dc.lft.to/lastmile_qr_scan", "ios": "https://dc.lft.to/lastmile_qr_scan"}, "lat": 38.92361483333333, "is_disabled": 0, "lon": -77.050465}, {"fusion_lat": 0.0, "type": "electric_scooter", "name": "399b44afafe437e1054a6cc1fd1529a8", "fusion_lon": 0.0, "bike_id": "399b44afafe437e1054a6cc1fd1529a8", "is_reserved": 0, "rental_uris": {"android": "https://dc.lft.to/lastmile_qr_scan", "ios": "https://dc.lft.to/lastmile_qr_scan"}, "lat": 38.88523883333333, "is_disabled": 0, "lon": -76.99610983333334}, {"fusion_lat": 0.0, "type": "electric_scooter", "name": "62e11d88ae98320e850b11350ff0c3c8", "fusion_lon": 0.0, "bike_id": "62e11d88ae98320e850b11350ff0c3c8", "is_reserved": 0, "rental_uris": {"android": "https://dc.lft.to/lastmile_qr_scan", "ios": "https://dc.lft.to/lastmile_qr_scan"}, "lat": 38.87160216666667, "is_disabled": 0, "lon": -77.013561}, {"fusion_lat": 0.0, "type": "electric_scooter", "name": "d9993052e0013d9dae8fe1c70d6149de", "fusion_lon": 0.0, "bike_id": "d9993052e0013d9dae8fe1c70d6149de", "is_reserved": 0, "rental_uris": {"android": "https://dc.lft.to/lastmile_qr_scan", "ios": "https://dc.lft.to/lastmile_qr_scan"}, "lat": 38.923366333333334, "is_disabled": 0, "lon": -77.02120733333334}, {"fusion_lat": 0.0, "type": "electric_bike", "name": "e288ecf0cc32aa3033637627fd3291e0", "fusion_lon": 0.0, "bike_id": "e288ecf0cc32aa3033637627fd3291e0", "is_reserved": 0, "rental_uris": {"android": "https://dc.lft.to/lastmile_qr_scan", "ios": "https://dc.lft.to/lastmile_qr_scan"}, "lat": 38.962159, "is_disabled": 0, "lon": -77.02622316666667}, {"fusion_lat": 0.0, "type": "electric_scooter", "name": "ec6fa10d1dc18b98a684a112493cdbc5", "fusion_lon": 0.0, "bike_id": "ec6fa10d1dc18b98a684a112493cdbc5", "is_reserved": 0, "rental_uris": {"android": "https://dc.lft.to/lastmile_qr_scan", "ios": "https://dc.lft.to/lastmile_qr_scan"}, "lat": 38.915374166666666, "is_disabled": 0, "lon": -77.01977783333334}, {"fusion_lat": 0.0, "type": "electric_scooter", "name": "8fe5d1617c04bbc2140b1d7880e30b46", "fusion_lon": 0.0, "bike_id": "8fe5d1617c04bbc2140b1d7880e30b46", "is_reserved": 0, "rental_uris": {"android": "https://dc.lft.to/lastmile_qr_scan", "ios": "https://dc.lft.to/lastmile_qr_scan"}, "lat": 38.933433, "is_disabled": 0, "lon": -77.04118333333334}, {"fusion_lat": 0.0, "type": "electric_scooter", "name": "1ff806025ac3aeffbe73c5e1aee7c1ab", "fusion_lon": 0.0, "bike_id": "1ff806025ac3aeffbe73c5e1aee7c1ab", "is_reserved": 0, "rental_uris": {"android": "https://dc.lft.to/lastmile_qr_scan", "ios": "https://dc.lft.to/lastmile_qr_scan"}, "lat": 38.8845825, "is_disabled": 0, "lon": -76.92621566666666}, {"fusion_lat": 0.0, "type": "electric_scooter", "name": "01efdca092e5a44536d7589e264f3b33", "fusion_lon": 0.0, "bike_id": "01efdca092e5a44536d7589e264f3b33", "is_reserved": 0, "rental_uris": {"android": "https://dc.lft.to/lastmile_qr_scan", "ios": "https://dc.lft.to/lastmile_qr_scan"}, "lat": 38.92137266666667, "is_disabled": 0, "lon": -77.02872266666667}, {"fusion_lat": 0.0, "type": "electric_scooter", "name": "0e4dedc5fabcb4588f89f1f7d6048656", "fusion_lon": 0.0, "bike_id": "0e4dedc5fabcb4588f89f1f7d6048656", "is_reserved": 0, "rental_uris": {"android": "https://dc.lft.to/lastmile_qr_scan", "ios": "https://dc.lft.to/lastmile_qr_scan"}, "lat": 38.895556166666665, "is_disabled": 0, "lon": -76.948744}, {"fusion_lat": 0.0, "type": "electric_bike", "name": "5fb7e2c900279aa1d9c51e001ddf314e", "fusion_lon": 0.0, "bike_id": "5fb7e2c900279aa1d9c51e001ddf314e", "is_reserved": 0, "rental_uris": {"android": "https://dc.lft.to/lastmile_qr_scan", "ios": "https://dc.lft.to/lastmile_qr_scan"}, "lat": 38.938684333333335, "is_disabled": 0, "lon": -76.94292716666666}, {"fusion_lat": 0.0, "type": "electric_bike", "name": "6e0e36d06604c30a26238f6b91d89062", "fusion_lon": 0.0, "bike_id": "6e0e36d06604c30a26238f6b91d89062", "is_reserved": 0, "rental_uris": {"android": "https://dc.lft.to/lastmile_qr_scan", "ios": "https://dc.lft.to/lastmile_qr_scan"}, "lat": 38.959566333333335, "is_disabled": 0, "lon": -77.10092816666666}, {"fusion_lat": 0.0, "type": "electric_scooter", "name": "9a159153a95530b6b98bfd80b1a2ac3f", "fusion_lon": 0.0, "bike_id": "9a159153a95530b6b98bfd80b1a2ac3f", "is_reserved": 0, "rental_uris": {"android": "https://dc.lft.to/lastmile_qr_scan", "ios": "https://dc.lft.to/lastmile_qr_scan"}, "lat": 38.93609466666667, "is_disabled": 0, "lon": -77.037881}, {"fusion_lat": 0.0, "type": "electric_scooter", "name": "c5a380ea8d7188d8809e8349f2abbc90", "fusion_lon": 0.0, "bike_id": "c5a380ea8d7188d8809e8349f2abbc90", "is_reserved": 0, "rental_uris": {"android": "https://dc.lft.to/lastmile_qr_scan", "ios": "https://dc.lft.to/lastmile_qr_scan"}, "lat": 38.886058, "is_disabled": 0, "lon": -76.9951345}, {"fusion_lat": 0.0, "type": "electric_scooter", "name": "8daf1fbc1a1e9c85463651e86188d4cd", "fusion_lon": 0.0, "bike_id": "8daf1fbc1a1e9c85463651e86188d4cd", "is_reserved": 0, "rental_uris": {"android": "https://dc.lft.to/lastmile_qr_scan", "ios": "https://dc.lft.to/lastmile_qr_scan"}, "lat": 38.90222166666667, "is_disabled": 0, "lon": -77.0335005}, {"fusion_lat": 0.0, "type": "electric_scooter", "name": "9d2868b834741af3ea66d14916f8fe19", "fusion_lon": 0.0, "bike_id": "9d2868b834741af3ea66d14916f8fe19", "is_reserved": 0, "rental_uris": {"android": "https://dc.lft.to/lastmile_qr_scan", "ios": "https://dc.lft.to/lastmile_qr_scan"}, "lat": 38.934545, "is_disabled": 0, "lon": -77.02215333333334}, {"fusion_lat": 0.0, "type": "electric_bike", "name": "1b96e9c7084ae896d1b6c98b38a8c613", "fusion_lon": 0.0, "bike_id": "1b96e9c7084ae896d1b6c98b38a8c613", "is_reserved": 0, "rental_uris": {"android": "https://dc.lft.to/lastmile_qr_scan", "ios": "https://dc.lft.to/lastmile_qr_scan"}, "lat": 38.8315855, "is_disabled": 0, "lon": -76.99547083333333}, {"fusion_lat": 0.0, "type": "electric_bike", "name": "88a9a28a5708b68c673067e1ff3c595d", "fusion_lon": 0.0, "bike_id": "88a9a28a5708b68c673067e1ff3c595d", "is_reserved": 0, "rental_uris": {"android": "https://dc.lft.to/lastmile_qr_scan", "ios": "https://dc.lft.to/lastmile_qr_scan"}, "lat": 38.81199516666667, "is_disabled": 0, "lon": -77.10829416666667}, {"fusion_lat": 0.0, "type": "electric_scooter", "name": "dda9bc7b2554f2e05fc40bbcef4dbde5", "fusion_lon": 0.0, "bike_id": "dda9bc7b2554f2e05fc40bbcef4dbde5", "is_reserved": 0, "rental_uris": {"android": "https://dc.lft.to/lastmile_qr_scan", "ios": "https://dc.lft.to/lastmile_qr_scan"}, "lat": 38.919787666666664, "is_disabled": 0, "lon": -77.03236016666666}, {"fusion_lat": 0.0, "type": "electric_bike", "name": "01fb856f64dc13235b2576a30c2e3746", "fusion_lon": 0.0, "bike_id": "01fb856f64dc13235b2576a30c2e3746", "is_reserved": 0, "rental_uris": {"android": "https://dc.lft.to/lastmile_qr_scan", "ios": "https://dc.lft.to/lastmile_qr_scan"}, "lat": 39.01477783333333, "is_disabled": 0, "lon": -77.05497066666666}, {"fusion_lat": 0.0, "type": "electric_scooter", "name": "6c08064ffd682e376e295e7c9fe87ca5", "fusion_lon": 0.0, "bike_id": "6c08064ffd682e376e295e7c9fe87ca5", "is_reserved": 0, "rental_uris": {"android": "https://dc.lft.to/lastmile_qr_scan", "ios": "https://dc.lft.to/lastmile_qr_scan"}, "lat": 38.91687266666667, "is_disabled": 0, "lon": -77.03765283333334}, {"fusion_lat": 0.0, "type": "electric_scooter", "name": "78fd63335b48b5a16e88631f4452e7d8", "fusion_lon": 0.0, "bike_id": "78fd63335b48b5a16e88631f4452e7d8", "is_reserved": 0, "rental_uris": {"android": "https://dc.lft.to/lastmile_qr_scan", "ios": "https://dc.lft.to/lastmile_qr_scan"}, "lat": 38.920588, "is_disabled": 0, "lon": -77.02536766666667}, {"fusion_lat": 0.0, "type": "electric_scooter", "name": "f8549d1e24e30112d74399b42e8645a4", "fusion_lon": 0.0, "bike_id": "f8549d1e24e30112d74399b42e8645a4", "is_reserved": 0, "rental_uris": {"android": "https://dc.lft.to/lastmile_qr_scan", "ios": "https://dc.lft.to/lastmile_qr_scan"}, "lat": 38.92330116666667, "is_disabled": 0, "lon": -77.03582566666667}, {"fusion_lat": 0.0, "type": "electric_scooter", "name": "a4ee94fde41ceda6e275b09f0781f16a", "fusion_lon": 0.0, "bike_id": "a4ee94fde41ceda6e275b09f0781f16a", "is_reserved": 0, "rental_uris": {"android": "https://dc.lft.to/lastmile_qr_scan", "ios": "https://dc.lft.to/lastmile_qr_scan"}, "lat": 38.891993, "is_disabled": 0, "lon": -77.02771566666667}, {"fusion_lat": 0.0, "type": "electric_scooter", "name": "e19bc0268239c5fb427af857d18f86ba", "fusion_lon": 0.0, "bike_id": "e19bc0268239c5fb427af857d18f86ba", "is_reserved": 0, "rental_uris": {"android": "https://dc.lft.to/lastmile_qr_scan", "ios": "https://dc.lft.to/lastmile_qr_scan"}, "lat": 38.89218016666667, "is_disabled": 0, "lon": -77.02626516666666}, {"fusion_lat": 0.0, "type": "electric_bike", "name": "c0a342d8cc10d98e83280649985af76e", "fusion_lon": 0.0, "bike_id": "c0a342d8cc10d98e83280649985af76e", "is_reserved": 0, "rental_uris": {"android": "https://dc.lft.to/lastmile_qr_scan", "ios": "https://dc.lft.to/lastmile_qr_scan"}, "lat": 38.96741033333333, "is_disabled": 0, "lon": -76.9819055}, {"fusion_lat": 0.0, "type": "electric_scooter", "name": "992a4b8fecb18ea4fc5f5ac1ba242197", "fusion_lon": 0.0, "bike_id": "992a4b8fecb18ea4fc5f5ac1ba242197", "is_reserved": 0, "rental_uris": {"android": "https://dc.lft.to/lastmile_qr_scan", "ios": "https://dc.lft.to/lastmile_qr_scan"}, "lat": 38.90304066666667, "is_disabled": 0, "lon": -77.04338133333333}, {"fusion_lat": 0.0, "type": "electric_scooter", "name": "4bc901fae77e2a6c9ca87a2b7cee1a77", "fusion_lon": 0.0, "bike_id": "4bc901fae77e2a6c9ca87a2b7cee1a77", "is_reserved": 0, "rental_uris": {"android": "https://dc.lft.to/lastmile_qr_scan", "ios": "https://dc.lft.to/lastmile_qr_scan"}, "lat": 38.889605333333336, "is_disabled": 0, "lon": -76.9370475}, {"fusion_lat": 0.0, "type": "electric_scooter", "name": "c37d707941388fff1c4e6b5a849cc22e", "fusion_lon": 0.0, "bike_id": "c37d707941388fff1c4e6b5a849cc22e", "is_reserved": 0, "rental_uris": {"android": "https://dc.lft.to/lastmile_qr_scan", "ios": "https://dc.lft.to/lastmile_qr_scan"}, "lat": 38.921926666666664, "is_disabled": 0, "lon": -77.042299}, {"fusion_lat": 0.0, "type": "electric_scooter", "name": "2e651bab0302e82286f8ced4f55456ef", "fusion_lon": 0.0, "bike_id": "2e651bab0302e82286f8ced4f55456ef", "is_reserved": 0, "rental_uris": {"android": "https://dc.lft.to/lastmile_qr_scan", "ios": "https://dc.lft.to/lastmile_qr_scan"}, "lat": 38.910099, "is_disabled": 0, "lon": -76.99391166666666}, {"fusion_lat": 0.0, "type": "electric_scooter", "name": "af52946615e29f80fd658bac07883af8", "fusion_lon": 0.0, "bike_id": "af52946615e29f80fd658bac07883af8", "is_reserved": 0, "rental_uris": {"android": "https://dc.lft.to/lastmile_qr_scan", "ios": "https://dc.lft.to/lastmile_qr_scan"}, "lat": 38.9217445, "is_disabled": 0, "lon": -77.04693116666667}, {"fusion_lat": 0.0, "type": "electric_scooter", "name": "7ab6ce8d99a6c61b247066d2af6ed2f8", "fusion_lon": 0.0, "bike_id": "7ab6ce8d99a6c61b247066d2af6ed2f8", "is_reserved": 0, "rental_uris": {"android": "https://dc.lft.to/lastmile_qr_scan", "ios": "https://dc.lft.to/lastmile_qr_scan"}, "lat": 38.9049105, "is_disabled": 0, "lon": -77.04118133333333}, {"fusion_lat": 0.0, "type": "electric_scooter", "name": "0944819965cdf955a07607796d82eee1", "fusion_lon": 0.0, "bike_id": "0944819965cdf955a07607796d82eee1", "is_reserved": 0, "rental_uris": {"android": "https://dc.lft.to/lastmile_qr_scan", "ios": "https://dc.lft.to/lastmile_qr_scan"}, "lat": 38.89426916666667, "is_disabled": 0, "lon": -76.94881166666667}, {"fusion_lat": 0.0, "type": "electric_scooter", "name": "d6966c5c8de3bfac43c3316af3d002d5", "fusion_lon": 0.0, "bike_id": "d6966c5c8de3bfac43c3316af3d002d5", "is_reserved": 0, "rental_uris": {"android": "https://dc.lft.to/lastmile_qr_scan", "ios": "https://dc.lft.to/lastmile_qr_scan"}, "lat": 38.90147866666667, "is_disabled": 0, "lon": -77.047766}, {"fusion_lat": 0.0, "type": "electric_scooter", "name": "94a98b469a618f75ef9ec0fe7fd55832", "fusion_lon": 0.0, "bike_id": "94a98b469a618f75ef9ec0fe7fd55832", "is_reserved": 0, "rental_uris": {"android": "https://dc.lft.to/lastmile_qr_scan", "ios": "https://dc.lft.to/lastmile_qr_scan"}, "lat": 38.934029833333334, "is_disabled": 0, "lon": -77.041347}, {"fusion_lat": 0.0, "type": "electric_scooter", "name": "fba7fb350d633a206bbf44fd892e9d19", "fusion_lon": 0.0, "bike_id": "fba7fb350d633a206bbf44fd892e9d19", "is_reserved": 0, "rental_uris": {"android": "https://dc.lft.to/lastmile_qr_scan", "ios": "https://dc.lft.to/lastmile_qr_scan"}, "lat": 38.892199833333336, "is_disabled": 0, "lon": -77.0426305}, {"fusion_lat": 0.0, "type": "electric_scooter", "name": "7ea30fed31203e404e55017c48f12f45", "fusion_lon": 0.0, "bike_id": "7ea30fed31203e404e55017c48f12f45", "is_reserved": 0, "rental_uris": {"android": "https://dc.lft.to/lastmile_qr_scan", "ios": "https://dc.lft.to/lastmile_qr_scan"}, "lat": 38.901498333333336, "is_disabled": 0, "lon": -77.04751266666666}, {"fusion_lat": 0.0, "type": "electric_scooter", "name": "5cef3708f7cb850bab3dc9877530786a", "fusion_lon": 0.0, "bike_id": "5cef3708f7cb850bab3dc9877530786a", "is_reserved": 0, "rental_uris": {"android": "https://dc.lft.to/lastmile_qr_scan", "ios": "https://dc.lft.to/lastmile_qr_scan"}, "lat": 38.918016, "is_disabled": 0, "lon": -77.024946}, {"fusion_lat": 0.0, "type": "electric_scooter", "name": "59686b191f0b2370ed263a84f26445e8", "fusion_lon": 0.0, "bike_id": "59686b191f0b2370ed263a84f26445e8", "is_reserved": 0, "rental_uris": {"android": "https://dc.lft.to/lastmile_qr_scan", "ios": "https://dc.lft.to/lastmile_qr_scan"}, "lat": 38.894534666666665, "is_disabled": 0, "lon": -76.99831533333334}, {"fusion_lat": 0.0, "type": "electric_scooter", "name": "8b59001d91b52bd4ddb537123b2e7ea4", "fusion_lon": 0.0, "bike_id": "8b59001d91b52bd4ddb537123b2e7ea4", "is_reserved": 0, "rental_uris": {"android": "https://dc.lft.to/lastmile_qr_scan", "ios": "https://dc.lft.to/lastmile_qr_scan"}, "lat": 38.89099016666667, "is_disabled": 0, "lon": -77.0028485}, {"fusion_lat": 0.0, "type": "electric_scooter", "name": "ae8ffa6e8a950266273da98624f4ed4e", "fusion_lon": 0.0, "bike_id": "ae8ffa6e8a950266273da98624f4ed4e", "is_reserved": 0, "rental_uris": {"android": "https://dc.lft.to/lastmile_qr_scan", "ios": "https://dc.lft.to/lastmile_qr_scan"}, "lat": 38.919969333333334, "is_disabled": 0, "lon": -77.0220245}, {"fusion_lat": 0.0, "type": "electric_bike", "name": "0aeb6f3714cf6f9e4cfda0d369fb8056", "fusion_lon": 0.0, "bike_id": "0aeb6f3714cf6f9e4cfda0d369fb8056", "is_reserved": 0, "rental_uris": {"android": "https://dc.lft.to/lastmile_qr_scan", "ios": "https://dc.lft.to/lastmile_qr_scan"}, "lat": 38.8955955, "is_disabled": 0, "lon": -77.12728433333334}, {"fusion_lat": 0.0, "type": "electric_scooter", "name": "f4eabb5bcdd50b1411e644f950eb2b11", "fusion_lon": 0.0, "bike_id": "f4eabb5bcdd50b1411e644f950eb2b11", "is_reserved": 0, "rental_uris": {"android": "https://dc.lft.to/lastmile_qr_scan", "ios": "https://dc.lft.to/lastmile_qr_scan"}, "lat": 38.8637595, "is_disabled": 0, "lon": -76.99057366666666}, {"fusion_lat": 0.0, "type": "electric_scooter", "name": "44fcf41c5ed8aa9d16d6c1d126a90616", "fusion_lon": 0.0, "bike_id": "44fcf41c5ed8aa9d16d6c1d126a90616", "is_reserved": 0, "rental_uris": {"android": "https://dc.lft.to/lastmile_qr_scan", "ios": "https://dc.lft.to/lastmile_qr_scan"}, "lat": 38.924624666666666, "is_disabled": 0, "lon": -77.05760683333334}, {"fusion_lat": 0.0, "type": "electric_scooter", "name": "3571e9bda29383d0e08331aba95803d3", "fusion_lon": 0.0, "bike_id": "3571e9bda29383d0e08331aba95803d3", "is_reserved": 0, "rental_uris": {"android": "https://dc.lft.to/lastmile_qr_scan", "ios": "https://dc.lft.to/lastmile_qr_scan"}, "lat": 38.91472366666667, "is_disabled": 0, "lon": -77.03209233333334}, {"fusion_lat": 0.0, "type": "electric_scooter", "name": "a9a5c343ec042cc1084e76712dc3b632", "fusion_lon": 0.0, "bike_id": "a9a5c343ec042cc1084e76712dc3b632", "is_reserved": 0, "rental_uris": {"android": "https://dc.lft.to/lastmile_qr_scan", "ios": "https://dc.lft.to/lastmile_qr_scan"}, "lat": 38.866566, "is_disabled": 0, "lon": -76.9888065}, {"fusion_lat": 0.0, "type": "electric_bike", "name": "68a4a57cb30646b7750faa49834acd80", "fusion_lon": 0.0, "bike_id": "68a4a57cb30646b7750faa49834acd80", "is_reserved": 0, "rental_uris": {"android": "https://dc.lft.to/lastmile_qr_scan", "ios": "https://dc.lft.to/lastmile_qr_scan"}, "lat": 38.99342866666667, "is_disabled": 0, "lon": -77.11576816666667}, {"fusion_lat": 0.0, "type": "electric_scooter", "name": "c1641e9159cefa2457fcd453aa195a3e", "fusion_lon": 0.0, "bike_id": "c1641e9159cefa2457fcd453aa195a3e", "is_reserved": 0, "rental_uris": {"android": "https://dc.lft.to/lastmile_qr_scan", "ios": "https://dc.lft.to/lastmile_qr_scan"}, "lat": 38.891688, "is_disabled": 0, "lon": -77.01540633333333}, {"fusion_lat": 0.0, "type": "electric_scooter", "name": "66d1e8a42903d31b35d4d08a6198d71e", "fusion_lon": 0.0, "bike_id": "66d1e8a42903d31b35d4d08a6198d71e", "is_reserved": 0, "rental_uris": {"android": "https://dc.lft.to/lastmile_qr_scan", "ios": "https://dc.lft.to/lastmile_qr_scan"}, "lat": 38.892953166666665, "is_disabled": 0, "lon": -77.0123035}, {"fusion_lat": 0.0, "type": "electric_scooter", "name": "ce1ffaea74471e2b4cf57d18a49c9f6a", "fusion_lon": 0.0, "bike_id": "ce1ffaea74471e2b4cf57d18a49c9f6a", "is_reserved": 0, "rental_uris": {"android": "https://dc.lft.to/lastmile_qr_scan", "ios": "https://dc.lft.to/lastmile_qr_scan"}, "lat": 38.902474166666664, "is_disabled": 0, "lon": -77.0459895}, {"fusion_lat": 0.0, "type": "electric_scooter", "name": "8d62db7d4a65cff2d3eda8f2fb97bd0e", "fusion_lon": 0.0, "bike_id": "8d62db7d4a65cff2d3eda8f2fb97bd0e", "is_reserved": 0, "rental_uris": {"android": "https://dc.lft.to/lastmile_qr_scan", "ios": "https://dc.lft.to/lastmile_qr_scan"}, "lat": 38.91729083333333, "is_disabled": 0, "lon": -77.04149483333333}, {"fusion_lat": 0.0, "type": "electric_scooter", "name": "e6ce86467fd80cad7d11ef25cef4ed57", "fusion_lon": 0.0, "bike_id": "e6ce86467fd80cad7d11ef25cef4ed57", "is_reserved": 0, "rental_uris": {"android": "https://dc.lft.to/lastmile_qr_scan", "ios": "https://dc.lft.to/lastmile_qr_scan"}, "lat": 38.92995616666666, "is_disabled": 0, "lon": -77.05537033333333}, {"fusion_lat": 0.0, "type": "electric_scooter", "name": "d03c10cf442d5acd28e7aa0a8fefcd6d", "fusion_lon": 0.0, "bike_id": "d03c10cf442d5acd28e7aa0a8fefcd6d", "is_reserved": 0, "rental_uris": {"android": "https://dc.lft.to/lastmile_qr_scan", "ios": "https://dc.lft.to/lastmile_qr_scan"}, "lat": 38.92700966666666, "is_disabled": 0, "lon": -77.04113266666667}, {"fusion_lat": 0.0, "type": "electric_scooter", "name": "35742b2b8e006b388876b4c524e912a1", "fusion_lon": 0.0, "bike_id": "35742b2b8e006b388876b4c524e912a1", "is_reserved": 0, "rental_uris": {"android": "https://dc.lft.to/lastmile_qr_scan", "ios": "https://dc.lft.to/lastmile_qr_scan"}, "lat": 38.91220416666667, "is_disabled": 0, "lon": -77.04506966666666}, {"fusion_lat": 0.0, "type": "electric_scooter", "name": "23c958715f2367c2529f98f849297276", "fusion_lon": 0.0, "bike_id": "23c958715f2367c2529f98f849297276", "is_reserved": 0, "rental_uris": {"android": "https://dc.lft.to/lastmile_qr_scan", "ios": "https://dc.lft.to/lastmile_qr_scan"}, "lat": 38.899889, "is_disabled": 0, "lon": -77.03166116666667}, {"fusion_lat": 0.0, "type": "electric_bike", "name": "641d398430e5ee59ccf78473d79ac7eb", "fusion_lon": 0.0, "bike_id": "641d398430e5ee59ccf78473d79ac7eb", "is_reserved": 0, "rental_uris": {"android": "https://dc.lft.to/lastmile_qr_scan", "ios": "https://dc.lft.to/lastmile_qr_scan"}, "lat": 38.845619, "is_disabled": 0, "lon": -77.06695516666667}, {"fusion_lat": 0.0, "type": "electric_scooter", "name": "16322dcb1de2b22c8298980244aaa9d0", "fusion_lon": 0.0, "bike_id": "16322dcb1de2b22c8298980244aaa9d0", "is_reserved": 0, "rental_uris": {"android": "https://dc.lft.to/lastmile_qr_scan", "ios": "https://dc.lft.to/lastmile_qr_scan"}, "lat": 38.8665325, "is_disabled": 0, "lon": -76.98517933333333}, {"fusion_lat": 0.0, "type": "electric_scooter", "name": "d5e419859d0ed93a2cd2d7e7727bcd1b", "fusion_lon": 0.0, "bike_id": "d5e419859d0ed93a2cd2d7e7727bcd1b", "is_reserved": 0, "rental_uris": {"android": "https://dc.lft.to/lastmile_qr_scan", "ios": "https://dc.lft.to/lastmile_qr_scan"}, "lat": 38.92220116666667, "is_disabled": 0, "lon": -77.042474}, {"fusion_lat": 0.0, "type": "electric_scooter", "name": "22056c2d3e8682cb3f44b55eb88d450f", "fusion_lon": 0.0, "bike_id": "22056c2d3e8682cb3f44b55eb88d450f", "is_reserved": 0, "rental_uris": {"android": "https://dc.lft.to/lastmile_qr_scan", "ios": "https://dc.lft.to/lastmile_qr_scan"}, "lat": 38.91265883333333, "is_disabled": 0, "lon": -77.04741016666667}, {"fusion_lat": 0.0, "type": "electric_scooter", "name": "3e50309999c18a60d7760abc36f47a4d", "fusion_lon": 0.0, "bike_id": "3e50309999c18a60d7760abc36f47a4d", "is_reserved": 0, "rental_uris": {"android": "https://dc.lft.to/lastmile_qr_scan", "ios": "https://dc.lft.to/lastmile_qr_scan"}, "lat": 38.9126035, "is_disabled": 0, "lon": -77.04410166666666}, {"fusion_lat": 0.0, "type": "electric_scooter", "name": "e27e7a5a9d96620cfcafab07c93b3397", "fusion_lon": 0.0, "bike_id": "e27e7a5a9d96620cfcafab07c93b3397", "is_reserved": 0, "rental_uris": {"android": "https://dc.lft.to/lastmile_qr_scan", "ios": "https://dc.lft.to/lastmile_qr_scan"}, "lat": 38.9144145, "is_disabled": 0, "lon": -77.067108}, {"fusion_lat": 0.0, "type": "electric_scooter", "name": "318e7d62d0ad848d1f32e2489c68c43c", "fusion_lon": 0.0, "bike_id": "318e7d62d0ad848d1f32e2489c68c43c", "is_reserved": 0, "rental_uris": {"android": "https://dc.lft.to/lastmile_qr_scan", "ios": "https://dc.lft.to/lastmile_qr_scan"}, "lat": 38.897283333333334, "is_disabled": 0, "lon": -77.054754}, {"fusion_lat": 0.0, "type": "electric_scooter", "name": "252331a1f18c56803df13b3051bba94b", "fusion_lon": 0.0, "bike_id": "252331a1f18c56803df13b3051bba94b", "is_reserved": 0, "rental_uris": {"android": "https://dc.lft.to/lastmile_qr_scan", "ios": "https://dc.lft.to/lastmile_qr_scan"}, "lat": 38.902372666666665, "is_disabled": 0, "lon": -77.04592816666667}, {"fusion_lat": 0.0, "type": "electric_bike", "name": "2f4cb31230eea421b54bf3f9d2ac8f4f", "fusion_lon": 0.0, "bike_id": "2f4cb31230eea421b54bf3f9d2ac8f4f", "is_reserved": 0, "rental_uris": {"android": "https://dc.lft.to/lastmile_qr_scan", "ios": "https://dc.lft.to/lastmile_qr_scan"}, "lat": 39.05790483333333, "is_disabled": 0, "lon": -77.1502265}, {"fusion_lat": 0.0, "type": "electric_scooter", "name": "75a82ae26f44defb206db0cebe1c04ca", "fusion_lon": 0.0, "bike_id": "75a82ae26f44defb206db0cebe1c04ca", "is_reserved": 0, "rental_uris": {"android": "https://dc.lft.to/lastmile_qr_scan", "ios": "https://dc.lft.to/lastmile_qr_scan"}, "lat": 38.93239716666667, "is_disabled": 0, "lon": -77.0295855}, {"fusion_lat": 0.0, "type": "electric_scooter", "name": "65cec70fe336646b0191699d0d62c1f6", "fusion_lon": 0.0, "bike_id": "65cec70fe336646b0191699d0d62c1f6", "is_reserved": 0, "rental_uris": {"android": "https://dc.lft.to/lastmile_qr_scan", "ios": "https://dc.lft.to/lastmile_qr_scan"}, "lat": 38.90853083333333, "is_disabled": 0, "lon": -77.04303883333333}, {"fusion_lat": 0.0, "type": "electric_scooter", "name": "fb7248b555720799a77e33f0e68cdb1f", "fusion_lon": 0.0, "bike_id": "fb7248b555720799a77e33f0e68cdb1f", "is_reserved": 0, "rental_uris": {"android": "https://dc.lft.to/lastmile_qr_scan", "ios": "https://dc.lft.to/lastmile_qr_scan"}, "lat": 38.938578666666665, "is_disabled": 0, "lon": -77.02644283333333}, {"fusion_lat": 0.0, "type": "electric_scooter", "name": "2b0e3b4c6d303ee6ca27673111e734b0", "fusion_lon": 0.0, "bike_id": "2b0e3b4c6d303ee6ca27673111e734b0", "is_reserved": 0, "rental_uris": {"android": "https://dc.lft.to/lastmile_qr_scan", "ios": "https://dc.lft.to/lastmile_qr_scan"}, "lat": 38.903548666666666, "is_disabled": 0, "lon": -77.04335066666667}, {"fusion_lat": 0.0, "type": "electric_scooter", "name": "f5cb66377ea4d3b84dc93994131d8893", "fusion_lon": 0.0, "bike_id": "f5cb66377ea4d3b84dc93994131d8893", "is_reserved": 0, "rental_uris": {"android": "https://dc.lft.to/lastmile_qr_scan", "ios": "https://dc.lft.to/lastmile_qr_scan"}, "lat": 38.911141, "is_disabled": 0, "lon": -77.03583666666667}, {"fusion_lat": 0.0, "type": "electric_scooter", "name": "0780a00834f2ae052dc6046581647461", "fusion_lon": 0.0, "bike_id": "0780a00834f2ae052dc6046581647461", "is_reserved": 0, "rental_uris": {"android": "https://dc.lft.to/lastmile_qr_scan", "ios": "https://dc.lft.to/lastmile_qr_scan"}, "lat": 38.910673333333335, "is_disabled": 0, "lon": -77.04116483333334}, {"fusion_lat": 0.0, "type": "electric_scooter", "name": "6fc6d6a2d4bf9288dbfa3f092b30a31a", "fusion_lon": 0.0, "bike_id": "6fc6d6a2d4bf9288dbfa3f092b30a31a", "is_reserved": 0, "rental_uris": {"android": "https://dc.lft.to/lastmile_qr_scan", "ios": "https://dc.lft.to/lastmile_qr_scan"}, "lat": 38.92445416666666, "is_disabled": 0, "lon": -77.05741216666667}, {"fusion_lat": 0.0, "type": "electric_scooter", "name": "7c77dab0a72a7070322b1a061b3de592", "fusion_lon": 0.0, "bike_id": "7c77dab0a72a7070322b1a061b3de592", "is_reserved": 0, "rental_uris": {"android": "https://dc.lft.to/lastmile_qr_scan", "ios": "https://dc.lft.to/lastmile_qr_scan"}, "lat": 38.9250735, "is_disabled": 0, "lon": -77.036552}, {"fusion_lat": 0.0, "type": "electric_scooter", "name": "c3d47f19eff7aa1fb22de998e23c6659", "fusion_lon": 0.0, "bike_id": "c3d47f19eff7aa1fb22de998e23c6659", "is_reserved": 0, "rental_uris": {"android": "https://dc.lft.to/lastmile_qr_scan", "ios": "https://dc.lft.to/lastmile_qr_scan"}, "lat": 38.91441116666667, "is_disabled": 0, "lon": -77.0121975}, {"fusion_lat": 0.0, "type": "electric_scooter", "name": "ec36143ce7744659a63dd006a12383a8", "fusion_lon": 0.0, "bike_id": "ec36143ce7744659a63dd006a12383a8", "is_reserved": 0, "rental_uris": {"android": "https://dc.lft.to/lastmile_qr_scan", "ios": "https://dc.lft.to/lastmile_qr_scan"}, "lat": 38.89602633333333, "is_disabled": 0, "lon": -77.05039316666667}, {"fusion_lat": 0.0, "type": "electric_scooter", "name": "a18d50276987e5eab3abc37ab27582d1", "fusion_lon": 0.0, "bike_id": "a18d50276987e5eab3abc37ab27582d1", "is_reserved": 0, "rental_uris": {"android": "https://dc.lft.to/lastmile_qr_scan", "ios": "https://dc.lft.to/lastmile_qr_scan"}, "lat": 38.90439766666667, "is_disabled": 0, "lon": -76.9848745}, {"fusion_lat": 0.0, "type": "electric_scooter", "name": "d8d63e9c38acad5844bf56ecaef7caee", "fusion_lon": 0.0, "bike_id": "d8d63e9c38acad5844bf56ecaef7caee", "is_reserved": 0, "rental_uris": {"android": "https://dc.lft.to/lastmile_qr_scan", "ios": "https://dc.lft.to/lastmile_qr_scan"}, "lat": 38.90783666666667, "is_disabled": 0, "lon": -77.03850833333334}, {"fusion_lat": 0.0, "type": "electric_scooter", "name": "476a29f88574aad7a10426990be20fda", "fusion_lon": 0.0, "bike_id": "476a29f88574aad7a10426990be20fda", "is_reserved": 0, "rental_uris": {"android": "https://dc.lft.to/lastmile_qr_scan", "ios": "https://dc.lft.to/lastmile_qr_scan"}, "lat": 38.906922333333334, "is_disabled": 0, "lon": -77.03587116666667}, {"fusion_lat": 0.0, "type": "electric_scooter", "name": "95bf3964e8e7ec4e79d89c3c052a9e82", "fusion_lon": 0.0, "bike_id": "95bf3964e8e7ec4e79d89c3c052a9e82", "is_reserved": 0, "rental_uris": {"android": "https://dc.lft.to/lastmile_qr_scan", "ios": "https://dc.lft.to/lastmile_qr_scan"}, "lat": 38.9491625, "is_disabled": 0, "lon": -77.07883633333333}, {"fusion_lat": 0.0, "type": "electric_bike", "name": "8cefd83cec813a694ff5e9a0fcc59938", "fusion_lon": 0.0, "bike_id": "8cefd83cec813a694ff5e9a0fcc59938", "is_reserved": 0, "rental_uris": {"android": "https://dc.lft.to/lastmile_qr_scan", "ios": "https://dc.lft.to/lastmile_qr_scan"}, "lat": 38.968098166666664, "is_disabled": 0, "lon": -77.07226883333334}, {"fusion_lat": 0.0, "type": "electric_scooter", "name": "6ce1b3781f3d848642d658ba1dd07f7f", "fusion_lon": 0.0, "bike_id": "6ce1b3781f3d848642d658ba1dd07f7f", "is_reserved": 0, "rental_uris": {"android": "https://dc.lft.to/lastmile_qr_scan", "ios": "https://dc.lft.to/lastmile_qr_scan"}, "lat": 38.900398833333334, "is_disabled": 0, "lon": -77.0338225}, {"fusion_lat": 0.0, "type": "electric_scooter", "name": "0a4dd54a7165e91a30600340887d85fd", "fusion_lon": 0.0, "bike_id": "0a4dd54a7165e91a30600340887d85fd", "is_reserved": 0, "rental_uris": {"android": "https://dc.lft.to/lastmile_qr_scan", "ios": "https://dc.lft.to/lastmile_qr_scan"}, "lat": 38.922218, "is_disabled": 0, "lon": -77.0424375}, {"fusion_lat": 0.0, "type": "electric_bike", "name": "af887137258508be9612f91b6aa947aa", "fusion_lon": 0.0, "bike_id": "af887137258508be9612f91b6aa947aa", "is_reserved": 0, "rental_uris": {"android": "https://dc.lft.to/lastmile_qr_scan", "ios": "https://dc.lft.to/lastmile_qr_scan"}, "lat": 38.945155666666665, "is_disabled": 0, "lon": -77.00675616666666}, {"fusion_lat": 0.0, "type": "electric_scooter", "name": "c3f2f4b1e05edce160735fa196f5d0e1", "fusion_lon": 0.0, "bike_id": "c3f2f4b1e05edce160735fa196f5d0e1", "is_reserved": 0, "rental_uris": {"android": "https://dc.lft.to/lastmile_qr_scan", "ios": "https://dc.lft.to/lastmile_qr_scan"}, "lat": 38.92856883333333, "is_disabled": 0, "lon": -77.03596466666667}, {"fusion_lat": 0.0, "type": "electric_scooter", "name": "ef881ce05d33006ffc7311a7124831f4", "fusion_lon": 0.0, "bike_id": "ef881ce05d33006ffc7311a7124831f4", "is_reserved": 0, "rental_uris": {"android": "https://dc.lft.to/lastmile_qr_scan", "ios": "https://dc.lft.to/lastmile_qr_scan"}, "lat": 38.91825716666666, "is_disabled": 0, "lon": -77.045202}, {"fusion_lat": 0.0, "type": "electric_scooter", "name": "88992db0303b86e1c3008452002666ee", "fusion_lon": 0.0, "bike_id": "88992db0303b86e1c3008452002666ee", "is_reserved": 0, "rental_uris": {"android": "https://dc.lft.to/lastmile_qr_scan", "ios": "https://dc.lft.to/lastmile_qr_scan"}, "lat": 38.89349933333333, "is_disabled": 0, "lon": -77.003362}, {"fusion_lat": 0.0, "type": "electric_scooter", "name": "5d91c36be5e853b464d0911e685f19d9", "fusion_lon": 0.0, "bike_id": "5d91c36be5e853b464d0911e685f19d9", "is_reserved": 0, "rental_uris": {"android": "https://dc.lft.to/lastmile_qr_scan", "ios": "https://dc.lft.to/lastmile_qr_scan"}, "lat": 38.957283333333336, "is_disabled": 0, "lon": -77.0240475}, {"fusion_lat": 0.0, "type": "electric_scooter", "name": "07dde67fad75921e39b4336a1e13fa31", "fusion_lon": 0.0, "bike_id": "07dde67fad75921e39b4336a1e13fa31", "is_reserved": 0, "rental_uris": {"android": "https://dc.lft.to/lastmile_qr_scan", "ios": "https://dc.lft.to/lastmile_qr_scan"}, "lat": 38.902941, "is_disabled": 0, "lon": -77.03857083333334}, {"fusion_lat": 0.0, "type": "electric_scooter", "name": "6fb1cc2d0a88ac3856de37d87aef05a5", "fusion_lon": 0.0, "bike_id": "6fb1cc2d0a88ac3856de37d87aef05a5", "is_reserved": 0, "rental_uris": {"android": "https://dc.lft.to/lastmile_qr_scan", "ios": "https://dc.lft.to/lastmile_qr_scan"}, "lat": 38.92271, "is_disabled": 0, "lon": -77.0341275}, {"fusion_lat": 0.0, "type": "electric_scooter", "name": "5a14e5e8c55d58fba1beb3278925dbf4", "fusion_lon": 0.0, "bike_id": "5a14e5e8c55d58fba1beb3278925dbf4", "is_reserved": 0, "rental_uris": {"android": "https://dc.lft.to/lastmile_qr_scan", "ios": "https://dc.lft.to/lastmile_qr_scan"}, "lat": 38.9294155, "is_disabled": 0, "lon": -77.0164175}, {"fusion_lat": 0.0, "type": "electric_scooter", "name": "4bb4f4e949a8a735f15a113e53e2ef56", "fusion_lon": 0.0, "bike_id": "4bb4f4e949a8a735f15a113e53e2ef56", "is_reserved": 0, "rental_uris": {"android": "https://dc.lft.to/lastmile_qr_scan", "ios": "https://dc.lft.to/lastmile_qr_scan"}, "lat": 38.88722716666667, "is_disabled": 0, "lon": -77.0217715}, {"fusion_lat": 0.0, "type": "electric_scooter", "name": "da1143a5663379da500da19faaf266e2", "fusion_lon": 0.0, "bike_id": "da1143a5663379da500da19faaf266e2", "is_reserved": 0, "rental_uris": {"android": "https://dc.lft.to/lastmile_qr_scan", "ios": "https://dc.lft.to/lastmile_qr_scan"}, "lat": 38.91807166666667, "is_disabled": 0, "lon": -77.03374083333334}, {"fusion_lat": 0.0, "type": "electric_scooter", "name": "71540d9d4ab31645ebec641de23b6544", "fusion_lon": 0.0, "bike_id": "71540d9d4ab31645ebec641de23b6544", "is_reserved": 0, "rental_uris": {"android": "https://dc.lft.to/lastmile_qr_scan", "ios": "https://dc.lft.to/lastmile_qr_scan"}, "lat": 38.90084866666667, "is_disabled": 0, "lon": -76.93872666666667}, {"fusion_lat": 0.0, "type": "electric_scooter", "name": "57a829bcbdde3523bef4c4a7a309a6e2", "fusion_lon": 0.0, "bike_id": "57a829bcbdde3523bef4c4a7a309a6e2", "is_reserved": 0, "rental_uris": {"android": "https://dc.lft.to/lastmile_qr_scan", "ios": "https://dc.lft.to/lastmile_qr_scan"}, "lat": 38.905006, "is_disabled": 0, "lon": -77.04653633333334}, {"fusion_lat": 0.0, "type": "electric_scooter", "name": "a011654ace64cdc9e862804280a07875", "fusion_lon": 0.0, "bike_id": "a011654ace64cdc9e862804280a07875", "is_reserved": 0, "rental_uris": {"android": "https://dc.lft.to/lastmile_qr_scan", "ios": "https://dc.lft.to/lastmile_qr_scan"}, "lat": 38.9141175, "is_disabled": 0, "lon": -77.04555816666667}, {"fusion_lat": 0.0, "type": "electric_scooter", "name": "045b576a9b1a4535c14596b7c60222b7", "fusion_lon": 0.0, "bike_id": "045b576a9b1a4535c14596b7c60222b7", "is_reserved": 0, "rental_uris": {"android": "https://dc.lft.to/lastmile_qr_scan", "ios": "https://dc.lft.to/lastmile_qr_scan"}, "lat": 38.920464333333335, "is_disabled": 0, "lon": -76.99571533333334}, {"fusion_lat": 0.0, "type": "electric_scooter", "name": "59344916c777c153d5638fb8eb12a6a4", "fusion_lon": 0.0, "bike_id": "59344916c777c153d5638fb8eb12a6a4", "is_reserved": 0, "rental_uris": {"android": "https://dc.lft.to/lastmile_qr_scan", "ios": "https://dc.lft.to/lastmile_qr_scan"}, "lat": 38.93606916666667, "is_disabled": 0, "lon": -77.08177066666667}, {"fusion_lat": 0.0, "type": "electric_scooter", "name": "89dcbba4d2798da5c09c7d2a8d45106c", "fusion_lon": 0.0, "bike_id": "89dcbba4d2798da5c09c7d2a8d45106c", "is_reserved": 0, "rental_uris": {"android": "https://dc.lft.to/lastmile_qr_scan", "ios": "https://dc.lft.to/lastmile_qr_scan"}, "lat": 38.90036116666667, "is_disabled": 0, "lon": -76.98825116666667}, {"fusion_lat": 0.0, "type": "electric_scooter", "name": "f949b1e6b4b28413d3cf1aa885d3a327", "fusion_lon": 0.0, "bike_id": "f949b1e6b4b28413d3cf1aa885d3a327", "is_reserved": 0, "rental_uris": {"android": "https://dc.lft.to/lastmile_qr_scan", "ios": "https://dc.lft.to/lastmile_qr_scan"}, "lat": 38.924403, "is_disabled": 0, "lon": -77.02137883333333}, {"fusion_lat": 0.0, "type": "electric_scooter", "name": "e094225ecd161f4d330321fc511f5443", "fusion_lon": 0.0, "bike_id": "e094225ecd161f4d330321fc511f5443", "is_reserved": 0, "rental_uris": {"android": "https://dc.lft.to/lastmile_qr_scan", "ios": "https://dc.lft.to/lastmile_qr_scan"}, "lat": 38.89185416666667, "is_disabled": 0, "lon": -77.0363635}, {"fusion_lat": 0.0, "type": "electric_bike", "name": "015f48fe92d26621a342bc12f1f24c5e", "fusion_lon": 0.0, "bike_id": "015f48fe92d26621a342bc12f1f24c5e", "is_reserved": 0, "rental_uris": {"android": "https://dc.lft.to/lastmile_qr_scan", "ios": "https://dc.lft.to/lastmile_qr_scan"}, "lat": 38.9963425, "is_disabled": 0, "lon": -77.03988533333333}, {"fusion_lat": 0.0, "type": "electric_scooter", "name": "d318ab634748f2fd33068c62e973b5d5", "fusion_lon": 0.0, "bike_id": "d318ab634748f2fd33068c62e973b5d5", "is_reserved": 0, "rental_uris": {"android": "https://dc.lft.to/lastmile_qr_scan", "ios": "https://dc.lft.to/lastmile_qr_scan"}, "lat": 38.897127833333336, "is_disabled": 0, "lon": -77.03076083333333}, {"fusion_lat": 0.0, "type": "electric_scooter", "name": "f6b5e7080f66d432e55b840b99a6987f", "fusion_lon": 0.0, "bike_id": "f6b5e7080f66d432e55b840b99a6987f", "is_reserved": 0, "rental_uris": {"android": "https://dc.lft.to/lastmile_qr_scan", "ios": "https://dc.lft.to/lastmile_qr_scan"}, "lat": 38.8876815, "is_disabled": 0, "lon": -76.95574783333333}, {"fusion_lat": 0.0, "type": "electric_scooter", "name": "0e6f8bdb3bb85e2b9c49b99257c10c78", "fusion_lon": 0.0, "bike_id": "0e6f8bdb3bb85e2b9c49b99257c10c78", "is_reserved": 0, "rental_uris": {"android": "https://dc.lft.to/lastmile_qr_scan", "ios": "https://dc.lft.to/lastmile_qr_scan"}, "lat": 38.93534, "is_disabled": 0, "lon": -77.05826283333333}, {"fusion_lat": 0.0, "type": "electric_scooter", "name": "5a5bdcf640a7852b041209e11a888355", "fusion_lon": 0.0, "bike_id": "5a5bdcf640a7852b041209e11a888355", "is_reserved": 0, "rental_uris": {"android": "https://dc.lft.to/lastmile_qr_scan", "ios": "https://dc.lft.to/lastmile_qr_scan"}, "lat": 38.91471333333333, "is_disabled": 0, "lon": -77.03205233333334}, {"fusion_lat": 0.0, "type": "electric_scooter", "name": "0e2f17a17918b6ea9d7510c2cdd4c052", "fusion_lon": 0.0, "bike_id": "0e2f17a17918b6ea9d7510c2cdd4c052", "is_reserved": 0, "rental_uris": {"android": "https://dc.lft.to/lastmile_qr_scan", "ios": "https://dc.lft.to/lastmile_qr_scan"}, "lat": 38.90551766666667, "is_disabled": 0, "lon": -77.0426765}, {"fusion_lat": 0.0, "type": "electric_scooter", "name": "1d3abaf0d09f2f55a33c67b130eb67a4", "fusion_lon": 0.0, "bike_id": "1d3abaf0d09f2f55a33c67b130eb67a4", "is_reserved": 0, "rental_uris": {"android": "https://dc.lft.to/lastmile_qr_scan", "ios": "https://dc.lft.to/lastmile_qr_scan"}, "lat": 38.8949525, "is_disabled": 0, "lon": -77.00945316666666}, {"fusion_lat": 0.0, "type": "electric_scooter", "name": "f2f4c72c8c0b74e24985b0a189602b8e", "fusion_lon": 0.0, "bike_id": "f2f4c72c8c0b74e24985b0a189602b8e", "is_reserved": 0, "rental_uris": {"android": "https://dc.lft.to/lastmile_qr_scan", "ios": "https://dc.lft.to/lastmile_qr_scan"}, "lat": 38.9256665, "is_disabled": 0, "lon": -77.02845216666667}, {"fusion_lat": 0.0, "type": "electric_scooter", "name": "9c070ff26f3cb5b6afdb6549d64b0a0f", "fusion_lon": 0.0, "bike_id": "9c070ff26f3cb5b6afdb6549d64b0a0f", "is_reserved": 0, "rental_uris": {"android": "https://dc.lft.to/lastmile_qr_scan", "ios": "https://dc.lft.to/lastmile_qr_scan"}, "lat": 38.900816166666665, "is_disabled": 0, "lon": -76.9936495}, {"fusion_lat": 0.0, "type": "electric_scooter", "name": "8bf9b635c2b9b01d909d3f60da9ef2a3", "fusion_lon": 0.0, "bike_id": "8bf9b635c2b9b01d909d3f60da9ef2a3", "is_reserved": 0, "rental_uris": {"android": "https://dc.lft.to/lastmile_qr_scan", "ios": "https://dc.lft.to/lastmile_qr_scan"}, "lat": 38.91799183333333, "is_disabled": 0, "lon": -77.02487916666666}, {"fusion_lat": 0.0, "type": "electric_scooter", "name": "944d87a4a3ee4731510153778a9f0dd2", "fusion_lon": 0.0, "bike_id": "944d87a4a3ee4731510153778a9f0dd2", "is_reserved": 0, "rental_uris": {"android": "https://dc.lft.to/lastmile_qr_scan", "ios": "https://dc.lft.to/lastmile_qr_scan"}, "lat": 38.941814666666666, "is_disabled": 0, "lon": -77.02534766666666}, {"fusion_lat": 0.0, "type": "electric_scooter", "name": "daf1c73912696ae72d8ec6001e0e06d1", "fusion_lon": 0.0, "bike_id": "daf1c73912696ae72d8ec6001e0e06d1", "is_reserved": 0, "rental_uris": {"android": "https://dc.lft.to/lastmile_qr_scan", "ios": "https://dc.lft.to/lastmile_qr_scan"}, "lat": 38.90809183333333, "is_disabled": 0, "lon": -77.038545}, {"fusion_lat": 0.0, "type": "electric_scooter", "name": "a9267ddbe13cf152e104e248f1a9e4a2", "fusion_lon": 0.0, "bike_id": "a9267ddbe13cf152e104e248f1a9e4a2", "is_reserved": 0, "rental_uris": {"android": "https://dc.lft.to/lastmile_qr_scan", "ios": "https://dc.lft.to/lastmile_qr_scan"}, "lat": 38.926093, "is_disabled": 0, "lon": -77.02161216666667}, {"fusion_lat": 0.0, "type": "electric_scooter", "name": "9e9f77e587c75d60a1f59b5e2feafd61", "fusion_lon": 0.0, "bike_id": "9e9f77e587c75d60a1f59b5e2feafd61", "is_reserved": 0, "rental_uris": {"android": "https://dc.lft.to/lastmile_qr_scan", "ios": "https://dc.lft.to/lastmile_qr_scan"}, "lat": 38.891933333333334, "is_disabled": 0, "lon": -77.02624083333333}, {"fusion_lat": 0.0, "type": "electric_scooter", "name": "542a46eaa54f9c8ed394c622bcd9dafd", "fusion_lon": 0.0, "bike_id": "542a46eaa54f9c8ed394c622bcd9dafd", "is_reserved": 0, "rental_uris": {"android": "https://dc.lft.to/lastmile_qr_scan", "ios": "https://dc.lft.to/lastmile_qr_scan"}, "lat": 38.917205333333335, "is_disabled": 0, "lon": -77.02967016666666}, {"fusion_lat": 0.0, "type": "electric_scooter", "name": "ef32c6a3c895f433c854b97c1ad8ea92", "fusion_lon": 0.0, "bike_id": "ef32c6a3c895f433c854b97c1ad8ea92", "is_reserved": 0, "rental_uris": {"android": "https://dc.lft.to/lastmile_qr_scan", "ios": "https://dc.lft.to/lastmile_qr_scan"}, "lat": 38.923773, "is_disabled": 0, "lon": -77.01926666666667}, {"fusion_lat": 0.0, "type": "electric_bike", "name": "156b179904e1ceb9627bc4d49e41a290", "fusion_lon": 0.0, "bike_id": "156b179904e1ceb9627bc4d49e41a290", "is_reserved": 0, "rental_uris": {"android": "https://dc.lft.to/lastmile_qr_scan", "ios": "https://dc.lft.to/lastmile_qr_scan"}, "lat": 38.9673655, "is_disabled": 0, "lon": -76.96049366666666}, {"fusion_lat": 0.0, "type": "electric_scooter", "name": "b7edae24625b66d84ae74c80e7497dc5", "fusion_lon": 0.0, "bike_id": "b7edae24625b66d84ae74c80e7497dc5", "is_reserved": 0, "rental_uris": {"android": "https://dc.lft.to/lastmile_qr_scan", "ios": "https://dc.lft.to/lastmile_qr_scan"}, "lat": 38.919490333333336, "is_disabled": 0, "lon": -76.98076966666666}, {"fusion_lat": 0.0, "type": "electric_scooter", "name": "aee4f47d32f9efe71fbaf47e7e118a0f", "fusion_lon": 0.0, "bike_id": "aee4f47d32f9efe71fbaf47e7e118a0f", "is_reserved": 0, "rental_uris": {"android": "https://dc.lft.to/lastmile_qr_scan", "ios": "https://dc.lft.to/lastmile_qr_scan"}, "lat": 38.935221, "is_disabled": 0, "lon": -77.07280183333333}, {"fusion_lat": 0.0, "type": "electric_scooter", "name": "1e022bfc933b43378aa8e78761e6bb3a", "fusion_lon": 0.0, "bike_id": "1e022bfc933b43378aa8e78761e6bb3a", "is_reserved": 0, "rental_uris": {"android": "https://dc.lft.to/lastmile_qr_scan", "ios": "https://dc.lft.to/lastmile_qr_scan"}, "lat": 38.91487983333333, "is_disabled": 0, "lon": -77.04401233333333}, {"fusion_lat": 0.0, "type": "electric_scooter", "name": "d9fc978ef253314bc835c15f22156c4b", "fusion_lon": 0.0, "bike_id": "d9fc978ef253314bc835c15f22156c4b", "is_reserved": 0, "rental_uris": {"android": "https://dc.lft.to/lastmile_qr_scan", "ios": "https://dc.lft.to/lastmile_qr_scan"}, "lat": 38.906187, "is_disabled": 0, "lon": -77.04153883333333}, {"fusion_lat": 0.0, "type": "electric_scooter", "name": "065460c8df7162c0fc07030f2e0ce579", "fusion_lon": 0.0, "bike_id": "065460c8df7162c0fc07030f2e0ce579", "is_reserved": 0, "rental_uris": {"android": "https://dc.lft.to/lastmile_qr_scan", "ios": "https://dc.lft.to/lastmile_qr_scan"}, "lat": 38.905534, "is_disabled": 0, "lon": -77.0469175}, {"fusion_lat": 0.0, "type": "electric_scooter", "name": "7acd857c55e3ce228568ae018d886fbc", "fusion_lon": 0.0, "bike_id": "7acd857c55e3ce228568ae018d886fbc", "is_reserved": 0, "rental_uris": {"android": "https://dc.lft.to/lastmile_qr_scan", "ios": "https://dc.lft.to/lastmile_qr_scan"}, "lat": 38.90858016666667, "is_disabled": 0, "lon": -77.04269083333334}, {"fusion_lat": 0.0, "type": "electric_scooter", "name": "a6f89cfceca5815f81508f7aacc8d61c", "fusion_lon": 0.0, "bike_id": "a6f89cfceca5815f81508f7aacc8d61c", "is_reserved": 0, "rental_uris": {"android": "https://dc.lft.to/lastmile_qr_scan", "ios": "https://dc.lft.to/lastmile_qr_scan"}, "lat": 38.93143666666667, "is_disabled": 0, "lon": -77.01914883333333}, {"fusion_lat": 0.0, "type": "electric_scooter", "name": "34b3729364a525d7d8ed3d516dd7646e", "fusion_lon": 0.0, "bike_id": "34b3729364a525d7d8ed3d516dd7646e", "is_reserved": 0, "rental_uris": {"android": "https://dc.lft.to/lastmile_qr_scan", "ios": "https://dc.lft.to/lastmile_qr_scan"}, "lat": 38.886028833333334, "is_disabled": 0, "lon": -76.99511683333333}, {"fusion_lat": 0.0, "type": "electric_scooter", "name": "311cb600636c0437ae889d76ad728934", "fusion_lon": 0.0, "bike_id": "311cb600636c0437ae889d76ad728934", "is_reserved": 0, "rental_uris": {"android": "https://dc.lft.to/lastmile_qr_scan", "ios": "https://dc.lft.to/lastmile_qr_scan"}, "lat": 38.9249015, "is_disabled": 0, "lon": -77.0318855}, {"fusion_lat": 0.0, "type": "electric_bike", "name": "32236341b92a50664cb17d02b75846e5", "fusion_lon": 0.0, "bike_id": "32236341b92a50664cb17d02b75846e5", "is_reserved": 0, "rental_uris": {"android": "https://dc.lft.to/lastmile_qr_scan", "ios": "https://dc.lft.to/lastmile_qr_scan"}, "lat": 38.8965165, "is_disabled": 0, "lon": -76.93010666666666}, {"fusion_lat": 0.0, "type": "electric_scooter", "name": "caeac4fea2030ef07ed0b149433a4b9d", "fusion_lon": 0.0, "bike_id": "caeac4fea2030ef07ed0b149433a4b9d", "is_reserved": 0, "rental_uris": {"android": "https://dc.lft.to/lastmile_qr_scan", "ios": "https://dc.lft.to/lastmile_qr_scan"}, "lat": 38.908180333333334, "is_disabled": 0, "lon": -77.0395595}, {"fusion_lat": 0.0, "type": "electric_scooter", "name": "ffb9e941ef6e81246f022ea97be2438b", "fusion_lon": 0.0, "bike_id": "ffb9e941ef6e81246f022ea97be2438b", "is_reserved": 0, "rental_uris": {"android": "https://dc.lft.to/lastmile_qr_scan", "ios": "https://dc.lft.to/lastmile_qr_scan"}, "lat": 38.924360666666665, "is_disabled": 0, "lon": -77.03993633333333}, {"fusion_lat": 0.0, "type": "electric_scooter", "name": "cdb403561f3bfc50601626374c3da974", "fusion_lon": 0.0, "bike_id": "cdb403561f3bfc50601626374c3da974", "is_reserved": 0, "rental_uris": {"android": "https://dc.lft.to/lastmile_qr_scan", "ios": "https://dc.lft.to/lastmile_qr_scan"}, "lat": 38.93607766666667, "is_disabled": 0, "lon": -77.02916783333333}, {"fusion_lat": 0.0, "type": "electric_bike", "name": "0e2420515fb338978876b726291c6d2b", "fusion_lon": 0.0, "bike_id": "0e2420515fb338978876b726291c6d2b", "is_reserved": 0, "rental_uris": {"android": "https://dc.lft.to/lastmile_qr_scan", "ios": "https://dc.lft.to/lastmile_qr_scan"}, "lat": 38.929814666666665, "is_disabled": 0, "lon": -77.03286216666666}, {"fusion_lat": 0.0, "type": "electric_scooter", "name": "ccb36f2426a9c34b9a1e41524e420a67", "fusion_lon": 0.0, "bike_id": "ccb36f2426a9c34b9a1e41524e420a67", "is_reserved": 0, "rental_uris": {"android": "https://dc.lft.to/lastmile_qr_scan", "ios": "https://dc.lft.to/lastmile_qr_scan"}, "lat": 38.8919255, "is_disabled": 0, "lon": -77.02623216666667}, {"fusion_lat": 0.0, "type": "electric_scooter", "name": "49bb8597e042376b3c6c2d38461f438c", "fusion_lon": 0.0, "bike_id": "49bb8597e042376b3c6c2d38461f438c", "is_reserved": 0, "rental_uris": {"android": "https://dc.lft.to/lastmile_qr_scan", "ios": "https://dc.lft.to/lastmile_qr_scan"}, "lat": 38.902828166666666, "is_disabled": 0, "lon": -77.03341333333333}, {"fusion_lat": 0.0, "type": "electric_scooter", "name": "f5af847284ef600929306672cbbd8581", "fusion_lon": 0.0, "bike_id": "f5af847284ef600929306672cbbd8581", "is_reserved": 0, "rental_uris": {"android": "https://dc.lft.to/lastmile_qr_scan", "ios": "https://dc.lft.to/lastmile_qr_scan"}, "lat": 38.91911866666667, "is_disabled": 0, "lon": -77.04466166666667}, {"fusion_lat": 0.0, "type": "electric_scooter", "name": "99f88fdd437e1c24258912d9c9f2888a", "fusion_lon": 0.0, "bike_id": "99f88fdd437e1c24258912d9c9f2888a", "is_reserved": 0, "rental_uris": {"android": "https://dc.lft.to/lastmile_qr_scan", "ios": "https://dc.lft.to/lastmile_qr_scan"}, "lat": 38.905714, "is_disabled": 0, "lon": -77.034455}, {"fusion_lat": 0.0, "type": "electric_scooter", "name": "16e65831a6d3933f30dbd469369c002e", "fusion_lon": 0.0, "bike_id": "16e65831a6d3933f30dbd469369c002e", "is_reserved": 0, "rental_uris": {"android": "https://dc.lft.to/lastmile_qr_scan", "ios": "https://dc.lft.to/lastmile_qr_scan"}, "lat": 38.84422966666666, "is_disabled": 0, "lon": -76.997754}, {"fusion_lat": 0.0, "type": "electric_scooter", "name": "6e72ccfc690696660c4426b7a80ede1c", "fusion_lon": 0.0, "bike_id": "6e72ccfc690696660c4426b7a80ede1c", "is_reserved": 0, "rental_uris": {"android": "https://dc.lft.to/lastmile_qr_scan", "ios": "https://dc.lft.to/lastmile_qr_scan"}, "lat": 38.91814866666667, "is_disabled": 0, "lon": -77.030239}, {"fusion_lat": 0.0, "type": "electric_scooter", "name": "5458480e9cfd913c62bcb4b96d413727", "fusion_lon": 0.0, "bike_id": "5458480e9cfd913c62bcb4b96d413727", "is_reserved": 0, "rental_uris": {"android": "https://dc.lft.to/lastmile_qr_scan", "ios": "https://dc.lft.to/lastmile_qr_scan"}, "lat": 38.94114916666667, "is_disabled": 0, "lon": -77.01542016666667}, {"fusion_lat": 0.0, "type": "electric_scooter", "name": "dbf9fc36d98f9eb905e8665d0212dc86", "fusion_lon": 0.0, "bike_id": "dbf9fc36d98f9eb905e8665d0212dc86", "is_reserved": 0, "rental_uris": {"android": "https://dc.lft.to/lastmile_qr_scan", "ios": "https://dc.lft.to/lastmile_qr_scan"}, "lat": 38.83699266666667, "is_disabled": 0, "lon": -77.00565216666666}, {"fusion_lat": 0.0, "type": "electric_scooter", "name": "98c35b68fb5022b293d5e3388fd34d67", "fusion_lon": 0.0, "bike_id": "98c35b68fb5022b293d5e3388fd34d67", "is_reserved": 0, "rental_uris": {"android": "https://dc.lft.to/lastmile_qr_scan", "ios": "https://dc.lft.to/lastmile_qr_scan"}, "lat": 38.905158666666665, "is_disabled": 0, "lon": -77.06132966666667}, {"fusion_lat": 0.0, "type": "electric_scooter", "name": "74db993f8ebb8a87822df0bd0962dcc5", "fusion_lon": 0.0, "bike_id": "74db993f8ebb8a87822df0bd0962dcc5", "is_reserved": 0, "rental_uris": {"android": "https://dc.lft.to/lastmile_qr_scan", "ios": "https://dc.lft.to/lastmile_qr_scan"}, "lat": 38.90968016666667, "is_disabled": 0, "lon": -77.03266083333334}, {"fusion_lat": 0.0, "type": "electric_scooter", "name": "2bac235acf6fa0976e8a3e1bcf515811", "fusion_lon": 0.0, "bike_id": "2bac235acf6fa0976e8a3e1bcf515811", "is_reserved": 0, "rental_uris": {"android": "https://dc.lft.to/lastmile_qr_scan", "ios": "https://dc.lft.to/lastmile_qr_scan"}, "lat": 38.9373315, "is_disabled": 0, "lon": -77.03617716666666}, {"fusion_lat": 0.0, "type": "electric_scooter", "name": "c81d8f7af9e880b52238f996722a9d97", "fusion_lon": 0.0, "bike_id": "c81d8f7af9e880b52238f996722a9d97", "is_reserved": 0, "rental_uris": {"android": "https://dc.lft.to/lastmile_qr_scan", "ios": "https://dc.lft.to/lastmile_qr_scan"}, "lat": 38.96717533333333, "is_disabled": 0, "lon": -77.01857966666667}, {"fusion_lat": 0.0, "type": "electric_scooter", "name": "2229ba132713eaff674422acb3b74393", "fusion_lon": 0.0, "bike_id": "2229ba132713eaff674422acb3b74393", "is_reserved": 0, "rental_uris": {"android": "https://dc.lft.to/lastmile_qr_scan", "ios": "https://dc.lft.to/lastmile_qr_scan"}, "lat": 38.906489666666666, "is_disabled": 0, "lon": -77.04813633333333}, {"fusion_lat": 0.0, "type": "electric_scooter", "name": "6542b6674b5f86bd3c2d599fca2ee327", "fusion_lon": 0.0, "bike_id": "6542b6674b5f86bd3c2d599fca2ee327", "is_reserved": 0, "rental_uris": {"android": "https://dc.lft.to/lastmile_qr_scan", "ios": "https://dc.lft.to/lastmile_qr_scan"}, "lat": 38.892458, "is_disabled": 0, "lon": -77.01725533333334}, {"fusion_lat": 0.0, "type": "electric_scooter", "name": "fc10a4e378c061f0f4836fcb3ad54354", "fusion_lon": 0.0, "bike_id": "fc10a4e378c061f0f4836fcb3ad54354", "is_reserved": 0, "rental_uris": {"android": "https://dc.lft.to/lastmile_qr_scan", "ios": "https://dc.lft.to/lastmile_qr_scan"}, "lat": 38.94086316666667, "is_disabled": 0, "lon": -77.02724283333333}, {"fusion_lat": 0.0, "type": "electric_scooter", "name": "9fcb2188fa51d5d829fcdc763623b021", "fusion_lon": 0.0, "bike_id": "9fcb2188fa51d5d829fcdc763623b021", "is_reserved": 0, "rental_uris": {"android": "https://dc.lft.to/lastmile_qr_scan", "ios": "https://dc.lft.to/lastmile_qr_scan"}, "lat": 38.900195833333335, "is_disabled": 0, "lon": -76.999525}, {"fusion_lat": 0.0, "type": "electric_scooter", "name": "5a28dead6117d71f32ac960fc7ce5ed3", "fusion_lon": 0.0, "bike_id": "5a28dead6117d71f32ac960fc7ce5ed3", "is_reserved": 0, "rental_uris": {"android": "https://dc.lft.to/lastmile_qr_scan", "ios": "https://dc.lft.to/lastmile_qr_scan"}, "lat": 38.917676, "is_disabled": 0, "lon": -77.023047}, {"fusion_lat": 0.0, "type": "electric_scooter", "name": "56d8a34f6b061fd16dcf75670123c91a", "fusion_lon": 0.0, "bike_id": "56d8a34f6b061fd16dcf75670123c91a", "is_reserved": 0, "rental_uris": {"android": "https://dc.lft.to/lastmile_qr_scan", "ios": "https://dc.lft.to/lastmile_qr_scan"}, "lat": 38.893512333333334, "is_disabled": 0, "lon": -77.003355}, {"fusion_lat": 0.0, "type": "electric_scooter", "name": "a492b6d17ed4ffe2e52418a8b7fd7b2a", "fusion_lon": 0.0, "bike_id": "a492b6d17ed4ffe2e52418a8b7fd7b2a", "is_reserved": 0, "rental_uris": {"android": "https://dc.lft.to/lastmile_qr_scan", "ios": "https://dc.lft.to/lastmile_qr_scan"}, "lat": 38.90782166666666, "is_disabled": 0, "lon": -77.0386245}, {"fusion_lat": 0.0, "type": "electric_scooter", "name": "0821c2ad8ccda456f3478ac16318ab20", "fusion_lon": 0.0, "bike_id": "0821c2ad8ccda456f3478ac16318ab20", "is_reserved": 0, "rental_uris": {"android": "https://dc.lft.to/lastmile_qr_scan", "ios": "https://dc.lft.to/lastmile_qr_scan"}, "lat": 38.927662166666664, "is_disabled": 0, "lon": -77.02789666666666}, {"fusion_lat": 0.0, "type": "electric_scooter", "name": "48d2be68cc941f0eda1266a603d15e06", "fusion_lon": 0.0, "bike_id": "48d2be68cc941f0eda1266a603d15e06", "is_reserved": 0, "rental_uris": {"android": "https://dc.lft.to/lastmile_qr_scan", "ios": "https://dc.lft.to/lastmile_qr_scan"}, "lat": 38.95337216666667, "is_disabled": 0, "lon": -76.99976433333333}, {"fusion_lat": 0.0, "type": "electric_scooter", "name": "d4e36a4905325ac89f1ff25cee3b48ee", "fusion_lon": 0.0, "bike_id": "d4e36a4905325ac89f1ff25cee3b48ee", "is_reserved": 0, "rental_uris": {"android": "https://dc.lft.to/lastmile_qr_scan", "ios": "https://dc.lft.to/lastmile_qr_scan"}, "lat": 38.91293816666666, "is_disabled": 0, "lon": -77.04549616666667}, {"fusion_lat": 0.0, "type": "electric_bike", "name": "92dd0a203732a85115e6ba2f2ed5e704", "fusion_lon": 0.0, "bike_id": "92dd0a203732a85115e6ba2f2ed5e704", "is_reserved": 0, "rental_uris": {"android": "https://dc.lft.to/lastmile_qr_scan", "ios": "https://dc.lft.to/lastmile_qr_scan"}, "lat": 38.88855433333333, "is_disabled": 0, "lon": -77.08147216666667}, {"fusion_lat": 0.0, "type": "electric_scooter", "name": "8be305ef2ae80e4e7d80637403a062f3", "fusion_lon": 0.0, "bike_id": "8be305ef2ae80e4e7d80637403a062f3", "is_reserved": 0, "rental_uris": {"android": "https://dc.lft.to/lastmile_qr_scan", "ios": "https://dc.lft.to/lastmile_qr_scan"}, "lat": 38.902649833333335, "is_disabled": 0, "lon": -77.03450583333333}, {"fusion_lat": 0.0, "type": "electric_scooter", "name": "8e7d23f0eb4d65c0fe5717c9e5c8668f", "fusion_lon": 0.0, "bike_id": "8e7d23f0eb4d65c0fe5717c9e5c8668f", "is_reserved": 0, "rental_uris": {"android": "https://dc.lft.to/lastmile_qr_scan", "ios": "https://dc.lft.to/lastmile_qr_scan"}, "lat": 38.9020365, "is_disabled": 0, "lon": -77.0483505}, {"fusion_lat": 0.0, "type": "electric_scooter", "name": "bc859c4e38592b7df44c3e556af1227a", "fusion_lon": 0.0, "bike_id": "bc859c4e38592b7df44c3e556af1227a", "is_reserved": 0, "rental_uris": {"android": "https://dc.lft.to/lastmile_qr_scan", "ios": "https://dc.lft.to/lastmile_qr_scan"}, "lat": 38.93363433333333, "is_disabled": 0, "lon": -77.05737066666667}, {"fusion_lat": 0.0, "type": "electric_scooter", "name": "99ecbe0db5fdebcabf10bdcc81634821", "fusion_lon": 0.0, "bike_id": "99ecbe0db5fdebcabf10bdcc81634821", "is_reserved": 0, "rental_uris": {"android": "https://dc.lft.to/lastmile_qr_scan", "ios": "https://dc.lft.to/lastmile_qr_scan"}, "lat": 38.9141375, "is_disabled": 0, "lon": -77.02213316666666}, {"fusion_lat": 0.0, "type": "electric_scooter", "name": "908065ae95fdb7655196fd8f4758df19", "fusion_lon": 0.0, "bike_id": "908065ae95fdb7655196fd8f4758df19", "is_reserved": 0, "rental_uris": {"android": "https://dc.lft.to/lastmile_qr_scan", "ios": "https://dc.lft.to/lastmile_qr_scan"}, "lat": 38.89169066666667, "is_disabled": 0, "lon": -77.0153725}, {"fusion_lat": 0.0, "type": "electric_scooter", "name": "ff3c1501867f177eb08aef1d9fe0be81", "fusion_lon": 0.0, "bike_id": "ff3c1501867f177eb08aef1d9fe0be81", "is_reserved": 0, "rental_uris": {"android": "https://dc.lft.to/lastmile_qr_scan", "ios": "https://dc.lft.to/lastmile_qr_scan"}, "lat": 38.89963083333333, "is_disabled": 0, "lon": -77.04575216666667}, {"fusion_lat": 0.0, "type": "electric_scooter", "name": "1b99c2732d2de5ef86294321c8225d2d", "fusion_lon": 0.0, "bike_id": "1b99c2732d2de5ef86294321c8225d2d", "is_reserved": 0, "rental_uris": {"android": "https://dc.lft.to/lastmile_qr_scan", "ios": "https://dc.lft.to/lastmile_qr_scan"}, "lat": 38.876852666666665, "is_disabled": 0, "lon": -77.00410383333333}, {"fusion_lat": 0.0, "type": "electric_scooter", "name": "234c79c6b3a8d599324cc7d3bea8848b", "fusion_lon": 0.0, "bike_id": "234c79c6b3a8d599324cc7d3bea8848b", "is_reserved": 0, "rental_uris": {"android": "https://dc.lft.to/lastmile_qr_scan", "ios": "https://dc.lft.to/lastmile_qr_scan"}, "lat": 38.88556283333333, "is_disabled": 0, "lon": -76.99807766666666}, {"fusion_lat": 0.0, "type": "electric_scooter", "name": "01369dbb01c9cdab0049a3f7909d3adc", "fusion_lon": 0.0, "bike_id": "01369dbb01c9cdab0049a3f7909d3adc", "is_reserved": 0, "rental_uris": {"android": "https://dc.lft.to/lastmile_qr_scan", "ios": "https://dc.lft.to/lastmile_qr_scan"}, "lat": 38.929080666666664, "is_disabled": 0, "lon": -77.03751333333334}, {"fusion_lat": 0.0, "type": "electric_scooter", "name": "1ec54729e1d3e3b34c61b22b3cb4e24a", "fusion_lon": 0.0, "bike_id": "1ec54729e1d3e3b34c61b22b3cb4e24a", "is_reserved": 0, "rental_uris": {"android": "https://dc.lft.to/lastmile_qr_scan", "ios": "https://dc.lft.to/lastmile_qr_scan"}, "lat": 38.90038083333334, "is_disabled": 0, "lon": -77.00195266666667}, {"fusion_lat": 0.0, "type": "electric_scooter", "name": "f7f4de00ca67ef8b04a428b9494edf5a", "fusion_lon": 0.0, "bike_id": "f7f4de00ca67ef8b04a428b9494edf5a", "is_reserved": 0, "rental_uris": {"android": "https://dc.lft.to/lastmile_qr_scan", "ios": "https://dc.lft.to/lastmile_qr_scan"}, "lat": 38.900857333333335, "is_disabled": 0, "lon": -77.02468116666667}, {"fusion_lat": 0.0, "type": "electric_scooter", "name": "8dc143e1ff5f86e5cd5b8d5586ff2c9c", "fusion_lon": 0.0, "bike_id": "8dc143e1ff5f86e5cd5b8d5586ff2c9c", "is_reserved": 0, "rental_uris": {"android": "https://dc.lft.to/lastmile_qr_scan", "ios": "https://dc.lft.to/lastmile_qr_scan"}, "lat": 38.9376155, "is_disabled": 0, "lon": -77.02191666666667}, {"fusion_lat": 0.0, "type": "electric_scooter", "name": "9cfe5713a20c2c24f7292b26e470c415", "fusion_lon": 0.0, "bike_id": "9cfe5713a20c2c24f7292b26e470c415", "is_reserved": 0, "rental_uris": {"android": "https://dc.lft.to/lastmile_qr_scan", "ios": "https://dc.lft.to/lastmile_qr_scan"}, "lat": 38.923398166666665, "is_disabled": 0, "lon": -77.02147833333333}, {"fusion_lat": 0.0, "type": "electric_scooter", "name": "e08b67d704226860082ae80169d8846f", "fusion_lon": 0.0, "bike_id": "e08b67d704226860082ae80169d8846f", "is_reserved": 0, "rental_uris": {"android": "https://dc.lft.to/lastmile_qr_scan", "ios": "https://dc.lft.to/lastmile_qr_scan"}, "lat": 38.8873755, "is_disabled": 0, "lon": -77.03176166666667}, {"fusion_lat": 0.0, "type": "electric_scooter", "name": "c90a14c0ceb03e7da096b2cbb025ddc1", "fusion_lon": 0.0, "bike_id": "c90a14c0ceb03e7da096b2cbb025ddc1", "is_reserved": 0, "rental_uris": {"android": "https://dc.lft.to/lastmile_qr_scan", "ios": "https://dc.lft.to/lastmile_qr_scan"}, "lat": 38.91481733333333, "is_disabled": 0, "lon": -77.021903}, {"fusion_lat": 0.0, "type": "electric_scooter", "name": "9ce1cf2a9fa29c1b8626d7ca0609e309", "fusion_lon": 0.0, "bike_id": "9ce1cf2a9fa29c1b8626d7ca0609e309", "is_reserved": 0, "rental_uris": {"android": "https://dc.lft.to/lastmile_qr_scan", "ios": "https://dc.lft.to/lastmile_qr_scan"}, "lat": 38.9231885, "is_disabled": 0, "lon": -77.03406583333333}, {"fusion_lat": 0.0, "type": "electric_scooter", "name": "693bdd6b7ce46e42ed6bdbeb2f0020e2", "fusion_lon": 0.0, "bike_id": "693bdd6b7ce46e42ed6bdbeb2f0020e2", "is_reserved": 0, "rental_uris": {"android": "https://dc.lft.to/lastmile_qr_scan", "ios": "https://dc.lft.to/lastmile_qr_scan"}, "lat": 38.91015933333333, "is_disabled": 0, "lon": -77.06492916666667}, {"fusion_lat": 0.0, "type": "electric_bike", "name": "f08453e531abf529572bc93099b4e1c0", "fusion_lon": 0.0, "bike_id": "f08453e531abf529572bc93099b4e1c0", "is_reserved": 0, "rental_uris": {"android": "https://dc.lft.to/lastmile_qr_scan", "ios": "https://dc.lft.to/lastmile_qr_scan"}, "lat": 38.887112333333334, "is_disabled": 0, "lon": -77.13303316666666}, {"fusion_lat": 0.0, "type": "electric_scooter", "name": "4bd94a9804f0c24bce78352b52eab1a1", "fusion_lon": 0.0, "bike_id": "4bd94a9804f0c24bce78352b52eab1a1", "is_reserved": 0, "rental_uris": {"android": "https://dc.lft.to/lastmile_qr_scan", "ios": "https://dc.lft.to/lastmile_qr_scan"}, "lat": 38.8922095, "is_disabled": 0, "lon": -77.026176}, {"fusion_lat": 0.0, "type": "electric_scooter", "name": "6a6dea4a7038417b98c401eb1964e468", "fusion_lon": 0.0, "bike_id": "6a6dea4a7038417b98c401eb1964e468", "is_reserved": 0, "rental_uris": {"android": "https://dc.lft.to/lastmile_qr_scan", "ios": "https://dc.lft.to/lastmile_qr_scan"}, "lat": 38.9036945, "is_disabled": 0, "lon": -77.0358045}, {"fusion_lat": 0.0, "type": "electric_scooter", "name": "72494cee7a1d8799b4635301bc813d2e", "fusion_lon": 0.0, "bike_id": "72494cee7a1d8799b4635301bc813d2e", "is_reserved": 0, "rental_uris": {"android": "https://dc.lft.to/lastmile_qr_scan", "ios": "https://dc.lft.to/lastmile_qr_scan"}, "lat": 38.91037, "is_disabled": 0, "lon": -77.03680033333333}, {"fusion_lat": 0.0, "type": "electric_scooter", "name": "021d249da648933c948756f9a54b3c6b", "fusion_lon": 0.0, "bike_id": "021d249da648933c948756f9a54b3c6b", "is_reserved": 0, "rental_uris": {"android": "https://dc.lft.to/lastmile_qr_scan", "ios": "https://dc.lft.to/lastmile_qr_scan"}, "lat": 38.8923015, "is_disabled": 0, "lon": -77.03198483333334}, {"fusion_lat": 0.0, "type": "electric_scooter", "name": "0b39bafeaa63bff2a03fb618ac03b5ef", "fusion_lon": 0.0, "bike_id": "0b39bafeaa63bff2a03fb618ac03b5ef", "is_reserved": 0, "rental_uris": {"android": "https://dc.lft.to/lastmile_qr_scan", "ios": "https://dc.lft.to/lastmile_qr_scan"}, "lat": 38.89220066666667, "is_disabled": 0, "lon": -77.04686983333333}, {"fusion_lat": 0.0, "type": "electric_scooter", "name": "92f0fffee068e03c2c0faba865a99a0d", "fusion_lon": 0.0, "bike_id": "92f0fffee068e03c2c0faba865a99a0d", "is_reserved": 0, "rental_uris": {"android": "https://dc.lft.to/lastmile_qr_scan", "ios": "https://dc.lft.to/lastmile_qr_scan"}, "lat": 38.901416, "is_disabled": 0, "lon": -77.04352833333333}, {"fusion_lat": 0.0, "type": "electric_scooter", "name": "f8a53e7ac1e653d7d6286e122a2c6080", "fusion_lon": 0.0, "bike_id": "f8a53e7ac1e653d7d6286e122a2c6080", "is_reserved": 0, "rental_uris": {"android": "https://dc.lft.to/lastmile_qr_scan", "ios": "https://dc.lft.to/lastmile_qr_scan"}, "lat": 38.9156675, "is_disabled": 0, "lon": -77.03791266666667}, {"fusion_lat": 0.0, "type": "electric_scooter", "name": "287fc607e6387d9beb23548d4cc48e24", "fusion_lon": 0.0, "bike_id": "287fc607e6387d9beb23548d4cc48e24", "is_reserved": 0, "rental_uris": {"android": "https://dc.lft.to/lastmile_qr_scan", "ios": "https://dc.lft.to/lastmile_qr_scan"}, "lat": 38.923012, "is_disabled": 0, "lon": -77.04452766666667}, {"fusion_lat": 0.0, "type": "electric_scooter", "name": "ef0ffd8d9556ad3f30c405ba5662f6e0", "fusion_lon": 0.0, "bike_id": "ef0ffd8d9556ad3f30c405ba5662f6e0", "is_reserved": 0, "rental_uris": {"android": "https://dc.lft.to/lastmile_qr_scan", "ios": "https://dc.lft.to/lastmile_qr_scan"}, "lat": 38.91394616666667, "is_disabled": 0, "lon": -77.03183}, {"fusion_lat": 0.0, "type": "electric_scooter", "name": "c5f47eb5b29cd12fc6aa412071b53905", "fusion_lon": 0.0, "bike_id": "c5f47eb5b29cd12fc6aa412071b53905", "is_reserved": 0, "rental_uris": {"android": "https://dc.lft.to/lastmile_qr_scan", "ios": "https://dc.lft.to/lastmile_qr_scan"}, "lat": 38.91961416666667, "is_disabled": 0, "lon": -77.02325716666667}, {"fusion_lat": 0.0, "type": "electric_scooter", "name": "6cb16e0d9aa4e8986fe1b7d97e111cf2", "fusion_lon": 0.0, "bike_id": "6cb16e0d9aa4e8986fe1b7d97e111cf2", "is_reserved": 0, "rental_uris": {"android": "https://dc.lft.to/lastmile_qr_scan", "ios": "https://dc.lft.to/lastmile_qr_scan"}, "lat": 38.8746205, "is_disabled": 0, "lon": -77.00960533333334},