{"data": {"bikes": [{"lat": 38.89504, "fusion_lat": 0.0, "is_disabled": 0, "fusion_lon": 0.0, "type": "electric_scooter", "bike_id": "8ed712238d0ad5bbea7f373ed7d4ee38", "is_reserved": 0, "rental_uris": {"ios": "https://dc.lft.to/lastmile_qr_scan", "android": "https://dc.lft.to/lastmile_qr_scan"}, "name": "8ed712238d0ad5bbea7f373ed7d4ee38", "lon": -77.0467665}, {"lat": 38.915729, "fusion_lat": 0.0, "is_disabled": 0, "fusion_lon": 0.0, "type": "electric_scooter", "bike_id": "4217b0fa9390699f9e22c346cad113b7", "is_reserved": 0, "rental_uris": {"ios": "https://dc.lft.to/lastmile_qr_scan", "android": "https://dc.lft.to/lastmile_qr_scan"}, "name": "4217b0fa9390699f9e22c346cad113b7", "lon": -77.01991166666667}, {"lat": 38.8992435, "fusion_lat": 0.0, "is_disabled": 0, "fusion_lon": 0.0, "type": "electric_scooter", "bike_id": "5ed612da7d9a4f1d1c3afd6268ac54d4", "is_reserved": 0, "rental_uris": {"ios": "https://dc.lft.to/lastmile_qr_scan", "android": "https://dc.lft.to/lastmile_qr_scan"}, "name": "5ed612da7d9a4f1d1c3afd6268ac54d4", "lon": -77.0329175}, {"lat": 38.89633033333333, "fusion_lat": 0.0, "is_disabled": 0, "fusion_lon": 0.0, "type": "electric_scooter", "bike_id": "fb8f9e735693f4be23fb455133ed2576", "is_reserved": 0, "rental_uris": {"ios": "https://dc.lft.to/lastmile_qr_scan", "android": "https://dc.lft.to/lastmile_qr_scan"}, "name": "fb8f9e735693f4be23fb455133ed2576", "lon": -77.00913516666667}, {"lat": 38.89959733333333, "fusion_lat": 0.0, "is_disabled": 0, "fusion_lon": 0.0, "type": "electric_scooter", "bike_id": "755af40f5efd50a0c7bfb11ce9f53b52", "is_reserved": 0, "rental_uris": {"ios": "https://dc.lft.to/lastmile_qr_scan", "android": "https://dc.lft.to/lastmile_qr_scan"}, "name": "755af40f5efd50a0c7bfb11ce9f53b52", "lon": -77.01508366666667}, {"lat": 38.903962166666666, "fusion_lat": 0.0, "is_disabled": 0, "fusion_lon": 0.0, "type": "electric_scooter", "bike_id": "92f3c230f75d997731cb69d7db1af05c", "is_reserved": 0, "rental_uris": {"ios": "https://dc.lft.to/lastmile_qr_scan", "android": "https://dc.lft.to/lastmile_qr_scan"}, "name": "92f3c230f75d997731cb69d7db1af05c", "lon": -77.037993}, {"lat": 38.8993545, "fusion_lat": 0.0, "is_disabled": 0, "fusion_lon": 0.0, "type": "electric_scooter", "bike_id": "bce7568d31c9f9ff3d437d9da9e70b31", "is_reserved": 0, "rental_uris": {"ios": "https://dc.lft.to/lastmile_qr_scan", "android": "https://dc.lft.to/lastmile_qr_scan"}, "name": "bce7568d31c9f9ff3d437d9da9e70b31", "lon": -77.02816866666667}, {"lat": 38.89223333333333, "fusion_lat": 0.0, "is_disabled": 0, "fusion_lon": 0.0, "type": "electric_scooter", "bike_id": "c5a6083d4be610d34cafceb0e0e62567", "is_reserved": 0, "rental_uris": {"ios": "https://dc.lft.to/lastmile_qr_scan", "android": "https://dc.lft.to/lastmile_qr_scan"}, "name": "c5a6083d4be610d34cafceb0e0e62567", "lon": -77.024075}, {"lat": 38.897300333333334, "fusion_lat": 0.0, "is_disabled": 0, "fusion_lon": 0.0, "type": "electric_scooter", "bike_id": "e6845902c53aece7e00246a4c2bf144f", "is_reserved": 0, "rental_uris": {"ios": "https://dc.lft.to/lastmile_qr_scan", "android": "https://dc.lft.to/lastmile_qr_scan"}, "name": "e6845902c53aece7e00246a4c2bf144f", "lon": -77.024508}, {"lat": 38.9141385, "fusion_lat": 0.0, "is_disabled": 0, "fusion_lon": 0.0, "type": "electric_scooter", "bike_id": "1970026336c19421b152f9a896aa4349", "is_reserved": 0, "rental_uris": {"ios": "https://dc.lft.to/lastmile_qr_scan", "android": "https://dc.lft.to/lastmile_qr_scan"}, "name": "1970026336c19421b152f9a896aa4349", "lon": -77.02213933333333}, {"lat": 38.89740333333334, "fusion_lat": 0.0, "is_disabled": 0, "fusion_lon": 0.0, "type": "electric_scooter", "bike_id": "ce610b3d8ff5654e0785b1fc374fa29f", "is_reserved": 0, "rental_uris": {"ios": "https://dc.lft.to/lastmile_qr_scan", "android": "https://dc.lft.to/lastmile_qr_scan"}, "name": "ce610b3d8ff5654e0785b1fc374fa29f", "lon": -76.992129}, {"lat": 38.913322, "fusion_lat": 0.0, "is_disabled": 0, "fusion_lon": 0.0, "type": "electric_scooter", "bike_id": "ac93b1512fbbdaceeac538178742bc49", "is_reserved": 0, "rental_uris": {"ios": "https://dc.lft.to/lastmile_qr_scan", "android": "https://dc.lft.to/lastmile_qr_scan"}, "name": "ac93b1512fbbdaceeac538178742bc49", "lon": -77.02193433333333}, {"lat": 38.92948416666667, "fusion_lat": 0.0, "is_disabled": 0, "fusion_lon": 0.0, "type": "electric_scooter", "bike_id": "cb6cb27ace9d735162120f6c87051517", "is_reserved": 0, "rental_uris": {"ios": "https://dc.lft.to/lastmile_qr_scan", "android": "https://dc.lft.to/lastmile_qr_scan"}, "name": "cb6cb27ace9d735162120f6c87051517", "lon": -77.055047}, {"lat": 38.90219783333333, "fusion_lat": 0.0, "is_disabled": 0, "fusion_lon": 0.0, "type": "electric_scooter", "bike_id": "19d2460390e21dd5bd32266f889a8bb2", "is_reserved": 0, "rental_uris": {"ios": "https://dc.lft.to/lastmile_qr_scan", "android": "https://dc.lft.to/lastmile_qr_scan"}, "name": "19d2460390e21dd5bd32266f889a8bb2", "lon": -77.02337933333334}, {"lat": 38.9214455, "fusion_lat": 0.0, "is_disabled": 0, "fusion_lon": 0.0, "type": "electric_scooter", "bike_id": "7c297b18d65a70263b7e1da14e0e6858", "is_reserved": 0, "rental_uris": {"ios": "https://dc.lft.to/lastmile_qr_scan", "android": "https://dc.lft.to/lastmile_qr_scan"}, "name": "7c297b18d65a70263b7e1da14e0e6858", "lon": -77.02063383333333}, {"lat": 38.8938085, "fusion_lat": 0.0, "is_disabled": 0, "fusion_lon": 0.0, "type": "electric_scooter", "bike_id": "5ae8495aae49de168e468fadd680dcdf", "is_reserved": 0, "rental_uris": {"ios": "https://dc.lft.to/lastmile_qr_scan", "android": "https://dc.lft.to/lastmile_qr_scan"}, "name": "5ae8495aae49de168e468fadd680dcdf", "lon": -77.02450816666666}, {"lat": 38.927957166666666, "fusion_lat": 0.0, "is_disabled": 0, "fusion_lon": 0.0, "type": "electric_scooter", "bike_id": "93a4ae307df57bdcfbcd6bac66a2d6f4", "is_reserved": 0, "rental_uris": {"ios": "https://dc.lft.to/lastmile_qr_scan", "android": "https://dc.lft.to/lastmile_qr_scan"}, "name": "93a4ae307df57bdcfbcd6bac66a2d6f4", "lon": -77.02597883333334}, {"lat": 38.805038333333336, "fusion_lat": 0.0, "is_disabled": 0, "fusion_lon": 0.0, "type": "electric_bike", "bike_id": "73808c43a3de737023fea9869349ec6d", "is_reserved": 0, "rental_uris": {"ios": "https://dc.lft.to/lastmile_qr_scan", "android": "https://dc.lft.to/lastmile_qr_scan"}, "name": "73808c43a3de737023fea9869349ec6d", "lon": -77.04809033333333}, {"lat": 38.902943666666665, "fusion_lat": 0.0, "is_disabled": 0, "fusion_lon": 0.0, "type": "electric_scooter", "bike_id": "482ae40060eb6537c56298274e190c17", "is_reserved": 0, "rental_uris": {"ios": "https://dc.lft.to/lastmile_qr_scan", "android": "https://dc.lft.to/lastmile_qr_scan"}, "name": "482ae40060eb6537c56298274e190c17", "lon": -77.03178916666667}, {"lat": 38.927876166666664, "fusion_lat": 0.0, "is_disabled": 0, "fusion_lon": 0.0, "type": "electric_scooter", "bike_id": "5037738b1a8b41698fd7ddb2119ced46", "is_reserved": 0, "rental_uris": {"ios": "https://dc.lft.to/lastmile_qr_scan", "android": "https://dc.lft.to/lastmile_qr_scan"}, "name": "5037738b1a8b41698fd7ddb2119ced46", "lon": -77.03631533333333}, {"lat": 39.022954, "fusion_lat": 0.0, "is_disabled": 0, "fusion_lon": 0.0, "type": "electric_bike", "bike_id": "5579a974eff484626cd9171d166f6045", "is_reserved": 0, "rental_uris": {"ios": "https://dc.lft.to/lastmile_qr_scan", "android": "https://dc.lft.to/lastmile_qr_scan"}, "name": "5579a974eff484626cd9171d166f6045", "lon": -77.02104933333334}, {"lat": 38.898198666666666, "fusion_lat": 0.0, "is_disabled": 0, "fusion_lon": 0.0, "type": "electric_scooter", "bike_id": "8bcf3145550bef7e8596cabd4a743272", "is_reserved": 0, "rental_uris": {"ios": "https://dc.lft.to/lastmile_qr_scan", "android": "https://dc.lft.to/lastmile_qr_scan"}, "name": "8bcf3145550bef7e8596cabd4a743272", "lon": -77.03105383333333}, {"lat": 38.974739666666665, "fusion_lat": 0.0, "is_disabled": 0, "fusion_lon": 0.0, "type": "electric_bike", "bike_id": "0a9c365604078fd372c9cecdca9f70e3", "is_reserved": 0, "rental_uris": {"ios": "https://dc.lft.to/lastmile_qr_scan", "android": "https://dc.lft.to/lastmile_qr_scan"}, "name": "0a9c365604078fd372c9cecdca9f70e3", "lon": -76.98668416666666}, {"lat": 38.8962685, "fusion_lat": 0.0, "is_disabled": 0, "fusion_lon": 0.0, "type": "electric_scooter", "bike_id": "36c994bedc070bbcbd014b0ce3e86115", "is_reserved": 0, "rental_uris": {"ios": "https://dc.lft.to/lastmile_qr_scan", "android": "https://dc.lft.to/lastmile_qr_scan"}, "name": "36c994bedc070bbcbd014b0ce3e86115", "lon": -77.0034785}, {"lat": 38.894178333333336, "fusion_lat": 0.0, "is_disabled": 0, "fusion_lon": 0.0, "type": "electric_bike", "bike_id": "b860d6e6b4b56492b3908abecaddaad6", "is_reserved": 0, "rental_uris": {"ios": "https://dc.lft.to/lastmile_qr_scan", "android": "https://dc.lft.to/lastmile_qr_scan"}, "name": "b860d6e6b4b56492b3908abecaddaad6", "lon": -77.09448566666667}, {"lat": 38.935435166666664, "fusion_lat": 0.0, "is_disabled": 0, "fusion_lon": 0.0, "type": "electric_scooter", "bike_id": "392e1ed0ef4c901db9e1818058914095", "is_reserved": 0, "rental_uris": {"ios": "https://dc.lft.to/lastmile_qr_scan", "android": "https://dc.lft.to/lastmile_qr_scan"}, "name": "392e1ed0ef4c901db9e1818058914095", "lon": -77.02502866666667}, {"lat": 38.87716316666667, "fusion_lat": 0.0, "is_disabled": 0, "fusion_lon": 0.0, "type": "electric_scooter", "bike_id": "aaa29acc8af334ee73045bf9957cec12", "is_reserved": 0, "rental_uris": {"ios": "https://dc.lft.to/lastmile_qr_scan", "android": "https://dc.lft.to/lastmile_qr_scan"}, "name": "aaa29acc8af334ee73045bf9957cec12", "lon": -77.0164995}, {"lat": 38.905859, "fusion_lat": 0.0, "is_disabled": 0, "fusion_lon": 0.0, "type": "electric_scooter", "bike_id": "b12ee73d0a01eaccf52de81825f61236", "is_reserved": 0, "rental_uris": {"ios": "https://dc.lft.to/lastmile_qr_scan", "android": "https://dc.lft.to/lastmile_qr_scan"}, "name": "b12ee73d0a01eaccf52de81825f61236", "lon": -77.06609383333333}, {"lat": 38.897247166666666, "fusion_lat": 0.0, "is_disabled": 0, "fusion_lon": 0.0, "type": "electric_scooter", "bike_id": "d2d03288605d0c7e409d8eafee4c0a55", "is_reserved": 0, "rental_uris": {"ios": "https://dc.lft.to/lastmile_qr_scan", "android": "https://dc.lft.to/lastmile_qr_scan"}, "name": "d2d03288605d0c7e409d8eafee4c0a55", "lon": -77.01913266666666}, {"lat": 38.89984116666667, "fusion_lat": 0.0, "is_disabled": 0, "fusion_lon": 0.0, "type": "electric_scooter", "bike_id": "ff60cd4a5b2b03b4fc9f8ba8abd4d6f2", "is_reserved": 0, "rental_uris": {"ios": "https://dc.lft.to/lastmile_qr_scan", "android": "https://dc.lft.to/lastmile_qr_scan"}, "name": "ff60cd4a5b2b03b4fc9f8ba8abd4d6f2", "lon": -77.02624316666666}, {"lat": 38.80978533333333, "fusion_lat": 0.0, "is_disabled": 0, "fusion_lon": 0.0, "type": "electric_bike", "bike_id": "891f9758f1c3489c80defc6a7d998cc1", "is_reserved": 0, "rental_uris": {"ios": "https://dc.lft.to/lastmile_qr_scan", "android": "https://dc.lft.to/lastmile_qr_scan"}, "name": "891f9758f1c3489c80defc6a7d998cc1", "lon": -77.07657533333334}, {"lat": 38.9264625, "fusion_lat": 0.0, "is_disabled": 0, "fusion_lon": 0.0, "type": "electric_scooter", "bike_id": "30fbf6f9dc981b7775855369852025b8", "is_reserved": 0, "rental_uris": {"ios": "https://dc.lft.to/lastmile_qr_scan", "android": "https://dc.lft.to/lastmile_qr_scan"}, "name": "30fbf6f9dc981b7775855369852025b8", "lon": -77.03834816666667}, {"lat": 38.900301666666664, "fusion_lat": 0.0, "is_disabled": 0, "fusion_lon": 0.0, "type": "electric_scooter", "bike_id": "ff8aec97c8ac4f3d8f1f93f4c0f192dc", "is_reserved": 0, "rental_uris": {"ios": "https://dc.lft.to/lastmile_qr_scan", "android": "https://dc.lft.to/lastmile_qr_scan"}, "name": "ff8aec97c8ac4f3d8f1f93f4c0f192dc", "lon": -76.991566}, {"lat": 38.89816666666667, "fusion_lat": 0.0, "is_disabled": 0, "fusion_lon": 0.0, "type": "electric_scooter", "bike_id": "79c7166537f0689825d735b3a23106d1", "is_reserved": 0, "rental_uris": {"ios": "https://dc.lft.to/lastmile_qr_scan", "android": "https://dc.lft.to/lastmile_qr_scan"}, "name": "79c7166537f0689825d735b3a23106d1", "lon": -77.0126435}, {"lat": 38.876894166666666, "fusion_lat": 0.0, "is_disabled": 0, "fusion_lon": 0.0, "type": "electric_scooter", "bike_id": "0de129ccd766b948ee43c327f52b6126", "is_reserved": 0, "rental_uris": {"ios": "https://dc.lft.to/lastmile_qr_scan", "android": "https://dc.lft.to/lastmile_qr_scan"}, "name": "0de129ccd766b948ee43c327f52b6126", "lon": -77.002084}, {"lat": 38.91987783333333, "fusion_lat": 0.0, "is_disabled": 0, "fusion_lon": 0.0, "type": "electric_scooter", "bike_id": "719e17839a3798c21bef95d3232c10e5", "is_reserved": 0, "rental_uris": {"ios": "https://dc.lft.to/lastmile_qr_scan", "android": "https://dc.lft.to/lastmile_qr_scan"}, "name": "719e17839a3798c21bef95d3232c10e5", "lon": -77.03245366666667}, {"lat": 38.92407766666667, "fusion_lat": 0.0, "is_disabled": 0, "fusion_lon": 0.0, "type": "electric_scooter", "bike_id": "6b22ddc1f94f71f39c17cdd8fdcb9c49", "is_reserved": 0, "rental_uris": {"ios": "https://dc.lft.to/lastmile_qr_scan", "android": "https://dc.lft.to/lastmile_qr_scan"}, "name": "6b22ddc1f94f71f39c17cdd8fdcb9c49", "lon": -77.0213355}, {"lat": 38.9005265, "fusion_lat": 0.0, "is_disabled": 0, "fusion_lon": 0.0, "type": "electric_scooter", "bike_id": "24468388bcfcea5bc54bf81ca7e6c3ce", "is_reserved": 0, "rental_uris": {"ios": "https://dc.lft.to/lastmile_qr_scan", "android": "https://dc.lft.to/lastmile_qr_scan"}, "name": "24468388bcfcea5bc54bf81ca7e6c3ce", "lon": -76.98711716666666}, {"lat": 38.919174166666664, "fusion_lat": 0.0, "is_disabled": 0, "fusion_lon": 0.0, "type": "electric_scooter", "bike_id": "153c561bfe82f80e4972f0e3b2ea5f8e", "is_reserved": 0, "rental_uris": {"ios": "https://dc.lft.to/lastmile_qr_scan", "android": "https://dc.lft.to/lastmile_qr_scan"}, "name": "153c561bfe82f80e4972f0e3b2ea5f8e", "lon": -77.03326733333333}, {"lat": 38.90358333333333, "fusion_lat": 0.0, "is_disabled": 0, "fusion_lon": 0.0, "type": "electric_scooter", "bike_id": "ac61d27d712575169eca5f3bae49c38c", "is_reserved": 0, "rental_uris": {"ios": "https://dc.lft.to/lastmile_qr_scan", "android": "https://dc.lft.to/lastmile_qr_scan"}, "name": "ac61d27d712575169eca5f3bae49c38c", "lon": -77.060061}, {"lat": 38.924613666666666, "fusion_lat": 0.0, "is_disabled": 0, "fusion_lon": 0.0, "type": "electric_scooter", "bike_id": "ab6e67e796e3bfcdfa8b077b7e7f19d1", "is_reserved": 0, "rental_uris": {"ios": "https://dc.lft.to/lastmile_qr_scan", "android": "https://dc.lft.to/lastmile_qr_scan"}, "name": "ab6e67e796e3bfcdfa8b077b7e7f19d1", "lon": -77.02243683333333}, {"lat": 38.893938, "fusion_lat": 0.0, "is_disabled": 0, "fusion_lon": 0.0, "type": "electric_scooter", "bike_id": "0cee8233d5054b16d380f6e975d303a4", "is_reserved": 0, "rental_uris": {"ios": "https://dc.lft.to/lastmile_qr_scan", "android": "https://dc.lft.to/lastmile_qr_scan"}, "name": "0cee8233d5054b16d380f6e975d303a4", "lon": -76.978209}, {"lat": 38.929761, "fusion_lat": 0.0, "is_disabled": 0, "fusion_lon": 0.0, "type": "electric_bike", "bike_id": "ab9371d42796f3cffdb73cf50104e064", "is_reserved": 0, "rental_uris": {"ios": "https://dc.lft.to/lastmile_qr_scan", "android": "https://dc.lft.to/lastmile_qr_scan"}, "name": "ab9371d42796f3cffdb73cf50104e064", "lon": -76.98608516666667}, {"lat": 38.916995166666666, "fusion_lat": 0.0, "is_disabled": 0, "fusion_lon": 0.0, "type": "electric_scooter", "bike_id": "940ecbd4552484ac85fe116c1bed3c98", "is_reserved": 0, "rental_uris": {"ios": "https://dc.lft.to/lastmile_qr_scan", "android": "https://dc.lft.to/lastmile_qr_scan"}, "name": "940ecbd4552484ac85fe116c1bed3c98", "lon": -77.02409583333333}, {"lat": 38.90524083333333, "fusion_lat": 0.0, "is_disabled": 0, "fusion_lon": 0.0, "type": "electric_scooter", "bike_id": "7a4f1aa01fd38355a882053c077db65f", "is_reserved": 0, "rental_uris": {"ios": "https://dc.lft.to/lastmile_qr_scan", "android": "https://dc.lft.to/lastmile_qr_scan"}, "name": "7a4f1aa01fd38355a882053c077db65f", "lon": -77.02964033333333}, {"lat": 38.89624166666667, "fusion_lat": 0.0, "is_disabled": 0, "fusion_lon": 0.0, "type": "electric_scooter", "bike_id": "a69460ea865ffc41cfe967fab141fab6", "is_reserved": 0, "rental_uris": {"ios": "https://dc.lft.to/lastmile_qr_scan", "android": "https://dc.lft.to/lastmile_qr_scan"}, "name": "a69460ea865ffc41cfe967fab141fab6", "lon": -77.028482}, {"lat": 38.935267833333334, "fusion_lat": 0.0, "is_disabled": 0, "fusion_lon": 0.0, "type": "electric_scooter", "bike_id": "b88c78bf9d5f9f5cf4f8348745b4edc2", "is_reserved": 0, "rental_uris": {"ios": "https://dc.lft.to/lastmile_qr_scan", "android": "https://dc.lft.to/lastmile_qr_scan"}, "name": "b88c78bf9d5f9f5cf4f8348745b4edc2", "lon": -77.02846566666666}, {"lat": 38.895056333333336, "fusion_lat": 0.0, "is_disabled": 0, "fusion_lon": 0.0, "type": "electric_scooter", "bike_id": "5cb61c2708166b580b511470e4d25cff", "is_reserved": 0, "rental_uris": {"ios": "https://dc.lft.to/lastmile_qr_scan", "android": "https://dc.lft.to/lastmile_qr_scan"}, "name": "5cb61c2708166b580b511470e4d25cff", "lon": -76.948824}, {"lat": 38.994940166666666, "fusion_lat": 0.0, "is_disabled": 0, "fusion_lon": 0.0, "type": "electric_bike", "bike_id": "af52bf837224c7d2963a8dc4fa689705", "is_reserved": 0, "rental_uris": {"ios": "https://dc.lft.to/lastmile_qr_scan", "android": "https://dc.lft.to/lastmile_qr_scan"}, "name": "af52bf837224c7d2963a8dc4fa689705", "lon": -77.00131966666666}, {"lat": 38.91912216666667, "fusion_lat": 0.0, "is_disabled": 0, "fusion_lon": 0.0, "type": "electric_scooter", "bike_id": "d15bfb8882c1bd65790cde6ebba2a6b8", "is_reserved": 0, "rental_uris": {"ios": "https://dc.lft.to/lastmile_qr_scan", "android": "https://dc.lft.to/lastmile_qr_scan"}, "name": "d15bfb8882c1bd65790cde6ebba2a6b8", "lon": -77.033355}, {"lat": 38.8900215, "fusion_lat": 0.0, "is_disabled": 0, "fusion_lon": 0.0, "type": "electric_scooter", "bike_id": "a3bf64788b0da842c894adbc0a8e463f", "is_reserved": 0, "rental_uris": {"ios": "https://dc.lft.to/lastmile_qr_scan", "android": "https://dc.lft.to/lastmile_qr_scan"}, "name": "a3bf64788b0da842c894adbc0a8e463f", "lon": -76.93749533333333}, {"lat": 38.92208816666667, "fusion_lat": 0.0, "is_disabled": 0, "fusion_lon": 0.0, "type": "electric_scooter", "bike_id": "922d147cdd0d8b0350c02df625a32110", "is_reserved": 0, "rental_uris": {"ios": "https://dc.lft.to/lastmile_qr_scan", "android": "https://dc.lft.to/lastmile_qr_scan"}, "name": "922d147cdd0d8b0350c02df625a32110", "lon": -77.01830716666667}, {"lat": 38.90026683333333, "fusion_lat": 0.0, "is_disabled": 0, "fusion_lon": 0.0, "type": "electric_scooter", "bike_id": "847f75e309d891d73075514706b0e942", "is_reserved": 0, "rental_uris": {"ios": "https://dc.lft.to/lastmile_qr_scan", "android": "https://dc.lft.to/lastmile_qr_scan"}, "name": "847f75e309d891d73075514706b0e942", "lon": -77.01149083333334}, {"lat": 38.922358, "fusion_lat": 0.0, "is_disabled": 0, "fusion_lon": 0.0, "type": "electric_scooter", "bike_id": "5ec9876b05c7625d030732639c9240e8", "is_reserved": 0, "rental_uris": {"ios": "https://dc.lft.to/lastmile_qr_scan", "android": "https://dc.lft.to/lastmile_qr_scan"}, "name": "5ec9876b05c7625d030732639c9240e8", "lon": -77.03662716666666}, {"lat": 38.929614666666666, "fusion_lat": 0.0, "is_disabled": 0, "fusion_lon": 0.0, "type": "electric_scooter", "bike_id": "9316d395e0fdf30d3fb6de0ed1882af4", "is_reserved": 0, "rental_uris": {"ios": "https://dc.lft.to/lastmile_qr_scan", "android": "https://dc.lft.to/lastmile_qr_scan"}, "name": "9316d395e0fdf30d3fb6de0ed1882af4", "lon": -77.03154033333334}, {"lat": 38.920613333333336, "fusion_lat": 0.0, "is_disabled": 0, "fusion_lon": 0.0, "type": "electric_scooter", "bike_id": "4bd2328fa49389329827faed9af2e30f", "is_reserved": 0, "rental_uris": {"ios": "https://dc.lft.to/lastmile_qr_scan", "android": "https://dc.lft.to/lastmile_qr_scan"}, "name": "4bd2328fa49389329827faed9af2e30f", "lon": -77.04190316666667}, {"lat": 38.93510116666667, "fusion_lat": 0.0, "is_disabled": 0, "fusion_lon": 0.0, "type": "electric_bike", "bike_id": "b44b2c9b2d7cd3ff8d93bcb85526c290", "is_reserved": 0, "rental_uris": {"ios": "https://dc.lft.to/lastmile_qr_scan", "android": "https://dc.lft.to/lastmile_qr_scan"}, "name": "b44b2c9b2d7cd3ff8d93bcb85526c290", "lon": -76.98352133333333}, {"lat": 38.9020535, "fusion_lat": 0.0, "is_disabled": 0, "fusion_lon": 0.0, "type": "electric_scooter", "bike_id": "16a34fd0fec1fc947bbdf2173a339d51", "is_reserved": 0, "rental_uris": {"ios": "https://dc.lft.to/lastmile_qr_scan", "android": "https://dc.lft.to/lastmile_qr_scan"}, "name": "16a34fd0fec1fc947bbdf2173a339d51", "lon": -77.00210483333333}, {"lat": 38.8961775, "fusion_lat": 0.0, "is_disabled": 0, "fusion_lon": 0.0, "type": "electric_scooter", "bike_id": "4122ab81361c1b720d3fea52ed5b803b", "is_reserved": 0, "rental_uris": {"ios": "https://dc.lft.to/lastmile_qr_scan", "android": "https://dc.lft.to/lastmile_qr_scan"}, "name": "4122ab81361c1b720d3fea52ed5b803b", "lon": -77.02201933333333}, {"lat": 38.9126695, "fusion_lat": 0.0, "is_disabled": 0, "fusion_lon": 0.0, "type": "electric_scooter", "bike_id": "f7d041a5dc21e927a71d79d7eab35dc1", "is_reserved": 0, "rental_uris": {"ios": "https://dc.lft.to/lastmile_qr_scan", "android": "https://dc.lft.to/lastmile_qr_scan"}, "name": "f7d041a5dc21e927a71d79d7eab35dc1", "lon": -77.038708}, {"lat": 38.9056505, "fusion_lat": 0.0, "is_disabled": 0, "fusion_lon": 0.0, "type": "electric_scooter", "bike_id": "a48867df6c2183ebb673662246b007ae", "is_reserved": 0, "rental_uris": {"ios": "https://dc.lft.to/lastmile_qr_scan", "android": "https://dc.lft.to/lastmile_qr_scan"}, "name": "a48867df6c2183ebb673662246b007ae", "lon": -77.03441166666667}, {"lat": 38.86506633333333, "fusion_lat": 0.0, "is_disabled": 0, "fusion_lon": 0.0, "type": "electric_bike", "bike_id": "0a760231dbdcf1eb766e3edce341a93f", "is_reserved": 0, "rental_uris": {"ios": "https://dc.lft.to/lastmile_qr_scan", "android": "https://dc.lft.to/lastmile_qr_scan"}, "name": "0a760231dbdcf1eb766e3edce341a93f", "lon": -76.97322933333334}, {"lat": 38.90695433333333, "fusion_lat": 0.0, "is_disabled": 0, "fusion_lon": 0.0, "type": "electric_scooter", "bike_id": "e93579d16a79a7c4ca411ddab514dacc", "is_reserved": 0, "rental_uris": {"ios": "https://dc.lft.to/lastmile_qr_scan", "android": "https://dc.lft.to/lastmile_qr_scan"}, "name": "e93579d16a79a7c4ca411ddab514dacc", "lon": -77.02182833333333}, {"lat": 38.856427, "fusion_lat": 0.0, "is_disabled": 0, "fusion_lon": 0.0, "type": "electric_bike", "bike_id": "631eadf13aaca656213992df345a9b78", "is_reserved": 0, "rental_uris": {"ios": "https://dc.lft.to/lastmile_qr_scan", "android": "https://dc.lft.to/lastmile_qr_scan"}, "name": "631eadf13aaca656213992df345a9b78", "lon": -77.0852605}, {"lat": 38.9075075, "fusion_lat": 0.0, "is_disabled": 0, "fusion_lon": 0.0, "type": "electric_scooter", "bike_id": "78fd6f8be75193d9d8a312ee3226b199", "is_reserved": 0, "rental_uris": {"ios": "https://dc.lft.to/lastmile_qr_scan", "android": "https://dc.lft.to/lastmile_qr_scan"}, "name": "78fd6f8be75193d9d8a312ee3226b199", "lon": -77.04551916666667}, {"lat": 38.902471166666665, "fusion_lat": 0.0, "is_disabled": 0, "fusion_lon": 0.0, "type": "electric_scooter", "bike_id": "7ccd29ea0168eb7b3a6ab11f09de6e2b", "is_reserved": 0, "rental_uris": {"ios": "https://dc.lft.to/lastmile_qr_scan", "android": "https://dc.lft.to/lastmile_qr_scan"}, "name": "7ccd29ea0168eb7b3a6ab11f09de6e2b", "lon": -77.04540966666667}, {"lat": 38.8973645, "fusion_lat": 0.0, "is_disabled": 0, "fusion_lon": 0.0, "type": "electric_scooter", "bike_id": "69c9bef29041cbf5dcca27a54b5789d6", "is_reserved": 0, "rental_uris": {"ios": "https://dc.lft.to/lastmile_qr_scan", "android": "https://dc.lft.to/lastmile_qr_scan"}, "name": "69c9bef29041cbf5dcca27a54b5789d6", "lon": -77.050166}, {"lat": 38.90289383333333, "fusion_lat": 0.0, "is_disabled": 0, "fusion_lon": 0.0, "type": "electric_scooter", "bike_id": "3c0a5db2ffa7d11bd5a86a73a399d345", "is_reserved": 0, "rental_uris": {"ios": "https://dc.lft.to/lastmile_qr_scan", "android": "https://dc.lft.to/lastmile_qr_scan"}, "name": "3c0a5db2ffa7d11bd5a86a73a399d345", "lon": -77.04687266666667}, {"lat": 38.90863783333333, "fusion_lat": 0.0, "is_disabled": 0, "fusion_lon": 0.0, "type": "electric_scooter", "bike_id": "e32a65994ca774a599d32fb659d4524c", "is_reserved": 0, "rental_uris": {"ios": "https://dc.lft.to/lastmile_qr_scan", "android": "https://dc.lft.to/lastmile_qr_scan"}, "name": "e32a65994ca774a599d32fb659d4524c", "lon": -77.018365}, {"lat": 38.88146483333333, "fusion_lat": 0.0, "is_disabled": 0, "fusion_lon": 0.0, "type": "electric_bike", "bike_id": "fa6646a2ed579d6099797475da83f9d3", "is_reserved": 0, "rental_uris": {"ios": "https://dc.lft.to/lastmile_qr_scan", "android": "https://dc.lft.to/lastmile_qr_scan"}, "name": "fa6646a2ed579d6099797475da83f9d3", "lon": -77.0129775}, {"lat": 38.894865833333334, "fusion_lat": 0.0, "is_disabled": 0, "fusion_lon": 0.0, "type": "electric_scooter", "bike_id": "6f0fdaf56201a6fdbeb24971073090f8", "is_reserved": 0, "rental_uris": {"ios": "https://dc.lft.to/lastmile_qr_scan", "android": "https://dc.lft.to/lastmile_qr_scan"}, "name": "6f0fdaf56201a6fdbeb24971073090f8", "lon": -77.055044}, {"lat": 38.920329, "fusion_lat": 0.0, "is_disabled": 0, "fusion_lon": 0.0, "type": "electric_bike", "bike_id": "8fbe5d1b3943c042eae4bb06f2fa9585", "is_reserved": 0, "rental_uris": {"ios": "https://dc.lft.to/lastmile_qr_scan", "android": "https://dc.lft.to/lastmile_qr_scan"}, "name": "8fbe5d1b3943c042eae4bb06f2fa9585", "lon": -77.0634565}, {"lat": 38.8916375, "fusion_lat": 0.0, "is_disabled": 0, "fusion_lon": 0.0, "type": "electric_scooter", "bike_id": "433561c9dd18ae6f1ad2d7c8dcea9e1b", "is_reserved": 0, "rental_uris": {"ios": "https://dc.lft.to/lastmile_qr_scan", "android": "https://dc.lft.to/lastmile_qr_scan"}, "name": "433561c9dd18ae6f1ad2d7c8dcea9e1b", "lon": -76.991481}, {"lat": 38.92633283333333, "fusion_lat": 0.0, "is_disabled": 0, "fusion_lon": 0.0, "type": "electric_scooter", "bike_id": "35fc5604b9a69aae45f8978ec3cb8689", "is_reserved": 0, "rental_uris": {"ios": "https://dc.lft.to/lastmile_qr_scan", "android": "https://dc.lft.to/lastmile_qr_scan"}, "name": "35fc5604b9a69aae45f8978ec3cb8689", "lon": -77.036967}, {"lat": 38.90670716666666, "fusion_lat": 0.0, "is_disabled": 0, "fusion_lon": 0.0, "type": "electric_scooter", "bike_id": "18da3caf594a410c2f715e8163825717", "is_reserved": 0, "rental_uris": {"ios": "https://dc.lft.to/lastmile_qr_scan", "android": "https://dc.lft.to/lastmile_qr_scan"}, "name": "18da3caf594a410c2f715e8163825717", "lon": -77.02710966666666}, {"lat": 38.919965166666664, "fusion_lat": 0.0, "is_disabled": 0, "fusion_lon": 0.0, "type": "electric_scooter", "bike_id": "4d390900d7af40d6cb70909458b4b691", "is_reserved": 0, "rental_uris": {"ios": "https://dc.lft.to/lastmile_qr_scan", "android": "https://dc.lft.to/lastmile_qr_scan"}, "name": "4d390900d7af40d6cb70909458b4b691", "lon": -77.02170883333334}, {"lat": 38.88185383333333, "fusion_lat": 0.0, "is_disabled": 0, "fusion_lon": 0.0, "type": "electric_scooter", "bike_id": "116279eb6ab3bf049a16f0496685d720", "is_reserved": 0, "rental_uris": {"ios": "https://dc.lft.to/lastmile_qr_scan", "android": "https://dc.lft.to/lastmile_qr_scan"}, "name": "116279eb6ab3bf049a16f0496685d720", "lon": -77.0209725}, {"lat": 38.892428, "fusion_lat": 0.0, "is_disabled": 0, "fusion_lon": 0.0, "type": "electric_scooter", "bike_id": "afb3b2b103838c37253b0d0787a7e9bd", "is_reserved": 0, "rental_uris": {"ios": "https://dc.lft.to/lastmile_qr_scan", "android": "https://dc.lft.to/lastmile_qr_scan"}, "name": "afb3b2b103838c37253b0d0787a7e9bd", "lon": -77.03180283333333}, {"lat": 38.92245333333334, "fusion_lat": 0.0, "is_disabled": 0, "fusion_lon": 0.0, "type": "electric_scooter", "bike_id": "ae6bdf89276493c88292414fb048f5c9", "is_reserved": 0, "rental_uris": {"ios": "https://dc.lft.to/lastmile_qr_scan", "android": "https://dc.lft.to/lastmile_qr_scan"}, "name": "ae6bdf89276493c88292414fb048f5c9", "lon": -77.008302}, {"lat": 38.917004, "fusion_lat": 0.0, "is_disabled": 0, "fusion_lon": 0.0, "type": "electric_scooter", "bike_id": "e91a92a970730a8d166d59761f48b575", "is_reserved": 0, "rental_uris": {"ios": "https://dc.lft.to/lastmile_qr_scan", "android": "https://dc.lft.to/lastmile_qr_scan"}, "name": "e91a92a970730a8d166d59761f48b575", "lon": -77.09223}, {"lat": 38.914943666666666, "fusion_lat": 0.0, "is_disabled": 0, "fusion_lon": 0.0, "type": "electric_scooter", "bike_id": "2ed068d9343c048389da90e7cacb7ca9", "is_reserved": 0, "rental_uris": {"ios": "https://dc.lft.to/lastmile_qr_scan", "android": "https://dc.lft.to/lastmile_qr_scan"}, "name": "2ed068d9343c048389da90e7cacb7ca9", "lon": -77.0452965}, {"lat": 38.886064166666664, "fusion_lat": 0.0, "is_disabled": 0, "fusion_lon": 0.0, "type": "electric_scooter", "bike_id": "6cceb65f5e0fa5a6bbe8c579f5cd32b7", "is_reserved": 0, "rental_uris": {"ios": "https://dc.lft.to/lastmile_qr_scan", "android": "https://dc.lft.to/lastmile_qr_scan"}, "name": "6cceb65f5e0fa5a6bbe8c579f5cd32b7", "lon": -76.92505066666666}, {"lat": 38.893904, "fusion_lat": 0.0, "is_disabled": 0, "fusion_lon": 0.0, "type": "electric_scooter", "bike_id": "9354e9473326fad920cb0c4d65ed2fea", "is_reserved": 0, "rental_uris": {"ios": "https://dc.lft.to/lastmile_qr_scan", "android": "https://dc.lft.to/lastmile_qr_scan"}, "name": "9354e9473326fad920cb0c4d65ed2fea", "lon": -77.054752}, {"lat": 38.930945, "fusion_lat": 0.0, "is_disabled": 0, "fusion_lon": 0.0, "type": "electric_scooter", "bike_id": "ce8787785e92845bfba72c87866c641b", "is_reserved": 0, "rental_uris": {"ios": "https://dc.lft.to/lastmile_qr_scan", "android": "https://dc.lft.to/lastmile_qr_scan"}, "name": "ce8787785e92845bfba72c87866c641b", "lon": -77.02346533333333}, {"lat": 38.90351583333333, "fusion_lat": 0.0, "is_disabled": 0, "fusion_lon": 0.0, "type": "electric_scooter", "bike_id": "3dc0a4d23917d4ecd13baed1cfd5f8e4", "is_reserved": 0, "rental_uris": {"ios": "https://dc.lft.to/lastmile_qr_scan", "android": "https://dc.lft.to/lastmile_qr_scan"}, "name": "3dc0a4d23917d4ecd13baed1cfd5f8e4", "lon": -77.0261935}, {"lat": 38.90056933333334, "fusion_lat": 0.0, "is_disabled": 0, "fusion_lon": 0.0, "type": "electric_scooter", "bike_id": "9bfe20ec23d327f6e37cbe7a52d7836a", "is_reserved": 0, "rental_uris": {"ios": "https://dc.lft.to/lastmile_qr_scan", "android": "https://dc.lft.to/lastmile_qr_scan"}, "name": "9bfe20ec23d327f6e37cbe7a52d7836a", "lon": -76.99341316666667}, {"lat": 38.90248666666667, "fusion_lat": 0.0, "is_disabled": 0, "fusion_lon": 0.0, "type": "electric_scooter", "bike_id": "67ffa299bb51b13f1987517309eb6ab8", "is_reserved": 0, "rental_uris": {"ios": "https://dc.lft.to/lastmile_qr_scan", "android": "https://dc.lft.to/lastmile_qr_scan"}, "name": "67ffa299bb51b13f1987517309eb6ab8", "lon": -77.03420533333333}, {"lat": 38.90564333333333, "fusion_lat": 0.0, "is_disabled": 0, "fusion_lon": 0.0, "type": "electric_scooter", "bike_id": "7cb8ca463c5f6ec8b65bd69e040b20b0", "is_reserved": 0, "rental_uris": {"ios": "https://dc.lft.to/lastmile_qr_scan", "android": "https://dc.lft.to/lastmile_qr_scan"}, "name": "7cb8ca463c5f6ec8b65bd69e040b20b0", "lon": -77.03453316666666}, {"lat": 38.899073, "fusion_lat": 0.0, "is_disabled": 0, "fusion_lon": 0.0, "type": "electric_scooter", "bike_id": "a326bad6fab3ee2aa9b84d589cef7fd9", "is_reserved": 0, "rental_uris": {"ios": "https://dc.lft.to/lastmile_qr_scan", "android": "https://dc.lft.to/lastmile_qr_scan"}, "name": "a326bad6fab3ee2aa9b84d589cef7fd9", "lon": -76.93388833333333}, {"lat": 38.917947166666664, "fusion_lat": 0.0, "is_disabled": 0, "fusion_lon": 0.0, "type": "electric_scooter", "bike_id": "9059d261fb53dceab62908c928f5515c", "is_reserved": 0, "rental_uris": {"ios": "https://dc.lft.to/lastmile_qr_scan", "android": "https://dc.lft.to/lastmile_qr_scan"}, "name": "9059d261fb53dceab62908c928f5515c", "lon": -77.02330583333334}, {"lat": 38.90556633333333, "fusion_lat": 0.0, "is_disabled": 0, "fusion_lon": 0.0, "type": "electric_scooter", "bike_id": "5feb316c8af5ee3c4c79d1ebd42cdcb0", "is_reserved": 0, "rental_uris": {"ios": "https://dc.lft.to/lastmile_qr_scan", "android": "https://dc.lft.to/lastmile_qr_scan"}, "name": "5feb316c8af5ee3c4c79d1ebd42cdcb0", "lon": -77.040813}, {"lat": 38.9124425, "fusion_lat": 0.0, "is_disabled": 0, "fusion_lon": 0.0, "type": "electric_scooter", "bike_id": "ab953d39ec3b436e06389fc33d6aa70e", "is_reserved": 0, "rental_uris": {"ios": "https://dc.lft.to/lastmile_qr_scan", "android": "https://dc.lft.to/lastmile_qr_scan"}, "name": "ab953d39ec3b436e06389fc33d6aa70e", "lon": -77.04766683333334}, {"lat": 38.884082666666664, "fusion_lat": 0.0, "is_disabled": 0, "fusion_lon": 0.0, "type": "electric_scooter", "bike_id": "87a87756ce5694e01f7f164fa2bced2b", "is_reserved": 0, "rental_uris": {"ios": "https://dc.lft.to/lastmile_qr_scan", "android": "https://dc.lft.to/lastmile_qr_scan"}, "name": "87a87756ce5694e01f7f164fa2bced2b", "lon": -77.01738433333334}, {"lat": 38.93115683333333, "fusion_lat": 0.0, "is_disabled": 0, "fusion_lon": 0.0, "type": "electric_scooter", "bike_id": "79cece18558bfb3a2df91aeefff18f99", "is_reserved": 0, "rental_uris": {"ios": "https://dc.lft.to/lastmile_qr_scan", "android": "https://dc.lft.to/lastmile_qr_scan"}, "name": "79cece18558bfb3a2df91aeefff18f99", "lon": -77.0209615}, {"lat": 38.921617, "fusion_lat": 0.0, "is_disabled": 0, "fusion_lon": 0.0, "type": "electric_scooter", "bike_id": "ffaa70fbec31bddb137a7aa02bea2e8c", "is_reserved": 0, "rental_uris": {"ios": "https://dc.lft.to/lastmile_qr_scan", "android": "https://dc.lft.to/lastmile_qr_scan"}, "name": "ffaa70fbec31bddb137a7aa02bea2e8c", "lon": -77.03190083333334}, {"lat": 38.923998833333336, "fusion_lat": 0.0, "is_disabled": 0, "fusion_lon": 0.0, "type": "electric_scooter", "bike_id": "d83547f72d5e48abaa0c2e30e02e9014", "is_reserved": 0, "rental_uris": {"ios": "https://dc.lft.to/lastmile_qr_scan", "android": "https://dc.lft.to/lastmile_qr_scan"}, "name": "d83547f72d5e48abaa0c2e30e02e9014", "lon": -77.025538}, {"lat": 38.906490833333336, "fusion_lat": 0.0, "is_disabled": 0, "fusion_lon": 0.0, "type": "electric_scooter", "bike_id": "af748745ae2659b6a23a7579c1cbfa57", "is_reserved": 0, "rental_uris": {"ios": "https://dc.lft.to/lastmile_qr_scan", "android": "https://dc.lft.to/lastmile_qr_scan"}, "name": "af748745ae2659b6a23a7579c1cbfa57", "lon": -77.05326083333334}, {"lat": 38.907448, "fusion_lat": 0.0, "is_disabled": 0, "fusion_lon": 0.0, "type": "electric_scooter", "bike_id": "6ec9f7e5b1cbaf5a88d14992822f6dbf", "is_reserved": 0, "rental_uris": {"ios": "https://dc.lft.to/lastmile_qr_scan", "android": "https://dc.lft.to/lastmile_qr_scan"}, "name": "6ec9f7e5b1cbaf5a88d14992822f6dbf", "lon": -77.04550216666667}, {"lat": 38.91117633333333, "fusion_lat": 0.0, "is_disabled": 0, "fusion_lon": 0.0, "type": "electric_scooter", "bike_id": "1b6bd04f60a683225dba4041758ba7e2", "is_reserved": 0, "rental_uris": {"ios": "https://dc.lft.to/lastmile_qr_scan", "android": "https://dc.lft.to/lastmile_qr_scan"}, "name": "1b6bd04f60a683225dba4041758ba7e2", "lon": -77.00602783333333}, {"lat": 38.876622833333336, "fusion_lat": 0.0, "is_disabled": 0, "fusion_lon": 0.0, "type": "electric_scooter", "bike_id": "c163b538558dd6e67921cec23007276c", "is_reserved": 0, "rental_uris": {"ios": "https://dc.lft.to/lastmile_qr_scan", "android": "https://dc.lft.to/lastmile_qr_scan"}, "name": "c163b538558dd6e67921cec23007276c", "lon": -77.00065783333334}, {"lat": 38.895407, "fusion_lat": 0.0, "is_disabled": 0, "fusion_lon": 0.0, "type": "electric_scooter", "bike_id": "4ec027b8fe081d1eedf3f5ec6c2d58a8", "is_reserved": 0, "rental_uris": {"ios": "https://dc.lft.to/lastmile_qr_scan", "android": "https://dc.lft.to/lastmile_qr_scan"}, "name": "4ec027b8fe081d1eedf3f5ec6c2d58a8", "lon": -76.98337066666667}, {"lat": 38.89844566666667, "fusion_lat": 0.0, "is_disabled": 0, "fusion_lon": 0.0, "type": "electric_scooter", "bike_id": "5a701c422a94d7dc6c14abe20fe6061b", "is_reserved": 0, "rental_uris": {"ios": "https://dc.lft.to/lastmile_qr_scan", "android": "https://dc.lft.to/lastmile_qr_scan"}, "name": "5a701c422a94d7dc6c14abe20fe6061b", "lon": -77.0218525}, {"lat": 38.807354, "fusion_lat": 0.0, "is_disabled": 0, "fusion_lon": 0.0, "type": "electric_bike", "bike_id": "66930b787c6b5248e5e97372e6425a08", "is_reserved": 0, "rental_uris": {"ios": "https://dc.lft.to/lastmile_qr_scan", "android": "https://dc.lft.to/lastmile_qr_scan"}, "name": "66930b787c6b5248e5e97372e6425a08", "lon": -77.09683666666666}, {"lat": 38.923050833333335, "fusion_lat": 0.0, "is_disabled": 0, "fusion_lon": 0.0, "type": "electric_bike", "bike_id": "502cc9ff37cf471c6d99ce70ba1f9d22", "is_reserved": 0, "rental_uris": {"ios": "https://dc.lft.to/lastmile_qr_scan", "android": "https://dc.lft.to/lastmile_qr_scan"}, "name": "502cc9ff37cf471c6d99ce70ba1f9d22", "lon": -77.07508}, {"lat": 38.90021133333333, "fusion_lat": 0.0, "is_disabled": 0, "fusion_lon": 0.0, "type": "electric_scooter", "bike_id": "1c3a3590e0251f9177f2626c44b1ffa4", "is_reserved": 0, "rental_uris": {"ios": "https://dc.lft.to/lastmile_qr_scan", "android": "https://dc.lft.to/lastmile_qr_scan"}, "name": "1c3a3590e0251f9177f2626c44b1ffa4", "lon": -76.99864}, {"lat": 38.8717225, "fusion_lat": 0.0, "is_disabled": 0, "fusion_lon": 0.0, "type": "electric_bike", "bike_id": "12a5a55896395c49780ec929685006b3", "is_reserved": 0, "rental_uris": {"ios": "https://dc.lft.to/lastmile_qr_scan", "android": "https://dc.lft.to/lastmile_qr_scan"}, "name": "12a5a55896395c49780ec929685006b3", "lon": -77.23395283333333}, {"lat": 39.01072416666667, "fusion_lat": 0.0, "is_disabled": 0, "fusion_lon": 0.0, "type": "electric_bike", "bike_id": "b7fa1cb209b26a0aa1226945aa43719f", "is_reserved": 0, "rental_uris": {"ios": "https://dc.lft.to/lastmile_qr_scan", "android": "https://dc.lft.to/lastmile_qr_scan"}, "name": "b7fa1cb209b26a0aa1226945aa43719f", "lon": -76.910655}, {"lat": 38.912663, "fusion_lat": 0.0, "is_disabled": 0, "fusion_lon": 0.0, "type": "electric_scooter", "bike_id": "e4c91f14187e2a0fe8ccd0bdb639cec1", "is_reserved": 0, "rental_uris": {"ios": "https://dc.lft.to/lastmile_qr_scan", "android": "https://dc.lft.to/lastmile_qr_scan"}, "name": "e4c91f14187e2a0fe8ccd0bdb639cec1", "lon": -77.03876883333334}, {"lat": 38.92378333333333, "fusion_lat": 0.0, "is_disabled": 0, "fusion_lon": 0.0, "type": "electric_scooter", "bike_id": "54c343ee24e59e48cfb6ae39678267a2", "is_reserved": 0, "rental_uris": {"ios": "https://dc.lft.to/lastmile_qr_scan", "android": "https://dc.lft.to/lastmile_qr_scan"}, "name": "54c343ee24e59e48cfb6ae39678267a2", "lon": -77.05188583333333}, {"lat": 39.0842455, "fusion_lat": 0.0, "is_disabled": 0, "fusion_lon": 0.0, "type": "electric_bike", "bike_id": "ac5193544279dc83693d53d2d6b8821f", "is_reserved": 0, "rental_uris": {"ios": "https://dc.lft.to/lastmile_qr_scan", "android": "https://dc.lft.to/lastmile_qr_scan"}, "name": "ac5193544279dc83693d53d2d6b8821f", "lon": -76.951373}, {"lat": 38.903594, "fusion_lat": 0.0, "is_disabled": 0, "fusion_lon": 0.0, "type": "electric_scooter", "bike_id": "8a56ed1dbbdb333eda13a189c850c5c8", "is_reserved": 0, "rental_uris": {"ios": "https://dc.lft.to/lastmile_qr_scan", "android": "https://dc.lft.to/lastmile_qr_scan"}, "name": "8a56ed1dbbdb333eda13a189c850c5c8", "lon": -77.02219783333334}, {"lat": 38.900451833333335, "fusion_lat": 0.0, "is_disabled": 0, "fusion_lon": 0.0, "type": "electric_scooter", "bike_id": "33d6a1631abdb1ee07fcdc9d6c162ff8", "is_reserved": 0, "rental_uris": {"ios": "https://dc.lft.to/lastmile_qr_scan", "android": "https://dc.lft.to/lastmile_qr_scan"}, "name": "33d6a1631abdb1ee07fcdc9d6c162ff8", "lon": -77.044839}, {"lat": 38.90593416666667, "fusion_lat": 0.0, "is_disabled": 0, "fusion_lon": 0.0, "type": "electric_scooter", "bike_id": "a4a42e1899b32183422c3636add5d689", "is_reserved": 0, "rental_uris": {"ios": "https://dc.lft.to/lastmile_qr_scan", "android": "https://dc.lft.to/lastmile_qr_scan"}, "name": "a4a42e1899b32183422c3636add5d689", "lon": -77.02597633333333}, {"lat": 38.9137035, "fusion_lat": 0.0, "is_disabled": 0, "fusion_lon": 0.0, "type": "electric_scooter", "bike_id": "9a8dc05fdb0b5fd433e569bd18add4e9", "is_reserved": 0, "rental_uris": {"ios": "https://dc.lft.to/lastmile_qr_scan", "android": "https://dc.lft.to/lastmile_qr_scan"}, "name": "9a8dc05fdb0b5fd433e569bd18add4e9", "lon": -77.06710116666666}, {"lat": 38.8900615, "fusion_lat": 0.0, "is_disabled": 0, "fusion_lon": 0.0, "type": "electric_scooter", "bike_id": "cf6a0504596be65152cff94754d960f1", "is_reserved": 0, "rental_uris": {"ios": "https://dc.lft.to/lastmile_qr_scan", "android": "https://dc.lft.to/lastmile_qr_scan"}, "name": "cf6a0504596be65152cff94754d960f1", "lon": -76.93745216666667}, {"lat": 38.90944666666667, "fusion_lat": 0.0, "is_disabled": 0, "fusion_lon": 0.0, "type": "electric_scooter", "bike_id": "71b578a2471037046b909b8062b6c391", "is_reserved": 0, "rental_uris": {"ios": "https://dc.lft.to/lastmile_qr_scan", "android": "https://dc.lft.to/lastmile_qr_scan"}, "name": "71b578a2471037046b909b8062b6c391", "lon": -76.93593583333333}, {"lat": 38.919894166666666, "fusion_lat": 0.0, "is_disabled": 0, "fusion_lon": 0.0, "type": "electric_scooter", "bike_id": "6f43f5f2755e0d17a4464cddcb4e2802", "is_reserved": 0, "rental_uris": {"ios": "https://dc.lft.to/lastmile_qr_scan", "android": "https://dc.lft.to/lastmile_qr_scan"}, "name": "6f43f5f2755e0d17a4464cddcb4e2802", "lon": -77.017828}, {"lat": 38.90909883333333, "fusion_lat": 0.0, "is_disabled": 0, "fusion_lon": 0.0, "type": "electric_scooter", "bike_id": "24917d9f11567a9be9388f9a9649bc9f", "is_reserved": 0, "rental_uris": {"ios": "https://dc.lft.to/lastmile_qr_scan", "android": "https://dc.lft.to/lastmile_qr_scan"}, "name": "24917d9f11567a9be9388f9a9649bc9f", "lon": -77.036602}, {"lat": 38.908041, "fusion_lat": 0.0, "is_disabled": 0, "fusion_lon": 0.0, "type": "electric_scooter", "bike_id": "14e1aad676b1d45fdcb3833a6807a43c", "is_reserved": 0, "rental_uris": {"ios": "https://dc.lft.to/lastmile_qr_scan", "android": "https://dc.lft.to/lastmile_qr_scan"}, "name": "14e1aad676b1d45fdcb3833a6807a43c", "lon": -77.0636785}, {"lat": 38.93108333333333, "fusion_lat": 0.0, "is_disabled": 0, "fusion_lon": 0.0, "type": "electric_scooter", "bike_id": "03fbfe03634b54aecea7ed6948081810", "is_reserved": 0, "rental_uris": {"ios": "https://dc.lft.to/lastmile_qr_scan", "android": "https://dc.lft.to/lastmile_qr_scan"}, "name": "03fbfe03634b54aecea7ed6948081810", "lon": -77.0301125}, {"lat": 38.897265, "fusion_lat": 0.0, "is_disabled": 0, "fusion_lon": 0.0, "type": "electric_scooter", "bike_id": "3e23e7fe0f3c96dbb0559c8839887562", "is_reserved": 0, "rental_uris": {"ios": "https://dc.lft.to/lastmile_qr_scan", "android": "https://dc.lft.to/lastmile_qr_scan"}, "name": "3e23e7fe0f3c96dbb0559c8839887562", "lon": -77.04989416666666}, {"lat": 38.895432166666666, "fusion_lat": 0.0, "is_disabled": 0, "fusion_lon": 0.0, "type": "electric_scooter", "bike_id": "4de9a2836ebf2a6fc0f38923e28c693a", "is_reserved": 0, "rental_uris": {"ios": "https://dc.lft.to/lastmile_qr_scan", "android": "https://dc.lft.to/lastmile_qr_scan"}, "name": "4de9a2836ebf2a6fc0f38923e28c693a", "lon": -77.02205566666666}, {"lat": 38.924087166666666, "fusion_lat": 0.0, "is_disabled": 0, "fusion_lon": 0.0, "type": "electric_scooter", "bike_id": "b12815a2600e8a1618549bb3ba2c160d", "is_reserved": 0, "rental_uris": {"ios": "https://dc.lft.to/lastmile_qr_scan", "android": "https://dc.lft.to/lastmile_qr_scan"}, "name": "b12815a2600e8a1618549bb3ba2c160d", "lon": -77.02009233333334}, {"lat": 38.93162266666667, "fusion_lat": 0.0, "is_disabled": 0, "fusion_lon": 0.0, "type": "electric_scooter", "bike_id": "d2adf9a6a800715778edbf509b1f9030", "is_reserved": 0, "rental_uris": {"ios": "https://dc.lft.to/lastmile_qr_scan", "android": "https://dc.lft.to/lastmile_qr_scan"}, "name": "d2adf9a6a800715778edbf509b1f9030", "lon": -77.05607816666667}, {"lat": 38.92707883333333, "fusion_lat": 0.0, "is_disabled": 0, "fusion_lon": 0.0, "type": "electric_scooter", "bike_id": "99905227319770b365f274aa1e9f95bb", "is_reserved": 0, "rental_uris": {"ios": "https://dc.lft.to/lastmile_qr_scan", "android": "https://dc.lft.to/lastmile_qr_scan"}, "name": "99905227319770b365f274aa1e9f95bb", "lon": -77.02093133333334}, {"lat": 38.912569500000004, "fusion_lat": 0.0, "is_disabled": 0, "fusion_lon": 0.0, "type": "electric_scooter", "bike_id": "71455a99f2df44bb2343dfdb30bfe7d4", "is_reserved": 0, "rental_uris": {"ios": "https://dc.lft.to/lastmile_qr_scan", "android": "https://dc.lft.to/lastmile_qr_scan"}, "name": "71455a99f2df44bb2343dfdb30bfe7d4", "lon": -77.03857783333333}, {"lat": 38.9072845, "fusion_lat": 0.0, "is_disabled": 0, "fusion_lon": 0.0, "type": "electric_scooter", "bike_id": "d480b00a683e5800582452cbf85aff90", "is_reserved": 0, "rental_uris": {"ios": "https://dc.lft.to/lastmile_qr_scan", "android": "https://dc.lft.to/lastmile_qr_scan"}, "name": "d480b00a683e5800582452cbf85aff90", "lon": -77.06902566666666}, {"lat": 38.8963355, "fusion_lat": 0.0, "is_disabled": 0, "fusion_lon": 0.0, "type": "electric_scooter", "bike_id": "bc5ad72259bd265397cccc8b8bc135a9", "is_reserved": 0, "rental_uris": {"ios": "https://dc.lft.to/lastmile_qr_scan", "android": "https://dc.lft.to/lastmile_qr_scan"}, "name": "bc5ad72259bd265397cccc8b8bc135a9", "lon": -77.03993683333333}, {"lat": 38.91024733333333, "fusion_lat": 0.0, "is_disabled": 0, "fusion_lon": 0.0, "type": "electric_scooter", "bike_id": "006717c1b8f77695d0706d580646cc35", "is_reserved": 0, "rental_uris": {"ios": "https://dc.lft.to/lastmile_qr_scan", "android": "https://dc.lft.to/lastmile_qr_scan"}, "name": "006717c1b8f77695d0706d580646cc35", "lon": -77.00757966666667}, {"lat": 38.9247725, "fusion_lat": 0.0, "is_disabled": 0, "fusion_lon": 0.0, "type": "electric_scooter", "bike_id": "91e12ba67bc7fe7d9081592ff63615f0", "is_reserved": 0, "rental_uris": {"ios": "https://dc.lft.to/lastmile_qr_scan", "android": "https://dc.lft.to/lastmile_qr_scan"}, "name": "91e12ba67bc7fe7d9081592ff63615f0", "lon": -77.025472}, {"lat": 38.879529, "fusion_lat": 0.0, "is_disabled": 0, "fusion_lon": 0.0, "type": "electric_bike", "bike_id": "9e353eb0c84db9c62b3675abd94e647f", "is_reserved": 0, "rental_uris": {"ios": "https://dc.lft.to/lastmile_qr_scan", "android": "https://dc.lft.to/lastmile_qr_scan"}, "name": "9e353eb0c84db9c62b3675abd94e647f", "lon": -76.93196383333333}, {"lat": 38.91525266666667, "fusion_lat": 0.0, "is_disabled": 0, "fusion_lon": 0.0, "type": "electric_bike", "bike_id": "e318aacd21b7689169d40c6f93e84256", "is_reserved": 0, "rental_uris": {"ios": "https://dc.lft.to/lastmile_qr_scan", "android": "https://dc.lft.to/lastmile_qr_scan"}, "name": "e318aacd21b7689169d40c6f93e84256", "lon": -76.9721875}, {"lat": 38.928211166666664, "fusion_lat": 0.0, "is_disabled": 0, "fusion_lon": 0.0, "type": "electric_scooter", "bike_id": "54254a34d676c1203b5d21de88d8e691", "is_reserved": 0, "rental_uris": {"ios": "https://dc.lft.to/lastmile_qr_scan", "android": "https://dc.lft.to/lastmile_qr_scan"}, "name": "54254a34d676c1203b5d21de88d8e691", "lon": -77.05476616666667}, {"lat": 38.908431666666665, "fusion_lat": 0.0, "is_disabled": 0, "fusion_lon": 0.0, "type": "electric_scooter", "bike_id": "4a9ba39186237b81c306a90637823c04", "is_reserved": 0, "rental_uris": {"ios": "https://dc.lft.to/lastmile_qr_scan", "android": "https://dc.lft.to/lastmile_qr_scan"}, "name": "4a9ba39186237b81c306a90637823c04", "lon": -76.93445566666666}, {"lat": 38.923551833333335, "fusion_lat": 0.0, "is_disabled": 0, "fusion_lon": 0.0, "type": "electric_scooter", "bike_id": "1d1dc7a72f125ea06f096efc06373b1a", "is_reserved": 0, "rental_uris": {"ios": "https://dc.lft.to/lastmile_qr_scan", "android": "https://dc.lft.to/lastmile_qr_scan"}, "name": "1d1dc7a72f125ea06f096efc06373b1a", "lon": -77.0431765}, {"lat": 38.888733333333334, "fusion_lat": 0.0, "is_disabled": 0, "fusion_lon": 0.0, "type": "electric_bike", "bike_id": "9ea9d0d3b6232f960ba0d3107eaa2fc2", "is_reserved": 0, "rental_uris": {"ios": "https://dc.lft.to/lastmile_qr_scan", "android": "https://dc.lft.to/lastmile_qr_scan"}, "name": "9ea9d0d3b6232f960ba0d3107eaa2fc2", "lon": -76.95699783333333}, {"lat": 38.92752933333333, "fusion_lat": 0.0, "is_disabled": 0, "fusion_lon": 0.0, "type": "electric_scooter", "bike_id": "b4e0104553a7275335d8ecea1ade5060", "is_reserved": 0, "rental_uris": {"ios": "https://dc.lft.to/lastmile_qr_scan", "android": "https://dc.lft.to/lastmile_qr_scan"}, "name": "b4e0104553a7275335d8ecea1ade5060", "lon": -77.032979}, {"lat": 38.908102166666666, "fusion_lat": 0.0, "is_disabled": 0, "fusion_lon": 0.0, "type": "electric_scooter", "bike_id": "104b9b6ee9f772adca29fa3b9894a1f4", "is_reserved": 0, "rental_uris": {"ios": "https://dc.lft.to/lastmile_qr_scan", "android": "https://dc.lft.to/lastmile_qr_scan"}, "name": "104b9b6ee9f772adca29fa3b9894a1f4", "lon": -77.0417095}, {"lat": 38.90860083333333, "fusion_lat": 0.0, "is_disabled": 0, "fusion_lon": 0.0, "type": "electric_scooter", "bike_id": "a952ebe33e24e97c61e84938f833191e", "is_reserved": 0, "rental_uris": {"ios": "https://dc.lft.to/lastmile_qr_scan", "android": "https://dc.lft.to/lastmile_qr_scan"}, "name": "a952ebe33e24e97c61e84938f833191e", "lon": -77.03033533333333}, {"lat": 38.920565833333335, "fusion_lat": 0.0, "is_disabled": 0, "fusion_lon": 0.0, "type": "electric_scooter", "bike_id": "f4d6f698a5b8d5d732404f2b15a853c7", "is_reserved": 0, "rental_uris": {"ios": "https://dc.lft.to/lastmile_qr_scan", "android": "https://dc.lft.to/lastmile_qr_scan"}, "name": "f4d6f698a5b8d5d732404f2b15a853c7", "lon": -77.02559233333334}, {"lat": 38.9312165, "fusion_lat": 0.0, "is_disabled": 0, "fusion_lon": 0.0, "type": "electric_scooter", "bike_id": "9e32b424b89ca434d849fe6e5ef59595", "is_reserved": 0, "rental_uris": {"ios": "https://dc.lft.to/lastmile_qr_scan", "android": "https://dc.lft.to/lastmile_qr_scan"}, "name": "9e32b424b89ca434d849fe6e5ef59595", "lon": -77.02200383333333}, {"lat": 38.905072, "fusion_lat": 0.0, "is_disabled": 0, "fusion_lon": 0.0, "type": "electric_scooter", "bike_id": "7445ca6bc16198fee1cb06f74ffb5697", "is_reserved": 0, "rental_uris": {"ios": "https://dc.lft.to/lastmile_qr_scan", "android": "https://dc.lft.to/lastmile_qr_scan"}, "name": "7445ca6bc16198fee1cb06f74ffb5697", "lon": -77.0293845}, {"lat": 38.91558916666666, "fusion_lat": 0.0, "is_disabled": 0, "fusion_lon": 0.0, "type": "electric_scooter", "bike_id": "e112eb5e91a0ad15b65cedde32c05ba9", "is_reserved": 0, "rental_uris": {"ios": "https://dc.lft.to/lastmile_qr_scan", "android": "https://dc.lft.to/lastmile_qr_scan"}, "name": "e112eb5e91a0ad15b65cedde32c05ba9", "lon": -77.0366665}, {"lat": 38.90027716666667, "fusion_lat": 0.0, "is_disabled": 0, "fusion_lon": 0.0, "type": "electric_scooter", "bike_id": "7c38e63db714a625d3f416b551dd5b48", "is_reserved": 0, "rental_uris": {"ios": "https://dc.lft.to/lastmile_qr_scan", "android": "https://dc.lft.to/lastmile_qr_scan"}, "name": "7c38e63db714a625d3f416b551dd5b48", "lon": -76.98829566666667}, {"lat": 38.9394855, "fusion_lat": 0.0, "is_disabled": 0, "fusion_lon": 0.0, "type": "electric_scooter", "bike_id": "d21ba558ec9ddae47ae45e6204551b85", "is_reserved": 0, "rental_uris": {"ios": "https://dc.lft.to/lastmile_qr_scan", "android": "https://dc.lft.to/lastmile_qr_scan"}, "name": "d21ba558ec9ddae47ae45e6204551b85", "lon": -77.072401}, {"lat": 39.010632, "fusion_lat": 0.0, "is_disabled": 0, "fusion_lon": 0.0, "type": "electric_bike", "bike_id": "deafdb56ff4d7453a304ac7d54e77d73", "is_reserved": 0, "rental_uris": {"ios": "https://dc.lft.to/lastmile_qr_scan", "android": "https://dc.lft.to/lastmile_qr_scan"}, "name": "deafdb56ff4d7453a304ac7d54e77d73", "lon": -76.92242333333333}, {"lat": 38.878388, "fusion_lat": 0.0, "is_disabled": 0, "fusion_lon": 0.0, "type": "electric_scooter", "bike_id": "e339be81640717896448ec25f62d3bf4", "is_reserved": 0, "rental_uris": {"ios": "https://dc.lft.to/lastmile_qr_scan", "android": "https://dc.lft.to/lastmile_qr_scan"}, "name": "e339be81640717896448ec25f62d3bf4", "lon": -76.931302}, {"lat": 38.91028383333333, "fusion_lat": 0.0, "is_disabled": 0, "fusion_lon": 0.0, "type": "electric_scooter", "bike_id": "897fa245f0f4767fc66fcb2caf9f019f", "is_reserved": 0, "rental_uris": {"ios": "https://dc.lft.to/lastmile_qr_scan", "android": "https://dc.lft.to/lastmile_qr_scan"}, "name": "897fa245f0f4767fc66fcb2caf9f019f", "lon": -77.0346055}, {"lat": 38.905688833333336, "fusion_lat": 0.0, "is_disabled": 0, "fusion_lon": 0.0, "type": "electric_scooter", "bike_id": "528dd9f211e3778a67021d217e64a19c", "is_reserved": 0, "rental_uris": {"ios": "https://dc.lft.to/lastmile_qr_scan", "android": "https://dc.lft.to/lastmile_qr_scan"}, "name": "528dd9f211e3778a67021d217e64a19c", "lon": -77.00606216666667}, {"lat": 38.92632666666667, "fusion_lat": 0.0, "is_disabled": 0, "fusion_lon": 0.0, "type": "electric_scooter", "bike_id": "967c5b109d8ea9d40910fa14a7382608", "is_reserved": 0, "rental_uris": {"ios": "https://dc.lft.to/lastmile_qr_scan", "android": "https://dc.lft.to/lastmile_qr_scan"}, "name": "967c5b109d8ea9d40910fa14a7382608", "lon": -77.02168866666666}, {"lat": 38.8957105, "fusion_lat": 0.0, "is_disabled": 0, "fusion_lon": 0.0, "type": "electric_scooter", "bike_id": "1c0c0cb17c0e9ce9bc53c0cf3d3c07fe", "is_reserved": 0, "rental_uris": {"ios": "https://dc.lft.to/lastmile_qr_scan", "android": "https://dc.lft.to/lastmile_qr_scan"}, "name": "1c0c0cb17c0e9ce9bc53c0cf3d3c07fe", "lon": -77.04154066666666}, {"lat": 38.914244333333336, "fusion_lat": 0.0, "is_disabled": 0, "fusion_lon": 0.0, "type": "electric_scooter", "bike_id": "400251cb4984f37e939f21cefbda445a", "is_reserved": 0, "rental_uris": {"ios": "https://dc.lft.to/lastmile_qr_scan", "android": "https://dc.lft.to/lastmile_qr_scan"}, "name": "400251cb4984f37e939f21cefbda445a", "lon": -77.01807783333334}, {"lat": 38.925588166666664, "fusion_lat": 0.0, "is_disabled": 0, "fusion_lon": 0.0, "type": "electric_scooter", "bike_id": "a13ad4001e0c9fa8b6e27bc1270bd4e4", "is_reserved": 0, "rental_uris": {"ios": "https://dc.lft.to/lastmile_qr_scan", "android": "https://dc.lft.to/lastmile_qr_scan"}, "name": "a13ad4001e0c9fa8b6e27bc1270bd4e4", "lon": -77.03772866666667}, {"lat": 38.899501, "fusion_lat": 0.0, "is_disabled": 0, "fusion_lon": 0.0, "type": "electric_scooter", "bike_id": "a83f32b6be84aa70750284cea4afc896", "is_reserved": 0, "rental_uris": {"ios": "https://dc.lft.to/lastmile_qr_scan", "android": "https://dc.lft.to/lastmile_qr_scan"}, "name": "a83f32b6be84aa70750284cea4afc896", "lon": -77.047113}, {"lat": 38.90660716666667, "fusion_lat": 0.0, "is_disabled": 0, "fusion_lon": 0.0, "type": "electric_scooter", "bike_id": "aae80a4a2059518345030797e32e615d", "is_reserved": 0, "rental_uris": {"ios": "https://dc.lft.to/lastmile_qr_scan", "android": "https://dc.lft.to/lastmile_qr_scan"}, "name": "aae80a4a2059518345030797e32e615d", "lon": -77.0249865}, {"lat": 38.89833983333333, "fusion_lat": 0.0, "is_disabled": 0, "fusion_lon": 0.0, "type": "electric_scooter", "bike_id": "13e08aac587e54bcd113c93d47768016", "is_reserved": 0, "rental_uris": {"ios": "https://dc.lft.to/lastmile_qr_scan", "android": "https://dc.lft.to/lastmile_qr_scan"}, "name": "13e08aac587e54bcd113c93d47768016", "lon": -77.04803733333334}, {"lat": 38.90416416666667, "fusion_lat": 0.0, "is_disabled": 0, "fusion_lon": 0.0, "type": "electric_scooter", "bike_id": "ba65407df865cd95f6f45c9ba6a57f04", "is_reserved": 0, "rental_uris": {"ios": "https://dc.lft.to/lastmile_qr_scan", "android": "https://dc.lft.to/lastmile_qr_scan"}, "name": "ba65407df865cd95f6f45c9ba6a57f04", "lon": -77.029559}, {"lat": 38.917113, "fusion_lat": 0.0, "is_disabled": 0, "fusion_lon": 0.0, "type": "electric_scooter", "bike_id": "e2318c5c62e8696d3a0bd60b54c92ab6", "is_reserved": 0, "rental_uris": {"ios": "https://dc.lft.to/lastmile_qr_scan", "android": "https://dc.lft.to/lastmile_qr_scan"}, "name": "e2318c5c62e8696d3a0bd60b54c92ab6", "lon": -77.0324415}, {"lat": 38.91847683333334, "fusion_lat": 0.0, "is_disabled": 0, "fusion_lon": 0.0, "type": "electric_scooter", "bike_id": "8b541dda2620c486423fe5c3934fc1d2", "is_reserved": 0, "rental_uris": {"ios": "https://dc.lft.to/lastmile_qr_scan", "android": "https://dc.lft.to/lastmile_qr_scan"}, "name": "8b541dda2620c486423fe5c3934fc1d2", "lon": -77.03192366666667}, {"lat": 38.846224666666664, "fusion_lat": 0.0, "is_disabled": 0, "fusion_lon": 0.0, "type": "electric_bike", "bike_id": "200eaae3415eb158297e9b9435d153f2", "is_reserved": 0, "rental_uris": {"ios": "https://dc.lft.to/lastmile_qr_scan", "android": "https://dc.lft.to/lastmile_qr_scan"}, "name": "200eaae3415eb158297e9b9435d153f2", "lon": -77.06929416666667}, {"lat": 38.899686, "fusion_lat": 0.0, "is_disabled": 0, "fusion_lon": 0.0, "type": "electric_scooter", "bike_id": "bf83559ae3490fe42fc7b1cb6eee5d7e", "is_reserved": 0, "rental_uris": {"ios": "https://dc.lft.to/lastmile_qr_scan", "android": "https://dc.lft.to/lastmile_qr_scan"}, "name": "bf83559ae3490fe42fc7b1cb6eee5d7e", "lon": -76.93765766666667}, {"lat": 38.89837833333333, "fusion_lat": 0.0, "is_disabled": 0, "fusion_lon": 0.0, "type": "electric_scooter", "bike_id": "ec0fbb2f3a2dc0e554cd951041edb20d", "is_reserved": 0, "rental_uris": {"ios": "https://dc.lft.to/lastmile_qr_scan", "android": "https://dc.lft.to/lastmile_qr_scan"}, "name": "ec0fbb2f3a2dc0e554cd951041edb20d", "lon": -77.048022}, {"lat": 38.83039016666667, "fusion_lat": 0.0, "is_disabled": 0, "fusion_lon": 0.0, "type": "electric_bike", "bike_id": "62391b05b9feaf36bfbb3d127390df0a", "is_reserved": 0, "rental_uris": {"ios": "https://dc.lft.to/lastmile_qr_scan", "android": "https://dc.lft.to/lastmile_qr_scan"}, "name": "62391b05b9feaf36bfbb3d127390df0a", "lon": -77.00819816666667}, {"lat": 38.89618133333333, "fusion_lat": 0.0, "is_disabled": 0, "fusion_lon": 0.0, "type": "electric_scooter", "bike_id": "b08c13bc91c9e0376379aa2f0cdbd2f8", "is_reserved": 0, "rental_uris": {"ios": "https://dc.lft.to/lastmile_qr_scan", "android": "https://dc.lft.to/lastmile_qr_scan"}, "name": "b08c13bc91c9e0376379aa2f0cdbd2f8", "lon": -77.00348}, {"lat": 38.89039666666667, "fusion_lat": 0.0, "is_disabled": 0, "fusion_lon": 0.0, "type": "electric_scooter", "bike_id": "d06d01177ee817fcf961c10e9b271d1e", "is_reserved": 0, "rental_uris": {"ios": "https://dc.lft.to/lastmile_qr_scan", "android": "https://dc.lft.to/lastmile_qr_scan"}, "name": "d06d01177ee817fcf961c10e9b271d1e", "lon": -76.93751883333333}, {"lat": 38.903497, "fusion_lat": 0.0, "is_disabled": 0, "fusion_lon": 0.0, "type": "electric_scooter", "bike_id": "25fd57f542d22fd2fe0c4db145f496cd", "is_reserved": 0, "rental_uris": {"ios": "https://dc.lft.to/lastmile_qr_scan", "android": "https://dc.lft.to/lastmile_qr_scan"}, "name": "25fd57f542d22fd2fe0c4db145f496cd", "lon": -77.01116433333334}, {"lat": 38.92147966666667, "fusion_lat": 0.0, "is_disabled": 0, "fusion_lon": 0.0, "type": "electric_scooter", "bike_id": "5525cd7b358f7700e51ea32c41cb8be6", "is_reserved": 0, "rental_uris": {"ios": "https://dc.lft.to/lastmile_qr_scan", "android": "https://dc.lft.to/lastmile_qr_scan"}, "name": "5525cd7b358f7700e51ea32c41cb8be6", "lon": -77.01783416666666}, {"lat": 38.917225, "fusion_lat": 0.0, "is_disabled": 0, "fusion_lon": 0.0, "type": "electric_scooter", "bike_id": "357800faca1ae4785454782475fc8db4", "is_reserved": 0, "rental_uris": {"ios": "https://dc.lft.to/lastmile_qr_scan", "android": "https://dc.lft.to/lastmile_qr_scan"}, "name": "357800faca1ae4785454782475fc8db4", "lon": -77.0269865}, {"lat": 38.91268916666667, "fusion_lat": 0.0, "is_disabled": 0, "fusion_lon": 0.0, "type": "electric_scooter", "bike_id": "66474b5f90a225778f22ccdc42b69c3c", "is_reserved": 0, "rental_uris": {"ios": "https://dc.lft.to/lastmile_qr_scan", "android": "https://dc.lft.to/lastmile_qr_scan"}, "name": "66474b5f90a225778f22ccdc42b69c3c", "lon": -77.022253}, {"lat": 38.90347, "fusion_lat": 0.0, "is_disabled": 0, "fusion_lon": 0.0, "type": "electric_scooter", "bike_id": "8677ed6076c960b281d8cfe4c80981de", "is_reserved": 0, "rental_uris": {"ios": "https://dc.lft.to/lastmile_qr_scan", "android": "https://dc.lft.to/lastmile_qr_scan"}, "name": "8677ed6076c960b281d8cfe4c80981de", "lon": -76.98607766666666}, {"lat": 38.907818166666665, "fusion_lat": 0.0, "is_disabled": 0, "fusion_lon": 0.0, "type": "electric_scooter", "bike_id": "a42640e77859278ced93e452bfd30093", "is_reserved": 0, "rental_uris": {"ios": "https://dc.lft.to/lastmile_qr_scan", "android": "https://dc.lft.to/lastmile_qr_scan"}, "name": "a42640e77859278ced93e452bfd30093", "lon": -77.07236766666666}, {"lat": 38.88708966666667, "fusion_lat": 0.0, "is_disabled": 0, "fusion_lon": 0.0, "type": "electric_scooter", "bike_id": "513e85c09fff32677d39ebfdd984ba7f", "is_reserved": 0, "rental_uris": {"ios": "https://dc.lft.to/lastmile_qr_scan", "android": "https://dc.lft.to/lastmile_qr_scan"}, "name": "513e85c09fff32677d39ebfdd984ba7f", "lon": -76.98381416666666}, {"lat": 38.91912466666667, "fusion_lat": 0.0, "is_disabled": 0, "fusion_lon": 0.0, "type": "electric_scooter", "bike_id": "a75703c17fa26ef62ed1b91631fec891", "is_reserved": 0, "rental_uris": {"ios": "https://dc.lft.to/lastmile_qr_scan", "android": "https://dc.lft.to/lastmile_qr_scan"}, "name": "a75703c17fa26ef62ed1b91631fec891", "lon": -77.03340566666667}, {"lat": 38.92292233333333, "fusion_lat": 0.0, "is_disabled": 0, "fusion_lon": 0.0, "type": "electric_scooter", "bike_id": "0623bfd7438777911810eb1344e88dec", "is_reserved": 0, "rental_uris": {"ios": "https://dc.lft.to/lastmile_qr_scan", "android": "https://dc.lft.to/lastmile_qr_scan"}, "name": "0623bfd7438777911810eb1344e88dec", "lon": -77.024167}, {"lat": 38.922041, "fusion_lat": 0.0, "is_disabled": 0, "fusion_lon": 0.0, "type": "electric_scooter", "bike_id": "a044dc59ee38f83c98774149deb4ae72", "is_reserved": 0, "rental_uris": {"ios": "https://dc.lft.to/lastmile_qr_scan", "android": "https://dc.lft.to/lastmile_qr_scan"}, "name": "a044dc59ee38f83c98774149deb4ae72", "lon": -77.0202765}, {"lat": 38.932904666666666, "fusion_lat": 0.0, "is_disabled": 0, "fusion_lon": 0.0, "type": "electric_scooter", "bike_id": "78eb312228af163b8b285d57805c658a", "is_reserved": 0, "rental_uris": {"ios": "https://dc.lft.to/lastmile_qr_scan", "android": "https://dc.lft.to/lastmile_qr_scan"}, "name": "78eb312228af163b8b285d57805c658a", "lon": -77.0205785}, {"lat": 38.91484583333333, "fusion_lat": 0.0, "is_disabled": 0, "fusion_lon": 0.0, "type": "electric_scooter", "bike_id": "8e6e5262933c316457e16cc3d4cd4822", "is_reserved": 0, "rental_uris": {"ios": "https://dc.lft.to/lastmile_qr_scan", "android": "https://dc.lft.to/lastmile_qr_scan"}, "name": "8e6e5262933c316457e16cc3d4cd4822", "lon": -76.98076483333334}, {"lat": 38.9233055, "fusion_lat": 0.0, "is_disabled": 0, "fusion_lon": 0.0, "type": "electric_scooter", "bike_id": "0b5fb1f6941c0a94d6303333f18eaa1d", "is_reserved": 0, "rental_uris": {"ios": "https://dc.lft.to/lastmile_qr_scan", "android": "https://dc.lft.to/lastmile_qr_scan"}, "name": "0b5fb1f6941c0a94d6303333f18eaa1d", "lon": -77.0446015}, {"lat": 38.866207833333334, "fusion_lat": 0.0, "is_disabled": 0, "fusion_lon": 0.0, "type": "electric_bike", "bike_id": "9e72819f902b0e0e743f46551f1d456f", "is_reserved": 0, "rental_uris": {"ios": "https://dc.lft.to/lastmile_qr_scan", "android": "https://dc.lft.to/lastmile_qr_scan"}, "name": "9e72819f902b0e0e743f46551f1d456f", "lon": -76.99001916666667}, {"lat": 38.990897333333336, "fusion_lat": 0.0, "is_disabled": 0, "fusion_lon": 0.0, "type": "electric_bike", "bike_id": "0b6f210f31aea8373a74b460d44862b7", "is_reserved": 0, "rental_uris": {"ios": "https://dc.lft.to/lastmile_qr_scan", "android": "https://dc.lft.to/lastmile_qr_scan"}, "name": "0b6f210f31aea8373a74b460d44862b7", "lon": -76.99364733333333}, {"lat": 38.93934733333333, "fusion_lat": 0.0, "is_disabled": 0, "fusion_lon": 0.0, "type": "electric_scooter", "bike_id": "dd45ae8a95fffdc290dfc474785f7e03", "is_reserved": 0, "rental_uris": {"ios": "https://dc.lft.to/lastmile_qr_scan", "android": "https://dc.lft.to/lastmile_qr_scan"}, "name": "dd45ae8a95fffdc290dfc474785f7e03", "lon": -77.06055733333334}, {"lat": 38.9159975, "fusion_lat": 0.0, "is_disabled": 0, "fusion_lon": 0.0, "type": "electric_scooter", "bike_id": "473b3c917526478a15a0cb1b59253b78", "is_reserved": 0, "rental_uris": {"ios": "https://dc.lft.to/lastmile_qr_scan", "android": "https://dc.lft.to/lastmile_qr_scan"}, "name": "473b3c917526478a15a0cb1b59253b78", "lon": -77.02965483333334}, {"lat": 38.879065, "fusion_lat": 0.0, "is_disabled": 0, "fusion_lon": 0.0, "type": "electric_scooter", "bike_id": "a9c4a29c9b48ebcc2f5e4b89dc9ab94a", "is_reserved": 0, "rental_uris": {"ios": "https://dc.lft.to/lastmile_qr_scan", "android": "https://dc.lft.to/lastmile_qr_scan"}, "name": "a9c4a29c9b48ebcc2f5e4b89dc9ab94a", "lon": -76.94471583333333}, {"lat": 38.921052333333336, "fusion_lat": 0.0, "is_disabled": 0, "fusion_lon": 0.0, "type": "electric_scooter", "bike_id": "cac464c0dd579b370e60743b7cf1d7fc", "is_reserved": 0, "rental_uris": {"ios": "https://dc.lft.to/lastmile_qr_scan", "android": "https://dc.lft.to/lastmile_qr_scan"}, "name": "cac464c0dd579b370e60743b7cf1d7fc", "lon": -77.043803}, {"lat": 38.902627333333335, "fusion_lat": 0.0, "is_disabled": 0, "fusion_lon": 0.0, "type": "electric_scooter", "bike_id": "974cf01e4c75829e61e72177fef50f0f", "is_reserved": 0, "rental_uris": {"ios": "https://dc.lft.to/lastmile_qr_scan", "android": "https://dc.lft.to/lastmile_qr_scan"}, "name": "974cf01e4c75829e61e72177fef50f0f", "lon": -77.02754366666667}, {"lat": 38.9267245, "fusion_lat": 0.0, "is_disabled": 0, "fusion_lon": 0.0, "type": "electric_scooter", "bike_id": "f87f8e683292a6b0cc7c4542cb050746", "is_reserved": 0, "rental_uris": {"ios": "https://dc.lft.to/lastmile_qr_scan", "android": "https://dc.lft.to/lastmile_qr_scan"}, "name": "f87f8e683292a6b0cc7c4542cb050746", "lon": -77.01470633333334}, {"lat": 38.88668883333333, "fusion_lat": 0.0, "is_disabled": 0, "fusion_lon": 0.0, "type": "electric_scooter", "bike_id": "351e448b8b517add31016ee0a3230eb2", "is_reserved": 0, "rental_uris": {"ios": "https://dc.lft.to/lastmile_qr_scan", "android": "https://dc.lft.to/lastmile_qr_scan"}, "name": "351e448b8b517add31016ee0a3230eb2", "lon": -76.99147266666667}, {"lat": 38.92480483333333, "fusion_lat": 0.0, "is_disabled": 0, "fusion_lon": 0.0, "type": "electric_scooter", "bike_id": "ee0d121c291949ccb8310a7e709cc0e1", "is_reserved": 0, "rental_uris": {"ios": "https://dc.lft.to/lastmile_qr_scan", "android": "https://dc.lft.to/lastmile_qr_scan"}, "name": "ee0d121c291949ccb8310a7e709cc0e1", "lon": -77.0271505}, {"lat": 38.8987615, "fusion_lat": 0.0, "is_disabled": 0, "fusion_lon": 0.0, "type": "electric_scooter", "bike_id": "19d073085d1a4978e219159eed9a7983", "is_reserved": 0, "rental_uris": {"ios": "https://dc.lft.to/lastmile_qr_scan", "android": "https://dc.lft.to/lastmile_qr_scan"}, "name": "19d073085d1a4978e219159eed9a7983", "lon": -77.03290766666667}, {"lat": 38.91700183333333, "fusion_lat": 0.0, "is_disabled": 0, "fusion_lon": 0.0, "type": "electric_scooter", "bike_id": "ccebcd9bccd433b0210e3cd829bb81e5", "is_reserved": 0, "rental_uris": {"ios": "https://dc.lft.to/lastmile_qr_scan", "android": "https://dc.lft.to/lastmile_qr_scan"}, "name": "ccebcd9bccd433b0210e3cd829bb81e5", "lon": -77.0241055}, {"lat": 38.89227966666667, "fusion_lat": 0.0, "is_disabled": 0, "fusion_lon": 0.0, "type": "electric_scooter", "bike_id": "904f9fa8a173a5f770ecb67930386a20", "is_reserved": 0, "rental_uris": {"ios": "https://dc.lft.to/lastmile_qr_scan", "android": "https://dc.lft.to/lastmile_qr_scan"}, "name": "904f9fa8a173a5f770ecb67930386a20", "lon": -77.04995933333333}, {"lat": 38.937481166666664, "fusion_lat": 0.0, "is_disabled": 0, "fusion_lon": 0.0, "type": "electric_scooter", "bike_id": "ad1d2cd6ce0aa3b8ddd959d8ed5cb8f9", "is_reserved": 0, "rental_uris": {"ios": "https://dc.lft.to/lastmile_qr_scan", "android": "https://dc.lft.to/lastmile_qr_scan"}, "name": "ad1d2cd6ce0aa3b8ddd959d8ed5cb8f9", "lon": -77.03265383333333}, {"lat": 38.8835415, "fusion_lat": 0.0, "is_disabled": 0, "fusion_lon": 0.0, "type": "electric_scooter", "bike_id": "4bfc273512ada394a921a2b5e29e6ef2", "is_reserved": 0, "rental_uris": {"ios": "https://dc.lft.to/lastmile_qr_scan", "android": "https://dc.lft.to/lastmile_qr_scan"}, "name": "4bfc273512ada394a921a2b5e29e6ef2", "lon": -76.9576765}, {"lat": 38.806353666666666, "fusion_lat": 0.0, "is_disabled": 0, "fusion_lon": 0.0, "type": "electric_bike", "bike_id": "23b03c3bca81b2dc56f7828451e125c0", "is_reserved": 0, "rental_uris": {"ios": "https://dc.lft.to/lastmile_qr_scan", "android": "https://dc.lft.to/lastmile_qr_scan"}, "name": "23b03c3bca81b2dc56f7828451e125c0", "lon": -77.06254216666666}, {"lat": 38.957337333333335, "fusion_lat": 0.0, "is_disabled": 0, "fusion_lon": 0.0, "type": "electric_scooter", "bike_id": "764aa2c7e6c69e728ba984861370a79c", "is_reserved": 0, "rental_uris": {"ios": "https://dc.lft.to/lastmile_qr_scan", "android": "https://dc.lft.to/lastmile_qr_scan"}, "name": "764aa2c7e6c69e728ba984861370a79c", "lon": -77.002152}, {"lat": 38.899949666666664, "fusion_lat": 0.0, "is_disabled": 0, "fusion_lon": 0.0, "type": "electric_scooter", "bike_id": "3cf6ad22ef1d40c604e031c89521df4d", "is_reserved": 0, "rental_uris": {"ios": "https://dc.lft.to/lastmile_qr_scan", "android": "https://dc.lft.to/lastmile_qr_scan"}, "name": "3cf6ad22ef1d40c604e031c89521df4d", "lon": -77.055472}, {"lat": 38.9317065, "fusion_lat": 0.0, "is_disabled": 0, "fusion_lon": 0.0, "type": "electric_scooter", "bike_id": "d2eae412a0b444ba6ae6e0698a8c3af4", "is_reserved": 0, "rental_uris": {"ios": "https://dc.lft.to/lastmile_qr_scan", "android": "https://dc.lft.to/lastmile_qr_scan"}, "name": "d2eae412a0b444ba6ae6e0698a8c3af4", "lon": -77.03666633333333}, {"lat": 38.8984625, "fusion_lat": 0.0, "is_disabled": 0, "fusion_lon": 0.0, "type": "electric_scooter", "bike_id": "612e4768c23464712d24b3ce30c9c723", "is_reserved": 0, "rental_uris": {"ios": "https://dc.lft.to/lastmile_qr_scan", "android": "https://dc.lft.to/lastmile_qr_scan"}, "name": "612e4768c23464712d24b3ce30c9c723", "lon": -76.990325}, {"lat": 38.924322333333336, "fusion_lat": 0.0, "is_disabled": 0, "fusion_lon": 0.0, "type": "electric_bike", "bike_id": "ff8b10f2bff5a2e96134d1527d96a261", "is_reserved": 0, "rental_uris": {"ios": "https://dc.lft.to/lastmile_qr_scan", "android": "https://dc.lft.to/lastmile_qr_scan"}, "name": "ff8b10f2bff5a2e96134d1527d96a261", "lon": -76.97159916666666}, {"lat": 38.89843916666667, "fusion_lat": 0.0, "is_disabled": 0, "fusion_lon": 0.0, "type": "electric_scooter", "bike_id": "fab6b278070ca800ed5d1c4eb6da7681", "is_reserved": 0, "rental_uris": {"ios": "https://dc.lft.to/lastmile_qr_scan", "android": "https://dc.lft.to/lastmile_qr_scan"}, "name": "fab6b278070ca800ed5d1c4eb6da7681", "lon": -77.044924}, {"lat": 38.922451833333334, "fusion_lat": 0.0, "is_disabled": 0, "fusion_lon": 0.0, "type": "electric_scooter", "bike_id": "f779b60d22fa894fc3f38c1663bca54e", "is_reserved": 0, "rental_uris": {"ios": "https://dc.lft.to/lastmile_qr_scan", "android": "https://dc.lft.to/lastmile_qr_scan"}, "name": "f779b60d22fa894fc3f38c1663bca54e", "lon": -77.0195285}, {"lat": 38.899513, "fusion_lat": 0.0, "is_disabled": 0, "fusion_lon": 0.0, "type": "electric_scooter", "bike_id": "412ea90268c53fb0dadee0a4e3664a7d", "is_reserved": 0, "rental_uris": {"ios": "https://dc.lft.to/lastmile_qr_scan", "android": "https://dc.lft.to/lastmile_qr_scan"}, "name": "412ea90268c53fb0dadee0a4e3664a7d", "lon": -77.0306555}, {"lat": 38.928841166666665, "fusion_lat": 0.0, "is_disabled": 0, "fusion_lon": 0.0, "type": "electric_scooter", "bike_id": "af5f7a98d090ef8664814859efdb3f7f", "is_reserved": 0, "rental_uris": {"ios": "https://dc.lft.to/lastmile_qr_scan", "android": "https://dc.lft.to/lastmile_qr_scan"}, "name": "af5f7a98d090ef8664814859efdb3f7f", "lon": -77.01393266666666}, {"lat": 38.89554783333333, "fusion_lat": 0.0, "is_disabled": 0, "fusion_lon": 0.0, "type": "electric_scooter", "bike_id": "00792dd22dc3299b4471c295675d2574", "is_reserved": 0, "rental_uris": {"ios": "https://dc.lft.to/lastmile_qr_scan", "android": "https://dc.lft.to/lastmile_qr_scan"}, "name": "00792dd22dc3299b4471c295675d2574", "lon": -77.046742}, {"lat": 38.9095585, "fusion_lat": 0.0, "is_disabled": 0, "fusion_lon": 0.0, "type": "electric_scooter", "bike_id": "4f00dcc42d80a92b3f084bd1990b9ae6", "is_reserved": 0, "rental_uris": {"ios": "https://dc.lft.to/lastmile_qr_scan", "android": "https://dc.lft.to/lastmile_qr_scan"}, "name": "4f00dcc42d80a92b3f084bd1990b9ae6", "lon": -77.02406083333334}, {"lat": 38.936887, "fusion_lat": 0.0, "is_disabled": 0, "fusion_lon": 0.0, "type": "electric_bike", "bike_id": "116e9dc3e30411fb1bd4edf14a3435fc", "is_reserved": 0, "rental_uris": {"ios": "https://dc.lft.to/lastmile_qr_scan", "android": "https://dc.lft.to/lastmile_qr_scan"}, "name": "116e9dc3e30411fb1bd4edf14a3435fc", "lon": -76.990562}, {"lat": 38.90162266666667, "fusion_lat": 0.0, "is_disabled": 0, "fusion_lon": 0.0, "type": "electric_scooter", "bike_id": "80f2fb07315be6b6dd6d2e4ebefc4a3e", "is_reserved": 0, "rental_uris": {"ios": "https://dc.lft.to/lastmile_qr_scan", "android": "https://dc.lft.to/lastmile_qr_scan"}, "name": "80f2fb07315be6b6dd6d2e4ebefc4a3e", "lon": -77.02207116666666}, {"lat": 38.81539016666667, "fusion_lat": 0.0, "is_disabled": 0, "fusion_lon": 0.0, "type": "electric_bike", "bike_id": "ec45155b924cb073e557d5e98c74eebf", "is_reserved": 0, "rental_uris": {"ios": "https://dc.lft.to/lastmile_qr_scan", "android": "https://dc.lft.to/lastmile_qr_scan"}, "name": "ec45155b924cb073e557d5e98c74eebf", "lon": -77.04645216666667}, {"lat": 38.89720883333333, "fusion_lat": 0.0, "is_disabled": 0, "fusion_lon": 0.0, "type": "electric_scooter", "bike_id": "a8a34aa2717060a2f0b493ebe4c95f87", "is_reserved": 0, "rental_uris": {"ios": "https://dc.lft.to/lastmile_qr_scan", "android": "https://dc.lft.to/lastmile_qr_scan"}, "name": "a8a34aa2717060a2f0b493ebe4c95f87", "lon": -76.97854383333333}, {"lat": 38.9323775, "fusion_lat": 0.0, "is_disabled": 0, "fusion_lon": 0.0, "type": "electric_scooter", "bike_id": "746dd7f97fb25a4a42943e5c9df369ef", "is_reserved": 0, "rental_uris": {"ios": "https://dc.lft.to/lastmile_qr_scan", "android": "https://dc.lft.to/lastmile_qr_scan"}, "name": "746dd7f97fb25a4a42943e5c9df369ef", "lon": -77.032757}, {"lat": 38.92550166666667, "fusion_lat": 0.0, "is_disabled": 0, "fusion_lon": 0.0, "type": "electric_scooter", "bike_id": "59ae776045b3823547f4a7ebf77d0f62", "is_reserved": 0, "rental_uris": {"ios": "https://dc.lft.to/lastmile_qr_scan", "android": "https://dc.lft.to/lastmile_qr_scan"}, "name": "59ae776045b3823547f4a7ebf77d0f62", "lon": -77.04173983333334}, {"lat": 38.9008225, "fusion_lat": 0.0, "is_disabled": 0, "fusion_lon": 0.0, "type": "electric_scooter", "bike_id": "b356a225ff329f2ce2af62795b30abe4", "is_reserved": 0, "rental_uris": {"ios": "https://dc.lft.to/lastmile_qr_scan", "android": "https://dc.lft.to/lastmile_qr_scan"}, "name": "b356a225ff329f2ce2af62795b30abe4", "lon": -77.027121}, {"lat": 38.90061933333333, "fusion_lat": 0.0, "is_disabled": 0, "fusion_lon": 0.0, "type": "electric_scooter", "bike_id": "2b473ce92d35a41f4a990208b8891d72", "is_reserved": 0, "rental_uris": {"ios": "https://dc.lft.to/lastmile_qr_scan", "android": "https://dc.lft.to/lastmile_qr_scan"}, "name": "2b473ce92d35a41f4a990208b8891d72", "lon": -77.0487555}, {"lat": 38.90646816666667, "fusion_lat": 0.0, "is_disabled": 0, "fusion_lon": 0.0, "type": "electric_scooter", "bike_id": "c9a4160f99a24e8b76b3006ab39858a6", "is_reserved": 0, "rental_uris": {"ios": "https://dc.lft.to/lastmile_qr_scan", "android": "https://dc.lft.to/lastmile_qr_scan"}, "name": "c9a4160f99a24e8b76b3006ab39858a6", "lon": -77.014092}, {"lat": 38.900145333333334, "fusion_lat": 0.0, "is_disabled": 0, "fusion_lon": 0.0, "type": "electric_scooter", "bike_id": "3cf2c7a5cf650c4456c805203053be04", "is_reserved": 0, "rental_uris": {"ios": "https://dc.lft.to/lastmile_qr_scan", "android": "https://dc.lft.to/lastmile_qr_scan"}, "name": "3cf2c7a5cf650c4456c805203053be04", "lon": -77.044913}, {"lat": 38.9223565, "fusion_lat": 0.0, "is_disabled": 0, "fusion_lon": 0.0, "type": "electric_scooter", "bike_id": "986b1bc4c68f13d7e6bdd0c294ddff73", "is_reserved": 0, "rental_uris": {"ios": "https://dc.lft.to/lastmile_qr_scan", "android": "https://dc.lft.to/lastmile_qr_scan"}, "name": "986b1bc4c68f13d7e6bdd0c294ddff73", "lon": -77.0335375}, {"lat": 38.918726166666666, "fusion_lat": 0.0, "is_disabled": 0, "fusion_lon": 0.0, "type": "electric_scooter", "bike_id": "4bd357cbcda5e0548fb032498425e7eb", "is_reserved": 0, "rental_uris": {"ios": "https://dc.lft.to/lastmile_qr_scan", "android": "https://dc.lft.to/lastmile_qr_scan"}, "name": "4bd357cbcda5e0548fb032498425e7eb", "lon": -77.04486083333333}, {"lat": 38.92298183333333, "fusion_lat": 0.0, "is_disabled": 0, "fusion_lon": 0.0, "type": "electric_scooter", "bike_id": "a220434229094cb3e43fa565ad058d49", "is_reserved": 0, "rental_uris": {"ios": "https://dc.lft.to/lastmile_qr_scan", "android": "https://dc.lft.to/lastmile_qr_scan"}, "name": "a220434229094cb3e43fa565ad058d49", "lon": -77.0426805}, {"lat": 38.944046166666666, "fusion_lat": 0.0, "is_disabled": 0, "fusion_lon": 0.0, "type": "electric_scooter", "bike_id": "5c244dbe7ad961326ce98aff7a55652e", "is_reserved": 0, "rental_uris": {"ios": "https://dc.lft.to/lastmile_qr_scan", "android": "https://dc.lft.to/lastmile_qr_scan"}, "name": "5c244dbe7ad961326ce98aff7a55652e", "lon": -77.09413166666667}, {"lat": 38.90039316666667, "fusion_lat": 0.0, "is_disabled": 0, "fusion_lon": 0.0, "type": "electric_scooter", "bike_id": "05e68b36d47fb7507a38b637fc51caf9", "is_reserved": 0, "rental_uris": {"ios": "https://dc.lft.to/lastmile_qr_scan", "android": "https://dc.lft.to/lastmile_qr_scan"}, "name": "05e68b36d47fb7507a38b637fc51caf9", "lon": -77.0118235}, {"lat": 38.88500533333333, "fusion_lat": 0.0, "is_disabled": 0, "fusion_lon": 0.0, "type": "electric_scooter", "bike_id": "5dbc6da4b0c8a6ab72c0cd69fe5e6dd8", "is_reserved": 0, "rental_uris": {"ios": "https://dc.lft.to/lastmile_qr_scan", "android": "https://dc.lft.to/lastmile_qr_scan"}, "name": "5dbc6da4b0c8a6ab72c0cd69fe5e6dd8", "lon": -77.00561866666666}, {"lat": 38.9023995, "fusion_lat": 0.0, "is_disabled": 0, "fusion_lon": 0.0, "type": "electric_scooter", "bike_id": "90cdb2a1faf5c5607d97cd5d531a83f1", "is_reserved": 0, "rental_uris": {"ios": "https://dc.lft.to/lastmile_qr_scan", "android": "https://dc.lft.to/lastmile_qr_scan"}, "name": "90cdb2a1faf5c5607d97cd5d531a83f1", "lon": -77.04556766666667}, {"lat": 38.91599633333333, "fusion_lat": 0.0, "is_disabled": 0, "fusion_lon": 0.0, "type": "electric_scooter", "bike_id": "a555098ecf1106a0e27882400b652928", "is_reserved": 0, "rental_uris": {"ios": "https://dc.lft.to/lastmile_qr_scan", "android": "https://dc.lft.to/lastmile_qr_scan"}, "name": "a555098ecf1106a0e27882400b652928", "lon": -77.0318335}, {"lat": 38.88722533333333, "fusion_lat": 0.0, "is_disabled": 0, "fusion_lon": 0.0, "type": "electric_scooter", "bike_id": "95d7cc77f48db6682f0a39e787721031", "is_reserved": 0, "rental_uris": {"ios": "https://dc.lft.to/lastmile_qr_scan", "android": "https://dc.lft.to/lastmile_qr_scan"}, "name": "95d7cc77f48db6682f0a39e787721031", "lon": -76.99609233333334}, {"lat": 38.876550333333334, "fusion_lat": 0.0, "is_disabled": 0, "fusion_lon": 0.0, "type": "electric_scooter", "bike_id": "395f0a1f9455937bf06866c275fd0fa5", "is_reserved": 0, "rental_uris": {"ios": "https://dc.lft.to/lastmile_qr_scan", "android": "https://dc.lft.to/lastmile_qr_scan"}, "name": "395f0a1f9455937bf06866c275fd0fa5", "lon": -77.00742966666667}, {"lat": 38.87467566666667, "fusion_lat": 0.0, "is_disabled": 0, "fusion_lon": 0.0, "type": "electric_scooter", "bike_id": "2887ee6d8b1432e6c22b811cbd16c5d3", "is_reserved": 0, "rental_uris": {"ios": "https://dc.lft.to/lastmile_qr_scan", "android": "https://dc.lft.to/lastmile_qr_scan"}, "name": "2887ee6d8b1432e6c22b811cbd16c5d3", "lon": -77.00518383333333}, {"lat": 38.883349, "fusion_lat": 0.0, "is_disabled": 0, "fusion_lon": 0.0, "type": "electric_scooter", "bike_id": "7927bb236040e9592c855fb304f7e739", "is_reserved": 0, "rental_uris": {"ios": "https://dc.lft.to/lastmile_qr_scan", "android": "https://dc.lft.to/lastmile_qr_scan"}, "name": "7927bb236040e9592c855fb304f7e739", "lon": -77.0151845}, {"lat": 38.93689783333333, "fusion_lat": 0.0, "is_disabled": 0, "fusion_lon": 0.0, "type": "electric_scooter", "bike_id": "4f9a0dd66781564026e5c0a61d27672a", "is_reserved": 0, "rental_uris": {"ios": "https://dc.lft.to/lastmile_qr_scan", "android": "https://dc.lft.to/lastmile_qr_scan"}, "name": "4f9a0dd66781564026e5c0a61d27672a", "lon": -77.0842985}, {"lat": 38.9020565, "fusion_lat": 0.0, "is_disabled": 0, "fusion_lon": 0.0, "type": "electric_scooter", "bike_id": "c21bd83948387afac11c4b7b35774122", "is_reserved": 0, "rental_uris": {"ios": "https://dc.lft.to/lastmile_qr_scan", "android": "https://dc.lft.to/lastmile_qr_scan"}, "name": "c21bd83948387afac11c4b7b35774122", "lon": -77.04688116666667}, {"lat": 38.924785, "fusion_lat": 0.0, "is_disabled": 0, "fusion_lon": 0.0, "type": "electric_scooter", "bike_id": "e57972825d2bcd5b934b2f232db0e71f", "is_reserved": 0, "rental_uris": {"ios": "https://dc.lft.to/lastmile_qr_scan", "android": "https://dc.lft.to/lastmile_qr_scan"}, "name": "e57972825d2bcd5b934b2f232db0e71f", "lon": -77.02571483333334}, {"lat": 38.98882233333333, "fusion_lat": 0.0, "is_disabled": 0, "fusion_lon": 0.0, "type": "electric_bike", "bike_id": "4f97c49e32f3c3383967ce03681da85f", "is_reserved": 0, "rental_uris": {"ios": "https://dc.lft.to/lastmile_qr_scan", "android": "https://dc.lft.to/lastmile_qr_scan"}, "name": "4f97c49e32f3c3383967ce03681da85f", "lon": -76.98802366666666}, {"lat": 38.9225175, "fusion_lat": 0.0, "is_disabled": 0, "fusion_lon": 0.0, "type": "electric_scooter", "bike_id": "b254b75e33ef09b91da5b436ecd1e6a6", "is_reserved": 0, "rental_uris": {"ios": "https://dc.lft.to/lastmile_qr_scan", "android": "https://dc.lft.to/lastmile_qr_scan"}, "name": "b254b75e33ef09b91da5b436ecd1e6a6", "lon": -77.01944233333333}, {"lat": 38.92341233333333, "fusion_lat": 0.0, "is_disabled": 0, "fusion_lon": 0.0, "type": "electric_scooter", "bike_id": "a5421e62172441974adcef78afcd8810", "is_reserved": 0, "rental_uris": {"ios": "https://dc.lft.to/lastmile_qr_scan", "android": "https://dc.lft.to/lastmile_qr_scan"}, "name": "a5421e62172441974adcef78afcd8810", "lon": -77.05617833333334}, {"lat": 38.907321333333336, "fusion_lat": 0.0, "is_disabled": 0, "fusion_lon": 0.0, "type": "electric_scooter", "bike_id": "63cfaf82efe0cb87a6c283e43deb2877", "is_reserved": 0, "rental_uris": {"ios": "https://dc.lft.to/lastmile_qr_scan", "android": "https://dc.lft.to/lastmile_qr_scan"}, "name": "63cfaf82efe0cb87a6c283e43deb2877", "lon": -77.00795866666667}, {"lat": 38.89774833333333, "fusion_lat": 0.0, "is_disabled": 0, "fusion_lon": 0.0, "type": "electric_scooter", "bike_id": "53ec46dfb4fcc7f04d023bd572535f35", "is_reserved": 0, "rental_uris": {"ios": "https://dc.lft.to/lastmile_qr_scan", "android": "https://dc.lft.to/lastmile_qr_scan"}, "name": "53ec46dfb4fcc7f04d023bd572535f35", "lon": -77.01176083333333}, {"lat": 38.952198, "fusion_lat": 0.0, "is_disabled": 0, "fusion_lon": 0.0, "type": "electric_bike", "bike_id": "dfebcb2a1e2658fb973964964d354828", "is_reserved": 0, "rental_uris": {"ios": "https://dc.lft.to/lastmile_qr_scan", "android": "https://dc.lft.to/lastmile_qr_scan"}, "name": "dfebcb2a1e2658fb973964964d354828", "lon": -77.00188316666667}, {"lat": 38.90949283333333, "fusion_lat": 0.0, "is_disabled": 0, "fusion_lon": 0.0, "type": "electric_scooter", "bike_id": "76916760137ddd34bfdfd91c77c5a87a", "is_reserved": 0, "rental_uris": {"ios": "https://dc.lft.to/lastmile_qr_scan", "android": "https://dc.lft.to/lastmile_qr_scan"}, "name": "76916760137ddd34bfdfd91c77c5a87a", "lon": -77.0344465}, {"lat": 38.96791833333333, "fusion_lat": 0.0, "is_disabled": 0, "fusion_lon": 0.0, "type": "electric_scooter", "bike_id": "1255e7721440278184f9f18796a5b7bc", "is_reserved": 0, "rental_uris": {"ios": "https://dc.lft.to/lastmile_qr_scan", "android": "https://dc.lft.to/lastmile_qr_scan"}, "name": "1255e7721440278184f9f18796a5b7bc", "lon": -77.024327}, {"lat": 38.8999085, "fusion_lat": 0.0, "is_disabled": 0, "fusion_lon": 0.0, "type": "electric_scooter", "bike_id": "6207ee473d9502774bac5169f868f945", "is_reserved": 0, "rental_uris": {"ios": "https://dc.lft.to/lastmile_qr_scan", "android": "https://dc.lft.to/lastmile_qr_scan"}, "name": "6207ee473d9502774bac5169f868f945", "lon": -77.02147616666667}, {"lat": 38.89552483333333, "fusion_lat": 0.0, "is_disabled": 0, "fusion_lon": 0.0, "type": "electric_scooter", "bike_id": "269ff0b84d24e7b2b224ea54d4fc3c6f", "is_reserved": 0, "rental_uris": {"ios": "https://dc.lft.to/lastmile_qr_scan", "android": "https://dc.lft.to/lastmile_qr_scan"}, "name": "269ff0b84d24e7b2b224ea54d4fc3c6f", "lon": -77.00916066666667}, {"lat": 38.88771883333333, "fusion_lat": 0.0, "is_disabled": 0, "fusion_lon": 0.0, "type": "electric_scooter", "bike_id": "779f501923ad95bcf25a8ca1cdddaf79", "is_reserved": 0, "rental_uris": {"ios": "https://dc.lft.to/lastmile_qr_scan", "android": "https://dc.lft.to/lastmile_qr_scan"}, "name": "779f501923ad95bcf25a8ca1cdddaf79", "lon": -76.9326335}, {"lat": 38.937121, "fusion_lat": 0.0, "is_disabled": 0, "fusion_lon": 0.0, "type": "electric_scooter", "bike_id": "e66882356a060496f4ee052ce06a2cf1", "is_reserved": 0, "rental_uris": {"ios": "https://dc.lft.to/lastmile_qr_scan", "android": "https://dc.lft.to/lastmile_qr_scan"}, "name": "e66882356a060496f4ee052ce06a2cf1", "lon": -77.024491}, {"lat": 38.9216795, "fusion_lat": 0.0, "is_disabled": 0, "fusion_lon": 0.0, "type": "electric_scooter", "bike_id": "0288220da26dde5d6eb6db7b91d9e4d7", "is_reserved": 0, "rental_uris": {"ios": "https://dc.lft.to/lastmile_qr_scan", "android": "https://dc.lft.to/lastmile_qr_scan"}, "name": "0288220da26dde5d6eb6db7b91d9e4d7", "lon": -77.0401905}, {"lat": 38.9318905, "fusion_lat": 0.0, "is_disabled": 0, "fusion_lon": 0.0, "type": "electric_scooter", "bike_id": "fb7ea3b503df3fcae3f30c6744a0fdbd", "is_reserved": 0, "rental_uris": {"ios": "https://dc.lft.to/lastmile_qr_scan", "android": "https://dc.lft.to/lastmile_qr_scan"}, "name": "fb7ea3b503df3fcae3f30c6744a0fdbd", "lon": -77.025787}, {"lat": 38.90024833333333, "fusion_lat": 0.0, "is_disabled": 0, "fusion_lon": 0.0, "type": "electric_scooter", "bike_id": "44362ba4a531066c1fc5dcfc5da5b9ed", "is_reserved": 0, "rental_uris": {"ios": "https://dc.lft.to/lastmile_qr_scan", "android": "https://dc.lft.to/lastmile_qr_scan"}, "name": "44362ba4a531066c1fc5dcfc5da5b9ed", "lon": -77.020092}, {"lat": 38.89714, "fusion_lat": 0.0, "is_disabled": 0, "fusion_lon": 0.0, "type": "electric_scooter", "bike_id": "351c924cee0670652715e0728d81c711", "is_reserved": 0, "rental_uris": {"ios": "https://dc.lft.to/lastmile_qr_scan", "android": "https://dc.lft.to/lastmile_qr_scan"}, "name": "351c924cee0670652715e0728d81c711", "lon": -77.00797083333333}, {"lat": 38.86427366666667, "fusion_lat": 0.0, "is_disabled": 0, "fusion_lon": 0.0, "type": "electric_scooter", "bike_id": "1d908b9c91991d42f3736ed66d3c4034", "is_reserved": 0, "rental_uris": {"ios": "https://dc.lft.to/lastmile_qr_scan", "android": "https://dc.lft.to/lastmile_qr_scan"}, "name": "1d908b9c91991d42f3736ed66d3c4034", "lon": -76.97444766666666}, {"lat": 38.909929, "fusion_lat": 0.0, "is_disabled": 0, "fusion_lon": 0.0, "type": "electric_scooter", "bike_id": "ac784be90bdee12d8695767f50e1573d", "is_reserved": 0, "rental_uris": {"ios": "https://dc.lft.to/lastmile_qr_scan", "android": "https://dc.lft.to/lastmile_qr_scan"}, "name": "ac784be90bdee12d8695767f50e1573d", "lon": -77.00467483333334}, {"lat": 38.925982833333336, "fusion_lat": 0.0, "is_disabled": 0, "fusion_lon": 0.0, "type": "electric_scooter", "bike_id": "054045e7855993711c1f265862883ea1", "is_reserved": 0, "rental_uris": {"ios": "https://dc.lft.to/lastmile_qr_scan", "android": "https://dc.lft.to/lastmile_qr_scan"}, "name": "054045e7855993711c1f265862883ea1", "lon": -77.02499933333333}, {"lat": 38.88391566666667, "fusion_lat": 0.0, "is_disabled": 0, "fusion_lon": 0.0, "type": "electric_scooter", "bike_id": "adf0fcba78db0e5580e017c6b93a53a7", "is_reserved": 0, "rental_uris": {"ios": "https://dc.lft.to/lastmile_qr_scan", "android": "https://dc.lft.to/lastmile_qr_scan"}, "name": "adf0fcba78db0e5580e017c6b93a53a7", "lon": -77.044595}, {"lat": 38.9463445, "fusion_lat": 0.0, "is_disabled": 0, "fusion_lon": 0.0, "type": "electric_scooter", "bike_id": "b649bc263618d692775fcd0f9095a0c1", "is_reserved": 0, "rental_uris": {"ios": "https://dc.lft.to/lastmile_qr_scan", "android": "https://dc.lft.to/lastmile_qr_scan"}, "name": "b649bc263618d692775fcd0f9095a0c1", "lon": -77.02270266666666}, {"lat": 38.928035666666666, "fusion_lat": 0.0, "is_disabled": 0, "fusion_lon": 0.0, "type": "electric_bike", "bike_id": "2beb451c1fdeb9831eea101595d84843", "is_reserved": 0, "rental_uris": {"ios": "https://dc.lft.to/lastmile_qr_scan", "android": "https://dc.lft.to/lastmile_qr_scan"}, "name": "2beb451c1fdeb9831eea101595d84843", "lon": -77.2294535}, {"lat": 38.8870875, "fusion_lat": 0.0, "is_disabled": 0, "fusion_lon": 0.0, "type": "electric_scooter", "bike_id": "376753922c73749038906c9837534d71", "is_reserved": 0, "rental_uris": {"ios": "https://dc.lft.to/lastmile_qr_scan", "android": "https://dc.lft.to/lastmile_qr_scan"}, "name": "376753922c73749038906c9837534d71", "lon": -76.98344216666666}, {"lat": 38.90247566666667, "fusion_lat": 0.0, "is_disabled": 0, "fusion_lon": 0.0, "type": "electric_scooter", "bike_id": "73a787b545e833d9fa27e98a2fdb9dfb", "is_reserved": 0, "rental_uris": {"ios": "https://dc.lft.to/lastmile_qr_scan", "android": "https://dc.lft.to/lastmile_qr_scan"}, "name": "73a787b545e833d9fa27e98a2fdb9dfb", "lon": -77.03886216666666}, {"lat": 38.920484333333334, "fusion_lat": 0.0, "is_disabled": 0, "fusion_lon": 0.0, "type": "electric_scooter", "bike_id": "76aa100df13b74b4c50e643dd6abebad", "is_reserved": 0, "rental_uris": {"ios": "https://dc.lft.to/lastmile_qr_scan", "android": "https://dc.lft.to/lastmile_qr_scan"}, "name": "76aa100df13b74b4c50e643dd6abebad", "lon": -77.0418485}, {"lat": 38.898831333333334, "fusion_lat": 0.0, "is_disabled": 0, "fusion_lon": 0.0, "type": "electric_scooter", "bike_id": "0ae3c783182ba43d129ea7abb42e00d9", "is_reserved": 0, "rental_uris": {"ios": "https://dc.lft.to/lastmile_qr_scan", "android": "https://dc.lft.to/lastmile_qr_scan"}, "name": "0ae3c783182ba43d129ea7abb42e00d9", "lon": -76.93176083333333}, {"lat": 38.832856666666665, "fusion_lat": 0.0, "is_disabled": 0, "fusion_lon": 0.0, "type": "electric_bike", "bike_id": "068b97c69938dc761c6cc600c57a323f", "is_reserved": 0, "rental_uris": {"ios": "https://dc.lft.to/lastmile_qr_scan", "android": "https://dc.lft.to/lastmile_qr_scan"}, "name": "068b97c69938dc761c6cc600c57a323f", "lon": -77.047889}, {"lat": 38.924098, "fusion_lat": 0.0, "is_disabled": 0, "fusion_lon": 0.0, "type": "electric_scooter", "bike_id": "866fb48c0f55d4ee830af29511c517b6", "is_reserved": 0, "rental_uris": {"ios": "https://dc.lft.to/lastmile_qr_scan", "android": "https://dc.lft.to/lastmile_qr_scan"}, "name": "866fb48c0f55d4ee830af29511c517b6", "lon": -77.02280733333333}, {"lat": 38.879137666666665, "fusion_lat": 0.0, "is_disabled": 0, "fusion_lon": 0.0, "type": "electric_scooter", "bike_id": "6e0f6862daea91e2c0297cba4e37ee43", "is_reserved": 0, "rental_uris": {"ios": "https://dc.lft.to/lastmile_qr_scan", "android": "https://dc.lft.to/lastmile_qr_scan"}, "name": "6e0f6862daea91e2c0297cba4e37ee43", "lon": -77.01738133333333}, {"lat": 38.92815383333333, "fusion_lat": 0.0, "is_disabled": 0, "fusion_lon": 0.0, "type": "electric_scooter", "bike_id": "a3c93971023d65ef35f867082c010746", "is_reserved": 0, "rental_uris": {"ios": "https://dc.lft.to/lastmile_qr_scan", "android": "https://dc.lft.to/lastmile_qr_scan"}, "name": "a3c93971023d65ef35f867082c010746", "lon": -77.03642183333334}, {"lat": 38.93246666666667, "fusion_lat": 0.0, "is_disabled": 0, "fusion_lon": 0.0, "type": "electric_scooter", "bike_id": "3a5f0349e28c0aeaa88d089a19a0e3f6", "is_reserved": 0, "rental_uris": {"ios": "https://dc.lft.to/lastmile_qr_scan", "android": "https://dc.lft.to/lastmile_qr_scan"}, "name": "3a5f0349e28c0aeaa88d089a19a0e3f6", "lon": -77.0328185}, {"lat": 38.91037733333334, "fusion_lat": 0.0, "is_disabled": 0, "fusion_lon": 0.0, "type": "electric_scooter", "bike_id": "993e4dc1c97ddfa0521f60f4a51c6890", "is_reserved": 0, "rental_uris": {"ios": "https://dc.lft.to/lastmile_qr_scan", "android": "https://dc.lft.to/lastmile_qr_scan"}, "name": "993e4dc1c97ddfa0521f60f4a51c6890", "lon": -77.04399916666667}, {"lat": 38.945526666666666, "fusion_lat": 0.0, "is_disabled": 0, "fusion_lon": 0.0, "type": "electric_scooter", "bike_id": "c1ba91ab95d28359afc702eceff44d59", "is_reserved": 0, "rental_uris": {"ios": "https://dc.lft.to/lastmile_qr_scan", "android": "https://dc.lft.to/lastmile_qr_scan"}, "name": "c1ba91ab95d28359afc702eceff44d59", "lon": -77.06408633333334}, {"lat": 38.932195666666665, "fusion_lat": 0.0, "is_disabled": 0, "fusion_lon": 0.0, "type": "electric_bike", "bike_id": "b44bcfad0bd93e231bcf913dfa9f1690", "is_reserved": 0, "rental_uris": {"ios": "https://dc.lft.to/lastmile_qr_scan", "android": "https://dc.lft.to/lastmile_qr_scan"}, "name": "b44bcfad0bd93e231bcf913dfa9f1690", "lon": -76.99877133333334}, {"lat": 38.9210805, "fusion_lat": 0.0, "is_disabled": 0, "fusion_lon": 0.0, "type": "electric_scooter", "bike_id": "ced4235cf88dc035ca5b7cfa13174741", "is_reserved": 0, "rental_uris": {"ios": "https://dc.lft.to/lastmile_qr_scan", "android": "https://dc.lft.to/lastmile_qr_scan"}, "name": "ced4235cf88dc035ca5b7cfa13174741", "lon": -77.04200416666667}, {"lat": 38.94370266666667, "fusion_lat": 0.0, "is_disabled": 0, "fusion_lon": 0.0, "type": "electric_bike", "bike_id": "a78bfc42d6d75aecda6d6a185201b3ea", "is_reserved": 0, "rental_uris": {"ios": "https://dc.lft.to/lastmile_qr_scan", "android": "https://dc.lft.to/lastmile_qr_scan"}, "name": "a78bfc42d6d75aecda6d6a185201b3ea", "lon": -77.07745183333333}, {"lat": 38.842868333333335, "fusion_lat": 0.0, "is_disabled": 0, "fusion_lon": 0.0, "type": "electric_bike", "bike_id": "10456913cbbca22000ab66af853d7887", "is_reserved": 0, "rental_uris": {"ios": "https://dc.lft.to/lastmile_qr_scan", "android": "https://dc.lft.to/lastmile_qr_scan"}, "name": "10456913cbbca22000ab66af853d7887", "lon": -77.063601}, {"lat": 38.920319666666664, "fusion_lat": 0.0, "is_disabled": 0, "fusion_lon": 0.0, "type": "electric_bike", "bike_id": "b88937afba48f1292bb3f35c21028e63", "is_reserved": 0, "rental_uris": {"ios": "https://dc.lft.to/lastmile_qr_scan", "android": "https://dc.lft.to/lastmile_qr_scan"}, "name": "b88937afba48f1292bb3f35c21028e63", "lon": -76.97950183333333}, {"lat": 38.90567166666666, "fusion_lat": 0.0, "is_disabled": 0, "fusion_lon": 0.0, "type": "electric_scooter", "bike_id": "92ff779be969e6e2032398ecdbbae7cf", "is_reserved": 0, "rental_uris": {"ios": "https://dc.lft.to/lastmile_qr_scan", "android": "https://dc.lft.to/lastmile_qr_scan"}, "name": "92ff779be969e6e2032398ecdbbae7cf", "lon": -77.03456716666666}, {"lat": 38.95245833333333, "fusion_lat": 0.0, "is_disabled": 0, "fusion_lon": 0.0, "type": "electric_bike", "bike_id": "6f9727f1bbd32300780335b1ee30b0bc", "is_reserved": 0, "rental_uris": {"ios": "https://dc.lft.to/lastmile_qr_scan", "android": "https://dc.lft.to/lastmile_qr_scan"}, "name": "6f9727f1bbd32300780335b1ee30b0bc", "lon": -77.09623466666666}, {"lat": 38.913761666666666, "fusion_lat": 0.0, "is_disabled": 0, "fusion_lon": 0.0, "type": "electric_scooter", "bike_id": "6158fab0cda94a224fd87a9346c8d5f0", "is_reserved": 0, "rental_uris": {"ios": "https://dc.lft.to/lastmile_qr_scan", "android": "https://dc.lft.to/lastmile_qr_scan"}, "name": "6158fab0cda94a224fd87a9346c8d5f0", "lon": -77.02177833333333}, {"lat": 38.87660733333333, "fusion_lat": 0.0, "is_disabled": 0, "fusion_lon": 0.0, "type": "electric_scooter", "bike_id": "f14c04964b795fa3cd78b71392fa036e", "is_reserved": 0, "rental_uris": {"ios": "https://dc.lft.to/lastmile_qr_scan", "android": "https://dc.lft.to/lastmile_qr_scan"}, "name": "f14c04964b795fa3cd78b71392fa036e", "lon": -77.00290616666666}, {"lat": 38.89507783333333, "fusion_lat": 0.0, "is_disabled": 0, "fusion_lon": 0.0, "type": "electric_scooter", "bike_id": "982af050a9e557ac0df128c43549b3a1", "is_reserved": 0, "rental_uris": {"ios": "https://dc.lft.to/lastmile_qr_scan", "android": "https://dc.lft.to/lastmile_qr_scan"}, "name": "982af050a9e557ac0df128c43549b3a1", "lon": -77.02203616666667}, {"lat": 38.946483666666666, "fusion_lat": 0.0, "is_disabled": 0, "fusion_lon": 0.0, "type": "electric_bike", "bike_id": "072f4032bd5e918297c116d5f3fdb80c", "is_reserved": 0, "rental_uris": {"ios": "https://dc.lft.to/lastmile_qr_scan", "android": "https://dc.lft.to/lastmile_qr_scan"}, "name": "072f4032bd5e918297c116d5f3fdb80c", "lon": -77.06471266666667}, {"lat": 38.89717916666667, "fusion_lat": 0.0, "is_disabled": 0, "fusion_lon": 0.0, "type": "electric_scooter", "bike_id": "988908779be7c76b61b6f7aa90f100c8", "is_reserved": 0, "rental_uris": {"ios": "https://dc.lft.to/lastmile_qr_scan", "android": "https://dc.lft.to/lastmile_qr_scan"}, "name": "988908779be7c76b61b6f7aa90f100c8", "lon": -77.0414805}, {"lat": 38.900146666666664, "fusion_lat": 0.0, "is_disabled": 0, "fusion_lon": 0.0, "type": "electric_scooter", "bike_id": "d42cc6d5c32aad0b406d56506789bb7c", "is_reserved": 0, "rental_uris": {"ios": "https://dc.lft.to/lastmile_qr_scan", "android": "https://dc.lft.to/lastmile_qr_scan"}, "name": "d42cc6d5c32aad0b406d56506789bb7c", "lon": -77.04486}, {"lat": 38.8887125, "fusion_lat": 0.0, "is_disabled": 0, "fusion_lon": 0.0, "type": "electric_scooter", "bike_id": "6c99f9110a6fde9f58aec8efe148a4ad", "is_reserved": 0, "rental_uris": {"ios": "https://dc.lft.to/lastmile_qr_scan", "android": "https://dc.lft.to/lastmile_qr_scan"}, "name": "6c99f9110a6fde9f58aec8efe148a4ad", "lon": -77.00003916666667}, {"lat": 38.947488666666665, "fusion_lat": 0.0, "is_disabled": 0, "fusion_lon": 0.0, "type": "electric_scooter", "bike_id": "4cdd5e1c6924d89ad0bbfc8f2f6ae9fe", "is_reserved": 0, "rental_uris": {"ios": "https://dc.lft.to/lastmile_qr_scan", "android": "https://dc.lft.to/lastmile_qr_scan"}, "name": "4cdd5e1c6924d89ad0bbfc8f2f6ae9fe", "lon": -77.0328295}, {"lat": 38.92013466666667, "fusion_lat": 0.0, "is_disabled": 0, "fusion_lon": 0.0, "type": "electric_scooter", "bike_id": "910f6713fd636edf9196f28947afae99", "is_reserved": 0, "rental_uris": {"ios": "https://dc.lft.to/lastmile_qr_scan", "android": "https://dc.lft.to/lastmile_qr_scan"}, "name": "910f6713fd636edf9196f28947afae99", "lon": -77.0715895}, {"lat": 38.9016535, "fusion_lat": 0.0, "is_disabled": 0, "fusion_lon": 0.0, "type": "electric_scooter", "bike_id": "d7ea9687a5dd61b8099fb81ceb2e52c7", "is_reserved": 0, "rental_uris": {"ios": "https://dc.lft.to/lastmile_qr_scan", "android": "https://dc.lft.to/lastmile_qr_scan"}, "name": "d7ea9687a5dd61b8099fb81ceb2e52c7", "lon": -76.984543}, {"lat": 38.9386255, "fusion_lat": 0.0, "is_disabled": 0, "fusion_lon": 0.0, "type": "electric_scooter", "bike_id": "7632e94824fc846e3ce034b08f5b1941", "is_reserved": 0, "rental_uris": {"ios": "https://dc.lft.to/lastmile_qr_scan", "android": "https://dc.lft.to/lastmile_qr_scan"}, "name": "7632e94824fc846e3ce034b08f5b1941", "lon": -77.072398}, {"lat": 38.90675483333333, "fusion_lat": 0.0, "is_disabled": 0, "fusion_lon": 0.0, "type": "electric_scooter", "bike_id": "66336bea5cb77046a79a12348818431e", "is_reserved": 0, "rental_uris": {"ios": "https://dc.lft.to/lastmile_qr_scan", "android": "https://dc.lft.to/lastmile_qr_scan"}, "name": "66336bea5cb77046a79a12348818431e", "lon": -77.03645533333334}, {"lat": 38.87532233333334, "fusion_lat": 0.0, "is_disabled": 0, "fusion_lon": 0.0, "type": "electric_scooter", "bike_id": "09138cab41bc51ed7c45e9a4d6f22993", "is_reserved": 0, "rental_uris": {"ios": "https://dc.lft.to/lastmile_qr_scan", "android": "https://dc.lft.to/lastmile_qr_scan"},