{"data": {"bikes": [{"type": "electric_scooter", "rental_uris": {"ios": "https://dc.lft.to/lastmile_qr_scan", "android": "https://dc.lft.to/lastmile_qr_scan"}, "lon": -77.02213333333333, "fusion_lon": 0.0, "is_disabled": 0, "lat": 38.887488, "bike_id": "4576162b6f9b71d9d1ebb0aa9d57c473", "name": "4576162b6f9b71d9d1ebb0aa9d57c473", "is_reserved": 0, "fusion_lat": 0.0}, {"type": "electric_scooter", "rental_uris": {"ios": "https://dc.lft.to/lastmile_qr_scan", "android": "https://dc.lft.to/lastmile_qr_scan"}, "lon": -77.03407166666666, "fusion_lon": 0.0, "is_disabled": 0, "lat": 38.91924483333333, "bike_id": "df798c4371d55432cce54d9a9e16a70f", "name": "df798c4371d55432cce54d9a9e16a70f", "is_reserved": 0, "fusion_lat": 0.0}, {"type": "electric_scooter", "rental_uris": {"ios": "https://dc.lft.to/lastmile_qr_scan", "android": "https://dc.lft.to/lastmile_qr_scan"}, "lon": -77.0137305, "fusion_lon": 0.0, "is_disabled": 0, "lat": 38.892245833333334, "bike_id": "9c051c7473d2743dcbaf751a3e40907e", "name": "9c051c7473d2743dcbaf751a3e40907e", "is_reserved": 0, "fusion_lat": 0.0}, {"type": "electric_scooter", "rental_uris": {"ios": "https://dc.lft.to/lastmile_qr_scan", "android": "https://dc.lft.to/lastmile_qr_scan"}, "lon": -77.02492483333333, "fusion_lon": 0.0, "is_disabled": 0, "lat": 38.941861333333335, "bike_id": "568e0b9eec0e0d13bfa92a54e43e5b8a", "name": "568e0b9eec0e0d13bfa92a54e43e5b8a", "is_reserved": 0, "fusion_lat": 0.0}, {"type": "electric_scooter", "rental_uris": {"ios": "https://dc.lft.to/lastmile_qr_scan", "android": "https://dc.lft.to/lastmile_qr_scan"}, "lon": -77.0428275, "fusion_lon": 0.0, "is_disabled": 0, "lat": 38.92065383333333, "bike_id": "868bc12336b50de128ec5df6b49c2e69", "name": "868bc12336b50de128ec5df6b49c2e69", "is_reserved": 0, "fusion_lat": 0.0}, {"type": "electric_scooter", "rental_uris": {"ios": "https://dc.lft.to/lastmile_qr_scan", "android": "https://dc.lft.to/lastmile_qr_scan"}, "lon": -77.0060955, "fusion_lon": 0.0, "is_disabled": 0, "lat": 38.8718175, "bike_id": "9ec34649dcd2d1afc95d506b9905b366", "name": "9ec34649dcd2d1afc95d506b9905b366", "is_reserved": 0, "fusion_lat": 0.0}, {"type": "electric_scooter", "rental_uris": {"ios": "https://dc.lft.to/lastmile_qr_scan", "android": "https://dc.lft.to/lastmile_qr_scan"}, "lon": -77.02296616666666, "fusion_lon": 0.0, "is_disabled": 0, "lat": 38.926115833333334, "bike_id": "655ffdbc22db2827ada6edff564a0d49", "name": "655ffdbc22db2827ada6edff564a0d49", "is_reserved": 0, "fusion_lat": 0.0}, {"type": "electric_scooter", "rental_uris": {"ios": "https://dc.lft.to/lastmile_qr_scan", "android": "https://dc.lft.to/lastmile_qr_scan"}, "lon": -77.03363116666667, "fusion_lon": 0.0, "is_disabled": 0, "lat": 38.913597333333335, "bike_id": "192325ec5e77ca843ee83f94123c2807", "name": "192325ec5e77ca843ee83f94123c2807", "is_reserved": 0, "fusion_lat": 0.0}, {"type": "electric_scooter", "rental_uris": {"ios": "https://dc.lft.to/lastmile_qr_scan", "android": "https://dc.lft.to/lastmile_qr_scan"}, "lon": -77.032959, "fusion_lon": 0.0, "is_disabled": 0, "lat": 38.94714966666667, "bike_id": "9fb13e95052ec6872b488ca9c250d874", "name": "9fb13e95052ec6872b488ca9c250d874", "is_reserved": 0, "fusion_lat": 0.0}, {"type": "electric_scooter", "rental_uris": {"ios": "https://dc.lft.to/lastmile_qr_scan", "android": "https://dc.lft.to/lastmile_qr_scan"}, "lon": -77.02624383333334, "fusion_lon": 0.0, "is_disabled": 0, "lat": 38.899756333333336, "bike_id": "db68a58fb5439a2186a6cee34bde2f5d", "name": "db68a58fb5439a2186a6cee34bde2f5d", "is_reserved": 0, "fusion_lat": 0.0}, {"type": "electric_scooter", "rental_uris": {"ios": "https://dc.lft.to/lastmile_qr_scan", "android": "https://dc.lft.to/lastmile_qr_scan"}, "lon": -77.05602683333333, "fusion_lon": 0.0, "is_disabled": 0, "lat": 38.9009575, "bike_id": "c992cf7dcc627688a8a66fcc68ad1863", "name": "c992cf7dcc627688a8a66fcc68ad1863", "is_reserved": 0, "fusion_lat": 0.0}, {"type": "electric_scooter", "rental_uris": {"ios": "https://dc.lft.to/lastmile_qr_scan", "android": "https://dc.lft.to/lastmile_qr_scan"}, "lon": -77.00997183333334, "fusion_lon": 0.0, "is_disabled": 0, "lat": 38.902603166666665, "bike_id": "9b413268d73b78b996c5e3191c34a786", "name": "9b413268d73b78b996c5e3191c34a786", "is_reserved": 0, "fusion_lat": 0.0}, {"type": "electric_scooter", "rental_uris": {"ios": "https://dc.lft.to/lastmile_qr_scan", "android": "https://dc.lft.to/lastmile_qr_scan"}, "lon": -77.05123233333333, "fusion_lon": 0.0, "is_disabled": 0, "lat": 38.89675066666667, "bike_id": "5c195c7f1a99f070ad62de62dde33b82", "name": "5c195c7f1a99f070ad62de62dde33b82", "is_reserved": 0, "fusion_lat": 0.0}, {"type": "electric_scooter", "rental_uris": {"ios": "https://dc.lft.to/lastmile_qr_scan", "android": "https://dc.lft.to/lastmile_qr_scan"}, "lon": -77.04182283333333, "fusion_lon": 0.0, "is_disabled": 0, "lat": 38.8929035, "bike_id": "f1eeff2be587cd2bbe37a9d92b6589d6", "name": "f1eeff2be587cd2bbe37a9d92b6589d6", "is_reserved": 0, "fusion_lat": 0.0}, {"type": "electric_scooter", "rental_uris": {"ios": "https://dc.lft.to/lastmile_qr_scan", "android": "https://dc.lft.to/lastmile_qr_scan"}, "lon": -76.93296866666667, "fusion_lon": 0.0, "is_disabled": 0, "lat": 38.892249, "bike_id": "859cce596632e7de9a67a1292a4489a6", "name": "859cce596632e7de9a67a1292a4489a6", "is_reserved": 0, "fusion_lat": 0.0}, {"type": "electric_bike", "rental_uris": {"ios": "https://dc.lft.to/lastmile_qr_scan", "android": "https://dc.lft.to/lastmile_qr_scan"}, "lon": -77.02099583333333, "fusion_lon": 0.0, "is_disabled": 0, "lat": 38.93717, "bike_id": "f6fc738e1ab04f49ed9b960cd29d3e68", "name": "f6fc738e1ab04f49ed9b960cd29d3e68", "is_reserved": 0, "fusion_lat": 0.0}, {"type": "electric_scooter", "rental_uris": {"ios": "https://dc.lft.to/lastmile_qr_scan", "android": "https://dc.lft.to/lastmile_qr_scan"}, "lon": -77.038647, "fusion_lon": 0.0, "is_disabled": 0, "lat": 38.906429, "bike_id": "3c4326798190c7d6778112c37947f6db", "name": "3c4326798190c7d6778112c37947f6db", "is_reserved": 0, "fusion_lat": 0.0}, {"type": "electric_scooter", "rental_uris": {"ios": "https://dc.lft.to/lastmile_qr_scan", "android": "https://dc.lft.to/lastmile_qr_scan"}, "lon": -77.04477766666666, "fusion_lon": 0.0, "is_disabled": 0, "lat": 38.91117933333334, "bike_id": "a253ad5e3ad9734b08bb6dadc6007291", "name": "a253ad5e3ad9734b08bb6dadc6007291", "is_reserved": 0, "fusion_lat": 0.0}, {"type": "electric_scooter", "rental_uris": {"ios": "https://dc.lft.to/lastmile_qr_scan", "android": "https://dc.lft.to/lastmile_qr_scan"}, "lon": -76.9652025, "fusion_lon": 0.0, "is_disabled": 0, "lat": 38.8762875, "bike_id": "34ac459752960bcf8549e94187fda9c5", "name": "34ac459752960bcf8549e94187fda9c5", "is_reserved": 0, "fusion_lat": 0.0}, {"type": "electric_bike", "rental_uris": {"ios": "https://dc.lft.to/lastmile_qr_scan", "android": "https://dc.lft.to/lastmile_qr_scan"}, "lon": -77.117996, "fusion_lon": 0.0, "is_disabled": 0, "lat": 38.87376866666666, "bike_id": "6d9d829e40d9831f26635f076f7cf9e2", "name": "6d9d829e40d9831f26635f076f7cf9e2", "is_reserved": 0, "fusion_lat": 0.0}, {"type": "electric_scooter", "rental_uris": {"ios": "https://dc.lft.to/lastmile_qr_scan", "android": "https://dc.lft.to/lastmile_qr_scan"}, "lon": -77.045037, "fusion_lon": 0.0, "is_disabled": 0, "lat": 38.91605233333333, "bike_id": "a9e05c90b292faf7899fc7f6fb2b7a04", "name": "a9e05c90b292faf7899fc7f6fb2b7a04", "is_reserved": 0, "fusion_lat": 0.0}, {"type": "electric_bike", "rental_uris": {"ios": "https://dc.lft.to/lastmile_qr_scan", "android": "https://dc.lft.to/lastmile_qr_scan"}, "lon": -77.02619366666667, "fusion_lon": 0.0, "is_disabled": 0, "lat": 38.969307, "bike_id": "bafe3aeeef6c6daec087da286c69b61f", "name": "bafe3aeeef6c6daec087da286c69b61f", "is_reserved": 0, "fusion_lat": 0.0}, {"type": "electric_scooter", "rental_uris": {"ios": "https://dc.lft.to/lastmile_qr_scan", "android": "https://dc.lft.to/lastmile_qr_scan"}, "lon": -76.96529633333333, "fusion_lon": 0.0, "is_disabled": 0, "lat": 38.87627616666666, "bike_id": "b7d4fd4a48753ff35f99e2955b70df98", "name": "b7d4fd4a48753ff35f99e2955b70df98", "is_reserved": 0, "fusion_lat": 0.0}, {"type": "electric_scooter", "rental_uris": {"ios": "https://dc.lft.to/lastmile_qr_scan", "android": "https://dc.lft.to/lastmile_qr_scan"}, "lon": -77.03188983333334, "fusion_lon": 0.0, "is_disabled": 0, "lat": 38.916029, "bike_id": "1679eaeb667fbd5c6f6b803959f3e2e9", "name": "1679eaeb667fbd5c6f6b803959f3e2e9", "is_reserved": 0, "fusion_lat": 0.0}, {"type": "electric_scooter", "rental_uris": {"ios": "https://dc.lft.to/lastmile_qr_scan", "android": "https://dc.lft.to/lastmile_qr_scan"}, "lon": -77.02290733333334, "fusion_lon": 0.0, "is_disabled": 0, "lat": 38.914458, "bike_id": "c1df551648505b3d05455ed650c57f13", "name": "c1df551648505b3d05455ed650c57f13", "is_reserved": 0, "fusion_lat": 0.0}, {"type": "electric_scooter", "rental_uris": {"ios": "https://dc.lft.to/lastmile_qr_scan", "android": "https://dc.lft.to/lastmile_qr_scan"}, "lon": -77.03661666666666, "fusion_lon": 0.0, "is_disabled": 0, "lat": 38.92251266666667, "bike_id": "6ce86589ecf87f4f3e569009fcabaf81", "name": "6ce86589ecf87f4f3e569009fcabaf81", "is_reserved": 0, "fusion_lat": 0.0}, {"type": "electric_scooter", "rental_uris": {"ios": "https://dc.lft.to/lastmile_qr_scan", "android": "https://dc.lft.to/lastmile_qr_scan"}, "lon": -77.03643366666667, "fusion_lon": 0.0, "is_disabled": 0, "lat": 38.91765983333333, "bike_id": "855be29f650f61b767943df74329223d", "name": "855be29f650f61b767943df74329223d", "is_reserved": 0, "fusion_lat": 0.0}, {"type": "electric_scooter", "rental_uris": {"ios": "https://dc.lft.to/lastmile_qr_scan", "android": "https://dc.lft.to/lastmile_qr_scan"}, "lon": -77.04404516666666, "fusion_lon": 0.0, "is_disabled": 0, "lat": 38.90287266666667, "bike_id": "6ba32504533126c0519efcff72c90f70", "name": "6ba32504533126c0519efcff72c90f70", "is_reserved": 0, "fusion_lat": 0.0}, {"type": "electric_scooter", "rental_uris": {"ios": "https://dc.lft.to/lastmile_qr_scan", "android": "https://dc.lft.to/lastmile_qr_scan"}, "lon": -77.0456315, "fusion_lon": 0.0, "is_disabled": 0, "lat": 38.919382, "bike_id": "496664823f7709008d2471f61f83da60", "name": "496664823f7709008d2471f61f83da60", "is_reserved": 0, "fusion_lat": 0.0}, {"type": "electric_scooter", "rental_uris": {"ios": "https://dc.lft.to/lastmile_qr_scan", "android": "https://dc.lft.to/lastmile_qr_scan"}, "lon": -77.0353125, "fusion_lon": 0.0, "is_disabled": 0, "lat": 38.925393, "bike_id": "30cdfd1f96f31a49a133cdced2ceeb8d", "name": "30cdfd1f96f31a49a133cdced2ceeb8d", "is_reserved": 0, "fusion_lat": 0.0}, {"type": "electric_bike", "rental_uris": {"ios": "https://dc.lft.to/lastmile_qr_scan", "android": "https://dc.lft.to/lastmile_qr_scan"}, "lon": -77.12531466666667, "fusion_lon": 0.0, "is_disabled": 0, "lat": 39.056344833333334, "bike_id": "1d14aecedad3d212ec094f5f008d69eb", "name": "1d14aecedad3d212ec094f5f008d69eb", "is_reserved": 0, "fusion_lat": 0.0}, {"type": "electric_scooter", "rental_uris": {"ios": "https://dc.lft.to/lastmile_qr_scan", "android": "https://dc.lft.to/lastmile_qr_scan"}, "lon": -77.02205233333333, "fusion_lon": 0.0, "is_disabled": 0, "lat": 38.915485, "bike_id": "965a42f15c5a5621cbdcf4dc55e60af0", "name": "965a42f15c5a5621cbdcf4dc55e60af0", "is_reserved": 0, "fusion_lat": 0.0}, {"type": "electric_scooter", "rental_uris": {"ios": "https://dc.lft.to/lastmile_qr_scan", "android": "https://dc.lft.to/lastmile_qr_scan"}, "lon": -77.0379265, "fusion_lon": 0.0, "is_disabled": 0, "lat": 38.911217666666666, "bike_id": "3a82c6c5ac9bef66191ef287f0f8f5cf", "name": "3a82c6c5ac9bef66191ef287f0f8f5cf", "is_reserved": 0, "fusion_lat": 0.0}, {"type": "electric_scooter", "rental_uris": {"ios": "https://dc.lft.to/lastmile_qr_scan", "android": "https://dc.lft.to/lastmile_qr_scan"}, "lon": -76.98391866666667, "fusion_lon": 0.0, "is_disabled": 0, "lat": 38.88087866666667, "bike_id": "ce9c9eb13274a376d3a50ada66d7c122", "name": "ce9c9eb13274a376d3a50ada66d7c122", "is_reserved": 0, "fusion_lat": 0.0}, {"type": "electric_scooter", "rental_uris": {"ios": "https://dc.lft.to/lastmile_qr_scan", "android": "https://dc.lft.to/lastmile_qr_scan"}, "lon": -77.0222405, "fusion_lon": 0.0, "is_disabled": 0, "lat": 38.892248, "bike_id": "2a175cef8bc4c06ca3ba69309285b1c7", "name": "2a175cef8bc4c06ca3ba69309285b1c7", "is_reserved": 0, "fusion_lat": 0.0}, {"type": "electric_scooter", "rental_uris": {"ios": "https://dc.lft.to/lastmile_qr_scan", "android": "https://dc.lft.to/lastmile_qr_scan"}, "lon": -77.01176633333333, "fusion_lon": 0.0, "is_disabled": 0, "lat": 38.9156555, "bike_id": "45b4bde997570a222afb48157b12a01e", "name": "45b4bde997570a222afb48157b12a01e", "is_reserved": 0, "fusion_lat": 0.0}, {"type": "electric_scooter", "rental_uris": {"ios": "https://dc.lft.to/lastmile_qr_scan", "android": "https://dc.lft.to/lastmile_qr_scan"}, "lon": -76.98531883333334, "fusion_lon": 0.0, "is_disabled": 0, "lat": 38.8668795, "bike_id": "14e4ca335b4c5da98676cfd8dc6a00d7", "name": "14e4ca335b4c5da98676cfd8dc6a00d7", "is_reserved": 0, "fusion_lat": 0.0}, {"type": "electric_scooter", "rental_uris": {"ios": "https://dc.lft.to/lastmile_qr_scan", "android": "https://dc.lft.to/lastmile_qr_scan"}, "lon": -76.94652833333333, "fusion_lon": 0.0, "is_disabled": 0, "lat": 38.89825783333333, "bike_id": "5a2c88495c9a2f99b8fc60eaa8ae8c16", "name": "5a2c88495c9a2f99b8fc60eaa8ae8c16", "is_reserved": 0, "fusion_lat": 0.0}, {"type": "electric_scooter", "rental_uris": {"ios": "https://dc.lft.to/lastmile_qr_scan", "android": "https://dc.lft.to/lastmile_qr_scan"}, "lon": -77.03171383333333, "fusion_lon": 0.0, "is_disabled": 0, "lat": 38.9187225, "bike_id": "c137122e2b4e108869ee77b1c08f07dc", "name": "c137122e2b4e108869ee77b1c08f07dc", "is_reserved": 0, "fusion_lat": 0.0}, {"type": "electric_scooter", "rental_uris": {"ios": "https://dc.lft.to/lastmile_qr_scan", "android": "https://dc.lft.to/lastmile_qr_scan"}, "lon": -77.01537866666666, "fusion_lon": 0.0, "is_disabled": 0, "lat": 38.88740166666667, "bike_id": "9bc2e62fd2f38e34d791e74e72869776", "name": "9bc2e62fd2f38e34d791e74e72869776", "is_reserved": 0, "fusion_lat": 0.0}, {"type": "electric_scooter", "rental_uris": {"ios": "https://dc.lft.to/lastmile_qr_scan", "android": "https://dc.lft.to/lastmile_qr_scan"}, "lon": -77.02626616666667, "fusion_lon": 0.0, "is_disabled": 0, "lat": 38.901732, "bike_id": "79cea06dfd5b211213f600f5ad136125", "name": "79cea06dfd5b211213f600f5ad136125", "is_reserved": 0, "fusion_lat": 0.0}, {"type": "electric_scooter", "rental_uris": {"ios": "https://dc.lft.to/lastmile_qr_scan", "android": "https://dc.lft.to/lastmile_qr_scan"}, "lon": -77.00452933333334, "fusion_lon": 0.0, "is_disabled": 0, "lat": 38.9117505, "bike_id": "8a64e6059551a54459c32ba84391d499", "name": "8a64e6059551a54459c32ba84391d499", "is_reserved": 0, "fusion_lat": 0.0}, {"type": "electric_scooter", "rental_uris": {"ios": "https://dc.lft.to/lastmile_qr_scan", "android": "https://dc.lft.to/lastmile_qr_scan"}, "lon": -77.069951, "fusion_lon": 0.0, "is_disabled": 0, "lat": 38.95246366666667, "bike_id": "497e697045829674e672740dde05415c", "name": "497e697045829674e672740dde05415c", "is_reserved": 0, "fusion_lat": 0.0}, {"type": "electric_bike", "rental_uris": {"ios": "https://dc.lft.to/lastmile_qr_scan", "android": "https://dc.lft.to/lastmile_qr_scan"}, "lon": -77.1121345, "fusion_lon": 0.0, "is_disabled": 0, "lat": 38.828789, "bike_id": "735e78baea9bf587f5ec2e30303d4fff", "name": "735e78baea9bf587f5ec2e30303d4fff", "is_reserved": 0, "fusion_lat": 0.0}, {"type": "electric_scooter", "rental_uris": {"ios": "https://dc.lft.to/lastmile_qr_scan", "android": "https://dc.lft.to/lastmile_qr_scan"}, "lon": -77.0444835, "fusion_lon": 0.0, "is_disabled": 0, "lat": 38.93022466666667, "bike_id": "474264382e42f1d2ba4dbe451d699195", "name": "474264382e42f1d2ba4dbe451d699195", "is_reserved": 0, "fusion_lat": 0.0}, {"type": "electric_scooter", "rental_uris": {"ios": "https://dc.lft.to/lastmile_qr_scan", "android": "https://dc.lft.to/lastmile_qr_scan"}, "lon": -77.038637, "fusion_lon": 0.0, "is_disabled": 0, "lat": 38.90973283333334, "bike_id": "7894d5296f3ee5fd43818b94e8f0d046", "name": "7894d5296f3ee5fd43818b94e8f0d046", "is_reserved": 0, "fusion_lat": 0.0}, {"type": "electric_scooter", "rental_uris": {"ios": "https://dc.lft.to/lastmile_qr_scan", "android": "https://dc.lft.to/lastmile_qr_scan"}, "lon": -77.031629, "fusion_lon": 0.0, "is_disabled": 0, "lat": 38.89222566666667, "bike_id": "174c1ebd28849b7d056323e5a84cf79c", "name": "174c1ebd28849b7d056323e5a84cf79c", "is_reserved": 0, "fusion_lat": 0.0}, {"type": "electric_scooter", "rental_uris": {"ios": "https://dc.lft.to/lastmile_qr_scan", "android": "https://dc.lft.to/lastmile_qr_scan"}, "lon": -76.98987966666667, "fusion_lon": 0.0, "is_disabled": 0, "lat": 38.86498016666667, "bike_id": "571e2e3516214bc22700d50696c3f0f8", "name": "571e2e3516214bc22700d50696c3f0f8", "is_reserved": 0, "fusion_lat": 0.0}, {"type": "electric_scooter", "rental_uris": {"ios": "https://dc.lft.to/lastmile_qr_scan", "android": "https://dc.lft.to/lastmile_qr_scan"}, "lon": -77.03167483333333, "fusion_lon": 0.0, "is_disabled": 0, "lat": 38.89223483333333, "bike_id": "fec4a56eea38fff81461d8273bb19a7d", "name": "fec4a56eea38fff81461d8273bb19a7d", "is_reserved": 0, "fusion_lat": 0.0}, {"type": "electric_scooter", "rental_uris": {"ios": "https://dc.lft.to/lastmile_qr_scan", "android": "https://dc.lft.to/lastmile_qr_scan"}, "lon": -77.03207716666667, "fusion_lon": 0.0, "is_disabled": 0, "lat": 38.91718216666666, "bike_id": "de1cb35b152c7072fb275ad76e9ce0ae", "name": "de1cb35b152c7072fb275ad76e9ce0ae", "is_reserved": 0, "fusion_lat": 0.0}, {"type": "electric_scooter", "rental_uris": {"ios": "https://dc.lft.to/lastmile_qr_scan", "android": "https://dc.lft.to/lastmile_qr_scan"}, "lon": -77.01175666666667, "fusion_lon": 0.0, "is_disabled": 0, "lat": 38.90329066666666, "bike_id": "32039cd0df57b4d51e132f65f0e8de91", "name": "32039cd0df57b4d51e132f65f0e8de91", "is_reserved": 0, "fusion_lat": 0.0}, {"type": "electric_scooter", "rental_uris": {"ios": "https://dc.lft.to/lastmile_qr_scan", "android": "https://dc.lft.to/lastmile_qr_scan"}, "lon": -76.93992433333334, "fusion_lon": 0.0, "is_disabled": 0, "lat": 38.899841, "bike_id": "d68c20c6209033a259ca999112a14f38", "name": "d68c20c6209033a259ca999112a14f38", "is_reserved": 0, "fusion_lat": 0.0}, {"type": "electric_scooter", "rental_uris": {"ios": "https://dc.lft.to/lastmile_qr_scan", "android": "https://dc.lft.to/lastmile_qr_scan"}, "lon": -76.954157, "fusion_lon": 0.0, "is_disabled": 0, "lat": 38.8906755, "bike_id": "b53b2a049c21023c712899e5021f4c35", "name": "b53b2a049c21023c712899e5021f4c35", "is_reserved": 0, "fusion_lat": 0.0}, {"type": "electric_scooter", "rental_uris": {"ios": "https://dc.lft.to/lastmile_qr_scan", "android": "https://dc.lft.to/lastmile_qr_scan"}, "lon": -77.029634, "fusion_lon": 0.0, "is_disabled": 0, "lat": 38.92590333333333, "bike_id": "f3243b11a353cf25b96636f843d687ff", "name": "f3243b11a353cf25b96636f843d687ff", "is_reserved": 0, "fusion_lat": 0.0}, {"type": "electric_scooter", "rental_uris": {"ios": "https://dc.lft.to/lastmile_qr_scan", "android": "https://dc.lft.to/lastmile_qr_scan"}, "lon": -77.04443083333334, "fusion_lon": 0.0, "is_disabled": 0, "lat": 38.91257, "bike_id": "7f65cf0caa4e252e16392be97ef05fba", "name": "7f65cf0caa4e252e16392be97ef05fba", "is_reserved": 0, "fusion_lat": 0.0}, {"type": "electric_bike", "rental_uris": {"ios": "https://dc.lft.to/lastmile_qr_scan", "android": "https://dc.lft.to/lastmile_qr_scan"}, "lon": -76.97834233333333, "fusion_lon": 0.0, "is_disabled": 0, "lat": 38.870742666666665, "bike_id": "97d1c99cb6044cb1f5621afdeb4a8b63", "name": "97d1c99cb6044cb1f5621afdeb4a8b63", "is_reserved": 0, "fusion_lat": 0.0}, {"type": "electric_scooter", "rental_uris": {"ios": "https://dc.lft.to/lastmile_qr_scan", "android": "https://dc.lft.to/lastmile_qr_scan"}, "lon": -77.00608833333334, "fusion_lon": 0.0, "is_disabled": 0, "lat": 38.87182166666667, "bike_id": "3e5ca62486620451f898c9b5d2127028", "name": "3e5ca62486620451f898c9b5d2127028", "is_reserved": 0, "fusion_lat": 0.0}, {"type": "electric_bike", "rental_uris": {"ios": "https://dc.lft.to/lastmile_qr_scan", "android": "https://dc.lft.to/lastmile_qr_scan"}, "lon": -76.990186, "fusion_lon": 0.0, "is_disabled": 0, "lat": 38.954807, "bike_id": "a7bed521df1b88f86997033fee257862", "name": "a7bed521df1b88f86997033fee257862", "is_reserved": 0, "fusion_lat": 0.0}, {"type": "electric_scooter", "rental_uris": {"ios": "https://dc.lft.to/lastmile_qr_scan", "android": "https://dc.lft.to/lastmile_qr_scan"}, "lon": -76.98342383333333, "fusion_lon": 0.0, "is_disabled": 0, "lat": 38.90746883333333, "bike_id": "72283102ca2f2beed5d8b673cc737d44", "name": "72283102ca2f2beed5d8b673cc737d44", "is_reserved": 0, "fusion_lat": 0.0}, {"type": "electric_scooter", "rental_uris": {"ios": "https://dc.lft.to/lastmile_qr_scan", "android": "https://dc.lft.to/lastmile_qr_scan"}, "lon": -77.022289, "fusion_lon": 0.0, "is_disabled": 0, "lat": 38.91254983333333, "bike_id": "081ec5464a8f6daccd551e13ce8f9952", "name": "081ec5464a8f6daccd551e13ce8f9952", "is_reserved": 0, "fusion_lat": 0.0}, {"type": "electric_bike", "rental_uris": {"ios": "https://dc.lft.to/lastmile_qr_scan", "android": "https://dc.lft.to/lastmile_qr_scan"}, "lon": -76.94797433333333, "fusion_lon": 0.0, "is_disabled": 0, "lat": 38.89401933333333, "bike_id": "5b5e06af3ed56f63a4fc0fa4e25cbe01", "name": "5b5e06af3ed56f63a4fc0fa4e25cbe01", "is_reserved": 0, "fusion_lat": 0.0}, {"type": "electric_scooter", "rental_uris": {"ios": "https://dc.lft.to/lastmile_qr_scan", "android": "https://dc.lft.to/lastmile_qr_scan"}, "lon": -77.03438166666666, "fusion_lon": 0.0, "is_disabled": 0, "lat": 38.90728633333333, "bike_id": "9a034249adc110a7e02846afc911d632", "name": "9a034249adc110a7e02846afc911d632", "is_reserved": 0, "fusion_lat": 0.0}, {"type": "electric_bike", "rental_uris": {"ios": "https://dc.lft.to/lastmile_qr_scan", "android": "https://dc.lft.to/lastmile_qr_scan"}, "lon": -76.96258016666667, "fusion_lon": 0.0, "is_disabled": 0, "lat": 38.88249033333334, "bike_id": "4a2aead041e95ff641c050c9e9997e9b", "name": "4a2aead041e95ff641c050c9e9997e9b", "is_reserved": 0, "fusion_lat": 0.0}, {"type": "electric_scooter", "rental_uris": {"ios": "https://dc.lft.to/lastmile_qr_scan", "android": "https://dc.lft.to/lastmile_qr_scan"}, "lon": -77.04391716666666, "fusion_lon": 0.0, "is_disabled": 0, "lat": 38.910715833333335, "bike_id": "aa19eaa80d3ed85fad6f8d3ed5b15227", "name": "aa19eaa80d3ed85fad6f8d3ed5b15227", "is_reserved": 0, "fusion_lat": 0.0}, {"type": "electric_bike", "rental_uris": {"ios": "https://dc.lft.to/lastmile_qr_scan", "android": "https://dc.lft.to/lastmile_qr_scan"}, "lon": -77.00679366666667, "fusion_lon": 0.0, "is_disabled": 0, "lat": 38.94516216666667, "bike_id": "cf6d5fd4e9481f3f63bed89588d27410", "name": "cf6d5fd4e9481f3f63bed89588d27410", "is_reserved": 0, "fusion_lat": 0.0}, {"type": "electric_scooter", "rental_uris": {"ios": "https://dc.lft.to/lastmile_qr_scan", "android": "https://dc.lft.to/lastmile_qr_scan"}, "lon": -77.03856916666666, "fusion_lon": 0.0, "is_disabled": 0, "lat": 38.8675255, "bike_id": "9023b37dbcc09d36f39e4ceae36238ae", "name": "9023b37dbcc09d36f39e4ceae36238ae", "is_reserved": 0, "fusion_lat": 0.0}, {"type": "electric_scooter", "rental_uris": {"ios": "https://dc.lft.to/lastmile_qr_scan", "android": "https://dc.lft.to/lastmile_qr_scan"}, "lon": -77.038377, "fusion_lon": 0.0, "is_disabled": 0, "lat": 38.90833516666667, "bike_id": "26f3566a98db95950802aa5a7b5872f5", "name": "26f3566a98db95950802aa5a7b5872f5", "is_reserved": 0, "fusion_lat": 0.0}, {"type": "electric_scooter", "rental_uris": {"ios": "https://dc.lft.to/lastmile_qr_scan", "android": "https://dc.lft.to/lastmile_qr_scan"}, "lon": -77.03148, "fusion_lon": 0.0, "is_disabled": 0, "lat": 38.91565766666667, "bike_id": "8f5724a0238c7c8fdea5cff4c0ca937e", "name": "8f5724a0238c7c8fdea5cff4c0ca937e", "is_reserved": 0, "fusion_lat": 0.0}, {"type": "electric_scooter", "rental_uris": {"ios": "https://dc.lft.to/lastmile_qr_scan", "android": "https://dc.lft.to/lastmile_qr_scan"}, "lon": -77.0169845, "fusion_lon": 0.0, "is_disabled": 0, "lat": 38.91386833333333, "bike_id": "c343cd35a8c49b29f9981c41f85e6c60", "name": "c343cd35a8c49b29f9981c41f85e6c60", "is_reserved": 0, "fusion_lat": 0.0}, {"type": "electric_scooter", "rental_uris": {"ios": "https://dc.lft.to/lastmile_qr_scan", "android": "https://dc.lft.to/lastmile_qr_scan"}, "lon": -77.02490716666667, "fusion_lon": 0.0, "is_disabled": 0, "lat": 38.941863833333336, "bike_id": "7c7bbf5e2d8aa4c21e5e5cffa04d518e", "name": "7c7bbf5e2d8aa4c21e5e5cffa04d518e", "is_reserved": 0, "fusion_lat": 0.0}, {"type": "electric_scooter", "rental_uris": {"ios": "https://dc.lft.to/lastmile_qr_scan", "android": "https://dc.lft.to/lastmile_qr_scan"}, "lon": -77.03691, "fusion_lon": 0.0, "is_disabled": 0, "lat": 38.92614783333333, "bike_id": "64e5542bbc8d2d93473b454d371711e8", "name": "64e5542bbc8d2d93473b454d371711e8", "is_reserved": 0, "fusion_lat": 0.0}, {"type": "electric_scooter", "rental_uris": {"ios": "https://dc.lft.to/lastmile_qr_scan", "android": "https://dc.lft.to/lastmile_qr_scan"}, "lon": -77.058587, "fusion_lon": 0.0, "is_disabled": 0, "lat": 38.93552433333333, "bike_id": "413049bacca7d894d662a3c1c208bb01", "name": "413049bacca7d894d662a3c1c208bb01", "is_reserved": 0, "fusion_lat": 0.0}, {"type": "electric_scooter", "rental_uris": {"ios": "https://dc.lft.to/lastmile_qr_scan", "android": "https://dc.lft.to/lastmile_qr_scan"}, "lon": -77.0326295, "fusion_lon": 0.0, "is_disabled": 0, "lat": 38.915629333333335, "bike_id": "d03e59b2c4ab522b3d629d7ebe4d7d87", "name": "d03e59b2c4ab522b3d629d7ebe4d7d87", "is_reserved": 0, "fusion_lat": 0.0}, {"type": "electric_scooter", "rental_uris": {"ios": "https://dc.lft.to/lastmile_qr_scan", "android": "https://dc.lft.to/lastmile_qr_scan"}, "lon": -77.03857733333334, "fusion_lon": 0.0, "is_disabled": 0, "lat": 38.91174133333333, "bike_id": "7f902790acf1609249c137e9ff630dfc", "name": "7f902790acf1609249c137e9ff630dfc", "is_reserved": 0, "fusion_lat": 0.0}, {"type": "electric_scooter", "rental_uris": {"ios": "https://dc.lft.to/lastmile_qr_scan", "android": "https://dc.lft.to/lastmile_qr_scan"}, "lon": -77.054692, "fusion_lon": 0.0, "is_disabled": 0, "lat": 38.896105666666664, "bike_id": "3424e7fc84cfa483586fb9d300c4cc6c", "name": "3424e7fc84cfa483586fb9d300c4cc6c", "is_reserved": 0, "fusion_lat": 0.0}, {"type": "electric_scooter", "rental_uris": {"ios": "https://dc.lft.to/lastmile_qr_scan", "android": "https://dc.lft.to/lastmile_qr_scan"}, "lon": -77.02609883333334, "fusion_lon": 0.0, "is_disabled": 0, "lat": 38.91412666666667, "bike_id": "b4fea019d624e67f631edf040062e159", "name": "b4fea019d624e67f631edf040062e159", "is_reserved": 0, "fusion_lat": 0.0}, {"type": "electric_scooter", "rental_uris": {"ios": "https://dc.lft.to/lastmile_qr_scan", "android": "https://dc.lft.to/lastmile_qr_scan"}, "lon": -77.04895783333333, "fusion_lon": 0.0, "is_disabled": 0, "lat": 38.89228283333333, "bike_id": "fc00c363f4c7bd45c63becdced0073e8", "name": "fc00c363f4c7bd45c63becdced0073e8", "is_reserved": 0, "fusion_lat": 0.0}, {"type": "electric_scooter", "rental_uris": {"ios": "https://dc.lft.to/lastmile_qr_scan", "android": "https://dc.lft.to/lastmile_qr_scan"}, "lon": -77.02558883333333, "fusion_lon": 0.0, "is_disabled": 0, "lat": 38.92434016666667, "bike_id": "d77ad25412d388f1dfe028375187b17f", "name": "d77ad25412d388f1dfe028375187b17f", "is_reserved": 0, "fusion_lat": 0.0}, {"type": "electric_scooter", "rental_uris": {"ios": "https://dc.lft.to/lastmile_qr_scan", "android": "https://dc.lft.to/lastmile_qr_scan"}, "lon": -77.0122145, "fusion_lon": 0.0, "is_disabled": 0, "lat": 38.915034666666664, "bike_id": "549bdfb2833a1e234bf5249d2ac4b0f2", "name": "549bdfb2833a1e234bf5249d2ac4b0f2", "is_reserved": 0, "fusion_lat": 0.0}, {"type": "electric_scooter", "rental_uris": {"ios": "https://dc.lft.to/lastmile_qr_scan", "android": "https://dc.lft.to/lastmile_qr_scan"}, "lon": -77.0228705, "fusion_lon": 0.0, "is_disabled": 0, "lat": 38.92420383333334, "bike_id": "ae1bd2a1511f889d84c7ef8f827ce45d", "name": "ae1bd2a1511f889d84c7ef8f827ce45d", "is_reserved": 0, "fusion_lat": 0.0}, {"type": "electric_scooter", "rental_uris": {"ios": "https://dc.lft.to/lastmile_qr_scan", "android": "https://dc.lft.to/lastmile_qr_scan"}, "lon": -77.025033, "fusion_lon": 0.0, "is_disabled": 0, "lat": 38.91971816666667, "bike_id": "c4acf0246cd32d9ffcfe9454e2ea8010", "name": "c4acf0246cd32d9ffcfe9454e2ea8010", "is_reserved": 0, "fusion_lat": 0.0}, {"type": "electric_scooter", "rental_uris": {"ios": "https://dc.lft.to/lastmile_qr_scan", "android": "https://dc.lft.to/lastmile_qr_scan"}, "lon": -77.03912066666666, "fusion_lon": 0.0, "is_disabled": 0, "lat": 38.924777, "bike_id": "a39f21c3bd0c4ad83b8f6a87f09d2889", "name": "a39f21c3bd0c4ad83b8f6a87f09d2889", "is_reserved": 0, "fusion_lat": 0.0}, {"type": "electric_scooter", "rental_uris": {"ios": "https://dc.lft.to/lastmile_qr_scan", "android": "https://dc.lft.to/lastmile_qr_scan"}, "lon": -77.057528, "fusion_lon": 0.0, "is_disabled": 0, "lat": 38.924621, "bike_id": "619a94aa4bf1c423069b8fe25692a36d", "name": "619a94aa4bf1c423069b8fe25692a36d", "is_reserved": 0, "fusion_lat": 0.0}, {"type": "electric_scooter", "rental_uris": {"ios": "https://dc.lft.to/lastmile_qr_scan", "android": "https://dc.lft.to/lastmile_qr_scan"}, "lon": -77.03635566666667, "fusion_lon": 0.0, "is_disabled": 0, "lat": 38.91687483333333, "bike_id": "6e28071a1bae862efaf7a76ead1188ae", "name": "6e28071a1bae862efaf7a76ead1188ae", "is_reserved": 0, "fusion_lat": 0.0}, {"type": "electric_scooter", "rental_uris": {"ios": "https://dc.lft.to/lastmile_qr_scan", "android": "https://dc.lft.to/lastmile_qr_scan"}, "lon": -77.03870366666666, "fusion_lon": 0.0, "is_disabled": 0, "lat": 38.91034716666667, "bike_id": "56628670f661650d2635867f59f06a0a", "name": "56628670f661650d2635867f59f06a0a", "is_reserved": 0, "fusion_lat": 0.0}, {"type": "electric_bike", "rental_uris": {"ios": "https://dc.lft.to/lastmile_qr_scan", "android": "https://dc.lft.to/lastmile_qr_scan"}, "lon": -77.03728933333333, "fusion_lon": 0.0, "is_disabled": 0, "lat": 38.9203135, "bike_id": "af362141d8b1636c01a776521c5433d5", "name": "af362141d8b1636c01a776521c5433d5", "is_reserved": 0, "fusion_lat": 0.0}, {"type": "electric_scooter", "rental_uris": {"ios": "https://dc.lft.to/lastmile_qr_scan", "android": "https://dc.lft.to/lastmile_qr_scan"}, "lon": -76.98520183333333, "fusion_lon": 0.0, "is_disabled": 0, "lat": 38.91546016666667, "bike_id": "a399cb6b57972fc71684a0b1b5b31de2", "name": "a399cb6b57972fc71684a0b1b5b31de2", "is_reserved": 0, "fusion_lat": 0.0}, {"type": "electric_scooter", "rental_uris": {"ios": "https://dc.lft.to/lastmile_qr_scan", "android": "https://dc.lft.to/lastmile_qr_scan"}, "lon": -77.02978733333333, "fusion_lon": 0.0, "is_disabled": 0, "lat": 38.9050015, "bike_id": "f82966f8cf6de2e5ee514c07da999518", "name": "f82966f8cf6de2e5ee514c07da999518", "is_reserved": 0, "fusion_lat": 0.0}, {"type": "electric_scooter", "rental_uris": {"ios": "https://dc.lft.to/lastmile_qr_scan", "android": "https://dc.lft.to/lastmile_qr_scan"}, "lon": -77.0502235, "fusion_lon": 0.0, "is_disabled": 0, "lat": 38.9067655, "bike_id": "5d0b471d58fb48cffb24ed038e602f13", "name": "5d0b471d58fb48cffb24ed038e602f13", "is_reserved": 0, "fusion_lat": 0.0}, {"type": "electric_scooter", "rental_uris": {"ios": "https://dc.lft.to/lastmile_qr_scan", "android": "https://dc.lft.to/lastmile_qr_scan"}, "lon": -77.01765483333334, "fusion_lon": 0.0, "is_disabled": 0, "lat": 38.88143916666667, "bike_id": "d135968cce373af4e634cb15ec7bb6f9", "name": "d135968cce373af4e634cb15ec7bb6f9", "is_reserved": 0, "fusion_lat": 0.0}, {"type": "electric_scooter", "rental_uris": {"ios": "https://dc.lft.to/lastmile_qr_scan", "android": "https://dc.lft.to/lastmile_qr_scan"}, "lon": -77.02827083333334, "fusion_lon": 0.0, "is_disabled": 0, "lat": 38.88737616666667, "bike_id": "2ec78c2b87c5df367e5077eda639ee40", "name": "2ec78c2b87c5df367e5077eda639ee40", "is_reserved": 0, "fusion_lat": 0.0}, {"type": "electric_scooter", "rental_uris": {"ios": "https://dc.lft.to/lastmile_qr_scan", "android": "https://dc.lft.to/lastmile_qr_scan"}, "lon": -77.04646366666667, "fusion_lon": 0.0, "is_disabled": 0, "lat": 38.8922675, "bike_id": "608dd8d0fb355bbd8a6f68aa7d07dd16", "name": "608dd8d0fb355bbd8a6f68aa7d07dd16", "is_reserved": 0, "fusion_lat": 0.0}, {"type": "electric_scooter", "rental_uris": {"ios": "https://dc.lft.to/lastmile_qr_scan", "android": "https://dc.lft.to/lastmile_qr_scan"}, "lon": -77.02991466666667, "fusion_lon": 0.0, "is_disabled": 0, "lat": 38.920421833333336, "bike_id": "84c3a17342e763a6bf69962bb4c71a15", "name": "84c3a17342e763a6bf69962bb4c71a15", "is_reserved": 0, "fusion_lat": 0.0}, {"type": "electric_bike", "rental_uris": {"ios": "https://dc.lft.to/lastmile_qr_scan", "android": "https://dc.lft.to/lastmile_qr_scan"}, "lon": -77.00913183333333, "fusion_lon": 0.0, "is_disabled": 0, "lat": 38.827837, "bike_id": "7df38425e30bd1e822e6570c4cdfc92d", "name": "7df38425e30bd1e822e6570c4cdfc92d", "is_reserved": 0, "fusion_lat": 0.0}, {"type": "electric_scooter", "rental_uris": {"ios": "https://dc.lft.to/lastmile_qr_scan", "android": "https://dc.lft.to/lastmile_qr_scan"}, "lon": -77.02763716666666, "fusion_lon": 0.0, "is_disabled": 0, "lat": 38.9561045, "bike_id": "11e3212962fa99558e26aabfce6630d6", "name": "11e3212962fa99558e26aabfce6630d6", "is_reserved": 0, "fusion_lat": 0.0}, {"type": "electric_scooter", "rental_uris": {"ios": "https://dc.lft.to/lastmile_qr_scan", "android": "https://dc.lft.to/lastmile_qr_scan"}, "lon": -77.05131883333334, "fusion_lon": 0.0, "is_disabled": 0, "lat": 38.923644833333334, "bike_id": "34cc2482382809c88ce58b1d211d917d", "name": "34cc2482382809c88ce58b1d211d917d", "is_reserved": 0, "fusion_lat": 0.0}, {"type": "electric_scooter", "rental_uris": {"ios": "https://dc.lft.to/lastmile_qr_scan", "android": "https://dc.lft.to/lastmile_qr_scan"}, "lon": -77.0110545, "fusion_lon": 0.0, "is_disabled": 0, "lat": 38.89349816666667, "bike_id": "e29e7e69209d328163b3071679abd6e1", "name": "e29e7e69209d328163b3071679abd6e1", "is_reserved": 0, "fusion_lat": 0.0}, {"type": "electric_scooter", "rental_uris": {"ios": "https://dc.lft.to/lastmile_qr_scan", "android": "https://dc.lft.to/lastmile_qr_scan"}, "lon": -76.99209916666666, "fusion_lon": 0.0, "is_disabled": 0, "lat": 38.895195666666666, "bike_id": "3f03ae1adfdb4f2591b331ca6a4c6741", "name": "3f03ae1adfdb4f2591b331ca6a4c6741", "is_reserved": 0, "fusion_lat": 0.0}, {"type": "electric_scooter", "rental_uris": {"ios": "https://dc.lft.to/lastmile_qr_scan", "android": "https://dc.lft.to/lastmile_qr_scan"}, "lon": -76.98309183333333, "fusion_lon": 0.0, "is_disabled": 0, "lat": 38.868920333333335, "bike_id": "197d7a7673f110fd182aaf9f32d4d625", "name": "197d7a7673f110fd182aaf9f32d4d625", "is_reserved": 0, "fusion_lat": 0.0}, {"type": "electric_scooter", "rental_uris": {"ios": "https://dc.lft.to/lastmile_qr_scan", "android": "https://dc.lft.to/lastmile_qr_scan"}, "lon": -77.01746383333334, "fusion_lon": 0.0, "is_disabled": 0, "lat": 38.902629833333336, "bike_id": "89dcbd26b8d71f3a155070b39e21e47f", "name": "89dcbd26b8d71f3a155070b39e21e47f", "is_reserved": 0, "fusion_lat": 0.0}, {"type": "electric_scooter", "rental_uris": {"ios": "https://dc.lft.to/lastmile_qr_scan", "android": "https://dc.lft.to/lastmile_qr_scan"}, "lon": -76.99031766666667, "fusion_lon": 0.0, "is_disabled": 0, "lat": 38.89854233333333, "bike_id": "1169be3d162900d5ef5ca055e068b0f3", "name": "1169be3d162900d5ef5ca055e068b0f3", "is_reserved": 0, "fusion_lat": 0.0}, {"type": "electric_scooter", "rental_uris": {"ios": "https://dc.lft.to/lastmile_qr_scan", "android": "https://dc.lft.to/lastmile_qr_scan"}, "lon": -77.07982016666666, "fusion_lon": 0.0, "is_disabled": 0, "lat": 38.9194805, "bike_id": "b1cff54093f2d7a41d85cb947f717e6d", "name": "b1cff54093f2d7a41d85cb947f717e6d", "is_reserved": 0, "fusion_lat": 0.0}, {"type": "electric_scooter", "rental_uris": {"ios": "https://dc.lft.to/lastmile_qr_scan", "android": "https://dc.lft.to/lastmile_qr_scan"}, "lon": -76.99778183333333, "fusion_lon": 0.0, "is_disabled": 0, "lat": 38.84434133333333, "bike_id": "4318874da013f3eab0a639c0d81cdcdb", "name": "4318874da013f3eab0a639c0d81cdcdb", "is_reserved": 0, "fusion_lat": 0.0}, {"type": "electric_scooter", "rental_uris": {"ios": "https://dc.lft.to/lastmile_qr_scan", "android": "https://dc.lft.to/lastmile_qr_scan"}, "lon": -76.93172516666667, "fusion_lon": 0.0, "is_disabled": 0, "lat": 38.89886766666667, "bike_id": "86672ccca9efb02d9fcd35741b8dd6e9", "name": "86672ccca9efb02d9fcd35741b8dd6e9", "is_reserved": 0, "fusion_lat": 0.0}, {"type": "electric_scooter", "rental_uris": {"ios": "https://dc.lft.to/lastmile_qr_scan", "android": "https://dc.lft.to/lastmile_qr_scan"}, "lon": -77.02826383333333, "fusion_lon": 0.0, "is_disabled": 0, "lat": 38.88735366666667, "bike_id": "44afd2cb139a9c8e4b181c6120c98733", "name": "44afd2cb139a9c8e4b181c6120c98733", "is_reserved": 0, "fusion_lat": 0.0}, {"type": "electric_scooter", "rental_uris": {"ios": "https://dc.lft.to/lastmile_qr_scan", "android": "https://dc.lft.to/lastmile_qr_scan"}, "lon": -77.02177033333334, "fusion_lon": 0.0, "is_disabled": 0, "lat": 38.914348333333336, "bike_id": "a8c21514b4898aece5d7ef3f4cda4923", "name": "a8c21514b4898aece5d7ef3f4cda4923", "is_reserved": 0, "fusion_lat": 0.0}, {"type": "electric_scooter", "rental_uris": {"ios": "https://dc.lft.to/lastmile_qr_scan", "android": "https://dc.lft.to/lastmile_qr_scan"}, "lon": -77.024204, "fusion_lon": 0.0, "is_disabled": 0, "lat": 38.9229485, "bike_id": "ccd8b2d69e686952835bc16afc282549", "name": "ccd8b2d69e686952835bc16afc282549", "is_reserved": 0, "fusion_lat": 0.0}, {"type": "electric_scooter", "rental_uris": {"ios": "https://dc.lft.to/lastmile_qr_scan", "android": "https://dc.lft.to/lastmile_qr_scan"}, "lon": -76.99504816666666, "fusion_lon": 0.0, "is_disabled": 0, "lat": 38.89489566666666, "bike_id": "a865bbfcce36761d9259fa2c4d31c63c", "name": "a865bbfcce36761d9259fa2c4d31c63c", "is_reserved": 0, "fusion_lat": 0.0}, {"type": "electric_scooter", "rental_uris": {"ios": "https://dc.lft.to/lastmile_qr_scan", "android": "https://dc.lft.to/lastmile_qr_scan"}, "lon": -77.04507133333334, "fusion_lon": 0.0, "is_disabled": 0, "lat": 38.89225416666667, "bike_id": "4dbefecfeaecd3284890c9c5fee6071f", "name": "4dbefecfeaecd3284890c9c5fee6071f", "is_reserved": 0, "fusion_lat": 0.0}, {"type": "electric_scooter", "rental_uris": {"ios": "https://dc.lft.to/lastmile_qr_scan", "android": "https://dc.lft.to/lastmile_qr_scan"}, "lon": -77.03793333333333, "fusion_lon": 0.0, "is_disabled": 0, "lat": 38.926255166666664, "bike_id": "fc0e03a11f89b947d04525a4a60b90c6", "name": "fc0e03a11f89b947d04525a4a60b90c6", "is_reserved": 0, "fusion_lat": 0.0}, {"type": "electric_scooter", "rental_uris": {"ios": "https://dc.lft.to/lastmile_qr_scan", "android": "https://dc.lft.to/lastmile_qr_scan"}, "lon": -76.96601766666667, "fusion_lon": 0.0, "is_disabled": 0, "lat": 38.87389616666667, "bike_id": "cbe95789979fa4f11e336eb549b37219", "name": "cbe95789979fa4f11e336eb549b37219", "is_reserved": 0, "fusion_lat": 0.0}, {"type": "electric_scooter", "rental_uris": {"ios": "https://dc.lft.to/lastmile_qr_scan", "android": "https://dc.lft.to/lastmile_qr_scan"}, "lon": -77.04377383333333, "fusion_lon": 0.0, "is_disabled": 0, "lat": 38.921237, "bike_id": "96da072f408cb5253a95bad14bed58a8", "name": "96da072f408cb5253a95bad14bed58a8", "is_reserved": 0, "fusion_lat": 0.0}, {"type": "electric_scooter", "rental_uris": {"ios": "https://dc.lft.to/lastmile_qr_scan", "android": "https://dc.lft.to/lastmile_qr_scan"}, "lon": -77.03379266666667, "fusion_lon": 0.0, "is_disabled": 0, "lat": 38.921543166666666, "bike_id": "9df1307a25bc153b5570f6be96c8ed72", "name": "9df1307a25bc153b5570f6be96c8ed72", "is_reserved": 0, "fusion_lat": 0.0}, {"type": "electric_scooter", "rental_uris": {"ios": "https://dc.lft.to/lastmile_qr_scan", "android": "https://dc.lft.to/lastmile_qr_scan"}, "lon": -77.02777533333334, "fusion_lon": 0.0, "is_disabled": 0, "lat": 38.8921875, "bike_id": "1e42461b7c85ca29c451698b3a411dfb", "name": "1e42461b7c85ca29c451698b3a411dfb", "is_reserved": 0, "fusion_lat": 0.0}, {"type": "electric_scooter", "rental_uris": {"ios": "https://dc.lft.to/lastmile_qr_scan", "android": "https://dc.lft.to/lastmile_qr_scan"}, "lon": -77.0385945, "fusion_lon": 0.0, "is_disabled": 0, "lat": 38.93246333333333, "bike_id": "47718a0e133d444aa5a8759b6dece20a", "name": "47718a0e133d444aa5a8759b6dece20a", "is_reserved": 0, "fusion_lat": 0.0}, {"type": "electric_bike", "rental_uris": {"ios": "https://dc.lft.to/lastmile_qr_scan", "android": "https://dc.lft.to/lastmile_qr_scan"}, "lon": -76.93650116666667, "fusion_lon": 0.0, "is_disabled": 0, "lat": 38.87154133333333, "bike_id": "ccf4c2d4e7e7d54f5c8f8b3118c9d41e", "name": "ccf4c2d4e7e7d54f5c8f8b3118c9d41e", "is_reserved": 0, "fusion_lat": 0.0}, {"type": "electric_scooter", "rental_uris": {"ios": "https://dc.lft.to/lastmile_qr_scan", "android": "https://dc.lft.to/lastmile_qr_scan"}, "lon": -77.03188683333333, "fusion_lon": 0.0, "is_disabled": 0, "lat": 38.90794066666667, "bike_id": "d3bf76cc4a1a64d7906bc38f2839b81b", "name": "d3bf76cc4a1a64d7906bc38f2839b81b", "is_reserved": 0, "fusion_lat": 0.0}, {"type": "electric_scooter", "rental_uris": {"ios": "https://dc.lft.to/lastmile_qr_scan", "android": "https://dc.lft.to/lastmile_qr_scan"}, "lon": -77.02980116666667, "fusion_lon": 0.0, "is_disabled": 0, "lat": 38.91684433333333, "bike_id": "679b7f9bdc399fd5d75209627ca92717", "name": "679b7f9bdc399fd5d75209627ca92717", "is_reserved": 0, "fusion_lat": 0.0}, {"type": "electric_scooter", "rental_uris": {"ios": "https://dc.lft.to/lastmile_qr_scan", "android": "https://dc.lft.to/lastmile_qr_scan"}, "lon": -76.97428866666667, "fusion_lon": 0.0, "is_disabled": 0, "lat": 38.864170666666666, "bike_id": "2cc773ad8cb7e411144f4b8daaa2b629", "name": "2cc773ad8cb7e411144f4b8daaa2b629", "is_reserved": 0, "fusion_lat": 0.0}, {"type": "electric_scooter", "rental_uris": {"ios": "https://dc.lft.to/lastmile_qr_scan", "android": "https://dc.lft.to/lastmile_qr_scan"}, "lon": -77.02651833333333, "fusion_lon": 0.0, "is_disabled": 0, "lat": 38.89216583333334, "bike_id": "5d1a49726be87a716f498f8ccd98f242", "name": "5d1a49726be87a716f498f8ccd98f242", "is_reserved": 0, "fusion_lat": 0.0}, {"type": "electric_scooter", "rental_uris": {"ios": "https://dc.lft.to/lastmile_qr_scan", "android": "https://dc.lft.to/lastmile_qr_scan"}, "lon": -77.0209465, "fusion_lon": 0.0, "is_disabled": 0, "lat": 38.93117133333333, "bike_id": "3ff5ef889784abced44c55af8d3a53f7", "name": "3ff5ef889784abced44c55af8d3a53f7", "is_reserved": 0, "fusion_lat": 0.0}, {"type": "electric_scooter", "rental_uris": {"ios": "https://dc.lft.to/lastmile_qr_scan", "android": "https://dc.lft.to/lastmile_qr_scan"}, "lon": -76.92623116666667, "fusion_lon": 0.0, "is_disabled": 0, "lat": 38.88459683333333, "bike_id": "b21ac1c6960c91dd332119e4bd6e9259", "name": "b21ac1c6960c91dd332119e4bd6e9259", "is_reserved": 0, "fusion_lat": 0.0}, {"type": "electric_scooter", "rental_uris": {"ios": "https://dc.lft.to/lastmile_qr_scan", "android": "https://dc.lft.to/lastmile_qr_scan"}, "lon": -77.04663016666667, "fusion_lon": 0.0, "is_disabled": 0, "lat": 38.89243183333333, "bike_id": "2c2056e6e80de6566d50359b5e5a0a01", "name": "2c2056e6e80de6566d50359b5e5a0a01", "is_reserved": 0, "fusion_lat": 0.0}, {"type": "electric_scooter", "rental_uris": {"ios": "https://dc.lft.to/lastmile_qr_scan", "android": "https://dc.lft.to/lastmile_qr_scan"}, "lon": -77.02331366666667, "fusion_lon": 0.0, "is_disabled": 0, "lat": 38.91675633333333, "bike_id": "5f6c6caf5b8bce69bc637ef1f6ed7a96", "name": "5f6c6caf5b8bce69bc637ef1f6ed7a96", "is_reserved": 0, "fusion_lat": 0.0}, {"type": "electric_scooter", "rental_uris": {"ios": "https://dc.lft.to/lastmile_qr_scan", "android": "https://dc.lft.to/lastmile_qr_scan"}, "lon": -77.04515016666667, "fusion_lon": 0.0, "is_disabled": 0, "lat": 38.91821183333333, "bike_id": "39ae9769c6345bc1d6944f18f923306c", "name": "39ae9769c6345bc1d6944f18f923306c", "is_reserved": 0, "fusion_lat": 0.0}, {"type": "electric_scooter", "rental_uris": {"ios": "https://dc.lft.to/lastmile_qr_scan", "android": "https://dc.lft.to/lastmile_qr_scan"}, "lon": -76.96874033333333, "fusion_lon": 0.0, "is_disabled": 0, "lat": 38.870933, "bike_id": "36eeea6be40eea44450c44dd64bd0acf", "name": "36eeea6be40eea44450c44dd64bd0acf", "is_reserved": 0, "fusion_lat": 0.0}, {"type": "electric_scooter", "rental_uris": {"ios": "https://dc.lft.to/lastmile_qr_scan", "android": "https://dc.lft.to/lastmile_qr_scan"}, "lon": -77.0402715, "fusion_lon": 0.0, "is_disabled": 0, "lat": 38.921653666666664, "bike_id": "be5005cb6c6f1805457150d410afccf8", "name": "be5005cb6c6f1805457150d410afccf8", "is_reserved": 0, "fusion_lat": 0.0}, {"type": "electric_scooter", "rental_uris": {"ios": "https://dc.lft.to/lastmile_qr_scan", "android": "https://dc.lft.to/lastmile_qr_scan"}, "lon": -77.03353666666666, "fusion_lon": 0.0, "is_disabled": 0, "lat": 38.887597166666666, "bike_id": "b5fd9c39ffb489e9f9f311779f293fcc", "name": "b5fd9c39ffb489e9f9f311779f293fcc", "is_reserved": 0, "fusion_lat": 0.0}, {"type": "electric_scooter", "rental_uris": {"ios": "https://dc.lft.to/lastmile_qr_scan", "android": "https://dc.lft.to/lastmile_qr_scan"}, "lon": -77.029605, "fusion_lon": 0.0, "is_disabled": 0, "lat": 38.93239466666667, "bike_id": "57be501312593e7b111ca8201815dd37", "name": "57be501312593e7b111ca8201815dd37", "is_reserved": 0, "fusion_lat": 0.0}, {"type": "electric_scooter", "rental_uris": {"ios": "https://dc.lft.to/lastmile_qr_scan", "android": "https://dc.lft.to/lastmile_qr_scan"}, "lon": -77.0323305, "fusion_lon": 0.0, "is_disabled": 0, "lat": 38.92460416666667, "bike_id": "41e7ec3c1174e01137c20dfdc091fe84", "name": "41e7ec3c1174e01137c20dfdc091fe84", "is_reserved": 0, "fusion_lat": 0.0}, {"type": "electric_scooter", "rental_uris": {"ios": "https://dc.lft.to/lastmile_qr_scan", "android": "https://dc.lft.to/lastmile_qr_scan"}, "lon": -77.0271235, "fusion_lon": 0.0, "is_disabled": 0, "lat": 38.90688033333333, "bike_id": "a53b02df45d3989cf75aec00e908a0fb", "name": "a53b02df45d3989cf75aec00e908a0fb", "is_reserved": 0, "fusion_lat": 0.0}, {"type": "electric_bike", "rental_uris": {"ios": "https://dc.lft.to/lastmile_qr_scan", "android": "https://dc.lft.to/lastmile_qr_scan"}, "lon": -76.993528, "fusion_lon": 0.0, "is_disabled": 0, "lat": 38.84507466666667, "bike_id": "1f4e0bf09ed45b54418eb0d9feca4c74", "name": "1f4e0bf09ed45b54418eb0d9feca4c74", "is_reserved": 0, "fusion_lat": 0.0}, {"type": "electric_scooter", "rental_uris": {"ios": "https://dc.lft.to/lastmile_qr_scan", "android": "https://dc.lft.to/lastmile_qr_scan"}, "lon": -77.02591966666667, "fusion_lon": 0.0, "is_disabled": 0, "lat": 38.914135, "bike_id": "c7981b1568fdbef2e371fe9031fc3f10", "name": "c7981b1568fdbef2e371fe9031fc3f10", "is_reserved": 0, "fusion_lat": 0.0}, {"type": "electric_scooter", "rental_uris": {"ios": "https://dc.lft.to/lastmile_qr_scan", "android": "https://dc.lft.to/lastmile_qr_scan"}, "lon": -76.98724566666667, "fusion_lon": 0.0, "is_disabled": 0, "lat": 38.86716583333333, "bike_id": "428425394f4446b6bf743393fbba5ca8", "name": "428425394f4446b6bf743393fbba5ca8", "is_reserved": 0, "fusion_lat": 0.0}, {"type": "electric_scooter", "rental_uris": {"ios": "https://dc.lft.to/lastmile_qr_scan", "android": "https://dc.lft.to/lastmile_qr_scan"}, "lon": -77.031229, "fusion_lon": 0.0, "is_disabled": 0, "lat": 38.937692, "bike_id": "3db020a0201c71214040bbe08b360753", "name": "3db020a0201c71214040bbe08b360753", "is_reserved": 0, "fusion_lat": 0.0}, {"type": "electric_scooter", "rental_uris": {"ios": "https://dc.lft.to/lastmile_qr_scan", "android": "https://dc.lft.to/lastmile_qr_scan"}, "lon": -76.99823583333334, "fusion_lon": 0.0, "is_disabled": 0, "lat": 38.885394, "bike_id": "085b007993f765c88201567789c13695", "name": "085b007993f765c88201567789c13695", "is_reserved": 0, "fusion_lat": 0.0}, {"type": "electric_scooter", "rental_uris": {"ios": "https://dc.lft.to/lastmile_qr_scan", "android": "https://dc.lft.to/lastmile_qr_scan"}, "lon": -77.05272066666667, "fusion_lon": 0.0, "is_disabled": 0, "lat": 38.92550266666667, "bike_id": "c1525526d0954071b4d2fec416a203c5", "name": "c1525526d0954071b4d2fec416a203c5", "is_reserved": 0, "fusion_lat": 0.0}, {"type": "electric_bike", "rental_uris": {"ios": "https://dc.lft.to/lastmile_qr_scan", "android": "https://dc.lft.to/lastmile_qr_scan"}, "lon": -77.0398785, "fusion_lon": 0.0, "is_disabled": 0, "lat": 38.933322833333335, "bike_id": "720e93863372bc0c0d0e79664ff5e48d", "name": "720e93863372bc0c0d0e79664ff5e48d", "is_reserved": 0, "fusion_lat": 0.0}, {"type": "electric_scooter", "rental_uris": {"ios": "https://dc.lft.to/lastmile_qr_scan", "android": "https://dc.lft.to/lastmile_qr_scan"}, "lon": -77.026927, "fusion_lon": 0.0, "is_disabled": 0, "lat": 38.90681383333333, "bike_id": "33211ead68b4b83409ec95c20a5bb3e1", "name": "33211ead68b4b83409ec95c20a5bb3e1", "is_reserved": 0, "fusion_lat": 0.0}, {"type": "electric_bike", "rental_uris": {"ios": "https://dc.lft.to/lastmile_qr_scan", "android": "https://dc.lft.to/lastmile_qr_scan"}, "lon": -77.1784075, "fusion_lon": 0.0, "is_disabled": 0, "lat": 39.088601833333335, "bike_id": "1f1ce463b6788b0d835f45646fff4925", "name": "1f1ce463b6788b0d835f45646fff4925", "is_reserved": 0, "fusion_lat": 0.0}, {"type": "electric_bike", "rental_uris": {"ios": "https://dc.lft.to/lastmile_qr_scan", "android": "https://dc.lft.to/lastmile_qr_scan"}, "lon": -77.22228633333333, "fusion_lon": 0.0, "is_disabled": 0, "lat": 38.9285745, "bike_id": "be8d39ad1eec9c9ddd4911a94d5635b5", "name": "be8d39ad1eec9c9ddd4911a94d5635b5", "is_reserved": 0, "fusion_lat": 0.0}, {"type": "electric_bike", "rental_uris": {"ios": "https://dc.lft.to/lastmile_qr_scan", "android": "https://dc.lft.to/lastmile_qr_scan"}, "lon": -77.01205266666666, "fusion_lon": 0.0, "is_disabled": 0, "lat": 38.872566, "bike_id": "94c7d42d20ec83a97e00152975adfa5e", "name": "94c7d42d20ec83a97e00152975adfa5e", "is_reserved": 0, "fusion_lat": 0.0}, {"type": "electric_scooter", "rental_uris": {"ios": "https://dc.lft.to/lastmile_qr_scan", "android": "https://dc.lft.to/lastmile_qr_scan"}, "lon": -76.93994366666666, "fusion_lon": 0.0, "is_disabled": 0, "lat": 38.8998085, "bike_id": "c695d9617fa03edd2c53b7ec251f65a9", "name": "c695d9617fa03edd2c53b7ec251f65a9", "is_reserved": 0, "fusion_lat": 0.0}, {"type": "electric_bike", "rental_uris": {"ios": "https://dc.lft.to/lastmile_qr_scan", "android": "https://dc.lft.to/lastmile_qr_scan"}, "lon": -76.96532983333333, "fusion_lon": 0.0, "is_disabled": 0, "lat": 38.874813, "bike_id": "0d1b63ccaf516f7b142ddcd8d87821c2", "name": "0d1b63ccaf516f7b142ddcd8d87821c2", "is_reserved": 0, "fusion_lat": 0.0}, {"type": "electric_scooter", "rental_uris": {"ios": "https://dc.lft.to/lastmile_qr_scan", "android": "https://dc.lft.to/lastmile_qr_scan"}, "lon": -77.03965566666666, "fusion_lon": 0.0, "is_disabled": 0, "lat": 38.8986715, "bike_id": "3d4e3cd79ee983a07d9c347f21dc34a6", "name": "3d4e3cd79ee983a07d9c347f21dc34a6", "is_reserved": 0, "fusion_lat": 0.0}, {"type": "electric_scooter", "rental_uris": {"ios": "https://dc.lft.to/lastmile_qr_scan", "android": "https://dc.lft.to/lastmile_qr_scan"}, "lon": -77.032834, "fusion_lon": 0.0, "is_disabled": 0, "lat": 38.92744183333333, "bike_id": "be8b6c4d73ebf54f97199c148b353fa0", "name": "be8b6c4d73ebf54f97199c148b353fa0", "is_reserved": 0, "fusion_lat": 0.0}, {"type": "electric_scooter", "rental_uris": {"ios": "https://dc.lft.to/lastmile_qr_scan", "android": "https://dc.lft.to/lastmile_qr_scan"}, "lon": -77.05039866666667, "fusion_lon": 0.0, "is_disabled": 0, "lat": 38.892819, "bike_id": "797270ea2ec7a93104395cd1414a7845", "name": "797270ea2ec7a93104395cd1414a7845", "is_reserved": 0, "fusion_lat": 0.0}, {"type": "electric_scooter", "rental_uris": {"ios": "https://dc.lft.to/lastmile_qr_scan", "android": "https://dc.lft.to/lastmile_qr_scan"}, "lon": -77.04678516666667, "fusion_lon": 0.0, "is_disabled": 0, "lat": 38.9158515, "bike_id": "1bbb6235b22ca3b5978bbb4aa0c831bc", "name": "1bbb6235b22ca3b5978bbb4aa0c831bc", "is_reserved": 0, "fusion_lat": 0.0}, {"type": "electric_scooter", "rental_uris": {"ios": "https://dc.lft.to/lastmile_qr_scan", "android": "https://dc.lft.to/lastmile_qr_scan"}, "lon": -77.029766, "fusion_lon": 0.0, "is_disabled": 0, "lat": 38.91567933333333, "bike_id": "a0a46b4ab7791562c84e5de58ab78bb1", "name": "a0a46b4ab7791562c84e5de58ab78bb1", "is_reserved": 0, "fusion_lat": 0.0}, {"type": "electric_bike", "rental_uris": {"ios": "https://dc.lft.to/lastmile_qr_scan", "android": "https://dc.lft.to/lastmile_qr_scan"}, "lon": -77.11721866666667, "fusion_lon": 0.0, "is_disabled": 0, "lat": 39.05458216666667, "bike_id": "2d461080d4465045b4cdfc907a0b8c37", "name": "2d461080d4465045b4cdfc907a0b8c37", "is_reserved": 0, "fusion_lat": 0.0}, {"type": "electric_scooter", "rental_uris": {"ios": "https://dc.lft.to/lastmile_qr_scan", "android": "https://dc.lft.to/lastmile_qr_scan"}, "lon": -77.03217666666667, "fusion_lon": 0.0, "is_disabled": 0, "lat": 38.892227166666665, "bike_id": "63d66b53d842d74fee0c2389bd4c7866", "name": "63d66b53d842d74fee0c2389bd4c7866", "is_reserved": 0, "fusion_lat": 0.0}, {"type": "electric_scooter", "rental_uris": {"ios": "https://dc.lft.to/lastmile_qr_scan", "android": "https://dc.lft.to/lastmile_qr_scan"}, "lon": -77.0436665, "fusion_lon": 0.0, "is_disabled": 0, "lat": 38.9081705, "bike_id": "2c8295483e3ced5125b66b0c8efe09d2", "name": "2c8295483e3ced5125b66b0c8efe09d2", "is_reserved": 0, "fusion_lat": 0.0}, {"type": "electric_scooter", "rental_uris": {"ios": "https://dc.lft.to/lastmile_qr_scan", "android": "https://dc.lft.to/lastmile_qr_scan"}, "lon": -77.02223416666666, "fusion_lon": 0.0, "is_disabled": 0, "lat": 38.892211333333336, "bike_id": "a205604bd81da1975816f589332832f9", "name": "a205604bd81da1975816f589332832f9", "is_reserved": 0, "fusion_lat": 0.0}, {"type": "electric_scooter", "rental_uris": {"ios": "https://dc.lft.to/lastmile_qr_scan", "android": "https://dc.lft.to/lastmile_qr_scan"}, "lon": -77.00191983333333, "fusion_lon": 0.0, "is_disabled": 0, "lat": 38.90046683333333, "bike_id": "c52d3e42324e42d1db0ee9d2e65e6cbc", "name": "c52d3e42324e42d1db0ee9d2e65e6cbc", "is_reserved": 0, "fusion_lat": 0.0}, {"type": "electric_scooter", "rental_uris": {"ios": "https://dc.lft.to/lastmile_qr_scan", "android": "https://dc.lft.to/lastmile_qr_scan"}, "lon": -77.028413, "fusion_lon": 0.0, "is_disabled": 0, "lat": 38.932783, "bike_id": "aafdce523187079eb33f9316ab95f394", "name": "aafdce523187079eb33f9316ab95f394", "is_reserved": 0, "fusion_lat": 0.0}, {"type": "electric_scooter", "rental_uris": {"ios": "https://dc.lft.to/lastmile_qr_scan", "android": "https://dc.lft.to/lastmile_qr_scan"}, "lon": -77.03128966666667, "fusion_lon": 0.0, "is_disabled": 0, "lat": 38.92031016666667, "bike_id": "804706b064d352a0b3716161ec7e7e91", "name": "804706b064d352a0b3716161ec7e7e91", "is_reserved": 0, "fusion_lat": 0.0}, {"type": "electric_scooter", "rental_uris": {"ios": "https://dc.lft.to/lastmile_qr_scan", "android": "https://dc.lft.to/lastmile_qr_scan"}, "lon": -77.0391025, "fusion_lon": 0.0, "is_disabled": 0, "lat": 38.918194, "bike_id": "cdd44872a5da0d295296ac7ba08ffcfa", "name": "cdd44872a5da0d295296ac7ba08ffcfa", "is_reserved": 0, "fusion_lat": 0.0}, {"type": "electric_scooter", "rental_uris": {"ios": "https://dc.lft.to/lastmile_qr_scan", "android": "https://dc.lft.to/lastmile_qr_scan"}, "lon": -77.07682983333333, "fusion_lon": 0.0, "is_disabled": 0, "lat": 38.942286333333335, "bike_id": "b7d3b668831511e2f00d83bf5af73cf8", "name": "b7d3b668831511e2f00d83bf5af73cf8", "is_reserved": 0, "fusion_lat": 0.0}, {"type": "electric_scooter", "rental_uris": {"ios": "https://dc.lft.to/lastmile_qr_scan", "android": "https://dc.lft.to/lastmile_qr_scan"}, "lon": -77.03186466666666, "fusion_lon": 0.0, "is_disabled": 0, "lat": 38.892314166666665, "bike_id": "76d2a65dcec1b41751e90b5b0a31c7da", "name": "76d2a65dcec1b41751e90b5b0a31c7da", "is_reserved": 0, "fusion_lat": 0.0}, {"type": "electric_scooter", "rental_uris": {"ios": "https://dc.lft.to/lastmile_qr_scan", "android": "https://dc.lft.to/lastmile_qr_scan"}, "lon": -77.02349083333333, "fusion_lon": 0.0, "is_disabled": 0, "lat": 38.91794566666667, "bike_id": "513fe74d7da450f9b89163cf02719d32", "name": "513fe74d7da450f9b89163cf02719d32", "is_reserved": 0, "fusion_lat": 0.0}, {"type": "electric_scooter", "rental_uris": {"ios": "https://dc.lft.to/lastmile_qr_scan", "android": "https://dc.lft.to/lastmile_qr_scan"}, "lon": -77.0366045, "fusion_lon": 0.0, "is_disabled": 0, "lat": 38.920259333333334, "bike_id": "6fdaec2f1afefa628e2e042c76c6ac45", "name": "6fdaec2f1afefa628e2e042c76c6ac45", "is_reserved": 0, "fusion_lat": 0.0}, {"type": "electric_scooter", "rental_uris": {"ios": "https://dc.lft.to/lastmile_qr_scan", "android": "https://dc.lft.to/lastmile_qr_scan"}, "lon": -77.04917633333334, "fusion_lon": 0.0, "is_disabled": 0, "lat": 38.90092666666666, "bike_id": "ce7ec633fb826417c83986e026dff9bd", "name": "ce7ec633fb826417c83986e026dff9bd", "is_reserved": 0, "fusion_lat": 0.0}, {"type": "electric_scooter", "rental_uris": {"ios": "https://dc.lft.to/lastmile_qr_scan", "android": "https://dc.lft.to/lastmile_qr_scan"}, "lon": -76.99030366666666, "fusion_lon": 0.0, "is_disabled": 0, "lat": 38.89145933333333, "bike_id": "17db8b5f10f52cf43bfcb05f159ed0d6", "name": "17db8b5f10f52cf43bfcb05f159ed0d6", "is_reserved": 0, "fusion_lat": 0.0}, {"type": "electric_scooter", "rental_uris": {"ios": "https://dc.lft.to/lastmile_qr_scan", "android": "https://dc.lft.to/lastmile_qr_scan"}, "lon": -77.04077983333333, "fusion_lon": 0.0, "is_disabled": 0, "lat": 38.9141555, "bike_id": "1fad869af86b08325d8d86438710fda4", "name": "1fad869af86b08325d8d86438710fda4", "is_reserved": 0, "fusion_lat": 0.0}, {"type": "electric_scooter", "rental_uris": {"ios": "https://dc.lft.to/lastmile_qr_scan", "android": "https://dc.lft.to/lastmile_qr_scan"}, "lon": -77.049311, "fusion_lon": 0.0, "is_disabled": 0, "lat": 38.90080666666667, "bike_id": "dd70ee550e55e8c76b386628a43eee45", "name": "dd70ee550e55e8c76b386628a43eee45", "is_reserved": 0, "fusion_lat": 0.0}, {"type": "electric_scooter", "rental_uris": {"ios": "https://dc.lft.to/lastmile_qr_scan", "android": "https://dc.lft.to/lastmile_qr_scan"}, "lon": -77.04596683333334, "fusion_lon": 0.0, "is_disabled": 0, "lat": 38.91867716666667, "bike_id": "5ccd59435e354b11d534bfa9409ef9b7", "name": "5ccd59435e354b11d534bfa9409ef9b7", "is_reserved": 0, "fusion_lat": 0.0}, {"type": "electric_bike", "rental_uris": {"ios": "https://dc.lft.to/lastmile_qr_scan", "android": "https://dc.lft.to/lastmile_qr_scan"}, "lon": -76.98691216666667, "fusion_lon": 0.0, "is_disabled": 0, "lat": 38.944743333333335, "bike_id": "17772c9dc3578f9490cbc7450f31e627", "name": "17772c9dc3578f9490cbc7450f31e627", "is_reserved": 0, "fusion_lat": 0.0}, {"type": "electric_scooter", "rental_uris": {"ios": "https://dc.lft.to/lastmile_qr_scan", "android": "https://dc.lft.to/lastmile_qr_scan"}, "lon": -77.03512266666667, "fusion_lon": 0.0, "is_disabled": 0, "lat": 38.92151116666667, "bike_id": "804a3a698af6099cf039af27e07b8d80", "name": "804a3a698af6099cf039af27e07b8d80", "is_reserved": 0, "fusion_lat": 0.0}, {"type": "electric_scooter", "rental_uris": {"ios": "https://dc.lft.to/lastmile_qr_scan", "android": "https://dc.lft.to/lastmile_qr_scan"}, "lon": -77.02753033333333, "fusion_lon": 0.0, "is_disabled": 0, "lat": 38.95779916666667, "bike_id": "266694e459ebbd7a654fd79e21d78a2f", "name": "266694e459ebbd7a654fd79e21d78a2f", "is_reserved": 0, "fusion_lat": 0.0}, {"type": "electric_scooter", "rental_uris": {"ios": "https://dc.lft.to/lastmile_qr_scan", "android": "https://dc.lft.to/lastmile_qr_scan"}, "lon": -77.05236183333334, "fusion_lon": 0.0, "is_disabled": 0, "lat": 38.924600166666664, "bike_id": "059f9f72c842fbd0d0966836e063434f", "name": "059f9f72c842fbd0d0966836e063434f", "is_reserved": 0, "fusion_lat": 0.0}, {"type": "electric_scooter", "rental_uris": {"ios": "https://dc.lft.to/lastmile_qr_scan", "android": "https://dc.lft.to/lastmile_qr_scan"}, "lon": -77.029831, "fusion_lon": 0.0, "is_disabled": 0, "lat": 38.92245066666667, "bike_id": "53f59b83851b64ad102069cf1f6818c7", "name": "53f59b83851b64ad102069cf1f6818c7", "is_reserved": 0, "fusion_lat": 0.0}, {"type": "electric_scooter", "rental_uris": {"ios": "https://dc.lft.to/lastmile_qr_scan", "android": "https://dc.lft.to/lastmile_qr_scan"}, "lon": -77.02180016666667, "fusion_lon": 0.0, "is_disabled": 0, "lat": 38.89301316666667, "bike_id": "4d18851ff90be2cab125236ca51e27be", "name": "4d18851ff90be2cab125236ca51e27be", "is_reserved": 0, "fusion_lat": 0.0}, {"type": "electric_scooter", "rental_uris": {"ios": "https://dc.lft.to/lastmile_qr_scan", "android": "https://dc.lft.to/lastmile_qr_scan"}, "lon": -76.95752166666666, "fusion_lon": 0.0, "is_disabled": 0, "lat": 38.8842825, "bike_id": "6e6cacf162cc93bf6431ccf6599b08af", "name": "6e6cacf162cc93bf6431ccf6599b08af", "is_reserved": 0, "fusion_lat": 0.0}, {"type": "electric_scooter", "rental_uris": {"ios": "https://dc.lft.to/lastmile_qr_scan", "android": "https://dc.lft.to/lastmile_qr_scan"}, "lon": -77.03429183333333, "fusion_lon": 0.0, "is_disabled": 0, "lat": 38.909716833333334, "bike_id": "06aedd6ec282902a10823f955041b0bb", "name": "06aedd6ec282902a10823f955041b0bb", "is_reserved": 0, "fusion_lat": 0.0}, {"type": "electric_scooter", "rental_uris": {"ios": "https://dc.lft.to/lastmile_qr_scan", "android": "https://dc.lft.to/lastmile_qr_scan"}, "lon": -77.02425, "fusion_lon": 0.0, "is_disabled": 0, "lat": 38.92759816666667, "bike_id": "3302eda2078381df0af08b93170f0b26", "name": "3302eda2078381df0af08b93170f0b26", "is_reserved": 0, "fusion_lat": 0.0}, {"type": "electric_scooter", "rental_uris": {"ios": "https://dc.lft.to/lastmile_qr_scan", "android": "https://dc.lft.to/lastmile_qr_scan"}, "lon": -77.03264216666666, "fusion_lon": 0.0, "is_disabled": 0, "lat": 38.91985016666667, "bike_id": "5569765e5e9f11e67b7be69e474ac239", "name": "5569765e5e9f11e67b7be69e474ac239", "is_reserved": 0, "fusion_lat": 0.0}, {"type": "electric_scooter", "rental_uris": {"ios": "https://dc.lft.to/lastmile_qr_scan", "android": "https://dc.lft.to/lastmile_qr_scan"}, "lon": -76.97328833333333, "fusion_lon": 0.0, "is_disabled": 0, "lat": 38.90410383333333, "bike_id": "1e6c42cc2b2da49e0ef4a88e2245e136", "name": "1e6c42cc2b2da49e0ef4a88e2245e136", "is_reserved": 0, "fusion_lat": 0.0}, {"type": "electric_scooter", "rental_uris": {"ios": "https://dc.lft.to/lastmile_qr_scan", "android": "https://dc.lft.to/lastmile_qr_scan"}, "lon": -77.00065616666667, "fusion_lon": 0.0, "is_disabled": 0, "lat": 38.905765, "bike_id": "b6d6bd4a1515e53c33169e6e955f0ee5", "name": "b6d6bd4a1515e53c33169e6e955f0ee5", "is_reserved": 0, "fusion_lat": 0.0}, {"type": "electric_bike", "rental_uris": {"ios": "https://dc.lft.to/lastmile_qr_scan", "android": "https://dc.lft.to/lastmile_qr_scan"}, "lon": -77.03631366666667, "fusion_lon": 0.0, "is_disabled": 0, "lat": 38.932896, "bike_id": "f27850c49bcd419a52810a48816e88cf", "name": "f27850c49bcd419a52810a48816e88cf", "is_reserved": 0, "fusion_lat": 0.0}, {"type": "electric_scooter", "rental_uris": {"ios": "https://dc.lft.to/lastmile_qr_scan", "android": "https://dc.lft.to/lastmile_qr_scan"}, "lon": -77.05021916666666, "fusion_lon": 0.0, "is_disabled": 0, "lat": 38.90329833333333, "bike_id": "90dc1e2596982e34e8d15713bf54c2f9", "name": "90dc1e2596982e34e8d15713bf54c2f9", "is_reserved": 0, "fusion_lat": 0.0}, {"type": "electric_scooter", "rental_uris": {"ios": "https://dc.lft.to/lastmile_qr_scan", "android": "https://dc.lft.to/lastmile_qr_scan"}, "lon": -77.01076966666666, "fusion_lon": 0.0, "is_disabled": 0, "lat": 38.91630133333334, "bike_id": "12a0caaf160100ea377ed168885e98b9", "name": "12a0caaf160100ea377ed168885e98b9", "is_reserved": 0, "fusion_lat": 0.0}, {"type": "electric_bike", "rental_uris": {"ios": "https://dc.lft.to/lastmile_qr_scan", "android": "https://dc.lft.to/lastmile_qr_scan"}, "lon": -77.0948325, "fusion_lon": 0.0, "is_disabled": 0, "lat": 39.0304905, "bike_id": "b8676ad0feb9a48ca9cb2c87bd6495b8", "name": "b8676ad0feb9a48ca9cb2c87bd6495b8", "is_reserved": 0, "fusion_lat": 0.0}, {"type": "electric_scooter", "rental_uris": {"ios": "https://dc.lft.to/lastmile_qr_scan", "android": "https://dc.lft.to/lastmile_qr_scan"}, "lon": -77.03044216666666, "fusion_lon": 0.0, "is_disabled": 0, "lat": 38.884373333333336, "bike_id": "346fab7764f70ffbfdac9a8cdcc744a2", "name": "346fab7764f70ffbfdac9a8cdcc744a2", "is_reserved": 0, "fusion_lat": 0.0}, {"type": "electric_scooter", "rental_uris": {"ios": "https://dc.lft.to/lastmile_qr_scan", "android": "https://dc.lft.to/lastmile_qr_scan"}, "lon": -77.02070383333333, "fusion_lon": 0.0, "is_disabled": 0, "lat": 38.87581633333333, "bike_id": "856a1f95761b01b56817f6073d3fb978", "name": "856a1f95761b01b56817f6073d3fb978", "is_reserved": 0, "fusion_lat": 0.0}, {"type": "electric_scooter", "rental_uris": {"ios": "https://dc.lft.to/lastmile_qr_scan", "android": "https://dc.lft.to/lastmile_qr_scan"}, "lon": -77.02978666666667, "fusion_lon": 0.0, "is_disabled": 0, "lat": 38.916834333333334, "bike_id": "184e8a462740ce6371d07c43f1b423eb", "name": "184e8a462740ce6371d07c43f1b423eb", "is_reserved": 0, "fusion_lat": 0.0}, {"type": "electric_scooter", "rental_uris": {"ios": "https://dc.lft.to/lastmile_qr_scan", "android": "https://dc.lft.to/lastmile_qr_scan"}, "lon": -77.04886316666666, "fusion_lon": 0.0, "is_disabled": 0, "lat": 38.91341366666666, "bike_id": "104e16a9ff616bc6710f8925ca2d188d", "name": "104e16a9ff616bc6710f8925ca2d188d", "is_reserved": 0, "fusion_lat": 0.0}, {"type": "electric_scooter", "rental_uris": {"ios": "https://dc.lft.to/lastmile_qr_scan", "android": "https://dc.lft.to/lastmile_qr_scan"}, "lon": -77.0476435, "fusion_lon": 0.0, "is_disabled": 0, "lat": 38.902213833333334, "bike_id": "c71011a50661845b343197d841398b6c", "name": "c71011a50661845b343197d841398b6c", "is_reserved": 0, "fusion_lat": 0.0}, {"type": "electric_scooter", "rental_uris": {"ios": "https://dc.lft.to/lastmile_qr_scan", "android": "https://dc.lft.to/lastmile_qr_scan"}, "lon": -77.04075433333334, "fusion_lon": 0.0, "is_disabled": 0, "lat": 38.90392133333334, "bike_id": "d46134360be140c99f4658365896cd26", "name": "d46134360be140c99f4658365896cd26", "is_reserved": 0, "fusion_lat": 0.0}, {"type": "electric_scooter", "rental_uris": {"ios": "https://dc.lft.to/lastmile_qr_scan", "android": "https://dc.lft.to/lastmile_qr_scan"}, "lon": -77.07298616666667, "fusion_lon": 0.0, "is_disabled": 0, "lat": 38.921459, "bike_id": "ff8ad013d81c5face89863b0b3642b08", "name": "ff8ad013d81c5face89863b0b3642b08", "is_reserved": 0, "fusion_lat": 0.0}, {"type": "electric_scooter", "rental_uris": {"ios": "https://dc.lft.to/lastmile_qr_scan", "android": "https://dc.lft.to/lastmile_qr_scan"}, "lon": -77.00123716666667, "fusion_lon": 0.0, "is_disabled": 0, "lat": 38.877971, "bike_id": "f5e3c539763475342fade20a29e128c0", "name": "f5e3c539763475342fade20a29e128c0", "is_reserved": 0, "fusion_lat": 0.0}, {"type": "electric_scooter", "rental_uris": {"ios": "https://dc.lft.to/lastmile_qr_scan", "android": "https://dc.lft.to/lastmile_qr_scan"}, "lon": -76.97238833333333, "fusion_lon": 0.0, "is_disabled": 0, "lat": 38.8545615, "bike_id": "01e023c814c7e58cdad086cdfee1e7b2", "name": "01e023c814c7e58cdad086cdfee1e7b2", "is_reserved": 0, "fusion_lat": 0.0}, {"type": "electric_scooter", "rental_uris": {"ios": "https://dc.lft.to/lastmile_qr_scan", "android": "https://dc.lft.to/lastmile_qr_scan"}, "lon": -77.06324916666667, "fusion_lon": 0.0, "is_disabled": 0, "lat": 38.902703833333334, "bike_id": "c5f672cc8a1c5293a94a0d4e2791c171", "name": "c5f672cc8a1c5293a94a0d4e2791c171", "is_reserved": 0, "fusion_lat": 0.0}, {"type": "electric_scooter", "rental_uris": {"ios": "https://dc.lft.to/lastmile_qr_scan", "android": "https://dc.lft.to/lastmile_qr_scan"}, "lon": -77.01227183333333, "fusion_lon": 0.0, "is_disabled": 0, "lat": 38.919768833333336, "bike_id": "ce0453c9bd121e3a8f9a68b72d459822", "name": "ce0453c9bd121e3a8f9a68b72d459822", "is_reserved": 0, "fusion_lat": 0.0}, {"type": "electric_scooter", "rental_uris": {"ios": "https://dc.lft.to/lastmile_qr_scan", "android": "https://dc.lft.to/lastmile_qr_scan"}, "lon": -77.026958, "fusion_lon": 0.0, "is_disabled": 0, "lat": 38.90682616666667, "bike_id": "a7e2b0feb3c5baf24efda18e861d0514", "name": "a7e2b0feb3c5baf24efda18e861d0514", "is_reserved": 0, "fusion_lat": 0.0}, {"type": "electric_scooter", "rental_uris": {"ios": "https://dc.lft.to/lastmile_qr_scan", "android": "https://dc.lft.to/lastmile_qr_scan"}, "lon": -77.03140616666667, "fusion_lon": 0.0, "is_disabled": 0, "lat": 38.8874295, "bike_id": "151b2bbb5407f4b7ad77656ff3aac685", "name": "151b2bbb5407f4b7ad77656ff3aac685", "is_reserved": 0, "fusion_lat": 0.0}, {"type": "electric_scooter", "rental_uris": {"ios": "https://dc.lft.to/lastmile_qr_scan", "android": "https://dc.lft.to/lastmile_qr_scan"}, "lon": -77.0764955, "fusion_lon": 0.0, "is_disabled": 0, "lat": 38.9391815, "bike_id": "d7334fc2a1ecff1c98ff0ef89cf12cd3", "name": "d7334fc2a1ecff1c98ff0ef89cf12cd3", "is_reserved": 0, "fusion_lat": 0.0}, {"type": "electric_scooter", "rental_uris": {"ios": "https://dc.lft.to/lastmile_qr_scan", "android": "https://dc.lft.to/lastmile_qr_scan"}, "lon": -77.00119933333333, "fusion_lon": 0.0, "is_disabled": 0, "lat": 38.912401833333334, "bike_id": "8bc288ac35f2d520983d69832041f025", "name": "8bc288ac35f2d520983d69832041f025", "is_reserved": 0, "fusion_lat": 0.0}, {"type": "electric_scooter", "rental_uris": {"ios": "https://dc.lft.to/lastmile_qr_scan", "android": "https://dc.lft.to/lastmile_qr_scan"}, "lon": -77.0240275, "fusion_lon": 0.0, "is_disabled": 0, "lat": 38.89744266666666, "bike_id": "9a00d6dec65022b574e467c869cfa57d", "name": "9a00d6dec65022b574e467c869cfa57d", "is_reserved": 0, "fusion_lat": 0.0}, {"type": "electric_scooter", "rental_uris": {"ios": "https://dc.lft.to/lastmile_qr_scan", "android": "https://dc.lft.to/lastmile_qr_scan"}, "lon": -77.03334966666667, "fusion_lon": 0.0, "is_disabled": 0, "lat": 38.91707233333333, "bike_id": "bfebbf195745cba8b40677b5e5a69097", "name": "bfebbf195745cba8b40677b5e5a69097", "is_reserved": 0, "fusion_lat": 0.0}, {"type": "electric_scooter", "rental_uris": {"ios": "https://dc.lft.to/lastmile_qr_scan", "android": "https://dc.lft.to/lastmile_qr_scan"}, "lon": -77.034479, "fusion_lon": 0.0, "is_disabled": 0, "lat": 38.937503666666665, "bike_id": "fa0aee0faacbdc7e08e47abec9555e15", "name": "fa0aee0faacbdc7e08e47abec9555e15", "is_reserved": 0, "fusion_lat": 0.0}, {"type": "electric_scooter", "rental_uris": {"ios": "https://dc.lft.to/lastmile_qr_scan", "android": "https://dc.lft.to/lastmile_qr_scan"}, "lon": -77.04330816666666, "fusion_lon": 0.0, "is_disabled": 0, "lat": 38.89221333333333, "bike_id": "f156207b91016824a75b10c157560b78", "name": "f156207b91016824a75b10c157560b78", "is_reserved": 0, "fusion_lat": 0.0}, {"type": "electric_scooter", "rental_uris": {"ios": "https://dc.lft.to/lastmile_qr_scan", "android": "https://dc.lft.to/lastmile_qr_scan"}, "lon": -77.02383783333333, "fusion_lon": 0.0, "is_disabled": 0, "lat": 38.916759666666664, "bike_id": "e3d140ef361f350b55ffee5af4deb844", "name": "e3d140ef361f350b55ffee5af4deb844", "is_reserved": 0, "fusion_lat": 0.0}, {"type": "electric_scooter", "rental_uris": {"ios": "https://dc.lft.to/lastmile_qr_scan", "android": "https://dc.lft.to/lastmile_qr_scan"}, "lon": -77.03391366666666, "fusion_lon": 0.0, "is_disabled": 0, "lat": 38.92054316666667, "bike_id": "c3cec316318a56d9524c1ac6478679a3", "name": "c3cec316318a56d9524c1ac6478679a3", "is_reserved": 0, "fusion_lat": 0.0}, {"type": "electric_scooter", "rental_uris": {"ios": "https://dc.lft.to/lastmile_qr_scan", "android": "https://dc.lft.to/lastmile_qr_scan"}, "lon": -77.0297625, "fusion_lon": 0.0, "is_disabled": 0, "lat": 38.930667666666665, "bike_id": "0bd6c1b9f64808f1bbfef6c168d756ee", "name": "0bd6c1b9f64808f1bbfef6c168d756ee", "is_reserved": 0, "fusion_lat": 0.0}, {"type": "electric_scooter", "rental_uris": {"ios": "https://dc.lft.to/lastmile_qr_scan", "android": "https://dc.lft.to/lastmile_qr_scan"}, "lon": -77.01069566666666, "fusion_lon": 0.0, "is_disabled": 0, "lat": 38.907319666666666, "bike_id": "35ca3bf1a4b56f5feef5387b4c7d99ad", "name": "35ca3bf1a4b56f5feef5387b4c7d99ad", "is_reserved": 0, "fusion_lat": 0.0}, {"type": "electric_scooter", "rental_uris": {"ios": "https://dc.lft.to/lastmile_qr_scan", "android": "https://dc.lft.to/lastmile_qr_scan"}, "lon": -76.954163, "fusion_lon": 0.0, "is_disabled": 0, "lat": 38.88998466666666, "bike_id": "cee5cddd1d06307038f60eb404af2764", "name": "cee5cddd1d06307038f60eb404af2764", "is_reserved": 0, "fusion_lat": 0.0}, {"type": "electric_scooter", "rental_uris": {"ios": "https://dc.lft.to/lastmile_qr_scan", "android": "https://dc.lft.to/lastmile_qr_scan"}, "lon": -77.04173566666667, "fusion_lon": 0.0, "is_disabled": 0, "lat": 38.91551033333333, "bike_id": "1096a3fc5bac600e17b7236d9d203557", "name": "1096a3fc5bac600e17b7236d9d203557", "is_reserved": 0, "fusion_lat": 0.0}, {"type": "electric_scooter", "rental_uris": {"ios": "https://dc.lft.to/lastmile_qr_scan", "android": "https://dc.lft.to/lastmile_qr_scan"}, "lon": -77.04183083333334, "fusion_lon": 0.0, "is_disabled": 0, "lat": 38.90526083333334, "bike_id": "e14714e00645b8def85292a7643bf404", "name": "e14714e00645b8def85292a7643bf404", "is_reserved": 0, "fusion_lat": 0.0}, {"type": "electric_scooter", "rental_uris": {"ios": "https://dc.lft.to/lastmile_qr_scan", "android": "https://dc.lft.to/lastmile_qr_scan"}, "lon": -77.03669683333334, "fusion_lon": 0.0, "is_disabled": 0, "lat": 38.91708283333333, "bike_id": "876bba95791661ec4ebc621da133485f", "name": "876bba95791661ec4ebc621da133485f", "is_reserved": 0, "fusion_lat": 0.0}, {"type": "electric_scooter", "rental_uris": {"ios": "https://dc.lft.to/lastmile_qr_scan", "android": "https://dc.lft.to/lastmile_qr_scan"}, "lon": -76.98696116666666, "fusion_lon": 0.0, "is_disabled": 0, "lat": 38.86629533333333, "bike_id": "3bd935dca133648921be0738f8ff14d2", "name": "3bd935dca133648921be0738f8ff14d2", "is_reserved": 0, "fusion_lat": 0.0}, {"type": "electric_scooter", "rental_uris": {"ios": "https://dc.lft.to/lastmile_qr_scan", "android": "https://dc.lft.to/lastmile_qr_scan"}, "lon": -77.0239805, "fusion_lon": 0.0, "is_disabled": 0, "lat": 38.95712283333334, "bike_id": "0743ce22127bccfb1346ad4452bd3fb9", "name": "0743ce22127bccfb1346ad4452bd3fb9", "is_reserved": 0, "fusion_lat": 0.0}, {"type": "electric_scooter", "rental_uris": {"ios": "https://dc.lft.to/lastmile_qr_scan", "android": "https://dc.lft.to/lastmile_qr_scan"}, "lon": -77.03858383333333, "fusion_lon": 0.0, "is_disabled": 0, "lat": 38.912403, "bike_id": "d0ec2fc30219a200b75e0f83ea03693a", "name": "d0ec2fc30219a200b75e0f83ea03693a", "is_reserved": 0, "fusion_lat": 0.0}, {"type": "electric_bike", "rental_uris": {"ios": "https://dc.lft.to/lastmile_qr_scan", "android": "https://dc.lft.to/lastmile_qr_scan"}, "lon": -77.03597116666667, "fusion_lon": 0.0, "is_disabled": 0, "lat": 38.9069325, "bike_id": "752b3f3e977128fa5f62760580fc28cf", "name": "752b3f3e977128fa5f62760580fc28cf", "is_reserved": 0, "fusion_lat": 0.0}, {"type": "electric_scooter", "rental_uris": {"ios": "https://dc.lft.to/lastmile_qr_scan", "android": "https://dc.lft.to/lastmile_qr_scan"}, "lon": -76.99498, "fusion_lon": 0.0, "is_disabled": 0, "lat": 38.92662883333333, "bike_id": "bb67e352536a69376f2720d99fe2a0bd", "name": "bb67e352536a69376f2720d99fe2a0bd", "is_reserved": 0, "fusion_lat": 0.0}, {"type": "electric_scooter", "rental_uris": {"ios": "https://dc.lft.to/lastmile_qr_scan", "android": "https://dc.lft.to/lastmile_qr_scan"}, "lon": -77.02804583333334, "fusion_lon": 0.0, "is_disabled": 0, "lat": 38.8993245, "bike_id": "3d74f4ca36de3df4a7d1257ef0a54f4d", "name": "3d74f4ca36de3df4a7d1257ef0a54f4d", "is_reserved": 0, "fusion_lat": 0.0}, {"type": "electric_scooter", "rental_uris": {"ios": "https://dc.lft.to/lastmile_qr_scan", "android": "https://dc.lft.to/lastmile_qr_scan"}, "lon": -77.041853, "fusion_lon": 0.0, "is_disabled": 0, "lat": 38.905254166666666, "bike_id": "68c223ac563b7d51ce7b0eec87739813", "name": "68c223ac563b7d51ce7b0eec87739813", "is_reserved": 0, "fusion_lat": 0.0}, {"type": "electric_scooter", "rental_uris": {"ios": "https://dc.lft.to/lastmile_qr_scan", "android": "https://dc.lft.to/lastmile_qr_scan"}, "lon": -77.04348283333333, "fusion_lon": 0.0, "is_disabled": 0, "lat": 38.90535833333333, "bike_id": "ab203e245c9a0a36332c45e179a54f65", "name": "ab203e245c9a0a36332c45e179a54f65", "is_reserved": 0, "fusion_lat": 0.0}, {"type": "electric_scooter", "rental_uris": {"ios": "https://dc.lft.to/lastmile_qr_scan", "android": "https://dc.lft.to/lastmile_qr_scan"}, "lon": -77.00368083333333, "fusion_lon": 0.0, "is_disabled": 0, "lat": 38.88263033333333, "bike_id": "e3c83587793411df5862d36f7a1573e1", "name": "e3c83587793411df5862d36f7a1573e1", "is_reserved": 0, "fusion_lat": 0.0}, {"type": "electric_scooter", "rental_uris": {"ios": "https://dc.lft.to/lastmile_qr_scan", "android": "https://dc.lft.to/lastmile_qr_scan"}, "lon": -77.036602, "fusion_lon": 0.0, "is_disabled": 0, "lat": 38.918663, "bike_id": "72381f58838dcb314ca85455ecd0bebb", "name": "72381f58838dcb314ca85455ecd0bebb", "is_reserved": 0, "fusion_lat": 0.0}, {"type": "electric_scooter", "rental_uris": {"ios": "https://dc.lft.to/lastmile_qr_scan", "android": "https://dc.lft.to/lastmile_qr_scan"}, "lon": -77.0219635, "fusion_lon": 0.0, "is_disabled": 0, "lat": 38.91126416666667, "bike_id": "e9ae68940dad2f11daa531d313a82387", "name": "e9ae68940dad2f11daa531d313a82387", "is_reserved": 0, "fusion_lat": 0.0}, {"type": "electric_bike", "rental_uris": {"ios": "https://dc.lft.to/lastmile_qr_scan", "android": "https://dc.lft.to/lastmile_qr_scan"}, "lon": -77.06077833333333, "fusion_lon": 0.0, "is_disabled": 0, "lat": 38.885803833333334, "bike_id": "cff42a8472623e1275d4de33172821b2", "name": "cff42a8472623e1275d4de33172821b2", "is_reserved": 0, "fusion_lat": 0.0}, {"type": "electric_scooter", "rental_uris": {"ios": "https://dc.lft.to/lastmile_qr_scan", "android": "https://dc.lft.to/lastmile_qr_scan"}, "lon": -77.01166383333333, "fusion_lon": 0.0, "is_disabled": 0, "lat": 38.90015133333333, "bike_id": "3898eed4b67746d478e9ab1ba9f5714c", "name": "3898eed4b67746d478e9ab1ba9f5714c", "is_reserved": 0, "fusion_lat": 0.0}, {"type": "electric_scooter", "rental_uris": {"ios": "https://dc.lft.to/lastmile_qr_scan", "android": "https://dc.lft.to/lastmile_qr_scan"}, "lon": -77.0330485, "fusion_lon": 0.0, "is_disabled": 0, "lat": 38.90783583333333, "bike_id": "d87f88fa70088c9d1144cf10b8504966", "name": "d87f88fa70088c9d1144cf10b8504966", "is_reserved": 0, "fusion_lat": 0.0}, {"type": "electric_bike", "rental_uris": {"ios": "https://dc.lft.to/lastmile_qr_scan", "android": "https://dc.lft.to/lastmile_qr_scan"}, "lon": -77.13104533333333, "fusion_lon": 0.0, "is_disabled": 0, "lat": 39.02430866666667, "bike_id": "7325d379968f589b8166e18255f63f4c", "name": "7325d379968f589b8166e18255f63f4c", "is_reserved": 0, "fusion_lat": 0.0}, {"type": "electric_scooter", "rental_uris": {"ios": "https://dc.lft.to/lastmile_qr_scan", "android": "https://dc.lft.to/lastmile_qr_scan"}, "lon": -77.00465016666666, "fusion_lon": 0.0, "is_disabled": 0, "lat": 38.91109333333333, "bike_id": "595fca44acecd299af708a38348db4a5", "name": "595fca44acecd299af708a38348db4a5", "is_reserved": 0, "fusion_lat": 0.0}, {"type": "electric_scooter", "rental_uris": {"ios": "https://dc.lft.to/lastmile_qr_scan", "android": "https://dc.lft.to/lastmile_qr_scan"}, "lon": -77.0265475, "fusion_lon": 0.0, "is_disabled": 0, "lat": 38.89220316666667, "bike_id": "81cf0eb19333fedab690014ae86b794c", "name": "81cf0eb19333fedab690014ae86b794c", "is_reserved": 0, "fusion_lat": 0.0}, {"type": "electric_scooter", "rental_uris": {"ios": "https://dc.lft.to/lastmile_qr_scan", "android": "https://dc.lft.to/lastmile_qr_scan"}, "lon": -76.9489505, "fusion_lon": 0.0, "is_disabled": 0, "lat": 38.895311166666666, "bike_id": "dfac986f1f437690c2fee52dcc9950a9", "name": "dfac986f1f437690c2fee52dcc9950a9", "is_reserved": 0, "fusion_lat": 0.0}, {"type": "electric_scooter", "rental_uris": {"ios": "https://dc.lft.to/lastmile_qr_scan", "android": "https://dc.lft.to/lastmile_qr_scan"}, "lon": -77.02845016666667, "fusion_lon": 0.0, "is_disabled": 0, "lat": 38.961135166666665, "bike_id": "f93fe9a9bf452bed2fa34ff01774536e", "name": "f93fe9a9bf452bed2fa34ff01774536e", "is_reserved": 0, "fusion_lat": 0.0}, {"type": "electric_bike", "rental_uris": {"ios": "https://dc.lft.to/lastmile_qr_scan", "android": "https://dc.lft.to/lastmile_qr_scan"}, "lon": -77.09477983333333, "fusion_lon": 0.0, "is_disabled": 0, "lat": 39.030514, "bike_id": "89ec0cf9d4b08d5a3fd2eb24100b7376", "name": "89ec0cf9d4b08d5a3fd2eb24100b7376", "is_reserved": 0, "fusion_lat": 0.0}, {"type": "electric_scooter", "rental_uris": {"ios": "https://dc.lft.to/lastmile_qr_scan", "android": "https://dc.lft.to/lastmile_qr_scan"}, "lon": -76.984808, "fusion_lon": 0.0, "is_disabled": 0, "lat": 38.91310416666666, "bike_id": "4cca95d40fa27c9a715cc69629ec23f8", "name": "4cca95d40fa27c9a715cc69629ec23f8", "is_reserved": 0, "fusion_lat": 0.0}, {"type": "electric_scooter", "rental_uris": {"ios": "https://dc.lft.to/lastmile_qr_scan", "android": "https://dc.lft.to/lastmile_qr_scan"}, "lon": -77.03098916666667, "fusion_lon": 0.0, "is_disabled": 0, "lat": 38.9386325, "bike_id": "95e530cbe52dbcc8a9d06baad64edb61", "name": "95e530cbe52dbcc8a9d06baad64edb61", "is_reserved": 0, "fusion_lat": 0.0}, {"type": "electric_scooter", "rental_uris": {"ios": "https://dc.lft.to/lastmile_qr_scan", "android": "https://dc.lft.to/lastmile_qr_scan"}, "lon": -77.025069, "fusion_lon": 0.0, "is_disabled": 0, "lat": 38.919512166666664, "bike_id": "6a2823500c1acb0c749095266ba8103d", "name": "6a2823500c1acb0c749095266ba8103d", "is_reserved": 0, "fusion_lat": 0.0}, {"type": "electric_scooter", "rental_uris": {"ios": "https://dc.lft.to/lastmile_qr_scan", "android": "https://dc.lft.to/lastmile_qr_scan"}, "lon": -77.03748416666667, "fusion_lon": 0.0, "is_disabled": 0, "lat": 38.92580266666667, "bike_id": "e8192adb59dcc6e38fe4c5b6042c97e6", "name": "e8192adb59dcc6e38fe4c5b6042c97e6", "is_reserved": 0, "fusion_lat": 0.0}, {"type": "electric_bike", "rental_uris": {"ios": "https://dc.lft.to/lastmile_qr_scan", "android": "https://dc.lft.to/lastmile_qr_scan"}, "lon": -77.0563215, "fusion_lon": 0.0, "is_disabled": 0, "lat": 38.986521, "bike_id": "8df3dcd2c84b9cb8090b8bc58a4f21bd", "name": "8df3dcd2c84b9cb8090b8bc58a4f21bd", "is_reserved": 0, "fusion_lat": 0.0}, {"type": "electric_scooter", "rental_uris": {"ios": "https://dc.lft.to/lastmile_qr_scan", "android": "https://dc.lft.to/lastmile_qr_scan"}, "lon": -77.02518533333334, "fusion_lon": 0.0, "is_disabled": 0, "lat": 38.9462275, "bike_id": "12a55cfcd64efdf82725fd8db41be84a", "name": "12a55cfcd64efdf82725fd8db41be84a", "is_reserved": 0, "fusion_lat": 0.0}, {"type": "electric_scooter", "rental_uris": {"ios": "https://dc.lft.to/lastmile_qr_scan", "android": "https://dc.lft.to/lastmile_qr_scan"}, "lon": -77.03333866666667, "fusion_lon": 0.0, "is_disabled": 0, "lat": 38.917053333333335, "bike_id": "59bb92ccabfd6c8f2cf49be712540174", "name": "59bb92ccabfd6c8f2cf49be712540174", "is_reserved": 0, "fusion_lat": 0.0}, {"type": "electric_scooter", "rental_uris": {"ios": "https://dc.lft.to/lastmile_qr_scan", "android": "https://dc.lft.to/lastmile_qr_scan"}, "lon": -77.03536183333334, "fusion_lon": 0.0, "is_disabled": 0, "lat": 38.92382583333333, "bike_id": "262f9b24773fd9c1f970993064d298ea", "name": "262f9b24773fd9c1f970993064d298ea", "is_reserved": 0, "fusion_lat": 0.0}, {"type": "electric_scooter", "rental_uris": {"ios": "https://dc.lft.to/lastmile_qr_scan", "android": "https://dc.lft.to/lastmile_qr_scan"}, "lon": -77.04018383333333, "fusion_lon": 0.0, "is_disabled": 0, "lat": 38.91804366666667, "bike_id": "24caaa6cd3c36b8a5fa77919aa942629", "name": "24caaa6cd3c36b8a5fa77919aa942629", "is_reserved": 0, "fusion_lat": 0.0}, {"type": "electric_scooter", "rental_uris": {"ios": "https://dc.lft.to/lastmile_qr_scan", "android": "https://dc.lft.to/lastmile_qr_scan"}, "lon": -77.0373765, "fusion_lon": 0.0, "is_disabled": 0, "lat": 38.93098916666667, "bike_id": "dc41e8bd9096d272c8e7314a82a34211", "name": "dc41e8bd9096d272c8e7314a82a34211", "is_reserved": 0, "fusion_lat": 0.0}, {"type": "electric_scooter", "rental_uris": {"ios": "https://dc.lft.to/lastmile_qr_scan", "android": "https://dc.lft.to/lastmile_qr_scan"}, "lon": -76.97923266666666, "fusion_lon": 0.0, "is_disabled": 0, "lat": 38.90501, "bike_id": "61c889d2792e9b073406471c3f5b94c6", "name": "61c889d2792e9b073406471c3f5b94c6", "is_reserved": 0, "fusion_lat": 0.0}, {"type": "electric_scooter", "rental_uris": {"ios": "https://dc.lft.to/lastmile_qr_scan", "android": "https://dc.lft.to/lastmile_qr_scan"}, "lon": -77.03182083333333, "fusion_lon": 0.0, "is_disabled": 0, "lat": 38.918597, "bike_id": "6fd0f7e8d5a429e5e4eb4bd5999b3271", "name": "6fd0f7e8d5a429e5e4eb4bd5999b3271", "is_reserved": 0, "fusion_lat": 0.0}, {"type": "electric_scooter", "rental_uris": {"ios": "https://dc.lft.to/lastmile_qr_scan", "android": "https://dc.lft.to/lastmile_qr_scan"}, "lon": -77.0321905, "fusion_lon": 0.0, "is_disabled": 0, "lat": 38.89225583333333, "bike_id": "6d855fd04ed2a1fcea83e83217f9b975", "name": "6d855fd04ed2a1fcea83e83217f9b975", "is_reserved": 0, "fusion_lat": 0.0}, {"type": "electric_scooter", "rental_uris": {"ios": "https://dc.lft.to/lastmile_qr_scan", "android": "https://dc.lft.to/lastmile_qr_scan"}, "lon": -77.03832983333334, "fusion_lon": 0.0, "is_disabled": 0, "lat": 38.911235, "bike_id": "48a4c6458d057b82c04b376b8b4bf032", "name": "48a4c6458d057b82c04b376b8b4bf032", "is_reserved": 0, "fusion_lat": 0.0}, {"type": "electric_scooter", "rental_uris": {"ios": "https://dc.lft.to/lastmile_qr_scan", "android": "https://dc.lft.to/lastmile_qr_scan"}, "lon": -77.03220266666666, "fusion_lon": 0.0, "is_disabled": 0, "lat": 38.892205, "bike_id": "9be9c2b48727455a679fa6bc34759c49", "name": "9be9c2b48727455a679fa6bc34759c49", "is_reserved": 0, "fusion_lat": 0.0}, {"type": "electric_scooter", "rental_uris": {"ios": "https://dc.lft.to/lastmile_qr_scan", "android": "https://dc.lft.to/lastmile_qr_scan"}, "lon": -77.04510933333333, "fusion_lon": 0.0, "is_disabled": 0, "lat": 38.90774833333333, "bike_id": "25f1aa628e6e5444c9733a49b3c66d0e", "name": "25f1aa628e6e5444c9733a49b3c66d0e", "is_reserved": 0, "fusion_lat": 0.0}, {"type": "electric_scooter", "rental_uris": {"ios": "https://dc.lft.to/lastmile_qr_scan", "android": "https://dc.lft.to/lastmile_qr_scan"}, "lon": -77.0341485, "fusion_lon": 0.0, "is_disabled": 0, "lat": 38.927353333333336, "bike_id": "71d1cd70fae5ec4c6d5ecea21f042acd", "name": "71d1cd70fae5ec4c6d5ecea21f042acd", "is_reserved": 0, "fusion_lat": 0.0}, {"type": "electric_scooter", "rental_uris": {"ios": "https://dc.lft.to/lastmile_qr_scan", "android": "https://dc.lft.to/lastmile_qr_scan"}, "lon": -77.031627, "fusion_lon": 0.0, "is_disabled": 0, "lat": 38.892255, "bike_id": "e31b239cb8db0646c499772e6089c66b", "name": "e31b239cb8db0646c499772e6089c66b", "is_reserved": 0, "fusion_lat": 0.0}, {"type": "electric_scooter", "rental_uris": {"ios": "https://dc.lft.to/lastmile_qr_scan", "android": "https://dc.lft.to/lastmile_qr_scan"}, "lon": -76.993613, "fusion_lon": 0.0, "is_disabled": 0, "lat": 38.92840666666667, "bike_id": "12600d801df2754bd9d26faec0884ae6", "name": "12600d801df2754bd9d26faec0884ae6", "is_reserved": 0, "fusion_lat": 0.0}, {"type": "electric_scooter", "rental_uris": {"ios": "https://dc.lft.to/lastmile_qr_scan", "android": "https://dc.lft.to/lastmile_qr_scan"}, "lon": -77.03184633333333, "fusion_lon": 0.0, "is_disabled": 0, "lat": 38.921297333333335, "bike_id": "ad750ed0529f4add643f314238bcaef5", "name": "ad750ed0529f4add643f314238bcaef5", "is_reserved": 0, "fusion_lat": 0.0}, {"type": "electric_scooter", "rental_uris": {"ios": "https://dc.lft.to/lastmile_qr_scan", "android": "https://dc.lft.to/lastmile_qr_scan"}, "lon": -77.04271083333333, "fusion_lon": 0.0, "is_disabled": 0, "lat": 38.913448833333334, "bike_id": "99b42da72ce51a3a2f7bc7a675af22d4", "name": "99b42da72ce51a3a2f7bc7a675af22d4", "is_reserved": 0, "fusion_lat": 0.0}, {"type": "electric_scooter", "rental_uris": {"ios": "https://dc.lft.to/lastmile_qr_scan", "android": "https://dc.lft.to/lastmile_qr_scan"}, "lon": -77.04665466666667, "fusion_lon": 0.0, "is_disabled": 0, "lat": 38.9094355, "bike_id": "a867358751ae570463e2f8e79543364b", "name": "a867358751ae570463e2f8e79543364b", "is_reserved": 0, "fusion_lat": 0.0}, {"type": "electric_bike", "rental_uris": {"ios": "https://dc.lft.to/lastmile_qr_scan", "android": "https://dc.lft.to/lastmile_qr_scan"}, "lon": -76.98534833333333, "fusion_lon": 0.0, "is_disabled": 0, "lat": 38.880858333333336, "bike_id": "108679a95957ed6606bee649b8fe6243", "name": "108679a95957ed6606bee649b8fe6243", "is_reserved": 0, "fusion_lat": 0.0}, {"type": "electric_scooter", "rental_uris": {"ios": "https://dc.lft.to/lastmile_qr_scan", "android": "https://dc.lft.to/lastmile_qr_scan"}, "lon": -77.0550195, "fusion_lon": 0.0, "is_disabled": 0, "lat": 38.93663766666667, "bike_id": "ce94a8b3b3160f480368c0d33572850e", "name": "ce94a8b3b3160f480368c0d33572850e", "is_reserved": 0, "fusion_lat": 0.0}, {"type": "electric_bike", "rental_uris": {"ios": "https://dc.lft.to/lastmile_qr_scan", "android": "https://dc.lft.to/lastmile_qr_scan"}, "lon": -76.97183433333333, "fusion_lon": 0.0, "is_disabled": 0, "lat": 38.917911, "bike_id": "1f80e5f007e18292eb7da6bfdc20a78f", "name": "1f80e5f007e18292eb7da6bfdc20a78f", "is_reserved": 0, "fusion_lat": 0.0}, {"type": "electric_scooter", "rental_uris": {"ios": "https://dc.lft.to/lastmile_qr_scan", "android": "https://dc.lft.to/lastmile_qr_scan"}, "lon": -77.02624133333333, "fusion_lon": 0.0, "is_disabled": 0, "lat": 38.88745766666667, "bike_id": "a4e9cb33612819ff5679ad077a64594a", "name": "a4e9cb33612819ff5679ad077a64594a", "is_reserved": 0, "fusion_lat": 0.0}, {"type": "electric_scooter", "rental_uris": {"ios": "https://dc.lft.to/lastmile_qr_scan", "android": "https://dc.lft.to/lastmile_qr_scan"}, "lon": -77.0269125, "fusion_lon": 0.0, "is_disabled": 0, "lat": 38.90681266666667, "bike_id": "8ce5330d886f66eba88cf7b4f658ee67", "name": "8ce5330d886f66eba88cf7b4f658ee67", "is_reserved": 0, "fusion_lat": 0.0}, {"type": "electric_scooter", "rental_uris": {"ios": "https://dc.lft.to/lastmile_qr_scan", "android": "https://dc.lft.to/lastmile_qr_scan"}, "lon": -77.02490916666666, "fusion_lon": 0.0, "is_disabled": 0, "lat": 38.9418415, "bike_id": "940fb8ee6df547ffbaf815f912aca7dc", "name": "940fb8ee6df547ffbaf815f912aca7dc", "is_reserved": 0, "fusion_lat": 0.0}, {"type": "electric_scooter", "rental_uris": {"ios": "https://dc.lft.to/lastmile_qr_scan", "android": "https://dc.lft.to/lastmile_qr_scan"}, "lon": -76.98708366666666, "fusion_lon": 0.0, "is_disabled": 0, "lat": 38.86540266666667, "bike_id": "1dd58c9f08b077144de3bfee3fbb5e09", "name": "1dd58c9f08b077144de3bfee3fbb5e09", "is_reserved": 0, "fusion_lat": 0.0}, {"type": "electric_scooter", "rental_uris": {"ios": "https://dc.lft.to/lastmile_qr_scan", "android": "https://dc.lft.to/lastmile_qr_scan"}, "lon": -77.01133683333333, "fusion_lon": 0.0, "is_disabled": 0, "lat": 38.88525716666667, "bike_id": "5ef8ae762360575aceb7dfd66d9cade5", "name": "5ef8ae762360575aceb7dfd66d9cade5", "is_reserved": 0, "fusion_lat": 0.0}, {"type": "electric_scooter", "rental_uris": {"ios": "https://dc.lft.to/lastmile_qr_scan", "android": "https://dc.lft.to/lastmile_qr_scan"}, "lon": -77.0415835, "fusion_lon": 0.0, "is_disabled": 0, "lat": 38.916213666666664, "bike_id": "ffcea26c1d984c940640ce791c6e0782", "name": "ffcea26c1d984c940640ce791c6e0782", "is_reserved": 0, "fusion_lat": 0.0}, {"type": "electric_scooter", "rental_uris": {"ios": "https://dc.lft.to/lastmile_qr_scan", "android": "https://dc.lft.to/lastmile_qr_scan"}, "lon": -77.01770383333333, "fusion_lon": 0.0, "is_disabled": 0, "lat": 38.90561783333333, "bike_id": "6180c2c0ef3790c6724773e796c03425", "name": "6180c2c0ef3790c6724773e796c03425", "is_reserved": 0, "fusion_lat": 0.0}, {"type": "electric_scooter", "rental_uris": {"ios": "https://dc.lft.to/lastmile_qr_scan", "android": "https://dc.lft.to/lastmile_qr_scan"}, "lon": -77.02964366666667, "fusion_lon": 0.0, "is_disabled": 0, "lat": 38.93467833333333, "bike_id": "67b69cdcbd780bd74fbbf5501bb9a741", "name": "67b69cdcbd780bd74fbbf5501bb9a741", "is_reserved": 0, "fusion_lat": 0.0}, {"type": "electric_scooter", "rental_uris": {"ios": "https://dc.lft.to/lastmile_qr_scan", "android": "https://dc.lft.to/lastmile_qr_scan"}, "lon": -77.035114, "fusion_lon": 0.0, "is_disabled": 0, "lat": 38.921533833333335, "bike_id": "e40067cf6cf0e4dd9307534eb988073a", "name": "e40067cf6cf0e4dd9307534eb988073a", "is_reserved": 0, "fusion_lat": 0.0}, {"type": "electric_scooter", "rental_uris": {"ios": "https://dc.lft.to/lastmile_qr_scan", "android": "https://dc.lft.to/lastmile_qr_scan"}, "lon": -77.02411483333333, "fusion_lon": 0.0, "is_disabled": 0, "lat": 38.89196616666667, "bike_id": "5816b4b930ea4cf7d22ef1f27fa71cdc", "name": "5816b4b930ea4cf7d22ef1f27fa71cdc", "is_reserved": 0, "fusion_lat": 0.0}, {"type": "electric_bike", "rental_uris": {"ios": "https://dc.lft.to/lastmile_qr_scan", "android": "https://dc.lft.to/lastmile_qr_scan"}, "lon": -77.13144566666666, "fusion_lon": 0.0, "is_disabled": 0, "lat": 38.861701333333336, "bike_id": "132b5ed3c58f380b6aaf764d33407208", "name": "132b5ed3c58f380b6aaf764d33407208", "is_reserved": 0, "fusion_lat": 0.0}, {"type": "electric_bike", "rental_uris": {"ios": "https://dc.lft.to/lastmile_qr_scan", "android": "https://dc.lft.to/lastmile_qr_scan"}, "lon": -77.02778416666666, "fusion_lon": 0.0, "is_disabled": 0, "lat": 38.929333, "bike_id": "c808abebd35055f7fa9bcb36095b0cae", "name": "c808abebd35055f7fa9bcb36095b0cae", "is_reserved": 0, "fusion_lat": 0.0}, {"type": "electric_scooter", "rental_uris": {"ios": "https://dc.lft.to/lastmile_qr_scan", "android": "https://dc.lft.to/lastmile_qr_scan"}, "lon": -77.00073933333333, "fusion_lon": 0.0, "is_disabled": 0, "lat": 38.874010166666665, "bike_id": "709fe1e3d5578d687394336c76151d48", "name": "709fe1e3d5578d687394336c76151d48", "is_reserved": 0, "fusion_lat": 0.0}, {"type": "electric_bike", "rental_uris": {"ios": "https://dc.lft.to/lastmile_qr_scan", "android": "https://dc.lft.to/lastmile_qr_scan"}, "lon": -77.223488, "fusion_lon": 0.0, "is_disabled": 0, "lat": 38.9179545, "bike_id": "d9ed2ad8ae3dec998b51e9f30effa4ec", "name": "d9ed2ad8ae3dec998b51e9f30effa4ec", "is_reserved": 0, "fusion_lat": 0.0}, {"type": "electric_scooter", "rental_uris": {"ios": "https://dc.lft.to/lastmile_qr_scan", "android": "https://dc.lft.to/lastmile_qr_scan"}, "lon": -77.01115966666667, "fusion_lon": 0.0, "is_disabled": 0, "lat": 38.9203125, "bike_id": "c47a5f02e743264d3ce4aa05f4f6f56b", "name": "c47a5f02e743264d3ce4aa05f4f6f56b", "is_reserved": 0, "fusion_lat": 0.0}, {"type": "electric_scooter", "rental_uris": {"ios": "https://dc.lft.to/lastmile_qr_scan", "android": "https://dc.lft.to/lastmile_qr_scan"}, "lon": -77.05136283333333, "fusion_lon": 0.0, "is_disabled": 0, "lat": 38.900614, "bike_id": "22abd6aca74b2fb835002a12c31ce768", "name": "22abd6aca74b2fb835002a12c31ce768", "is_reserved": 0, "fusion_lat": 0.0}, {"type": "electric_scooter", "rental_uris": {"ios": "https://dc.lft.to/lastmile_qr_scan", "android": "https://dc.lft.to/lastmile_qr_scan"}, "lon": -77.026557, "fusion_lon": 0.0, "is_disabled": 0, "lat": 38.916987, "bike_id": "625b592a22d2b98f3deaabf2b3af4c78", "name": "625b592a22d2b98f3deaabf2b3af4c78", "is_reserved": 0, "fusion_lat": 0.0}, {"type": "electric_scooter", "rental_uris": {"ios": "https://dc.lft.to/lastmile_qr_scan", "android": "https://dc.lft.to/lastmile_qr_scan"}, "lon": -76.9361855, "fusion_lon": 0.0, "is_disabled": 0, "lat": 38.886714833333336, "bike_id": "6c6ef0ff976e516c739fae3647f0f76c", "name": "6c6ef0ff976e516c739fae3647f0f76c", "is_reserved": 0, "fusion_lat": 0.0}, {"type": "electric_scooter", "rental_uris": {"ios": "https://dc.lft.to/lastmile_qr_scan", "android": "https://dc.lft.to/lastmile_qr_scan"}, "lon": -77.033395, "fusion_lon": 0.0, "is_disabled": 0, "lat": 38.92876116666667, "bike_id": "2de4cd65d3509cbd66d3abcc52f8ce53", "name": "2de4cd65d3509cbd66d3abcc52f8ce53", "is_reserved": 0, "fusion_lat": 0.0}, {"type": "electric_scooter", "rental_uris": {"ios": "https://dc.lft.to/lastmile_qr_scan", "android": "https://dc.lft.to/lastmile_qr_scan"}, "lon": -77.02907116666667, "fusion_lon": 0.0, "is_disabled": 0, "lat": 38.90237616666667, "bike_id": "a08166d0b1ea15eee16bea6aa6772d25", "name": "a08166d0b1ea15eee16bea6aa6772d25", "is_reserved": 0, "fusion_lat": 0.0}, {"type": "electric_scooter", "rental_uris": {"ios": "https://dc.lft.to/lastmile_qr_scan", "android": "https://dc.lft.to/lastmile_qr_scan"}, "lon": -77.03244133333334, "fusion_lon": 0.0, "is_disabled": 0, "lat": 38.9280435, "bike_id": "a6001cd4e1cb3239309ef7e104fd9050", "name": "a6001cd4e1cb3239309ef7e104fd9050", "is_reserved": 0, "fusion_lat": 0.0}, {"type": "electric_scooter", "rental_uris": {"ios": "https://dc.lft.to/lastmile_qr_scan", "android": "https://dc.lft.to/lastmile_qr_scan"}, "lon": -77.03180166666667, "fusion_lon": 0.0, "is_disabled": 0, "lat": 38.92112083333333, "bike_id": "0dd157be4629d6c524003632fba9124f", "name": "0dd157be4629d6c524003632fba9124f", "is_reserved": 0, "fusion_lat": 0.0}, {"type": "electric_scooter", "rental_uris": {"ios": "https://dc.lft.to/lastmile_qr_scan", "android": "https://dc.lft.to/lastmile_qr_scan"}, "lon": -77.02984233333333, "fusion_lon": 0.0, "is_disabled": 0, "lat": 38.91690366666667, "bike_id": "622ef922b8906307b24fab8f68025fd8", "name": "622ef922b8906307b24fab8f68025fd8", "is_reserved": 0, "fusion_lat": 0.0}, {"type": "electric_bike", "rental_uris": {"ios": "https://dc.lft.to/lastmile_qr_scan", "android": "https://dc.lft.to/lastmile_qr_scan"}, "lon": -77.0952395, "fusion_lon": 0.0, "is_disabled": 0, "lat": 38.8381165, "bike_id": "6afb375b32291849283dcc07b92d36d4", "name": "6afb375b32291849283dcc07b92d36d4", "is_reserved": 0, "fusion_lat": 0.0}, {"type": "electric_scooter", "rental_uris": {"ios": "https://dc.lft.to/lastmile_qr_scan", "android": "https://dc.lft.to/lastmile_qr_scan"}, "lon": -77.01761533333334, "fusion_lon": 0.0, "is_disabled": 0, "lat": 38.902607, "bike_id": "912d4357c3a4def9122f02e2928e296e", "name": "912d4357c3a4def9122f02e2928e296e", "is_reserved": 0, "fusion_lat": 0.0}, {"type": "electric_scooter", "rental_uris": {"ios": "https://dc.lft.to/lastmile_qr_scan", "android": "https://dc.lft.to/lastmile_qr_scan"}, "lon": -77.03214666666666, "fusion_lon": 0.0, "is_disabled": 0, "lat": 38.892235666666664, "bike_id": "3ebc23aaa4ff21a6946e3e4eb73ac52a", "name": "3ebc23aaa4ff21a6946e3e4eb73ac52a", "is_reserved": 0, "fusion_lat": 0.0}, {"type": "electric_scooter", "rental_uris": {"ios": "https://dc.lft.to/lastmile_qr_scan", "android": "https://dc.lft.to/lastmile_qr_scan"}, "lon": -77.03143433333334, "fusion_lon": 0.0, "is_disabled": 0, "lat": 38.91692483333333, "bike_id": "a7aacbc4b7e1a695f7cab20e5c8b5d1b", "name": "a7aacbc4b7e1a695f7cab20e5c8b5d1b", "is_reserved": 0, "fusion_lat": 0.0}, {"type": "electric_scooter", "rental_uris": {"ios": "https://dc.lft.to/lastmile_qr_scan", "android": "https://dc.lft.to/lastmile_qr_scan"}, "lon": -77.04155916666667, "fusion_lon": 0.0, "is_disabled": 0, "lat": 38.91421966666667, "bike_id": "d574dacb90c8e7dab3999a2d952b781f", "name": "d574dacb90c8e7dab3999a2d952b781f", "is_reserved": 0, "fusion_lat": 0.0},