{"data": {"bikes": [{"name": "f01b945ab7bcf35065dff82307643b15", "type": "electric_scooter", "lat": 38.934931166666665, "is_reserved": 0, "lon": -77.03289133333334, "fusion_lon": 0.0, "is_disabled": 0, "fusion_lat": 0.0, "bike_id": "f01b945ab7bcf35065dff82307643b15", "rental_uris": {"ios": "https://dc.lft.to/lastmile_qr_scan", "android": "https://dc.lft.to/lastmile_qr_scan"}}, {"name": "9b3948850f8d92724db03c6c3df1cd3f", "type": "electric_scooter", "lat": 38.917326, "is_reserved": 0, "lon": -77.0684645, "fusion_lon": 0.0, "is_disabled": 0, "fusion_lat": 0.0, "bike_id": "9b3948850f8d92724db03c6c3df1cd3f", "rental_uris": {"ios": "https://dc.lft.to/lastmile_qr_scan", "android": "https://dc.lft.to/lastmile_qr_scan"}}, {"name": "c36d035a9dcacab5b89b3f8f70ecbe78", "type": "electric_scooter", "lat": 38.85621783333333, "is_reserved": 0, "lon": -76.98028283333333, "fusion_lon": 0.0, "is_disabled": 0, "fusion_lat": 0.0, "bike_id": "c36d035a9dcacab5b89b3f8f70ecbe78", "rental_uris": {"ios": "https://dc.lft.to/lastmile_qr_scan", "android": "https://dc.lft.to/lastmile_qr_scan"}}, {"name": "3bc9404b2c8a563b5dee20e3c058dabd", "type": "electric_scooter", "lat": 38.9056425, "is_reserved": 0, "lon": -77.00615283333333, "fusion_lon": 0.0, "is_disabled": 0, "fusion_lat": 0.0, "bike_id": "3bc9404b2c8a563b5dee20e3c058dabd", "rental_uris": {"ios": "https://dc.lft.to/lastmile_qr_scan", "android": "https://dc.lft.to/lastmile_qr_scan"}}, {"name": "aac199d21840077728921363032c3441", "type": "electric_scooter", "lat": 38.8958835, "is_reserved": 0, "lon": -76.93719133333333, "fusion_lon": 0.0, "is_disabled": 0, "fusion_lat": 0.0, "bike_id": "aac199d21840077728921363032c3441", "rental_uris": {"ios": "https://dc.lft.to/lastmile_qr_scan", "android": "https://dc.lft.to/lastmile_qr_scan"}}, {"name": "b1134571956d4e6c5f6a4ab14767f7ed", "type": "electric_scooter", "lat": 38.91272, "is_reserved": 0, "lon": -77.06088183333334, "fusion_lon": 0.0, "is_disabled": 0, "fusion_lat": 0.0, "bike_id": "b1134571956d4e6c5f6a4ab14767f7ed", "rental_uris": {"ios": "https://dc.lft.to/lastmile_qr_scan", "android": "https://dc.lft.to/lastmile_qr_scan"}}, {"name": "3e9a4709438ea768111daaf01be1cba4", "type": "electric_scooter", "lat": 38.843004666666666, "is_reserved": 0, "lon": -76.99954566666666, "fusion_lon": 0.0, "is_disabled": 0, "fusion_lat": 0.0, "bike_id": "3e9a4709438ea768111daaf01be1cba4", "rental_uris": {"ios": "https://dc.lft.to/lastmile_qr_scan", "android": "https://dc.lft.to/lastmile_qr_scan"}}, {"name": "800b8e185d06556a258520cfae8604d7", "type": "electric_scooter", "lat": 38.904479, "is_reserved": 0, "lon": -76.99623266666667, "fusion_lon": 0.0, "is_disabled": 0, "fusion_lat": 0.0, "bike_id": "800b8e185d06556a258520cfae8604d7", "rental_uris": {"ios": "https://dc.lft.to/lastmile_qr_scan", "android": "https://dc.lft.to/lastmile_qr_scan"}}, {"name": "018e09353e24ed3e0890274dbd08d266", "type": "electric_scooter", "lat": 38.91022383333333, "is_reserved": 0, "lon": -77.0091455, "fusion_lon": 0.0, "is_disabled": 0, "fusion_lat": 0.0, "bike_id": "018e09353e24ed3e0890274dbd08d266", "rental_uris": {"ios": "https://dc.lft.to/lastmile_qr_scan", "android": "https://dc.lft.to/lastmile_qr_scan"}}, {"name": "31dfc3344064808e5ad77afbea628800", "type": "electric_scooter", "lat": 38.91915383333333, "is_reserved": 0, "lon": -77.0134165, "fusion_lon": 0.0, "is_disabled": 0, "fusion_lat": 0.0, "bike_id": "31dfc3344064808e5ad77afbea628800", "rental_uris": {"ios": "https://dc.lft.to/lastmile_qr_scan", "android": "https://dc.lft.to/lastmile_qr_scan"}}, {"name": "993992fa6654e89404238e458357a240", "type": "electric_scooter", "lat": 38.87844066666667, "is_reserved": 0, "lon": -76.99043733333333, "fusion_lon": 0.0, "is_disabled": 0, "fusion_lat": 0.0, "bike_id": "993992fa6654e89404238e458357a240", "rental_uris": {"ios": "https://dc.lft.to/lastmile_qr_scan", "android": "https://dc.lft.to/lastmile_qr_scan"}}, {"name": "4d2484f5590a5e1c1b255d2a5ef877b2", "type": "electric_scooter", "lat": 38.90295233333333, "is_reserved": 0, "lon": -76.99856183333333, "fusion_lon": 0.0, "is_disabled": 0, "fusion_lat": 0.0, "bike_id": "4d2484f5590a5e1c1b255d2a5ef877b2", "rental_uris": {"ios": "https://dc.lft.to/lastmile_qr_scan", "android": "https://dc.lft.to/lastmile_qr_scan"}}, {"name": "56947835e1e046ac26b4683aaf167b7d", "type": "electric_bike", "lat": 38.99234716666667, "is_reserved": 0, "lon": -76.87827483333334, "fusion_lon": 0.0, "is_disabled": 0, "fusion_lat": 0.0, "bike_id": "56947835e1e046ac26b4683aaf167b7d", "rental_uris": {"ios": "https://dc.lft.to/lastmile_qr_scan", "android": "https://dc.lft.to/lastmile_qr_scan"}}, {"name": "f9c7322e3be1a23d48e4ed4f2c3802ac", "type": "electric_scooter", "lat": 38.84295, "is_reserved": 0, "lon": -76.99952966666666, "fusion_lon": 0.0, "is_disabled": 0, "fusion_lat": 0.0, "bike_id": "f9c7322e3be1a23d48e4ed4f2c3802ac", "rental_uris": {"ios": "https://dc.lft.to/lastmile_qr_scan", "android": "https://dc.lft.to/lastmile_qr_scan"}}, {"name": "f92f154fec44eda1094ed4cf1fa95138", "type": "electric_scooter", "lat": 38.900377, "is_reserved": 0, "lon": -77.02596016666666, "fusion_lon": 0.0, "is_disabled": 0, "fusion_lat": 0.0, "bike_id": "f92f154fec44eda1094ed4cf1fa95138", "rental_uris": {"ios": "https://dc.lft.to/lastmile_qr_scan", "android": "https://dc.lft.to/lastmile_qr_scan"}}, {"name": "107822c4c60e8ae9ded04cf316f06217", "type": "electric_scooter", "lat": 38.90127733333333, "is_reserved": 0, "lon": -77.0119695, "fusion_lon": 0.0, "is_disabled": 0, "fusion_lat": 0.0, "bike_id": "107822c4c60e8ae9ded04cf316f06217", "rental_uris": {"ios": "https://dc.lft.to/lastmile_qr_scan", "android": "https://dc.lft.to/lastmile_qr_scan"}}, {"name": "baed452e0ddf4a335f7da59fc1bc84db", "type": "electric_scooter", "lat": 38.90277116666667, "is_reserved": 0, "lon": -77.06100966666666, "fusion_lon": 0.0, "is_disabled": 0, "fusion_lat": 0.0, "bike_id": "baed452e0ddf4a335f7da59fc1bc84db", "rental_uris": {"ios": "https://dc.lft.to/lastmile_qr_scan", "android": "https://dc.lft.to/lastmile_qr_scan"}}, {"name": "f9c0a35678dcf47d5db1b9f548d6e82b", "type": "electric_scooter", "lat": 38.911219333333335, "is_reserved": 0, "lon": -77.03733016666666, "fusion_lon": 0.0, "is_disabled": 0, "fusion_lat": 0.0, "bike_id": "f9c0a35678dcf47d5db1b9f548d6e82b", "rental_uris": {"ios": "https://dc.lft.to/lastmile_qr_scan", "android": "https://dc.lft.to/lastmile_qr_scan"}}, {"name": "b6130f6f46f8992a65f087eafcefef5b", "type": "electric_bike", "lat": 38.922178833333334, "is_reserved": 0, "lon": -76.988312, "fusion_lon": 0.0, "is_disabled": 0, "fusion_lat": 0.0, "bike_id": "b6130f6f46f8992a65f087eafcefef5b", "rental_uris": {"ios": "https://dc.lft.to/lastmile_qr_scan", "android": "https://dc.lft.to/lastmile_qr_scan"}}, {"name": "25d58bb796f00bf6b6823bf41e159429", "type": "electric_bike", "lat": 38.96901316666667, "is_reserved": 0, "lon": -76.9565785, "fusion_lon": 0.0, "is_disabled": 0, "fusion_lat": 0.0, "bike_id": "25d58bb796f00bf6b6823bf41e159429", "rental_uris": {"ios": "https://dc.lft.to/lastmile_qr_scan", "android": "https://dc.lft.to/lastmile_qr_scan"}}, {"name": "af30bf541130b7b46a620a3554f63382", "type": "electric_scooter", "lat": 38.905563666666666, "is_reserved": 0, "lon": -77.00597666666667, "fusion_lon": 0.0, "is_disabled": 0, "fusion_lat": 0.0, "bike_id": "af30bf541130b7b46a620a3554f63382", "rental_uris": {"ios": "https://dc.lft.to/lastmile_qr_scan", "android": "https://dc.lft.to/lastmile_qr_scan"}}, {"name": "4ad4c63c699ceb5c7f8ce96844f470df", "type": "electric_scooter", "lat": 38.92055583333333, "is_reserved": 0, "lon": -77.029692, "fusion_lon": 0.0, "is_disabled": 0, "fusion_lat": 0.0, "bike_id": "4ad4c63c699ceb5c7f8ce96844f470df", "rental_uris": {"ios": "https://dc.lft.to/lastmile_qr_scan", "android": "https://dc.lft.to/lastmile_qr_scan"}}, {"name": "3edab3e364a32ae841ba4fef83646962", "type": "electric_scooter", "lat": 38.909717666666666, "is_reserved": 0, "lon": -77.01715916666667, "fusion_lon": 0.0, "is_disabled": 0, "fusion_lat": 0.0, "bike_id": "3edab3e364a32ae841ba4fef83646962", "rental_uris": {"ios": "https://dc.lft.to/lastmile_qr_scan", "android": "https://dc.lft.to/lastmile_qr_scan"}}, {"name": "0e3d828f739ee9019f27cfe6de328a82", "type": "electric_scooter", "lat": 38.9058855, "is_reserved": 0, "lon": -77.0652325, "fusion_lon": 0.0, "is_disabled": 0, "fusion_lat": 0.0, "bike_id": "0e3d828f739ee9019f27cfe6de328a82", "rental_uris": {"ios": "https://dc.lft.to/lastmile_qr_scan", "android": "https://dc.lft.to/lastmile_qr_scan"}}, {"name": "20b9feed6416dca8516217b2d27c156a", "type": "electric_bike", "lat": 38.95543683333333, "is_reserved": 0, "lon": -77.02302933333333, "fusion_lon": 0.0, "is_disabled": 0, "fusion_lat": 0.0, "bike_id": "20b9feed6416dca8516217b2d27c156a", "rental_uris": {"ios": "https://dc.lft.to/lastmile_qr_scan", "android": "https://dc.lft.to/lastmile_qr_scan"}}, {"name": "b4ddada1cc1b879a8ecba5656735b554", "type": "electric_scooter", "lat": 38.92634016666667, "is_reserved": 0, "lon": -77.03515066666667, "fusion_lon": 0.0, "is_disabled": 0, "fusion_lat": 0.0, "bike_id": "b4ddada1cc1b879a8ecba5656735b554", "rental_uris": {"ios": "https://dc.lft.to/lastmile_qr_scan", "android": "https://dc.lft.to/lastmile_qr_scan"}}, {"name": "695ec01d444fcdb8d0ae8a00cd8168d1", "type": "electric_scooter", "lat": 38.919780833333334, "is_reserved": 0, "lon": -77.00112666666666, "fusion_lon": 0.0, "is_disabled": 0, "fusion_lat": 0.0, "bike_id": "695ec01d444fcdb8d0ae8a00cd8168d1", "rental_uris": {"ios": "https://dc.lft.to/lastmile_qr_scan", "android": "https://dc.lft.to/lastmile_qr_scan"}}, {"name": "1712e0a07a5d923de6d36cdc73aee196", "type": "electric_bike", "lat": 38.88842533333333, "is_reserved": 0, "lon": -76.99363283333334, "fusion_lon": 0.0, "is_disabled": 0, "fusion_lat": 0.0, "bike_id": "1712e0a07a5d923de6d36cdc73aee196", "rental_uris": {"ios": "https://dc.lft.to/lastmile_qr_scan", "android": "https://dc.lft.to/lastmile_qr_scan"}}, {"name": "e5743d6e7dc9229bf0908f2136373819", "type": "electric_scooter", "lat": 38.92345383333333, "is_reserved": 0, "lon": -77.01894966666667, "fusion_lon": 0.0, "is_disabled": 0, "fusion_lat": 0.0, "bike_id": "e5743d6e7dc9229bf0908f2136373819", "rental_uris": {"ios": "https://dc.lft.to/lastmile_qr_scan", "android": "https://dc.lft.to/lastmile_qr_scan"}}, {"name": "ee77e6c34add39fb1e8e4d0a255d4162", "type": "electric_scooter", "lat": 38.90514116666667, "is_reserved": 0, "lon": -77.06388, "fusion_lon": 0.0, "is_disabled": 0, "fusion_lat": 0.0, "bike_id": "ee77e6c34add39fb1e8e4d0a255d4162", "rental_uris": {"ios": "https://dc.lft.to/lastmile_qr_scan", "android": "https://dc.lft.to/lastmile_qr_scan"}}, {"name": "4d9ff276983692be3ff2e29bc5761fb0", "type": "electric_scooter", "lat": 38.92070416666667, "is_reserved": 0, "lon": -76.97802983333334, "fusion_lon": 0.0, "is_disabled": 0, "fusion_lat": 0.0, "bike_id": "4d9ff276983692be3ff2e29bc5761fb0", "rental_uris": {"ios": "https://dc.lft.to/lastmile_qr_scan", "android": "https://dc.lft.to/lastmile_qr_scan"}}, {"name": "b9ee6edcfda59233faba7fbdfff05501", "type": "electric_scooter", "lat": 38.90592433333333, "is_reserved": 0, "lon": -77.06521966666666, "fusion_lon": 0.0, "is_disabled": 0, "fusion_lat": 0.0, "bike_id": "b9ee6edcfda59233faba7fbdfff05501", "rental_uris": {"ios": "https://dc.lft.to/lastmile_qr_scan", "android": "https://dc.lft.to/lastmile_qr_scan"}}, {"name": "c702dd7bbd92d18c3d141d8833fe6cea", "type": "electric_scooter", "lat": 38.909713333333336, "is_reserved": 0, "lon": -77.01124, "fusion_lon": 0.0, "is_disabled": 0, "fusion_lat": 0.0, "bike_id": "c702dd7bbd92d18c3d141d8833fe6cea", "rental_uris": {"ios": "https://dc.lft.to/lastmile_qr_scan", "android": "https://dc.lft.to/lastmile_qr_scan"}}, {"name": "14d46244e728ece7579ba996367dd535", "type": "electric_scooter", "lat": 38.898138, "is_reserved": 0, "lon": -77.0338855, "fusion_lon": 0.0, "is_disabled": 0, "fusion_lat": 0.0, "bike_id": "14d46244e728ece7579ba996367dd535", "rental_uris": {"ios": "https://dc.lft.to/lastmile_qr_scan", "android": "https://dc.lft.to/lastmile_qr_scan"}}, {"name": "50e59ab92200c9b238a687a1f051d93a", "type": "electric_scooter", "lat": 38.90670983333333, "is_reserved": 0, "lon": -77.02694016666666, "fusion_lon": 0.0, "is_disabled": 0, "fusion_lat": 0.0, "bike_id": "50e59ab92200c9b238a687a1f051d93a", "rental_uris": {"ios": "https://dc.lft.to/lastmile_qr_scan", "android": "https://dc.lft.to/lastmile_qr_scan"}}, {"name": "a1982523cb7c7f32ba95ad46fbf91414", "type": "electric_scooter", "lat": 38.91245466666667, "is_reserved": 0, "lon": -77.04877933333333, "fusion_lon": 0.0, "is_disabled": 0, "fusion_lat": 0.0, "bike_id": "a1982523cb7c7f32ba95ad46fbf91414", "rental_uris": {"ios": "https://dc.lft.to/lastmile_qr_scan", "android": "https://dc.lft.to/lastmile_qr_scan"}}, {"name": "ae524fbfed54c1e80dfa481f7ceaec06", "type": "electric_scooter", "lat": 38.909733833333334, "is_reserved": 0, "lon": -77.01120916666666, "fusion_lon": 0.0, "is_disabled": 0, "fusion_lat": 0.0, "bike_id": "ae524fbfed54c1e80dfa481f7ceaec06", "rental_uris": {"ios": "https://dc.lft.to/lastmile_qr_scan", "android": "https://dc.lft.to/lastmile_qr_scan"}}, {"name": "5d9ef9c9df486078f201254737d1f420", "type": "electric_scooter", "lat": 38.924384333333336, "is_reserved": 0, "lon": -77.04251783333333, "fusion_lon": 0.0, "is_disabled": 0, "fusion_lat": 0.0, "bike_id": "5d9ef9c9df486078f201254737d1f420", "rental_uris": {"ios": "https://dc.lft.to/lastmile_qr_scan", "android": "https://dc.lft.to/lastmile_qr_scan"}}, {"name": "c146ef232b4e98c572310391e334e8fe", "type": "electric_bike", "lat": 38.9533945, "is_reserved": 0, "lon": -76.982591, "fusion_lon": 0.0, "is_disabled": 0, "fusion_lat": 0.0, "bike_id": "c146ef232b4e98c572310391e334e8fe", "rental_uris": {"ios": "https://dc.lft.to/lastmile_qr_scan", "android": "https://dc.lft.to/lastmile_qr_scan"}}, {"name": "bd3533f28260a4f7db2a88459912b1f6", "type": "electric_bike", "lat": 38.87756066666667, "is_reserved": 0, "lon": -76.97990216666666, "fusion_lon": 0.0, "is_disabled": 0, "fusion_lat": 0.0, "bike_id": "bd3533f28260a4f7db2a88459912b1f6", "rental_uris": {"ios": "https://dc.lft.to/lastmile_qr_scan", "android": "https://dc.lft.to/lastmile_qr_scan"}}, {"name": "7984c4832f2b14511a04ee62857ce269", "type": "electric_scooter", "lat": 38.8986905, "is_reserved": 0, "lon": -76.94639, "fusion_lon": 0.0, "is_disabled": 0, "fusion_lat": 0.0, "bike_id": "7984c4832f2b14511a04ee62857ce269", "rental_uris": {"ios": "https://dc.lft.to/lastmile_qr_scan", "android": "https://dc.lft.to/lastmile_qr_scan"}}, {"name": "bf6494839b25d4f46cd2325111beda97", "type": "electric_bike", "lat": 38.959323, "is_reserved": 0, "lon": -76.92538616666667, "fusion_lon": 0.0, "is_disabled": 0, "fusion_lat": 0.0, "bike_id": "bf6494839b25d4f46cd2325111beda97", "rental_uris": {"ios": "https://dc.lft.to/lastmile_qr_scan", "android": "https://dc.lft.to/lastmile_qr_scan"}}, {"name": "cf3354386eeaf8d2a93f957d4890677b", "type": "electric_scooter", "lat": 38.86961933333333, "is_reserved": 0, "lon": -77.01376816666667, "fusion_lon": 0.0, "is_disabled": 0, "fusion_lat": 0.0, "bike_id": "cf3354386eeaf8d2a93f957d4890677b", "rental_uris": {"ios": "https://dc.lft.to/lastmile_qr_scan", "android": "https://dc.lft.to/lastmile_qr_scan"}}, {"name": "0a23c617affe8fe28dc2ae2e9f4d75db", "type": "electric_scooter", "lat": 38.902827, "is_reserved": 0, "lon": -77.03831583333333, "fusion_lon": 0.0, "is_disabled": 0, "fusion_lat": 0.0, "bike_id": "0a23c617affe8fe28dc2ae2e9f4d75db", "rental_uris": {"ios": "https://dc.lft.to/lastmile_qr_scan", "android": "https://dc.lft.to/lastmile_qr_scan"}}, {"name": "24d07281180c62e0b9c2c58bb1d06dad", "type": "electric_scooter", "lat": 38.97501783333333, "is_reserved": 0, "lon": -77.016901, "fusion_lon": 0.0, "is_disabled": 0, "fusion_lat": 0.0, "bike_id": "24d07281180c62e0b9c2c58bb1d06dad", "rental_uris": {"ios": "https://dc.lft.to/lastmile_qr_scan", "android": "https://dc.lft.to/lastmile_qr_scan"}}, {"name": "e3a70f5763c3bb190664fe0281c24d60", "type": "electric_bike", "lat": 38.939586166666665, "is_reserved": 0, "lon": -77.360941, "fusion_lon": 0.0, "is_disabled": 0, "fusion_lat": 0.0, "bike_id": "e3a70f5763c3bb190664fe0281c24d60", "rental_uris": {"ios": "https://dc.lft.to/lastmile_qr_scan", "android": "https://dc.lft.to/lastmile_qr_scan"}}, {"name": "1f87b1b10d1b6ae3337f140fdf41e459", "type": "electric_scooter", "lat": 38.91115883333333, "is_reserved": 0, "lon": -77.03629016666666, "fusion_lon": 0.0, "is_disabled": 0, "fusion_lat": 0.0, "bike_id": "1f87b1b10d1b6ae3337f140fdf41e459", "rental_uris": {"ios": "https://dc.lft.to/lastmile_qr_scan", "android": "https://dc.lft.to/lastmile_qr_scan"}}, {"name": "5f61f99912a323b713ef0ca81d9449a7", "type": "electric_scooter", "lat": 38.91549766666667, "is_reserved": 0, "lon": -77.03853566666666, "fusion_lon": 0.0, "is_disabled": 0, "fusion_lat": 0.0, "bike_id": "5f61f99912a323b713ef0ca81d9449a7", "rental_uris": {"ios": "https://dc.lft.to/lastmile_qr_scan", "android": "https://dc.lft.to/lastmile_qr_scan"}}, {"name": "125c9e3c8bdeb50d670c96a3c71396ec", "type": "electric_scooter", "lat": 38.902805, "is_reserved": 0, "lon": -77.059126, "fusion_lon": 0.0, "is_disabled": 0, "fusion_lat": 0.0, "bike_id": "125c9e3c8bdeb50d670c96a3c71396ec", "rental_uris": {"ios": "https://dc.lft.to/lastmile_qr_scan", "android": "https://dc.lft.to/lastmile_qr_scan"}}, {"name": "191f9836192ac2e9d97db023413d47e5", "type": "electric_scooter", "lat": 38.91652633333333, "is_reserved": 0, "lon": -77.03211266666666, "fusion_lon": 0.0, "is_disabled": 0, "fusion_lat": 0.0, "bike_id": "191f9836192ac2e9d97db023413d47e5", "rental_uris": {"ios": "https://dc.lft.to/lastmile_qr_scan", "android": "https://dc.lft.to/lastmile_qr_scan"}}, {"name": "b42c33e51178aca295880ca6dad40be9", "type": "electric_scooter", "lat": 38.90042966666667, "is_reserved": 0, "lon": -77.0168405, "fusion_lon": 0.0, "is_disabled": 0, "fusion_lat": 0.0, "bike_id": "b42c33e51178aca295880ca6dad40be9", "rental_uris": {"ios": "https://dc.lft.to/lastmile_qr_scan", "android": "https://dc.lft.to/lastmile_qr_scan"}}, {"name": "83503c47161193248d1c8eb9219f390e", "type": "electric_scooter", "lat": 38.9088105, "is_reserved": 0, "lon": -77.04458783333334, "fusion_lon": 0.0, "is_disabled": 0, "fusion_lat": 0.0, "bike_id": "83503c47161193248d1c8eb9219f390e", "rental_uris": {"ios": "https://dc.lft.to/lastmile_qr_scan", "android": "https://dc.lft.to/lastmile_qr_scan"}}, {"name": "d3c18ecda3437594c386076e86111d1b", "type": "electric_scooter", "lat": 38.896097166666664, "is_reserved": 0, "lon": -77.02875633333333, "fusion_lon": 0.0, "is_disabled": 0, "fusion_lat": 0.0, "bike_id": "d3c18ecda3437594c386076e86111d1b", "rental_uris": {"ios": "https://dc.lft.to/lastmile_qr_scan", "android": "https://dc.lft.to/lastmile_qr_scan"}}, {"name": "e4d33dce20784a67305c526b3f2208c9", "type": "electric_bike", "lat": 38.86372566666667, "is_reserved": 0, "lon": -76.97012383333333, "fusion_lon": 0.0, "is_disabled": 0, "fusion_lat": 0.0, "bike_id": "e4d33dce20784a67305c526b3f2208c9", "rental_uris": {"ios": "https://dc.lft.to/lastmile_qr_scan", "android": "https://dc.lft.to/lastmile_qr_scan"}}, {"name": "fe893eb08adb562b2cc5875c0ec25860", "type": "electric_scooter", "lat": 38.93252666666667, "is_reserved": 0, "lon": -77.0328005, "fusion_lon": 0.0, "is_disabled": 0, "fusion_lat": 0.0, "bike_id": "fe893eb08adb562b2cc5875c0ec25860", "rental_uris": {"ios": "https://dc.lft.to/lastmile_qr_scan", "android": "https://dc.lft.to/lastmile_qr_scan"}}, {"name": "53f7ab5441ea3b97fc823e5f3f4f5295", "type": "electric_scooter", "lat": 38.9123935, "is_reserved": 0, "lon": -77.00106583333333, "fusion_lon": 0.0, "is_disabled": 0, "fusion_lat": 0.0, "bike_id": "53f7ab5441ea3b97fc823e5f3f4f5295", "rental_uris": {"ios": "https://dc.lft.to/lastmile_qr_scan", "android": "https://dc.lft.to/lastmile_qr_scan"}}, {"name": "5ec0fb8019d06988d58ddbda9d996c16", "type": "electric_scooter", "lat": 38.906441, "is_reserved": 0, "lon": -77.011432, "fusion_lon": 0.0, "is_disabled": 0, "fusion_lat": 0.0, "bike_id": "5ec0fb8019d06988d58ddbda9d996c16", "rental_uris": {"ios": "https://dc.lft.to/lastmile_qr_scan", "android": "https://dc.lft.to/lastmile_qr_scan"}}, {"name": "f2fa7a11a996fbf0dbb03af8ed8880f4", "type": "electric_scooter", "lat": 38.90256766666667, "is_reserved": 0, "lon": -77.031918, "fusion_lon": 0.0, "is_disabled": 0, "fusion_lat": 0.0, "bike_id": "f2fa7a11a996fbf0dbb03af8ed8880f4", "rental_uris": {"ios": "https://dc.lft.to/lastmile_qr_scan", "android": "https://dc.lft.to/lastmile_qr_scan"}}, {"name": "0747bcc882f5a847100bbdea1758e664", "type": "electric_bike", "lat": 38.86914133333333, "is_reserved": 0, "lon": -77.1318815, "fusion_lon": 0.0, "is_disabled": 0, "fusion_lat": 0.0, "bike_id": "0747bcc882f5a847100bbdea1758e664", "rental_uris": {"ios": "https://dc.lft.to/lastmile_qr_scan", "android": "https://dc.lft.to/lastmile_qr_scan"}}, {"name": "7614adc85c0236c678b87d3dee34a4f5", "type": "electric_scooter", "lat": 38.8922565, "is_reserved": 0, "lon": -77.04265316666667, "fusion_lon": 0.0, "is_disabled": 0, "fusion_lat": 0.0, "bike_id": "7614adc85c0236c678b87d3dee34a4f5", "rental_uris": {"ios": "https://dc.lft.to/lastmile_qr_scan", "android": "https://dc.lft.to/lastmile_qr_scan"}}, {"name": "a8754926b2e17e9b5c6c5ef6d7bc5edb", "type": "electric_scooter", "lat": 38.90686133333333, "is_reserved": 0, "lon": -77.01349866666666, "fusion_lon": 0.0, "is_disabled": 0, "fusion_lat": 0.0, "bike_id": "a8754926b2e17e9b5c6c5ef6d7bc5edb", "rental_uris": {"ios": "https://dc.lft.to/lastmile_qr_scan", "android": "https://dc.lft.to/lastmile_qr_scan"}}, {"name": "44185bbab69d134b5ab735c706f0e816", "type": "electric_scooter", "lat": 38.90658583333333, "is_reserved": 0, "lon": -77.03843316666666, "fusion_lon": 0.0, "is_disabled": 0, "fusion_lat": 0.0, "bike_id": "44185bbab69d134b5ab735c706f0e816", "rental_uris": {"ios": "https://dc.lft.to/lastmile_qr_scan", "android": "https://dc.lft.to/lastmile_qr_scan"}}, {"name": "2f9144cd6769cb81b10dd1d5f56f66cf", "type": "electric_scooter", "lat": 38.922473833333335, "is_reserved": 0, "lon": -77.010116, "fusion_lon": 0.0, "is_disabled": 0, "fusion_lat": 0.0, "bike_id": "2f9144cd6769cb81b10dd1d5f56f66cf", "rental_uris": {"ios": "https://dc.lft.to/lastmile_qr_scan", "android": "https://dc.lft.to/lastmile_qr_scan"}}, {"name": "2a1d7d8e820ebf4ce0da9f60bafe5aff", "type": "electric_scooter", "lat": 38.92727466666667, "is_reserved": 0, "lon": -77.03082283333333, "fusion_lon": 0.0, "is_disabled": 0, "fusion_lat": 0.0, "bike_id": "2a1d7d8e820ebf4ce0da9f60bafe5aff", "rental_uris": {"ios": "https://dc.lft.to/lastmile_qr_scan", "android": "https://dc.lft.to/lastmile_qr_scan"}}, {"name": "217a87507bee309124ab344df479cc3a", "type": "electric_scooter", "lat": 38.90642883333334, "is_reserved": 0, "lon": -76.9857405, "fusion_lon": 0.0, "is_disabled": 0, "fusion_lat": 0.0, "bike_id": "217a87507bee309124ab344df479cc3a", "rental_uris": {"ios": "https://dc.lft.to/lastmile_qr_scan", "android": "https://dc.lft.to/lastmile_qr_scan"}}, {"name": "7adf11e2f210f65bab05bd4c77738ee2", "type": "electric_scooter", "lat": 38.92184733333333, "is_reserved": 0, "lon": -77.04027383333333, "fusion_lon": 0.0, "is_disabled": 0, "fusion_lat": 0.0, "bike_id": "7adf11e2f210f65bab05bd4c77738ee2", "rental_uris": {"ios": "https://dc.lft.to/lastmile_qr_scan", "android": "https://dc.lft.to/lastmile_qr_scan"}}, {"name": "81b7c1ff8b88d6bf94e5dd0e17c51b62", "type": "electric_scooter", "lat": 38.9325345, "is_reserved": 0, "lon": -77.03272933333334, "fusion_lon": 0.0, "is_disabled": 0, "fusion_lat": 0.0, "bike_id": "81b7c1ff8b88d6bf94e5dd0e17c51b62", "rental_uris": {"ios": "https://dc.lft.to/lastmile_qr_scan", "android": "https://dc.lft.to/lastmile_qr_scan"}}, {"name": "6d63067bfade0019e25152a7655ebe76", "type": "electric_scooter", "lat": 38.909083833333334, "is_reserved": 0, "lon": -76.9991415, "fusion_lon": 0.0, "is_disabled": 0, "fusion_lat": 0.0, "bike_id": "6d63067bfade0019e25152a7655ebe76", "rental_uris": {"ios": "https://dc.lft.to/lastmile_qr_scan", "android": "https://dc.lft.to/lastmile_qr_scan"}}, {"name": "308a61ababed8b282c0b81fcc0d5eabb", "type": "electric_scooter", "lat": 38.918279166666665, "is_reserved": 0, "lon": -77.03452083333333, "fusion_lon": 0.0, "is_disabled": 0, "fusion_lat": 0.0, "bike_id": "308a61ababed8b282c0b81fcc0d5eabb", "rental_uris": {"ios": "https://dc.lft.to/lastmile_qr_scan", "android": "https://dc.lft.to/lastmile_qr_scan"}}, {"name": "f3dad287661f2f05f430c2beab6fde81", "type": "electric_bike", "lat": 38.90369166666667, "is_reserved": 0, "lon": -76.98326833333333, "fusion_lon": 0.0, "is_disabled": 0, "fusion_lat": 0.0, "bike_id": "f3dad287661f2f05f430c2beab6fde81", "rental_uris": {"ios": "https://dc.lft.to/lastmile_qr_scan", "android": "https://dc.lft.to/lastmile_qr_scan"}}, {"name": "3d11f275e54183cd7465a99a17eccae8", "type": "electric_scooter", "lat": 38.900379, "is_reserved": 0, "lon": -76.98842216666667, "fusion_lon": 0.0, "is_disabled": 0, "fusion_lat": 0.0, "bike_id": "3d11f275e54183cd7465a99a17eccae8", "rental_uris": {"ios": "https://dc.lft.to/lastmile_qr_scan", "android": "https://dc.lft.to/lastmile_qr_scan"}}, {"name": "01c61887eed82959beca4060a7fe41b3", "type": "electric_scooter", "lat": 38.905254, "is_reserved": 0, "lon": -77.06585166666666, "fusion_lon": 0.0, "is_disabled": 0, "fusion_lat": 0.0, "bike_id": "01c61887eed82959beca4060a7fe41b3", "rental_uris": {"ios": "https://dc.lft.to/lastmile_qr_scan", "android": "https://dc.lft.to/lastmile_qr_scan"}}, {"name": "9b8eb65bb505b7af9b66684e47ca3ef1", "type": "electric_scooter", "lat": 38.8636025, "is_reserved": 0, "lon": -76.99073933333334, "fusion_lon": 0.0, "is_disabled": 0, "fusion_lat": 0.0, "bike_id": "9b8eb65bb505b7af9b66684e47ca3ef1", "rental_uris": {"ios": "https://dc.lft.to/lastmile_qr_scan", "android": "https://dc.lft.to/lastmile_qr_scan"}}, {"name": "480db5edd9213d52930c3fda449dde1c", "type": "electric_scooter", "lat": 38.90175266666667, "is_reserved": 0, "lon": -77.00014966666667, "fusion_lon": 0.0, "is_disabled": 0, "fusion_lat": 0.0, "bike_id": "480db5edd9213d52930c3fda449dde1c", "rental_uris": {"ios": "https://dc.lft.to/lastmile_qr_scan", "android": "https://dc.lft.to/lastmile_qr_scan"}}, {"name": "4caf335fb11ffa2357da2acf279aa1d8", "type": "electric_scooter", "lat": 38.90864633333333, "is_reserved": 0, "lon": -76.9861895, "fusion_lon": 0.0, "is_disabled": 0, "fusion_lat": 0.0, "bike_id": "4caf335fb11ffa2357da2acf279aa1d8", "rental_uris": {"ios": "https://dc.lft.to/lastmile_qr_scan", "android": "https://dc.lft.to/lastmile_qr_scan"}}, {"name": "68fbcac4ea7862171426b5fa3694ab37", "type": "electric_scooter", "lat": 38.9037055, "is_reserved": 0, "lon": -77.04467133333333, "fusion_lon": 0.0, "is_disabled": 0, "fusion_lat": 0.0, "bike_id": "68fbcac4ea7862171426b5fa3694ab37", "rental_uris": {"ios": "https://dc.lft.to/lastmile_qr_scan", "android": "https://dc.lft.to/lastmile_qr_scan"}}, {"name": "4ea25b5764aede5adeb512c2f89c2498", "type": "electric_scooter", "lat": 38.941208833333334, "is_reserved": 0, "lon": -77.026631, "fusion_lon": 0.0, "is_disabled": 0, "fusion_lat": 0.0, "bike_id": "4ea25b5764aede5adeb512c2f89c2498", "rental_uris": {"ios": "https://dc.lft.to/lastmile_qr_scan", "android": "https://dc.lft.to/lastmile_qr_scan"}}, {"name": "4fb9ba7e749faa5cad3f101573b5a57a", "type": "electric_scooter", "lat": 38.8849075, "is_reserved": 0, "lon": -77.02857183333333, "fusion_lon": 0.0, "is_disabled": 0, "fusion_lat": 0.0, "bike_id": "4fb9ba7e749faa5cad3f101573b5a57a", "rental_uris": {"ios": "https://dc.lft.to/lastmile_qr_scan", "android": "https://dc.lft.to/lastmile_qr_scan"}}, {"name": "d845f2fa6403534f3eb517187471a90e", "type": "electric_scooter", "lat": 38.915515166666665, "is_reserved": 0, "lon": -77.03854966666667, "fusion_lon": 0.0, "is_disabled": 0, "fusion_lat": 0.0, "bike_id": "d845f2fa6403534f3eb517187471a90e", "rental_uris": {"ios": "https://dc.lft.to/lastmile_qr_scan", "android": "https://dc.lft.to/lastmile_qr_scan"}}, {"name": "d18c1c00297e97bf2dcba5b6ff7ca501", "type": "electric_scooter", "lat": 38.91824483333333, "is_reserved": 0, "lon": -77.0303575, "fusion_lon": 0.0, "is_disabled": 0, "fusion_lat": 0.0, "bike_id": "d18c1c00297e97bf2dcba5b6ff7ca501", "rental_uris": {"ios": "https://dc.lft.to/lastmile_qr_scan", "android": "https://dc.lft.to/lastmile_qr_scan"}}, {"name": "297e77c5902d2bd79962d141ee6d8b47", "type": "electric_bike", "lat": 39.030522, "is_reserved": 0, "lon": -77.09481466666666, "fusion_lon": 0.0, "is_disabled": 0, "fusion_lat": 0.0, "bike_id": "297e77c5902d2bd79962d141ee6d8b47", "rental_uris": {"ios": "https://dc.lft.to/lastmile_qr_scan", "android": "https://dc.lft.to/lastmile_qr_scan"}}, {"name": "8b803a513f86d97aaa08fffe3c747d9d", "type": "electric_scooter", "lat": 38.93115016666667, "is_reserved": 0, "lon": -77.03838866666666, "fusion_lon": 0.0, "is_disabled": 0, "fusion_lat": 0.0, "bike_id": "8b803a513f86d97aaa08fffe3c747d9d", "rental_uris": {"ios": "https://dc.lft.to/lastmile_qr_scan", "android": "https://dc.lft.to/lastmile_qr_scan"}}, {"name": "85067b9bc4ecf9f4f3bd5b5a27f3ba06", "type": "electric_scooter", "lat": 38.90438616666667, "is_reserved": 0, "lon": -77.02844233333333, "fusion_lon": 0.0, "is_disabled": 0, "fusion_lat": 0.0, "bike_id": "85067b9bc4ecf9f4f3bd5b5a27f3ba06", "rental_uris": {"ios": "https://dc.lft.to/lastmile_qr_scan", "android": "https://dc.lft.to/lastmile_qr_scan"}}, {"name": "a621b3e58249687922cf82a2c41641ac", "type": "electric_bike", "lat": 38.97051, "is_reserved": 0, "lon": -76.93617183333333, "fusion_lon": 0.0, "is_disabled": 0, "fusion_lat": 0.0, "bike_id": "a621b3e58249687922cf82a2c41641ac", "rental_uris": {"ios": "https://dc.lft.to/lastmile_qr_scan", "android": "https://dc.lft.to/lastmile_qr_scan"}}, {"name": "a9a025d54c33ad2f833093991de19d2a", "type": "electric_bike", "lat": 38.91362183333333, "is_reserved": 0, "lon": -77.02880233333333, "fusion_lon": 0.0, "is_disabled": 0, "fusion_lat": 0.0, "bike_id": "a9a025d54c33ad2f833093991de19d2a", "rental_uris": {"ios": "https://dc.lft.to/lastmile_qr_scan", "android": "https://dc.lft.to/lastmile_qr_scan"}}, {"name": "7cd3bdd039c5ab0146f36246e572ba3d", "type": "electric_scooter", "lat": 38.91847533333333, "is_reserved": 0, "lon": -77.06151033333333, "fusion_lon": 0.0, "is_disabled": 0, "fusion_lat": 0.0, "bike_id": "7cd3bdd039c5ab0146f36246e572ba3d", "rental_uris": {"ios": "https://dc.lft.to/lastmile_qr_scan", "android": "https://dc.lft.to/lastmile_qr_scan"}}, {"name": "d1b81d50481da9b00bfc334888326ba7", "type": "electric_scooter", "lat": 38.90522516666667, "is_reserved": 0, "lon": -77.05191766666667, "fusion_lon": 0.0, "is_disabled": 0, "fusion_lat": 0.0, "bike_id": "d1b81d50481da9b00bfc334888326ba7", "rental_uris": {"ios": "https://dc.lft.to/lastmile_qr_scan", "android": "https://dc.lft.to/lastmile_qr_scan"}}, {"name": "66c46e3e41441f899907db9afc7b59cd", "type": "electric_scooter", "lat": 38.93712433333334, "is_reserved": 0, "lon": -77.036506, "fusion_lon": 0.0, "is_disabled": 0, "fusion_lat": 0.0, "bike_id": "66c46e3e41441f899907db9afc7b59cd", "rental_uris": {"ios": "https://dc.lft.to/lastmile_qr_scan", "android": "https://dc.lft.to/lastmile_qr_scan"}}, {"name": "de5eb9e972672b21a9fe89904d55c49a", "type": "electric_scooter", "lat": 38.89674183333333, "is_reserved": 0, "lon": -77.05411066666667, "fusion_lon": 0.0, "is_disabled": 0, "fusion_lat": 0.0, "bike_id": "de5eb9e972672b21a9fe89904d55c49a", "rental_uris": {"ios": "https://dc.lft.to/lastmile_qr_scan", "android": "https://dc.lft.to/lastmile_qr_scan"}}, {"name": "4b1f39b95231976bf89a8c4efd84557f", "type": "electric_scooter", "lat": 38.9229095, "is_reserved": 0, "lon": -77.02081416666667, "fusion_lon": 0.0, "is_disabled": 0, "fusion_lat": 0.0, "bike_id": "4b1f39b95231976bf89a8c4efd84557f", "rental_uris": {"ios": "https://dc.lft.to/lastmile_qr_scan", "android": "https://dc.lft.to/lastmile_qr_scan"}}, {"name": "124ce7ac88876f0479de1dc8cdbeeb23", "type": "electric_bike", "lat": 38.905363333333334, "is_reserved": 0, "lon": -76.99810066666667, "fusion_lon": 0.0, "is_disabled": 0, "fusion_lat": 0.0, "bike_id": "124ce7ac88876f0479de1dc8cdbeeb23", "rental_uris": {"ios": "https://dc.lft.to/lastmile_qr_scan", "android": "https://dc.lft.to/lastmile_qr_scan"}}, {"name": "c978e1a84117c7fd4a1baf1bdbac8952", "type": "electric_scooter", "lat": 38.94160333333333, "is_reserved": 0, "lon": -77.0365005, "fusion_lon": 0.0, "is_disabled": 0, "fusion_lat": 0.0, "bike_id": "c978e1a84117c7fd4a1baf1bdbac8952", "rental_uris": {"ios": "https://dc.lft.to/lastmile_qr_scan", "android": "https://dc.lft.to/lastmile_qr_scan"}}, {"name": "002bbaa1790366986ca2f59ebd9d48ef", "type": "electric_scooter", "lat": 38.913307, "is_reserved": 0, "lon": -77.03042483333333, "fusion_lon": 0.0, "is_disabled": 0, "fusion_lat": 0.0, "bike_id": "002bbaa1790366986ca2f59ebd9d48ef", "rental_uris": {"ios": "https://dc.lft.to/lastmile_qr_scan", "android": "https://dc.lft.to/lastmile_qr_scan"}}, {"name": "a3f6b1ef40a6fe0ee4348a224e5a3b88", "type": "electric_scooter", "lat": 38.931011, "is_reserved": 0, "lon": -77.02669533333334, "fusion_lon": 0.0, "is_disabled": 0, "fusion_lat": 0.0, "bike_id": "a3f6b1ef40a6fe0ee4348a224e5a3b88", "rental_uris": {"ios": "https://dc.lft.to/lastmile_qr_scan", "android": "https://dc.lft.to/lastmile_qr_scan"}}, {"name": "abf957f8872b9eee5f03e15fec75d699", "type": "electric_scooter", "lat": 38.89891316666667, "is_reserved": 0, "lon": -77.00698016666666, "fusion_lon": 0.0, "is_disabled": 0, "fusion_lat": 0.0, "bike_id": "abf957f8872b9eee5f03e15fec75d699", "rental_uris": {"ios": "https://dc.lft.to/lastmile_qr_scan", "android": "https://dc.lft.to/lastmile_qr_scan"}}, {"name": "139fc608b1a704722ed3697e2f56f156", "type": "electric_scooter", "lat": 38.898218, "is_reserved": 0, "lon": -76.926399, "fusion_lon": 0.0, "is_disabled": 0, "fusion_lat": 0.0, "bike_id": "139fc608b1a704722ed3697e2f56f156", "rental_uris": {"ios": "https://dc.lft.to/lastmile_qr_scan", "android": "https://dc.lft.to/lastmile_qr_scan"}}, {"name": "a7dba3f39e3297a111b4217512f19b21", "type": "electric_bike", "lat": 38.99090433333333, "is_reserved": 0, "lon": -76.87498466666666, "fusion_lon": 0.0, "is_disabled": 0, "fusion_lat": 0.0, "bike_id": "a7dba3f39e3297a111b4217512f19b21", "rental_uris": {"ios": "https://dc.lft.to/lastmile_qr_scan", "android": "https://dc.lft.to/lastmile_qr_scan"}}, {"name": "afe4973afb7f667ad358b5838e7686f8", "type": "electric_scooter", "lat": 38.866980833333336, "is_reserved": 0, "lon": -76.98714983333333, "fusion_lon": 0.0, "is_disabled": 0, "fusion_lat": 0.0, "bike_id": "afe4973afb7f667ad358b5838e7686f8", "rental_uris": {"ios": "https://dc.lft.to/lastmile_qr_scan", "android": "https://dc.lft.to/lastmile_qr_scan"}}, {"name": "5f6ea7219323d3d718b03565ec8be755", "type": "electric_scooter", "lat": 38.8988925, "is_reserved": 0, "lon": -77.03274966666666, "fusion_lon": 0.0, "is_disabled": 0, "fusion_lat": 0.0, "bike_id": "5f6ea7219323d3d718b03565ec8be755", "rental_uris": {"ios": "https://dc.lft.to/lastmile_qr_scan", "android": "https://dc.lft.to/lastmile_qr_scan"}}, {"name": "726b986cae961b22e299fa41b410ddc9", "type": "electric_scooter", "lat": 38.923425333333334, "is_reserved": 0, "lon": -77.0353885, "fusion_lon": 0.0, "is_disabled": 0, "fusion_lat": 0.0, "bike_id": "726b986cae961b22e299fa41b410ddc9", "rental_uris": {"ios": "https://dc.lft.to/lastmile_qr_scan", "android": "https://dc.lft.to/lastmile_qr_scan"}}, {"name": "4f69dfe7d3fad676b6701ab60bf3a827", "type": "electric_bike", "lat": 38.8273145, "is_reserved": 0, "lon": -77.00863366666667, "fusion_lon": 0.0, "is_disabled": 0, "fusion_lat": 0.0, "bike_id": "4f69dfe7d3fad676b6701ab60bf3a827", "rental_uris": {"ios": "https://dc.lft.to/lastmile_qr_scan", "android": "https://dc.lft.to/lastmile_qr_scan"}}, {"name": "6bde8addce7565fe8001518f867b41ed", "type": "electric_scooter", "lat": 38.92046583333333, "is_reserved": 0, "lon": -77.02436616666667, "fusion_lon": 0.0, "is_disabled": 0, "fusion_lat": 0.0, "bike_id": "6bde8addce7565fe8001518f867b41ed", "rental_uris": {"ios": "https://dc.lft.to/lastmile_qr_scan", "android": "https://dc.lft.to/lastmile_qr_scan"}}, {"name": "ec54320784220770c0f93c2536f7486b", "type": "electric_scooter", "lat": 38.900904833333335, "is_reserved": 0, "lon": -76.93873883333333, "fusion_lon": 0.0, "is_disabled": 0, "fusion_lat": 0.0, "bike_id": "ec54320784220770c0f93c2536f7486b", "rental_uris": {"ios": "https://dc.lft.to/lastmile_qr_scan", "android": "https://dc.lft.to/lastmile_qr_scan"}}, {"name": "3daaf708c9a7126d2102b66675a5fa2d", "type": "electric_scooter", "lat": 38.91894166666667, "is_reserved": 0, "lon": -77.05292216666666, "fusion_lon": 0.0, "is_disabled": 0, "fusion_lat": 0.0, "bike_id": "3daaf708c9a7126d2102b66675a5fa2d", "rental_uris": {"ios": "https://dc.lft.to/lastmile_qr_scan", "android": "https://dc.lft.to/lastmile_qr_scan"}}, {"name": "baa6ef09345ab6ae78f235ae50dead15", "type": "electric_scooter", "lat": 38.880203, "is_reserved": 0, "lon": -76.931309, "fusion_lon": 0.0, "is_disabled": 0, "fusion_lat": 0.0, "bike_id": "baa6ef09345ab6ae78f235ae50dead15", "rental_uris": {"ios": "https://dc.lft.to/lastmile_qr_scan", "android": "https://dc.lft.to/lastmile_qr_scan"}}, {"name": "ca7297c40b29f6c2240bdee13e83e6bc", "type": "electric_scooter", "lat": 38.92981416666667, "is_reserved": 0, "lon": -77.026177, "fusion_lon": 0.0, "is_disabled": 0, "fusion_lat": 0.0, "bike_id": "ca7297c40b29f6c2240bdee13e83e6bc", "rental_uris": {"ios": "https://dc.lft.to/lastmile_qr_scan", "android": "https://dc.lft.to/lastmile_qr_scan"}}, {"name": "8bd873579edb77f0a8fc31d64f999b5b", "type": "electric_scooter", "lat": 38.908339, "is_reserved": 0, "lon": -77.03661466666667, "fusion_lon": 0.0, "is_disabled": 0, "fusion_lat": 0.0, "bike_id": "8bd873579edb77f0a8fc31d64f999b5b", "rental_uris": {"ios": "https://dc.lft.to/lastmile_qr_scan", "android": "https://dc.lft.to/lastmile_qr_scan"}}, {"name": "46d79178bc568f764ed3ded9d68f24d5", "type": "electric_scooter", "lat": 38.9279865, "is_reserved": 0, "lon": -77.05361916666666, "fusion_lon": 0.0, "is_disabled": 0, "fusion_lat": 0.0, "bike_id": "46d79178bc568f764ed3ded9d68f24d5", "rental_uris": {"ios": "https://dc.lft.to/lastmile_qr_scan", "android": "https://dc.lft.to/lastmile_qr_scan"}}, {"name": "c7510ff366caa1e4ae100103419f421c", "type": "electric_scooter", "lat": 38.91059416666667, "is_reserved": 0, "lon": -77.04573666666667, "fusion_lon": 0.0, "is_disabled": 0, "fusion_lat": 0.0, "bike_id": "c7510ff366caa1e4ae100103419f421c", "rental_uris": {"ios": "https://dc.lft.to/lastmile_qr_scan", "android": "https://dc.lft.to/lastmile_qr_scan"}}, {"name": "d2711ab302488551e6ed6b3516f3db8d", "type": "electric_scooter", "lat": 38.88499266666667, "is_reserved": 0, "lon": -77.00728516666666, "fusion_lon": 0.0, "is_disabled": 0, "fusion_lat": 0.0, "bike_id": "d2711ab302488551e6ed6b3516f3db8d", "rental_uris": {"ios": "https://dc.lft.to/lastmile_qr_scan", "android": "https://dc.lft.to/lastmile_qr_scan"}}, {"name": "b5e05982ac00ba06f3cea48276992bc6", "type": "electric_scooter", "lat": 38.89494583333333, "is_reserved": 0, "lon": -77.02386983333334, "fusion_lon": 0.0, "is_disabled": 0, "fusion_lat": 0.0, "bike_id": "b5e05982ac00ba06f3cea48276992bc6", "rental_uris": {"ios": "https://dc.lft.to/lastmile_qr_scan", "android": "https://dc.lft.to/lastmile_qr_scan"}}, {"name": "7e2626bf6c9f5fe99e86ea2db200e40c", "type": "electric_scooter", "lat": 38.934317666666665, "is_reserved": 0, "lon": -77.02425533333333, "fusion_lon": 0.0, "is_disabled": 0, "fusion_lat": 0.0, "bike_id": "7e2626bf6c9f5fe99e86ea2db200e40c", "rental_uris": {"ios": "https://dc.lft.to/lastmile_qr_scan", "android": "https://dc.lft.to/lastmile_qr_scan"}}, {"name": "d40bf6956bbeb2398d384efbc22f9760", "type": "electric_scooter", "lat": 38.90039816666667, "is_reserved": 0, "lon": -76.99757133333334, "fusion_lon": 0.0, "is_disabled": 0, "fusion_lat": 0.0, "bike_id": "d40bf6956bbeb2398d384efbc22f9760", "rental_uris": {"ios": "https://dc.lft.to/lastmile_qr_scan", "android": "https://dc.lft.to/lastmile_qr_scan"}}, {"name": "f24d2b0d9bcbd373535d706cab58f1b0", "type": "electric_scooter", "lat": 38.90053283333334, "is_reserved": 0, "lon": -77.03178033333333, "fusion_lon": 0.0, "is_disabled": 0, "fusion_lat": 0.0, "bike_id": "f24d2b0d9bcbd373535d706cab58f1b0", "rental_uris": {"ios": "https://dc.lft.to/lastmile_qr_scan", "android": "https://dc.lft.to/lastmile_qr_scan"}}, {"name": "7ee86c4159cab0f2191527dbd09d7e6b", "type": "electric_scooter", "lat": 38.88872766666667, "is_reserved": 0, "lon": -76.990315, "fusion_lon": 0.0, "is_disabled": 0, "fusion_lat": 0.0, "bike_id": "7ee86c4159cab0f2191527dbd09d7e6b", "rental_uris": {"ios": "https://dc.lft.to/lastmile_qr_scan", "android": "https://dc.lft.to/lastmile_qr_scan"}}, {"name": "ba0e659491dd00ac32c5047655e07dd3", "type": "electric_scooter", "lat": 38.91687666666667, "is_reserved": 0, "lon": -77.02812283333333, "fusion_lon": 0.0, "is_disabled": 0, "fusion_lat": 0.0, "bike_id": "ba0e659491dd00ac32c5047655e07dd3", "rental_uris": {"ios": "https://dc.lft.to/lastmile_qr_scan", "android": "https://dc.lft.to/lastmile_qr_scan"}}, {"name": "1d88d6b891ab5e45e5a740d95d784063", "type": "electric_scooter", "lat": 38.935723, "is_reserved": 0, "lon": -77.03731483333334, "fusion_lon": 0.0, "is_disabled": 0, "fusion_lat": 0.0, "bike_id": "1d88d6b891ab5e45e5a740d95d784063", "rental_uris": {"ios": "https://dc.lft.to/lastmile_qr_scan", "android": "https://dc.lft.to/lastmile_qr_scan"}}, {"name": "12d05c994b5ac1d289edbaf3b436ef6b", "type": "electric_scooter", "lat": 38.88403366666667, "is_reserved": 0, "lon": -76.99526916666667, "fusion_lon": 0.0, "is_disabled": 0, "fusion_lat": 0.0, "bike_id": "12d05c994b5ac1d289edbaf3b436ef6b", "rental_uris": {"ios": "https://dc.lft.to/lastmile_qr_scan", "android": "https://dc.lft.to/lastmile_qr_scan"}}, {"name": "1a9932b69589fa38133a268c127543e5", "type": "electric_bike", "lat": 38.912742, "is_reserved": 0, "lon": -77.01252733333334, "fusion_lon": 0.0, "is_disabled": 0, "fusion_lat": 0.0, "bike_id": "1a9932b69589fa38133a268c127543e5", "rental_uris": {"ios": "https://dc.lft.to/lastmile_qr_scan", "android": "https://dc.lft.to/lastmile_qr_scan"}}, {"name": "69d0e9a93f2cbf88d0e59c36766f2133", "type": "electric_scooter", "lat": 38.928638166666666, "is_reserved": 0, "lon": -77.03755033333333, "fusion_lon": 0.0, "is_disabled": 0, "fusion_lat": 0.0, "bike_id": "69d0e9a93f2cbf88d0e59c36766f2133", "rental_uris": {"ios": "https://dc.lft.to/lastmile_qr_scan", "android": "https://dc.lft.to/lastmile_qr_scan"}}, {"name": "a0c2d0b743bfe13af89f5bbcb7d01965", "type": "electric_bike", "lat": 38.943298666666664, "is_reserved": 0, "lon": -76.96174466666666, "fusion_lon": 0.0, "is_disabled": 0, "fusion_lat": 0.0, "bike_id": "a0c2d0b743bfe13af89f5bbcb7d01965", "rental_uris": {"ios": "https://dc.lft.to/lastmile_qr_scan", "android": "https://dc.lft.to/lastmile_qr_scan"}}, {"name": "a44baf92662946b584a3159c4d597c29", "type": "electric_scooter", "lat": 38.9117935, "is_reserved": 0, "lon": -77.0199365, "fusion_lon": 0.0, "is_disabled": 0, "fusion_lat": 0.0, "bike_id": "a44baf92662946b584a3159c4d597c29", "rental_uris": {"ios": "https://dc.lft.to/lastmile_qr_scan", "android": "https://dc.lft.to/lastmile_qr_scan"}}, {"name": "b3133126a16a7ecce7a12d72e499a8cf", "type": "electric_scooter", "lat": 38.896109333333335, "is_reserved": 0, "lon": -76.999766, "fusion_lon": 0.0, "is_disabled": 0, "fusion_lat": 0.0, "bike_id": "b3133126a16a7ecce7a12d72e499a8cf", "rental_uris": {"ios": "https://dc.lft.to/lastmile_qr_scan", "android": "https://dc.lft.to/lastmile_qr_scan"}}, {"name": "03f7cf1d5a971412d443ac97101de1f9", "type": "electric_scooter", "lat": 38.88499016666667, "is_reserved": 0, "lon": -77.00726883333333, "fusion_lon": 0.0, "is_disabled": 0, "fusion_lat": 0.0, "bike_id": "03f7cf1d5a971412d443ac97101de1f9", "rental_uris": {"ios": "https://dc.lft.to/lastmile_qr_scan", "android": "https://dc.lft.to/lastmile_qr_scan"}}, {"name": "775fe046045f2d4cc5b1271970219a0e", "type": "electric_bike", "lat": 38.94587533333333, "is_reserved": 0, "lon": -77.00273733333333, "fusion_lon": 0.0, "is_disabled": 0, "fusion_lat": 0.0, "bike_id": "775fe046045f2d4cc5b1271970219a0e", "rental_uris": {"ios": "https://dc.lft.to/lastmile_qr_scan", "android": "https://dc.lft.to/lastmile_qr_scan"}}, {"name": "21548faeb9ab1399b17b39631f5bf8a1", "type": "electric_scooter", "lat": 38.86376633333333, "is_reserved": 0, "lon": -77.01354166666667, "fusion_lon": 0.0, "is_disabled": 0, "fusion_lat": 0.0, "bike_id": "21548faeb9ab1399b17b39631f5bf8a1", "rental_uris": {"ios": "https://dc.lft.to/lastmile_qr_scan", "android": "https://dc.lft.to/lastmile_qr_scan"}}, {"name": "e793b95d656bf8916ebc964d9ef6b723", "type": "electric_scooter", "lat": 38.88783266666667, "is_reserved": 0, "lon": -77.0201, "fusion_lon": 0.0, "is_disabled": 0, "fusion_lat": 0.0, "bike_id": "e793b95d656bf8916ebc964d9ef6b723", "rental_uris": {"ios": "https://dc.lft.to/lastmile_qr_scan", "android": "https://dc.lft.to/lastmile_qr_scan"}}, {"name": "18d67947f4051d8cc793590d1a01a41f", "type": "electric_scooter", "lat": 38.942118666666666, "is_reserved": 0, "lon": -77.02515, "fusion_lon": 0.0, "is_disabled": 0, "fusion_lat": 0.0, "bike_id": "18d67947f4051d8cc793590d1a01a41f", "rental_uris": {"ios": "https://dc.lft.to/lastmile_qr_scan", "android": "https://dc.lft.to/lastmile_qr_scan"}}, {"name": "95fe1e066cd15f937462a70a9d793dfa", "type": "electric_scooter", "lat": 38.961138166666665, "is_reserved": 0, "lon": -77.028165, "fusion_lon": 0.0, "is_disabled": 0, "fusion_lat": 0.0, "bike_id": "95fe1e066cd15f937462a70a9d793dfa", "rental_uris": {"ios": "https://dc.lft.to/lastmile_qr_scan", "android": "https://dc.lft.to/lastmile_qr_scan"}}, {"name": "d1b1d3ea0694f92ab5d7fefa10f7a3c0", "type": "electric_scooter", "lat": 38.9194825, "is_reserved": 0, "lon": -77.013519, "fusion_lon": 0.0, "is_disabled": 0, "fusion_lat": 0.0, "bike_id": "d1b1d3ea0694f92ab5d7fefa10f7a3c0", "rental_uris": {"ios": "https://dc.lft.to/lastmile_qr_scan", "android": "https://dc.lft.to/lastmile_qr_scan"}}, {"name": "e4e8ddaec3cc39b2da24925ec2bf7a10", "type": "electric_scooter", "lat": 38.91723283333333, "is_reserved": 0, "lon": -77.03113633333334, "fusion_lon": 0.0, "is_disabled": 0, "fusion_lat": 0.0, "bike_id": "e4e8ddaec3cc39b2da24925ec2bf7a10", "rental_uris": {"ios": "https://dc.lft.to/lastmile_qr_scan", "android": "https://dc.lft.to/lastmile_qr_scan"}}, {"name": "d6a1823e67515cfce2999064c0f44bd5", "type": "electric_scooter", "lat": 38.90737766666667, "is_reserved": 0, "lon": -77.001437, "fusion_lon": 0.0, "is_disabled": 0, "fusion_lat": 0.0, "bike_id": "d6a1823e67515cfce2999064c0f44bd5", "rental_uris": {"ios": "https://dc.lft.to/lastmile_qr_scan", "android": "https://dc.lft.to/lastmile_qr_scan"}}, {"name": "22c7ad2d303d90cd154365024c6ff316", "type": "electric_scooter", "lat": 38.9444395, "is_reserved": 0, "lon": -77.06345033333334, "fusion_lon": 0.0, "is_disabled": 0, "fusion_lat": 0.0, "bike_id": "22c7ad2d303d90cd154365024c6ff316", "rental_uris": {"ios": "https://dc.lft.to/lastmile_qr_scan", "android": "https://dc.lft.to/lastmile_qr_scan"}}, {"name": "9a66cf6e04b135aceb16f4ad61cfaef4", "type": "electric_scooter", "lat": 38.925745166666665, "is_reserved": 0, "lon": -77.03936516666667, "fusion_lon": 0.0, "is_disabled": 0, "fusion_lat": 0.0, "bike_id": "9a66cf6e04b135aceb16f4ad61cfaef4", "rental_uris": {"ios": "https://dc.lft.to/lastmile_qr_scan", "android": "https://dc.lft.to/lastmile_qr_scan"}}, {"name": "c72ff9df796e6ddc185eb3a5b3a5e69b", "type": "electric_scooter", "lat": 38.920580333333334, "is_reserved": 0, "lon": -76.99878266666667, "fusion_lon": 0.0, "is_disabled": 0, "fusion_lat": 0.0, "bike_id": "c72ff9df796e6ddc185eb3a5b3a5e69b", "rental_uris": {"ios": "https://dc.lft.to/lastmile_qr_scan", "android": "https://dc.lft.to/lastmile_qr_scan"}}, {"name": "36ab68135932d3e6436f6cfcfcbad2f4", "type": "electric_scooter", "lat": 38.91361933333334, "is_reserved": 0, "lon": -77.01559883333333, "fusion_lon": 0.0, "is_disabled": 0, "fusion_lat": 0.0, "bike_id": "36ab68135932d3e6436f6cfcfcbad2f4", "rental_uris": {"ios": "https://dc.lft.to/lastmile_qr_scan", "android": "https://dc.lft.to/lastmile_qr_scan"}}, {"name": "5a04eeaf73e978b712134c96d4051188", "type": "electric_scooter", "lat": 38.8992035, "is_reserved": 0, "lon": -76.94561533333334, "fusion_lon": 0.0, "is_disabled": 0, "fusion_lat": 0.0, "bike_id": "5a04eeaf73e978b712134c96d4051188", "rental_uris": {"ios": "https://dc.lft.to/lastmile_qr_scan", "android": "https://dc.lft.to/lastmile_qr_scan"}}, {"name": "9ee22250384b78fe6dd8d6f1725b5d07", "type": "electric_scooter", "lat": 38.924607, "is_reserved": 0, "lon": -77.00215983333334, "fusion_lon": 0.0, "is_disabled": 0, "fusion_lat": 0.0, "bike_id": "9ee22250384b78fe6dd8d6f1725b5d07", "rental_uris": {"ios": "https://dc.lft.to/lastmile_qr_scan", "android": "https://dc.lft.to/lastmile_qr_scan"}}, {"name": "d0adc39bb2f95cf0494d6a9097a6ee28", "type": "electric_scooter", "lat": 38.91191116666667, "is_reserved": 0, "lon": -76.996221, "fusion_lon": 0.0, "is_disabled": 0, "fusion_lat": 0.0, "bike_id": "d0adc39bb2f95cf0494d6a9097a6ee28", "rental_uris": {"ios": "https://dc.lft.to/lastmile_qr_scan", "android": "https://dc.lft.to/lastmile_qr_scan"}}, {"name": "bd6f78728f6217041dc2594c261a216a", "type": "electric_bike", "lat": 38.854926166666665, "is_reserved": 0, "lon": -77.1152235, "fusion_lon": 0.0, "is_disabled": 0, "fusion_lat": 0.0, "bike_id": "bd6f78728f6217041dc2594c261a216a", "rental_uris": {"ios": "https://dc.lft.to/lastmile_qr_scan", "android": "https://dc.lft.to/lastmile_qr_scan"}}, {"name": "97693f0fc32d1edca8ffea7b2b0366cd", "type": "electric_scooter", "lat": 38.89227483333333, "is_reserved": 0, "lon": -77.042691, "fusion_lon": 0.0, "is_disabled": 0, "fusion_lat": 0.0, "bike_id": "97693f0fc32d1edca8ffea7b2b0366cd", "rental_uris": {"ios": "https://dc.lft.to/lastmile_qr_scan", "android": "https://dc.lft.to/lastmile_qr_scan"}}, {"name": "fd4dab7694f0e96faea4b587399c548d", "type": "electric_scooter", "lat": 38.897885, "is_reserved": 0, "lon": -77.02959816666667, "fusion_lon": 0.0, "is_disabled": 0, "fusion_lat": 0.0, "bike_id": "fd4dab7694f0e96faea4b587399c548d", "rental_uris": {"ios": "https://dc.lft.to/lastmile_qr_scan", "android": "https://dc.lft.to/lastmile_qr_scan"}}, {"name": "14cea8c2653b6f51be8923d939d65122", "type": "electric_scooter", "lat": 38.920707166666666, "is_reserved": 0, "lon": -77.02916883333333, "fusion_lon": 0.0, "is_disabled": 0, "fusion_lat": 0.0, "bike_id": "14cea8c2653b6f51be8923d939d65122", "rental_uris": {"ios": "https://dc.lft.to/lastmile_qr_scan", "android": "https://dc.lft.to/lastmile_qr_scan"}}, {"name": "a38e45e996fffe7ae8e29eaac00e1b08", "type": "electric_scooter", "lat": 38.88323583333333, "is_reserved": 0, "lon": -77.01776733333334, "fusion_lon": 0.0, "is_disabled": 0, "fusion_lat": 0.0, "bike_id": "a38e45e996fffe7ae8e29eaac00e1b08", "rental_uris": {"ios": "https://dc.lft.to/lastmile_qr_scan", "android": "https://dc.lft.to/lastmile_qr_scan"}}, {"name": "507bca840f00c23161288f88e9d86641", "type": "electric_scooter", "lat": 38.914703, "is_reserved": 0, "lon": -77.03850116666666, "fusion_lon": 0.0, "is_disabled": 0, "fusion_lat": 0.0, "bike_id": "507bca840f00c23161288f88e9d86641", "rental_uris": {"ios": "https://dc.lft.to/lastmile_qr_scan", "android": "https://dc.lft.to/lastmile_qr_scan"}}, {"name": "82b3ebc6e1d653a391d3393ef49b37cb", "type": "electric_bike", "lat": 38.842739333333334, "is_reserved": 0, "lon": -76.9884445, "fusion_lon": 0.0, "is_disabled": 0, "fusion_lat": 0.0, "bike_id": "82b3ebc6e1d653a391d3393ef49b37cb", "rental_uris": {"ios": "https://dc.lft.to/lastmile_qr_scan", "android": "https://dc.lft.to/lastmile_qr_scan"}}, {"name": "f2c5c781a7c354bdec45ce051b0c45d5", "type": "electric_bike", "lat": 38.83939683333333, "is_reserved": 0, "lon": -77.07902583333333, "fusion_lon": 0.0, "is_disabled": 0, "fusion_lat": 0.0, "bike_id": "f2c5c781a7c354bdec45ce051b0c45d5", "rental_uris": {"ios": "https://dc.lft.to/lastmile_qr_scan", "android": "https://dc.lft.to/lastmile_qr_scan"}}, {"name": "9e4f028dc0d2a1d21d2ffb39dabae77d", "type": "electric_scooter", "lat": 38.9025385, "is_reserved": 0, "lon": -77.03421533333334, "fusion_lon": 0.0, "is_disabled": 0, "fusion_lat": 0.0, "bike_id": "9e4f028dc0d2a1d21d2ffb39dabae77d", "rental_uris": {"ios": "https://dc.lft.to/lastmile_qr_scan", "android": "https://dc.lft.to/lastmile_qr_scan"}}, {"name": "8fcf18ef274a655f7052662b75c6c18e", "type": "electric_scooter", "lat": 38.93231516666667, "is_reserved": 0, "lon": -77.03812716666667, "fusion_lon": 0.0, "is_disabled": 0, "fusion_lat": 0.0, "bike_id": "8fcf18ef274a655f7052662b75c6c18e", "rental_uris": {"ios": "https://dc.lft.to/lastmile_qr_scan", "android": "https://dc.lft.to/lastmile_qr_scan"}}, {"name": "cd2d3592d7934b9b011bd6237f2f29a5", "type": "electric_scooter", "lat": 38.9147455, "is_reserved": 0, "lon": -77.03932383333333, "fusion_lon": 0.0, "is_disabled": 0, "fusion_lat": 0.0, "bike_id": "cd2d3592d7934b9b011bd6237f2f29a5", "rental_uris": {"ios": "https://dc.lft.to/lastmile_qr_scan", "android": "https://dc.lft.to/lastmile_qr_scan"}}, {"name": "df887d413941abe9222877513556fe77", "type": "electric_scooter", "lat": 38.93983733333334, "is_reserved": 0, "lon": -77.02598183333333, "fusion_lon": 0.0, "is_disabled": 0, "fusion_lat": 0.0, "bike_id": "df887d413941abe9222877513556fe77", "rental_uris": {"ios": "https://dc.lft.to/lastmile_qr_scan", "android": "https://dc.lft.to/lastmile_qr_scan"}}, {"name": "6809eea52dd26b9142558af1055c1409", "type": "electric_scooter", "lat": 38.911125166666665, "is_reserved": 0, "lon": -77.034825, "fusion_lon": 0.0, "is_disabled": 0, "fusion_lat": 0.0, "bike_id": "6809eea52dd26b9142558af1055c1409", "rental_uris": {"ios": "https://dc.lft.to/lastmile_qr_scan", "android": "https://dc.lft.to/lastmile_qr_scan"}}, {"name": "103f1a6079092ff87a42d4d3094af215", "type": "electric_scooter", "lat": 38.9157695, "is_reserved": 0, "lon": -77.02180466666667, "fusion_lon": 0.0, "is_disabled": 0, "fusion_lat": 0.0, "bike_id": "103f1a6079092ff87a42d4d3094af215", "rental_uris": {"ios": "https://dc.lft.to/lastmile_qr_scan", "android": "https://dc.lft.to/lastmile_qr_scan"}}, {"name": "fe7d99329f0fe67778700f8a1738b8b4", "type": "electric_bike", "lat": 38.880478, "is_reserved": 0, "lon": -77.01322516666667, "fusion_lon": 0.0, "is_disabled": 0, "fusion_lat": 0.0, "bike_id": "fe7d99329f0fe67778700f8a1738b8b4", "rental_uris": {"ios": "https://dc.lft.to/lastmile_qr_scan", "android": "https://dc.lft.to/lastmile_qr_scan"}}, {"name": "d3b5367f5580640e69e6487be981982e", "type": "electric_scooter", "lat": 38.9060175, "is_reserved": 0, "lon": -77.0161575, "fusion_lon": 0.0, "is_disabled": 0, "fusion_lat": 0.0, "bike_id": "d3b5367f5580640e69e6487be981982e", "rental_uris": {"ios": "https://dc.lft.to/lastmile_qr_scan", "android": "https://dc.lft.to/lastmile_qr_scan"}}, {"name": "0dfdc40b56065cdb8dde143c0a9517ad", "type": "electric_scooter", "lat": 38.900249, "is_reserved": 0, "lon": -77.011657, "fusion_lon": 0.0, "is_disabled": 0, "fusion_lat": 0.0, "bike_id": "0dfdc40b56065cdb8dde143c0a9517ad", "rental_uris": {"ios": "https://dc.lft.to/lastmile_qr_scan", "android": "https://dc.lft.to/lastmile_qr_scan"}}, {"name": "fede0743404f581bcc0efebfaa17d556", "type": "electric_scooter", "lat": 38.923534333333336, "is_reserved": 0, "lon": -77.04149633333333, "fusion_lon": 0.0, "is_disabled": 0, "fusion_lat": 0.0, "bike_id": "fede0743404f581bcc0efebfaa17d556", "rental_uris": {"ios": "https://dc.lft.to/lastmile_qr_scan", "android": "https://dc.lft.to/lastmile_qr_scan"}}, {"name": "2626e65b3b3856447fc1ef9694aa1d5e", "type": "electric_scooter", "lat": 38.906523, "is_reserved": 0, "lon": -77.05131183333333, "fusion_lon": 0.0, "is_disabled": 0, "fusion_lat": 0.0, "bike_id": "2626e65b3b3856447fc1ef9694aa1d5e", "rental_uris": {"ios": "https://dc.lft.to/lastmile_qr_scan", "android": "https://dc.lft.to/lastmile_qr_scan"}}, {"name": "9e10e30ccdec4b1bd6e5d505865cd0c1", "type": "electric_scooter", "lat": 38.92348466666667, "is_reserved": 0, "lon": -77.03541033333333, "fusion_lon": 0.0, "is_disabled": 0, "fusion_lat": 0.0, "bike_id": "9e10e30ccdec4b1bd6e5d505865cd0c1", "rental_uris": {"ios": "https://dc.lft.to/lastmile_qr_scan", "android": "https://dc.lft.to/lastmile_qr_scan"}}, {"name": "a6b20be214a372484225220788d1f470", "type": "electric_scooter", "lat": 38.90642733333333, "is_reserved": 0, "lon": -77.051447, "fusion_lon": 0.0, "is_disabled": 0, "fusion_lat": 0.0, "bike_id": "a6b20be214a372484225220788d1f470", "rental_uris": {"ios": "https://dc.lft.to/lastmile_qr_scan", "android": "https://dc.lft.to/lastmile_qr_scan"}}, {"name": "3aaeab42cce65e4726c1914e7f88289a", "type": "electric_scooter", "lat": 38.897337666666665, "is_reserved": 0, "lon": -77.0434035, "fusion_lon": 0.0, "is_disabled": 0, "fusion_lat": 0.0, "bike_id": "3aaeab42cce65e4726c1914e7f88289a", "rental_uris": {"ios": "https://dc.lft.to/lastmile_qr_scan", "android": "https://dc.lft.to/lastmile_qr_scan"}}, {"name": "b4d022e2ae6f381a7e6e7832fae0e072", "type": "electric_scooter", "lat": 38.9301475, "is_reserved": 0, "lon": -77.02338583333334, "fusion_lon": 0.0, "is_disabled": 0, "fusion_lat": 0.0, "bike_id": "b4d022e2ae6f381a7e6e7832fae0e072", "rental_uris": {"ios": "https://dc.lft.to/lastmile_qr_scan", "android": "https://dc.lft.to/lastmile_qr_scan"}}, {"name": "1e2070bc912fa8d83c04b31254c4653f", "type": "electric_scooter", "lat": 38.910986333333334, "is_reserved": 0, "lon": -77.00494916666666, "fusion_lon": 0.0, "is_disabled": 0, "fusion_lat": 0.0, "bike_id": "1e2070bc912fa8d83c04b31254c4653f", "rental_uris": {"ios": "https://dc.lft.to/lastmile_qr_scan", "android": "https://dc.lft.to/lastmile_qr_scan"}}, {"name": "b446226f44fa9855048f55361dbfadc1", "type": "electric_scooter", "lat": 38.90030683333333, "is_reserved": 0, "lon": -77.0405525, "fusion_lon": 0.0, "is_disabled": 0, "fusion_lat": 0.0, "bike_id": "b446226f44fa9855048f55361dbfadc1", "rental_uris": {"ios": "https://dc.lft.to/lastmile_qr_scan", "android": "https://dc.lft.to/lastmile_qr_scan"}}, {"name": "4dc783478c00c364b2b4f123d5d540bd", "type": "electric_scooter", "lat": 38.90521916666667, "is_reserved": 0, "lon": -77.06529966666666, "fusion_lon": 0.0, "is_disabled": 0, "fusion_lat": 0.0, "bike_id": "4dc783478c00c364b2b4f123d5d540bd", "rental_uris": {"ios": "https://dc.lft.to/lastmile_qr_scan", "android": "https://dc.lft.to/lastmile_qr_scan"}}, {"name": "6aff1aa38bbe9544e4934b9e6e4acb82", "type": "electric_scooter", "lat": 38.9255445, "is_reserved": 0, "lon": -77.00093183333334, "fusion_lon": 0.0, "is_disabled": 0, "fusion_lat": 0.0, "bike_id": "6aff1aa38bbe9544e4934b9e6e4acb82", "rental_uris": {"ios": "https://dc.lft.to/lastmile_qr_scan", "android": "https://dc.lft.to/lastmile_qr_scan"}}, {"name": "f447ab1a07a91ab9962c7c1040afc44b", "type": "electric_scooter", "lat": 38.92722216666667, "is_reserved": 0, "lon": -77.0397205, "fusion_lon": 0.0, "is_disabled": 0, "fusion_lat": 0.0, "bike_id": "f447ab1a07a91ab9962c7c1040afc44b", "rental_uris": {"ios": "https://dc.lft.to/lastmile_qr_scan", "android": "https://dc.lft.to/lastmile_qr_scan"}}, {"name": "9ef09e2c3af164528356fe8c842af119", "type": "electric_scooter", "lat": 38.899573833333335, "is_reserved": 0, "lon": -77.05278816666667, "fusion_lon": 0.0, "is_disabled": 0, "fusion_lat": 0.0, "bike_id": "9ef09e2c3af164528356fe8c842af119", "rental_uris": {"ios": "https://dc.lft.to/lastmile_qr_scan", "android": "https://dc.lft.to/lastmile_qr_scan"}}, {"name": "e0c233e14456171f67de3d5e98a39f39", "type": "electric_scooter", "lat": 38.904822333333335, "is_reserved": 0, "lon": -77.0296875, "fusion_lon": 0.0, "is_disabled": 0, "fusion_lat": 0.0, "bike_id": "e0c233e14456171f67de3d5e98a39f39", "rental_uris": {"ios": "https://dc.lft.to/lastmile_qr_scan", "android": "https://dc.lft.to/lastmile_qr_scan"}}, {"name": "b8188964336c7a783a0681610030a173", "type": "electric_scooter", "lat": 38.901568, "is_reserved": 0, "lon": -77.0333315, "fusion_lon": 0.0, "is_disabled": 0, "fusion_lat": 0.0, "bike_id": "b8188964336c7a783a0681610030a173", "rental_uris": {"ios": "https://dc.lft.to/lastmile_qr_scan", "android": "https://dc.lft.to/lastmile_qr_scan"}}, {"name": "8845adff2febf7481047d984a4496e77", "type": "electric_scooter", "lat": 38.91583933333333, "is_reserved": 0, "lon": -77.02176366666667, "fusion_lon": 0.0, "is_disabled": 0, "fusion_lat": 0.0, "bike_id": "8845adff2febf7481047d984a4496e77", "rental_uris": {"ios": "https://dc.lft.to/lastmile_qr_scan", "android": "https://dc.lft.to/lastmile_qr_scan"}}, {"name": "fa11afda7d83e20bb961ca924126650b", "type": "electric_scooter", "lat": 38.934917, "is_reserved": 0, "lon": -77.03284483333333, "fusion_lon": 0.0, "is_disabled": 0, "fusion_lat": 0.0, "bike_id": "fa11afda7d83e20bb961ca924126650b", "rental_uris": {"ios": "https://dc.lft.to/lastmile_qr_scan", "android": "https://dc.lft.to/lastmile_qr_scan"}}, {"name": "8b660e38a8243eed2eeb99e606d4b3fc", "type": "electric_scooter", "lat": 38.933836, "is_reserved": 0, "lon": -77.03461366666667, "fusion_lon": 0.0, "is_disabled": 0, "fusion_lat": 0.0, "bike_id": "8b660e38a8243eed2eeb99e606d4b3fc", "rental_uris": {"ios": "https://dc.lft.to/lastmile_qr_scan", "android": "https://dc.lft.to/lastmile_qr_scan"}}, {"name": "d2617d586ab8b56db4d86dfc17407b92", "type": "electric_scooter", "lat": 38.894872166666666, "is_reserved": 0, "lon": -77.03048033333333, "fusion_lon": 0.0, "is_disabled": 0, "fusion_lat": 0.0, "bike_id": "d2617d586ab8b56db4d86dfc17407b92", "rental_uris": {"ios": "https://dc.lft.to/lastmile_qr_scan", "android": "https://dc.lft.to/lastmile_qr_scan"}}, {"name": "cdc8c994c10ea4ab9ba5f3e37721a22c", "type": "electric_scooter", "lat": 38.917189, "is_reserved": 0, "lon": -77.06845366666667, "fusion_lon": 0.0, "is_disabled": 0, "fusion_lat": 0.0, "bike_id": "cdc8c994c10ea4ab9ba5f3e37721a22c", "rental_uris": {"ios": "https://dc.lft.to/lastmile_qr_scan", "android": "https://dc.lft.to/lastmile_qr_scan"}}, {"name": "55f5a99229f95ed5651751fb53e42d3c", "type": "electric_scooter", "lat": 38.91224666666667, "is_reserved": 0, "lon": -77.04454383333334, "fusion_lon": 0.0, "is_disabled": 0, "fusion_lat": 0.0, "bike_id": "55f5a99229f95ed5651751fb53e42d3c", "rental_uris": {"ios": "https://dc.lft.to/lastmile_qr_scan", "android": "https://dc.lft.to/lastmile_qr_scan"}}, {"name": "9523c6bfb8dc74efe7cc1b5a396d6245", "type": "electric_scooter", "lat": 38.905813333333334, "is_reserved": 0, "lon": -77.02494416666667, "fusion_lon": 0.0, "is_disabled": 0, "fusion_lat": 0.0, "bike_id": "9523c6bfb8dc74efe7cc1b5a396d6245", "rental_uris": {"ios": "https://dc.lft.to/lastmile_qr_scan", "android": "https://dc.lft.to/lastmile_qr_scan"}}, {"name": "ddc482f99645ddb3e28baf6bfdede08d", "type": "electric_scooter", "lat": 38.92738816666667, "is_reserved": 0, "lon": -77.02978283333333, "fusion_lon": 0.0, "is_disabled": 0, "fusion_lat": 0.0, "bike_id": "ddc482f99645ddb3e28baf6bfdede08d", "rental_uris": {"ios": "https://dc.lft.to/lastmile_qr_scan", "android": "https://dc.lft.to/lastmile_qr_scan"}}, {"name": "fabf906673ca1bdb4ea9588e5414413b", "type": "electric_bike", "lat": 38.94842933333334, "is_reserved": 0, "lon": -77.03900916666667, "fusion_lon": 0.0, "is_disabled": 0, "fusion_lat": 0.0, "bike_id": "fabf906673ca1bdb4ea9588e5414413b", "rental_uris": {"ios": "https://dc.lft.to/lastmile_qr_scan", "android": "https://dc.lft.to/lastmile_qr_scan"}}, {"name": "6bc4bf854f210c3a5781d195482a09fb", "type": "electric_scooter", "lat": 38.958427666666665, "is_reserved": 0, "lon": -77.0293525, "fusion_lon": 0.0, "is_disabled": 0, "fusion_lat": 0.0, "bike_id": "6bc4bf854f210c3a5781d195482a09fb", "rental_uris": {"ios": "https://dc.lft.to/lastmile_qr_scan", "android": "https://dc.lft.to/lastmile_qr_scan"}}, {"name": "22b54ca354fd96e8684985bed1cfd729", "type": "electric_scooter", "lat": 38.924959333333334, "is_reserved": 0, "lon": -77.073208, "fusion_lon": 0.0, "is_disabled": 0, "fusion_lat": 0.0, "bike_id": "22b54ca354fd96e8684985bed1cfd729", "rental_uris": {"ios": "https://dc.lft.to/lastmile_qr_scan", "android": "https://dc.lft.to/lastmile_qr_scan"}}, {"name": "30d1441b0b77f9e00453310fc02dca23", "type": "electric_scooter", "lat": 38.91919716666666, "is_reserved": 0, "lon": -77.0342275, "fusion_lon": 0.0, "is_disabled": 0, "fusion_lat": 0.0, "bike_id": "30d1441b0b77f9e00453310fc02dca23", "rental_uris": {"ios": "https://dc.lft.to/lastmile_qr_scan", "android": "https://dc.lft.to/lastmile_qr_scan"}}, {"name": "3f47fd41bfa951eb4408cdf0332802fc", "type": "electric_scooter", "lat": 38.9030195, "is_reserved": 0, "lon": -77.03982216666667, "fusion_lon": 0.0, "is_disabled": 0, "fusion_lat": 0.0, "bike_id": "3f47fd41bfa951eb4408cdf0332802fc", "rental_uris": {"ios": "https://dc.lft.to/lastmile_qr_scan", "android": "https://dc.lft.to/lastmile_qr_scan"}}, {"name": "2413606ff633e0b34423710238968330", "type": "electric_scooter", "lat": 38.91712533333333, "is_reserved": 0, "lon": -77.03338433333333, "fusion_lon": 0.0, "is_disabled": 0, "fusion_lat": 0.0, "bike_id": "2413606ff633e0b34423710238968330", "rental_uris": {"ios": "https://dc.lft.to/lastmile_qr_scan", "android": "https://dc.lft.to/lastmile_qr_scan"}}, {"name": "b9c82bbdf4bed52939e329d4cffbe6c9", "type": "electric_scooter", "lat": 38.93619233333333, "is_reserved": 0, "lon": -77.03218866666667, "fusion_lon": 0.0, "is_disabled": 0, "fusion_lat": 0.0, "bike_id": "b9c82bbdf4bed52939e329d4cffbe6c9", "rental_uris": {"ios": "https://dc.lft.to/lastmile_qr_scan", "android": "https://dc.lft.to/lastmile_qr_scan"}}, {"name": "d52dcb90f468bafdc085a42fcd536904", "type": "electric_scooter", "lat": 38.933516166666664, "is_reserved": 0, "lon": -77.0586745, "fusion_lon": 0.0, "is_disabled": 0, "fusion_lat": 0.0, "bike_id": "d52dcb90f468bafdc085a42fcd536904", "rental_uris": {"ios": "https://dc.lft.to/lastmile_qr_scan", "android": "https://dc.lft.to/lastmile_qr_scan"}}, {"name": "11d5a73814e58aaa2b37edb808f0782a", "type": "electric_scooter", "lat": 38.912999666666664, "is_reserved": 0, "lon": -77.061199, "fusion_lon": 0.0, "is_disabled": 0, "fusion_lat": 0.0, "bike_id": "11d5a73814e58aaa2b37edb808f0782a", "rental_uris": {"ios": "https://dc.lft.to/lastmile_qr_scan", "android": "https://dc.lft.to/lastmile_qr_scan"}}, {"name": "5c02f3951e2f6f0a1dbd8faecd4f75a7", "type": "electric_scooter", "lat": 38.920921166666666, "is_reserved": 0, "lon": -77.02598233333333, "fusion_lon": 0.0, "is_disabled": 0, "fusion_lat": 0.0, "bike_id": "5c02f3951e2f6f0a1dbd8faecd4f75a7", "rental_uris": {"ios": "https://dc.lft.to/lastmile_qr_scan", "android": "https://dc.lft.to/lastmile_qr_scan"}}, {"name": "e081278617b22b2468fd96db15c4781d", "type": "electric_scooter", "lat": 38.864378, "is_reserved": 0, "lon": -76.98009833333333, "fusion_lon": 0.0, "is_disabled": 0, "fusion_lat": 0.0, "bike_id": "e081278617b22b2468fd96db15c4781d", "rental_uris": {"ios": "https://dc.lft.to/lastmile_qr_scan", "android": "https://dc.lft.to/lastmile_qr_scan"}}, {"name": "65089b2a09f6908bfab990616fd9a1ce", "type": "electric_scooter", "lat": 38.9205955, "is_reserved": 0, "lon": -77.023565, "fusion_lon": 0.0, "is_disabled": 0, "fusion_lat": 0.0, "bike_id": "65089b2a09f6908bfab990616fd9a1ce", "rental_uris": {"ios": "https://dc.lft.to/lastmile_qr_scan", "android": "https://dc.lft.to/lastmile_qr_scan"}}, {"name": "86929d9858c1e83249dbc87d26cf7b3d", "type": "electric_scooter", "lat": 38.89853983333333, "is_reserved": 0, "lon": -77.042709, "fusion_lon": 0.0, "is_disabled": 0, "fusion_lat": 0.0, "bike_id": "86929d9858c1e83249dbc87d26cf7b3d", "rental_uris": {"ios": "https://dc.lft.to/lastmile_qr_scan", "android": "https://dc.lft.to/lastmile_qr_scan"}}, {"name": "d046be843835066dd37244c025c50ddc", "type": "electric_scooter", "lat": 38.908717333333335, "is_reserved": 0, "lon": -76.99954733333334, "fusion_lon": 0.0, "is_disabled": 0, "fusion_lat": 0.0, "bike_id": "d046be843835066dd37244c025c50ddc", "rental_uris": {"ios": "https://dc.lft.to/lastmile_qr_scan", "android": "https://dc.lft.to/lastmile_qr_scan"}}, {"name": "7de0ff33c201fba15b07f68b55d5402d", "type": "electric_scooter", "lat": 38.92582066666667, "is_reserved": 0, "lon": -77.05268166666667, "fusion_lon": 0.0, "is_disabled": 0, "fusion_lat": 0.0, "bike_id": "7de0ff33c201fba15b07f68b55d5402d", "rental_uris": {"ios": "https://dc.lft.to/lastmile_qr_scan", "android": "https://dc.lft.to/lastmile_qr_scan"}}, {"name": "152a3ee1fa954ef4d526c1ca805b3a51", "type": "electric_scooter", "lat": 38.934720166666665, "is_reserved": 0, "lon": -77.02935033333333, "fusion_lon": 0.0, "is_disabled": 0, "fusion_lat": 0.0, "bike_id": "152a3ee1fa954ef4d526c1ca805b3a51", "rental_uris": {"ios": "https://dc.lft.to/lastmile_qr_scan", "android": "https://dc.lft.to/lastmile_qr_scan"}}, {"name": "2e6bea716171f169bdb3d2a69853b493", "type": "electric_scooter", "lat": 38.937009333333336, "is_reserved": 0, "lon": -77.0560045, "fusion_lon": 0.0, "is_disabled": 0, "fusion_lat": 0.0, "bike_id": "2e6bea716171f169bdb3d2a69853b493", "rental_uris": {"ios": "https://dc.lft.to/lastmile_qr_scan", "android": "https://dc.lft.to/lastmile_qr_scan"}}, {"name": "c513c0aa888fbda104e0ce72a9745f78", "type": "electric_scooter", "lat": 38.93316333333333, "is_reserved": 0, "lon": -77.03768716666667, "fusion_lon": 0.0, "is_disabled": 0, "fusion_lat": 0.0, "bike_id": "c513c0aa888fbda104e0ce72a9745f78", "rental_uris": {"ios": "https://dc.lft.to/lastmile_qr_scan", "android": "https://dc.lft.to/lastmile_qr_scan"}}, {"name": "56173d37de40a9298768180fb64124c7", "type": "electric_scooter", "lat": 38.887229, "is_reserved": 0, "lon": -77.028296, "fusion_lon": 0.0, "is_disabled": 0, "fusion_lat": 0.0, "bike_id": "56173d37de40a9298768180fb64124c7", "rental_uris": {"ios": "https://dc.lft.to/lastmile_qr_scan", "android": "https://dc.lft.to/lastmile_qr_scan"}}, {"name": "46553b85af1fbf0117263b467b9816fd", "type": "electric_bike", "lat": 39.02940483333333, "is_reserved": 0, "lon": -77.04928233333334, "fusion_lon": 0.0, "is_disabled": 0, "fusion_lat": 0.0, "bike_id": "46553b85af1fbf0117263b467b9816fd", "rental_uris": {"ios": "https://dc.lft.to/lastmile_qr_scan", "android": "https://dc.lft.to/lastmile_qr_scan"}}, {"name": "bae5ebf160faf3e234884659a1fe1de1", "type": "electric_scooter", "lat": 38.91779566666666, "is_reserved": 0, "lon": -77.041015, "fusion_lon": 0.0, "is_disabled": 0, "fusion_lat": 0.0, "bike_id": "bae5ebf160faf3e234884659a1fe1de1", "rental_uris": {"ios": "https://dc.lft.to/lastmile_qr_scan", "android": "https://dc.lft.to/lastmile_qr_scan"}}, {"name": "03a6408297a9e0a2ff1e1de77abfe8a6", "type": "electric_scooter", "lat": 38.90629766666667, "is_reserved": 0, "lon": -77.05139616666666, "fusion_lon": 0.0, "is_disabled": 0, "fusion_lat": 0.0, "bike_id": "03a6408297a9e0a2ff1e1de77abfe8a6", "rental_uris": {"ios": "https://dc.lft.to/lastmile_qr_scan", "android": "https://dc.lft.to/lastmile_qr_scan"}}, {"name": "f09fb7ecc9cf1794da3c2736d3590d2b", "type": "electric_scooter", "lat": 38.968263, "is_reserved": 0, "lon": -77.0179115, "fusion_lon": 0.0, "is_disabled": 0, "fusion_lat": 0.0, "bike_id": "f09fb7ecc9cf1794da3c2736d3590d2b", "rental_uris": {"ios": "https://dc.lft.to/lastmile_qr_scan", "android": "https://dc.lft.to/lastmile_qr_scan"}}, {"name": "bc94edbd8cd96ed75b7e9da586773d69", "type": "electric_scooter", "lat": 38.865678, "is_reserved": 0, "lon": -76.98552216666667, "fusion_lon": 0.0, "is_disabled": 0, "fusion_lat": 0.0, "bike_id": "bc94edbd8cd96ed75b7e9da586773d69", "rental_uris": {"ios": "https://dc.lft.to/lastmile_qr_scan", "android": "https://dc.lft.to/lastmile_qr_scan"}}, {"name": "f8254feafc69266b6d05847290750223", "type": "electric_scooter", "lat": 38.930781833333334, "is_reserved": 0, "lon": -77.033935, "fusion_lon": 0.0, "is_disabled": 0, "fusion_lat": 0.0, "bike_id": "f8254feafc69266b6d05847290750223", "rental_uris": {"ios": "https://dc.lft.to/lastmile_qr_scan", "android": "https://dc.lft.to/lastmile_qr_scan"}}, {"name": "f7d7b2662ddf498cd98b23fa1b13e79c", "type": "electric_scooter", "lat": 38.9443995, "is_reserved": 0, "lon": -77.06348083333333, "fusion_lon": 0.0, "is_disabled": 0, "fusion_lat": 0.0, "bike_id": "f7d7b2662ddf498cd98b23fa1b13e79c", "rental_uris": {"ios": "https://dc.lft.to/lastmile_qr_scan", "android": "https://dc.lft.to/lastmile_qr_scan"}}, {"name": "76f1f0b48f9d87bd6da0d2cf51ba3864", "type": "electric_scooter", "lat": 38.900718, "is_reserved": 0, "lon": -76.9871415, "fusion_lon": 0.0, "is_disabled": 0, "fusion_lat": 0.0, "bike_id": "76f1f0b48f9d87bd6da0d2cf51ba3864", "rental_uris": {"ios": "https://dc.lft.to/lastmile_qr_scan", "android": "https://dc.lft.to/lastmile_qr_scan"}}, {"name": "801847f6d33ecd691abb838617ddf632", "type": "electric_scooter", "lat": 38.87346433333333, "is_reserved": 0, "lon": -77.01868533333334, "fusion_lon": 0.0, "is_disabled": 0, "fusion_lat": 0.0, "bike_id": "801847f6d33ecd691abb838617ddf632", "rental_uris": {"ios": "https://dc.lft.to/lastmile_qr_scan", "android": "https://dc.lft.to/lastmile_qr_scan"}}, {"name": "572be4a2d56c28f1b7ec142204616d59", "type": "electric_scooter", "lat": 38.944649166666665, "is_reserved": 0, "lon": -77.00657816666667, "fusion_lon": 0.0, "is_disabled": 0, "fusion_lat": 0.0, "bike_id": "572be4a2d56c28f1b7ec142204616d59", "rental_uris": {"ios": "https://dc.lft.to/lastmile_qr_scan", "android": "https://dc.lft.to/lastmile_qr_scan"}}, {"name": "f939be451c0efc5e144eedc2ed972043", "type": "electric_scooter", "lat": 38.884405, "is_reserved": 0, "lon": -77.02964216666666, "fusion_lon": 0.0, "is_disabled": 0, "fusion_lat": 0.0, "bike_id": "f939be451c0efc5e144eedc2ed972043", "rental_uris": {"ios": "https://dc.lft.to/lastmile_qr_scan", "android": "https://dc.lft.to/lastmile_qr_scan"}}, {"name": "64f57e4d2a34d8addaa32455fd830e66", "type": "electric_scooter", "lat": 38.8624455, "is_reserved": 0, "lon": -76.99496316666666, "fusion_lon": 0.0, "is_disabled": 0, "fusion_lat": 0.0, "bike_id": "64f57e4d2a34d8addaa32455fd830e66", "rental_uris": {"ios": "https://dc.lft.to/lastmile_qr_scan", "android": "https://dc.lft.to/lastmile_qr_scan"}}, {"name": "a373e50c2c7306702857eee782070e18", "type": "electric_scooter", "lat": 38.932461833333335, "is_reserved": 0, "lon": -77.03829233333333, "fusion_lon": 0.0, "is_disabled": 0, "fusion_lat": 0.0, "bike_id": "a373e50c2c7306702857eee782070e18", "rental_uris": {"ios": "https://dc.lft.to/lastmile_qr_scan", "android": "https://dc.lft.to/lastmile_qr_scan"}}, {"name": "e61bb3ade89d58059a13aaa92866dc59", "type": "electric_scooter", "lat": 38.8701005, "is_reserved": 0, "lon": -77.01227183333333, "fusion_lon": 0.0, "is_disabled": 0, "fusion_lat": 0.0, "bike_id": "e61bb3ade89d58059a13aaa92866dc59", "rental_uris": {"ios": "https://dc.lft.to/lastmile_qr_scan", "android": "https://dc.lft.to/lastmile_qr_scan"}}, {"name": "2bb79837c4d9528cb4715fc0c713ddc7", "type": "electric_scooter", "lat": 38.909372, "is_reserved": 0, "lon": -76.99974016666667, "fusion_lon": 0.0, "is_disabled": 0, "fusion_lat": 0.0, "bike_id": "2bb79837c4d9528cb4715fc0c713ddc7", "rental_uris": {"ios": "https://dc.lft.to/lastmile_qr_scan", "android": "https://dc.lft.to/lastmile_qr_scan"}}, {"name": "527a467ba48ef64c9b7b9656933012d6", "type": "electric_bike", "lat": 38.81338616666667, "is_reserved": 0, "lon": -77.05113633333333, "fusion_lon": 0.0, "is_disabled": 0, "fusion_lat": 0.0, "bike_id": "527a467ba48ef64c9b7b9656933012d6", "rental_uris": {"ios": "https://dc.lft.to/lastmile_qr_scan", "android": "https://dc.lft.to/lastmile_qr_scan"}}, {"name": "d69d236ba863079c9bae7a84d5e6e5d2", "type": "electric_bike", "lat": 38.869848833333336, "is_reserved": 0, "lon": -76.95990466666666, "fusion_lon": 0.0, "is_disabled": 0, "fusion_lat": 0.0, "bike_id": "d69d236ba863079c9bae7a84d5e6e5d2", "rental_uris": {"ios": "https://dc.lft.to/lastmile_qr_scan", "android": "https://dc.lft.to/lastmile_qr_scan"}}, {"name": "f967a7b04838df3ed323185ee8a70ffb", "type": "electric_bike", "lat": 38.985069333333335, "is_reserved": 0, "lon": -76.98201716666667, "fusion_lon": 0.0, "is_disabled": 0, "fusion_lat": 0.0, "bike_id": "f967a7b04838df3ed323185ee8a70ffb", "rental_uris": {"ios": "https://dc.lft.to/lastmile_qr_scan", "android": "https://dc.lft.to/lastmile_qr_scan"}}, {"name": "0e379277deda76ad8f3784d537e3f50b", "type": "electric_scooter", "lat": 38.93620283333333, "is_reserved": 0, "lon": -77.02247833333334, "fusion_lon": 0.0, "is_disabled": 0, "fusion_lat": 0.0, "bike_id": "0e379277deda76ad8f3784d537e3f50b", "rental_uris": {"ios": "https://dc.lft.to/lastmile_qr_scan", "android": "https://dc.lft.to/lastmile_qr_scan"}}, {"name": "a843d9780fa666a2ae0eef7554b00499", "type": "electric_scooter", "lat": 38.9031035, "is_reserved": 0, "lon": -77.03223766666666, "fusion_lon": 0.0, "is_disabled": 0, "fusion_lat": 0.0, "bike_id": "a843d9780fa666a2ae0eef7554b00499", "rental_uris": {"ios": "https://dc.lft.to/lastmile_qr_scan", "android": "https://dc.lft.to/lastmile_qr_scan"}}, {"name": "ce28ad75e302de438e278697658dc732", "type": "electric_scooter", "lat": 38.93279966666667, "is_reserved": 0, "lon": -77.03489683333333, "fusion_lon": 0.0, "is_disabled": 0, "fusion_lat": 0.0, "bike_id": "ce28ad75e302de438e278697658dc732", "rental_uris": {"ios": "https://dc.lft.to/lastmile_qr_scan", "android": "https://dc.lft.to/lastmile_qr_scan"}}, {"name": "b24f9e3bbbaa6ab1ea96c656bc0c4043", "type": "electric_scooter", "lat": 38.939538, "is_reserved": 0, "lon": -77.03260116666667, "fusion_lon": 0.0, "is_disabled": 0, "fusion_lat": 0.0, "bike_id": "b24f9e3bbbaa6ab1ea96c656bc0c4043", "rental_uris": {"ios": "https://dc.lft.to/lastmile_qr_scan", "android": "https://dc.lft.to/lastmile_qr_scan"}}, {"name": "1ecfaad955740eaaab59a28e6f66ef55", "type": "electric_bike", "lat": 38.807022333333336, "is_reserved": 0, "lon": -77.05948633333334, "fusion_lon": 0.0, "is_disabled": 0, "fusion_lat": 0.0, "bike_id": "1ecfaad955740eaaab59a28e6f66ef55", "rental_uris": {"ios": "https://dc.lft.to/lastmile_qr_scan", "android": "https://dc.lft.to/lastmile_qr_scan"}}, {"name": "2771cbfd52bab64effd172b5ee663ede", "type": "electric_scooter", "lat": 38.922419, "is_reserved": 0, "lon": -77.03521066666667, "fusion_lon": 0.0, "is_disabled": 0, "fusion_lat": 0.0, "bike_id": "2771cbfd52bab64effd172b5ee663ede", "rental_uris": {"ios": "https://dc.lft.to/lastmile_qr_scan", "android": "https://dc.lft.to/lastmile_qr_scan"}}, {"name": "2fc1d592b6f60376303dc3bd58f60543", "type": "electric_bike", "lat": 38.852242333333336, "is_reserved": 0, "lon": -77.129667, "fusion_lon": 0.0, "is_disabled": 0, "fusion_lat": 0.0, "bike_id": "2fc1d592b6f60376303dc3bd58f60543", "rental_uris": {"ios": "https://dc.lft.to/lastmile_qr_scan", "android": "https://dc.lft.to/lastmile_qr_scan"}}, {"name": "9c8953ee327473b5eca90a8c9a1bd923", "type": "electric_scooter", "lat": 38.90576383333333, "is_reserved": 0, "lon": -77.0627855, "fusion_lon": 0.0, "is_disabled": 0, "fusion_lat": 0.0, "bike_id": "9c8953ee327473b5eca90a8c9a1bd923", "rental_uris": {"ios": "https://dc.lft.to/lastmile_qr_scan", "android": "https://dc.lft.to/lastmile_qr_scan"}}, {"name": "e1f6dd3d7073460da5538531df0b6b4e", "type": "electric_scooter", "lat": 38.92491033333334, "is_reserved": 0, "lon": -77.02714183333333, "fusion_lon": 0.0, "is_disabled": 0, "fusion_lat": 0.0, "bike_id": "e1f6dd3d7073460da5538531df0b6b4e", "rental_uris": {"ios": "https://dc.lft.to/lastmile_qr_scan", "android": "https://dc.lft.to/lastmile_qr_scan"}}, {"name": "3f3c1f8b8c4f3e641baafa6b97caeaca", "type": "electric_bike", "lat": 38.866030333333335, "is_reserved": 0, "lon": -76.93232516666667, "fusion_lon": 0.0, "is_disabled": 0, "fusion_lat": 0.0, "bike_id": "3f3c1f8b8c4f3e641baafa6b97caeaca", "rental_uris": {"ios": "https://dc.lft.to/lastmile_qr_scan", "android": "https://dc.lft.to/lastmile_qr_scan"}}, {"name": "c0f7ede2603503476709538d710942d1", "type": "electric_scooter", "lat": 38.93951066666666, "is_reserved": 0, "lon": -77.03268916666667, "fusion_lon": 0.0, "is_disabled": 0, "fusion_lat": 0.0, "bike_id": "c0f7ede2603503476709538d710942d1", "rental_uris": {"ios": "https://dc.lft.to/lastmile_qr_scan", "android": "https://dc.lft.to/lastmile_qr_scan"}}, {"name": "d7f4e9f85d9f65eec0837c5bbefa3274", "type": "electric_scooter", "lat": 38.88301366666666, "is_reserved": 0, "lon": -77.0175575, "fusion_lon": 0.0, "is_disabled": 0, "fusion_lat": 0.0, "bike_id": "d7f4e9f85d9f65eec0837c5bbefa3274", "rental_uris": {"ios": "https://dc.lft.to/lastmile_qr_scan", "android": "https://dc.lft.to/lastmile_qr_scan"}}, {"name": "54a33ff483b4704cd81a9511b5d040bc", "type": "electric_bike", "lat": 38.984552, "is_reserved": 0, "lon": -76.95523566666667, "fusion_lon": 0.0, "is_disabled": 0, "fusion_lat": 0.0, "bike_id": "54a33ff483b4704cd81a9511b5d040bc", "rental_uris": {"ios": "https://dc.lft.to/lastmile_qr_scan", "android": "https://dc.lft.to/lastmile_qr_scan"}}, {"name": "8af046d08f80509b11e41f2b5fbb9488", "type": "electric_bike", "lat": 38.832421, "is_reserved": 0, "lon": -77.00728433333333, "fusion_lon": 0.0, "is_disabled": 0, "fusion_lat": 0.0, "bike_id": "8af046d08f80509b11e41f2b5fbb9488", "rental_uris": {"ios": "https://dc.lft.to/lastmile_qr_scan", "android": "https://dc.lft.to/lastmile_qr_scan"}}, {"name": "c1aa1ddf64fbeb5960031f4bdf534440", "type": "electric_scooter", "lat": 38.88361166666667, "is_reserved": 0, "lon": -76.98558716666666, "fusion_lon": 0.0, "is_disabled": 0, "fusion_lat": 0.0, "bike_id": "c1aa1ddf64fbeb5960031f4bdf534440", "rental_uris": {"ios": "https://dc.lft.to/lastmile_qr_scan", "android": "https://dc.lft.to/lastmile_qr_scan"}}, {"name": "6d379304c19bea4166de5039534bdd3f", "type": "electric_scooter", "lat": 38.8859895, "is_reserved": 0, "lon": -76.95269683333333, "fusion_lon": 0.0, "is_disabled": 0, "fusion_lat": 0.0, "bike_id": "6d379304c19bea4166de5039534bdd3f", "rental_uris": {"ios": "https://dc.lft.to/lastmile_qr_scan", "android": "https://dc.lft.to/lastmile_qr_scan"}}, {"name": "dad853665380851ea4ed7770881b2d6c", "type": "electric_scooter", "lat": 38.902795, "is_reserved": 0, "lon": -77.04061366666667, "fusion_lon": 0.0, "is_disabled": 0, "fusion_lat": 0.0, "bike_id": "dad853665380851ea4ed7770881b2d6c", "rental_uris": {"ios": "https://dc.lft.to/lastmile_qr_scan", "android": "https://dc.lft.to/lastmile_qr_scan"}}, {"name": "add7facbba5cf3c7386cadf033baf50e", "type": "electric_scooter", "lat": 38.927528, "is_reserved": 0, "lon": -77.053629, "fusion_lon": 0.0, "is_disabled": 0, "fusion_lat": 0.0, "bike_id": "add7facbba5cf3c7386cadf033baf50e", "rental_uris": {"ios": "https://dc.lft.to/lastmile_qr_scan", "android": "https://dc.lft.to/lastmile_qr_scan"}}, {"name": "4136978d3ab476e3b65f26b585be9bd4", "type": "electric_bike", "lat": 38.936929666666664, "is_reserved": 0, "lon": -77.056496, "fusion_lon": 0.0, "is_disabled": 0, "fusion_lat": 0.0, "bike_id": "4136978d3ab476e3b65f26b585be9bd4", "rental_uris": {"ios": "https://dc.lft.to/lastmile_qr_scan", "android": "https://dc.lft.to/lastmile_qr_scan"}}, {"name": "bfc28dd89cc2a27cbd78024eca63bd5c", "type": "electric_bike", "lat": 38.937033, "is_reserved": 0, "lon": -77.02978733333333, "fusion_lon": 0.0, "is_disabled": 0, "fusion_lat": 0.0, "bike_id": "bfc28dd89cc2a27cbd78024eca63bd5c", "rental_uris": {"ios": "https://dc.lft.to/lastmile_qr_scan", "android": "https://dc.lft.to/lastmile_qr_scan"}}, {"name": "d5c72737451eb310f546f52efba9ae0e", "type": "electric_scooter", "lat": 38.90630066666667, "is_reserved": 0, "lon": -76.98318766666667, "fusion_lon": 0.0, "is_disabled": 0, "fusion_lat": 0.0, "bike_id": "d5c72737451eb310f546f52efba9ae0e", "rental_uris": {"ios": "https://dc.lft.to/lastmile_qr_scan", "android": "https://dc.lft.to/lastmile_qr_scan"}}, {"name": "9bf05c6d4189e205d538a785414499e2", "type": "electric_scooter", "lat": 38.86095183333333, "is_reserved": 0, "lon": -76.983793, "fusion_lon": 0.0, "is_disabled": 0, "fusion_lat": 0.0, "bike_id": "9bf05c6d4189e205d538a785414499e2", "rental_uris": {"ios": "https://dc.lft.to/lastmile_qr_scan", "android": "https://dc.lft.to/lastmile_qr_scan"}}, {"name": "6a1c044a8f81e6b6433805f39835cfe4", "type": "electric_scooter", "lat": 38.8910415, "is_reserved": 0, "lon": -76.98707716666667, "fusion_lon": 0.0, "is_disabled": 0, "fusion_lat": 0.0, "bike_id": "6a1c044a8f81e6b6433805f39835cfe4", "rental_uris": {"ios": "https://dc.lft.to/lastmile_qr_scan", "android": "https://dc.lft.to/lastmile_qr_scan"}}, {"name": "af69fd458455cb1b998052a1e9da3956", "type": "electric_bike", "lat": 38.870870833333335, "is_reserved": 0, "lon": -77.01207383333333, "fusion_lon": 0.0, "is_disabled": 0, "fusion_lat": 0.0, "bike_id": "af69fd458455cb1b998052a1e9da3956", "rental_uris": {"ios": "https://dc.lft.to/lastmile_qr_scan", "android": "https://dc.lft.to/lastmile_qr_scan"}}, {"name": "3c5fae62f9e779959c70ac7eef460d98", "type": "electric_scooter", "lat": 38.90247683333333, "is_reserved": 0, "lon": -77.00210133333333, "fusion_lon": 0.0, "is_disabled": 0, "fusion_lat": 0.0, "bike_id": "3c5fae62f9e779959c70ac7eef460d98", "rental_uris": {"ios": "https://dc.lft.to/lastmile_qr_scan", "android": "https://dc.lft.to/lastmile_qr_scan"}}, {"name": "47e1b5d23845f26f24849a1184b8052e", "type": "electric_scooter", "lat": 38.919315, "is_reserved": 0, "lon": -77.02480116666666, "fusion_lon": 0.0, "is_disabled": 0, "fusion_lat": 0.0, "bike_id": "47e1b5d23845f26f24849a1184b8052e", "rental_uris": {"ios": "https://dc.lft.to/lastmile_qr_scan", "android": "https://dc.lft.to/lastmile_qr_scan"}}, {"name": "28665283b65cacf8cf245a4ca5f59f39", "type": "electric_bike", "lat": 38.896895, "is_reserved": 0, "lon": -76.94067433333333, "fusion_lon": 0.0, "is_disabled": 0, "fusion_lat": 0.0, "bike_id": "28665283b65cacf8cf245a4ca5f59f39", "rental_uris": {"ios": "https://dc.lft.to/lastmile_qr_scan", "android": "https://dc.lft.to/lastmile_qr_scan"}}, {"name": "bd08f5349223f5a9bc8a557c3368ee9c", "type": "electric_scooter", "lat": 38.95641416666667, "is_reserved": 0, "lon": -77.0254625, "fusion_lon": 0.0, "is_disabled": 0, "fusion_lat": 0.0, "bike_id": "bd08f5349223f5a9bc8a557c3368ee9c", "rental_uris": {"ios": "https://dc.lft.to/lastmile_qr_scan", "android": "https://dc.lft.to/lastmile_qr_scan"}}, {"name": "366f8a142b864b956823bf51053083f3", "type": "electric_bike", "lat": 38.88650466666667, "is_reserved": 0, "lon": -76.9547685, "fusion_lon": 0.0, "is_disabled": 0, "fusion_lat": 0.0, "bike_id": "366f8a142b864b956823bf51053083f3", "rental_uris": {"ios": "https://dc.lft.to/lastmile_qr_scan", "android": "https://dc.lft.to/lastmile_qr_scan"}}, {"name": "57d8b40f6c18a97bf41894cacca17bd3", "type": "electric_scooter", "lat": 38.88330533333333, "is_reserved": 0, "lon": -77.0177405, "fusion_lon": 0.0, "is_disabled": 0, "fusion_lat": 0.0, "bike_id": "57d8b40f6c18a97bf41894cacca17bd3", "rental_uris": {"ios": "https://dc.lft.to/lastmile_qr_scan", "android": "https://dc.lft.to/lastmile_qr_scan"}}, {"name": "6102e619fdace848f4b0d305ee2cc217", "type": "electric_scooter", "lat": 38.90829733333333, "is_reserved": 0, "lon": -76.999698, "fusion_lon": 0.0, "is_disabled": 0, "fusion_lat": 0.0, "bike_id": "6102e619fdace848f4b0d305ee2cc217", "rental_uris": {"ios": "https://dc.lft.to/lastmile_qr_scan", "android": "https://dc.lft.to/lastmile_qr_scan"}}, {"name": "5cabbf65456478ac6b4d51a4f67f32dc", "type": "electric_scooter", "lat": 38.8642335, "is_reserved": 0, "lon": -76.98576933333334, "fusion_lon": 0.0, "is_disabled": 0, "fusion_lat": 0.0, "bike_id": "5cabbf65456478ac6b4d51a4f67f32dc", "rental_uris": {"ios": "https://dc.lft.to/lastmile_qr_scan", "android": "https://dc.lft.to/lastmile_qr_scan"}}, {"name": "91d51a015121bba6a4170eeefa69ef53", "type": "electric_scooter", "lat": 38.933505833333335, "is_reserved": 0, "lon": -77.03431433333333, "fusion_lon": 0.0, "is_disabled": 0, "fusion_lat": 0.0, "bike_id": "91d51a015121bba6a4170eeefa69ef53", "rental_uris": {"ios": "https://dc.lft.to/lastmile_qr_scan", "android": "https://dc.lft.to/lastmile_qr_scan"}}, {"name": "23dc15287d3627187b413113ae2f3014", "type": "electric_bike", "lat": 38.894593666666665, "is_reserved": 0, "lon": -76.970385, "fusion_lon": 0.0, "is_disabled": 0, "fusion_lat": 0.0, "bike_id": "23dc15287d3627187b413113ae2f3014", "rental_uris": {"ios": "https://dc.lft.to/lastmile_qr_scan", "android": "https://dc.lft.to/lastmile_qr_scan"}}, {"name": "2391c6eeddc2a34e3689f1e88c186536", "type": "electric_scooter", "lat": 38.92599716666667, "is_reserved": 0, "lon": -77.021178, "fusion_lon": 0.0, "is_disabled": 0, "fusion_lat": 0.0, "bike_id": "2391c6eeddc2a34e3689f1e88c186536", "rental_uris": {"ios": "https://dc.lft.to/lastmile_qr_scan", "android": "https://dc.lft.to/lastmile_qr_scan"}}, {"name": "fee6f498f6d13bccfc6e2cdeca380ddd", "type": "electric_scooter", "lat": 38.907235, "is_reserved": 0, "lon": -77.02501816666667, "fusion_lon": 0.0, "is_disabled": 0, "fusion_lat": 0.0, "bike_id": "fee6f498f6d13bccfc6e2cdeca380ddd", "rental_uris": {"ios": "https://dc.lft.to/lastmile_qr_scan", "android": "https://dc.lft.to/lastmile_qr_scan"}}, {"name": "76ddb4dec87a3e54d808b8b7cb67a74c", "type": "electric_scooter", "lat": 38.91768666666667, "is_reserved": 0, "lon": -77.02718283333333, "fusion_lon": 0.0, "is_disabled": 0, "fusion_lat": 0.0, "bike_id": "76ddb4dec87a3e54d808b8b7cb67a74c", "rental_uris": {"ios": "https://dc.lft.to/lastmile_qr_scan", "android": "https://dc.lft.to/lastmile_qr_scan"}}, {"name": "6853347219a1b456dc5c067ebc80997a", "type": "electric_scooter", "lat": 38.93369716666667, "is_reserved": 0, "lon": -77.05721983333333, "fusion_lon": 0.0, "is_disabled": 0, "fusion_lat": 0.0, "bike_id": "6853347219a1b456dc5c067ebc80997a", "rental_uris": {"ios": "https://dc.lft.to/lastmile_qr_scan", "android": "https://dc.lft.to/lastmile_qr_scan"}}, {"name": "ff841e24c82d12898175e007de04cf39", "type": "electric_scooter", "lat": 38.892388833333335, "is_reserved": 0, "lon": -77.01524066666667, "fusion_lon": 0.0, "is_disabled": 0, "fusion_lat": 0.0, "bike_id": "ff841e24c82d12898175e007de04cf39", "rental_uris": {"ios": "https://dc.lft.to/lastmile_qr_scan", "android": "https://dc.lft.to/lastmile_qr_scan"}}, {"name": "085121667f796c041b5cbfd04bd0be51", "type": "electric_scooter", "lat": 38.931035, "is_reserved": 0, "lon": -77.02547616666666, "fusion_lon": 0.0, "is_disabled": 0, "fusion_lat": 0.0, "bike_id": "085121667f796c041b5cbfd04bd0be51", "rental_uris": {"ios": "https://dc.lft.to/lastmile_qr_scan", "android": "https://dc.lft.to/lastmile_qr_scan"}}, {"name": "37f496bbb4578a9610f84edecbe8464b", "type": "electric_bike", "lat": 38.838281, "is_reserved": 0, "lon": -76.99679383333333, "fusion_lon": 0.0, "is_disabled": 0, "fusion_lat": 0.0, "bike_id": "37f496bbb4578a9610f84edecbe8464b", "rental_uris": {"ios": "https://dc.lft.to/lastmile_qr_scan", "android": "https://dc.lft.to/lastmile_qr_scan"}}, {"name": "069503fd32a13372b362f5c03b97a05a", "type": "electric_scooter", "lat": 38.923630833333334, "is_reserved": 0, "lon": -77.0531275, "fusion_lon": 0.0, "is_disabled": 0, "fusion_lat": 0.0, "bike_id": "069503fd32a13372b362f5c03b97a05a", "rental_uris": {"ios": "https://dc.lft.to/lastmile_qr_scan", "android": "https://dc.lft.to/lastmile_qr_scan"}}, {"name": "8798fba6ebcffedda6fd62847fbae099", "type": "electric_scooter", "lat": 38.93290916666667, "is_reserved": 0, "lon": -77.039802, "fusion_lon": 0.0, "is_disabled": 0, "fusion_lat": 0.0, "bike_id": "8798fba6ebcffedda6fd62847fbae099", "rental_uris": {"ios": "https://dc.lft.to/lastmile_qr_scan", "android": "https://dc.lft.to/lastmile_qr_scan"}}, {"name": "117dc37e4a16af4572fadce59aefeb01", "type": "electric_scooter", "lat": 38.8974385, "is_reserved": 0, "lon": -76.93846616666667, "fusion_lon": 0.0, "is_disabled": 0, "fusion_lat": 0.0, "bike_id": "117dc37e4a16af4572fadce59aefeb01", "rental_uris": {"ios": "https://dc.lft.to/lastmile_qr_scan", "android": "https://dc.lft.to/lastmile_qr_scan"}}, {"name": "eff38538939a4a9298a84861ac1340f0", "type": "electric_scooter", "lat": 38.8652755, "is_reserved": 0, "lon": -76.99024666666666, "fusion_lon": 0.0, "is_disabled": 0, "fusion_lat": 0.0, "bike_id": "eff38538939a4a9298a84861ac1340f0", "rental_uris": {"ios": "https://dc.lft.to/lastmile_qr_scan", "android": "https://dc.lft.to/lastmile_qr_scan"}}, {"name": "eb7853174e80563a91be078de71bf078", "type": "electric_scooter", "lat": 38.89460416666667, "is_reserved": 0, "lon": -77.01923483333333, "fusion_lon": 0.0, "is_disabled": 0, "fusion_lat": 0.0, "bike_id": "eb7853174e80563a91be078de71bf078", "rental_uris": {"ios": "https://dc.lft.to/lastmile_qr_scan", "android": "https://dc.lft.to/lastmile_qr_scan"}}, {"name": "e12298c6ae5f58bdb0178c7f1af1b55d", "type": "electric_scooter", "lat": 38.886907, "is_reserved": 0, "lon": -76.9576155, "fusion_lon": 0.0, "is_disabled": 0, "fusion_lat": 0.0, "bike_id": "e12298c6ae5f58bdb0178c7f1af1b55d", "rental_uris": {"ios": "https://dc.lft.to/lastmile_qr_scan", "android": "https://dc.lft.to/lastmile_qr_scan"}}, {"name": "3727431f8dba83cfc7a7f2d652fbea96", "type": "electric_scooter", "lat": 38.906670166666665, "is_reserved": 0, "lon": -77.04289566666667, "fusion_lon": 0.0, "is_disabled": 0, "fusion_lat": 0.0, "bike_id": "3727431f8dba83cfc7a7f2d652fbea96", "rental_uris": {"ios": "https://dc.lft.to/lastmile_qr_scan", "android": "https://dc.lft.to/lastmile_qr_scan"}}, {"name": "ffd7106bf062fb54658d52d5fe490746", "type": "electric_scooter", "lat": 38.94322616666667, "is_reserved": 0, "lon": -77.05927833333334, "fusion_lon": 0.0, "is_disabled": 0, "fusion_lat": 0.0, "bike_id": "ffd7106bf062fb54658d52d5fe490746", "rental_uris": {"ios": "https://dc.lft.to/lastmile_qr_scan", "android": "https://dc.lft.to/lastmile_qr_scan"}}, {"name": "8951f00aef8082fadcd69e6ab4157585", "type": "electric_scooter", "lat": 38.86572683333333, "is_reserved": 0, "lon": -76.98950366666666, "fusion_lon": 0.0, "is_disabled": 0, "fusion_lat": 0.0, "bike_id": "8951f00aef8082fadcd69e6ab4157585", "rental_uris": {"ios": "https://dc.lft.to/lastmile_qr_scan", "android": "https://dc.lft.to/lastmile_qr_scan"}}, {"name": "a6f31727a39a4e4122684217833e5275", "type": "electric_scooter", "lat": 38.93068266666667, "is_reserved": 0, "lon": -77.03947716666667, "fusion_lon": 0.0, "is_disabled": 0, "fusion_lat": 0.0, "bike_id": "a6f31727a39a4e4122684217833e5275", "rental_uris": {"ios": "https://dc.lft.to/lastmile_qr_scan", "android": "https://dc.lft.to/lastmile_qr_scan"}}, {"name": "acc0a1d97733d9a2ffee1fc59dcb36a0", "type": "electric_bike", "lat": 38.884044, "is_reserved": 0, "lon": -77.04644633333334, "fusion_lon": 0.0, "is_disabled": 0, "fusion_lat": 0.0, "bike_id": "acc0a1d97733d9a2ffee1fc59dcb36a0", "rental_uris": {"ios": "https://dc.lft.to/lastmile_qr_scan", "android": "https://dc.lft.to/lastmile_qr_scan"}}, {"name": "1deeef2a11dad050e5aa4709b5de1ed4", "type": "electric_bike", "lat": 38.851602666666665, "is_reserved": 0, "lon": -77.12879383333333, "fusion_lon": 0.0, "is_disabled": 0, "fusion_lat": 0.0, "bike_id": "1deeef2a11dad050e5aa4709b5de1ed4", "rental_uris": {"ios": "https://dc.lft.to/lastmile_qr_scan", "android": "https://dc.lft.to/lastmile_qr_scan"}}, {"name": "32c2ca4c0af69d9df2ccd644c85f8a05", "type": "electric_scooter", "lat": 38.899235, "is_reserved": 0, "lon": -76.93384266666666, "fusion_lon": 0.0, "is_disabled": 0, "fusion_lat": 0.0, "bike_id": "32c2ca4c0af69d9df2ccd644c85f8a05", "rental_uris": {"ios": "https://dc.lft.to/lastmile_qr_scan", "android": "https://dc.lft.to/lastmile_qr_scan"}}, {"name": "de5fa2be3094d3e75f66e099616a8eb3", "type": "electric_scooter", "lat": 38.862506333333336, "is_reserved": 0, "lon": -76.9950505, "fusion_lon": 0.0, "is_disabled": 0, "fusion_lat": 0.0, "bike_id": "de5fa2be3094d3e75f66e099616a8eb3", "rental_uris": {"ios": "https://dc.lft.to/lastmile_qr_scan", "android": "https://dc.lft.to/lastmile_qr_scan"}}, {"name": "c088225a6d4f3f6942092f895caca2a0", "type": "electric_scooter", "lat": 38.924923166666666, "is_reserved": 0, "lon": -77.02713466666667, "fusion_lon": 0.0, "is_disabled": 0, "fusion_lat": 0.0, "bike_id": "c088225a6d4f3f6942092f895caca2a0", "rental_uris": {"ios": "https://dc.lft.to/lastmile_qr_scan", "android": "https://dc.lft.to/lastmile_qr_scan"}}, {"name": "15d8e57c3fa6710c4242f43afc25bc10", "type": "electric_scooter", "lat": 38.93096766666667, "is_reserved": 0, "lon": -77.03672966666667, "fusion_lon": 0.0, "is_disabled": 0, "fusion_lat": 0.0, "bike_id": "15d8e57c3fa6710c4242f43afc25bc10", "rental_uris": {"ios": "https://dc.lft.to/lastmile_qr_scan", "android": "https://dc.lft.to/lastmile_qr_scan"}}, {"name": "0e03d9d693c16b6ad806eaf6be5a7220", "type": "electric_bike", "lat": 38.934629, "is_reserved": 0, "lon": -77.03026633333333, "fusion_lon": 0.0, "is_disabled": 0, "fusion_lat": 0.0, "bike_id": "0e03d9d693c16b6ad806eaf6be5a7220", "rental_uris": {"ios": "https://dc.lft.to/lastmile_qr_scan", "android": "https://dc.lft.to/lastmile_qr_scan"}}, {"name": "463af471444c57eee5086673297e5346", "type": "electric_scooter", "lat": 38.9573595, "is_reserved": 0, "lon": -77.02401866666666, "fusion_lon": 0.0, "is_disabled": 0, "fusion_lat": 0.0, "bike_id": "463af471444c57eee5086673297e5346", "rental_uris": {"ios": "https://dc.lft.to/lastmile_qr_scan", "android": "https://dc.lft.to/lastmile_qr_scan"}}, {"name": "8e5a67d79689242b7a522c687414bec1", "type": "electric_bike", "lat": 38.911885166666664, "is_reserved": 0, "lon": -77.002819, "fusion_lon": 0.0, "is_disabled": 0, "fusion_lat": 0.0, "bike_id": "8e5a67d79689242b7a522c687414bec1", "rental_uris": {"ios": "https://dc.lft.to/lastmile_qr_scan", "android": "https://dc.lft.to/lastmile_qr_scan"}}, {"name": "b7ff2483b9cb46613fc1f6d27df242f4", "type": "electric_scooter", "lat": 38.92234233333333, "is_reserved": 0, "lon": -77.04618266666667, "fusion_lon": 0.0, "is_disabled": 0, "fusion_lat": 0.0, "bike_id": "b7ff2483b9cb46613fc1f6d27df242f4", "rental_uris": {"ios": "https://dc.lft.to/lastmile_qr_scan", "android": "https://dc.lft.to/lastmile_qr_scan"}}, {"name": "251c72cc9a08ed6e6ce84be4ad788ac9", "type": "electric_scooter", "lat": 38.90243533333334, "is_reserved": 0, "lon": -76.979295, "fusion_lon": 0.0, "is_disabled": 0, "fusion_lat": 0.0, "bike_id": "251c72cc9a08ed6e6ce84be4ad788ac9", "rental_uris": {"ios": "https://dc.lft.to/lastmile_qr_scan", "android": "https://dc.lft.to/lastmile_qr_scan"}}, {"name": "9638d56782676091e414c6cc16675f7a", "type": "electric_scooter", "lat": 38.901352333333335, "is_reserved": 0, "lon": -77.04481233333334, "fusion_lon": 0.0, "is_disabled": 0, "fusion_lat": 0.0, "bike_id": "9638d56782676091e414c6cc16675f7a", "rental_uris": {"ios": "https://dc.lft.to/lastmile_qr_scan", "android": "https://dc.lft.to/lastmile_qr_scan"}}, {"name": "5c5192194114e60b6dbfad77386dbb45", "type": "electric_scooter", "lat": 38.894796, "is_reserved": 0, "lon": -76.98409833333334, "fusion_lon": 0.0, "is_disabled": 0, "fusion_lat": 0.0, "bike_id": "5c5192194114e60b6dbfad77386dbb45", "rental_uris": {"ios": "https://dc.lft.to/lastmile_qr_scan", "android": "https://dc.lft.to/lastmile_qr_scan"}}, {"name": "d9700e8bae5c5a73596b9443714fbd54", "type": "electric_scooter", "lat": 38.9421135, "is_reserved": 0, "lon": -77.03594666666666, "fusion_lon": 0.0, "is_disabled": 0, "fusion_lat": 0.0, "bike_id": "d9700e8bae5c5a73596b9443714fbd54", "rental_uris": {"ios": "https://dc.lft.to/lastmile_qr_scan", "android": "https://dc.lft.to/lastmile_qr_scan"}}, {"name": "03b3eba84e2a45e3d66023b6bc329444", "type": "electric_scooter", "lat": 38.90359183333333, "is_reserved": 0, "lon": -77.04011683333333, "fusion_lon": 0.0, "is_disabled": 0, "fusion_lat": 0.0, "bike_id": "03b3eba84e2a45e3d66023b6bc329444", "rental_uris": {"ios": "https://dc.lft.to/lastmile_qr_scan", "android": "https://dc.lft.to/lastmile_qr_scan"}}, {"name": "a58063efa167ca7985165b0c0050237b", "type": "electric_scooter", "lat": 38.92125716666666, "is_reserved": 0, "lon": -77.03658516666667, "fusion_lon": 0.0, "is_disabled": 0, "fusion_lat": 0.0, "bike_id": "a58063efa167ca7985165b0c0050237b", "rental_uris": {"ios": "https://dc.lft.to/lastmile_qr_scan", "android": "https://dc.lft.to/lastmile_qr_scan"}},