{"data": {"bikes": [{"rental_uris": {"ios": "https://dc.lft.to/lastmile_qr_scan", "android": "https://dc.lft.to/lastmile_qr_scan"}, "type": "electric_scooter", "name": "7a0744f324e19519ab31c4fb258b3175", "is_reserved": 0, "lon": -76.94828216666667, "is_disabled": 0, "fusion_lat": 0.0, "lat": 38.8851605, "bike_id": "7a0744f324e19519ab31c4fb258b3175", "fusion_lon": 0.0}, {"rental_uris": {"ios": "https://dc.lft.to/lastmile_qr_scan", "android": "https://dc.lft.to/lastmile_qr_scan"}, "type": "electric_scooter", "name": "e671e706e515bbce3a25a2350083edaf", "is_reserved": 0, "lon": -77.03464016666666, "is_disabled": 0, "fusion_lat": 0.0, "lat": 38.935352, "bike_id": "e671e706e515bbce3a25a2350083edaf", "fusion_lon": 0.0}, {"rental_uris": {"ios": "https://dc.lft.to/lastmile_qr_scan", "android": "https://dc.lft.to/lastmile_qr_scan"}, "type": "electric_scooter", "name": "68501a3e4ab57f423fe5a52b108c5de4", "is_reserved": 0, "lon": -77.04682416666667, "is_disabled": 0, "fusion_lat": 0.0, "lat": 38.89225166666667, "bike_id": "68501a3e4ab57f423fe5a52b108c5de4", "fusion_lon": 0.0}, {"rental_uris": {"ios": "https://dc.lft.to/lastmile_qr_scan", "android": "https://dc.lft.to/lastmile_qr_scan"}, "type": "electric_scooter", "name": "3b55964f8514ddf8ad9bff24c1d081d5", "is_reserved": 0, "lon": -77.06118783333334, "is_disabled": 0, "fusion_lat": 0.0, "lat": 38.9061615, "bike_id": "3b55964f8514ddf8ad9bff24c1d081d5", "fusion_lon": 0.0}, {"rental_uris": {"ios": "https://dc.lft.to/lastmile_qr_scan", "android": "https://dc.lft.to/lastmile_qr_scan"}, "type": "electric_scooter", "name": "4d21c576ce07d44e5c111e61afa870d8", "is_reserved": 0, "lon": -77.01075666666667, "is_disabled": 0, "fusion_lat": 0.0, "lat": 38.89412816666667, "bike_id": "4d21c576ce07d44e5c111e61afa870d8", "fusion_lon": 0.0}, {"rental_uris": {"ios": "https://dc.lft.to/lastmile_qr_scan", "android": "https://dc.lft.to/lastmile_qr_scan"}, "type": "electric_scooter", "name": "25aa07f9bd9df4d7556a1cbc43ac0942", "is_reserved": 0, "lon": -77.02788916666667, "is_disabled": 0, "fusion_lat": 0.0, "lat": 38.898754833333335, "bike_id": "25aa07f9bd9df4d7556a1cbc43ac0942", "fusion_lon": 0.0}, {"rental_uris": {"ios": "https://dc.lft.to/lastmile_qr_scan", "android": "https://dc.lft.to/lastmile_qr_scan"}, "type": "electric_scooter", "name": "0d39bff9dba6c64112d563dc7d2dba12", "is_reserved": 0, "lon": -77.019436, "is_disabled": 0, "fusion_lat": 0.0, "lat": 38.947017, "bike_id": "0d39bff9dba6c64112d563dc7d2dba12", "fusion_lon": 0.0}, {"rental_uris": {"ios": "https://dc.lft.to/lastmile_qr_scan", "android": "https://dc.lft.to/lastmile_qr_scan"}, "type": "electric_scooter", "name": "c96d39cae539434ec38fa8d2bf60be47", "is_reserved": 0, "lon": -77.018994, "is_disabled": 0, "fusion_lat": 0.0, "lat": 38.903401, "bike_id": "c96d39cae539434ec38fa8d2bf60be47", "fusion_lon": 0.0}, {"rental_uris": {"ios": "https://dc.lft.to/lastmile_qr_scan", "android": "https://dc.lft.to/lastmile_qr_scan"}, "type": "electric_scooter", "name": "6ef2d0ef999249918cee21902c5192fc", "is_reserved": 0, "lon": -77.00778616666666, "is_disabled": 0, "fusion_lat": 0.0, "lat": 38.95243083333333, "bike_id": "6ef2d0ef999249918cee21902c5192fc", "fusion_lon": 0.0}, {"rental_uris": {"ios": "https://dc.lft.to/lastmile_qr_scan", "android": "https://dc.lft.to/lastmile_qr_scan"}, "type": "electric_scooter", "name": "8c84b3852847f9f27bc8879e1bc84f5f", "is_reserved": 0, "lon": -77.00155466666666, "is_disabled": 0, "fusion_lat": 0.0, "lat": 38.82137433333333, "bike_id": "8c84b3852847f9f27bc8879e1bc84f5f", "fusion_lon": 0.0}, {"rental_uris": {"ios": "https://dc.lft.to/lastmile_qr_scan", "android": "https://dc.lft.to/lastmile_qr_scan"}, "type": "electric_bike", "name": "a49f2803ddd3e19f36c44aab1afc421d", "is_reserved": 0, "lon": -76.97540966666666, "is_disabled": 0, "fusion_lat": 0.0, "lat": 38.904156, "bike_id": "a49f2803ddd3e19f36c44aab1afc421d", "fusion_lon": 0.0}, {"rental_uris": {"ios": "https://dc.lft.to/lastmile_qr_scan", "android": "https://dc.lft.to/lastmile_qr_scan"}, "type": "electric_scooter", "name": "c0902c11c815e073b2b414cfb4c25fe0", "is_reserved": 0, "lon": -76.93043816666666, "is_disabled": 0, "fusion_lat": 0.0, "lat": 38.88391266666667, "bike_id": "c0902c11c815e073b2b414cfb4c25fe0", "fusion_lon": 0.0}, {"rental_uris": {"ios": "https://dc.lft.to/lastmile_qr_scan", "android": "https://dc.lft.to/lastmile_qr_scan"}, "type": "electric_bike", "name": "7898ddbc87f30c765e195a8e1fbddb7e", "is_reserved": 0, "lon": -76.95159383333333, "is_disabled": 0, "fusion_lat": 0.0, "lat": 39.08434, "bike_id": "7898ddbc87f30c765e195a8e1fbddb7e", "fusion_lon": 0.0}, {"rental_uris": {"ios": "https://dc.lft.to/lastmile_qr_scan", "android": "https://dc.lft.to/lastmile_qr_scan"}, "type": "electric_scooter", "name": "442ed3a46512facb183103f33b98a8f1", "is_reserved": 0, "lon": -77.0201525, "is_disabled": 0, "fusion_lat": 0.0, "lat": 38.892136666666666, "bike_id": "442ed3a46512facb183103f33b98a8f1", "fusion_lon": 0.0}, {"rental_uris": {"ios": "https://dc.lft.to/lastmile_qr_scan", "android": "https://dc.lft.to/lastmile_qr_scan"}, "type": "electric_scooter", "name": "b1cb39c36b580f4b179d65d05edfd1a8", "is_reserved": 0, "lon": -77.03839433333333, "is_disabled": 0, "fusion_lat": 0.0, "lat": 38.911005833333334, "bike_id": "b1cb39c36b580f4b179d65d05edfd1a8", "fusion_lon": 0.0}, {"rental_uris": {"ios": "https://dc.lft.to/lastmile_qr_scan", "android": "https://dc.lft.to/lastmile_qr_scan"}, "type": "electric_scooter", "name": "8d344c3aab5d0cde5dc29929458bc955", "is_reserved": 0, "lon": -77.02803083333333, "is_disabled": 0, "fusion_lat": 0.0, "lat": 38.90739666666666, "bike_id": "8d344c3aab5d0cde5dc29929458bc955", "fusion_lon": 0.0}, {"rental_uris": {"ios": "https://dc.lft.to/lastmile_qr_scan", "android": "https://dc.lft.to/lastmile_qr_scan"}, "type": "electric_scooter", "name": "e1b05afa23db93445b90a171d0d5f85b", "is_reserved": 0, "lon": -77.03151066666666, "is_disabled": 0, "fusion_lat": 0.0, "lat": 38.919179666666665, "bike_id": "e1b05afa23db93445b90a171d0d5f85b", "fusion_lon": 0.0}, {"rental_uris": {"ios": "https://dc.lft.to/lastmile_qr_scan", "android": "https://dc.lft.to/lastmile_qr_scan"}, "type": "electric_scooter", "name": "f6f459d73712b26c1e1b6845ef77a6f3", "is_reserved": 0, "lon": -77.00540533333333, "is_disabled": 0, "fusion_lat": 0.0, "lat": 38.900286333333334, "bike_id": "f6f459d73712b26c1e1b6845ef77a6f3", "fusion_lon": 0.0}, {"rental_uris": {"ios": "https://dc.lft.to/lastmile_qr_scan", "android": "https://dc.lft.to/lastmile_qr_scan"}, "type": "electric_scooter", "name": "17cf6f8c2efb3ee4fc07809d53f8b440", "is_reserved": 0, "lon": -77.04051533333333, "is_disabled": 0, "fusion_lat": 0.0, "lat": 38.904305, "bike_id": "17cf6f8c2efb3ee4fc07809d53f8b440", "fusion_lon": 0.0}, {"rental_uris": {"ios": "https://dc.lft.to/lastmile_qr_scan", "android": "https://dc.lft.to/lastmile_qr_scan"}, "type": "electric_scooter", "name": "0f783c92b6df79233681c938dfbbb817", "is_reserved": 0, "lon": -77.02799083333333, "is_disabled": 0, "fusion_lat": 0.0, "lat": 38.907372333333335, "bike_id": "0f783c92b6df79233681c938dfbbb817", "fusion_lon": 0.0}, {"rental_uris": {"ios": "https://dc.lft.to/lastmile_qr_scan", "android": "https://dc.lft.to/lastmile_qr_scan"}, "type": "electric_scooter", "name": "a33e0aa5fff5024e192fa6dfe37dcc3c", "is_reserved": 0, "lon": -77.04402466666667, "is_disabled": 0, "fusion_lat": 0.0, "lat": 38.9057545, "bike_id": "a33e0aa5fff5024e192fa6dfe37dcc3c", "fusion_lon": 0.0}, {"rental_uris": {"ios": "https://dc.lft.to/lastmile_qr_scan", "android": "https://dc.lft.to/lastmile_qr_scan"}, "type": "electric_scooter", "name": "fb9ed967bf05c64f88dcbb3b8def19b5", "is_reserved": 0, "lon": -77.02532816666667, "is_disabled": 0, "fusion_lat": 0.0, "lat": 38.94531716666667, "bike_id": "fb9ed967bf05c64f88dcbb3b8def19b5", "fusion_lon": 0.0}, {"rental_uris": {"ios": "https://dc.lft.to/lastmile_qr_scan", "android": "https://dc.lft.to/lastmile_qr_scan"}, "type": "electric_scooter", "name": "bc116f00a54d811a9a184f964768ca2e", "is_reserved": 0, "lon": -77.00632916666666, "is_disabled": 0, "fusion_lat": 0.0, "lat": 38.900911, "bike_id": "bc116f00a54d811a9a184f964768ca2e", "fusion_lon": 0.0}, {"rental_uris": {"ios": "https://dc.lft.to/lastmile_qr_scan", "android": "https://dc.lft.to/lastmile_qr_scan"}, "type": "electric_scooter", "name": "e35f269c0bad25d0e443935a4bfcbda0", "is_reserved": 0, "lon": -77.0366135, "is_disabled": 0, "fusion_lat": 0.0, "lat": 38.921443333333336, "bike_id": "e35f269c0bad25d0e443935a4bfcbda0", "fusion_lon": 0.0}, {"rental_uris": {"ios": "https://dc.lft.to/lastmile_qr_scan", "android": "https://dc.lft.to/lastmile_qr_scan"}, "type": "electric_scooter", "name": "441dc18e8403fadde1b55ad89f921628", "is_reserved": 0, "lon": -76.99984683333334, "is_disabled": 0, "fusion_lat": 0.0, "lat": 38.90732366666667, "bike_id": "441dc18e8403fadde1b55ad89f921628", "fusion_lon": 0.0}, {"rental_uris": {"ios": "https://dc.lft.to/lastmile_qr_scan", "android": "https://dc.lft.to/lastmile_qr_scan"}, "type": "electric_scooter", "name": "f64e66cdbb8824c8b56f353c3383b756", "is_reserved": 0, "lon": -77.02423183333333, "is_disabled": 0, "fusion_lat": 0.0, "lat": 38.8992595, "bike_id": "f64e66cdbb8824c8b56f353c3383b756", "fusion_lon": 0.0}, {"rental_uris": {"ios": "https://dc.lft.to/lastmile_qr_scan", "android": "https://dc.lft.to/lastmile_qr_scan"}, "type": "electric_scooter", "name": "19ca7d277a1d62fba25b04fe0ad80470", "is_reserved": 0, "lon": -77.04607866666667, "is_disabled": 0, "fusion_lat": 0.0, "lat": 38.909768166666666, "bike_id": "19ca7d277a1d62fba25b04fe0ad80470", "fusion_lon": 0.0}, {"rental_uris": {"ios": "https://dc.lft.to/lastmile_qr_scan", "android": "https://dc.lft.to/lastmile_qr_scan"}, "type": "electric_scooter", "name": "baeb1a83f4e6190504ce7504564ddcc5", "is_reserved": 0, "lon": -77.039386, "is_disabled": 0, "fusion_lat": 0.0, "lat": 38.902688833333336, "bike_id": "baeb1a83f4e6190504ce7504564ddcc5", "fusion_lon": 0.0}, {"rental_uris": {"ios": "https://dc.lft.to/lastmile_qr_scan", "android": "https://dc.lft.to/lastmile_qr_scan"}, "type": "electric_scooter", "name": "fcda346b473d114d73d7ed49e713369f", "is_reserved": 0, "lon": -76.9882275, "is_disabled": 0, "fusion_lat": 0.0, "lat": 38.8949025, "bike_id": "fcda346b473d114d73d7ed49e713369f", "fusion_lon": 0.0}, {"rental_uris": {"ios": "https://dc.lft.to/lastmile_qr_scan", "android": "https://dc.lft.to/lastmile_qr_scan"}, "type": "electric_scooter", "name": "cd913b2c8ef00f713674a05de155b932", "is_reserved": 0, "lon": -77.024184, "is_disabled": 0, "fusion_lat": 0.0, "lat": 38.894102, "bike_id": "cd913b2c8ef00f713674a05de155b932", "fusion_lon": 0.0}, {"rental_uris": {"ios": "https://dc.lft.to/lastmile_qr_scan", "android": "https://dc.lft.to/lastmile_qr_scan"}, "type": "electric_bike", "name": "26bf4b709f5329ea75cb5d43af08f372", "is_reserved": 0, "lon": -76.99019583333333, "is_disabled": 0, "fusion_lat": 0.0, "lat": 38.954809, "bike_id": "26bf4b709f5329ea75cb5d43af08f372", "fusion_lon": 0.0}, {"rental_uris": {"ios": "https://dc.lft.to/lastmile_qr_scan", "android": "https://dc.lft.to/lastmile_qr_scan"}, "type": "electric_bike", "name": "56b16d4c14fee84f5327395937ab1d32", "is_reserved": 0, "lon": -76.9876785, "is_disabled": 0, "fusion_lat": 0.0, "lat": 38.857734, "bike_id": "56b16d4c14fee84f5327395937ab1d32", "fusion_lon": 0.0}, {"rental_uris": {"ios": "https://dc.lft.to/lastmile_qr_scan", "android": "https://dc.lft.to/lastmile_qr_scan"}, "type": "electric_scooter", "name": "1248cb0ebabce34d28be5896a4fa41a6", "is_reserved": 0, "lon": -77.04074116666666, "is_disabled": 0, "fusion_lat": 0.0, "lat": 38.914145500000004, "bike_id": "1248cb0ebabce34d28be5896a4fa41a6", "fusion_lon": 0.0}, {"rental_uris": {"ios": "https://dc.lft.to/lastmile_qr_scan", "android": "https://dc.lft.to/lastmile_qr_scan"}, "type": "electric_scooter", "name": "ac6e494493092f19a70e5eb707739e55", "is_reserved": 0, "lon": -77.04502783333334, "is_disabled": 0, "fusion_lat": 0.0, "lat": 38.896160333333334, "bike_id": "ac6e494493092f19a70e5eb707739e55", "fusion_lon": 0.0}, {"rental_uris": {"ios": "https://dc.lft.to/lastmile_qr_scan", "android": "https://dc.lft.to/lastmile_qr_scan"}, "type": "electric_scooter", "name": "30a07d001cfcd672026989ad6ca14134", "is_reserved": 0, "lon": -76.9840155, "is_disabled": 0, "fusion_lat": 0.0, "lat": 38.9251765, "bike_id": "30a07d001cfcd672026989ad6ca14134", "fusion_lon": 0.0}, {"rental_uris": {"ios": "https://dc.lft.to/lastmile_qr_scan", "android": "https://dc.lft.to/lastmile_qr_scan"}, "type": "electric_scooter", "name": "8b942662854e0757fa6a71c84c2af9f8", "is_reserved": 0, "lon": -76.986054, "is_disabled": 0, "fusion_lat": 0.0, "lat": 38.87831466666667, "bike_id": "8b942662854e0757fa6a71c84c2af9f8", "fusion_lon": 0.0}, {"rental_uris": {"ios": "https://dc.lft.to/lastmile_qr_scan", "android": "https://dc.lft.to/lastmile_qr_scan"}, "type": "electric_scooter", "name": "a6ed95b2b648fdfcdc6a20a96266e61e", "is_reserved": 0, "lon": -77.04250833333333, "is_disabled": 0, "fusion_lat": 0.0, "lat": 38.922527, "bike_id": "a6ed95b2b648fdfcdc6a20a96266e61e", "fusion_lon": 0.0}, {"rental_uris": {"ios": "https://dc.lft.to/lastmile_qr_scan", "android": "https://dc.lft.to/lastmile_qr_scan"}, "type": "electric_bike", "name": "e6bb3eeb976d756cd950c6f4acf3b324", "is_reserved": 0, "lon": -76.889703, "is_disabled": 0, "fusion_lat": 0.0, "lat": 39.00785066666667, "bike_id": "e6bb3eeb976d756cd950c6f4acf3b324", "fusion_lon": 0.0}, {"rental_uris": {"ios": "https://dc.lft.to/lastmile_qr_scan", "android": "https://dc.lft.to/lastmile_qr_scan"}, "type": "electric_scooter", "name": "0a612f30db3051afc38bdf6d087fb847", "is_reserved": 0, "lon": -76.99130116666667, "is_disabled": 0, "fusion_lat": 0.0, "lat": 38.908606, "bike_id": "0a612f30db3051afc38bdf6d087fb847", "fusion_lon": 0.0}, {"rental_uris": {"ios": "https://dc.lft.to/lastmile_qr_scan", "android": "https://dc.lft.to/lastmile_qr_scan"}, "type": "electric_scooter", "name": "fafaa073e17401f36764b785251660d8", "is_reserved": 0, "lon": -77.0087185, "is_disabled": 0, "fusion_lat": 0.0, "lat": 38.912568666666665, "bike_id": "fafaa073e17401f36764b785251660d8", "fusion_lon": 0.0}, {"rental_uris": {"ios": "https://dc.lft.to/lastmile_qr_scan", "android": "https://dc.lft.to/lastmile_qr_scan"}, "type": "electric_scooter", "name": "74592ae725885a488394f9a08c661997", "is_reserved": 0, "lon": -77.02053283333333, "is_disabled": 0, "fusion_lat": 0.0, "lat": 38.922491666666666, "bike_id": "74592ae725885a488394f9a08c661997", "fusion_lon": 0.0}, {"rental_uris": {"ios": "https://dc.lft.to/lastmile_qr_scan", "android": "https://dc.lft.to/lastmile_qr_scan"}, "type": "electric_scooter", "name": "976fb0ae7fab8393bd83d32c1ddff0be", "is_reserved": 0, "lon": -77.03475633333333, "is_disabled": 0, "fusion_lat": 0.0, "lat": 38.9302255, "bike_id": "976fb0ae7fab8393bd83d32c1ddff0be", "fusion_lon": 0.0}, {"rental_uris": {"ios": "https://dc.lft.to/lastmile_qr_scan", "android": "https://dc.lft.to/lastmile_qr_scan"}, "type": "electric_scooter", "name": "135c55a7de7a8bdd88647a8004dd7c2a", "is_reserved": 0, "lon": -76.99410816666666, "is_disabled": 0, "fusion_lat": 0.0, "lat": 38.87787633333333, "bike_id": "135c55a7de7a8bdd88647a8004dd7c2a", "fusion_lon": 0.0}, {"rental_uris": {"ios": "https://dc.lft.to/lastmile_qr_scan", "android": "https://dc.lft.to/lastmile_qr_scan"}, "type": "electric_scooter", "name": "efb0b1819e61f8946e210b7da4b0a9ff", "is_reserved": 0, "lon": -77.0004415, "is_disabled": 0, "fusion_lat": 0.0, "lat": 38.8748565, "bike_id": "efb0b1819e61f8946e210b7da4b0a9ff", "fusion_lon": 0.0}, {"rental_uris": {"ios": "https://dc.lft.to/lastmile_qr_scan", "android": "https://dc.lft.to/lastmile_qr_scan"}, "type": "electric_bike", "name": "e267e7768f8af09ecd21cbe847fa5f58", "is_reserved": 0, "lon": -76.96087233333333, "is_disabled": 0, "fusion_lat": 0.0, "lat": 38.918562666666666, "bike_id": "e267e7768f8af09ecd21cbe847fa5f58", "fusion_lon": 0.0}, {"rental_uris": {"ios": "https://dc.lft.to/lastmile_qr_scan", "android": "https://dc.lft.to/lastmile_qr_scan"}, "type": "electric_scooter", "name": "d499c5e12c623e09b4d0cbeca13e3540", "is_reserved": 0, "lon": -77.02166033333333, "is_disabled": 0, "fusion_lat": 0.0, "lat": 38.89540216666666, "bike_id": "d499c5e12c623e09b4d0cbeca13e3540", "fusion_lon": 0.0}, {"rental_uris": {"ios": "https://dc.lft.to/lastmile_qr_scan", "android": "https://dc.lft.to/lastmile_qr_scan"}, "type": "electric_scooter", "name": "356b93d606496ef50e59ce9d717937d5", "is_reserved": 0, "lon": -77.03441616666667, "is_disabled": 0, "fusion_lat": 0.0, "lat": 38.91806116666667, "bike_id": "356b93d606496ef50e59ce9d717937d5", "fusion_lon": 0.0}, {"rental_uris": {"ios": "https://dc.lft.to/lastmile_qr_scan", "android": "https://dc.lft.to/lastmile_qr_scan"}, "type": "electric_scooter", "name": "2d378c1add479a06cc4f877656a1e140", "is_reserved": 0, "lon": -77.03240616666666, "is_disabled": 0, "fusion_lat": 0.0, "lat": 38.90548183333333, "bike_id": "2d378c1add479a06cc4f877656a1e140", "fusion_lon": 0.0}, {"rental_uris": {"ios": "https://dc.lft.to/lastmile_qr_scan", "android": "https://dc.lft.to/lastmile_qr_scan"}, "type": "electric_scooter", "name": "b62208200cb07f94fcab0950679a6c8a", "is_reserved": 0, "lon": -77.01942483333333, "is_disabled": 0, "fusion_lat": 0.0, "lat": 38.947011833333335, "bike_id": "b62208200cb07f94fcab0950679a6c8a", "fusion_lon": 0.0}, {"rental_uris": {"ios": "https://dc.lft.to/lastmile_qr_scan", "android": "https://dc.lft.to/lastmile_qr_scan"}, "type": "electric_scooter", "name": "ba56f37fe49138636342c328795b8b1c", "is_reserved": 0, "lon": -77.03263433333333, "is_disabled": 0, "fusion_lat": 0.0, "lat": 38.9097675, "bike_id": "ba56f37fe49138636342c328795b8b1c", "fusion_lon": 0.0}, {"rental_uris": {"ios": "https://dc.lft.to/lastmile_qr_scan", "android": "https://dc.lft.to/lastmile_qr_scan"}, "type": "electric_scooter", "name": "35549789032d84e2538c26f5eb8b39d2", "is_reserved": 0, "lon": -77.0321015, "is_disabled": 0, "fusion_lat": 0.0, "lat": 38.91433166666667, "bike_id": "35549789032d84e2538c26f5eb8b39d2", "fusion_lon": 0.0}, {"rental_uris": {"ios": "https://dc.lft.to/lastmile_qr_scan", "android": "https://dc.lft.to/lastmile_qr_scan"}, "type": "electric_scooter", "name": "0eaf25b1d02191a5cba387aacef8fa65", "is_reserved": 0, "lon": -77.00814983333333, "is_disabled": 0, "fusion_lat": 0.0, "lat": 38.91701, "bike_id": "0eaf25b1d02191a5cba387aacef8fa65", "fusion_lon": 0.0}, {"rental_uris": {"ios": "https://dc.lft.to/lastmile_qr_scan", "android": "https://dc.lft.to/lastmile_qr_scan"}, "type": "electric_scooter", "name": "15704941eec6e9bc059c69f32db426e4", "is_reserved": 0, "lon": -77.0444155, "is_disabled": 0, "fusion_lat": 0.0, "lat": 38.901385, "bike_id": "15704941eec6e9bc059c69f32db426e4", "fusion_lon": 0.0}, {"rental_uris": {"ios": "https://dc.lft.to/lastmile_qr_scan", "android": "https://dc.lft.to/lastmile_qr_scan"}, "type": "electric_scooter", "name": "387222320fd4848b3c34ebb729416537", "is_reserved": 0, "lon": -76.99965083333333, "is_disabled": 0, "fusion_lat": 0.0, "lat": 38.90861833333334, "bike_id": "387222320fd4848b3c34ebb729416537", "fusion_lon": 0.0}, {"rental_uris": {"ios": "https://dc.lft.to/lastmile_qr_scan", "android": "https://dc.lft.to/lastmile_qr_scan"}, "type": "electric_bike", "name": "af69e0c65cbddefc1adf48ccaa20e9ea", "is_reserved": 0, "lon": -76.97312616666666, "is_disabled": 0, "fusion_lat": 0.0, "lat": 38.917595166666665, "bike_id": "af69e0c65cbddefc1adf48ccaa20e9ea", "fusion_lon": 0.0}, {"rental_uris": {"ios": "https://dc.lft.to/lastmile_qr_scan", "android": "https://dc.lft.to/lastmile_qr_scan"}, "type": "electric_scooter", "name": "5a63313544c2a216a354dd9ea4969507", "is_reserved": 0, "lon": -77.034562, "is_disabled": 0, "fusion_lat": 0.0, "lat": 38.9023985, "bike_id": "5a63313544c2a216a354dd9ea4969507", "fusion_lon": 0.0}, {"rental_uris": {"ios": "https://dc.lft.to/lastmile_qr_scan", "android": "https://dc.lft.to/lastmile_qr_scan"}, "type": "electric_scooter", "name": "e382a4825146eb323dbb1f836aea94fe", "is_reserved": 0, "lon": -77.031893, "is_disabled": 0, "fusion_lat": 0.0, "lat": 38.911784833333336, "bike_id": "e382a4825146eb323dbb1f836aea94fe", "fusion_lon": 0.0}, {"rental_uris": {"ios": "https://dc.lft.to/lastmile_qr_scan", "android": "https://dc.lft.to/lastmile_qr_scan"}, "type": "electric_bike", "name": "b24c644feb6000efbb2c9e8d82acb96e", "is_reserved": 0, "lon": -76.9615935, "is_disabled": 0, "fusion_lat": 0.0, "lat": 38.85623, "bike_id": "b24c644feb6000efbb2c9e8d82acb96e", "fusion_lon": 0.0}, {"rental_uris": {"ios": "https://dc.lft.to/lastmile_qr_scan", "android": "https://dc.lft.to/lastmile_qr_scan"}, "type": "electric_scooter", "name": "05e68be6b6a07d7317fde62e4b7c3ce1", "is_reserved": 0, "lon": -77.06521783333334, "is_disabled": 0, "fusion_lat": 0.0, "lat": 38.911067, "bike_id": "05e68be6b6a07d7317fde62e4b7c3ce1", "fusion_lon": 0.0}, {"rental_uris": {"ios": "https://dc.lft.to/lastmile_qr_scan", "android": "https://dc.lft.to/lastmile_qr_scan"}, "type": "electric_scooter", "name": "0b6cf421dd04995fe68a5db7963fde7e", "is_reserved": 0, "lon": -77.039461, "is_disabled": 0, "fusion_lat": 0.0, "lat": 38.900925666666666, "bike_id": "0b6cf421dd04995fe68a5db7963fde7e", "fusion_lon": 0.0}, {"rental_uris": {"ios": "https://dc.lft.to/lastmile_qr_scan", "android": "https://dc.lft.to/lastmile_qr_scan"}, "type": "electric_scooter", "name": "1256e39a08c0d0ab084737af11bb4b0b", "is_reserved": 0, "lon": -77.0488165, "is_disabled": 0, "fusion_lat": 0.0, "lat": 38.918428166666665, "bike_id": "1256e39a08c0d0ab084737af11bb4b0b", "fusion_lon": 0.0}, {"rental_uris": {"ios": "https://dc.lft.to/lastmile_qr_scan", "android": "https://dc.lft.to/lastmile_qr_scan"}, "type": "electric_scooter", "name": "3df8a5123b2dbee86a66cef0fe844abd", "is_reserved": 0, "lon": -77.02494183333333, "is_disabled": 0, "fusion_lat": 0.0, "lat": 38.925980333333335, "bike_id": "3df8a5123b2dbee86a66cef0fe844abd", "fusion_lon": 0.0}, {"rental_uris": {"ios": "https://dc.lft.to/lastmile_qr_scan", "android": "https://dc.lft.to/lastmile_qr_scan"}, "type": "electric_scooter", "name": "716eac12b022296e288079f3e72e1da4", "is_reserved": 0, "lon": -77.043009, "is_disabled": 0, "fusion_lat": 0.0, "lat": 38.907049, "bike_id": "716eac12b022296e288079f3e72e1da4", "fusion_lon": 0.0}, {"rental_uris": {"ios": "https://dc.lft.to/lastmile_qr_scan", "android": "https://dc.lft.to/lastmile_qr_scan"}, "type": "electric_scooter", "name": "2382bde8c1011939a9699a86889a0f7b", "is_reserved": 0, "lon": -77.00028083333333, "is_disabled": 0, "fusion_lat": 0.0, "lat": 38.906800833333335, "bike_id": "2382bde8c1011939a9699a86889a0f7b", "fusion_lon": 0.0}, {"rental_uris": {"ios": "https://dc.lft.to/lastmile_qr_scan", "android": "https://dc.lft.to/lastmile_qr_scan"}, "type": "electric_scooter", "name": "96ffbc28bc3994d81879873ad5f34899", "is_reserved": 0, "lon": -77.01312116666666, "is_disabled": 0, "fusion_lat": 0.0, "lat": 38.92029433333333, "bike_id": "96ffbc28bc3994d81879873ad5f34899", "fusion_lon": 0.0}, {"rental_uris": {"ios": "https://dc.lft.to/lastmile_qr_scan", "android": "https://dc.lft.to/lastmile_qr_scan"}, "type": "electric_scooter", "name": "7da77a2f2782f4bff8fbb363c540a47e", "is_reserved": 0, "lon": -76.99944066666667, "is_disabled": 0, "fusion_lat": 0.0, "lat": 38.90056116666667, "bike_id": "7da77a2f2782f4bff8fbb363c540a47e", "fusion_lon": 0.0}, {"rental_uris": {"ios": "https://dc.lft.to/lastmile_qr_scan", "android": "https://dc.lft.to/lastmile_qr_scan"}, "type": "electric_scooter", "name": "39517da4d8c51fe175d9c3170b9a5c02", "is_reserved": 0, "lon": -76.99551183333334, "is_disabled": 0, "fusion_lat": 0.0, "lat": 38.86233983333333, "bike_id": "39517da4d8c51fe175d9c3170b9a5c02", "fusion_lon": 0.0}, {"rental_uris": {"ios": "https://dc.lft.to/lastmile_qr_scan", "android": "https://dc.lft.to/lastmile_qr_scan"}, "type": "electric_bike", "name": "bff88d53f9d5fcf62b77b306082104fc", "is_reserved": 0, "lon": -76.94532766666667, "is_disabled": 0, "fusion_lat": 0.0, "lat": 38.867542, "bike_id": "bff88d53f9d5fcf62b77b306082104fc", "fusion_lon": 0.0}, {"rental_uris": {"ios": "https://dc.lft.to/lastmile_qr_scan", "android": "https://dc.lft.to/lastmile_qr_scan"}, "type": "electric_scooter", "name": "7a0a4c9fc06647315a6e3af67571a246", "is_reserved": 0, "lon": -76.99920616666667, "is_disabled": 0, "fusion_lat": 0.0, "lat": 38.900535833333336, "bike_id": "7a0a4c9fc06647315a6e3af67571a246", "fusion_lon": 0.0}, {"rental_uris": {"ios": "https://dc.lft.to/lastmile_qr_scan", "android": "https://dc.lft.to/lastmile_qr_scan"}, "type": "electric_bike", "name": "a37ac07ac971394d6d10a09442c5424b", "is_reserved": 0, "lon": -76.941511, "is_disabled": 0, "fusion_lat": 0.0, "lat": 38.89020883333333, "bike_id": "a37ac07ac971394d6d10a09442c5424b", "fusion_lon": 0.0}, {"rental_uris": {"ios": "https://dc.lft.to/lastmile_qr_scan", "android": "https://dc.lft.to/lastmile_qr_scan"}, "type": "electric_scooter", "name": "9ad8a81aebe4e657b21e59ddd937eb76", "is_reserved": 0, "lon": -76.98742283333333, "is_disabled": 0, "fusion_lat": 0.0, "lat": 38.878417166666665, "bike_id": "9ad8a81aebe4e657b21e59ddd937eb76", "fusion_lon": 0.0}, {"rental_uris": {"ios": "https://dc.lft.to/lastmile_qr_scan", "android": "https://dc.lft.to/lastmile_qr_scan"}, "type": "electric_bike", "name": "494ae1d5cc5dadd19096abef93316baf", "is_reserved": 0, "lon": -77.129354, "is_disabled": 0, "fusion_lat": 0.0, "lat": 38.86594233333334, "bike_id": "494ae1d5cc5dadd19096abef93316baf", "fusion_lon": 0.0}, {"rental_uris": {"ios": "https://dc.lft.to/lastmile_qr_scan", "android": "https://dc.lft.to/lastmile_qr_scan"}, "type": "electric_scooter", "name": "db128f1ecafc261b3403661a77a3f77b", "is_reserved": 0, "lon": -77.000609, "is_disabled": 0, "fusion_lat": 0.0, "lat": 38.8744055, "bike_id": "db128f1ecafc261b3403661a77a3f77b", "fusion_lon": 0.0}, {"rental_uris": {"ios": "https://dc.lft.to/lastmile_qr_scan", "android": "https://dc.lft.to/lastmile_qr_scan"}, "type": "electric_scooter", "name": "03732038b9454e39fc6c8fbd24a3bdda", "is_reserved": 0, "lon": -77.02492116666667, "is_disabled": 0, "fusion_lat": 0.0, "lat": 38.93105033333333, "bike_id": "03732038b9454e39fc6c8fbd24a3bdda", "fusion_lon": 0.0}, {"rental_uris": {"ios": "https://dc.lft.to/lastmile_qr_scan", "android": "https://dc.lft.to/lastmile_qr_scan"}, "type": "electric_scooter", "name": "5e3fe4d6ff50ee8adeb1add5f387cc36", "is_reserved": 0, "lon": -77.04568233333333, "is_disabled": 0, "fusion_lat": 0.0, "lat": 38.9094445, "bike_id": "5e3fe4d6ff50ee8adeb1add5f387cc36", "fusion_lon": 0.0}, {"rental_uris": {"ios": "https://dc.lft.to/lastmile_qr_scan", "android": "https://dc.lft.to/lastmile_qr_scan"}, "type": "electric_scooter", "name": "d15feefe393ac355adfef9005aaf7b5d", "is_reserved": 0, "lon": -77.03825216666667, "is_disabled": 0, "fusion_lat": 0.0, "lat": 38.9626795, "bike_id": "d15feefe393ac355adfef9005aaf7b5d", "fusion_lon": 0.0}, {"rental_uris": {"ios": "https://dc.lft.to/lastmile_qr_scan", "android": "https://dc.lft.to/lastmile_qr_scan"}, "type": "electric_scooter", "name": "0981f9219fbc460be2ce2dc36c15cd81", "is_reserved": 0, "lon": -77.03946033333334, "is_disabled": 0, "fusion_lat": 0.0, "lat": 38.90080833333333, "bike_id": "0981f9219fbc460be2ce2dc36c15cd81", "fusion_lon": 0.0}, {"rental_uris": {"ios": "https://dc.lft.to/lastmile_qr_scan", "android": "https://dc.lft.to/lastmile_qr_scan"}, "type": "electric_scooter", "name": "c40c3ef8e3fd9ee97dad3f2a4e5260b0", "is_reserved": 0, "lon": -77.0500585, "is_disabled": 0, "fusion_lat": 0.0, "lat": 38.89229483333333, "bike_id": "c40c3ef8e3fd9ee97dad3f2a4e5260b0", "fusion_lon": 0.0}, {"rental_uris": {"ios": "https://dc.lft.to/lastmile_qr_scan", "android": "https://dc.lft.to/lastmile_qr_scan"}, "type": "electric_scooter", "name": "2d45feb10e587a8e07917c865ad07e1d", "is_reserved": 0, "lon": -77.07023866666667, "is_disabled": 0, "fusion_lat": 0.0, "lat": 38.8938575, "bike_id": "2d45feb10e587a8e07917c865ad07e1d", "fusion_lon": 0.0}, {"rental_uris": {"ios": "https://dc.lft.to/lastmile_qr_scan", "android": "https://dc.lft.to/lastmile_qr_scan"}, "type": "electric_scooter", "name": "cc4f2844358c19bcc5eb979817507b7a", "is_reserved": 0, "lon": -77.02293366666666, "is_disabled": 0, "fusion_lat": 0.0, "lat": 38.92506683333333, "bike_id": "cc4f2844358c19bcc5eb979817507b7a", "fusion_lon": 0.0}, {"rental_uris": {"ios": "https://dc.lft.to/lastmile_qr_scan", "android": "https://dc.lft.to/lastmile_qr_scan"}, "type": "electric_scooter", "name": "7d501be29738712fd6b40a611c422a10", "is_reserved": 0, "lon": -77.0449185, "is_disabled": 0, "fusion_lat": 0.0, "lat": 38.911518666666666, "bike_id": "7d501be29738712fd6b40a611c422a10", "fusion_lon": 0.0}, {"rental_uris": {"ios": "https://dc.lft.to/lastmile_qr_scan", "android": "https://dc.lft.to/lastmile_qr_scan"}, "type": "electric_bike", "name": "dfe332848e3300b0a2b7c044faa132c8", "is_reserved": 0, "lon": -77.1283925, "is_disabled": 0, "fusion_lat": 0.0, "lat": 38.8005385, "bike_id": "dfe332848e3300b0a2b7c044faa132c8", "fusion_lon": 0.0}, {"rental_uris": {"ios": "https://dc.lft.to/lastmile_qr_scan", "android": "https://dc.lft.to/lastmile_qr_scan"}, "type": "electric_scooter", "name": "c2e8a5b7f63e33accb4ea6c3dbdd1180", "is_reserved": 0, "lon": -77.0315175, "is_disabled": 0, "fusion_lat": 0.0, "lat": 38.883041666666664, "bike_id": "c2e8a5b7f63e33accb4ea6c3dbdd1180", "fusion_lon": 0.0}, {"rental_uris": {"ios": "https://dc.lft.to/lastmile_qr_scan", "android": "https://dc.lft.to/lastmile_qr_scan"}, "type": "electric_scooter", "name": "d00f5e6343d2fa11705e26875a1e5821", "is_reserved": 0, "lon": -77.03198083333334, "is_disabled": 0, "fusion_lat": 0.0, "lat": 38.90891333333333, "bike_id": "d00f5e6343d2fa11705e26875a1e5821", "fusion_lon": 0.0}, {"rental_uris": {"ios": "https://dc.lft.to/lastmile_qr_scan", "android": "https://dc.lft.to/lastmile_qr_scan"}, "type": "electric_scooter", "name": "6c6abaf6b6cce96d9e3150a20d1f4897", "is_reserved": 0, "lon": -77.04830816666667, "is_disabled": 0, "fusion_lat": 0.0, "lat": 38.9049925, "bike_id": "6c6abaf6b6cce96d9e3150a20d1f4897", "fusion_lon": 0.0}, {"rental_uris": {"ios": "https://dc.lft.to/lastmile_qr_scan", "android": "https://dc.lft.to/lastmile_qr_scan"}, "type": "electric_bike", "name": "54631b583b985d5b014c83e4eb296a9e", "is_reserved": 0, "lon": -77.0238195, "is_disabled": 0, "fusion_lat": 0.0, "lat": 38.93233933333333, "bike_id": "54631b583b985d5b014c83e4eb296a9e", "fusion_lon": 0.0}, {"rental_uris": {"ios": "https://dc.lft.to/lastmile_qr_scan", "android": "https://dc.lft.to/lastmile_qr_scan"}, "type": "electric_scooter", "name": "df5a920d48c663580e0802e42edc9401", "is_reserved": 0, "lon": -77.03831, "is_disabled": 0, "fusion_lat": 0.0, "lat": 38.9126335, "bike_id": "df5a920d48c663580e0802e42edc9401", "fusion_lon": 0.0}, {"rental_uris": {"ios": "https://dc.lft.to/lastmile_qr_scan", "android": "https://dc.lft.to/lastmile_qr_scan"}, "type": "electric_scooter", "name": "99c6a6b4666d92262f7e387109e231d1", "is_reserved": 0, "lon": -77.02692633333334, "is_disabled": 0, "fusion_lat": 0.0, "lat": 38.90263516666667, "bike_id": "99c6a6b4666d92262f7e387109e231d1", "fusion_lon": 0.0}, {"rental_uris": {"ios": "https://dc.lft.to/lastmile_qr_scan", "android": "https://dc.lft.to/lastmile_qr_scan"}, "type": "electric_scooter", "name": "88647c613389c9d0698175d992459316", "is_reserved": 0, "lon": -77.0033595, "is_disabled": 0, "fusion_lat": 0.0, "lat": 38.89613683333334, "bike_id": "88647c613389c9d0698175d992459316", "fusion_lon": 0.0}, {"rental_uris": {"ios": "https://dc.lft.to/lastmile_qr_scan", "android": "https://dc.lft.to/lastmile_qr_scan"}, "type": "electric_scooter", "name": "64ac3b089b659b5fed5459646f556c39", "is_reserved": 0, "lon": -77.05203433333334, "is_disabled": 0, "fusion_lat": 0.0, "lat": 38.90252533333334, "bike_id": "64ac3b089b659b5fed5459646f556c39", "fusion_lon": 0.0}, {"rental_uris": {"ios": "https://dc.lft.to/lastmile_qr_scan", "android": "https://dc.lft.to/lastmile_qr_scan"}, "type": "electric_scooter", "name": "333f3936328735daf6c0e342a712db9c", "is_reserved": 0, "lon": -77.043057, "is_disabled": 0, "fusion_lat": 0.0, "lat": 38.9233335, "bike_id": "333f3936328735daf6c0e342a712db9c", "fusion_lon": 0.0}, {"rental_uris": {"ios": "https://dc.lft.to/lastmile_qr_scan", "android": "https://dc.lft.to/lastmile_qr_scan"}, "type": "electric_scooter", "name": "3cfd1753935abbdeb2d56d8964cac136", "is_reserved": 0, "lon": -77.04182783333333, "is_disabled": 0, "fusion_lat": 0.0, "lat": 38.921961333333336, "bike_id": "3cfd1753935abbdeb2d56d8964cac136", "fusion_lon": 0.0}, {"rental_uris": {"ios": "https://dc.lft.to/lastmile_qr_scan", "android": "https://dc.lft.to/lastmile_qr_scan"}, "type": "electric_scooter", "name": "a604f330417ac77862206ca049ab12c4", "is_reserved": 0, "lon": -76.92920083333334, "is_disabled": 0, "fusion_lat": 0.0, "lat": 38.8865625, "bike_id": "a604f330417ac77862206ca049ab12c4", "fusion_lon": 0.0}, {"rental_uris": {"ios": "https://dc.lft.to/lastmile_qr_scan", "android": "https://dc.lft.to/lastmile_qr_scan"}, "type": "electric_scooter", "name": "9506d1ed3ca0a4875ed97ee64a7a291c", "is_reserved": 0, "lon": -76.987323, "is_disabled": 0, "fusion_lat": 0.0, "lat": 38.84218966666667, "bike_id": "9506d1ed3ca0a4875ed97ee64a7a291c", "fusion_lon": 0.0}, {"rental_uris": {"ios": "https://dc.lft.to/lastmile_qr_scan", "android": "https://dc.lft.to/lastmile_qr_scan"}, "type": "electric_scooter", "name": "0adea7fcefef00e0c310d90f98c4d150", "is_reserved": 0, "lon": -77.0365135, "is_disabled": 0, "fusion_lat": 0.0, "lat": 38.954632833333335, "bike_id": "0adea7fcefef00e0c310d90f98c4d150", "fusion_lon": 0.0}, {"rental_uris": {"ios": "https://dc.lft.to/lastmile_qr_scan", "android": "https://dc.lft.to/lastmile_qr_scan"}, "type": "electric_scooter", "name": "24daaf652d390f0bf49004b4764c0850", "is_reserved": 0, "lon": -77.05002233333333, "is_disabled": 0, "fusion_lat": 0.0, "lat": 38.892309833333336, "bike_id": "24daaf652d390f0bf49004b4764c0850", "fusion_lon": 0.0}, {"rental_uris": {"ios": "https://dc.lft.to/lastmile_qr_scan", "android": "https://dc.lft.to/lastmile_qr_scan"}, "type": "electric_scooter", "name": "591497be124ddc7f8e2e7d2a6cfaaabc", "is_reserved": 0, "lon": -77.02219116666667, "is_disabled": 0, "fusion_lat": 0.0, "lat": 38.9247165, "bike_id": "591497be124ddc7f8e2e7d2a6cfaaabc", "fusion_lon": 0.0}, {"rental_uris": {"ios": "https://dc.lft.to/lastmile_qr_scan", "android": "https://dc.lft.to/lastmile_qr_scan"}, "type": "electric_scooter", "name": "9ad89a7ad5fedb2bbad3b129e0d04120", "is_reserved": 0, "lon": -77.0319495, "is_disabled": 0, "fusion_lat": 0.0, "lat": 38.887218833333336, "bike_id": "9ad89a7ad5fedb2bbad3b129e0d04120", "fusion_lon": 0.0}, {"rental_uris": {"ios": "https://dc.lft.to/lastmile_qr_scan", "android": "https://dc.lft.to/lastmile_qr_scan"}, "type": "electric_scooter", "name": "9ed5d93ded291c46780c07464c6d9b15", "is_reserved": 0, "lon": -77.05870733333333, "is_disabled": 0, "fusion_lat": 0.0, "lat": 38.942432833333335, "bike_id": "9ed5d93ded291c46780c07464c6d9b15", "fusion_lon": 0.0}, {"rental_uris": {"ios": "https://dc.lft.to/lastmile_qr_scan", "android": "https://dc.lft.to/lastmile_qr_scan"}, "type": "electric_scooter", "name": "f52ea364c6322186d811ed47b831ad96", "is_reserved": 0, "lon": -76.99555816666667, "is_disabled": 0, "fusion_lat": 0.0, "lat": 38.926768, "bike_id": "f52ea364c6322186d811ed47b831ad96", "fusion_lon": 0.0}, {"rental_uris": {"ios": "https://dc.lft.to/lastmile_qr_scan", "android": "https://dc.lft.to/lastmile_qr_scan"}, "type": "electric_scooter", "name": "b1433d0dcd092518bfc49c7b9602a2d9", "is_reserved": 0, "lon": -77.031551, "is_disabled": 0, "fusion_lat": 0.0, "lat": 38.916917, "bike_id": "b1433d0dcd092518bfc49c7b9602a2d9", "fusion_lon": 0.0}, {"rental_uris": {"ios": "https://dc.lft.to/lastmile_qr_scan", "android": "https://dc.lft.to/lastmile_qr_scan"}, "type": "electric_scooter", "name": "dc3f0db012c021ae2b29dc53b8943e62", "is_reserved": 0, "lon": -76.9948425, "is_disabled": 0, "fusion_lat": 0.0, "lat": 38.86220083333333, "bike_id": "dc3f0db012c021ae2b29dc53b8943e62", "fusion_lon": 0.0}, {"rental_uris": {"ios": "https://dc.lft.to/lastmile_qr_scan", "android": "https://dc.lft.to/lastmile_qr_scan"}, "type": "electric_scooter", "name": "2f6c4c05715a4120bb0b4455dc25a953", "is_reserved": 0, "lon": -77.05226833333333, "is_disabled": 0, "fusion_lat": 0.0, "lat": 38.9248525, "bike_id": "2f6c4c05715a4120bb0b4455dc25a953", "fusion_lon": 0.0}, {"rental_uris": {"ios": "https://dc.lft.to/lastmile_qr_scan", "android": "https://dc.lft.to/lastmile_qr_scan"}, "type": "electric_bike", "name": "741720ce314766e316e86248633d01c5", "is_reserved": 0, "lon": -76.99701216666666, "is_disabled": 0, "fusion_lat": 0.0, "lat": 38.838680333333336, "bike_id": "741720ce314766e316e86248633d01c5", "fusion_lon": 0.0}, {"rental_uris": {"ios": "https://dc.lft.to/lastmile_qr_scan", "android": "https://dc.lft.to/lastmile_qr_scan"}, "type": "electric_scooter", "name": "74f7800f3309307e8159b38a1b64d552", "is_reserved": 0, "lon": -77.03821583333334, "is_disabled": 0, "fusion_lat": 0.0, "lat": 38.903604666666666, "bike_id": "74f7800f3309307e8159b38a1b64d552", "fusion_lon": 0.0}, {"rental_uris": {"ios": "https://dc.lft.to/lastmile_qr_scan", "android": "https://dc.lft.to/lastmile_qr_scan"}, "type": "electric_scooter", "name": "69aceb0a09418e3cbdefa9f4adb3e502", "is_reserved": 0, "lon": -77.02407666666667, "is_disabled": 0, "fusion_lat": 0.0, "lat": 38.938151833333336, "bike_id": "69aceb0a09418e3cbdefa9f4adb3e502", "fusion_lon": 0.0}, {"rental_uris": {"ios": "https://dc.lft.to/lastmile_qr_scan", "android": "https://dc.lft.to/lastmile_qr_scan"}, "type": "electric_scooter", "name": "53227bbf12eec3de0d7ff880b12d03d8", "is_reserved": 0, "lon": -77.03086483333334, "is_disabled": 0, "fusion_lat": 0.0, "lat": 38.91339416666667, "bike_id": "53227bbf12eec3de0d7ff880b12d03d8", "fusion_lon": 0.0}, {"rental_uris": {"ios": "https://dc.lft.to/lastmile_qr_scan", "android": "https://dc.lft.to/lastmile_qr_scan"}, "type": "electric_scooter", "name": "58d94a59d8f8a1653b2d2d352df80b13", "is_reserved": 0, "lon": -77.01574933333333, "is_disabled": 0, "fusion_lat": 0.0, "lat": 38.90289116666667, "bike_id": "58d94a59d8f8a1653b2d2d352df80b13", "fusion_lon": 0.0}, {"rental_uris": {"ios": "https://dc.lft.to/lastmile_qr_scan", "android": "https://dc.lft.to/lastmile_qr_scan"}, "type": "electric_scooter", "name": "61fba9c6b9d98ff8fe1be761091e868e", "is_reserved": 0, "lon": -77.03156233333333, "is_disabled": 0, "fusion_lat": 0.0, "lat": 38.929807833333335, "bike_id": "61fba9c6b9d98ff8fe1be761091e868e", "fusion_lon": 0.0}, {"rental_uris": {"ios": "https://dc.lft.to/lastmile_qr_scan", "android": "https://dc.lft.to/lastmile_qr_scan"}, "type": "electric_bike", "name": "e64d39cd7c75108aec2c9c51ba8d44fe", "is_reserved": 0, "lon": -76.99278233333334, "is_disabled": 0, "fusion_lat": 0.0, "lat": 38.9725785, "bike_id": "e64d39cd7c75108aec2c9c51ba8d44fe", "fusion_lon": 0.0}, {"rental_uris": {"ios": "https://dc.lft.to/lastmile_qr_scan", "android": "https://dc.lft.to/lastmile_qr_scan"}, "type": "electric_scooter", "name": "55bcc31de6bd0a71b3d3cef00ed784b5", "is_reserved": 0, "lon": -77.04283133333334, "is_disabled": 0, "fusion_lat": 0.0, "lat": 38.9226885, "bike_id": "55bcc31de6bd0a71b3d3cef00ed784b5", "fusion_lon": 0.0}, {"rental_uris": {"ios": "https://dc.lft.to/lastmile_qr_scan", "android": "https://dc.lft.to/lastmile_qr_scan"}, "type": "electric_scooter", "name": "80e9c87f5a49599b03779461dbba8119", "is_reserved": 0, "lon": -76.95198466666666, "is_disabled": 0, "fusion_lat": 0.0, "lat": 38.90513333333333, "bike_id": "80e9c87f5a49599b03779461dbba8119", "fusion_lon": 0.0}, {"rental_uris": {"ios": "https://dc.lft.to/lastmile_qr_scan", "android": "https://dc.lft.to/lastmile_qr_scan"}, "type": "electric_scooter", "name": "22787810e63793a756adf32f18b13753", "is_reserved": 0, "lon": -77.00508833333333, "is_disabled": 0, "fusion_lat": 0.0, "lat": 38.960458, "bike_id": "22787810e63793a756adf32f18b13753", "fusion_lon": 0.0}, {"rental_uris": {"ios": "https://dc.lft.to/lastmile_qr_scan", "android": "https://dc.lft.to/lastmile_qr_scan"}, "type": "electric_scooter", "name": "d029c209208aa33185e58c18553882e3", "is_reserved": 0, "lon": -77.03195666666667, "is_disabled": 0, "fusion_lat": 0.0, "lat": 38.916074, "bike_id": "d029c209208aa33185e58c18553882e3", "fusion_lon": 0.0}, {"rental_uris": {"ios": "https://dc.lft.to/lastmile_qr_scan", "android": "https://dc.lft.to/lastmile_qr_scan"}, "type": "electric_scooter", "name": "09fe7d65a39ea8709c8f856d9a3a0a5a", "is_reserved": 0, "lon": -77.0136145, "is_disabled": 0, "fusion_lat": 0.0, "lat": 38.895953, "bike_id": "09fe7d65a39ea8709c8f856d9a3a0a5a", "fusion_lon": 0.0}, {"rental_uris": {"ios": "https://dc.lft.to/lastmile_qr_scan", "android": "https://dc.lft.to/lastmile_qr_scan"}, "type": "electric_scooter", "name": "ac64deaae74c60e46c6ee5eef218bf4a", "is_reserved": 0, "lon": -77.0320545, "is_disabled": 0, "fusion_lat": 0.0, "lat": 38.91202716666667, "bike_id": "ac64deaae74c60e46c6ee5eef218bf4a", "fusion_lon": 0.0}, {"rental_uris": {"ios": "https://dc.lft.to/lastmile_qr_scan", "android": "https://dc.lft.to/lastmile_qr_scan"}, "type": "electric_bike", "name": "65a50c3e17ea2179fd475bc14be00fb4", "is_reserved": 0, "lon": -77.0280395, "is_disabled": 0, "fusion_lat": 0.0, "lat": 38.90461233333333, "bike_id": "65a50c3e17ea2179fd475bc14be00fb4", "fusion_lon": 0.0}, {"rental_uris": {"ios": "https://dc.lft.to/lastmile_qr_scan", "android": "https://dc.lft.to/lastmile_qr_scan"}, "type": "electric_scooter", "name": "7b2fcf6a125153ac54ecd57668aca365", "is_reserved": 0, "lon": -77.04404733333334, "is_disabled": 0, "fusion_lat": 0.0, "lat": 38.9295215, "bike_id": "7b2fcf6a125153ac54ecd57668aca365", "fusion_lon": 0.0}, {"rental_uris": {"ios": "https://dc.lft.to/lastmile_qr_scan", "android": "https://dc.lft.to/lastmile_qr_scan"}, "type": "electric_scooter", "name": "722e0cd2b12e695094d5c9f9238a82b7", "is_reserved": 0, "lon": -77.04933533333333, "is_disabled": 0, "fusion_lat": 0.0, "lat": 38.899854500000004, "bike_id": "722e0cd2b12e695094d5c9f9238a82b7", "fusion_lon": 0.0}, {"rental_uris": {"ios": "https://dc.lft.to/lastmile_qr_scan", "android": "https://dc.lft.to/lastmile_qr_scan"}, "type": "electric_scooter", "name": "e36bdc918954dbe2f9b47e82b1dfa5bc", "is_reserved": 0, "lon": -77.04262333333334, "is_disabled": 0, "fusion_lat": 0.0, "lat": 38.9049375, "bike_id": "e36bdc918954dbe2f9b47e82b1dfa5bc", "fusion_lon": 0.0}, {"rental_uris": {"ios": "https://dc.lft.to/lastmile_qr_scan", "android": "https://dc.lft.to/lastmile_qr_scan"}, "type": "electric_scooter", "name": "5117c56c89d3757441b556a85666c2ce", "is_reserved": 0, "lon": -77.0262965, "is_disabled": 0, "fusion_lat": 0.0, "lat": 38.88342816666667, "bike_id": "5117c56c89d3757441b556a85666c2ce", "fusion_lon": 0.0}, {"rental_uris": {"ios": "https://dc.lft.to/lastmile_qr_scan", "android": "https://dc.lft.to/lastmile_qr_scan"}, "type": "electric_scooter", "name": "11061e564ab9d54bb18ecfb30e05a949", "is_reserved": 0, "lon": -76.92634733333334, "is_disabled": 0, "fusion_lat": 0.0, "lat": 38.901951, "bike_id": "11061e564ab9d54bb18ecfb30e05a949", "fusion_lon": 0.0}, {"rental_uris": {"ios": "https://dc.lft.to/lastmile_qr_scan", "android": "https://dc.lft.to/lastmile_qr_scan"}, "type": "electric_scooter", "name": "f16c46eb915ffd214e356e85679f57dd", "is_reserved": 0, "lon": -77.02963583333333, "is_disabled": 0, "fusion_lat": 0.0, "lat": 38.92465216666667, "bike_id": "f16c46eb915ffd214e356e85679f57dd", "fusion_lon": 0.0}, {"rental_uris": {"ios": "https://dc.lft.to/lastmile_qr_scan", "android": "https://dc.lft.to/lastmile_qr_scan"}, "type": "electric_scooter", "name": "a969a1e5a0de2aa31e9cb6d2c55756cf", "is_reserved": 0, "lon": -77.03230466666666, "is_disabled": 0, "fusion_lat": 0.0, "lat": 38.91928683333333, "bike_id": "a969a1e5a0de2aa31e9cb6d2c55756cf", "fusion_lon": 0.0}, {"rental_uris": {"ios": "https://dc.lft.to/lastmile_qr_scan", "android": "https://dc.lft.to/lastmile_qr_scan"}, "type": "electric_scooter", "name": "0c69b91659415ec6f7258a52d0285923", "is_reserved": 0, "lon": -77.04381166666667, "is_disabled": 0, "fusion_lat": 0.0, "lat": 38.934211166666664, "bike_id": "0c69b91659415ec6f7258a52d0285923", "fusion_lon": 0.0}, {"rental_uris": {"ios": "https://dc.lft.to/lastmile_qr_scan", "android": "https://dc.lft.to/lastmile_qr_scan"}, "type": "electric_scooter", "name": "adc7a4e72306ead4cef7851a2b0fccc1", "is_reserved": 0, "lon": -76.98336083333334, "is_disabled": 0, "fusion_lat": 0.0, "lat": 38.90081633333333, "bike_id": "adc7a4e72306ead4cef7851a2b0fccc1", "fusion_lon": 0.0}, {"rental_uris": {"ios": "https://dc.lft.to/lastmile_qr_scan", "android": "https://dc.lft.to/lastmile_qr_scan"}, "type": "electric_bike", "name": "395870d63f4ea032be90ff2a18c6f38c", "is_reserved": 0, "lon": -77.001938, "is_disabled": 0, "fusion_lat": 0.0, "lat": 38.94153983333333, "bike_id": "395870d63f4ea032be90ff2a18c6f38c", "fusion_lon": 0.0}, {"rental_uris": {"ios": "https://dc.lft.to/lastmile_qr_scan", "android": "https://dc.lft.to/lastmile_qr_scan"}, "type": "electric_scooter", "name": "375872e3eeb4793a01ac5d9b708ec517", "is_reserved": 0, "lon": -77.04991783333334, "is_disabled": 0, "fusion_lat": 0.0, "lat": 38.90801616666667, "bike_id": "375872e3eeb4793a01ac5d9b708ec517", "fusion_lon": 0.0}, {"rental_uris": {"ios": "https://dc.lft.to/lastmile_qr_scan", "android": "https://dc.lft.to/lastmile_qr_scan"}, "type": "electric_scooter", "name": "7715eff79b782d87f99237548cbe3140", "is_reserved": 0, "lon": -76.9518715, "is_disabled": 0, "fusion_lat": 0.0, "lat": 38.905081833333334, "bike_id": "7715eff79b782d87f99237548cbe3140", "fusion_lon": 0.0}, {"rental_uris": {"ios": "https://dc.lft.to/lastmile_qr_scan", "android": "https://dc.lft.to/lastmile_qr_scan"}, "type": "electric_scooter", "name": "d3c91fe5d1655ab76ac43eb3ecf6c918", "is_reserved": 0, "lon": -77.02773566666667, "is_disabled": 0, "fusion_lat": 0.0, "lat": 38.962887, "bike_id": "d3c91fe5d1655ab76ac43eb3ecf6c918", "fusion_lon": 0.0}, {"rental_uris": {"ios": "https://dc.lft.to/lastmile_qr_scan", "android": "https://dc.lft.to/lastmile_qr_scan"}, "type": "electric_scooter", "name": "cc353a18ad910030003039990e7c4060", "is_reserved": 0, "lon": -77.03198566666667, "is_disabled": 0, "fusion_lat": 0.0, "lat": 38.913504333333336, "bike_id": "cc353a18ad910030003039990e7c4060", "fusion_lon": 0.0}, {"rental_uris": {"ios": "https://dc.lft.to/lastmile_qr_scan", "android": "https://dc.lft.to/lastmile_qr_scan"}, "type": "electric_scooter", "name": "a0ca8dfa9b93dffb54d211205e226339", "is_reserved": 0, "lon": -77.02039216666667, "is_disabled": 0, "fusion_lat": 0.0, "lat": 38.893153166666664, "bike_id": "a0ca8dfa9b93dffb54d211205e226339", "fusion_lon": 0.0}, {"rental_uris": {"ios": "https://dc.lft.to/lastmile_qr_scan", "android": "https://dc.lft.to/lastmile_qr_scan"}, "type": "electric_scooter", "name": "95948aaec297eba160fda0df47cb7ae0", "is_reserved": 0, "lon": -77.03200066666666, "is_disabled": 0, "fusion_lat": 0.0, "lat": 38.908024, "bike_id": "95948aaec297eba160fda0df47cb7ae0", "fusion_lon": 0.0}, {"rental_uris": {"ios": "https://dc.lft.to/lastmile_qr_scan", "android": "https://dc.lft.to/lastmile_qr_scan"}, "type": "electric_scooter", "name": "c123fd5413981c26f80d8a3b3e77d411", "is_reserved": 0, "lon": -77.02482333333333, "is_disabled": 0, "fusion_lat": 0.0, "lat": 38.918054, "bike_id": "c123fd5413981c26f80d8a3b3e77d411", "fusion_lon": 0.0}, {"rental_uris": {"ios": "https://dc.lft.to/lastmile_qr_scan", "android": "https://dc.lft.to/lastmile_qr_scan"}, "type": "electric_scooter", "name": "939b955c6904fd303e2f3be0557d4879", "is_reserved": 0, "lon": -77.0434985, "is_disabled": 0, "fusion_lat": 0.0, "lat": 38.907699666666666, "bike_id": "939b955c6904fd303e2f3be0557d4879", "fusion_lon": 0.0}, {"rental_uris": {"ios": "https://dc.lft.to/lastmile_qr_scan", "android": "https://dc.lft.to/lastmile_qr_scan"}, "type": "electric_scooter", "name": "d9d466ddcd379516fe9865c28e09d524", "is_reserved": 0, "lon": -77.01766066666667, "is_disabled": 0, "fusion_lat": 0.0, "lat": 38.9049375, "bike_id": "d9d466ddcd379516fe9865c28e09d524", "fusion_lon": 0.0}, {"rental_uris": {"ios": "https://dc.lft.to/lastmile_qr_scan", "android": "https://dc.lft.to/lastmile_qr_scan"}, "type": "electric_scooter", "name": "e4a38fdea694c73303cdea4724919595", "is_reserved": 0, "lon": -77.0325015, "is_disabled": 0, "fusion_lat": 0.0, "lat": 38.929552666666666, "bike_id": "e4a38fdea694c73303cdea4724919595", "fusion_lon": 0.0}, {"rental_uris": {"ios": "https://dc.lft.to/lastmile_qr_scan", "android": "https://dc.lft.to/lastmile_qr_scan"}, "type": "electric_scooter", "name": "71511a54b468b37bf185b51a5a0556ab", "is_reserved": 0, "lon": -77.03175716666667, "is_disabled": 0, "fusion_lat": 0.0, "lat": 38.918464666666665, "bike_id": "71511a54b468b37bf185b51a5a0556ab", "fusion_lon": 0.0}, {"rental_uris": {"ios": "https://dc.lft.to/lastmile_qr_scan", "android": "https://dc.lft.to/lastmile_qr_scan"}, "type": "electric_bike", "name": "154bbca49abedd4fd01b09621bb502b9", "is_reserved": 0, "lon": -76.98842583333334, "is_disabled": 0, "fusion_lat": 0.0, "lat": 38.842817, "bike_id": "154bbca49abedd4fd01b09621bb502b9", "fusion_lon": 0.0}, {"rental_uris": {"ios": "https://dc.lft.to/lastmile_qr_scan", "android": "https://dc.lft.to/lastmile_qr_scan"}, "type": "electric_scooter", "name": "0b41365a70ba2ada1b25c2030ee5363a", "is_reserved": 0, "lon": -77.01505716666667, "is_disabled": 0, "fusion_lat": 0.0, "lat": 38.89959183333333, "bike_id": "0b41365a70ba2ada1b25c2030ee5363a", "fusion_lon": 0.0}, {"rental_uris": {"ios": "https://dc.lft.to/lastmile_qr_scan", "android": "https://dc.lft.to/lastmile_qr_scan"}, "type": "electric_scooter", "name": "44587d079158250ae8f9a1aedd56a288", "is_reserved": 0, "lon": -77.01922183333333, "is_disabled": 0, "fusion_lat": 0.0, "lat": 38.93731, "bike_id": "44587d079158250ae8f9a1aedd56a288", "fusion_lon": 0.0}, {"rental_uris": {"ios": "https://dc.lft.to/lastmile_qr_scan", "android": "https://dc.lft.to/lastmile_qr_scan"}, "type": "electric_scooter", "name": "83fbd0d2d6fcaa9c74557a982c3dfa51", "is_reserved": 0, "lon": -77.041155, "is_disabled": 0, "fusion_lat": 0.0, "lat": 38.900112666666665, "bike_id": "83fbd0d2d6fcaa9c74557a982c3dfa51", "fusion_lon": 0.0}, {"rental_uris": {"ios": "https://dc.lft.to/lastmile_qr_scan", "android": "https://dc.lft.to/lastmile_qr_scan"}, "type": "electric_scooter", "name": "89d11c04e6ded19c045fb9e8a772a9d8", "is_reserved": 0, "lon": -77.02136166666666, "is_disabled": 0, "fusion_lat": 0.0, "lat": 38.9155835, "bike_id": "89d11c04e6ded19c045fb9e8a772a9d8", "fusion_lon": 0.0}, {"rental_uris": {"ios": "https://dc.lft.to/lastmile_qr_scan", "android": "https://dc.lft.to/lastmile_qr_scan"}, "type": "electric_scooter", "name": "dd60dd4333d4468a118d31516a2f8291", "is_reserved": 0, "lon": -77.04005016666666, "is_disabled": 0, "fusion_lat": 0.0, "lat": 38.911851, "bike_id": "dd60dd4333d4468a118d31516a2f8291", "fusion_lon": 0.0}, {"rental_uris": {"ios": "https://dc.lft.to/lastmile_qr_scan", "android": "https://dc.lft.to/lastmile_qr_scan"}, "type": "electric_scooter", "name": "8ffdfa7ef68fb2d7088ddc88fb414fae", "is_reserved": 0, "lon": -77.02136366666667, "is_disabled": 0, "fusion_lat": 0.0, "lat": 38.9249025, "bike_id": "8ffdfa7ef68fb2d7088ddc88fb414fae", "fusion_lon": 0.0}, {"rental_uris": {"ios": "https://dc.lft.to/lastmile_qr_scan", "android": "https://dc.lft.to/lastmile_qr_scan"}, "type": "electric_scooter", "name": "363579b641642854117b586862d8573b", "is_reserved": 0, "lon": -77.03711816666667, "is_disabled": 0, "fusion_lat": 0.0, "lat": 38.9166, "bike_id": "363579b641642854117b586862d8573b", "fusion_lon": 0.0}, {"rental_uris": {"ios": "https://dc.lft.to/lastmile_qr_scan", "android": "https://dc.lft.to/lastmile_qr_scan"}, "type": "electric_bike", "name": "88df0b5b730a8c5e75251eb0d82d4b31", "is_reserved": 0, "lon": -76.94537716666666, "is_disabled": 0, "fusion_lat": 0.0, "lat": 38.983025, "bike_id": "88df0b5b730a8c5e75251eb0d82d4b31", "fusion_lon": 0.0}, {"rental_uris": {"ios": "https://dc.lft.to/lastmile_qr_scan", "android": "https://dc.lft.to/lastmile_qr_scan"}, "type": "electric_bike", "name": "53aea25f35f45a3bd7f0fde6a4fc3a74", "is_reserved": 0, "lon": -77.07374416666667, "is_disabled": 0, "fusion_lat": 0.0, "lat": 38.96139266666667, "bike_id": "53aea25f35f45a3bd7f0fde6a4fc3a74", "fusion_lon": 0.0}, {"rental_uris": {"ios": "https://dc.lft.to/lastmile_qr_scan", "android": "https://dc.lft.to/lastmile_qr_scan"}, "type": "electric_scooter", "name": "9185af9b03d584e166e94bde96a814f3", "is_reserved": 0, "lon": -77.08403166666666, "is_disabled": 0, "fusion_lat": 0.0, "lat": 38.90807516666667, "bike_id": "9185af9b03d584e166e94bde96a814f3", "fusion_lon": 0.0}, {"rental_uris": {"ios": "https://dc.lft.to/lastmile_qr_scan", "android": "https://dc.lft.to/lastmile_qr_scan"}, "type": "electric_scooter", "name": "0115c73ccf2e8505ef9c96a0d3d42027", "is_reserved": 0, "lon": -77.00369783333333, "is_disabled": 0, "fusion_lat": 0.0, "lat": 38.87677733333334, "bike_id": "0115c73ccf2e8505ef9c96a0d3d42027", "fusion_lon": 0.0}, {"rental_uris": {"ios": "https://dc.lft.to/lastmile_qr_scan", "android": "https://dc.lft.to/lastmile_qr_scan"}, "type": "electric_scooter", "name": "e567e7c1e09608082b115ae1021b7c8f", "is_reserved": 0, "lon": -77.02388266666667, "is_disabled": 0, "fusion_lat": 0.0, "lat": 38.933245166666666, "bike_id": "e567e7c1e09608082b115ae1021b7c8f", "fusion_lon": 0.0}, {"rental_uris": {"ios": "https://dc.lft.to/lastmile_qr_scan", "android": "https://dc.lft.to/lastmile_qr_scan"}, "type": "electric_bike", "name": "654265593c5051bee98493a5bc42ef29", "is_reserved": 0, "lon": -76.95244283333334, "is_disabled": 0, "fusion_lat": 0.0, "lat": 38.884726, "bike_id": "654265593c5051bee98493a5bc42ef29", "fusion_lon": 0.0}, {"rental_uris": {"ios": "https://dc.lft.to/lastmile_qr_scan", "android": "https://dc.lft.to/lastmile_qr_scan"}, "type": "electric_scooter", "name": "71e1b65667754374333477505162557c", "is_reserved": 0, "lon": -77.014456, "is_disabled": 0, "fusion_lat": 0.0, "lat": 38.91112116666667, "bike_id": "71e1b65667754374333477505162557c", "fusion_lon": 0.0}, {"rental_uris": {"ios": "https://dc.lft.to/lastmile_qr_scan", "android": "https://dc.lft.to/lastmile_qr_scan"}, "type": "electric_bike", "name": "a8ded25ef36264d1375fee6b674d5038", "is_reserved": 0, "lon": -77.07523616666667, "is_disabled": 0, "fusion_lat": 0.0, "lat": 38.84286316666667, "bike_id": "a8ded25ef36264d1375fee6b674d5038", "fusion_lon": 0.0}, {"rental_uris": {"ios": "https://dc.lft.to/lastmile_qr_scan", "android": "https://dc.lft.to/lastmile_qr_scan"}, "type": "electric_scooter", "name": "3838d2946abe2019711b25eb7f7fb085", "is_reserved": 0, "lon": -77.03797866666666, "is_disabled": 0, "fusion_lat": 0.0, "lat": 38.931019166666665, "bike_id": "3838d2946abe2019711b25eb7f7fb085", "fusion_lon": 0.0}, {"rental_uris": {"ios": "https://dc.lft.to/lastmile_qr_scan", "android": "https://dc.lft.to/lastmile_qr_scan"}, "type": "electric_scooter", "name": "c42263ab4c38dbaef1845b40f9bf2172", "is_reserved": 0, "lon": -77.0121245, "is_disabled": 0, "fusion_lat": 0.0, "lat": 38.92120366666666, "bike_id": "c42263ab4c38dbaef1845b40f9bf2172", "fusion_lon": 0.0}, {"rental_uris": {"ios": "https://dc.lft.to/lastmile_qr_scan", "android": "https://dc.lft.to/lastmile_qr_scan"}, "type": "electric_scooter", "name": "14987ad943c7d1ab24db322dad14104c", "is_reserved": 0, "lon": -77.03201583333333, "is_disabled": 0, "fusion_lat": 0.0, "lat": 38.90888316666667, "bike_id": "14987ad943c7d1ab24db322dad14104c", "fusion_lon": 0.0}, {"rental_uris": {"ios": "https://dc.lft.to/lastmile_qr_scan", "android": "https://dc.lft.to/lastmile_qr_scan"}, "type": "electric_scooter", "name": "f047aa031eb4c2f7fcf48893580b6481", "is_reserved": 0, "lon": -77.04032866666667, "is_disabled": 0, "fusion_lat": 0.0, "lat": 38.904104833333335, "bike_id": "f047aa031eb4c2f7fcf48893580b6481", "fusion_lon": 0.0}, {"rental_uris": {"ios": "https://dc.lft.to/lastmile_qr_scan", "android": "https://dc.lft.to/lastmile_qr_scan"}, "type": "electric_scooter", "name": "4f1ca8e0ac123e94152846ddd06420a0", "is_reserved": 0, "lon": -77.0091635, "is_disabled": 0, "fusion_lat": 0.0, "lat": 38.881615833333335, "bike_id": "4f1ca8e0ac123e94152846ddd06420a0", "fusion_lon": 0.0}, {"rental_uris": {"ios": "https://dc.lft.to/lastmile_qr_scan", "android": "https://dc.lft.to/lastmile_qr_scan"}, "type": "electric_scooter", "name": "238e2577cbc46de7820b6a81b5f828fb", "is_reserved": 0, "lon": -77.03258666666666, "is_disabled": 0, "fusion_lat": 0.0, "lat": 38.9198595, "bike_id": "238e2577cbc46de7820b6a81b5f828fb", "fusion_lon": 0.0}, {"rental_uris": {"ios": "https://dc.lft.to/lastmile_qr_scan", "android": "https://dc.lft.to/lastmile_qr_scan"}, "type": "electric_scooter", "name": "6326011923df7552b34d0a470979f632", "is_reserved": 0, "lon": -77.02100316666667, "is_disabled": 0, "fusion_lat": 0.0, "lat": 38.881876166666665, "bike_id": "6326011923df7552b34d0a470979f632", "fusion_lon": 0.0}, {"rental_uris": {"ios": "https://dc.lft.to/lastmile_qr_scan", "android": "https://dc.lft.to/lastmile_qr_scan"}, "type": "electric_scooter", "name": "47e64cbb1766c099291b9526416aaaeb", "is_reserved": 0, "lon": -77.01929116666666, "is_disabled": 0, "fusion_lat": 0.0, "lat": 38.92881233333333, "bike_id": "47e64cbb1766c099291b9526416aaaeb", "fusion_lon": 0.0}, {"rental_uris": {"ios": "https://dc.lft.to/lastmile_qr_scan", "android": "https://dc.lft.to/lastmile_qr_scan"}, "type": "electric_scooter", "name": "d3a1fc83bc0e26f41fb4f94ea2fd6bc6", "is_reserved": 0, "lon": -77.01951666666666, "is_disabled": 0, "fusion_lat": 0.0, "lat": 38.924235833333334, "bike_id": "d3a1fc83bc0e26f41fb4f94ea2fd6bc6", "fusion_lon": 0.0}, {"rental_uris": {"ios": "https://dc.lft.to/lastmile_qr_scan", "android": "https://dc.lft.to/lastmile_qr_scan"}, "type": "electric_scooter", "name": "e5e9bd8f6cf550636ea4dd1472ba7453", "is_reserved": 0, "lon": -77.0383885, "is_disabled": 0, "fusion_lat": 0.0, "lat": 38.93109583333333, "bike_id": "e5e9bd8f6cf550636ea4dd1472ba7453", "fusion_lon": 0.0}, {"rental_uris": {"ios": "https://dc.lft.to/lastmile_qr_scan", "android": "https://dc.lft.to/lastmile_qr_scan"}, "type": "electric_scooter", "name": "6641cf038f946640bd079e46687a4e5a", "is_reserved": 0, "lon": -77.041505, "is_disabled": 0, "fusion_lat": 0.0, "lat": 38.92288883333333, "bike_id": "6641cf038f946640bd079e46687a4e5a", "fusion_lon": 0.0}, {"rental_uris": {"ios": "https://dc.lft.to/lastmile_qr_scan", "android": "https://dc.lft.to/lastmile_qr_scan"}, "type": "electric_scooter", "name": "4c9a85670489e0924501dd29b466570f", "is_reserved": 0, "lon": -77.045395, "is_disabled": 0, "fusion_lat": 0.0, "lat": 38.91785566666667, "bike_id": "4c9a85670489e0924501dd29b466570f", "fusion_lon": 0.0}, {"rental_uris": {"ios": "https://dc.lft.to/lastmile_qr_scan", "android": "https://dc.lft.to/lastmile_qr_scan"}, "type": "electric_scooter", "name": "c35858f6f85cd0975aab4ed515d04982", "is_reserved": 0, "lon": -76.98516383333333, "is_disabled": 0, "fusion_lat": 0.0, "lat": 38.880809166666666, "bike_id": "c35858f6f85cd0975aab4ed515d04982", "fusion_lon": 0.0}, {"rental_uris": {"ios": "https://dc.lft.to/lastmile_qr_scan", "android": "https://dc.lft.to/lastmile_qr_scan"}, "type": "electric_scooter", "name": "bed0c35215f9e21b76365908915d6b40", "is_reserved": 0, "lon": -77.0467585, "is_disabled": 0, "fusion_lat": 0.0, "lat": 38.892357, "bike_id": "bed0c35215f9e21b76365908915d6b40", "fusion_lon": 0.0}, {"rental_uris": {"ios": "https://dc.lft.to/lastmile_qr_scan", "android": "https://dc.lft.to/lastmile_qr_scan"}, "type": "electric_scooter", "name": "870c8818d6e8331901deeedc34fc9573", "is_reserved": 0, "lon": -77.0425805, "is_disabled": 0, "fusion_lat": 0.0, "lat": 38.922193166666666, "bike_id": "870c8818d6e8331901deeedc34fc9573", "fusion_lon": 0.0}, {"rental_uris": {"ios": "https://dc.lft.to/lastmile_qr_scan", "android": "https://dc.lft.to/lastmile_qr_scan"}, "type": "electric_scooter", "name": "157189af856250bb341b30d37682f63b", "is_reserved": 0, "lon": -77.01664566666666, "is_disabled": 0, "fusion_lat": 0.0, "lat": 38.911086166666664, "bike_id": "157189af856250bb341b30d37682f63b", "fusion_lon": 0.0}, {"rental_uris": {"ios": "https://dc.lft.to/lastmile_qr_scan", "android": "https://dc.lft.to/lastmile_qr_scan"}, "type": "electric_scooter", "name": "62a153eefdfb32a2292e9c9b727901c1", "is_reserved": 0, "lon": -77.04287016666666, "is_disabled": 0, "fusion_lat": 0.0, "lat": 38.922360833333336, "bike_id": "62a153eefdfb32a2292e9c9b727901c1", "fusion_lon": 0.0}, {"rental_uris": {"ios": "https://dc.lft.to/lastmile_qr_scan", "android": "https://dc.lft.to/lastmile_qr_scan"}, "type": "electric_scooter", "name": "9ab1b75e4c660fe4fbd077dbc26b59e5", "is_reserved": 0, "lon": -77.02820183333333, "is_disabled": 0, "fusion_lat": 0.0, "lat": 38.8862605, "bike_id": "9ab1b75e4c660fe4fbd077dbc26b59e5", "fusion_lon": 0.0}, {"rental_uris": {"ios": "https://dc.lft.to/lastmile_qr_scan", "android": "https://dc.lft.to/lastmile_qr_scan"}, "type": "electric_scooter", "name": "0eaaff4d4ed66955c1b2874b40b60d04", "is_reserved": 0, "lon": -77.04240283333333, "is_disabled": 0, "fusion_lat": 0.0, "lat": 38.92152216666667, "bike_id": "0eaaff4d4ed66955c1b2874b40b60d04", "fusion_lon": 0.0}, {"rental_uris": {"ios": "https://dc.lft.to/lastmile_qr_scan", "android": "https://dc.lft.to/lastmile_qr_scan"}, "type": "electric_scooter", "name": "ddebe67f47c799d66fd64959074770f4", "is_reserved": 0, "lon": -77.02759566666667, "is_disabled": 0, "fusion_lat": 0.0, "lat": 38.91344683333333, "bike_id": "ddebe67f47c799d66fd64959074770f4", "fusion_lon": 0.0}, {"rental_uris": {"ios": "https://dc.lft.to/lastmile_qr_scan", "android": "https://dc.lft.to/lastmile_qr_scan"}, "type": "electric_scooter", "name": "f12fab3c8d0adbe5e075161140b353f2", "is_reserved": 0, "lon": -77.05004066666666, "is_disabled": 0, "fusion_lat": 0.0, "lat": 38.892284833333335, "bike_id": "f12fab3c8d0adbe5e075161140b353f2", "fusion_lon": 0.0}, {"rental_uris": {"ios": "https://dc.lft.to/lastmile_qr_scan", "android": "https://dc.lft.to/lastmile_qr_scan"}, "type": "electric_scooter", "name": "49252e168e7cd54427bb00cedb291048", "is_reserved": 0, "lon": -77.0403945, "is_disabled": 0, "fusion_lat": 0.0, "lat": 38.924415333333336, "bike_id": "49252e168e7cd54427bb00cedb291048", "fusion_lon": 0.0}, {"rental_uris": {"ios": "https://dc.lft.to/lastmile_qr_scan", "android": "https://dc.lft.to/lastmile_qr_scan"}, "type": "electric_scooter", "name": "4abfaed8b97359a9a0e4176a5b347c6d", "is_reserved": 0, "lon": -76.94323816666666, "is_disabled": 0, "fusion_lat": 0.0, "lat": 38.879236, "bike_id": "4abfaed8b97359a9a0e4176a5b347c6d", "fusion_lon": 0.0}, {"rental_uris": {"ios": "https://dc.lft.to/lastmile_qr_scan", "android": "https://dc.lft.to/lastmile_qr_scan"}, "type": "electric_scooter", "name": "00f5bda42666f58705d40aeb07cedc8e", "is_reserved": 0, "lon": -77.04230083333333, "is_disabled": 0, "fusion_lat": 0.0, "lat": 38.909841166666666, "bike_id": "00f5bda42666f58705d40aeb07cedc8e", "fusion_lon": 0.0}, {"rental_uris": {"ios": "https://dc.lft.to/lastmile_qr_scan", "android": "https://dc.lft.to/lastmile_qr_scan"}, "type": "electric_scooter", "name": "0d157ad3ec0c8b954bd1e3c9f86963f4", "is_reserved": 0, "lon": -77.02777533333334, "is_disabled": 0, "fusion_lat": 0.0, "lat": 38.897586833333335, "bike_id": "0d157ad3ec0c8b954bd1e3c9f86963f4", "fusion_lon": 0.0}, {"rental_uris": {"ios": "https://dc.lft.to/lastmile_qr_scan", "android": "https://dc.lft.to/lastmile_qr_scan"}, "type": "electric_bike", "name": "a5bf26b2a3e624e70f39d789a8c719bf", "is_reserved": 0, "lon": -77.07246766666667, "is_disabled": 0, "fusion_lat": 0.0, "lat": 38.81364766666667, "bike_id": "a5bf26b2a3e624e70f39d789a8c719bf", "fusion_lon": 0.0}, {"rental_uris": {"ios": "https://dc.lft.to/lastmile_qr_scan", "android": "https://dc.lft.to/lastmile_qr_scan"}, "type": "electric_scooter", "name": "a1beefb7634d939537399797f5df1538", "is_reserved": 0, "lon": -77.04410283333333, "is_disabled": 0, "fusion_lat": 0.0, "lat": 38.925812666666666, "bike_id": "a1beefb7634d939537399797f5df1538", "fusion_lon": 0.0}, {"rental_uris": {"ios": "https://dc.lft.to/lastmile_qr_scan", "android": "https://dc.lft.to/lastmile_qr_scan"}, "type": "electric_scooter", "name": "373ccdc7025f00d641232f1700da622d", "is_reserved": 0, "lon": -76.98569183333333, "is_disabled": 0, "fusion_lat": 0.0, "lat": 38.896164166666665, "bike_id": "373ccdc7025f00d641232f1700da622d", "fusion_lon": 0.0}, {"rental_uris": {"ios": "https://dc.lft.to/lastmile_qr_scan", "android": "https://dc.lft.to/lastmile_qr_scan"}, "type": "electric_scooter", "name": "a921d0a795fce4612f56c3360d35ba29", "is_reserved": 0, "lon": -77.01507033333333, "is_disabled": 0, "fusion_lat": 0.0, "lat": 38.901441166666665, "bike_id": "a921d0a795fce4612f56c3360d35ba29", "fusion_lon": 0.0}, {"rental_uris": {"ios": "https://dc.lft.to/lastmile_qr_scan", "android": "https://dc.lft.to/lastmile_qr_scan"}, "type": "electric_scooter", "name": "eaa4b1e476f4952ea61353360d45b0ab", "is_reserved": 0, "lon": -77.0347445, "is_disabled": 0, "fusion_lat": 0.0, "lat": 38.93540816666667, "bike_id": "eaa4b1e476f4952ea61353360d45b0ab", "fusion_lon": 0.0}, {"rental_uris": {"ios": "https://dc.lft.to/lastmile_qr_scan", "android": "https://dc.lft.to/lastmile_qr_scan"}, "type": "electric_scooter", "name": "85d7dbb834362b61e436a8e65bece98c", "is_reserved": 0, "lon": -77.0128715, "is_disabled": 0, "fusion_lat": 0.0, "lat": 38.901779166666664, "bike_id": "85d7dbb834362b61e436a8e65bece98c", "fusion_lon": 0.0}, {"rental_uris": {"ios": "https://dc.lft.to/lastmile_qr_scan", "android": "https://dc.lft.to/lastmile_qr_scan"}, "type": "electric_bike", "name": "e9d9d719fb3f95d103582dda8ec42836", "is_reserved": 0, "lon": -76.98689633333333, "is_disabled": 0, "fusion_lat": 0.0, "lat": 38.944678, "bike_id": "e9d9d719fb3f95d103582dda8ec42836", "fusion_lon": 0.0}, {"rental_uris": {"ios": "https://dc.lft.to/lastmile_qr_scan", "android": "https://dc.lft.to/lastmile_qr_scan"}, "type": "electric_bike", "name": "0d066f5112128d413fa3d920ac6d5fe5", "is_reserved": 0, "lon": -76.94178016666666, "is_disabled": 0, "fusion_lat": 0.0, "lat": 38.9606505, "bike_id": "0d066f5112128d413fa3d920ac6d5fe5", "fusion_lon": 0.0}, {"rental_uris": {"ios": "https://dc.lft.to/lastmile_qr_scan", "android": "https://dc.lft.to/lastmile_qr_scan"}, "type": "electric_scooter", "name": "ae11326156c292e0645d76efd260f1f6", "is_reserved": 0, "lon": -77.03272083333333, "is_disabled": 0, "fusion_lat": 0.0, "lat": 38.91254566666667, "bike_id": "ae11326156c292e0645d76efd260f1f6", "fusion_lon": 0.0}, {"rental_uris": {"ios": "https://dc.lft.to/lastmile_qr_scan", "android": "https://dc.lft.to/lastmile_qr_scan"}, "type": "electric_scooter", "name": "164425b66e5fb38849ad4fbdb3414c90", "is_reserved": 0, "lon": -77.024845, "is_disabled": 0, "fusion_lat": 0.0, "lat": 38.92404466666667, "bike_id": "164425b66e5fb38849ad4fbdb3414c90", "fusion_lon": 0.0}, {"rental_uris": {"ios": "https://dc.lft.to/lastmile_qr_scan", "android": "https://dc.lft.to/lastmile_qr_scan"}, "type": "electric_bike", "name": "f5add4aa8fb25a8096179bcf5a0a4c28", "is_reserved": 0, "lon": -77.07616766666666, "is_disabled": 0, "fusion_lat": 0.0, "lat": 38.9061835, "bike_id": "f5add4aa8fb25a8096179bcf5a0a4c28", "fusion_lon": 0.0}, {"rental_uris": {"ios": "https://dc.lft.to/lastmile_qr_scan", "android": "https://dc.lft.to/lastmile_qr_scan"}, "type": "electric_scooter", "name": "9b4a05c68265edd620403ccf6ac714db", "is_reserved": 0, "lon": -77.042022, "is_disabled": 0, "fusion_lat": 0.0, "lat": 38.905925333333336, "bike_id": "9b4a05c68265edd620403ccf6ac714db", "fusion_lon": 0.0}, {"rental_uris": {"ios": "https://dc.lft.to/lastmile_qr_scan", "android": "https://dc.lft.to/lastmile_qr_scan"}, "type": "electric_scooter", "name": "df2c4474cb1f3233a22fd1b8e2a3ba26", "is_reserved": 0, "lon": -77.03356266666667, "is_disabled": 0, "fusion_lat": 0.0, "lat": 38.954775166666664, "bike_id": "df2c4474cb1f3233a22fd1b8e2a3ba26", "fusion_lon": 0.0}, {"rental_uris": {"ios": "https://dc.lft.to/lastmile_qr_scan", "android": "https://dc.lft.to/lastmile_qr_scan"}, "type": "electric_scooter", "name": "9ce7eef0e0567922170bc31904363c92", "is_reserved": 0, "lon": -76.99703916666667, "is_disabled": 0, "fusion_lat": 0.0, "lat": 38.88762, "bike_id": "9ce7eef0e0567922170bc31904363c92", "fusion_lon": 0.0}, {"rental_uris": {"ios": "https://dc.lft.to/lastmile_qr_scan", "android": "https://dc.lft.to/lastmile_qr_scan"}, "type": "electric_scooter", "name": "046474a7756390ccb9b26a713410ab30", "is_reserved": 0, "lon": -77.044613, "is_disabled": 0, "fusion_lat": 0.0, "lat": 38.91277983333333, "bike_id": "046474a7756390ccb9b26a713410ab30", "fusion_lon": 0.0}, {"rental_uris": {"ios": "https://dc.lft.to/lastmile_qr_scan", "android": "https://dc.lft.to/lastmile_qr_scan"}, "type": "electric_scooter", "name": "083fd466f6f899fe9cbd91c0466dbb68", "is_reserved": 0, "lon": -77.04480933333333, "is_disabled": 0, "fusion_lat": 0.0, "lat": 38.910719, "bike_id": "083fd466f6f899fe9cbd91c0466dbb68", "fusion_lon": 0.0}, {"rental_uris": {"ios": "https://dc.lft.to/lastmile_qr_scan", "android": "https://dc.lft.to/lastmile_qr_scan"}, "type": "electric_scooter", "name": "167dc84997233aaf485c103cac162996", "is_reserved": 0, "lon": -77.01214383333334, "is_disabled": 0, "fusion_lat": 0.0, "lat": 38.91684016666667, "bike_id": "167dc84997233aaf485c103cac162996", "fusion_lon": 0.0}, {"rental_uris": {"ios": "https://dc.lft.to/lastmile_qr_scan", "android": "https://dc.lft.to/lastmile_qr_scan"}, "type": "electric_scooter", "name": "6805ddec6feff733b48f78e7e96d45fb", "is_reserved": 0, "lon": -77.074481, "is_disabled": 0, "fusion_lat": 0.0, "lat": 38.93781216666667, "bike_id": "6805ddec6feff733b48f78e7e96d45fb", "fusion_lon": 0.0}, {"rental_uris": {"ios": "https://dc.lft.to/lastmile_qr_scan", "android": "https://dc.lft.to/lastmile_qr_scan"}, "type": "electric_scooter", "name": "0e6aa49c3963d6d4760688d987345634", "is_reserved": 0, "lon": -77.035363, "is_disabled": 0, "fusion_lat": 0.0, "lat": 38.924778, "bike_id": "0e6aa49c3963d6d4760688d987345634", "fusion_lon": 0.0}, {"rental_uris": {"ios": "https://dc.lft.to/lastmile_qr_scan", "android": "https://dc.lft.to/lastmile_qr_scan"}, "type": "electric_scooter", "name": "6cbeba3cdc2c04c992d49abbed4f947a", "is_reserved": 0, "lon": -77.02173266666667, "is_disabled": 0, "fusion_lat": 0.0, "lat": 38.89467716666667, "bike_id": "6cbeba3cdc2c04c992d49abbed4f947a", "fusion_lon": 0.0}, {"rental_uris": {"ios": "https://dc.lft.to/lastmile_qr_scan", "android": "https://dc.lft.to/lastmile_qr_scan"}, "type": "electric_scooter", "name": "c7949143178742a678a47f08db358e35", "is_reserved": 0, "lon": -76.9490635, "is_disabled": 0, "fusion_lat": 0.0, "lat": 38.895432, "bike_id": "c7949143178742a678a47f08db358e35", "fusion_lon": 0.0}, {"rental_uris": {"ios": "https://dc.lft.to/lastmile_qr_scan", "android": "https://dc.lft.to/lastmile_qr_scan"}, "type": "electric_scooter", "name": "6f1f257b9956e94c797a66497075c175", "is_reserved": 0, "lon": -77.04415516666667, "is_disabled": 0, "fusion_lat": 0.0, "lat": 38.8961975, "bike_id": "6f1f257b9956e94c797a66497075c175", "fusion_lon": 0.0}, {"rental_uris": {"ios": "https://dc.lft.to/lastmile_qr_scan", "android": "https://dc.lft.to/lastmile_qr_scan"}, "type": "electric_scooter", "name": "8dfcd889897bfb53b265049247b8746b", "is_reserved": 0, "lon": -77.00285616666666, "is_disabled": 0, "fusion_lat": 0.0, "lat": 38.901275166666665, "bike_id": "8dfcd889897bfb53b265049247b8746b", "fusion_lon": 0.0}, {"rental_uris": {"ios": "https://dc.lft.to/lastmile_qr_scan", "android": "https://dc.lft.to/lastmile_qr_scan"}, "type": "electric_scooter", "name": "419a4c0351b33a964f0462dae2b7bd6a", "is_reserved": 0, "lon": -77.04505716666667, "is_disabled": 0, "fusion_lat": 0.0, "lat": 38.892234, "bike_id": "419a4c0351b33a964f0462dae2b7bd6a", "fusion_lon": 0.0}, {"rental_uris": {"ios": "https://dc.lft.to/lastmile_qr_scan", "android": "https://dc.lft.to/lastmile_qr_scan"}, "type": "electric_scooter", "name": "14d49cdd893178660e78127290b337b1", "is_reserved": 0, "lon": -77.01802, "is_disabled": 0, "fusion_lat": 0.0, "lat": 38.9197515, "bike_id": "14d49cdd893178660e78127290b337b1", "fusion_lon": 0.0}, {"rental_uris": {"ios": "https://dc.lft.to/lastmile_qr_scan", "android": "https://dc.lft.to/lastmile_qr_scan"}, "type": "electric_scooter", "name": "88eeb54c5268d11a126922ebb38920a5", "is_reserved": 0, "lon": -77.05455483333333, "is_disabled": 0, "fusion_lat": 0.0, "lat": 38.92904516666667, "bike_id": "88eeb54c5268d11a126922ebb38920a5", "fusion_lon": 0.0}, {"rental_uris": {"ios": "https://dc.lft.to/lastmile_qr_scan", "android": "https://dc.lft.to/lastmile_qr_scan"}, "type": "electric_scooter", "name": "ffafca361eb88c9f5088882c7838d8ff", "is_reserved": 0, "lon": -77.049184, "is_disabled": 0, "fusion_lat": 0.0, "lat": 38.91042266666667, "bike_id": "ffafca361eb88c9f5088882c7838d8ff", "fusion_lon": 0.0}, {"rental_uris": {"ios": "https://dc.lft.to/lastmile_qr_scan", "android": "https://dc.lft.to/lastmile_qr_scan"}, "type": "electric_scooter", "name": "db18a1645df136e734a766c081f4d2e8", "is_reserved": 0, "lon": -77.02156066666667, "is_disabled": 0, "fusion_lat": 0.0, "lat": 38.894236, "bike_id": "db18a1645df136e734a766c081f4d2e8", "fusion_lon": 0.0}, {"rental_uris": {"ios": "https://dc.lft.to/lastmile_qr_scan", "android": "https://dc.lft.to/lastmile_qr_scan"}, "type": "electric_scooter", "name": "a1849ee7a5909525fd0b2041a29cb4a1", "is_reserved": 0, "lon": -77.03131866666666, "is_disabled": 0, "fusion_lat": 0.0, "lat": 38.92023916666667, "bike_id": "a1849ee7a5909525fd0b2041a29cb4a1", "fusion_lon": 0.0}, {"rental_uris": {"ios": "https://dc.lft.to/lastmile_qr_scan", "android": "https://dc.lft.to/lastmile_qr_scan"}, "type": "electric_scooter", "name": "879845a0e7702bbda13a82081dcca4a8", "is_reserved": 0, "lon": -77.06443266666666, "is_disabled": 0, "fusion_lat": 0.0, "lat": 38.90888866666667, "bike_id": "879845a0e7702bbda13a82081dcca4a8", "fusion_lon": 0.0}, {"rental_uris": {"ios": "https://dc.lft.to/lastmile_qr_scan", "android": "https://dc.lft.to/lastmile_qr_scan"}, "type": "electric_scooter", "name": "51b241ad28b3948232f5f9f571d2137b", "is_reserved": 0, "lon": -76.9841725, "is_disabled": 0, "fusion_lat": 0.0, "lat": 38.91483866666667, "bike_id": "51b241ad28b3948232f5f9f571d2137b", "fusion_lon": 0.0}, {"rental_uris": {"ios": "https://dc.lft.to/lastmile_qr_scan", "android": "https://dc.lft.to/lastmile_qr_scan"}, "type": "electric_bike", "name": "5dea070ccbc34f5cf9531db644432d3b", "is_reserved": 0, "lon": -76.95751783333333, "is_disabled": 0, "fusion_lat": 0.0, "lat": 38.88861883333333, "bike_id": "5dea070ccbc34f5cf9531db644432d3b", "fusion_lon": 0.0}, {"rental_uris": {"ios": "https://dc.lft.to/lastmile_qr_scan", "android": "https://dc.lft.to/lastmile_qr_scan"}, "type": "electric_scooter", "name": "e06c80ef84d88a26fdb216237f2d87d8", "is_reserved": 0, "lon": -77.04089283333333, "is_disabled": 0, "fusion_lat": 0.0, "lat": 38.905468, "bike_id": "e06c80ef84d88a26fdb216237f2d87d8", "fusion_lon": 0.0}, {"rental_uris": {"ios": "https://dc.lft.to/lastmile_qr_scan", "android": "https://dc.lft.to/lastmile_qr_scan"}, "type": "electric_scooter", "name": "1c57532f6da6c9e3f84f9687e9ec224c", "is_reserved": 0, "lon": -77.02665133333333, "is_disabled": 0, "fusion_lat": 0.0, "lat": 38.8849475, "bike_id": "1c57532f6da6c9e3f84f9687e9ec224c", "fusion_lon": 0.0}, {"rental_uris": {"ios": "https://dc.lft.to/lastmile_qr_scan", "android": "https://dc.lft.to/lastmile_qr_scan"}, "type": "electric_scooter", "name": "df609b1d1638e32ee1c78db8324884c0", "is_reserved": 0, "lon": -76.94719566666667, "is_disabled": 0, "fusion_lat": 0.0, "lat": 38.890810333333334, "bike_id": "df609b1d1638e32ee1c78db8324884c0", "fusion_lon": 0.0}, {"rental_uris": {"ios": "https://dc.lft.to/lastmile_qr_scan", "android": "https://dc.lft.to/lastmile_qr_scan"}, "type": "electric_scooter", "name": "68aef76b6a9e61f59405507b5ec72c49", "is_reserved": 0, "lon": -77.04090066666667, "is_disabled": 0, "fusion_lat": 0.0, "lat": 38.920816333333335, "bike_id": "68aef76b6a9e61f59405507b5ec72c49", "fusion_lon": 0.0}, {"rental_uris": {"ios": "https://dc.lft.to/lastmile_qr_scan", "android": "https://dc.lft.to/lastmile_qr_scan"}, "type": "electric_scooter", "name": "933a5073a90512eaac165adb817daabc", "is_reserved": 0, "lon": -77.02144066666666, "is_disabled": 0, "fusion_lat": 0.0, "lat": 38.91555316666667, "bike_id": "933a5073a90512eaac165adb817daabc", "fusion_lon": 0.0}, {"rental_uris": {"ios": "https://dc.lft.to/lastmile_qr_scan", "android": "https://dc.lft.to/lastmile_qr_scan"}, "type": "electric_scooter", "name": "6dcbfdec42be6929e479a922304f53ab", "is_reserved": 0, "lon": -77.031899, "is_disabled": 0, "fusion_lat": 0.0, "lat": 38.908243, "bike_id": "6dcbfdec42be6929e479a922304f53ab", "fusion_lon": 0.0}, {"rental_uris": {"ios": "https://dc.lft.to/lastmile_qr_scan", "android": "https://dc.lft.to/lastmile_qr_scan"}, "type": "electric_scooter", "name": "14de3d3440169638b8afde28326a14b4", "is_reserved": 0, "lon": -77.04248466666667, "is_disabled": 0, "fusion_lat": 0.0, "lat": 38.9229235, "bike_id": "14de3d3440169638b8afde28326a14b4", "fusion_lon": 0.0}, {"rental_uris": {"ios": "https://dc.lft.to/lastmile_qr_scan", "android": "https://dc.lft.to/lastmile_qr_scan"}, "type": "electric_scooter", "name": "ff80bb5954ce42e995446a3db8de0c23", "is_reserved": 0, "lon": -77.01848983333333, "is_disabled": 0, "fusion_lat": 0.0, "lat": 38.954324666666665, "bike_id": "ff80bb5954ce42e995446a3db8de0c23", "fusion_lon": 0.0}, {"rental_uris": {"ios": "https://dc.lft.to/lastmile_qr_scan", "android": "https://dc.lft.to/lastmile_qr_scan"}, "type": "electric_scooter", "name": "097d7cb96db36e4f086117f1c0e95c1b", "is_reserved": 0, "lon": -77.01199966666667, "is_disabled": 0, "fusion_lat": 0.0, "lat": 38.897085833333335, "bike_id": "097d7cb96db36e4f086117f1c0e95c1b", "fusion_lon": 0.0}, {"rental_uris": {"ios": "https://dc.lft.to/lastmile_qr_scan", "android": "https://dc.lft.to/lastmile_qr_scan"}, "type": "electric_scooter", "name": "2b1ca15c0b29ddb586c86e489a480988", "is_reserved": 0, "lon": -77.02393616666667, "is_disabled": 0, "fusion_lat": 0.0, "lat": 38.915840833333334, "bike_id": "2b1ca15c0b29ddb586c86e489a480988", "fusion_lon": 0.0}, {"rental_uris": {"ios": "https://dc.lft.to/lastmile_qr_scan", "android": "https://dc.lft.to/lastmile_qr_scan"}, "type": "electric_scooter", "name": "1947cd396bfe5cf4a2aa542279e4e6bf", "is_reserved": 0, "lon": -76.999102, "is_disabled": 0, "fusion_lat": 0.0, "lat": 38.92459133333333, "bike_id": "1947cd396bfe5cf4a2aa542279e4e6bf", "fusion_lon": 0.0}, {"rental_uris": {"ios": "https://dc.lft.to/lastmile_qr_scan", "android": "https://dc.lft.to/lastmile_qr_scan"}, "type": "electric_scooter", "name": "3b748c6b34f9c12a98cb085ebcacbab5", "is_reserved": 0, "lon": -76.98985833333333, "is_disabled": 0, "fusion_lat": 0.0, "lat": 38.9175765, "bike_id": "3b748c6b34f9c12a98cb085ebcacbab5", "fusion_lon": 0.0}, {"rental_uris": {"ios": "https://dc.lft.to/lastmile_qr_scan", "android": "https://dc.lft.to/lastmile_qr_scan"}, "type": "electric_scooter", "name": "432178c8c4c6cc0ad381dbe6877858b5", "is_reserved": 0, "lon": -77.03128216666667, "is_disabled": 0, "fusion_lat": 0.0, "lat": 38.916951166666664, "bike_id": "432178c8c4c6cc0ad381dbe6877858b5", "fusion_lon": 0.0}, {"rental_uris": {"ios": "https://dc.lft.to/lastmile_qr_scan", "android": "https://dc.lft.to/lastmile_qr_scan"}, "type": "electric_scooter", "name": "f53c506d71b0a839fbb9f163c1146058", "is_reserved": 0, "lon": -77.04152133333334, "is_disabled": 0, "fusion_lat": 0.0, "lat": 38.91946016666667, "bike_id": "f53c506d71b0a839fbb9f163c1146058", "fusion_lon": 0.0}, {"rental_uris": {"ios": "https://dc.lft.to/lastmile_qr_scan", "android": "https://dc.lft.to/lastmile_qr_scan"}, "type": "electric_scooter", "name": "a2ba9326fdc5ac1c8ff7441f00534031", "is_reserved": 0, "lon": -77.0302305, "is_disabled": 0, "fusion_lat": 0.0, "lat": 38.87842883333333, "bike_id": "a2ba9326fdc5ac1c8ff7441f00534031", "fusion_lon": 0.0}, {"rental_uris": {"ios": "https://dc.lft.to/lastmile_qr_scan", "android": "https://dc.lft.to/lastmile_qr_scan"}, "type": "electric_scooter", "name": "908424cb3dcd5ab03d461433e27b977e", "is_reserved": 0, "lon": -77.05119516666667, "is_disabled": 0, "fusion_lat": 0.0, "lat": 38.90373316666667, "bike_id": "908424cb3dcd5ab03d461433e27b977e", "fusion_lon": 0.0}, {"rental_uris": {"ios": "https://dc.lft.to/lastmile_qr_scan", "android": "https://dc.lft.to/lastmile_qr_scan"}, "type": "electric_scooter", "name": "edf59bb6ff634ec2e9bbb7ffa0f6e659", "is_reserved": 0, "lon": -77.0290105, "is_disabled": 0, "fusion_lat": 0.0, "lat": 38.91722216666667, "bike_id": "edf59bb6ff634ec2e9bbb7ffa0f6e659", "fusion_lon": 0.0}, {"rental_uris": {"ios": "https://dc.lft.to/lastmile_qr_scan", "android": "https://dc.lft.to/lastmile_qr_scan"}, "type": "electric_scooter", "name": "585a8ab13c4ee72ff182fcf89429a5b6", "is_reserved": 0, "lon": -77.04592133333334, "is_disabled": 0, "fusion_lat": 0.0, "lat": 38.91657716666667, "bike_id": "585a8ab13c4ee72ff182fcf89429a5b6", "fusion_lon": 0.0}, {"rental_uris": {"ios": "https://dc.lft.to/lastmile_qr_scan", "android": "https://dc.lft.to/lastmile_qr_scan"}, "type": "electric_scooter", "name": "e8360820dc8fe4c347b5f4ff5e5fa13e", "is_reserved": 0, "lon": -76.926631, "is_disabled": 0, "fusion_lat": 0.0, "lat": 38.882396166666666, "bike_id": "e8360820dc8fe4c347b5f4ff5e5fa13e", "fusion_lon": 0.0}, {"rental_uris": {"ios": "https://dc.lft.to/lastmile_qr_scan", "android": "https://dc.lft.to/lastmile_qr_scan"}, "type": "electric_scooter", "name": "1f9f2231266dbc05ae89ab0cd5d8fd6a", "is_reserved": 0, "lon": -76.99496283333333, "is_disabled": 0, "fusion_lat": 0.0, "lat": 38.862240166666666, "bike_id": "1f9f2231266dbc05ae89ab0cd5d8fd6a", "fusion_lon": 0.0}, {"rental_uris": {"ios": "https://dc.lft.to/lastmile_qr_scan", "android": "https://dc.lft.to/lastmile_qr_scan"}, "type": "electric_scooter", "name": "27fb13ca2ad2a3a7734341013bd118bd", "is_reserved": 0, "lon": -77.01042783333334, "is_disabled": 0, "fusion_lat": 0.0, "lat": 38.91109266666667, "bike_id": "27fb13ca2ad2a3a7734341013bd118bd", "fusion_lon": 0.0}, {"rental_uris": {"ios": "https://dc.lft.to/lastmile_qr_scan", "android": "https://dc.lft.to/lastmile_qr_scan"}, "type": "electric_bike", "name": "8924e19420188bd1da052a21158c7f59", "is_reserved": 0, "lon": -77.01679083333333, "is_disabled": 0, "fusion_lat": 0.0, "lat": 38.876940166666664, "bike_id": "8924e19420188bd1da052a21158c7f59", "fusion_lon": 0.0}, {"rental_uris": {"ios": "https://dc.lft.to/lastmile_qr_scan", "android": "https://dc.lft.to/lastmile_qr_scan"}, "type": "electric_scooter", "name": "60617291016982593a42414f8192f166", "is_reserved": 0, "lon": -77.034761, "is_disabled": 0, "fusion_lat": 0.0, "lat": 38.90559916666667, "bike_id": "60617291016982593a42414f8192f166", "fusion_lon": 0.0}, {"rental_uris": {"ios": "https://dc.lft.to/lastmile_qr_scan", "android": "https://dc.lft.to/lastmile_qr_scan"}, "type": "electric_bike", "name": "e74dd3e8773fd80f5721a891388e737c", "is_reserved": 0, "lon": -76.99803, "is_disabled": 0, "fusion_lat": 0.0, "lat": 38.9053575, "bike_id": "e74dd3e8773fd80f5721a891388e737c", "fusion_lon": 0.0}, {"rental_uris": {"ios": "https://dc.lft.to/lastmile_qr_scan", "android": "https://dc.lft.to/lastmile_qr_scan"}, "type": "electric_scooter", "name": "640f079987d0e8b442691a216a966a17", "is_reserved": 0, "lon": -77.04677366666667, "is_disabled": 0, "fusion_lat": 0.0, "lat": 38.91816383333333, "bike_id": "640f079987d0e8b442691a216a966a17", "fusion_lon": 0.0}, {"rental_uris": {"ios": "https://dc.lft.to/lastmile_qr_scan", "android": "https://dc.lft.to/lastmile_qr_scan"}, "type": "electric_scooter", "name": "2c6f5eb009e16d0a38da3b49f3a00503", "is_reserved": 0, "lon": -77.013752, "is_disabled": 0, "fusion_lat": 0.0, "lat": 38.887202, "bike_id": "2c6f5eb009e16d0a38da3b49f3a00503", "fusion_lon": 0.0}, {"rental_uris": {"ios": "https://dc.lft.to/lastmile_qr_scan", "android": "https://dc.lft.to/lastmile_qr_scan"}, "type": "electric_scooter", "name": "d642fa4406ba0fbeda77fbe472e41837", "is_reserved": 0, "lon": -77.02173133333334, "is_disabled": 0, "fusion_lat": 0.0, "lat": 38.896020666666665, "bike_id": "d642fa4406ba0fbeda77fbe472e41837", "fusion_lon": 0.0}, {"rental_uris": {"ios": "https://dc.lft.to/lastmile_qr_scan", "android": "https://dc.lft.to/lastmile_qr_scan"}, "type": "electric_scooter", "name": "36e1dc67e47dfad4184cf126b74e6362", "is_reserved": 0, "lon": -77.008389, "is_disabled": 0, "fusion_lat": 0.0, "lat": 38.89714166666667, "bike_id": "36e1dc67e47dfad4184cf126b74e6362", "fusion_lon": 0.0}, {"rental_uris": {"ios": "https://dc.lft.to/lastmile_qr_scan", "android": "https://dc.lft.to/lastmile_qr_scan"}, "type": "electric_scooter", "name": "84c842dabf89da306a7449dcae8490ee", "is_reserved": 0, "lon": -77.04546666666667, "is_disabled": 0, "fusion_lat": 0.0, "lat": 38.8972975, "bike_id": "84c842dabf89da306a7449dcae8490ee", "fusion_lon": 0.0}, {"rental_uris": {"ios": "https://dc.lft.to/lastmile_qr_scan", "android": "https://dc.lft.to/lastmile_qr_scan"}, "type": "electric_scooter", "name": "2565bb3c5a9544732beeabf219b61e35", "is_reserved": 0, "lon": -77.07259783333333, "is_disabled": 0, "fusion_lat": 0.0, "lat": 38.93451966666667, "bike_id": "2565bb3c5a9544732beeabf219b61e35", "fusion_lon": 0.0}, {"rental_uris": {"ios": "https://dc.lft.to/lastmile_qr_scan", "android": "https://dc.lft.to/lastmile_qr_scan"}, "type": "electric_scooter", "name": "653bb7efffb1c8841325c047203d84fa", "is_reserved": 0, "lon": -76.9821075, "is_disabled": 0, "fusion_lat": 0.0, "lat": 38.886415666666664, "bike_id": "653bb7efffb1c8841325c047203d84fa", "fusion_lon": 0.0}, {"rental_uris": {"ios": "https://dc.lft.to/lastmile_qr_scan", "android": "https://dc.lft.to/lastmile_qr_scan"}, "type": "electric_scooter", "name": "fe19a65c58430cc158493090220ebf86", "is_reserved": 0, "lon": -77.07723333333334, "is_disabled": 0, "fusion_lat": 0.0, "lat": 38.893714333333335, "bike_id": "fe19a65c58430cc158493090220ebf86", "fusion_lon": 0.0}, {"rental_uris": {"ios": "https://dc.lft.to/lastmile_qr_scan", "android": "https://dc.lft.to/lastmile_qr_scan"}, "type": "electric_scooter", "name": "da69788bdf66912f8b4e1b755645a639", "is_reserved": 0, "lon": -77.06516733333333, "is_disabled": 0, "fusion_lat": 0.0, "lat": 38.94990716666667, "bike_id": "da69788bdf66912f8b4e1b755645a639", "fusion_lon": 0.0}, {"rental_uris": {"ios": "https://dc.lft.to/lastmile_qr_scan", "android": "https://dc.lft.to/lastmile_qr_scan"}, "type": "electric_scooter", "name": "e69abaef0ade8eb9ebc00e87eb0fe722", "is_reserved": 0, "lon": -77.00796566666666, "is_disabled": 0, "fusion_lat": 0.0, "lat": 38.91272033333333, "bike_id": "e69abaef0ade8eb9ebc00e87eb0fe722", "fusion_lon": 0.0}, {"rental_uris": {"ios": "https://dc.lft.to/lastmile_qr_scan", "android": "https://dc.lft.to/lastmile_qr_scan"}, "type": "electric_scooter", "name": "daad52a2e342347834ce866923155cfb", "is_reserved": 0, "lon": -77.027403, "is_disabled": 0, "fusion_lat": 0.0, "lat": 38.92387766666667, "bike_id": "daad52a2e342347834ce866923155cfb", "fusion_lon": 0.0}, {"rental_uris": {"ios": "https://dc.lft.to/lastmile_qr_scan", "android": "https://dc.lft.to/lastmile_qr_scan"}, "type": "electric_scooter", "name": "92a659a2764c94888685a01e9a6d4fbb", "is_reserved": 0, "lon": -76.9947505, "is_disabled": 0, "fusion_lat": 0.0, "lat": 38.862149333333335, "bike_id": "92a659a2764c94888685a01e9a6d4fbb", "fusion_lon": 0.0}, {"rental_uris": {"ios": "https://dc.lft.to/lastmile_qr_scan", "android": "https://dc.lft.to/lastmile_qr_scan"}, "type": "electric_scooter", "name": "48e83aa8170fddab73437345d4a489eb", "is_reserved": 0, "lon": -77.02930266666667, "is_disabled": 0, "fusion_lat": 0.0, "lat": 38.895971833333334, "bike_id": "48e83aa8170fddab73437345d4a489eb", "fusion_lon": 0.0}, {"rental_uris": {"ios": "https://dc.lft.to/lastmile_qr_scan", "android": "https://dc.lft.to/lastmile_qr_scan"}, "type": "electric_scooter", "name": "76db8c367de56b9fd5f116fd0afa3361", "is_reserved": 0, "lon": -77.003282, "is_disabled": 0, "fusion_lat": 0.0, "lat": 38.877053, "bike_id": "76db8c367de56b9fd5f116fd0afa3361", "fusion_lon": 0.0}, {"rental_uris": {"ios": "https://dc.lft.to/lastmile_qr_scan", "android": "https://dc.lft.to/lastmile_qr_scan"}, "type": "electric_scooter", "name": "bc6d560e15abff6775e9ceefad43901f", "is_reserved": 0, "lon": -77.0276025, "is_disabled": 0, "fusion_lat": 0.0, "lat": 38.92967766666666, "bike_id": "bc6d560e15abff6775e9ceefad43901f", "fusion_lon": 0.0}, {"rental_uris": {"ios": "https://dc.lft.to/lastmile_qr_scan", "android": "https://dc.lft.to/lastmile_qr_scan"}, "type": "electric_scooter", "name": "86fca847b58fec8d70431fc0d773267e", "is_reserved": 0, "lon": -77.007483, "is_disabled": 0, "fusion_lat": 0.0, "lat": 38.903553, "bike_id": "86fca847b58fec8d70431fc0d773267e", "fusion_lon": 0.0}, {"rental_uris": {"ios": "https://dc.lft.to/lastmile_qr_scan", "android": "https://dc.lft.to/lastmile_qr_scan"}, "type": "electric_scooter", "name": "9949fd39b693e5c54e1df9ccd8defb21", "is_reserved": 0, "lon": -77.02760633333334, "is_disabled": 0, "fusion_lat": 0.0, "lat": 38.9134245, "bike_id": "9949fd39b693e5c54e1df9ccd8defb21", "fusion_lon": 0.0}, {"rental_uris": {"ios": "https://dc.lft.to/lastmile_qr_scan", "android": "https://dc.lft.to/lastmile_qr_scan"}, "type": "electric_scooter", "name": "c11f6ce824a6539cb817bd32882c74b9", "is_reserved": 0, "lon": -77.01949983333333, "is_disabled": 0, "fusion_lat": 0.0, "lat": 38.92250583333333, "bike_id": "c11f6ce824a6539cb817bd32882c74b9", "fusion_lon": 0.0}, {"rental_uris": {"ios": "https://dc.lft.to/lastmile_qr_scan", "android": "https://dc.lft.to/lastmile_qr_scan"}, "type": "electric_scooter", "name": "e0b89353880510e99cbd687873985a0e", "is_reserved": 0, "lon": -77.05526166666667, "is_disabled": 0, "fusion_lat": 0.0, "lat": 38.93008016666667, "bike_id": "e0b89353880510e99cbd687873985a0e", "fusion_lon": 0.0}, {"rental_uris": {"ios": "https://dc.lft.to/lastmile_qr_scan", "android": "https://dc.lft.to/lastmile_qr_scan"}, "type": "electric_scooter", "name": "0386365566bb7bbdf2ce1a609cc127b6", "is_reserved": 0, "lon": -77.00606833333333, "is_disabled": 0, "fusion_lat": 0.0, "lat": 38.87177583333333, "bike_id": "0386365566bb7bbdf2ce1a609cc127b6", "fusion_lon": 0.0}, {"rental_uris": {"ios": "https://dc.lft.to/lastmile_qr_scan", "android": "https://dc.lft.to/lastmile_qr_scan"}, "type": "electric_scooter", "name": "194e41a9b3cefec1eeb4090c0b8f4fe9", "is_reserved": 0, "lon": -77.04030316666666, "is_disabled": 0, "fusion_lat": 0.0, "lat": 38.90388333333333, "bike_id": "194e41a9b3cefec1eeb4090c0b8f4fe9", "fusion_lon": 0.0}, {"rental_uris": {"ios": "https://dc.lft.to/lastmile_qr_scan", "android": "https://dc.lft.to/lastmile_qr_scan"}, "type": "electric_scooter", "name": "3d42a6e18c41a50924becf08fc209b83", "is_reserved": 0, "lon": -77.024747, "is_disabled": 0, "fusion_lat": 0.0, "lat": 38.9310375, "bike_id": "3d42a6e18c41a50924becf08fc209b83", "fusion_lon": 0.0}, {"rental_uris": {"ios": "https://dc.lft.to/lastmile_qr_scan", "android": "https://dc.lft.to/lastmile_qr_scan"}, "type": "electric_scooter", "name": "4bf61ae0b53d8db88a57941ea7c35907", "is_reserved": 0, "lon": -77.031297, "is_disabled": 0, "fusion_lat": 0.0, "lat": 38.91705966666667, "bike_id": "4bf61ae0b53d8db88a57941ea7c35907", "fusion_lon": 0.0}, {"rental_uris": {"ios": "https://dc.lft.to/lastmile_qr_scan", "android": "https://dc.lft.to/lastmile_qr_scan"}, "type": "electric_scooter", "name": "70350f4c2450e4032dccd13ed0e4bcb8", "is_reserved": 0, "lon": -77.00918433333334, "is_disabled": 0, "fusion_lat": 0.0, "lat": 38.88166066666667, "bike_id": "70350f4c2450e4032dccd13ed0e4bcb8", "fusion_lon": 0.0}, {"rental_uris": {"ios": "https://dc.lft.to/lastmile_qr_scan", "android": "https://dc.lft.to/lastmile_qr_scan"}, "type": "electric_scooter", "name": "0d39284317169739029758a4ca2d4aec", "is_reserved": 0, "lon": -77.03156266666667, "is_disabled": 0, "fusion_lat": 0.0, "lat": 38.899735666666665, "bike_id": "0d39284317169739029758a4ca2d4aec", "fusion_lon": 0.0}, {"rental_uris": {"ios": "https://dc.lft.to/lastmile_qr_scan", "android": "https://dc.lft.to/lastmile_qr_scan"}, "type": "electric_scooter", "name": "8dfc56e846f63124860e1b73a8c0a474", "is_reserved": 0, "lon": -77.04018733333334, "is_disabled": 0, "fusion_lat": 0.0, "lat": 38.91795233333333, "bike_id": "8dfc56e846f63124860e1b73a8c0a474", "fusion_lon": 0.0}, {"rental_uris": {"ios": "https://dc.lft.to/lastmile_qr_scan", "android": "https://dc.lft.to/lastmile_qr_scan"}, "type": "electric_scooter", "name": "8a0bd57c0b00dfcd7867848d7ce247ce", "is_reserved": 0, "lon": -77.01509683333333, "is_disabled": 0, "fusion_lat": 0.0, "lat": 38.88743233333334, "bike_id": "8a0bd57c0b00dfcd7867848d7ce247ce", "fusion_lon": 0.0}, {"rental_uris": {"ios": "https://dc.lft.to/lastmile_qr_scan", "android": "https://dc.lft.to/lastmile_qr_scan"}, "type": "electric_bike", "name": "1bf8412e5aa3ceb2a40ddd89c6a077c7", "is_reserved": 0, "lon": -76.97324033333334, "is_disabled": 0, "fusion_lat": 0.0, "lat": 38.8578515, "bike_id": "1bf8412e5aa3ceb2a40ddd89c6a077c7", "fusion_lon": 0.0}, {"rental_uris": {"ios": "https://dc.lft.to/lastmile_qr_scan", "android": "https://dc.lft.to/lastmile_qr_scan"}, "type": "electric_scooter", "name": "1e77cb476701e06f62de146e9cd11d04", "is_reserved": 0, "lon": -77.02690716666666, "is_disabled": 0, "fusion_lat": 0.0, "lat": 38.90686, "bike_id": "1e77cb476701e06f62de146e9cd11d04", "fusion_lon": 0.0}, {"rental_uris": {"ios": "https://dc.lft.to/lastmile_qr_scan", "android": "https://dc.lft.to/lastmile_qr_scan"}, "type": "electric_scooter", "name": "02b8e5820fdd6b41f5667123d401210d", "is_reserved": 0, "lon": -77.03255616666667, "is_disabled": 0, "fusion_lat": 0.0, "lat": 38.92009766666666, "bike_id": "02b8e5820fdd6b41f5667123d401210d", "fusion_lon": 0.0}, {"rental_uris": {"ios": "https://dc.lft.to/lastmile_qr_scan", "android": "https://dc.lft.to/lastmile_qr_scan"}, "type": "electric_scooter", "name": "eef0bdfa0638efa4e91a0cd2c790ea60", "is_reserved": 0, "lon": -76.94065316666666, "is_disabled": 0, "fusion_lat": 0.0, "lat": 38.88590766666667, "bike_id": "eef0bdfa0638efa4e91a0cd2c790ea60", "fusion_lon": 0.0}, {"rental_uris": {"ios": "https://dc.lft.to/lastmile_qr_scan", "android": "https://dc.lft.to/lastmile_qr_scan"}, "type": "electric_scooter", "name": "4451fb0217997e28eb560b1698e7bbcc", "is_reserved": 0, "lon": -76.952804, "is_disabled": 0, "fusion_lat": 0.0, "lat": 38.88525966666667, "bike_id": "4451fb0217997e28eb560b1698e7bbcc", "fusion_lon": 0.0}, {"rental_uris": {"ios": "https://dc.lft.to/lastmile_qr_scan", "android": "https://dc.lft.to/lastmile_qr_scan"}, "type": "electric_scooter", "name": "f4676886fe452536f4ea3c14aaee1f2d", "is_reserved": 0, "lon": -76.995103, "is_disabled": 0, "fusion_lat": 0.0, "lat": 38.90975366666667, "bike_id": "f4676886fe452536f4ea3c14aaee1f2d", "fusion_lon": 0.0}, {"rental_uris": {"ios": "https://dc.lft.to/lastmile_qr_scan", "android": "https://dc.lft.to/lastmile_qr_scan"}, "type": "electric_scooter", "name": "436fc34583359f816ce7fba91644e95b", "is_reserved": 0, "lon": -77.02559216666667, "is_disabled": 0, "fusion_lat": 0.0, "lat": 38.951742833333334, "bike_id": "436fc34583359f816ce7fba91644e95b", "fusion_lon": 0.0}, {"rental_uris": {"ios": "https://dc.lft.to/lastmile_qr_scan", "android": "https://dc.lft.to/lastmile_qr_scan"}, "type": "electric_scooter", "name": "b53571d235e2e1a775a3793730e5c689", "is_reserved": 0, "lon": -77.00476616666667, "is_disabled": 0, "fusion_lat": 0.0, "lat": 38.88524233333333, "bike_id": "b53571d235e2e1a775a3793730e5c689", "fusion_lon": 0.0}, {"rental_uris": {"ios": "https://dc.lft.to/lastmile_qr_scan", "android": "https://dc.lft.to/lastmile_qr_scan"}, "type": "electric_scooter", "name": "8dab779c7f4dd6ae7b87da0e28a4ecc5", "is_reserved": 0, "lon": -77.03449133333334, "is_disabled": 0, "fusion_lat": 0.0, "lat": 38.90235533333333, "bike_id": "8dab779c7f4dd6ae7b87da0e28a4ecc5", "fusion_lon": 0.0}, {"rental_uris": {"ios": "https://dc.lft.to/lastmile_qr_scan", "android": "https://dc.lft.to/lastmile_qr_scan"}, "type": "electric_scooter", "name": "f6681eec857a8e3934fa6ae2b1941aca", "is_reserved": 0, "lon": -77.02180466666667, "is_disabled": 0, "fusion_lat": 0.0, "lat": 38.906687833333336, "bike_id": "f6681eec857a8e3934fa6ae2b1941aca", "fusion_lon": 0.0}, {"rental_uris": {"ios": "https://dc.lft.to/lastmile_qr_scan", "android": "https://dc.lft.to/lastmile_qr_scan"}, "type": "electric_scooter", "name": "5d55257cc245c70d04536a2d11ebf3d1", "is_reserved": 0, "lon": -76.98106216666666, "is_disabled": 0, "fusion_lat": 0.0, "lat": 38.902442, "bike_id": "5d55257cc245c70d04536a2d11ebf3d1", "fusion_lon": 0.0}, {"rental_uris": {"ios": "https://dc.lft.to/lastmile_qr_scan", "android": "https://dc.lft.to/lastmile_qr_scan"}, "type": "electric_scooter", "name": "6fb3cabf9f19b8c4f2c4e1ab6bcf470c", "is_reserved": 0, "lon": -76.999191, "is_disabled": 0, "fusion_lat": 0.0, "lat": 38.9217505, "bike_id": "6fb3cabf9f19b8c4f2c4e1ab6bcf470c", "fusion_lon": 0.0}, {"rental_uris": {"ios": "https://dc.lft.to/lastmile_qr_scan", "android": "https://dc.lft.to/lastmile_qr_scan"}, "type": "electric_scooter", "name": "066ad05bf89bf8d11610b6f8819b7539", "is_reserved": 0, "lon": -77.03845016666666, "is_disabled": 0, "fusion_lat": 0.0, "lat": 38.911696166666665, "bike_id": "066ad05bf89bf8d11610b6f8819b7539", "fusion_lon": 0.0}, {"rental_uris": {"ios": "https://dc.lft.to/lastmile_qr_scan", "android": "https://dc.lft.to/lastmile_qr_scan"}, "type": "electric_scooter", "name": "69e9d0b9afdff91e98d2eaaeaa2f24a9", "is_reserved": 0, "lon": -77.01773333333334, "is_disabled": 0, "fusion_lat": 0.0, "lat": 38.900595833333334, "bike_id": "69e9d0b9afdff91e98d2eaaeaa2f24a9", "fusion_lon": 0.0}, {"rental_uris": {"ios": "https://dc.lft.to/lastmile_qr_scan", "android": "https://dc.lft.to/lastmile_qr_scan"}, "type": "electric_scooter", "name": "2b7653b5bbd2c9562dd88bfe009fb9cf", "is_reserved": 0, "lon": -77.020738, "is_disabled": 0, "fusion_lat": 0.0, "lat": 38.908711333333336, "bike_id": "2b7653b5bbd2c9562dd88bfe009fb9cf", "fusion_lon": 0.0}, {"rental_uris": {"ios": "https://dc.lft.to/lastmile_qr_scan", "android": "https://dc.lft.to/lastmile_qr_scan"}, "type": "electric_scooter", "name": "ad487635154f0bbd4bde2d2d11ed8f24", "is_reserved": 0, "lon": -76.99350533333333, "is_disabled": 0, "fusion_lat": 0.0, "lat": 38.8768955, "bike_id": "ad487635154f0bbd4bde2d2d11ed8f24", "fusion_lon": 0.0}, {"rental_uris": {"ios": "https://dc.lft.to/lastmile_qr_scan", "android": "https://dc.lft.to/lastmile_qr_scan"}, "type": "electric_scooter", "name": "131390862cb5b334e87f5d80f0f67f64", "is_reserved": 0, "lon": -77.0312685, "is_disabled": 0, "fusion_lat": 0.0, "lat": 38.915531666666666, "bike_id": "131390862cb5b334e87f5d80f0f67f64", "fusion_lon": 0.0}, {"rental_uris": {"ios": "https://dc.lft.to/lastmile_qr_scan", "android": "https://dc.lft.to/lastmile_qr_scan"}, "type": "electric_scooter", "name": "0436b01735e086eada3c9ac3b4281335", "is_reserved": 0, "lon": -76.9893, "is_disabled": 0, "fusion_lat": 0.0, "lat": 38.878645, "bike_id": "0436b01735e086eada3c9ac3b4281335", "fusion_lon": 0.0}, {"rental_uris": {"ios": "https://dc.lft.to/lastmile_qr_scan", "android": "https://dc.lft.to/lastmile_qr_scan"}, "type": "electric_scooter", "name": "0b86c7e3497fdf540840e74c5fea06f2", "is_reserved": 0, "lon": -77.074529, "is_disabled": 0, "fusion_lat": 0.0, "lat": 38.9378075, "bike_id": "0b86c7e3497fdf540840e74c5fea06f2", "fusion_lon": 0.0}, {"rental_uris": {"ios": "https://dc.lft.to/lastmile_qr_scan", "android": "https://dc.lft.to/lastmile_qr_scan"}, "type": "electric_scooter", "name": "fcfc3d96ffd6861b1691095361c94079", "is_reserved": 0, "lon": -77.059221, "is_disabled": 0, "fusion_lat": 0.0, "lat": 38.90148933333333, "bike_id": "fcfc3d96ffd6861b1691095361c94079", "fusion_lon": 0.0}, {"rental_uris": {"ios": "https://dc.lft.to/lastmile_qr_scan", "android": "https://dc.lft.to/lastmile_qr_scan"},