{"data": {"bikes": [{"fusion_lat": 0.0, "type": "electric_scooter", "name": "3b60b92e899cadab55214208f97410a8", "fusion_lon": 0.0, "bike_id": "3b60b92e899cadab55214208f97410a8", "is_reserved": 0, "rental_uris": {"android": "https://dc.lft.to/lastmile_qr_scan", "ios": "https://dc.lft.to/lastmile_qr_scan"}, "lat": 38.88146316666667, "is_disabled": 0, "lon": -76.99488733333334}, {"fusion_lat": 0.0, "type": "electric_scooter", "name": "96c26304053819218e2baf0ff6965a4c", "fusion_lon": 0.0, "bike_id": "96c26304053819218e2baf0ff6965a4c", "is_reserved": 0, "rental_uris": {"android": "https://dc.lft.to/lastmile_qr_scan", "ios": "https://dc.lft.to/lastmile_qr_scan"}, "lat": 38.887491, "is_disabled": 0, "lon": -77.0118995}, {"fusion_lat": 0.0, "type": "electric_scooter", "name": "d269e10a818fbd7c0fa62cffd4d3d5d1", "fusion_lon": 0.0, "bike_id": "d269e10a818fbd7c0fa62cffd4d3d5d1", "is_reserved": 0, "rental_uris": {"android": "https://dc.lft.to/lastmile_qr_scan", "ios": "https://dc.lft.to/lastmile_qr_scan"}, "lat": 38.9318735, "is_disabled": 0, "lon": -77.0365785}, {"fusion_lat": 0.0, "type": "electric_scooter", "name": "17916a1064b865c3d489543f70dc9248", "fusion_lon": 0.0, "bike_id": "17916a1064b865c3d489543f70dc9248", "is_reserved": 0, "rental_uris": {"android": "https://dc.lft.to/lastmile_qr_scan", "ios": "https://dc.lft.to/lastmile_qr_scan"}, "lat": 38.92618866666667, "is_disabled": 0, "lon": -77.04319966666667}, {"fusion_lat": 0.0, "type": "electric_bike", "name": "4b7383a853757f8a1411faf719659a0d", "fusion_lon": 0.0, "bike_id": "4b7383a853757f8a1411faf719659a0d", "is_reserved": 0, "rental_uris": {"android": "https://dc.lft.to/lastmile_qr_scan", "ios": "https://dc.lft.to/lastmile_qr_scan"}, "lat": 38.83784283333333, "is_disabled": 0, "lon": -76.9975585}, {"fusion_lat": 0.0, "type": "electric_scooter", "name": "c9c6dd547bbd5708cc12fefcb3d6f74d", "fusion_lon": 0.0, "bike_id": "c9c6dd547bbd5708cc12fefcb3d6f74d", "is_reserved": 0, "rental_uris": {"android": "https://dc.lft.to/lastmile_qr_scan", "ios": "https://dc.lft.to/lastmile_qr_scan"}, "lat": 38.892258, "is_disabled": 0, "lon": -77.02780983333334}, {"fusion_lat": 0.0, "type": "electric_scooter", "name": "5fcd062f2d195e90506f013e8cdc9eff", "fusion_lon": 0.0, "bike_id": "5fcd062f2d195e90506f013e8cdc9eff", "is_reserved": 0, "rental_uris": {"android": "https://dc.lft.to/lastmile_qr_scan", "ios": "https://dc.lft.to/lastmile_qr_scan"}, "lat": 38.89018866666667, "is_disabled": 0, "lon": -76.93731183333334}, {"fusion_lat": 0.0, "type": "electric_scooter", "name": "27aca5d4d0139bfc387393a2c33d6a7f", "fusion_lon": 0.0, "bike_id": "27aca5d4d0139bfc387393a2c33d6a7f", "is_reserved": 0, "rental_uris": {"android": "https://dc.lft.to/lastmile_qr_scan", "ios": "https://dc.lft.to/lastmile_qr_scan"}, "lat": 38.834953166666665, "is_disabled": 0, "lon": -77.00677983333334}, {"fusion_lat": 0.0, "type": "electric_scooter", "name": "61f10709f0739ee6c61b9567855d3bcf", "fusion_lon": 0.0, "bike_id": "61f10709f0739ee6c61b9567855d3bcf", "is_reserved": 0, "rental_uris": {"android": "https://dc.lft.to/lastmile_qr_scan", "ios": "https://dc.lft.to/lastmile_qr_scan"}, "lat": 38.89754683333334, "is_disabled": 0, "lon": -77.03069916666666}, {"fusion_lat": 0.0, "type": "electric_scooter", "name": "af6f74150f3aaa2d4354b63dfdd8bb10", "fusion_lon": 0.0, "bike_id": "af6f74150f3aaa2d4354b63dfdd8bb10", "is_reserved": 0, "rental_uris": {"android": "https://dc.lft.to/lastmile_qr_scan", "ios": "https://dc.lft.to/lastmile_qr_scan"}, "lat": 38.894964333333334, "is_disabled": 0, "lon": -77.01102766666666}, {"fusion_lat": 0.0, "type": "electric_scooter", "name": "8c3eebfa07b3946f88c50583609339b2", "fusion_lon": 0.0, "bike_id": "8c3eebfa07b3946f88c50583609339b2", "is_reserved": 0, "rental_uris": {"android": "https://dc.lft.to/lastmile_qr_scan", "ios": "https://dc.lft.to/lastmile_qr_scan"}, "lat": 38.919175333333335, "is_disabled": 0, "lon": -77.03177266666667}, {"fusion_lat": 0.0, "type": "electric_scooter", "name": "3b70b3d05e0eb2859efb0b57b30cb0db", "fusion_lon": 0.0, "bike_id": "3b70b3d05e0eb2859efb0b57b30cb0db", "is_reserved": 0, "rental_uris": {"android": "https://dc.lft.to/lastmile_qr_scan", "ios": "https://dc.lft.to/lastmile_qr_scan"}, "lat": 38.90254766666666, "is_disabled": 0, "lon": -76.99557983333334}, {"fusion_lat": 0.0, "type": "electric_bike", "name": "4d9562a3a68fddda4b4fd8b67e5f68cb", "fusion_lon": 0.0, "bike_id": "4d9562a3a68fddda4b4fd8b67e5f68cb", "is_reserved": 0, "rental_uris": {"android": "https://dc.lft.to/lastmile_qr_scan", "ios": "https://dc.lft.to/lastmile_qr_scan"}, "lat": 39.052838333333334, "is_disabled": 0, "lon": -77.080706}, {"fusion_lat": 0.0, "type": "electric_scooter", "name": "fa8a8875a8a6a3f846c6e8a0241b50c6", "fusion_lon": 0.0, "bike_id": "fa8a8875a8a6a3f846c6e8a0241b50c6", "is_reserved": 0, "rental_uris": {"android": "https://dc.lft.to/lastmile_qr_scan", "ios": "https://dc.lft.to/lastmile_qr_scan"}, "lat": 38.872001833333336, "is_disabled": 0, "lon": -77.01073}, {"fusion_lat": 0.0, "type": "electric_scooter", "name": "3c43cfe136813f03792e4c3ebae5266c", "fusion_lon": 0.0, "bike_id": "3c43cfe136813f03792e4c3ebae5266c", "is_reserved": 0, "rental_uris": {"android": "https://dc.lft.to/lastmile_qr_scan", "ios": "https://dc.lft.to/lastmile_qr_scan"}, "lat": 38.87701833333333, "is_disabled": 0, "lon": -77.0041465}, {"fusion_lat": 0.0, "type": "electric_scooter", "name": "654816ed8425b30c381de12fa321a290", "fusion_lon": 0.0, "bike_id": "654816ed8425b30c381de12fa321a290", "is_reserved": 0, "rental_uris": {"android": "https://dc.lft.to/lastmile_qr_scan", "ios": "https://dc.lft.to/lastmile_qr_scan"}, "lat": 38.897314, "is_disabled": 0, "lon": -77.04364116666666}, {"fusion_lat": 0.0, "type": "electric_scooter", "name": "f2be5b42c9fa34fdd804b42a6e97131f", "fusion_lon": 0.0, "bike_id": "f2be5b42c9fa34fdd804b42a6e97131f", "is_reserved": 0, "rental_uris": {"android": "https://dc.lft.to/lastmile_qr_scan", "ios": "https://dc.lft.to/lastmile_qr_scan"}, "lat": 38.87832233333334, "is_disabled": 0, "lon": -76.96309366666667}, {"fusion_lat": 0.0, "type": "electric_scooter", "name": "b38a9605dc11f781f2d2182debf5bb31", "fusion_lon": 0.0, "bike_id": "b38a9605dc11f781f2d2182debf5bb31", "is_reserved": 0, "rental_uris": {"android": "https://dc.lft.to/lastmile_qr_scan", "ios": "https://dc.lft.to/lastmile_qr_scan"}, "lat": 38.9111405, "is_disabled": 0, "lon": -77.04478266666666}, {"fusion_lat": 0.0, "type": "electric_scooter", "name": "4986eb80af629e496f9a155577bd84dc", "fusion_lon": 0.0, "bike_id": "4986eb80af629e496f9a155577bd84dc", "is_reserved": 0, "rental_uris": {"android": "https://dc.lft.to/lastmile_qr_scan", "ios": "https://dc.lft.to/lastmile_qr_scan"}, "lat": 38.9846085, "is_disabled": 0, "lon": -77.02639033333334}, {"fusion_lat": 0.0, "type": "electric_scooter", "name": "6484695b9e8f099509e4cbfb6ad4ebd7", "fusion_lon": 0.0, "bike_id": "6484695b9e8f099509e4cbfb6ad4ebd7", "is_reserved": 0, "rental_uris": {"android": "https://dc.lft.to/lastmile_qr_scan", "ios": "https://dc.lft.to/lastmile_qr_scan"}, "lat": 38.90854483333333, "is_disabled": 0, "lon": -77.04564416666666}, {"fusion_lat": 0.0, "type": "electric_bike", "name": "8ed9b37903997374a3ed943b15e06033", "fusion_lon": 0.0, "bike_id": "8ed9b37903997374a3ed943b15e06033", "is_reserved": 0, "rental_uris": {"android": "https://dc.lft.to/lastmile_qr_scan", "ios": "https://dc.lft.to/lastmile_qr_scan"}, "lat": 38.961068166666664, "is_disabled": 0, "lon": -76.9281205}, {"fusion_lat": 0.0, "type": "electric_scooter", "name": "a1f96d081804806590359da87706e319", "fusion_lon": 0.0, "bike_id": "a1f96d081804806590359da87706e319", "is_reserved": 0, "rental_uris": {"android": "https://dc.lft.to/lastmile_qr_scan", "ios": "https://dc.lft.to/lastmile_qr_scan"}, "lat": 38.88725133333333, "is_disabled": 0, "lon": -77.02838666666666}, {"fusion_lat": 0.0, "type": "electric_scooter", "name": "bc1e599aa8d40805c770f2e165d9c334", "fusion_lon": 0.0, "bike_id": "bc1e599aa8d40805c770f2e165d9c334", "is_reserved": 0, "rental_uris": {"android": "https://dc.lft.to/lastmile_qr_scan", "ios": "https://dc.lft.to/lastmile_qr_scan"}, "lat": 38.92322816666667, "is_disabled": 0, "lon": -77.02137583333334}, {"fusion_lat": 0.0, "type": "electric_scooter", "name": "5988a96a7da529d556b36ebc1d795051", "fusion_lon": 0.0, "bike_id": "5988a96a7da529d556b36ebc1d795051", "is_reserved": 0, "rental_uris": {"android": "https://dc.lft.to/lastmile_qr_scan", "ios": "https://dc.lft.to/lastmile_qr_scan"}, "lat": 38.86991866666666, "is_disabled": 0, "lon": -76.97591116666666}, {"fusion_lat": 0.0, "type": "electric_scooter", "name": "1293bf74a655162b0f71f0575f53ad5f", "fusion_lon": 0.0, "bike_id": "1293bf74a655162b0f71f0575f53ad5f", "is_reserved": 0, "rental_uris": {"android": "https://dc.lft.to/lastmile_qr_scan", "ios": "https://dc.lft.to/lastmile_qr_scan"}, "lat": 38.924390333333335, "is_disabled": 0, "lon": -77.05212833333333}, {"fusion_lat": 0.0, "type": "electric_scooter", "name": "39fe18eed798174a138bfb8d1b6ea527", "fusion_lon": 0.0, "bike_id": "39fe18eed798174a138bfb8d1b6ea527", "is_reserved": 0, "rental_uris": {"android": "https://dc.lft.to/lastmile_qr_scan", "ios": "https://dc.lft.to/lastmile_qr_scan"}, "lat": 38.90269716666667, "is_disabled": 0, "lon": -77.0282445}, {"fusion_lat": 0.0, "type": "electric_scooter", "name": "adecac885b2cad38d29bdaa160184a5d", "fusion_lon": 0.0, "bike_id": "adecac885b2cad38d29bdaa160184a5d", "is_reserved": 0, "rental_uris": {"android": "https://dc.lft.to/lastmile_qr_scan", "ios": "https://dc.lft.to/lastmile_qr_scan"}, "lat": 38.894046833333334, "is_disabled": 0, "lon": -77.04417433333333}, {"fusion_lat": 0.0, "type": "electric_scooter", "name": "07afe3ce61289926b8001fff1bb4ad17", "fusion_lon": 0.0, "bike_id": "07afe3ce61289926b8001fff1bb4ad17", "is_reserved": 0, "rental_uris": {"android": "https://dc.lft.to/lastmile_qr_scan", "ios": "https://dc.lft.to/lastmile_qr_scan"}, "lat": 38.871869333333336, "is_disabled": 0, "lon": -77.0059795}, {"fusion_lat": 0.0, "type": "electric_scooter", "name": "cc0a31a60315c4923e400f1197443938", "fusion_lon": 0.0, "bike_id": "cc0a31a60315c4923e400f1197443938", "is_reserved": 0, "rental_uris": {"android": "https://dc.lft.to/lastmile_qr_scan", "ios": "https://dc.lft.to/lastmile_qr_scan"}, "lat": 38.903896, "is_disabled": 0, "lon": -77.03859333333334}, {"fusion_lat": 0.0, "type": "electric_scooter", "name": "7527b0360b8530a5a707b7ed02f45b31", "fusion_lon": 0.0, "bike_id": "7527b0360b8530a5a707b7ed02f45b31", "is_reserved": 0, "rental_uris": {"android": "https://dc.lft.to/lastmile_qr_scan", "ios": "https://dc.lft.to/lastmile_qr_scan"}, "lat": 38.899618333333336, "is_disabled": 0, "lon": -77.04795166666666}, {"fusion_lat": 0.0, "type": "electric_scooter", "name": "31657e18a77eb793fef20777592e113a", "fusion_lon": 0.0, "bike_id": "31657e18a77eb793fef20777592e113a", "is_reserved": 0, "rental_uris": {"android": "https://dc.lft.to/lastmile_qr_scan", "ios": "https://dc.lft.to/lastmile_qr_scan"}, "lat": 38.89944083333334, "is_disabled": 0, "lon": -77.01449683333334}, {"fusion_lat": 0.0, "type": "electric_scooter", "name": "553f2756935a985824186a4639fa6bf9", "fusion_lon": 0.0, "bike_id": "553f2756935a985824186a4639fa6bf9", "is_reserved": 0, "rental_uris": {"android": "https://dc.lft.to/lastmile_qr_scan", "ios": "https://dc.lft.to/lastmile_qr_scan"}, "lat": 38.9214515, "is_disabled": 0, "lon": -77.03506033333333}, {"fusion_lat": 0.0, "type": "electric_scooter", "name": "50c95ea8fbf68326cf43437439328ae1", "fusion_lon": 0.0, "bike_id": "50c95ea8fbf68326cf43437439328ae1", "is_reserved": 0, "rental_uris": {"android": "https://dc.lft.to/lastmile_qr_scan", "ios": "https://dc.lft.to/lastmile_qr_scan"}, "lat": 38.88717233333333, "is_disabled": 0, "lon": -77.02204833333333}, {"fusion_lat": 0.0, "type": "electric_scooter", "name": "331dc724d8b102ffe907cd6110911c49", "fusion_lon": 0.0, "bike_id": "331dc724d8b102ffe907cd6110911c49", "is_reserved": 0, "rental_uris": {"android": "https://dc.lft.to/lastmile_qr_scan", "ios": "https://dc.lft.to/lastmile_qr_scan"}, "lat": 38.956247833333336, "is_disabled": 0, "lon": -77.0245885}, {"fusion_lat": 0.0, "type": "electric_scooter", "name": "e38f93ff04c6fa84b13fd861a9d4e436", "fusion_lon": 0.0, "bike_id": "e38f93ff04c6fa84b13fd861a9d4e436", "is_reserved": 0, "rental_uris": {"android": "https://dc.lft.to/lastmile_qr_scan", "ios": "https://dc.lft.to/lastmile_qr_scan"}, "lat": 38.93571633333333, "is_disabled": 0, "lon": -77.021205}, {"fusion_lat": 0.0, "type": "electric_bike", "name": "668426c20f5bec4c84124b675d8f9e20", "fusion_lon": 0.0, "bike_id": "668426c20f5bec4c84124b675d8f9e20", "is_reserved": 0, "rental_uris": {"android": "https://dc.lft.to/lastmile_qr_scan", "ios": "https://dc.lft.to/lastmile_qr_scan"}, "lat": 38.94672283333333, "is_disabled": 0, "lon": -76.98314466666666}, {"fusion_lat": 0.0, "type": "electric_scooter", "name": "b5e8abded053b420a40190269d9592ec", "fusion_lon": 0.0, "bike_id": "b5e8abded053b420a40190269d9592ec", "is_reserved": 0, "rental_uris": {"android": "https://dc.lft.to/lastmile_qr_scan", "ios": "https://dc.lft.to/lastmile_qr_scan"}, "lat": 38.899144, "is_disabled": 0, "lon": -76.93370416666667}, {"fusion_lat": 0.0, "type": "electric_scooter", "name": "4e0eb5efd2e08a53aaa776e036127067", "fusion_lon": 0.0, "bike_id": "4e0eb5efd2e08a53aaa776e036127067", "is_reserved": 0, "rental_uris": {"android": "https://dc.lft.to/lastmile_qr_scan", "ios": "https://dc.lft.to/lastmile_qr_scan"}, "lat": 38.902362333333336, "is_disabled": 0, "lon": -77.043406}, {"fusion_lat": 0.0, "type": "electric_scooter", "name": "ceeac9666ac7980e6ca214db41ec9688", "fusion_lon": 0.0, "bike_id": "ceeac9666ac7980e6ca214db41ec9688", "is_reserved": 0, "rental_uris": {"android": "https://dc.lft.to/lastmile_qr_scan", "ios": "https://dc.lft.to/lastmile_qr_scan"}, "lat": 38.893680833333335, "is_disabled": 0, "lon": -76.94977216666666}, {"fusion_lat": 0.0, "type": "electric_scooter", "name": "ef6ad3bb08e2f6b4e138c389065fe22e", "fusion_lon": 0.0, "bike_id": "ef6ad3bb08e2f6b4e138c389065fe22e", "is_reserved": 0, "rental_uris": {"android": "https://dc.lft.to/lastmile_qr_scan", "ios": "https://dc.lft.to/lastmile_qr_scan"}, "lat": 38.91781483333333, "is_disabled": 0, "lon": -77.04273866666666}, {"fusion_lat": 0.0, "type": "electric_bike", "name": "36514341d6e9835b5bc00ac56ea0ac4c", "fusion_lon": 0.0, "bike_id": "36514341d6e9835b5bc00ac56ea0ac4c", "is_reserved": 0, "rental_uris": {"android": "https://dc.lft.to/lastmile_qr_scan", "ios": "https://dc.lft.to/lastmile_qr_scan"}, "lat": 38.852104833333335, "is_disabled": 0, "lon": -77.1012925}, {"fusion_lat": 0.0, "type": "electric_scooter", "name": "5f6b8e6ad0c69fd0cad5818824ab92cc", "fusion_lon": 0.0, "bike_id": "5f6b8e6ad0c69fd0cad5818824ab92cc", "is_reserved": 0, "rental_uris": {"android": "https://dc.lft.to/lastmile_qr_scan", "ios": "https://dc.lft.to/lastmile_qr_scan"}, "lat": 38.895679333333334, "is_disabled": 0, "lon": -77.04677483333333}, {"fusion_lat": 0.0, "type": "electric_scooter", "name": "80a0fa432cab11df87af5a71098cdb94", "fusion_lon": 0.0, "bike_id": "80a0fa432cab11df87af5a71098cdb94", "is_reserved": 0, "rental_uris": {"android": "https://dc.lft.to/lastmile_qr_scan", "ios": "https://dc.lft.to/lastmile_qr_scan"}, "lat": 38.90507133333333, "is_disabled": 0, "lon": -76.9961025}, {"fusion_lat": 0.0, "type": "electric_bike", "name": "a7b68e6347763bd7c37dc43003b18781", "fusion_lon": 0.0, "bike_id": "a7b68e6347763bd7c37dc43003b18781", "is_reserved": 0, "rental_uris": {"android": "https://dc.lft.to/lastmile_qr_scan", "ios": "https://dc.lft.to/lastmile_qr_scan"}, "lat": 39.043123666666666, "is_disabled": 0, "lon": -77.05161866666667}, {"fusion_lat": 0.0, "type": "electric_scooter", "name": "d842923b65cb4cef25fecc45ff794bcf", "fusion_lon": 0.0, "bike_id": "d842923b65cb4cef25fecc45ff794bcf", "is_reserved": 0, "rental_uris": {"android": "https://dc.lft.to/lastmile_qr_scan", "ios": "https://dc.lft.to/lastmile_qr_scan"}, "lat": 38.899015166666665, "is_disabled": 0, "lon": -77.03961233333334}, {"fusion_lat": 0.0, "type": "electric_scooter", "name": "d9940ffc985d747e9f3943462df914f9", "fusion_lon": 0.0, "bike_id": "d9940ffc985d747e9f3943462df914f9", "is_reserved": 0, "rental_uris": {"android": "https://dc.lft.to/lastmile_qr_scan", "ios": "https://dc.lft.to/lastmile_qr_scan"}, "lat": 38.924764833333334, "is_disabled": 0, "lon": -77.03909183333333}, {"fusion_lat": 0.0, "type": "electric_scooter", "name": "61cd3663de78e8a17f4a1ed897571d20", "fusion_lon": 0.0, "bike_id": "61cd3663de78e8a17f4a1ed897571d20", "is_reserved": 0, "rental_uris": {"android": "https://dc.lft.to/lastmile_qr_scan", "ios": "https://dc.lft.to/lastmile_qr_scan"}, "lat": 38.911840166666664, "is_disabled": 0, "lon": -77.03495083333334}, {"fusion_lat": 0.0, "type": "electric_scooter", "name": "93be9e6099c52b2517ec2bb670ac802a", "fusion_lon": 0.0, "bike_id": "93be9e6099c52b2517ec2bb670ac802a", "is_reserved": 0, "rental_uris": {"android": "https://dc.lft.to/lastmile_qr_scan", "ios": "https://dc.lft.to/lastmile_qr_scan"}, "lat": 38.92040816666667, "is_disabled": 0, "lon": -76.9973775}, {"fusion_lat": 0.0, "type": "electric_bike", "name": "69908fde953f2866a5fa69b988ab4706", "fusion_lon": 0.0, "bike_id": "69908fde953f2866a5fa69b988ab4706", "is_reserved": 0, "rental_uris": {"android": "https://dc.lft.to/lastmile_qr_scan", "ios": "https://dc.lft.to/lastmile_qr_scan"}, "lat": 38.93831383333333, "is_disabled": 0, "lon": -76.99482333333333}, {"fusion_lat": 0.0, "type": "electric_scooter", "name": "3c8f855e3f74899d4ccd8d9b1311783a", "fusion_lon": 0.0, "bike_id": "3c8f855e3f74899d4ccd8d9b1311783a", "is_reserved": 0, "rental_uris": {"android": "https://dc.lft.to/lastmile_qr_scan", "ios": "https://dc.lft.to/lastmile_qr_scan"}, "lat": 38.89607816666667, "is_disabled": 0, "lon": -76.99968083333333}, {"fusion_lat": 0.0, "type": "electric_scooter", "name": "018cb20b1b6a7910636c77035e6128b9", "fusion_lon": 0.0, "bike_id": "018cb20b1b6a7910636c77035e6128b9", "is_reserved": 0, "rental_uris": {"android": "https://dc.lft.to/lastmile_qr_scan", "ios": "https://dc.lft.to/lastmile_qr_scan"}, "lat": 38.899080166666664, "is_disabled": 0, "lon": -77.03294083333333}, {"fusion_lat": 0.0, "type": "electric_scooter", "name": "efc723aef98b37d3b4e12f5b956644cb", "fusion_lon": 0.0, "bike_id": "efc723aef98b37d3b4e12f5b956644cb", "is_reserved": 0, "rental_uris": {"android": "https://dc.lft.to/lastmile_qr_scan", "ios": "https://dc.lft.to/lastmile_qr_scan"}, "lat": 38.907333, "is_disabled": 0, "lon": -76.98693366666667}, {"fusion_lat": 0.0, "type": "electric_scooter", "name": "2005b31c4e846fceda5b388f3c84e6fb", "fusion_lon": 0.0, "bike_id": "2005b31c4e846fceda5b388f3c84e6fb", "is_reserved": 0, "rental_uris": {"android": "https://dc.lft.to/lastmile_qr_scan", "ios": "https://dc.lft.to/lastmile_qr_scan"}, "lat": 38.9193165, "is_disabled": 0, "lon": -77.0250795}, {"fusion_lat": 0.0, "type": "electric_scooter", "name": "16cce33ead47f82538f9a2a49c300a07", "fusion_lon": 0.0, "bike_id": "16cce33ead47f82538f9a2a49c300a07", "is_reserved": 0, "rental_uris": {"android": "https://dc.lft.to/lastmile_qr_scan", "ios": "https://dc.lft.to/lastmile_qr_scan"}, "lat": 38.89244816666667, "is_disabled": 0, "lon": -77.022059}, {"fusion_lat": 0.0, "type": "electric_scooter", "name": "53fd777e9819624ec1b4b15b56536c55", "fusion_lon": 0.0, "bike_id": "53fd777e9819624ec1b4b15b56536c55", "is_reserved": 0, "rental_uris": {"android": "https://dc.lft.to/lastmile_qr_scan", "ios": "https://dc.lft.to/lastmile_qr_scan"}, "lat": 38.91694416666667, "is_disabled": 0, "lon": -77.02893133333333}, {"fusion_lat": 0.0, "type": "electric_scooter", "name": "0e752439a91219156ea324302d5da8c2", "fusion_lon": 0.0, "bike_id": "0e752439a91219156ea324302d5da8c2", "is_reserved": 0, "rental_uris": {"android": "https://dc.lft.to/lastmile_qr_scan", "ios": "https://dc.lft.to/lastmile_qr_scan"}, "lat": 38.86236866666667, "is_disabled": 0, "lon": -76.9948415}, {"fusion_lat": 0.0, "type": "electric_scooter", "name": "f42bf177a2f35b41fb635dafdabbd965", "fusion_lon": 0.0, "bike_id": "f42bf177a2f35b41fb635dafdabbd965", "is_reserved": 0, "rental_uris": {"android": "https://dc.lft.to/lastmile_qr_scan", "ios": "https://dc.lft.to/lastmile_qr_scan"}, "lat": 38.897944333333335, "is_disabled": 0, "lon": -77.050079}, {"fusion_lat": 0.0, "type": "electric_scooter", "name": "1184068d6ec3b5b1da16c69ec13977ba", "fusion_lon": 0.0, "bike_id": "1184068d6ec3b5b1da16c69ec13977ba", "is_reserved": 0, "rental_uris": {"android": "https://dc.lft.to/lastmile_qr_scan", "ios": "https://dc.lft.to/lastmile_qr_scan"}, "lat": 38.932976, "is_disabled": 0, "lon": -77.02058616666666}, {"fusion_lat": 0.0, "type": "electric_scooter", "name": "369af431cf7f91d35f7b49c6ed638a6a", "fusion_lon": 0.0, "bike_id": "369af431cf7f91d35f7b49c6ed638a6a", "is_reserved": 0, "rental_uris": {"android": "https://dc.lft.to/lastmile_qr_scan", "ios": "https://dc.lft.to/lastmile_qr_scan"}, "lat": 38.90034983333334, "is_disabled": 0, "lon": -77.03209533333333}, {"fusion_lat": 0.0, "type": "electric_scooter", "name": "534d99edf4482fce359f5014b508e99c", "fusion_lon": 0.0, "bike_id": "534d99edf4482fce359f5014b508e99c", "is_reserved": 0, "rental_uris": {"android": "https://dc.lft.to/lastmile_qr_scan", "ios": "https://dc.lft.to/lastmile_qr_scan"}, "lat": 38.900513, "is_disabled": 0, "lon": -76.9984685}, {"fusion_lat": 0.0, "type": "electric_scooter", "name": "b647d8dbab268e892669a97a268a47d4", "fusion_lon": 0.0, "bike_id": "b647d8dbab268e892669a97a268a47d4", "is_reserved": 0, "rental_uris": {"android": "https://dc.lft.to/lastmile_qr_scan", "ios": "https://dc.lft.to/lastmile_qr_scan"}, "lat": 38.92655633333333, "is_disabled": 0, "lon": -77.02426416666667}, {"fusion_lat": 0.0, "type": "electric_scooter", "name": "bdcc41d57e21e0f389d363b666acce37", "fusion_lon": 0.0, "bike_id": "bdcc41d57e21e0f389d363b666acce37", "is_reserved": 0, "rental_uris": {"android": "https://dc.lft.to/lastmile_qr_scan", "ios": "https://dc.lft.to/lastmile_qr_scan"}, "lat": 38.92366283333333, "is_disabled": 0, "lon": -77.0191745}, {"fusion_lat": 0.0, "type": "electric_scooter", "name": "cbf60a21472a82e623ff549020eb3e54", "fusion_lon": 0.0, "bike_id": "cbf60a21472a82e623ff549020eb3e54", "is_reserved": 0, "rental_uris": {"android": "https://dc.lft.to/lastmile_qr_scan", "ios": "https://dc.lft.to/lastmile_qr_scan"}, "lat": 38.902412, "is_disabled": 0, "lon": -77.02693783333333}, {"fusion_lat": 0.0, "type": "electric_scooter", "name": "8bd5a1605a7064d38e4597b4d5fc4f60", "fusion_lon": 0.0, "bike_id": "8bd5a1605a7064d38e4597b4d5fc4f60", "is_reserved": 0, "rental_uris": {"android": "https://dc.lft.to/lastmile_qr_scan", "ios": "https://dc.lft.to/lastmile_qr_scan"}, "lat": 38.910153666666666, "is_disabled": 0, "lon": -77.02200416666666}, {"fusion_lat": 0.0, "type": "electric_scooter", "name": "c8d7c46f758a52ed68491aee836a477f", "fusion_lon": 0.0, "bike_id": "c8d7c46f758a52ed68491aee836a477f", "is_reserved": 0, "rental_uris": {"android": "https://dc.lft.to/lastmile_qr_scan", "ios": "https://dc.lft.to/lastmile_qr_scan"}, "lat": 38.933634833333336, "is_disabled": 0, "lon": -77.05731333333334}, {"fusion_lat": 0.0, "type": "electric_scooter", "name": "b87633cf696a1b90954099002143d4d8", "fusion_lon": 0.0, "bike_id": "b87633cf696a1b90954099002143d4d8", "is_reserved": 0, "rental_uris": {"android": "https://dc.lft.to/lastmile_qr_scan", "ios": "https://dc.lft.to/lastmile_qr_scan"}, "lat": 38.9014005, "is_disabled": 0, "lon": -77.03240216666667}, {"fusion_lat": 0.0, "type": "electric_scooter", "name": "fd890cc43f311303005f148415e1402f", "fusion_lon": 0.0, "bike_id": "fd890cc43f311303005f148415e1402f", "is_reserved": 0, "rental_uris": {"android": "https://dc.lft.to/lastmile_qr_scan", "ios": "https://dc.lft.to/lastmile_qr_scan"}, "lat": 38.87689683333333, "is_disabled": 0, "lon": -77.00404266666666}, {"fusion_lat": 0.0, "type": "electric_scooter", "name": "fa37f5ed806281d56db9a87d1f7d3f48", "fusion_lon": 0.0, "bike_id": "fa37f5ed806281d56db9a87d1f7d3f48", "is_reserved": 0, "rental_uris": {"android": "https://dc.lft.to/lastmile_qr_scan", "ios": "https://dc.lft.to/lastmile_qr_scan"}, "lat": 38.87689616666667, "is_disabled": 0, "lon": -77.00338233333333}, {"fusion_lat": 0.0, "type": "electric_scooter", "name": "162a63d9df2cc26576a2f50fd558bb79", "fusion_lon": 0.0, "bike_id": "162a63d9df2cc26576a2f50fd558bb79", "is_reserved": 0, "rental_uris": {"android": "https://dc.lft.to/lastmile_qr_scan", "ios": "https://dc.lft.to/lastmile_qr_scan"}, "lat": 38.907825, "is_disabled": 0, "lon": -77.03859666666666}, {"fusion_lat": 0.0, "type": "electric_scooter", "name": "538a7cc644e51704ea0e0a67aa958d0a", "fusion_lon": 0.0, "bike_id": "538a7cc644e51704ea0e0a67aa958d0a", "is_reserved": 0, "rental_uris": {"android": "https://dc.lft.to/lastmile_qr_scan", "ios": "https://dc.lft.to/lastmile_qr_scan"}, "lat": 38.953344333333334, "is_disabled": 0, "lon": -76.99973183333333}, {"fusion_lat": 0.0, "type": "electric_bike", "name": "1fff1b6cdbc97097fdaabaa1d0b4e366", "fusion_lon": 0.0, "bike_id": "1fff1b6cdbc97097fdaabaa1d0b4e366", "is_reserved": 0, "rental_uris": {"android": "https://dc.lft.to/lastmile_qr_scan", "ios": "https://dc.lft.to/lastmile_qr_scan"}, "lat": 38.88871, "is_disabled": 0, "lon": -77.0817255}, {"fusion_lat": 0.0, "type": "electric_scooter", "name": "84b8ab652cee0cc9fcd98bf6196c7414", "fusion_lon": 0.0, "bike_id": "84b8ab652cee0cc9fcd98bf6196c7414", "is_reserved": 0, "rental_uris": {"android": "https://dc.lft.to/lastmile_qr_scan", "ios": "https://dc.lft.to/lastmile_qr_scan"}, "lat": 38.9129705, "is_disabled": 0, "lon": -77.04551066666667}, {"fusion_lat": 0.0, "type": "electric_scooter", "name": "3313560de025eb640e007429d20443d7", "fusion_lon": 0.0, "bike_id": "3313560de025eb640e007429d20443d7", "is_reserved": 0, "rental_uris": {"android": "https://dc.lft.to/lastmile_qr_scan", "ios": "https://dc.lft.to/lastmile_qr_scan"}, "lat": 38.907340166666664, "is_disabled": 0, "lon": -77.04348133333333}, {"fusion_lat": 0.0, "type": "electric_scooter", "name": "d0532b07bb54701c7f66bf57334fc45d", "fusion_lon": 0.0, "bike_id": "d0532b07bb54701c7f66bf57334fc45d", "is_reserved": 0, "rental_uris": {"android": "https://dc.lft.to/lastmile_qr_scan", "ios": "https://dc.lft.to/lastmile_qr_scan"}, "lat": 38.892441833333336, "is_disabled": 0, "lon": -77.01725783333333}, {"fusion_lat": 0.0, "type": "electric_scooter", "name": "4c90c0e3d81448a411bcf2bf7cf1b0b8", "fusion_lon": 0.0, "bike_id": "4c90c0e3d81448a411bcf2bf7cf1b0b8", "is_reserved": 0, "rental_uris": {"android": "https://dc.lft.to/lastmile_qr_scan", "ios": "https://dc.lft.to/lastmile_qr_scan"}, "lat": 38.92278433333333, "is_disabled": 0, "lon": -77.04237333333333}, {"fusion_lat": 0.0, "type": "electric_scooter", "name": "9f3d5137726f9b7cfd85a894f776bc6a", "fusion_lon": 0.0, "bike_id": "9f3d5137726f9b7cfd85a894f776bc6a", "is_reserved": 0, "rental_uris": {"android": "https://dc.lft.to/lastmile_qr_scan", "ios": "https://dc.lft.to/lastmile_qr_scan"}, "lat": 38.909923166666665, "is_disabled": 0, "lon": -77.03201733333333}, {"fusion_lat": 0.0, "type": "electric_scooter", "name": "a9755ee627c991c817259e73d286c68b", "fusion_lon": 0.0, "bike_id": "a9755ee627c991c817259e73d286c68b", "is_reserved": 0, "rental_uris": {"android": "https://dc.lft.to/lastmile_qr_scan", "ios": "https://dc.lft.to/lastmile_qr_scan"}, "lat": 38.876174166666665, "is_disabled": 0, "lon": -77.00049033333333}, {"fusion_lat": 0.0, "type": "electric_bike", "name": "51bf96e2f582c133891f0980a5ce5e62", "fusion_lon": 0.0, "bike_id": "51bf96e2f582c133891f0980a5ce5e62", "is_reserved": 0, "rental_uris": {"android": "https://dc.lft.to/lastmile_qr_scan", "ios": "https://dc.lft.to/lastmile_qr_scan"}, "lat": 38.92543783333333, "is_disabled": 0, "lon": -77.00112883333334}, {"fusion_lat": 0.0, "type": "electric_scooter", "name": "551b90130d8a339daf67a890084b7d18", "fusion_lon": 0.0, "bike_id": "551b90130d8a339daf67a890084b7d18", "is_reserved": 0, "rental_uris": {"android": "https://dc.lft.to/lastmile_qr_scan", "ios": "https://dc.lft.to/lastmile_qr_scan"}, "lat": 38.9386705, "is_disabled": 0, "lon": -77.02651983333334}, {"fusion_lat": 0.0, "type": "electric_scooter", "name": "accb7eb11c2a2dbae54c76d097469eb9", "fusion_lon": 0.0, "bike_id": "accb7eb11c2a2dbae54c76d097469eb9", "is_reserved": 0, "rental_uris": {"android": "https://dc.lft.to/lastmile_qr_scan", "ios": "https://dc.lft.to/lastmile_qr_scan"}, "lat": 38.918063333333336, "is_disabled": 0, "lon": -77.0270915}, {"fusion_lat": 0.0, "type": "electric_bike", "name": "878a15661611480eb253f4a95815c1f0", "fusion_lon": 0.0, "bike_id": "878a15661611480eb253f4a95815c1f0", "is_reserved": 0, "rental_uris": {"android": "https://dc.lft.to/lastmile_qr_scan", "ios": "https://dc.lft.to/lastmile_qr_scan"}, "lat": 38.906276166666665, "is_disabled": 0, "lon": -77.04146716666666}, {"fusion_lat": 0.0, "type": "electric_scooter", "name": "fffdf362ba84f64da1436273e49b3d62", "fusion_lon": 0.0, "bike_id": "fffdf362ba84f64da1436273e49b3d62", "is_reserved": 0, "rental_uris": {"android": "https://dc.lft.to/lastmile_qr_scan", "ios": "https://dc.lft.to/lastmile_qr_scan"}, "lat": 38.9327035, "is_disabled": 0, "lon": -77.02839316666666}, {"fusion_lat": 0.0, "type": "electric_scooter", "name": "8d34d5610ec621ab128e9b66ef67a52c", "fusion_lon": 0.0, "bike_id": "8d34d5610ec621ab128e9b66ef67a52c", "is_reserved": 0, "rental_uris": {"android": "https://dc.lft.to/lastmile_qr_scan", "ios": "https://dc.lft.to/lastmile_qr_scan"}, "lat": 38.86657183333333, "is_disabled": 0, "lon": -76.98884783333334}, {"fusion_lat": 0.0, "type": "electric_scooter", "name": "ffff61f3ed9134e8a2bf00e0363c9b99", "fusion_lon": 0.0, "bike_id": "ffff61f3ed9134e8a2bf00e0363c9b99", "is_reserved": 0, "rental_uris": {"android": "https://dc.lft.to/lastmile_qr_scan", "ios": "https://dc.lft.to/lastmile_qr_scan"}, "lat": 38.90461416666667, "is_disabled": 0, "lon": -77.03778933333334}, {"fusion_lat": 0.0, "type": "electric_bike", "name": "af5207b1da3ca8435c6e1d1ec829431c", "fusion_lon": 0.0, "bike_id": "af5207b1da3ca8435c6e1d1ec829431c", "is_reserved": 0, "rental_uris": {"android": "https://dc.lft.to/lastmile_qr_scan", "ios": "https://dc.lft.to/lastmile_qr_scan"}, "lat": 38.845077833333335, "is_disabled": 0, "lon": -76.9935375}, {"fusion_lat": 0.0, "type": "electric_scooter", "name": "eb8f18a1f02fad14a4ec1e7af7ce3afb", "fusion_lon": 0.0, "bike_id": "eb8f18a1f02fad14a4ec1e7af7ce3afb", "is_reserved": 0, "rental_uris": {"android": "https://dc.lft.to/lastmile_qr_scan", "ios": "https://dc.lft.to/lastmile_qr_scan"}, "lat": 38.924163, "is_disabled": 0, "lon": -77.01941066666667}, {"fusion_lat": 0.0, "type": "electric_scooter", "name": "91337b11d6dc31a8c3880b3cdeeb4676", "fusion_lon": 0.0, "bike_id": "91337b11d6dc31a8c3880b3cdeeb4676", "is_reserved": 0, "rental_uris": {"android": "https://dc.lft.to/lastmile_qr_scan", "ios": "https://dc.lft.to/lastmile_qr_scan"}, "lat": 38.91929983333333, "is_disabled": 0, "lon": -77.025092}, {"fusion_lat": 0.0, "type": "electric_bike", "name": "9ca76db241a6ce7e4b2ab46d406ad6de", "fusion_lon": 0.0, "bike_id": "9ca76db241a6ce7e4b2ab46d406ad6de", "is_reserved": 0, "rental_uris": {"android": "https://dc.lft.to/lastmile_qr_scan", "ios": "https://dc.lft.to/lastmile_qr_scan"}, "lat": 38.99947133333333, "is_disabled": 0, "lon": -77.07431083333333}, {"fusion_lat": 0.0, "type": "electric_scooter", "name": "a01b760a9d7c8264ecbda6b848ec43a4", "fusion_lon": 0.0, "bike_id": "a01b760a9d7c8264ecbda6b848ec43a4", "is_reserved": 0, "rental_uris": {"android": "https://dc.lft.to/lastmile_qr_scan", "ios": "https://dc.lft.to/lastmile_qr_scan"}, "lat": 38.90603733333333, "is_disabled": 0, "lon": -77.040198}, {"fusion_lat": 0.0, "type": "electric_scooter", "name": "4a8c92821e75684da1589d34d8e3ed34", "fusion_lon": 0.0, "bike_id": "4a8c92821e75684da1589d34d8e3ed34", "is_reserved": 0, "rental_uris": {"android": "https://dc.lft.to/lastmile_qr_scan", "ios": "https://dc.lft.to/lastmile_qr_scan"}, "lat": 38.9211035, "is_disabled": 0, "lon": -77.02220516666667}, {"fusion_lat": 0.0, "type": "electric_scooter", "name": "0b21d71d530e1b1dda74265fd4a6d09d", "fusion_lon": 0.0, "bike_id": "0b21d71d530e1b1dda74265fd4a6d09d", "is_reserved": 0, "rental_uris": {"android": "https://dc.lft.to/lastmile_qr_scan", "ios": "https://dc.lft.to/lastmile_qr_scan"}, "lat": 38.9277005, "is_disabled": 0, "lon": -77.02066633333334}, {"fusion_lat": 0.0, "type": "electric_bike", "name": "62959acbcc79b581fe1bf71672d97a5f", "fusion_lon": 0.0, "bike_id": "62959acbcc79b581fe1bf71672d97a5f", "is_reserved": 0, "rental_uris": {"android": "https://dc.lft.to/lastmile_qr_scan", "ios": "https://dc.lft.to/lastmile_qr_scan"}, "lat": 38.80711, "is_disabled": 0, "lon": -77.06173633333333}, {"fusion_lat": 0.0, "type": "electric_scooter", "name": "f99c6cd3e55d9016720a05101e86b6dd", "fusion_lon": 0.0, "bike_id": "f99c6cd3e55d9016720a05101e86b6dd", "is_reserved": 0, "rental_uris": {"android": "https://dc.lft.to/lastmile_qr_scan", "ios": "https://dc.lft.to/lastmile_qr_scan"}, "lat": 38.917471166666665, "is_disabled": 0, "lon": -77.031819}, {"fusion_lat": 0.0, "type": "electric_scooter", "name": "eb132794bb6f0ceea89175bb0c0803c1", "fusion_lon": 0.0, "bike_id": "eb132794bb6f0ceea89175bb0c0803c1", "is_reserved": 0, "rental_uris": {"android": "https://dc.lft.to/lastmile_qr_scan", "ios": "https://dc.lft.to/lastmile_qr_scan"}, "lat": 38.9125595, "is_disabled": 0, "lon": -77.03830283333333}, {"fusion_lat": 0.0, "type": "electric_scooter", "name": "631d0757e50e6b30dc131d3652449fb5", "fusion_lon": 0.0, "bike_id": "631d0757e50e6b30dc131d3652449fb5", "is_reserved": 0, "rental_uris": {"android": "https://dc.lft.to/lastmile_qr_scan", "ios": "https://dc.lft.to/lastmile_qr_scan"}, "lat": 38.9317115, "is_disabled": 0, "lon": -77.034148}, {"fusion_lat": 0.0, "type": "electric_scooter", "name": "444fe100bb2ea96c76b980be186e0c20", "fusion_lon": 0.0, "bike_id": "444fe100bb2ea96c76b980be186e0c20", "is_reserved": 0, "rental_uris": {"android": "https://dc.lft.to/lastmile_qr_scan", "ios": "https://dc.lft.to/lastmile_qr_scan"}, "lat": 38.9077515, "is_disabled": 0, "lon": -77.031967}, {"fusion_lat": 0.0, "type": "electric_scooter", "name": "8f6836a4b293dc1849dc4199121011fd", "fusion_lon": 0.0, "bike_id": "8f6836a4b293dc1849dc4199121011fd", "is_reserved": 0, "rental_uris": {"android": "https://dc.lft.to/lastmile_qr_scan", "ios": "https://dc.lft.to/lastmile_qr_scan"}, "lat": 38.90376033333333, "is_disabled": 0, "lon": -77.03479433333334}, {"fusion_lat": 0.0, "type": "electric_scooter", "name": "95eefce605872241cbfa7ccf97027f4b", "fusion_lon": 0.0, "bike_id": "95eefce605872241cbfa7ccf97027f4b", "is_reserved": 0, "rental_uris": {"android": "https://dc.lft.to/lastmile_qr_scan", "ios": "https://dc.lft.to/lastmile_qr_scan"}, "lat": 38.909351, "is_disabled": 0, "lon": -77.04164683333333}, {"fusion_lat": 0.0, "type": "electric_scooter", "name": "5a19a50e1b71aba37ec7f2414fc063a0", "fusion_lon": 0.0, "bike_id": "5a19a50e1b71aba37ec7f2414fc063a0", "is_reserved": 0, "rental_uris": {"android": "https://dc.lft.to/lastmile_qr_scan", "ios": "https://dc.lft.to/lastmile_qr_scan"}, "lat": 38.902745, "is_disabled": 0, "lon": -77.05916633333334}, {"fusion_lat": 0.0, "type": "electric_scooter", "name": "6da9d73f76c5a4ae797c6cfb135d6491", "fusion_lon": 0.0, "bike_id": "6da9d73f76c5a4ae797c6cfb135d6491", "is_reserved": 0, "rental_uris": {"android": "https://dc.lft.to/lastmile_qr_scan", "ios": "https://dc.lft.to/lastmile_qr_scan"}, "lat": 38.92069866666667, "is_disabled": 0, "lon": -77.0236945}, {"fusion_lat": 0.0, "type": "electric_scooter", "name": "dffb13a8aaf3ec905aacffac0bda34b5", "fusion_lon": 0.0, "bike_id": "dffb13a8aaf3ec905aacffac0bda34b5", "is_reserved": 0, "rental_uris": {"android": "https://dc.lft.to/lastmile_qr_scan", "ios": "https://dc.lft.to/lastmile_qr_scan"}, "lat": 38.9086385, "is_disabled": 0, "lon": -77.04340333333333}, {"fusion_lat": 0.0, "type": "electric_scooter", "name": "a2a7fbfc4885610a336023422dc19549", "fusion_lon": 0.0, "bike_id": "a2a7fbfc4885610a336023422dc19549", "is_reserved": 0, "rental_uris": {"android": "https://dc.lft.to/lastmile_qr_scan", "ios": "https://dc.lft.to/lastmile_qr_scan"}, "lat": 38.925788833333336, "is_disabled": 0, "lon": -77.02611533333334}, {"fusion_lat": 0.0, "type": "electric_scooter", "name": "710f73bdba12f950aadcc735077a9bbc", "fusion_lon": 0.0, "bike_id": "710f73bdba12f950aadcc735077a9bbc", "is_reserved": 0, "rental_uris": {"android": "https://dc.lft.to/lastmile_qr_scan", "ios": "https://dc.lft.to/lastmile_qr_scan"}, "lat": 38.929827833333334, "is_disabled": 0, "lon": -77.036565}, {"fusion_lat": 0.0, "type": "electric_scooter", "name": "7c1713eef6fd5f6d4d2563acd7b0b9bb", "fusion_lon": 0.0, "bike_id": "7c1713eef6fd5f6d4d2563acd7b0b9bb", "is_reserved": 0, "rental_uris": {"android": "https://dc.lft.to/lastmile_qr_scan", "ios": "https://dc.lft.to/lastmile_qr_scan"}, "lat": 38.908853, "is_disabled": 0, "lon": -76.98535983333333}, {"fusion_lat": 0.0, "type": "electric_scooter", "name": "0a901cc6f90b561491bc74051c66109c", "fusion_lon": 0.0, "bike_id": "0a901cc6f90b561491bc74051c66109c", "is_reserved": 0, "rental_uris": {"android": "https://dc.lft.to/lastmile_qr_scan", "ios": "https://dc.lft.to/lastmile_qr_scan"}, "lat": 38.886814666666666, "is_disabled": 0, "lon": -76.95465183333333}, {"fusion_lat": 0.0, "type": "electric_scooter", "name": "fe70fd7b7ba6cd9f72f4f7060c0ce1f3", "fusion_lon": 0.0, "bike_id": "fe70fd7b7ba6cd9f72f4f7060c0ce1f3", "is_reserved": 0, "rental_uris": {"android": "https://dc.lft.to/lastmile_qr_scan", "ios": "https://dc.lft.to/lastmile_qr_scan"}, "lat": 38.865084333333336, "is_disabled": 0, "lon": -76.9900405}, {"fusion_lat": 0.0, "type": "electric_scooter", "name": "bc42dbe2132576d61526ba9413cb1a5f", "fusion_lon": 0.0, "bike_id": "bc42dbe2132576d61526ba9413cb1a5f", "is_reserved": 0, "rental_uris": {"android": "https://dc.lft.to/lastmile_qr_scan", "ios": "https://dc.lft.to/lastmile_qr_scan"}, "lat": 38.89222983333333, "is_disabled": 0, "lon": -77.03148683333333}, {"fusion_lat": 0.0, "type": "electric_scooter", "name": "8cfec97e589a2493f133aa7d1da9b01d", "fusion_lon": 0.0, "bike_id": "8cfec97e589a2493f133aa7d1da9b01d", "is_reserved": 0, "rental_uris": {"android": "https://dc.lft.to/lastmile_qr_scan", "ios": "https://dc.lft.to/lastmile_qr_scan"}, "lat": 38.88747216666667, "is_disabled": 0, "lon": -77.02736866666666}, {"fusion_lat": 0.0, "type": "electric_scooter", "name": "c980352826c35b5ae82c7aa639573ec5", "fusion_lon": 0.0, "bike_id": "c980352826c35b5ae82c7aa639573ec5", "is_reserved": 0, "rental_uris": {"android": "https://dc.lft.to/lastmile_qr_scan", "ios": "https://dc.lft.to/lastmile_qr_scan"}, "lat": 38.90879666666667, "is_disabled": 0, "lon": -77.0717235}, {"fusion_lat": 0.0, "type": "electric_scooter", "name": "56fe536dc5f5c7bcaa9bd904b359baea", "fusion_lon": 0.0, "bike_id": "56fe536dc5f5c7bcaa9bd904b359baea", "is_reserved": 0, "rental_uris": {"android": "https://dc.lft.to/lastmile_qr_scan", "ios": "https://dc.lft.to/lastmile_qr_scan"}, "lat": 38.92765633333333, "is_disabled": 0, "lon": -77.02292816666667}, {"fusion_lat": 0.0, "type": "electric_scooter", "name": "88c850b5827f894f4956009cc2d10620", "fusion_lon": 0.0, "bike_id": "88c850b5827f894f4956009cc2d10620", "is_reserved": 0, "rental_uris": {"android": "https://dc.lft.to/lastmile_qr_scan", "ios": "https://dc.lft.to/lastmile_qr_scan"}, "lat": 38.84429183333334, "is_disabled": 0, "lon": -76.99776033333333}, {"fusion_lat": 0.0, "type": "electric_scooter", "name": "4fc0a98f1ba0202c7256bfe71fba35b0", "fusion_lon": 0.0, "bike_id": "4fc0a98f1ba0202c7256bfe71fba35b0", "is_reserved": 0, "rental_uris": {"android": "https://dc.lft.to/lastmile_qr_scan", "ios": "https://dc.lft.to/lastmile_qr_scan"}, "lat": 38.91324483333333, "is_disabled": 0, "lon": -77.01509833333333}, {"fusion_lat": 0.0, "type": "electric_scooter", "name": "433af82cf3a321e194133b1f1ee56bfb", "fusion_lon": 0.0, "bike_id": "433af82cf3a321e194133b1f1ee56bfb", "is_reserved": 0, "rental_uris": {"android": "https://dc.lft.to/lastmile_qr_scan", "ios": "https://dc.lft.to/lastmile_qr_scan"}, "lat": 38.948372, "is_disabled": 0, "lon": -77.02543983333334}, {"fusion_lat": 0.0, "type": "electric_scooter", "name": "a7a8d48c9c99d321367ca7278d1349d3", "fusion_lon": 0.0, "bike_id": "a7a8d48c9c99d321367ca7278d1349d3", "is_reserved": 0, "rental_uris": {"android": "https://dc.lft.to/lastmile_qr_scan", "ios": "https://dc.lft.to/lastmile_qr_scan"}, "lat": 38.879791833333336, "is_disabled": 0, "lon": -77.013808}, {"fusion_lat": 0.0, "type": "electric_scooter", "name": "dce6bebc4ecefc8f79a71381c0e376b5", "fusion_lon": 0.0, "bike_id": "dce6bebc4ecefc8f79a71381c0e376b5", "is_reserved": 0, "rental_uris": {"android": "https://dc.lft.to/lastmile_qr_scan", "ios": "https://dc.lft.to/lastmile_qr_scan"}, "lat": 38.90784416666666, "is_disabled": 0, "lon": -77.07253033333333}, {"fusion_lat": 0.0, "type": "electric_scooter", "name": "e60c5a0a3d9bb202fe85f51e2e56e421", "fusion_lon": 0.0, "bike_id": "e60c5a0a3d9bb202fe85f51e2e56e421", "is_reserved": 0, "rental_uris": {"android": "https://dc.lft.to/lastmile_qr_scan", "ios": "https://dc.lft.to/lastmile_qr_scan"}, "lat": 38.9110525, "is_disabled": 0, "lon": -77.0467215}, {"fusion_lat": 0.0, "type": "electric_bike", "name": "553d13c96798e0ee5d546037bb342a84", "fusion_lon": 0.0, "bike_id": "553d13c96798e0ee5d546037bb342a84", "is_reserved": 0, "rental_uris": {"android": "https://dc.lft.to/lastmile_qr_scan", "ios": "https://dc.lft.to/lastmile_qr_scan"}, "lat": 38.913842833333334, "is_disabled": 0, "lon": -77.089283}, {"fusion_lat": 0.0, "type": "electric_scooter", "name": "51430360994cf828bfd07f8a389598f2", "fusion_lon": 0.0, "bike_id": "51430360994cf828bfd07f8a389598f2", "is_reserved": 0, "rental_uris": {"android": "https://dc.lft.to/lastmile_qr_scan", "ios": "https://dc.lft.to/lastmile_qr_scan"}, "lat": 38.90011966666667, "is_disabled": 0, "lon": -77.0324475}, {"fusion_lat": 0.0, "type": "electric_scooter", "name": "8a76bbd33e2d3678efe2395de07fec7c", "fusion_lon": 0.0, "bike_id": "8a76bbd33e2d3678efe2395de07fec7c", "is_reserved": 0, "rental_uris": {"android": "https://dc.lft.to/lastmile_qr_scan", "ios": "https://dc.lft.to/lastmile_qr_scan"}, "lat": 38.91988516666667, "is_disabled": 0, "lon": -77.03241716666666}, {"fusion_lat": 0.0, "type": "electric_scooter", "name": "84c6498deb0504b3e0b7720964986d59", "fusion_lon": 0.0, "bike_id": "84c6498deb0504b3e0b7720964986d59", "is_reserved": 0, "rental_uris": {"android": "https://dc.lft.to/lastmile_qr_scan", "ios": "https://dc.lft.to/lastmile_qr_scan"}, "lat": 38.897386833333336, "is_disabled": 0, "lon": -76.94723183333333}, {"fusion_lat": 0.0, "type": "electric_scooter", "name": "504abfb89125117fa22190f090389812", "fusion_lon": 0.0, "bike_id": "504abfb89125117fa22190f090389812", "is_reserved": 0, "rental_uris": {"android": "https://dc.lft.to/lastmile_qr_scan", "ios": "https://dc.lft.to/lastmile_qr_scan"}, "lat": 38.949591, "is_disabled": 0, "lon": -77.02720433333333}, {"fusion_lat": 0.0, "type": "electric_scooter", "name": "5c730f0ff676b8c7adceb88c621636f4", "fusion_lon": 0.0, "bike_id": "5c730f0ff676b8c7adceb88c621636f4", "is_reserved": 0, "rental_uris": {"android": "https://dc.lft.to/lastmile_qr_scan", "ios": "https://dc.lft.to/lastmile_qr_scan"}, "lat": 38.9041455, "is_disabled": 0, "lon": -76.980876}, {"fusion_lat": 0.0, "type": "electric_scooter", "name": "985742e9df631aa680ff63a95c70b2ad", "fusion_lon": 0.0, "bike_id": "985742e9df631aa680ff63a95c70b2ad", "is_reserved": 0, "rental_uris": {"android": "https://dc.lft.to/lastmile_qr_scan", "ios": "https://dc.lft.to/lastmile_qr_scan"}, "lat": 38.925659333333336, "is_disabled": 0, "lon": -77.02285416666666}, {"fusion_lat": 0.0, "type": "electric_scooter", "name": "ed952bf12e68c9b74141fdc3a06a5196", "fusion_lon": 0.0, "bike_id": "ed952bf12e68c9b74141fdc3a06a5196", "is_reserved": 0, "rental_uris": {"android": "https://dc.lft.to/lastmile_qr_scan", "ios": "https://dc.lft.to/lastmile_qr_scan"}, "lat": 38.92414466666666, "is_disabled": 0, "lon": -77.01956466666667}, {"fusion_lat": 0.0, "type": "electric_scooter", "name": "d4af1e4ef0b5f06833bb120cd73caae8", "fusion_lon": 0.0, "bike_id": "d4af1e4ef0b5f06833bb120cd73caae8", "is_reserved": 0, "rental_uris": {"android": "https://dc.lft.to/lastmile_qr_scan", "ios": "https://dc.lft.to/lastmile_qr_scan"}, "lat": 38.89240066666667, "is_disabled": 0, "lon": -77.03179716666666}, {"fusion_lat": 0.0, "type": "electric_scooter", "name": "7a12210d7ad2fcf4c730e7a9004bf26f", "fusion_lon": 0.0, "bike_id": "7a12210d7ad2fcf4c730e7a9004bf26f", "is_reserved": 0, "rental_uris": {"android": "https://dc.lft.to/lastmile_qr_scan", "ios": "https://dc.lft.to/lastmile_qr_scan"}, "lat": 38.9451305, "is_disabled": 0, "lon": -77.03315266666667}, {"fusion_lat": 0.0, "type": "electric_bike", "name": "f09726a199015915b81bf41fe611d043", "fusion_lon": 0.0, "bike_id": "f09726a199015915b81bf41fe611d043", "is_reserved": 0, "rental_uris": {"android": "https://dc.lft.to/lastmile_qr_scan", "ios": "https://dc.lft.to/lastmile_qr_scan"}, "lat": 38.85894916666667, "is_disabled": 0, "lon": -77.11861666666667}, {"fusion_lat": 0.0, "type": "electric_scooter", "name": "530a5cc91410f04b8d50809ef40b87f8", "fusion_lon": 0.0, "bike_id": "530a5cc91410f04b8d50809ef40b87f8", "is_reserved": 0, "rental_uris": {"android": "https://dc.lft.to/lastmile_qr_scan", "ios": "https://dc.lft.to/lastmile_qr_scan"}, "lat": 38.905814, "is_disabled": 0, "lon": -77.04235383333334}, {"fusion_lat": 0.0, "type": "electric_scooter", "name": "460144b39fee6a50f8bcdb0d046540e3", "fusion_lon": 0.0, "bike_id": "460144b39fee6a50f8bcdb0d046540e3", "is_reserved": 0, "rental_uris": {"android": "https://dc.lft.to/lastmile_qr_scan", "ios": "https://dc.lft.to/lastmile_qr_scan"}, "lat": 38.90215033333333, "is_disabled": 0, "lon": -77.04673766666667}, {"fusion_lat": 0.0, "type": "electric_scooter", "name": "b6516e6894c77a4ca2768981752f3d50", "fusion_lon": 0.0, "bike_id": "b6516e6894c77a4ca2768981752f3d50", "is_reserved": 0, "rental_uris": {"android": "https://dc.lft.to/lastmile_qr_scan", "ios": "https://dc.lft.to/lastmile_qr_scan"}, "lat": 38.911182, "is_disabled": 0, "lon": -77.03155233333334}, {"fusion_lat": 0.0, "type": "electric_scooter", "name": "0c5873b93cf5d62a8c5752d8eb07beae", "fusion_lon": 0.0, "bike_id": "0c5873b93cf5d62a8c5752d8eb07beae", "is_reserved": 0, "rental_uris": {"android": "https://dc.lft.to/lastmile_qr_scan", "ios": "https://dc.lft.to/lastmile_qr_scan"}, "lat": 38.91983, "is_disabled": 0, "lon": -77.03968183333333}, {"fusion_lat": 0.0, "type": "electric_scooter", "name": "8198c57c70876bdf929e11dce219c78e", "fusion_lon": 0.0, "bike_id": "8198c57c70876bdf929e11dce219c78e", "is_reserved": 0, "rental_uris": {"android": "https://dc.lft.to/lastmile_qr_scan", "ios": "https://dc.lft.to/lastmile_qr_scan"}, "lat": 38.89971666666667, "is_disabled": 0, "lon": -77.01615533333333}, {"fusion_lat": 0.0, "type": "electric_scooter", "name": "6eb01dbeacf77820d1c172dbf22784e7", "fusion_lon": 0.0, "bike_id": "6eb01dbeacf77820d1c172dbf22784e7", "is_reserved": 0, "rental_uris": {"android": "https://dc.lft.to/lastmile_qr_scan", "ios": "https://dc.lft.to/lastmile_qr_scan"}, "lat": 38.90045283333333, "is_disabled": 0, "lon": -76.9984385}, {"fusion_lat": 0.0, "type": "electric_scooter", "name": "f8f204c6a95d0bdb97162a33ae048e95", "fusion_lon": 0.0, "bike_id": "f8f204c6a95d0bdb97162a33ae048e95", "is_reserved": 0, "rental_uris": {"android": "https://dc.lft.to/lastmile_qr_scan", "ios": "https://dc.lft.to/lastmile_qr_scan"}, "lat": 38.892193666666664, "is_disabled": 0, "lon": -77.03223516666667}, {"fusion_lat": 0.0, "type": "electric_scooter", "name": "3d01b2cbba805de9d8003ec1b1e919a7", "fusion_lon": 0.0, "bike_id": "3d01b2cbba805de9d8003ec1b1e919a7", "is_reserved": 0, "rental_uris": {"android": "https://dc.lft.to/lastmile_qr_scan", "ios": "https://dc.lft.to/lastmile_qr_scan"}, "lat": 38.900272, "is_disabled": 0, "lon": -77.0414405}, {"fusion_lat": 0.0, "type": "electric_scooter", "name": "1cca25179cea74b9bc1bd1d37b0d9fe5", "fusion_lon": 0.0, "bike_id": "1cca25179cea74b9bc1bd1d37b0d9fe5", "is_reserved": 0, "rental_uris": {"android": "https://dc.lft.to/lastmile_qr_scan", "ios": "https://dc.lft.to/lastmile_qr_scan"}, "lat": 38.86211433333333, "is_disabled": 0, "lon": -76.99472466666667}, {"fusion_lat": 0.0, "type": "electric_scooter", "name": "d396ba82130b030f31a9e52a7187b051", "fusion_lon": 0.0, "bike_id": "d396ba82130b030f31a9e52a7187b051", "is_reserved": 0, "rental_uris": {"android": "https://dc.lft.to/lastmile_qr_scan", "ios": "https://dc.lft.to/lastmile_qr_scan"}, "lat": 38.923082, "is_disabled": 0, "lon": -77.03641}, {"fusion_lat": 0.0, "type": "electric_scooter", "name": "02c7270168576a5ed524e2b3e9c4b611", "fusion_lon": 0.0, "bike_id": "02c7270168576a5ed524e2b3e9c4b611", "is_reserved": 0, "rental_uris": {"android": "https://dc.lft.to/lastmile_qr_scan", "ios": "https://dc.lft.to/lastmile_qr_scan"}, "lat": 38.891478, "is_disabled": 0, "lon": -76.98382816666667}, {"fusion_lat": 0.0, "type": "electric_scooter", "name": "7ece96f42dbba7fa460347739ab2e2e3", "fusion_lon": 0.0, "bike_id": "7ece96f42dbba7fa460347739ab2e2e3", "is_reserved": 0, "rental_uris": {"android": "https://dc.lft.to/lastmile_qr_scan", "ios": "https://dc.lft.to/lastmile_qr_scan"}, "lat": 38.92359033333334, "is_disabled": 0, "lon": -77.03522533333333}, {"fusion_lat": 0.0, "type": "electric_scooter", "name": "f6ed6f7b97dccaca2dbeacb3d7149278", "fusion_lon": 0.0, "bike_id": "f6ed6f7b97dccaca2dbeacb3d7149278", "is_reserved": 0, "rental_uris": {"android": "https://dc.lft.to/lastmile_qr_scan", "ios": "https://dc.lft.to/lastmile_qr_scan"}, "lat": 38.90771016666667, "is_disabled": 0, "lon": -77.03497683333333}, {"fusion_lat": 0.0, "type": "electric_scooter", "name": "cc4da9d5131598d5e70808c0d19ea738", "fusion_lon": 0.0, "bike_id": "cc4da9d5131598d5e70808c0d19ea738", "is_reserved": 0, "rental_uris": {"android": "https://dc.lft.to/lastmile_qr_scan", "ios": "https://dc.lft.to/lastmile_qr_scan"}, "lat": 38.9217645, "is_disabled": 0, "lon": -77.02104833333334}, {"fusion_lat": 0.0, "type": "electric_scooter", "name": "41f29a76956676e2e1a4ac10c898d1b1", "fusion_lon": 0.0, "bike_id": "41f29a76956676e2e1a4ac10c898d1b1", "is_reserved": 0, "rental_uris": {"android": "https://dc.lft.to/lastmile_qr_scan", "ios": "https://dc.lft.to/lastmile_qr_scan"}, "lat": 38.9242075, "is_disabled": 0, "lon": -77.022715}, {"fusion_lat": 0.0, "type": "electric_scooter", "name": "6e272746b7ebea1e1a06ffe9dea10509", "fusion_lon": 0.0, "bike_id": "6e272746b7ebea1e1a06ffe9dea10509", "is_reserved": 0, "rental_uris": {"android": "https://dc.lft.to/lastmile_qr_scan", "ios": "https://dc.lft.to/lastmile_qr_scan"}, "lat": 38.891688333333335, "is_disabled": 0, "lon": -76.91191516666666}, {"fusion_lat": 0.0, "type": "electric_scooter", "name": "99ff6f2de3f425a8913397f232e2771f", "fusion_lon": 0.0, "bike_id": "99ff6f2de3f425a8913397f232e2771f", "is_reserved": 0, "rental_uris": {"android": "https://dc.lft.to/lastmile_qr_scan", "ios": "https://dc.lft.to/lastmile_qr_scan"}, "lat": 38.90712666666667, "is_disabled": 0, "lon": -77.03731666666667}, {"fusion_lat": 0.0, "type": "electric_scooter", "name": "14e1beb6eb2c575c36a93685695dae7d", "fusion_lon": 0.0, "bike_id": "14e1beb6eb2c575c36a93685695dae7d", "is_reserved": 0, "rental_uris": {"android": "https://dc.lft.to/lastmile_qr_scan", "ios": "https://dc.lft.to/lastmile_qr_scan"}, "lat": 38.9360865, "is_disabled": 0, "lon": -77.02919466666667}, {"fusion_lat": 0.0, "type": "electric_scooter", "name": "88d5344c713e0ad6318ebb1251870f70", "fusion_lon": 0.0, "bike_id": "88d5344c713e0ad6318ebb1251870f70", "is_reserved": 0, "rental_uris": {"android": "https://dc.lft.to/lastmile_qr_scan", "ios": "https://dc.lft.to/lastmile_qr_scan"}, "lat": 38.891989833333334, "is_disabled": 0, "lon": -77.02624466666667}, {"fusion_lat": 0.0, "type": "electric_scooter", "name": "c72f4fbe95e2d223fe5536fbb5d4cce0", "fusion_lon": 0.0, "bike_id": "c72f4fbe95e2d223fe5536fbb5d4cce0", "is_reserved": 0, "rental_uris": {"android": "https://dc.lft.to/lastmile_qr_scan", "ios": "https://dc.lft.to/lastmile_qr_scan"}, "lat": 38.902985666666666, "is_disabled": 0, "lon": -77.03366766666667}, {"fusion_lat": 0.0, "type": "electric_scooter", "name": "c16ac39e1fad88d7c46f91fae5f1a268", "fusion_lon": 0.0, "bike_id": "c16ac39e1fad88d7c46f91fae5f1a268", "is_reserved": 0, "rental_uris": {"android": "https://dc.lft.to/lastmile_qr_scan", "ios": "https://dc.lft.to/lastmile_qr_scan"}, "lat": 38.919210166666666, "is_disabled": 0, "lon": -77.0446305}, {"fusion_lat": 0.0, "type": "electric_scooter", "name": "5a039540ceb790e9a42b675045fe4236", "fusion_lon": 0.0, "bike_id": "5a039540ceb790e9a42b675045fe4236", "is_reserved": 0, "rental_uris": {"android": "https://dc.lft.to/lastmile_qr_scan", "ios": "https://dc.lft.to/lastmile_qr_scan"}, "lat": 38.91815316666667, "is_disabled": 0, "lon": -77.03026766666666}, {"fusion_lat": 0.0, "type": "electric_scooter", "name": "e165b4381b2f1e4465cdd01ac11c1f6b", "fusion_lon": 0.0, "bike_id": "e165b4381b2f1e4465cdd01ac11c1f6b", "is_reserved": 0, "rental_uris": {"android": "https://dc.lft.to/lastmile_qr_scan", "ios": "https://dc.lft.to/lastmile_qr_scan"}, "lat": 38.905777666666665, "is_disabled": 0, "lon": -77.0344505}, {"fusion_lat": 0.0, "type": "electric_scooter", "name": "682339d974343bde77d2223199a9f4f9", "fusion_lon": 0.0, "bike_id": "682339d974343bde77d2223199a9f4f9", "is_reserved": 0, "rental_uris": {"android": "https://dc.lft.to/lastmile_qr_scan", "ios": "https://dc.lft.to/lastmile_qr_scan"}, "lat": 38.83704216666667, "is_disabled": 0, "lon": -77.00567783333334}, {"fusion_lat": 0.0, "type": "electric_scooter", "name": "f82450b2b878305a6da9791205debfd9", "fusion_lon": 0.0, "bike_id": "f82450b2b878305a6da9791205debfd9", "is_reserved": 0, "rental_uris": {"android": "https://dc.lft.to/lastmile_qr_scan", "ios": "https://dc.lft.to/lastmile_qr_scan"}, "lat": 38.844262666666665, "is_disabled": 0, "lon": -76.997756}, {"fusion_lat": 0.0, "type": "electric_scooter", "name": "9603975dd0b29072ace7b4c16aecd849", "fusion_lon": 0.0, "bike_id": "9603975dd0b29072ace7b4c16aecd849", "is_reserved": 0, "rental_uris": {"android": "https://dc.lft.to/lastmile_qr_scan", "ios": "https://dc.lft.to/lastmile_qr_scan"}, "lat": 38.9411765, "is_disabled": 0, "lon": -77.015323}, {"fusion_lat": 0.0, "type": "electric_scooter", "name": "67613c84315b7a38f8ecc364064c7014", "fusion_lon": 0.0, "bike_id": "67613c84315b7a38f8ecc364064c7014", "is_reserved": 0, "rental_uris": {"android": "https://dc.lft.to/lastmile_qr_scan", "ios": "https://dc.lft.to/lastmile_qr_scan"}, "lat": 38.9098045, "is_disabled": 0, "lon": -77.01222733333333}, {"fusion_lat": 0.0, "type": "electric_scooter", "name": "5a34a925851e70fc64a15a136bb63620", "fusion_lon": 0.0, "bike_id": "5a34a925851e70fc64a15a136bb63620", "is_reserved": 0, "rental_uris": {"android": "https://dc.lft.to/lastmile_qr_scan", "ios": "https://dc.lft.to/lastmile_qr_scan"}, "lat": 38.90195816666667, "is_disabled": 0, "lon": -77.04170766666667}, {"fusion_lat": 0.0, "type": "electric_bike", "name": "1cdd46e42318fc54b475ff586645178d", "fusion_lon": 0.0, "bike_id": "1cdd46e42318fc54b475ff586645178d", "is_reserved": 0, "rental_uris": {"android": "https://dc.lft.to/lastmile_qr_scan", "ios": "https://dc.lft.to/lastmile_qr_scan"}, "lat": 38.82787, "is_disabled": 0, "lon": -77.00916683333334}, {"fusion_lat": 0.0, "type": "electric_scooter", "name": "9d80179068fb3a26d3d528744abb62a8", "fusion_lon": 0.0, "bike_id": "9d80179068fb3a26d3d528744abb62a8", "is_reserved": 0, "rental_uris": {"android": "https://dc.lft.to/lastmile_qr_scan", "ios": "https://dc.lft.to/lastmile_qr_scan"}, "lat": 38.929027, "is_disabled": 0, "lon": -77.011672}, {"fusion_lat": 0.0, "type": "electric_scooter", "name": "ca587449d72067ca98acac8fe4883227", "fusion_lon": 0.0, "bike_id": "ca587449d72067ca98acac8fe4883227", "is_reserved": 0, "rental_uris": {"android": "https://dc.lft.to/lastmile_qr_scan", "ios": "https://dc.lft.to/lastmile_qr_scan"}, "lat": 38.885040833333335, "is_disabled": 0, "lon": -77.015835}, {"fusion_lat": 0.0, "type": "electric_scooter", "name": "0f548fb971e3e6cc4d7a70b0a1e5dea2", "fusion_lon": 0.0, "bike_id": "0f548fb971e3e6cc4d7a70b0a1e5dea2", "is_reserved": 0, "rental_uris": {"android": "https://dc.lft.to/lastmile_qr_scan", "ios": "https://dc.lft.to/lastmile_qr_scan"}, "lat": 38.905611, "is_disabled": 0, "lon": -76.98378383333333}, {"fusion_lat": 0.0, "type": "electric_scooter", "name": "9ce9694513a59aa11f32ef7e5c6b2d2d", "fusion_lon": 0.0, "bike_id": "9ce9694513a59aa11f32ef7e5c6b2d2d", "is_reserved": 0, "rental_uris": {"android": "https://dc.lft.to/lastmile_qr_scan", "ios": "https://dc.lft.to/lastmile_qr_scan"}, "lat": 38.89891683333333, "is_disabled": 0, "lon": -77.01214516666667}, {"fusion_lat": 0.0, "type": "electric_scooter", "name": "5d65664b3b6168567abe6e4b7ca5b355", "fusion_lon": 0.0, "bike_id": "5d65664b3b6168567abe6e4b7ca5b355", "is_reserved": 0, "rental_uris": {"android": "https://dc.lft.to/lastmile_qr_scan", "ios": "https://dc.lft.to/lastmile_qr_scan"}, "lat": 38.92364516666667, "is_disabled": 0, "lon": -77.05049183333334}, {"fusion_lat": 0.0, "type": "electric_scooter", "name": "63867f808b341d92c0d5871f4ff68c36", "fusion_lon": 0.0, "bike_id": "63867f808b341d92c0d5871f4ff68c36", "is_reserved": 0, "rental_uris": {"android": "https://dc.lft.to/lastmile_qr_scan", "ios": "https://dc.lft.to/lastmile_qr_scan"}, "lat": 38.899410333333336, "is_disabled": 0, "lon": -77.003359}, {"fusion_lat": 0.0, "type": "electric_scooter", "name": "4b63f7160879a213b13da19467fc946c", "fusion_lon": 0.0, "bike_id": "4b63f7160879a213b13da19467fc946c", "is_reserved": 0, "rental_uris": {"android": "https://dc.lft.to/lastmile_qr_scan", "ios": "https://dc.lft.to/lastmile_qr_scan"}, "lat": 38.921636, "is_disabled": 0, "lon": -77.03378783333334}, {"fusion_lat": 0.0, "type": "electric_scooter", "name": "f8c219dc1121c7d45c62c8667f1ef55f", "fusion_lon": 0.0, "bike_id": "f8c219dc1121c7d45c62c8667f1ef55f", "is_reserved": 0, "rental_uris": {"android": "https://dc.lft.to/lastmile_qr_scan", "ios": "https://dc.lft.to/lastmile_qr_scan"}, "lat": 38.89894533333333, "is_disabled": 0, "lon": -76.99385}, {"fusion_lat": 0.0, "type": "electric_scooter", "name": "4e867b6b2228bfc1541918f65d480c5b", "fusion_lon": 0.0, "bike_id": "4e867b6b2228bfc1541918f65d480c5b", "is_reserved": 0, "rental_uris": {"android": "https://dc.lft.to/lastmile_qr_scan", "ios": "https://dc.lft.to/lastmile_qr_scan"}, "lat": 38.90571716666667, "is_disabled": 0, "lon": -77.04612333333333}, {"fusion_lat": 0.0, "type": "electric_scooter", "name": "d6837277a145a53b9d1a527f6a52021d", "fusion_lon": 0.0, "bike_id": "d6837277a145a53b9d1a527f6a52021d", "is_reserved": 0, "rental_uris": {"android": "https://dc.lft.to/lastmile_qr_scan", "ios": "https://dc.lft.to/lastmile_qr_scan"}, "lat": 38.90533633333333, "is_disabled": 0, "lon": -77.031426}, {"fusion_lat": 0.0, "type": "electric_scooter", "name": "81c4d266f36221bf15fb28e31ca050ed", "fusion_lon": 0.0, "bike_id": "81c4d266f36221bf15fb28e31ca050ed", "is_reserved": 0, "rental_uris": {"android": "https://dc.lft.to/lastmile_qr_scan", "ios": "https://dc.lft.to/lastmile_qr_scan"}, "lat": 38.951922, "is_disabled": 0, "lon": -77.02616933333333}, {"fusion_lat": 0.0, "type": "electric_scooter", "name": "830104b5e4981f9e273d286bb6b9ecb3", "fusion_lon": 0.0, "bike_id": "830104b5e4981f9e273d286bb6b9ecb3", "is_reserved": 0, "rental_uris": {"android": "https://dc.lft.to/lastmile_qr_scan", "ios": "https://dc.lft.to/lastmile_qr_scan"}, "lat": 38.924117833333334, "is_disabled": 0, "lon": -77.05169683333334}, {"fusion_lat": 0.0, "type": "electric_scooter", "name": "1ccaa3f0fcb003a19601c33687e4fec0", "fusion_lon": 0.0, "bike_id": "1ccaa3f0fcb003a19601c33687e4fec0", "is_reserved": 0, "rental_uris": {"android": "https://dc.lft.to/lastmile_qr_scan", "ios": "https://dc.lft.to/lastmile_qr_scan"}, "lat": 38.9137615, "is_disabled": 0, "lon": -77.031403}, {"fusion_lat": 0.0, "type": "electric_scooter", "name": "3dad386b68a6d73ccdb815d0343b6ba3", "fusion_lon": 0.0, "bike_id": "3dad386b68a6d73ccdb815d0343b6ba3", "is_reserved": 0, "rental_uris": {"android": "https://dc.lft.to/lastmile_qr_scan", "ios": "https://dc.lft.to/lastmile_qr_scan"}, "lat": 38.8960785, "is_disabled": 0, "lon": -77.0498685}, {"fusion_lat": 0.0, "type": "electric_scooter", "name": "1912659384d761137ff0710d1b3e668d", "fusion_lon": 0.0, "bike_id": "1912659384d761137ff0710d1b3e668d", "is_reserved": 0, "rental_uris": {"android": "https://dc.lft.to/lastmile_qr_scan", "ios": "https://dc.lft.to/lastmile_qr_scan"}, "lat": 38.892290333333335, "is_disabled": 0, "lon": -77.0500525}, {"fusion_lat": 0.0, "type": "electric_scooter", "name": "f3105087539f4942a1f896a2e3f802b1", "fusion_lon": 0.0, "bike_id": "f3105087539f4942a1f896a2e3f802b1", "is_reserved": 0, "rental_uris": {"android": "https://dc.lft.to/lastmile_qr_scan", "ios": "https://dc.lft.to/lastmile_qr_scan"}, "lat": 38.88747033333333, "is_disabled": 0, "lon": -77.022294}, {"fusion_lat": 0.0, "type": "electric_scooter", "name": "20c33aa2d427e5f300645ddf9076d366", "fusion_lon": 0.0, "bike_id": "20c33aa2d427e5f300645ddf9076d366", "is_reserved": 0, "rental_uris": {"android": "https://dc.lft.to/lastmile_qr_scan", "ios": "https://dc.lft.to/lastmile_qr_scan"}, "lat": 38.916392333333334, "is_disabled": 0, "lon": -77.04806433333333}, {"fusion_lat": 0.0, "type": "electric_scooter", "name": "6e67ffecbe3d3ce1f1a20913ebbed2b3", "fusion_lon": 0.0, "bike_id": "6e67ffecbe3d3ce1f1a20913ebbed2b3", "is_reserved": 0, "rental_uris": {"android": "https://dc.lft.to/lastmile_qr_scan", "ios": "https://dc.lft.to/lastmile_qr_scan"}, "lat": 38.89628483333333, "is_disabled": 0, "lon": -77.03204683333334}, {"fusion_lat": 0.0, "type": "electric_bike", "name": "523bb678af52cb9f4148f61c8b9df1f0", "fusion_lon": 0.0, "bike_id": "523bb678af52cb9f4148f61c8b9df1f0", "is_reserved": 0, "rental_uris": {"android": "https://dc.lft.to/lastmile_qr_scan", "ios": "https://dc.lft.to/lastmile_qr_scan"}, "lat": 38.932288, "is_disabled": 0, "lon": -77.181227}, {"fusion_lat": 0.0, "type": "electric_scooter", "name": "a819d5530d62998ce186b2053f468a17", "fusion_lon": 0.0, "bike_id": "a819d5530d62998ce186b2053f468a17", "is_reserved": 0, "rental_uris": {"android": "https://dc.lft.to/lastmile_qr_scan", "ios": "https://dc.lft.to/lastmile_qr_scan"}, "lat": 38.92620733333333, "is_disabled": 0, "lon": -77.043271}, {"fusion_lat": 0.0, "type": "electric_bike", "name": "619f2e577bc09d24d3be3be2b61b9ce9", "fusion_lon": 0.0, "bike_id": "619f2e577bc09d24d3be3be2b61b9ce9", "is_reserved": 0, "rental_uris": {"android": "https://dc.lft.to/lastmile_qr_scan", "ios": "https://dc.lft.to/lastmile_qr_scan"}, "lat": 38.9532715, "is_disabled": 0, "lon": -76.9543165}, {"fusion_lat": 0.0, "type": "electric_bike", "name": "e70b0d3da423248acbde30105b9a1eed", "fusion_lon": 0.0, "bike_id": "e70b0d3da423248acbde30105b9a1eed", "is_reserved": 0, "rental_uris": {"android": "https://dc.lft.to/lastmile_qr_scan", "ios": "https://dc.lft.to/lastmile_qr_scan"}, "lat": 38.8747915, "is_disabled": 0, "lon": -76.96527816666666}, {"fusion_lat": 0.0, "type": "electric_scooter", "name": "3ddb5336d0939c9bba5ae60e9ec04106", "fusion_lon": 0.0, "bike_id": "3ddb5336d0939c9bba5ae60e9ec04106", "is_reserved": 0, "rental_uris": {"android": "https://dc.lft.to/lastmile_qr_scan", "ios": "https://dc.lft.to/lastmile_qr_scan"}, "lat": 38.902697333333336, "is_disabled": 0, "lon": -77.02997266666667}, {"fusion_lat": 0.0, "type": "electric_scooter", "name": "d64f7a9aba8f5643c45e2df7a811a00c", "fusion_lon": 0.0, "bike_id": "d64f7a9aba8f5643c45e2df7a811a00c", "is_reserved": 0, "rental_uris": {"android": "https://dc.lft.to/lastmile_qr_scan", "ios": "https://dc.lft.to/lastmile_qr_scan"}, "lat": 38.887486333333335, "is_disabled": 0, "lon": -77.0316275}, {"fusion_lat": 0.0, "type": "electric_scooter", "name": "16088e259ddd3455c0d1b544e22f29bf", "fusion_lon": 0.0, "bike_id": "16088e259ddd3455c0d1b544e22f29bf", "is_reserved": 0, "rental_uris": {"android": "https://dc.lft.to/lastmile_qr_scan", "ios": "https://dc.lft.to/lastmile_qr_scan"}, "lat": 38.912792, "is_disabled": 0, "lon": -77.022432}, {"fusion_lat": 0.0, "type": "electric_scooter", "name": "cd09da0c246c4469ad0fc953882160b2", "fusion_lon": 0.0, "bike_id": "cd09da0c246c4469ad0fc953882160b2", "is_reserved": 0, "rental_uris": {"android": "https://dc.lft.to/lastmile_qr_scan", "ios": "https://dc.lft.to/lastmile_qr_scan"}, "lat": 38.91533, "is_disabled": 0, "lon": -77.02181666666667}, {"fusion_lat": 0.0, "type": "electric_bike", "name": "e5b7d60d5c5ed07ae286dfaa28beed54", "fusion_lon": 0.0, "bike_id": "e5b7d60d5c5ed07ae286dfaa28beed54", "is_reserved": 0, "rental_uris": {"android": "https://dc.lft.to/lastmile_qr_scan", "ios": "https://dc.lft.to/lastmile_qr_scan"}, "lat": 38.96906116666667, "is_disabled": 0, "lon": -76.994934}, {"fusion_lat": 0.0, "type": "electric_scooter", "name": "cc4675910b35f10fa7c6b881f27fbd63", "fusion_lon": 0.0, "bike_id": "cc4675910b35f10fa7c6b881f27fbd63", "is_reserved": 0, "rental_uris": {"android": "https://dc.lft.to/lastmile_qr_scan", "ios": "https://dc.lft.to/lastmile_qr_scan"}, "lat": 38.928788833333336, "is_disabled": 0, "lon": -77.03651816666667}, {"fusion_lat": 0.0, "type": "electric_scooter", "name": "864f618e635113a4e8128b493463d09f", "fusion_lon": 0.0, "bike_id": "864f618e635113a4e8128b493463d09f", "is_reserved": 0, "rental_uris": {"android": "https://dc.lft.to/lastmile_qr_scan", "ios": "https://dc.lft.to/lastmile_qr_scan"}, "lat": 38.907565166666664, "is_disabled": 0, "lon": -77.041476}, {"fusion_lat": 0.0, "type": "electric_bike", "name": "62bb9a71dd04e2806b996d590047dbf5", "fusion_lon": 0.0, "bike_id": "62bb9a71dd04e2806b996d590047dbf5", "is_reserved": 0, "rental_uris": {"android": "https://dc.lft.to/lastmile_qr_scan", "ios": "https://dc.lft.to/lastmile_qr_scan"}, "lat": 38.963223666666664, "is_disabled": 0, "lon": -76.9736205}, {"fusion_lat": 0.0, "type": "electric_scooter", "name": "7383e006278bd1f3eb8c2808223e28e9", "fusion_lon": 0.0, "bike_id": "7383e006278bd1f3eb8c2808223e28e9", "is_reserved": 0, "rental_uris": {"android": "https://dc.lft.to/lastmile_qr_scan", "ios": "https://dc.lft.to/lastmile_qr_scan"}, "lat": 38.90763033333333, "is_disabled": 0, "lon": -77.03576833333334}, {"fusion_lat": 0.0, "type": "electric_scooter", "name": "9244615c66f25a40ee60e1b4d1de2f2c", "fusion_lon": 0.0, "bike_id": "9244615c66f25a40ee60e1b4d1de2f2c", "is_reserved": 0, "rental_uris": {"android": "https://dc.lft.to/lastmile_qr_scan", "ios": "https://dc.lft.to/lastmile_qr_scan"}, "lat": 38.928588500000004, "is_disabled": 0, "lon": -77.015885}, {"fusion_lat": 0.0, "type": "electric_scooter", "name": "11499decd7def97aa7d2ac816c93630c", "fusion_lon": 0.0, "bike_id": "11499decd7def97aa7d2ac816c93630c", "is_reserved": 0, "rental_uris": {"android": "https://dc.lft.to/lastmile_qr_scan", "ios": "https://dc.lft.to/lastmile_qr_scan"}, "lat": 38.908635, "is_disabled": 0, "lon": -77.01356383333334}, {"fusion_lat": 0.0, "type": "electric_scooter", "name": "338f51b61fe163164fc0a9229afc0c6c", "fusion_lon": 0.0, "bike_id": "338f51b61fe163164fc0a9229afc0c6c", "is_reserved": 0, "rental_uris": {"android": "https://dc.lft.to/lastmile_qr_scan", "ios": "https://dc.lft.to/lastmile_qr_scan"}, "lat": 38.90867516666667, "is_disabled": 0, "lon": -77.08593433333333}, {"fusion_lat": 0.0, "type": "electric_scooter", "name": "d32335b4bed02e99ea81f4e57b8eee44", "fusion_lon": 0.0, "bike_id": "d32335b4bed02e99ea81f4e57b8eee44", "is_reserved": 0, "rental_uris": {"android": "https://dc.lft.to/lastmile_qr_scan", "ios": "https://dc.lft.to/lastmile_qr_scan"}, "lat": 38.94099766666667, "is_disabled": 0, "lon": -77.0211145}, {"fusion_lat": 0.0, "type": "electric_scooter", "name": "d3a3b31f5714b45437a72d50134cdd9f", "fusion_lon": 0.0, "bike_id": "d3a3b31f5714b45437a72d50134cdd9f", "is_reserved": 0, "rental_uris": {"android": "https://dc.lft.to/lastmile_qr_scan", "ios": "https://dc.lft.to/lastmile_qr_scan"}, "lat": 38.92430616666667, "is_disabled": 0, "lon": -77.051822}, {"fusion_lat": 0.0, "type": "electric_scooter", "name": "ad8e8600b7a5daf889dadad867e346d2", "fusion_lon": 0.0, "bike_id": "ad8e8600b7a5daf889dadad867e346d2", "is_reserved": 0, "rental_uris": {"android": "https://dc.lft.to/lastmile_qr_scan", "ios": "https://dc.lft.to/lastmile_qr_scan"}, "lat": 38.88720983333333, "is_disabled": 0, "lon": -77.02180816666667}, {"fusion_lat": 0.0, "type": "electric_scooter", "name": "eb4d026c65bb3be719ddfd65f59c4485", "fusion_lon": 0.0, "bike_id": "eb4d026c65bb3be719ddfd65f59c4485", "is_reserved": 0, "rental_uris": {"android": "https://dc.lft.to/lastmile_qr_scan", "ios": "https://dc.lft.to/lastmile_qr_scan"}, "lat": 38.88989983333333, "is_disabled": 0, "lon": -76.98332283333333}, {"fusion_lat": 0.0, "type": "electric_scooter", "name": "58f97ce45022b5757c784a66dc6b1cb6", "fusion_lon": 0.0, "bike_id": "58f97ce45022b5757c784a66dc6b1cb6", "is_reserved": 0, "rental_uris": {"android": "https://dc.lft.to/lastmile_qr_scan", "ios": "https://dc.lft.to/lastmile_qr_scan"}, "lat": 38.89008533333333, "is_disabled": 0, "lon": -77.033204}, {"fusion_lat": 0.0, "type": "electric_scooter", "name": "ea73c0003062b5b0b570470fbff5c2ba", "fusion_lon": 0.0, "bike_id": "ea73c0003062b5b0b570470fbff5c2ba", "is_reserved": 0, "rental_uris": {"android": "https://dc.lft.to/lastmile_qr_scan", "ios": "https://dc.lft.to/lastmile_qr_scan"}, "lat": 38.900181, "is_disabled": 0, "lon": -77.045108}, {"fusion_lat": 0.0, "type": "electric_scooter", "name": "717427591bdad372c38388edb7f1e4c5", "fusion_lon": 0.0, "bike_id": "717427591bdad372c38388edb7f1e4c5", "is_reserved": 0, "rental_uris": {"android": "https://dc.lft.to/lastmile_qr_scan", "ios": "https://dc.lft.to/lastmile_qr_scan"}, "lat": 38.892438166666665, "is_disabled": 0, "lon": -77.017331}, {"fusion_lat": 0.0, "type": "electric_scooter", "name": "85681da784b92865373ddcb301d41fd3", "fusion_lon": 0.0, "bike_id": "85681da784b92865373ddcb301d41fd3", "is_reserved": 0, "rental_uris": {"android": "https://dc.lft.to/lastmile_qr_scan", "ios": "https://dc.lft.to/lastmile_qr_scan"}, "lat": 38.90399266666667, "is_disabled": 0, "lon": -77.0237035}, {"fusion_lat": 0.0, "type": "electric_scooter", "name": "ddb7e71a2fc4ada73732bf2b24118d08", "fusion_lon": 0.0, "bike_id": "ddb7e71a2fc4ada73732bf2b24118d08", "is_reserved": 0, "rental_uris": {"android": "https://dc.lft.to/lastmile_qr_scan", "ios": "https://dc.lft.to/lastmile_qr_scan"}, "lat": 38.92986783333333, "is_disabled": 0, "lon": -77.03471516666667}, {"fusion_lat": 0.0, "type": "electric_scooter", "name": "2971e0da6b7967e47658f256cbdbaa8e", "fusion_lon": 0.0, "bike_id": "2971e0da6b7967e47658f256cbdbaa8e", "is_reserved": 0, "rental_uris": {"android": "https://dc.lft.to/lastmile_qr_scan", "ios": "https://dc.lft.to/lastmile_qr_scan"}, "lat": 38.9040295, "is_disabled": 0, "lon": -77.0383645}, {"fusion_lat": 0.0, "type": "electric_bike", "name": "f674e9aa6fa0620d3638334aafc6144c", "fusion_lon": 0.0, "bike_id": "f674e9aa6fa0620d3638334aafc6144c", "is_reserved": 0, "rental_uris": {"android": "https://dc.lft.to/lastmile_qr_scan", "ios": "https://dc.lft.to/lastmile_qr_scan"}, "lat": 38.8981145, "is_disabled": 0, "lon": -77.00597083333334}, {"fusion_lat": 0.0, "type": "electric_scooter", "name": "3b7371869335311f192abea3add435f8", "fusion_lon": 0.0, "bike_id": "3b7371869335311f192abea3add435f8", "is_reserved": 0, "rental_uris": {"android": "https://dc.lft.to/lastmile_qr_scan", "ios": "https://dc.lft.to/lastmile_qr_scan"}, "lat": 38.892249166666666, "is_disabled": 0, "lon": -77.0450565}, {"fusion_lat": 0.0, "type": "electric_scooter", "name": "90dc4931636f680e8994270a067ba62a", "fusion_lon": 0.0, "bike_id": "90dc4931636f680e8994270a067ba62a", "is_reserved": 0, "rental_uris": {"android": "https://dc.lft.to/lastmile_qr_scan", "ios": "https://dc.lft.to/lastmile_qr_scan"}, "lat": 38.918096166666665, "is_disabled": 0, "lon": -77.0249525}, {"fusion_lat": 0.0, "type": "electric_scooter", "name": "e417b811204af51ad5b907864dca2404", "fusion_lon": 0.0, "bike_id": "e417b811204af51ad5b907864dca2404", "is_reserved": 0, "rental_uris": {"android": "https://dc.lft.to/lastmile_qr_scan", "ios": "https://dc.lft.to/lastmile_qr_scan"}, "lat": 38.952326666666664, "is_disabled": 0, "lon": -77.0143095}, {"fusion_lat": 0.0, "type": "electric_scooter", "name": "e8b427ff6b29e6861e867773f67ac2df", "fusion_lon": 0.0, "bike_id": "e8b427ff6b29e6861e867773f67ac2df", "is_reserved": 0, "rental_uris": {"android": "https://dc.lft.to/lastmile_qr_scan", "ios": "https://dc.lft.to/lastmile_qr_scan"}, "lat": 38.8872055, "is_disabled": 0, "lon": -77.02174516666666}, {"fusion_lat": 0.0, "type": "electric_scooter", "name": "647e83a3a0a88ab8364b85754dba7c89", "fusion_lon": 0.0, "bike_id": "647e83a3a0a88ab8364b85754dba7c89", "is_reserved": 0, "rental_uris": {"android": "https://dc.lft.to/lastmile_qr_scan", "ios": "https://dc.lft.to/lastmile_qr_scan"}, "lat": 38.930262166666665, "is_disabled": 0, "lon": -77.01299633333333}, {"fusion_lat": 0.0, "type": "electric_scooter", "name": "de068d39b080be7af2db7d8dd61ad0de", "fusion_lon": 0.0, "bike_id": "de068d39b080be7af2db7d8dd61ad0de", "is_reserved": 0, "rental_uris": {"android": "https://dc.lft.to/lastmile_qr_scan", "ios": "https://dc.lft.to/lastmile_qr_scan"}, "lat": 38.92447883333333, "is_disabled": 0, "lon": -77.02131383333334}, {"fusion_lat": 0.0, "type": "electric_scooter", "name": "cfd645da7e1cb1f38fdabb30b3a66177", "fusion_lon": 0.0, "bike_id": "cfd645da7e1cb1f38fdabb30b3a66177", "is_reserved": 0, "rental_uris": {"android": "https://dc.lft.to/lastmile_qr_scan", "ios": "https://dc.lft.to/lastmile_qr_scan"}, "lat": 38.9084955, "is_disabled": 0, "lon": -77.04164416666667}, {"fusion_lat": 0.0, "type": "electric_scooter", "name": "840289a68f82eeabc94385d4a46b507f", "fusion_lon": 0.0, "bike_id": "840289a68f82eeabc94385d4a46b507f", "is_reserved": 0, "rental_uris": {"android": "https://dc.lft.to/lastmile_qr_scan", "ios": "https://dc.lft.to/lastmile_qr_scan"}, "lat": 38.92816366666667, "is_disabled": 0, "lon": -77.05522533333334}, {"fusion_lat": 0.0, "type": "electric_scooter", "name": "2407d990002496d28db2393bfd08344e", "fusion_lon": 0.0, "bike_id": "2407d990002496d28db2393bfd08344e", "is_reserved": 0, "rental_uris": {"android": "https://dc.lft.to/lastmile_qr_scan", "ios": "https://dc.lft.to/lastmile_qr_scan"}, "lat": 38.9252005, "is_disabled": 0, "lon": -77.05041483333333}, {"fusion_lat": 0.0, "type": "electric_scooter", "name": "1afbedd4a298bbfde5a12125dd17eaa1", "fusion_lon": 0.0, "bike_id": "1afbedd4a298bbfde5a12125dd17eaa1", "is_reserved": 0, "rental_uris": {"android": "https://dc.lft.to/lastmile_qr_scan", "ios": "https://dc.lft.to/lastmile_qr_scan"}, "lat": 38.918947, "is_disabled": 0, "lon": -77.02201383333333}, {"fusion_lat": 0.0, "type": "electric_scooter", "name": "2c8e96895a26ac997263564fd4991185", "fusion_lon": 0.0, "bike_id": "2c8e96895a26ac997263564fd4991185", "is_reserved": 0, "rental_uris": {"android": "https://dc.lft.to/lastmile_qr_scan", "ios": "https://dc.lft.to/lastmile_qr_scan"}, "lat": 38.888915833333336, "is_disabled": 0, "lon": -77.03321466666667}, {"fusion_lat": 0.0, "type": "electric_scooter", "name": "16c78f380b88e45b845d88e85a0c6c08", "fusion_lon": 0.0, "bike_id": "16c78f380b88e45b845d88e85a0c6c08", "is_reserved": 0, "rental_uris": {"android": "https://dc.lft.to/lastmile_qr_scan", "ios": "https://dc.lft.to/lastmile_qr_scan"}, "lat": 38.892415, "is_disabled": 0, "lon": -77.04159916666667}, {"fusion_lat": 0.0, "type": "electric_scooter", "name": "962c03b36c512287334a848ddb7337dc", "fusion_lon": 0.0, "bike_id": "962c03b36c512287334a848ddb7337dc", "is_reserved": 0, "rental_uris": {"android": "https://dc.lft.to/lastmile_qr_scan", "ios": "https://dc.lft.to/lastmile_qr_scan"}, "lat": 38.90284166666667, "is_disabled": 0, "lon": -77.03427216666667}, {"fusion_lat": 0.0, "type": "electric_scooter", "name": "d87ff6f3eb385d66fbc9faa0ac498502", "fusion_lon": 0.0, "bike_id": "d87ff6f3eb385d66fbc9faa0ac498502", "is_reserved": 0, "rental_uris": {"android": "https://dc.lft.to/lastmile_qr_scan", "ios": "https://dc.lft.to/lastmile_qr_scan"}, "lat": 38.851712166666665, "is_disabled": 0, "lon": -76.9958145}, {"fusion_lat": 0.0, "type": "electric_scooter", "name": "be218886c2c3b82dece526716ab8f9fb", "fusion_lon": 0.0, "bike_id": "be218886c2c3b82dece526716ab8f9fb", "is_reserved": 0, "rental_uris": {"android": "https://dc.lft.to/lastmile_qr_scan", "ios": "https://dc.lft.to/lastmile_qr_scan"}, "lat": 38.96116083333333, "is_disabled": 0, "lon": -77.00943766666667}, {"fusion_lat": 0.0, "type": "electric_scooter", "name": "9d60a710e29dc3732270669b55b56f96", "fusion_lon": 0.0, "bike_id": "9d60a710e29dc3732270669b55b56f96", "is_reserved": 0, "rental_uris": {"android": "https://dc.lft.to/lastmile_qr_scan", "ios": "https://dc.lft.to/lastmile_qr_scan"}, "lat": 38.898916166666666, "is_disabled": 0, "lon": -77.03996066666667}, {"fusion_lat": 0.0, "type": "electric_scooter", "name": "f44c22af1c396a7c3e2721819eca25e0", "fusion_lon": 0.0, "bike_id": "f44c22af1c396a7c3e2721819eca25e0", "is_reserved": 0, "rental_uris": {"android": "https://dc.lft.to/lastmile_qr_scan", "ios": "https://dc.lft.to/lastmile_qr_scan"}, "lat": 38.923336166666665, "is_disabled": 0, "lon": -76.99909133333334}, {"fusion_lat": 0.0, "type": "electric_scooter", "name": "e3bb4f45aba0eb8c00b3125f392dc988", "fusion_lon": 0.0, "bike_id": "e3bb4f45aba0eb8c00b3125f392dc988", "is_reserved": 0, "rental_uris": {"android": "https://dc.lft.to/lastmile_qr_scan", "ios": "https://dc.lft.to/lastmile_qr_scan"}, "lat": 38.90362533333333, "is_disabled": 0, "lon": -76.93605766666667}, {"fusion_lat": 0.0, "type": "electric_scooter", "name": "ad5a9199ec689e681e8845f491482e23", "fusion_lon": 0.0, "bike_id": "ad5a9199ec689e681e8845f491482e23", "is_reserved": 0, "rental_uris": {"android": "https://dc.lft.to/lastmile_qr_scan", "ios": "https://dc.lft.to/lastmile_qr_scan"}, "lat": 38.908128, "is_disabled": 0, "lon": -77.03948116666666}, {"fusion_lat": 0.0, "type": "electric_scooter", "name": "a65cbf95e4454efcbc8abdd6e408561d", "fusion_lon": 0.0, "bike_id": "a65cbf95e4454efcbc8abdd6e408561d", "is_reserved": 0, "rental_uris": {"android": "https://dc.lft.to/lastmile_qr_scan", "ios": "https://dc.lft.to/lastmile_qr_scan"}, "lat": 38.91421416666667, "is_disabled": 0, "lon": -77.02595266666667}, {"fusion_lat": 0.0, "type": "electric_scooter", "name": "d9e3250c9d79f07c3d68ec9a0e93ca5f", "fusion_lon": 0.0, "bike_id": "d9e3250c9d79f07c3d68ec9a0e93ca5f", "is_reserved": 0, "rental_uris": {"android": "https://dc.lft.to/lastmile_qr_scan", "ios": "https://dc.lft.to/lastmile_qr_scan"}, "lat": 38.89222216666667, "is_disabled": 0, "lon": -77.02219483333333}, {"fusion_lat": 0.0, "type": "electric_scooter", "name": "fcbb342baae424cbb6ebf570a2e2cf2c", "fusion_lon": 0.0, "bike_id": "fcbb342baae424cbb6ebf570a2e2cf2c", "is_reserved": 0, "rental_uris": {"android": "https://dc.lft.to/lastmile_qr_scan", "ios": "https://dc.lft.to/lastmile_qr_scan"}, "lat": 38.915703666666666, "is_disabled": 0, "lon": -77.0400705}, {"fusion_lat": 0.0, "type": "electric_scooter", "name": "a4894bbe521156124ee57a7dececd3ef", "fusion_lon": 0.0, "bike_id": "a4894bbe521156124ee57a7dececd3ef", "is_reserved": 0, "rental_uris": {"android": "https://dc.lft.to/lastmile_qr_scan", "ios": "https://dc.lft.to/lastmile_qr_scan"}, "lat": 38.922556666666665, "is_disabled": 0, "lon": -77.019461}, {"fusion_lat": 0.0, "type": "electric_scooter", "name": "5c32bcc718f967b2196cfca854e2734a", "fusion_lon": 0.0, "bike_id": "5c32bcc718f967b2196cfca854e2734a", "is_reserved": 0, "rental_uris": {"android": "https://dc.lft.to/lastmile_qr_scan", "ios": "https://dc.lft.to/lastmile_qr_scan"}, "lat": 38.916796166666664, "is_disabled": 0, "lon": -77.02977583333333}, {"fusion_lat": 0.0, "type": "electric_scooter", "name": "0d438f089bea46a6c6ce534443befd3e", "fusion_lon": 0.0, "bike_id": "0d438f089bea46a6c6ce534443befd3e", "is_reserved": 0, "rental_uris": {"android": "https://dc.lft.to/lastmile_qr_scan", "ios": "https://dc.lft.to/lastmile_qr_scan"}, "lat": 38.90602116666667, "is_disabled": 0, "lon": -77.0414675}, {"fusion_lat": 0.0, "type": "electric_scooter", "name": "091c5e81c5eb3fa08ff7ec25b29b3a44", "fusion_lon": 0.0, "bike_id": "091c5e81c5eb3fa08ff7ec25b29b3a44", "is_reserved": 0, "rental_uris": {"android": "https://dc.lft.to/lastmile_qr_scan", "ios": "https://dc.lft.to/lastmile_qr_scan"}, "lat": 38.903903, "is_disabled": 0, "lon": -77.04530933333334}, {"fusion_lat": 0.0, "type": "electric_scooter", "name": "d0b0335dba03b4ac362e2ab7b8408568", "fusion_lon": 0.0, "bike_id": "d0b0335dba03b4ac362e2ab7b8408568", "is_reserved": 0, "rental_uris": {"android": "https://dc.lft.to/lastmile_qr_scan", "ios": "https://dc.lft.to/lastmile_qr_scan"}, "lat": 38.883153666666665, "is_disabled": 0, "lon": -77.01767266666667}, {"fusion_lat": 0.0, "type": "electric_scooter", "name": "5641384c030311b160e2b73d1100555c", "fusion_lon": 0.0, "bike_id": "5641384c030311b160e2b73d1100555c", "is_reserved": 0, "rental_uris": {"android": "https://dc.lft.to/lastmile_qr_scan", "ios": "https://dc.lft.to/lastmile_qr_scan"}, "lat": 38.91887833333333, "is_disabled": 0, "lon": -77.04825166666667}, {"fusion_lat": 0.0, "type": "electric_scooter", "name": "6b0f4390768b97b96e1bfd3ffd3e2249", "fusion_lon": 0.0, "bike_id": "6b0f4390768b97b96e1bfd3ffd3e2249", "is_reserved": 0, "rental_uris": {"android": "https://dc.lft.to/lastmile_qr_scan", "ios": "https://dc.lft.to/lastmile_qr_scan"}, "lat": 38.886168833333336, "is_disabled": 0, "lon": -77.0006615}, {"fusion_lat": 0.0, "type": "electric_scooter", "name": "6e2fa1cf765b47336987e039d64c2ad4", "fusion_lon": 0.0, "bike_id": "6e2fa1cf765b47336987e039d64c2ad4", "is_reserved": 0, "rental_uris": {"android": "https://dc.lft.to/lastmile_qr_scan", "ios": "https://dc.lft.to/lastmile_qr_scan"}, "lat": 38.957908, "is_disabled": 0, "lon": -77.0200335}, {"fusion_lat": 0.0, "type": "electric_scooter", "name": "18bcbfa67ce504ad2562f3e51f5699ac", "fusion_lon": 0.0, "bike_id": "18bcbfa67ce504ad2562f3e51f5699ac", "is_reserved": 0, "rental_uris": {"android": "https://dc.lft.to/lastmile_qr_scan", "ios": "https://dc.lft.to/lastmile_qr_scan"}, "lat": 38.90415983333333, "is_disabled": 0, "lon": -77.02943816666667}, {"fusion_lat": 0.0, "type": "electric_bike", "name": "61dbba9f1b5af9e0ab08f475973696a8", "fusion_lon": 0.0, "bike_id": "61dbba9f1b5af9e0ab08f475973696a8", "is_reserved": 0, "rental_uris": {"android": "https://dc.lft.to/lastmile_qr_scan", "ios": "https://dc.lft.to/lastmile_qr_scan"}, "lat": 38.928759, "is_disabled": 0, "lon": -77.01239816666667}, {"fusion_lat": 0.0, "type": "electric_bike", "name": "e84ea086b1b88f0183c95fd9bc2d8020", "fusion_lon": 0.0, "bike_id": "e84ea086b1b88f0183c95fd9bc2d8020", "is_reserved": 0, "rental_uris": {"android": "https://dc.lft.to/lastmile_qr_scan", "ios": "https://dc.lft.to/lastmile_qr_scan"}, "lat": 38.8794565, "is_disabled": 0, "lon": -76.9161985}, {"fusion_lat": 0.0, "type": "electric_scooter", "name": "f88375a21174de3d79d8e757db99ff6d", "fusion_lon": 0.0, "bike_id": "f88375a21174de3d79d8e757db99ff6d", "is_reserved": 0, "rental_uris": {"android": "https://dc.lft.to/lastmile_qr_scan", "ios": "https://dc.lft.to/lastmile_qr_scan"}, "lat": 38.893107, "is_disabled": 0, "lon": -77.02167433333334}, {"fusion_lat": 0.0, "type": "electric_scooter", "name": "93eb5fce4fd4d9049f6e81565d796e80", "fusion_lon": 0.0, "bike_id": "93eb5fce4fd4d9049f6e81565d796e80", "is_reserved": 0, "rental_uris": {"android": "https://dc.lft.to/lastmile_qr_scan", "ios": "https://dc.lft.to/lastmile_qr_scan"}, "lat": 38.8983745, "is_disabled": 0, "lon": -77.032794}, {"fusion_lat": 0.0, "type": "electric_scooter", "name": "35a8e7b90b02e2cad3ebcd44a67be01d", "fusion_lon": 0.0, "bike_id": "35a8e7b90b02e2cad3ebcd44a67be01d", "is_reserved": 0, "rental_uris": {"android": "https://dc.lft.to/lastmile_qr_scan", "ios": "https://dc.lft.to/lastmile_qr_scan"}, "lat": 38.90579133333333, "is_disabled": 0, "lon": -77.04372183333334}, {"fusion_lat": 0.0, "type": "electric_bike", "name": "059fd49a9c67641b0cea445cf78e3282", "fusion_lon": 0.0, "bike_id": "059fd49a9c67641b0cea445cf78e3282", "is_reserved": 0, "rental_uris": {"android": "https://dc.lft.to/lastmile_qr_scan", "ios": "https://dc.lft.to/lastmile_qr_scan"}, "lat": 38.87731933333333, "is_disabled": 0, "lon": -76.981065}, {"fusion_lat": 0.0, "type": "electric_scooter", "name": "b2bb9ef80cccdf90269d9f872b5c6511", "fusion_lon": 0.0, "bike_id": "b2bb9ef80cccdf90269d9f872b5c6511", "is_reserved": 0, "rental_uris": {"android": "https://dc.lft.to/lastmile_qr_scan", "ios": "https://dc.lft.to/lastmile_qr_scan"}, "lat": 38.903139333333336, "is_disabled": 0, "lon": -77.0590625}, {"fusion_lat": 0.0, "type": "electric_scooter", "name": "2b92ae797107282156f16d9842fbaa63", "fusion_lon": 0.0, "bike_id": "2b92ae797107282156f16d9842fbaa63", "is_reserved": 0, "rental_uris": {"android": "https://dc.lft.to/lastmile_qr_scan", "ios": "https://dc.lft.to/lastmile_qr_scan"}, "lat": 38.90342016666666, "is_disabled": 0, "lon": -77.0435265}, {"fusion_lat": 0.0, "type": "electric_scooter", "name": "e8d4b7c4478d32195fce2cf0be5fb570", "fusion_lon": 0.0, "bike_id": "e8d4b7c4478d32195fce2cf0be5fb570", "is_reserved": 0, "rental_uris": {"android": "https://dc.lft.to/lastmile_qr_scan", "ios": "https://dc.lft.to/lastmile_qr_scan"}, "lat": 38.87462433333334, "is_disabled": 0, "lon": -77.00959316666666}, {"fusion_lat": 0.0, "type": "electric_scooter", "name": "e4f1e667d83fa40ec834ce2f7d345981", "fusion_lon": 0.0, "bike_id": "e4f1e667d83fa40ec834ce2f7d345981", "is_reserved": 0, "rental_uris": {"android": "https://dc.lft.to/lastmile_qr_scan", "ios": "https://dc.lft.to/lastmile_qr_scan"}, "lat": 38.948983166666665, "is_disabled": 0, "lon": -77.00645283333333}, {"fusion_lat": 0.0, "type": "electric_scooter", "name": "e8a752f5d58be35bb350e5487ec95312", "fusion_lon": 0.0, "bike_id": "e8a752f5d58be35bb350e5487ec95312", "is_reserved": 0, "rental_uris": {"android": "https://dc.lft.to/lastmile_qr_scan", "ios": "https://dc.lft.to/lastmile_qr_scan"}, "lat": 38.89842866666667, "is_disabled": 0, "lon": -76.94640583333333}, {"fusion_lat": 0.0, "type": "electric_scooter", "name": "234615e2fb917a6b503423a3be6cc09e", "fusion_lon": 0.0, "bike_id": "234615e2fb917a6b503423a3be6cc09e", "is_reserved": 0, "rental_uris": {"android": "https://dc.lft.to/lastmile_qr_scan", "ios": "https://dc.lft.to/lastmile_qr_scan"}, "lat": 38.905236, "is_disabled": 0, "lon": -77.064256}, {"fusion_lat": 0.0, "type": "electric_bike", "name": "b18e8857d52031a6c788c97a71e9f4dc", "fusion_lon": 0.0, "bike_id": "b18e8857d52031a6c788c97a71e9f4dc", "is_reserved": 0, "rental_uris": {"android": "https://dc.lft.to/lastmile_qr_scan", "ios": "https://dc.lft.to/lastmile_qr_scan"}, "lat": 38.9843075, "is_disabled": 0, "lon": -77.096745}, {"fusion_lat": 0.0, "type": "electric_scooter", "name": "2592bfcecacad0937daa98b23e168128", "fusion_lon": 0.0, "bike_id": "2592bfcecacad0937daa98b23e168128", "is_reserved": 0, "rental_uris": {"android": "https://dc.lft.to/lastmile_qr_scan", "ios": "https://dc.lft.to/lastmile_qr_scan"}, "lat": 38.9346085, "is_disabled": 0, "lon": -77.05782866666667}, {"fusion_lat": 0.0, "type": "electric_scooter", "name": "5bdcc00ee1c1382a91fbfa8366dd089c", "fusion_lon": 0.0, "bike_id": "5bdcc00ee1c1382a91fbfa8366dd089c", "is_reserved": 0, "rental_uris": {"android": "https://dc.lft.to/lastmile_qr_scan", "ios": "https://dc.lft.to/lastmile_qr_scan"}, "lat": 38.86061766666667, "is_disabled": 0, "lon": -76.98421566666667}, {"fusion_lat": 0.0, "type": "electric_scooter", "name": "38706966fa0c454bc65fabb5fa7cf1a5", "fusion_lon": 0.0, "bike_id": "38706966fa0c454bc65fabb5fa7cf1a5", "is_reserved": 0, "rental_uris": {"android": "https://dc.lft.to/lastmile_qr_scan", "ios": "https://dc.lft.to/lastmile_qr_scan"}, "lat": 38.880485, "is_disabled": 0, "lon": -77.01988266666666}, {"fusion_lat": 0.0, "type": "electric_scooter", "name": "dbb837f92e789af26e2e83826ea9bcbb", "fusion_lon": 0.0, "bike_id": "dbb837f92e789af26e2e83826ea9bcbb", "is_reserved": 0, "rental_uris": {"android": "https://dc.lft.to/lastmile_qr_scan", "ios": "https://dc.lft.to/lastmile_qr_scan"}, "lat": 38.92292616666667, "is_disabled": 0, "lon": -77.02110966666666}, {"fusion_lat": 0.0, "type": "electric_scooter", "name": "7ccc5b30a1a640be13fdf5b9074274e0", "fusion_lon": 0.0, "bike_id": "7ccc5b30a1a640be13fdf5b9074274e0", "is_reserved": 0, "rental_uris": {"android": "https://dc.lft.to/lastmile_qr_scan", "ios": "https://dc.lft.to/lastmile_qr_scan"}, "lat": 38.89223366666667, "is_disabled": 0, "lon": -77.04682066666666}, {"fusion_lat": 0.0, "type": "electric_scooter", "name": "5936ad76d3bda36875872b78eb2b3a3e", "fusion_lon": 0.0, "bike_id": "5936ad76d3bda36875872b78eb2b3a3e", "is_reserved": 0, "rental_uris": {"android": "https://dc.lft.to/lastmile_qr_scan", "ios": "https://dc.lft.to/lastmile_qr_scan"}, "lat": 38.91861, "is_disabled": 0, "lon": -77.02542566666666}, {"fusion_lat": 0.0, "type": "electric_scooter", "name": "09fbe5e4898c4b43205aa4f0cc3e694d", "fusion_lon": 0.0, "bike_id": "09fbe5e4898c4b43205aa4f0cc3e694d", "is_reserved": 0, "rental_uris": {"android": "https://dc.lft.to/lastmile_qr_scan", "ios": "https://dc.lft.to/lastmile_qr_scan"}, "lat": 38.921227, "is_disabled": 0, "lon": -77.03655916666666}, {"fusion_lat": 0.0, "type": "electric_scooter", "name": "4aa241a06e643fce722333a2ab38efb8", "fusion_lon": 0.0, "bike_id": "4aa241a06e643fce722333a2ab38efb8", "is_reserved": 0, "rental_uris": {"android": "https://dc.lft.to/lastmile_qr_scan", "ios": "https://dc.lft.to/lastmile_qr_scan"}, "lat": 38.923074666666665, "is_disabled": 0, "lon": -77.04461116666667}, {"fusion_lat": 0.0, "type": "electric_scooter", "name": "80f6a62ccbdae863a183e40f9f4f4f9f", "fusion_lon": 0.0, "bike_id": "80f6a62ccbdae863a183e40f9f4f4f9f", "is_reserved": 0, "rental_uris": {"android": "https://dc.lft.to/lastmile_qr_scan", "ios": "https://dc.lft.to/lastmile_qr_scan"}, "lat": 38.914821333333336, "is_disabled": 0, "lon": -77.03191333333334}, {"fusion_lat": 0.0, "type": "electric_scooter", "name": "cd7be91f449bb77d0c8f341ef7a69313", "fusion_lon": 0.0, "bike_id": "cd7be91f449bb77d0c8f341ef7a69313", "is_reserved": 0, "rental_uris": {"android": "https://dc.lft.to/lastmile_qr_scan", "ios": "https://dc.lft.to/lastmile_qr_scan"}, "lat": 38.90556816666667, "is_disabled": 0, "lon": -77.04279466666667}, {"fusion_lat": 0.0, "type": "electric_scooter", "name": "446f09309042caf31096dd6bce9604e7", "fusion_lon": 0.0, "bike_id": "446f09309042caf31096dd6bce9604e7", "is_reserved": 0, "rental_uris": {"android": "https://dc.lft.to/lastmile_qr_scan", "ios": "https://dc.lft.to/lastmile_qr_scan"}, "lat": 38.923318333333334, "is_disabled": 0, "lon": -77.01951983333333}, {"fusion_lat": 0.0, "type": "electric_scooter", "name": "e81e1fc73a3cd1f82fa6bdb9efbcdc28", "fusion_lon": 0.0, "bike_id": "e81e1fc73a3cd1f82fa6bdb9efbcdc28", "is_reserved": 0, "rental_uris": {"android": "https://dc.lft.to/lastmile_qr_scan", "ios": "https://dc.lft.to/lastmile_qr_scan"}, "lat": 38.887720333333334, "is_disabled": 0, "lon": -76.95571916666667}, {"fusion_lat": 0.0, "type": "electric_scooter", "name": "ff15ad69b678e2f0d8bfeef9f7272623", "fusion_lon": 0.0, "bike_id": "ff15ad69b678e2f0d8bfeef9f7272623", "is_reserved": 0, "rental_uris": {"android": "https://dc.lft.to/lastmile_qr_scan", "ios": "https://dc.lft.to/lastmile_qr_scan"}, "lat": 38.89495316666667, "is_disabled": 0, "lon": -77.00947016666667}, {"fusion_lat": 0.0, "type": "electric_scooter", "name": "0b41537c79c3ff7106916c67a7a10ce1", "fusion_lon": 0.0, "bike_id": "0b41537c79c3ff7106916c67a7a10ce1", "is_reserved": 0, "rental_uris": {"android": "https://dc.lft.to/lastmile_qr_scan", "ios": "https://dc.lft.to/lastmile_qr_scan"}, "lat": 38.925723166666664, "is_disabled": 0, "lon": -77.02842633333333}, {"fusion_lat": 0.0, "type": "electric_scooter", "name": "efa1d41a146e9168d43ced87ff96f5c1", "fusion_lon": 0.0, "bike_id": "efa1d41a146e9168d43ced87ff96f5c1", "is_reserved": 0, "rental_uris": {"android": "https://dc.lft.to/lastmile_qr_scan", "ios": "https://dc.lft.to/lastmile_qr_scan"}, "lat": 38.900849, "is_disabled": 0, "lon": -76.99368833333334}, {"fusion_lat": 0.0, "type": "electric_scooter", "name": "e91887ce66639ad2c015f01526c32043", "fusion_lon": 0.0, "bike_id": "e91887ce66639ad2c015f01526c32043", "is_reserved": 0, "rental_uris": {"android": "https://dc.lft.to/lastmile_qr_scan", "ios": "https://dc.lft.to/lastmile_qr_scan"}, "lat": 38.91809533333333, "is_disabled": 0, "lon": -77.024949}, {"fusion_lat": 0.0, "type": "electric_scooter", "name": "7d02f7d186b7cd4897fd0931e979eb80", "fusion_lon": 0.0, "bike_id": "7d02f7d186b7cd4897fd0931e979eb80", "is_reserved": 0, "rental_uris": {"android": "https://dc.lft.to/lastmile_qr_scan", "ios": "https://dc.lft.to/lastmile_qr_scan"}, "lat": 38.941818166666664, "is_disabled": 0, "lon": -77.02531516666667}, {"fusion_lat": 0.0, "type": "electric_scooter", "name": "a122757af731f6af2dc1a4c510418f62", "fusion_lon": 0.0, "bike_id": "a122757af731f6af2dc1a4c510418f62", "is_reserved": 0, "rental_uris": {"android": "https://dc.lft.to/lastmile_qr_scan", "ios": "https://dc.lft.to/lastmile_qr_scan"}, "lat": 38.908143833333334, "is_disabled": 0, "lon": -77.03859183333333}, {"fusion_lat": 0.0, "type": "electric_scooter", "name": "b85f1aaa24087f6419add73e7bfc1667", "fusion_lon": 0.0, "bike_id": "b85f1aaa24087f6419add73e7bfc1667", "is_reserved": 0, "rental_uris": {"android": "https://dc.lft.to/lastmile_qr_scan", "ios": "https://dc.lft.to/lastmile_qr_scan"}, "lat": 38.89199833333333, "is_disabled": 0, "lon": -77.0262355}, {"fusion_lat": 0.0, "type": "electric_scooter", "name": "fc27e9b1ec4ae860fb7e69817a45099c", "fusion_lon": 0.0, "bike_id": "fc27e9b1ec4ae860fb7e69817a45099c", "is_reserved": 0, "rental_uris": {"android": "https://dc.lft.to/lastmile_qr_scan", "ios": "https://dc.lft.to/lastmile_qr_scan"}, "lat": 38.9172735, "is_disabled": 0, "lon": -77.02969816666666}, {"fusion_lat": 0.0, "type": "electric_scooter", "name": "76158b46566ccb797247fd640c181e8b", "fusion_lon": 0.0, "bike_id": "76158b46566ccb797247fd640c181e8b", "is_reserved": 0, "rental_uris": {"android": "https://dc.lft.to/lastmile_qr_scan", "ios": "https://dc.lft.to/lastmile_qr_scan"}, "lat": 38.9236855, "is_disabled": 0, "lon": -77.01924466666667}, {"fusion_lat": 0.0, "type": "electric_scooter", "name": "7fe6d498f91391c9b36f73f2344e3c75", "fusion_lon": 0.0, "bike_id": "7fe6d498f91391c9b36f73f2344e3c75", "is_reserved": 0, "rental_uris": {"android": "https://dc.lft.to/lastmile_qr_scan", "ios": "https://dc.lft.to/lastmile_qr_scan"}, "lat": 38.93536816666666, "is_disabled": 0, "lon": -77.05831566666667}, {"fusion_lat": 0.0, "type": "electric_scooter", "name": "11e87426b350a89b71ea839841492ccf", "fusion_lon": 0.0, "bike_id": "11e87426b350a89b71ea839841492ccf", "is_reserved": 0, "rental_uris": {"android": "https://dc.lft.to/lastmile_qr_scan", "ios": "https://dc.lft.to/lastmile_qr_scan"}, "lat": 38.921296, "is_disabled": 0, "lon": -77.01805666666667}, {"fusion_lat": 0.0, "type": "electric_scooter", "name": "06e3443a276e4c396eb0a54b7bad4d9e", "fusion_lon": 0.0, "bike_id": "06e3443a276e4c396eb0a54b7bad4d9e", "is_reserved": 0, "rental_uris": {"android": "https://dc.lft.to/lastmile_qr_scan", "ios": "https://dc.lft.to/lastmile_qr_scan"}, "lat": 38.90593466666667, "is_disabled": 0, "lon": -77.04078766666666}, {"fusion_lat": 0.0, "type": "electric_scooter", "name": "d376ced35beea767baa8508f4dd95ba2", "fusion_lon": 0.0, "bike_id": "d376ced35beea767baa8508f4dd95ba2", "is_reserved": 0, "rental_uris": {"android": "https://dc.lft.to/lastmile_qr_scan", "ios": "https://dc.lft.to/lastmile_qr_scan"}, "lat": 38.90559566666667, "is_disabled": 0, "lon": -77.046991}, {"fusion_lat": 0.0, "type": "electric_scooter", "name": "ea69353a351a07c3389d8ddd22822c35", "fusion_lon": 0.0, "bike_id": "ea69353a351a07c3389d8ddd22822c35", "is_reserved": 0, "rental_uris": {"android": "https://dc.lft.to/lastmile_qr_scan", "ios": "https://dc.lft.to/lastmile_qr_scan"}, "lat": 38.9015855, "is_disabled": 0, "lon": -77.04046933333333}, {"fusion_lat": 0.0, "type": "electric_scooter", "name": "9aa43ed03fa3bce146475e988fadb8cf", "fusion_lon": 0.0, "bike_id": "9aa43ed03fa3bce146475e988fadb8cf", "is_reserved": 0, "rental_uris": {"android": "https://dc.lft.to/lastmile_qr_scan", "ios": "https://dc.lft.to/lastmile_qr_scan"}, "lat": 38.885148, "is_disabled": 0, "lon": -77.01606966666667}, {"fusion_lat": 0.0, "type": "electric_scooter", "name": "5ae1e5f28eab083f01f9a0fe9cfc6431", "fusion_lon": 0.0, "bike_id": "5ae1e5f28eab083f01f9a0fe9cfc6431", "is_reserved": 0, "rental_uris": {"android": "https://dc.lft.to/lastmile_qr_scan", "ios": "https://dc.lft.to/lastmile_qr_scan"}, "lat": 38.875473, "is_disabled": 0, "lon": -77.00630733333334}, {"fusion_lat": 0.0, "type": "electric_scooter", "name": "d5ed6b99ea0dd049bed2d122f40ac19f", "fusion_lon": 0.0, "bike_id": "d5ed6b99ea0dd049bed2d122f40ac19f", "is_reserved": 0, "rental_uris": {"android": "https://dc.lft.to/lastmile_qr_scan", "ios": "https://dc.lft.to/lastmile_qr_scan"}, "lat": 38.95199783333333, "is_disabled": 0, "lon": -77.027369}, {"fusion_lat": 0.0, "type": "electric_scooter", "name": "f17d6c7629ca3ff3d8656187095bf8bd", "fusion_lon": 0.0, "bike_id": "f17d6c7629ca3ff3d8656187095bf8bd", "is_reserved": 0, "rental_uris": {"android": "https://dc.lft.to/lastmile_qr_scan", "ios": "https://dc.lft.to/lastmile_qr_scan"}, "lat": 38.93366533333333, "is_disabled": 0, "lon": -77.05727966666667}, {"fusion_lat": 0.0, "type": "electric_scooter", "name": "47ae94a9f527042cb0cd76d563ca5a99", "fusion_lon": 0.0, "bike_id": "47ae94a9f527042cb0cd76d563ca5a99", "is_reserved": 0, "rental_uris": {"android": "https://dc.lft.to/lastmile_qr_scan", "ios": "https://dc.lft.to/lastmile_qr_scan"}, "lat": 38.892011833333335, "is_disabled": 0, "lon": -77.002983}, {"fusion_lat": 0.0, "type": "electric_scooter", "name": "2c1f5b4dcce68eeb6b1afb42af948180", "fusion_lon": 0.0, "bike_id": "2c1f5b4dcce68eeb6b1afb42af948180", "is_reserved": 0, "rental_uris": {"android": "https://dc.lft.to/lastmile_qr_scan", "ios": "https://dc.lft.to/lastmile_qr_scan"}, "lat": 38.886751833333335, "is_disabled": 0, "lon": -76.93606016666666}, {"fusion_lat": 0.0, "type": "electric_scooter", "name": "3534e38a5feb9b926d286db471045792", "fusion_lon": 0.0, "bike_id": "3534e38a5feb9b926d286db471045792", "is_reserved": 0, "rental_uris": {"android": "https://dc.lft.to/lastmile_qr_scan", "ios": "https://dc.lft.to/lastmile_qr_scan"}, "lat": 38.9057535, "is_disabled": 0, "lon": -76.97628016666667}, {"fusion_lat": 0.0, "type": "electric_scooter", "name": "d87d4e5ddf082156189c7daf2fb21c86", "fusion_lon": 0.0, "bike_id": "d87d4e5ddf082156189c7daf2fb21c86", "is_reserved": 0, "rental_uris": {"android": "https://dc.lft.to/lastmile_qr_scan", "ios": "https://dc.lft.to/lastmile_qr_scan"}, "lat": 38.920617666666665, "is_disabled": 0, "lon": -77.0346265}, {"fusion_lat": 0.0, "type": "electric_scooter", "name": "68eb0b1ca88b13f18cfb81d44890ccbe", "fusion_lon": 0.0, "bike_id": "68eb0b1ca88b13f18cfb81d44890ccbe", "is_reserved": 0, "rental_uris": {"android": "https://dc.lft.to/lastmile_qr_scan", "ios": "https://dc.lft.to/lastmile_qr_scan"}, "lat": 38.8922515, "is_disabled": 0, "lon": -77.03216866666666}, {"fusion_lat": 0.0, "type": "electric_scooter", "name": "ffeea1b83191abb97e1383e5fdefac48", "fusion_lon": 0.0, "bike_id": "ffeea1b83191abb97e1383e5fdefac48", "is_reserved": 0, "rental_uris": {"android": "https://dc.lft.to/lastmile_qr_scan", "ios": "https://dc.lft.to/lastmile_qr_scan"}, "lat": 38.915453166666666, "is_disabled": 0, "lon": -77.03653066666666}, {"fusion_lat": 0.0, "type": "electric_scooter", "name": "02b799821b6f8b46fe6908f74940ccd2", "fusion_lon": 0.0, "bike_id": "02b799821b6f8b46fe6908f74940ccd2", "is_reserved": 0, "rental_uris": {"android": "https://dc.lft.to/lastmile_qr_scan", "ios": "https://dc.lft.to/lastmile_qr_scan"}, "lat": 38.91156316666667, "is_disabled": 0, "lon": -77.044342},