{"data": {"bikes": [{"rental_uris": {"ios": "https://dc.lft.to/lastmile_qr_scan", "android": "https://dc.lft.to/lastmile_qr_scan"}, "is_disabled": 0, "bike_id": "ce30e2acc48e36c2205193eaf9333232", "fusion_lon": 0.0, "fusion_lat": 0.0, "is_reserved": 0, "type": "electric_scooter", "lon": -77.0283085, "name": "ce30e2acc48e36c2205193eaf9333232", "lat": 38.93189983333333}, {"rental_uris": {"ios": "https://dc.lft.to/lastmile_qr_scan", "android": "https://dc.lft.to/lastmile_qr_scan"}, "is_disabled": 0, "bike_id": "7f0b4e102c51d3bb560c8bf8a0698c5e", "fusion_lon": 0.0, "fusion_lat": 0.0, "is_reserved": 0, "type": "electric_scooter", "lon": -77.04175316666667, "name": "7f0b4e102c51d3bb560c8bf8a0698c5e", "lat": 38.918174}, {"rental_uris": {"ios": "https://dc.lft.to/lastmile_qr_scan", "android": "https://dc.lft.to/lastmile_qr_scan"}, "is_disabled": 0, "bike_id": "b0cb7f81675a31516797a783b33ee77b", "fusion_lon": 0.0, "fusion_lat": 0.0, "is_reserved": 0, "type": "electric_scooter", "lon": -77.03659766666667, "name": "b0cb7f81675a31516797a783b33ee77b", "lat": 38.922876}, {"rental_uris": {"ios": "https://dc.lft.to/lastmile_qr_scan", "android": "https://dc.lft.to/lastmile_qr_scan"}, "is_disabled": 0, "bike_id": "741ea7b0c817ec6969c83d7e709fb5a9", "fusion_lon": 0.0, "fusion_lat": 0.0, "is_reserved": 0, "type": "electric_bike", "lon": -77.223457, "name": "741ea7b0c817ec6969c83d7e709fb5a9", "lat": 38.91801183333333}, {"rental_uris": {"ios": "https://dc.lft.to/lastmile_qr_scan", "android": "https://dc.lft.to/lastmile_qr_scan"}, "is_disabled": 0, "bike_id": "b4f10631b776b226bb068a47ac34e04d", "fusion_lon": 0.0, "fusion_lat": 0.0, "is_reserved": 0, "type": "electric_scooter", "lon": -77.03124766666667, "name": "b4f10631b776b226bb068a47ac34e04d", "lat": 38.91927916666667}, {"rental_uris": {"ios": "https://dc.lft.to/lastmile_qr_scan", "android": "https://dc.lft.to/lastmile_qr_scan"}, "is_disabled": 0, "bike_id": "1be236363a609844ef56d866c04b0382", "fusion_lon": 0.0, "fusion_lat": 0.0, "is_reserved": 0, "type": "electric_scooter", "lon": -77.04327433333333, "name": "1be236363a609844ef56d866c04b0382", "lat": 38.892296}, {"rental_uris": {"ios": "https://dc.lft.to/lastmile_qr_scan", "android": "https://dc.lft.to/lastmile_qr_scan"}, "is_disabled": 0, "bike_id": "9a87dd562998063a7e21e4edb7929523", "fusion_lon": 0.0, "fusion_lat": 0.0, "is_reserved": 0, "type": "electric_scooter", "lon": -76.9421155, "name": "9a87dd562998063a7e21e4edb7929523", "lat": 38.8841895}, {"rental_uris": {"ios": "https://dc.lft.to/lastmile_qr_scan", "android": "https://dc.lft.to/lastmile_qr_scan"}, "is_disabled": 0, "bike_id": "0aed5913c73b898734789a0ca6c79e45", "fusion_lon": 0.0, "fusion_lat": 0.0, "is_reserved": 0, "type": "electric_scooter", "lon": -77.0268725, "name": "0aed5913c73b898734789a0ca6c79e45", "lat": 38.9112815}, {"rental_uris": {"ios": "https://dc.lft.to/lastmile_qr_scan", "android": "https://dc.lft.to/lastmile_qr_scan"}, "is_disabled": 0, "bike_id": "94cf65c54714a459cc1b2d4bac7a149a", "fusion_lon": 0.0, "fusion_lat": 0.0, "is_reserved": 0, "type": "electric_scooter", "lon": -77.05125683333333, "name": "94cf65c54714a459cc1b2d4bac7a149a", "lat": 38.8968105}, {"rental_uris": {"ios": "https://dc.lft.to/lastmile_qr_scan", "android": "https://dc.lft.to/lastmile_qr_scan"}, "is_disabled": 0, "bike_id": "102424b79471b5c32e27c54a37228394", "fusion_lon": 0.0, "fusion_lat": 0.0, "is_reserved": 0, "type": "electric_scooter", "lon": -77.01117483333333, "name": "102424b79471b5c32e27c54a37228394", "lat": 38.92029733333333}, {"rental_uris": {"ios": "https://dc.lft.to/lastmile_qr_scan", "android": "https://dc.lft.to/lastmile_qr_scan"}, "is_disabled": 0, "bike_id": "656e994cd7d00e5c321061d8790e1185", "fusion_lon": 0.0, "fusion_lat": 0.0, "is_reserved": 0, "type": "electric_scooter", "lon": -77.06005016666667, "name": "656e994cd7d00e5c321061d8790e1185", "lat": 38.90225016666667}, {"rental_uris": {"ios": "https://dc.lft.to/lastmile_qr_scan", "android": "https://dc.lft.to/lastmile_qr_scan"}, "is_disabled": 0, "bike_id": "420c67cffeb0c02c81be237c3fb9c545", "fusion_lon": 0.0, "fusion_lat": 0.0, "is_reserved": 0, "type": "electric_scooter", "lon": -77.00407483333333, "name": "420c67cffeb0c02c81be237c3fb9c545", "lat": 38.876553666666666}, {"rental_uris": {"ios": "https://dc.lft.to/lastmile_qr_scan", "android": "https://dc.lft.to/lastmile_qr_scan"}, "is_disabled": 0, "bike_id": "b209fcf41bc53cdc4de34a8d199c318d", "fusion_lon": 0.0, "fusion_lat": 0.0, "is_reserved": 0, "type": "electric_scooter", "lon": -77.03176933333333, "name": "b209fcf41bc53cdc4de34a8d199c318d", "lat": 38.918187833333334}, {"rental_uris": {"ios": "https://dc.lft.to/lastmile_qr_scan", "android": "https://dc.lft.to/lastmile_qr_scan"}, "is_disabled": 0, "bike_id": "96cd1a9830c03ec93a21a8b9d3f67084", "fusion_lon": 0.0, "fusion_lat": 0.0, "is_reserved": 0, "type": "electric_scooter", "lon": -77.00559333333334, "name": "96cd1a9830c03ec93a21a8b9d3f67084", "lat": 38.90214483333333}, {"rental_uris": {"ios": "https://dc.lft.to/lastmile_qr_scan", "android": "https://dc.lft.to/lastmile_qr_scan"}, "is_disabled": 0, "bike_id": "db8028610307ddd1810830b1d5a64d77", "fusion_lon": 0.0, "fusion_lat": 0.0, "is_reserved": 0, "type": "electric_scooter", "lon": -77.03658016666667, "name": "db8028610307ddd1810830b1d5a64d77", "lat": 38.92316783333333}, {"rental_uris": {"ios": "https://dc.lft.to/lastmile_qr_scan", "android": "https://dc.lft.to/lastmile_qr_scan"}, "is_disabled": 0, "bike_id": "06ed6c2b24dfc1ad3c8c7350bb6aff19", "fusion_lon": 0.0, "fusion_lat": 0.0, "is_reserved": 0, "type": "electric_scooter", "lon": -77.037998, "name": "06ed6c2b24dfc1ad3c8c7350bb6aff19", "lat": 38.91268016666667}, {"rental_uris": {"ios": "https://dc.lft.to/lastmile_qr_scan", "android": "https://dc.lft.to/lastmile_qr_scan"}, "is_disabled": 0, "bike_id": "17219eb581d8bc6bf70d00cc9342160b", "fusion_lon": 0.0, "fusion_lat": 0.0, "is_reserved": 0, "type": "electric_scooter", "lon": -77.02824, "name": "17219eb581d8bc6bf70d00cc9342160b", "lat": 38.93191366666667}, {"rental_uris": {"ios": "https://dc.lft.to/lastmile_qr_scan", "android": "https://dc.lft.to/lastmile_qr_scan"}, "is_disabled": 0, "bike_id": "20c168c15468995adb19ba434dd81e55", "fusion_lon": 0.0, "fusion_lat": 0.0, "is_reserved": 0, "type": "electric_scooter", "lon": -77.04491983333334, "name": "20c168c15468995adb19ba434dd81e55", "lat": 38.912168666666666}, {"rental_uris": {"ios": "https://dc.lft.to/lastmile_qr_scan", "android": "https://dc.lft.to/lastmile_qr_scan"}, "is_disabled": 0, "bike_id": "5c95ffd648ad3825e00a9b3bbdb5b9b6", "fusion_lon": 0.0, "fusion_lat": 0.0, "is_reserved": 0, "type": "electric_scooter", "lon": -77.04202783333334, "name": "5c95ffd648ad3825e00a9b3bbdb5b9b6", "lat": 38.923209666666665}, {"rental_uris": {"ios": "https://dc.lft.to/lastmile_qr_scan", "android": "https://dc.lft.to/lastmile_qr_scan"}, "is_disabled": 0, "bike_id": "cb7051006a3a3d9b00f65dccae674562", "fusion_lon": 0.0, "fusion_lat": 0.0, "is_reserved": 0, "type": "electric_scooter", "lon": -77.03339566666666, "name": "cb7051006a3a3d9b00f65dccae674562", "lat": 38.90274616666667}, {"rental_uris": {"ios": "https://dc.lft.to/lastmile_qr_scan", "android": "https://dc.lft.to/lastmile_qr_scan"}, "is_disabled": 0, "bike_id": "e1f27567bcd341888b2d74af8a9fe6c7", "fusion_lon": 0.0, "fusion_lat": 0.0, "is_reserved": 0, "type": "electric_bike", "lon": -77.1267855, "name": "e1f27567bcd341888b2d74af8a9fe6c7", "lat": 38.89590616666667}, {"rental_uris": {"ios": "https://dc.lft.to/lastmile_qr_scan", "android": "https://dc.lft.to/lastmile_qr_scan"}, "is_disabled": 0, "bike_id": "d039ce37542b247684ef7244ee85548e", "fusion_lon": 0.0, "fusion_lat": 0.0, "is_reserved": 0, "type": "electric_scooter", "lon": -77.043258, "name": "d039ce37542b247684ef7244ee85548e", "lat": 38.90812366666667}, {"rental_uris": {"ios": "https://dc.lft.to/lastmile_qr_scan", "android": "https://dc.lft.to/lastmile_qr_scan"}, "is_disabled": 0, "bike_id": "156b7338daa0583478716640b390537c", "fusion_lon": 0.0, "fusion_lat": 0.0, "is_reserved": 0, "type": "electric_bike", "lon": -77.09960766666667, "name": "156b7338daa0583478716640b390537c", "lat": 38.933601833333334}, {"rental_uris": {"ios": "https://dc.lft.to/lastmile_qr_scan", "android": "https://dc.lft.to/lastmile_qr_scan"}, "is_disabled": 0, "bike_id": "9bc7e5be280ae55ad1d4fb622c50ee5c", "fusion_lon": 0.0, "fusion_lat": 0.0, "is_reserved": 0, "type": "electric_scooter", "lon": -77.03228366666667, "name": "9bc7e5be280ae55ad1d4fb622c50ee5c", "lat": 38.914799333333335}, {"rental_uris": {"ios": "https://dc.lft.to/lastmile_qr_scan", "android": "https://dc.lft.to/lastmile_qr_scan"}, "is_disabled": 0, "bike_id": "a61777e350c70b3bf6e96c1dc305dfe8", "fusion_lon": 0.0, "fusion_lat": 0.0, "is_reserved": 0, "type": "electric_scooter", "lon": -77.03148066666667, "name": "a61777e350c70b3bf6e96c1dc305dfe8", "lat": 38.91568216666667}, {"rental_uris": {"ios": "https://dc.lft.to/lastmile_qr_scan", "android": "https://dc.lft.to/lastmile_qr_scan"}, "is_disabled": 0, "bike_id": "d979b57621c1b69ee35e9c075598e48b", "fusion_lon": 0.0, "fusion_lat": 0.0, "is_reserved": 0, "type": "electric_scooter", "lon": -77.0245885, "name": "d979b57621c1b69ee35e9c075598e48b", "lat": 38.9056445}, {"rental_uris": {"ios": "https://dc.lft.to/lastmile_qr_scan", "android": "https://dc.lft.to/lastmile_qr_scan"}, "is_disabled": 0, "bike_id": "c2a68a8c0fdee16165b07ae27577e35c", "fusion_lon": 0.0, "fusion_lat": 0.0, "is_reserved": 0, "type": "electric_scooter", "lon": -77.02403266666667, "name": "c2a68a8c0fdee16165b07ae27577e35c", "lat": 38.928988833333335}, {"rental_uris": {"ios": "https://dc.lft.to/lastmile_qr_scan", "android": "https://dc.lft.to/lastmile_qr_scan"}, "is_disabled": 0, "bike_id": "01c940b6a88283230131b5c2f2883c07", "fusion_lon": 0.0, "fusion_lat": 0.0, "is_reserved": 0, "type": "electric_scooter", "lon": -77.0364815, "name": "01c940b6a88283230131b5c2f2883c07", "lat": 38.9028915}, {"rental_uris": {"ios": "https://dc.lft.to/lastmile_qr_scan", "android": "https://dc.lft.to/lastmile_qr_scan"}, "is_disabled": 0, "bike_id": "70b2af83043d224aefffb63fc1a3bb21", "fusion_lon": 0.0, "fusion_lat": 0.0, "is_reserved": 0, "type": "electric_scooter", "lon": -77.03183516666667, "name": "70b2af83043d224aefffb63fc1a3bb21", "lat": 38.91424216666667}, {"rental_uris": {"ios": "https://dc.lft.to/lastmile_qr_scan", "android": "https://dc.lft.to/lastmile_qr_scan"}, "is_disabled": 0, "bike_id": "7fd39116c4e3c28b1f94ac9a25ddb237", "fusion_lon": 0.0, "fusion_lat": 0.0, "is_reserved": 0, "type": "electric_scooter", "lon": -77.04196516666667, "name": "7fd39116c4e3c28b1f94ac9a25ddb237", "lat": 38.90573033333333}, {"rental_uris": {"ios": "https://dc.lft.to/lastmile_qr_scan", "android": "https://dc.lft.to/lastmile_qr_scan"}, "is_disabled": 0, "bike_id": "b944b50fb76f9e85ef6a8ae201b1a1d9", "fusion_lon": 0.0, "fusion_lat": 0.0, "is_reserved": 0, "type": "electric_bike", "lon": -77.03808833333333, "name": "b944b50fb76f9e85ef6a8ae201b1a1d9", "lat": 38.9141935}, {"rental_uris": {"ios": "https://dc.lft.to/lastmile_qr_scan", "android": "https://dc.lft.to/lastmile_qr_scan"}, "is_disabled": 0, "bike_id": "417567d7032ca4462bce6f4610736233", "fusion_lon": 0.0, "fusion_lat": 0.0, "is_reserved": 0, "type": "electric_scooter", "lon": -76.931805, "name": "417567d7032ca4462bce6f4610736233", "lat": 38.89876833333334}, {"rental_uris": {"ios": "https://dc.lft.to/lastmile_qr_scan", "android": "https://dc.lft.to/lastmile_qr_scan"}, "is_disabled": 0, "bike_id": "7b2bb1bfdb1b732d92e323d0f14e5b58", "fusion_lon": 0.0, "fusion_lat": 0.0, "is_reserved": 0, "type": "electric_scooter", "lon": -77.0333635, "name": "7b2bb1bfdb1b732d92e323d0f14e5b58", "lat": 38.91707266666667}, {"rental_uris": {"ios": "https://dc.lft.to/lastmile_qr_scan", "android": "https://dc.lft.to/lastmile_qr_scan"}, "is_disabled": 0, "bike_id": "f1a4b593655a3f4ad140a0ed897629b5", "fusion_lon": 0.0, "fusion_lat": 0.0, "is_reserved": 0, "type": "electric_scooter", "lon": -77.00563883333334, "name": "f1a4b593655a3f4ad140a0ed897629b5", "lat": 38.90577783333333}, {"rental_uris": {"ios": "https://dc.lft.to/lastmile_qr_scan", "android": "https://dc.lft.to/lastmile_qr_scan"}, "is_disabled": 0, "bike_id": "644783ecbfa3089376f303b8b868f6e4", "fusion_lon": 0.0, "fusion_lat": 0.0, "is_reserved": 0, "type": "electric_bike", "lon": -77.08936866666667, "name": "644783ecbfa3089376f303b8b868f6e4", "lat": 38.84105516666666}, {"rental_uris": {"ios": "https://dc.lft.to/lastmile_qr_scan", "android": "https://dc.lft.to/lastmile_qr_scan"}, "is_disabled": 0, "bike_id": "be1d02f45bc338fe4bcb356e9c4a020b", "fusion_lon": 0.0, "fusion_lat": 0.0, "is_reserved": 0, "type": "electric_scooter", "lon": -77.0266445, "name": "be1d02f45bc338fe4bcb356e9c4a020b", "lat": 38.91709683333333}, {"rental_uris": {"ios": "https://dc.lft.to/lastmile_qr_scan", "android": "https://dc.lft.to/lastmile_qr_scan"}, "is_disabled": 0, "bike_id": "772f69ff2c98d316619afdc0648e1fbd", "fusion_lon": 0.0, "fusion_lat": 0.0, "is_reserved": 0, "type": "electric_scooter", "lon": -77.03095866666666, "name": "772f69ff2c98d316619afdc0648e1fbd", "lat": 38.87923766666667}, {"rental_uris": {"ios": "https://dc.lft.to/lastmile_qr_scan", "android": "https://dc.lft.to/lastmile_qr_scan"}, "is_disabled": 0, "bike_id": "ffbd8262a8f0e1d0ba9fc43427132124", "fusion_lon": 0.0, "fusion_lat": 0.0, "is_reserved": 0, "type": "electric_scooter", "lon": -77.02568383333333, "name": "ffbd8262a8f0e1d0ba9fc43427132124", "lat": 38.899577666666666}, {"rental_uris": {"ios": "https://dc.lft.to/lastmile_qr_scan", "android": "https://dc.lft.to/lastmile_qr_scan"}, "is_disabled": 0, "bike_id": "aac87ba9333714987d6705d4b4d2a449", "fusion_lon": 0.0, "fusion_lat": 0.0, "is_reserved": 0, "type": "electric_bike", "lon": -77.06964983333333, "name": "aac87ba9333714987d6705d4b4d2a449", "lat": 38.970960166666664}, {"rental_uris": {"ios": "https://dc.lft.to/lastmile_qr_scan", "android": "https://dc.lft.to/lastmile_qr_scan"}, "is_disabled": 0, "bike_id": "7896d4abb31f842543c1c139f7ee1546", "fusion_lon": 0.0, "fusion_lat": 0.0, "is_reserved": 0, "type": "electric_scooter", "lon": -77.02691333333334, "name": "7896d4abb31f842543c1c139f7ee1546", "lat": 38.9068475}, {"rental_uris": {"ios": "https://dc.lft.to/lastmile_qr_scan", "android": "https://dc.lft.to/lastmile_qr_scan"}, "is_disabled": 0, "bike_id": "6cee429f7ab4186fc7a7933784023e82", "fusion_lon": 0.0, "fusion_lat": 0.0, "is_reserved": 0, "type": "electric_scooter", "lon": -77.02690816666667, "name": "6cee429f7ab4186fc7a7933784023e82", "lat": 38.918298166666666}, {"rental_uris": {"ios": "https://dc.lft.to/lastmile_qr_scan", "android": "https://dc.lft.to/lastmile_qr_scan"}, "is_disabled": 0, "bike_id": "09290bc49a998d6074518b738c6709af", "fusion_lon": 0.0, "fusion_lat": 0.0, "is_reserved": 0, "type": "electric_scooter", "lon": -77.02718166666666, "name": "09290bc49a998d6074518b738c6709af", "lat": 38.92482416666667}, {"rental_uris": {"ios": "https://dc.lft.to/lastmile_qr_scan", "android": "https://dc.lft.to/lastmile_qr_scan"}, "is_disabled": 0, "bike_id": "38ceb39c5841af290917f2df7c7fcabc", "fusion_lon": 0.0, "fusion_lat": 0.0, "is_reserved": 0, "type": "electric_scooter", "lon": -77.01682566666666, "name": "38ceb39c5841af290917f2df7c7fcabc", "lat": 38.907213666666664}, {"rental_uris": {"ios": "https://dc.lft.to/lastmile_qr_scan", "android": "https://dc.lft.to/lastmile_qr_scan"}, "is_disabled": 0, "bike_id": "0ae281e3e200029337cf1ae564797e1d", "fusion_lon": 0.0, "fusion_lat": 0.0, "is_reserved": 0, "type": "electric_scooter", "lon": -76.99507983333334, "name": "0ae281e3e200029337cf1ae564797e1d", "lat": 38.883706833333335}, {"rental_uris": {"ios": "https://dc.lft.to/lastmile_qr_scan", "android": "https://dc.lft.to/lastmile_qr_scan"}, "is_disabled": 0, "bike_id": "33ed8fa4e96745b3c5ebab101aa2732c", "fusion_lon": 0.0, "fusion_lat": 0.0, "is_reserved": 0, "type": "electric_scooter", "lon": -77.02778383333333, "name": "33ed8fa4e96745b3c5ebab101aa2732c", "lat": 38.892212}, {"rental_uris": {"ios": "https://dc.lft.to/lastmile_qr_scan", "android": "https://dc.lft.to/lastmile_qr_scan"}, "is_disabled": 0, "bike_id": "0fdad0377e68652fb46d170f6b64948a", "fusion_lon": 0.0, "fusion_lat": 0.0, "is_reserved": 0, "type": "electric_scooter", "lon": -77.0285, "name": "0fdad0377e68652fb46d170f6b64948a", "lat": 38.89630616666667}, {"rental_uris": {"ios": "https://dc.lft.to/lastmile_qr_scan", "android": "https://dc.lft.to/lastmile_qr_scan"}, "is_disabled": 0, "bike_id": "645f5e488405be3e08c7fb8bd31a4d0e", "fusion_lon": 0.0, "fusion_lat": 0.0, "is_reserved": 0, "type": "electric_scooter", "lon": -76.99498566666666, "name": "645f5e488405be3e08c7fb8bd31a4d0e", "lat": 38.89488333333333}, {"rental_uris": {"ios": "https://dc.lft.to/lastmile_qr_scan", "android": "https://dc.lft.to/lastmile_qr_scan"}, "is_disabled": 0, "bike_id": "7c60fc98642941c53c2ee394eb9165e5", "fusion_lon": 0.0, "fusion_lat": 0.0, "is_reserved": 0, "type": "electric_scooter", "lon": -77.00066833333334, "name": "7c60fc98642941c53c2ee394eb9165e5", "lat": 38.901381}, {"rental_uris": {"ios": "https://dc.lft.to/lastmile_qr_scan", "android": "https://dc.lft.to/lastmile_qr_scan"}, "is_disabled": 0, "bike_id": "75791fc456cba58cf90d5a9b9426be29", "fusion_lon": 0.0, "fusion_lat": 0.0, "is_reserved": 0, "type": "electric_scooter", "lon": -77.02533233333334, "name": "75791fc456cba58cf90d5a9b9426be29", "lat": 38.92073716666667}, {"rental_uris": {"ios": "https://dc.lft.to/lastmile_qr_scan", "android": "https://dc.lft.to/lastmile_qr_scan"}, "is_disabled": 0, "bike_id": "a6732b03838b65debd71f401a83b8352", "fusion_lon": 0.0, "fusion_lat": 0.0, "is_reserved": 0, "type": "electric_scooter", "lon": -77.02567483333333, "name": "a6732b03838b65debd71f401a83b8352", "lat": 38.88082416666666}, {"rental_uris": {"ios": "https://dc.lft.to/lastmile_qr_scan", "android": "https://dc.lft.to/lastmile_qr_scan"}, "is_disabled": 0, "bike_id": "671f9e39b5bf4685d601b91c234cf0c8", "fusion_lon": 0.0, "fusion_lat": 0.0, "is_reserved": 0, "type": "electric_scooter", "lon": -76.990282, "name": "671f9e39b5bf4685d601b91c234cf0c8", "lat": 38.863676833333336}, {"rental_uris": {"ios": "https://dc.lft.to/lastmile_qr_scan", "android": "https://dc.lft.to/lastmile_qr_scan"}, "is_disabled": 0, "bike_id": "4fa25f02257feaf783a0479bf2b079ef", "fusion_lon": 0.0, "fusion_lat": 0.0, "is_reserved": 0, "type": "electric_scooter", "lon": -77.04214866666666, "name": "4fa25f02257feaf783a0479bf2b079ef", "lat": 38.923105666666665}, {"rental_uris": {"ios": "https://dc.lft.to/lastmile_qr_scan", "android": "https://dc.lft.to/lastmile_qr_scan"}, "is_disabled": 0, "bike_id": "06ce0c7334ae03959dc1227a7cfe9773", "fusion_lon": 0.0, "fusion_lat": 0.0, "is_reserved": 0, "type": "electric_scooter", "lon": -77.0383875, "name": "06ce0c7334ae03959dc1227a7cfe9773", "lat": 38.91121733333333}, {"rental_uris": {"ios": "https://dc.lft.to/lastmile_qr_scan", "android": "https://dc.lft.to/lastmile_qr_scan"}, "is_disabled": 0, "bike_id": "7d1e54e967412e420b1e87bd01ec11e1", "fusion_lon": 0.0, "fusion_lat": 0.0, "is_reserved": 0, "type": "electric_scooter", "lon": -76.9374615, "name": "7d1e54e967412e420b1e87bd01ec11e1", "lat": 38.890132}, {"rental_uris": {"ios": "https://dc.lft.to/lastmile_qr_scan", "android": "https://dc.lft.to/lastmile_qr_scan"}, "is_disabled": 0, "bike_id": "9ed78261230b6c9cc9af3f54d6280ebe", "fusion_lon": 0.0, "fusion_lat": 0.0, "is_reserved": 0, "type": "electric_scooter", "lon": -77.03181933333333, "name": "9ed78261230b6c9cc9af3f54d6280ebe", "lat": 38.914285666666665}, {"rental_uris": {"ios": "https://dc.lft.to/lastmile_qr_scan", "android": "https://dc.lft.to/lastmile_qr_scan"}, "is_disabled": 0, "bike_id": "718cec894acdcc096d025737a3850585", "fusion_lon": 0.0, "fusion_lat": 0.0, "is_reserved": 0, "type": "electric_scooter", "lon": -77.009871, "name": "718cec894acdcc096d025737a3850585", "lat": 38.89476}, {"rental_uris": {"ios": "https://dc.lft.to/lastmile_qr_scan", "android": "https://dc.lft.to/lastmile_qr_scan"}, "is_disabled": 0, "bike_id": "e5df0b03a60779e3b36259500ac28b4e", "fusion_lon": 0.0, "fusion_lat": 0.0, "is_reserved": 0, "type": "electric_scooter", "lon": -77.0402135, "name": "e5df0b03a60779e3b36259500ac28b4e", "lat": 38.92449583333333}, {"rental_uris": {"ios": "https://dc.lft.to/lastmile_qr_scan", "android": "https://dc.lft.to/lastmile_qr_scan"}, "is_disabled": 0, "bike_id": "6c65728b68380bde4c22bbe8334aef14", "fusion_lon": 0.0, "fusion_lat": 0.0, "is_reserved": 0, "type": "electric_bike", "lon": -76.93649116666667, "name": "6c65728b68380bde4c22bbe8334aef14", "lat": 38.87155633333333}, {"rental_uris": {"ios": "https://dc.lft.to/lastmile_qr_scan", "android": "https://dc.lft.to/lastmile_qr_scan"}, "is_disabled": 0, "bike_id": "2661458863005aca45211a73e2ee5749", "fusion_lon": 0.0, "fusion_lat": 0.0, "is_reserved": 0, "type": "electric_scooter", "lon": -77.022144, "name": "2661458863005aca45211a73e2ee5749", "lat": 38.905420166666666}, {"rental_uris": {"ios": "https://dc.lft.to/lastmile_qr_scan", "android": "https://dc.lft.to/lastmile_qr_scan"}, "is_disabled": 0, "bike_id": "13836d5b4ed59d736dbfb90b4334ba96", "fusion_lon": 0.0, "fusion_lat": 0.0, "is_reserved": 0, "type": "electric_scooter", "lon": -77.02178983333333, "name": "13836d5b4ed59d736dbfb90b4334ba96", "lat": 38.90986683333333}, {"rental_uris": {"ios": "https://dc.lft.to/lastmile_qr_scan", "android": "https://dc.lft.to/lastmile_qr_scan"}, "is_disabled": 0, "bike_id": "9ec799d86592018c9ba1a6fef8181c85", "fusion_lon": 0.0, "fusion_lat": 0.0, "is_reserved": 0, "type": "electric_scooter", "lon": -77.026782, "name": "9ec799d86592018c9ba1a6fef8181c85", "lat": 38.8963015}, {"rental_uris": {"ios": "https://dc.lft.to/lastmile_qr_scan", "android": "https://dc.lft.to/lastmile_qr_scan"}, "is_disabled": 0, "bike_id": "233af405c5a252a7dca8efe71891f336", "fusion_lon": 0.0, "fusion_lat": 0.0, "is_reserved": 0, "type": "electric_scooter", "lon": -77.03228116666666, "name": "233af405c5a252a7dca8efe71891f336", "lat": 38.9200385}, {"rental_uris": {"ios": "https://dc.lft.to/lastmile_qr_scan", "android": "https://dc.lft.to/lastmile_qr_scan"}, "is_disabled": 0, "bike_id": "7cf29a69778d5bdcdfdc0672c7f8c145", "fusion_lon": 0.0, "fusion_lat": 0.0, "is_reserved": 0, "type": "electric_scooter", "lon": -77.04176116666666, "name": "7cf29a69778d5bdcdfdc0672c7f8c145", "lat": 38.905280166666664}, {"rental_uris": {"ios": "https://dc.lft.to/lastmile_qr_scan", "android": "https://dc.lft.to/lastmile_qr_scan"}, "is_disabled": 0, "bike_id": "05ff1f216fe2244d964a5183c8cd203e", "fusion_lon": 0.0, "fusion_lat": 0.0, "is_reserved": 0, "type": "electric_scooter", "lon": -77.02298533333334, "name": "05ff1f216fe2244d964a5183c8cd203e", "lat": 38.917117166666664}, {"rental_uris": {"ios": "https://dc.lft.to/lastmile_qr_scan", "android": "https://dc.lft.to/lastmile_qr_scan"}, "is_disabled": 0, "bike_id": "53ad9ab18db2e29b323d9cb2c972f1e4", "fusion_lon": 0.0, "fusion_lat": 0.0, "is_reserved": 0, "type": "electric_scooter", "lon": -76.9951555, "name": "53ad9ab18db2e29b323d9cb2c972f1e4", "lat": 38.862567}, {"rental_uris": {"ios": "https://dc.lft.to/lastmile_qr_scan", "android": "https://dc.lft.to/lastmile_qr_scan"}, "is_disabled": 0, "bike_id": "1b7f707e4402109378d120f9f1ec7abb", "fusion_lon": 0.0, "fusion_lat": 0.0, "is_reserved": 0, "type": "electric_scooter", "lon": -77.0512805, "name": "1b7f707e4402109378d120f9f1ec7abb", "lat": 38.923665}, {"rental_uris": {"ios": "https://dc.lft.to/lastmile_qr_scan", "android": "https://dc.lft.to/lastmile_qr_scan"}, "is_disabled": 0, "bike_id": "59efde1f610a65042fccd83d24ae7263", "fusion_lon": 0.0, "fusion_lat": 0.0, "is_reserved": 0, "type": "electric_bike", "lon": -77.18738633333334, "name": "59efde1f610a65042fccd83d24ae7263", "lat": 38.8935225}, {"rental_uris": {"ios": "https://dc.lft.to/lastmile_qr_scan", "android": "https://dc.lft.to/lastmile_qr_scan"}, "is_disabled": 0, "bike_id": "1a21f0947d05fc3e325c806afb8e7037", "fusion_lon": 0.0, "fusion_lat": 0.0, "is_reserved": 0, "type": "electric_scooter", "lon": -77.0334315, "name": "1a21f0947d05fc3e325c806afb8e7037", "lat": 38.917072833333336}, {"rental_uris": {"ios": "https://dc.lft.to/lastmile_qr_scan", "android": "https://dc.lft.to/lastmile_qr_scan"}, "is_disabled": 0, "bike_id": "8140c4ac4a2864fc6e12cc51c2b555cd", "fusion_lon": 0.0, "fusion_lat": 0.0, "is_reserved": 0, "type": "electric_scooter", "lon": -76.92226983333333, "name": "8140c4ac4a2864fc6e12cc51c2b555cd", "lat": 38.900089666666666}, {"rental_uris": {"ios": "https://dc.lft.to/lastmile_qr_scan", "android": "https://dc.lft.to/lastmile_qr_scan"}, "is_disabled": 0, "bike_id": "0a3e207caa07e38664bde4977764ea34", "fusion_lon": 0.0, "fusion_lat": 0.0, "is_reserved": 0, "type": "electric_scooter", "lon": -77.03770716666666, "name": "0a3e207caa07e38664bde4977764ea34", "lat": 38.91693316666667}, {"rental_uris": {"ios": "https://dc.lft.to/lastmile_qr_scan", "android": "https://dc.lft.to/lastmile_qr_scan"}, "is_disabled": 0, "bike_id": "4cfd1277c1e5f4bbf811084d2051fa39", "fusion_lon": 0.0, "fusion_lat": 0.0, "is_reserved": 0, "type": "electric_bike", "lon": -76.94225766666666, "name": "4cfd1277c1e5f4bbf811084d2051fa39", "lat": 38.892748833333336}, {"rental_uris": {"ios": "https://dc.lft.to/lastmile_qr_scan", "android": "https://dc.lft.to/lastmile_qr_scan"}, "is_disabled": 0, "bike_id": "82698cc3efe685f0c5fbe3964dd94d72", "fusion_lon": 0.0, "fusion_lat": 0.0, "is_reserved": 0, "type": "electric_scooter", "lon": -77.04388916666667, "name": "82698cc3efe685f0c5fbe3964dd94d72", "lat": 38.90285683333333}, {"rental_uris": {"ios": "https://dc.lft.to/lastmile_qr_scan", "android": "https://dc.lft.to/lastmile_qr_scan"}, "is_disabled": 0, "bike_id": "74319ed5ac1a5b17c8508bd908d04d07", "fusion_lon": 0.0, "fusion_lat": 0.0, "is_reserved": 0, "type": "electric_bike", "lon": -77.12530533333333, "name": "74319ed5ac1a5b17c8508bd908d04d07", "lat": 39.05636466666667}, {"rental_uris": {"ios": "https://dc.lft.to/lastmile_qr_scan", "android": "https://dc.lft.to/lastmile_qr_scan"}, "is_disabled": 0, "bike_id": "7ea1b006a28aa7b4f8d0bea34d11ca8b", "fusion_lon": 0.0, "fusion_lat": 0.0, "is_reserved": 0, "type": "electric_scooter", "lon": -77.0153215, "name": "7ea1b006a28aa7b4f8d0bea34d11ca8b", "lat": 38.88740266666667}, {"rental_uris": {"ios": "https://dc.lft.to/lastmile_qr_scan", "android": "https://dc.lft.to/lastmile_qr_scan"}, "is_disabled": 0, "bike_id": "e465b87d01ffd7c801063f8d2ea7fbcf", "fusion_lon": 0.0, "fusion_lat": 0.0, "is_reserved": 0, "type": "electric_scooter", "lon": -77.036343, "name": "e465b87d01ffd7c801063f8d2ea7fbcf", "lat": 38.917668}, {"rental_uris": {"ios": "https://dc.lft.to/lastmile_qr_scan", "android": "https://dc.lft.to/lastmile_qr_scan"}, "is_disabled": 0, "bike_id": "6029e947ca45dd151a3bf23bbd0104fd", "fusion_lon": 0.0, "fusion_lat": 0.0, "is_reserved": 0, "type": "electric_scooter", "lon": -77.03172433333333, "name": "6029e947ca45dd151a3bf23bbd0104fd", "lat": 38.91873566666666}, {"rental_uris": {"ios": "https://dc.lft.to/lastmile_qr_scan", "android": "https://dc.lft.to/lastmile_qr_scan"}, "is_disabled": 0, "bike_id": "ffe46933bf4ad03a1a486aeeaf1ef3c3", "fusion_lon": 0.0, "fusion_lat": 0.0, "is_reserved": 0, "type": "electric_scooter", "lon": -76.94650483333334, "name": "ffe46933bf4ad03a1a486aeeaf1ef3c3", "lat": 38.898234333333335}, {"rental_uris": {"ios": "https://dc.lft.to/lastmile_qr_scan", "android": "https://dc.lft.to/lastmile_qr_scan"}, "is_disabled": 0, "bike_id": "76c938a0b320754b8ef32bf32bb437e9", "fusion_lon": 0.0, "fusion_lat": 0.0, "is_reserved": 0, "type": "electric_scooter", "lon": -77.03095166666667, "name": "76c938a0b320754b8ef32bf32bb437e9", "lat": 38.89812366666666}, {"rental_uris": {"ios": "https://dc.lft.to/lastmile_qr_scan", "android": "https://dc.lft.to/lastmile_qr_scan"}, "is_disabled": 0, "bike_id": "02d581f2fc503f1dc683941719bcaf01", "fusion_lon": 0.0, "fusion_lat": 0.0, "is_reserved": 0, "type": "electric_scooter", "lon": -77.02411183333334, "name": "02d581f2fc503f1dc683941719bcaf01", "lat": 38.907340833333336}, {"rental_uris": {"ios": "https://dc.lft.to/lastmile_qr_scan", "android": "https://dc.lft.to/lastmile_qr_scan"}, "is_disabled": 0, "bike_id": "e43e4d08a0ab801c7ee9621804db7d22", "fusion_lon": 0.0, "fusion_lat": 0.0, "is_reserved": 0, "type": "electric_scooter", "lon": -77.04240383333334, "name": "e43e4d08a0ab801c7ee9621804db7d22", "lat": 38.9226775}, {"rental_uris": {"ios": "https://dc.lft.to/lastmile_qr_scan", "android": "https://dc.lft.to/lastmile_qr_scan"}, "is_disabled": 0, "bike_id": "6ea4802c48b266170bd870c84da82429", "fusion_lon": 0.0, "fusion_lat": 0.0, "is_reserved": 0, "type": "electric_scooter", "lon": -77.00407766666666, "name": "6ea4802c48b266170bd870c84da82429", "lat": 38.876682}, {"rental_uris": {"ios": "https://dc.lft.to/lastmile_qr_scan", "android": "https://dc.lft.to/lastmile_qr_scan"}, "is_disabled": 0, "bike_id": "04b83bbfcf7651c89b9776f90048726e", "fusion_lon": 0.0, "fusion_lat": 0.0, "is_reserved": 0, "type": "electric_scooter", "lon": -77.0344185, "name": "04b83bbfcf7651c89b9776f90048726e", "lat": 38.918001333333336}, {"rental_uris": {"ios": "https://dc.lft.to/lastmile_qr_scan", "android": "https://dc.lft.to/lastmile_qr_scan"}, "is_disabled": 0, "bike_id": "2e59b7c5d92121e6e6f9481b0bce438a", "fusion_lon": 0.0, "fusion_lat": 0.0, "is_reserved": 0, "type": "electric_scooter", "lon": -76.95246083333333, "name": "2e59b7c5d92121e6e6f9481b0bce438a", "lat": 38.89040766666667}, {"rental_uris": {"ios": "https://dc.lft.to/lastmile_qr_scan", "android": "https://dc.lft.to/lastmile_qr_scan"}, "is_disabled": 0, "bike_id": "6873fcb4053057d09db853de45b5a751", "fusion_lon": 0.0, "fusion_lat": 0.0, "is_reserved": 0, "type": "electric_scooter", "lon": -77.037869, "name": "6873fcb4053057d09db853de45b5a751", "lat": 38.91123866666667}, {"rental_uris": {"ios": "https://dc.lft.to/lastmile_qr_scan", "android": "https://dc.lft.to/lastmile_qr_scan"}, "is_disabled": 0, "bike_id": "4acacc4a4a57e85fb7344ac26495b521", "fusion_lon": 0.0, "fusion_lat": 0.0, "is_reserved": 0, "type": "electric_scooter", "lon": -77.00840583333333, "name": "4acacc4a4a57e85fb7344ac26495b521", "lat": 38.87070383333333}, {"rental_uris": {"ios": "https://dc.lft.to/lastmile_qr_scan", "android": "https://dc.lft.to/lastmile_qr_scan"}, "is_disabled": 0, "bike_id": "7da5382fcb2f61397f2487f1c607cb5a", "fusion_lon": 0.0, "fusion_lat": 0.0, "is_reserved": 0, "type": "electric_scooter", "lon": -77.04062916666666, "name": "7da5382fcb2f61397f2487f1c607cb5a", "lat": 38.898997}, {"rental_uris": {"ios": "https://dc.lft.to/lastmile_qr_scan", "android": "https://dc.lft.to/lastmile_qr_scan"}, "is_disabled": 0, "bike_id": "ed3c5c715a33a517bdd42a86e11855e3", "fusion_lon": 0.0, "fusion_lat": 0.0, "is_reserved": 0, "type": "electric_scooter", "lon": -77.04319116666667, "name": "ed3c5c715a33a517bdd42a86e11855e3", "lat": 38.908019833333334}, {"rental_uris": {"ios": "https://dc.lft.to/lastmile_qr_scan", "android": "https://dc.lft.to/lastmile_qr_scan"}, "is_disabled": 0, "bike_id": "84480e20925481615128f9050a4ef45d", "fusion_lon": 0.0, "fusion_lat": 0.0, "is_reserved": 0, "type": "electric_scooter", "lon": -77.017504, "name": "84480e20925481615128f9050a4ef45d", "lat": 38.9026545}, {"rental_uris": {"ios": "https://dc.lft.to/lastmile_qr_scan", "android": "https://dc.lft.to/lastmile_qr_scan"}, "is_disabled": 0, "bike_id": "349fc1e086d0b0d2d286ccce228ac9a2", "fusion_lon": 0.0, "fusion_lat": 0.0, "is_reserved": 0, "type": "electric_scooter", "lon": -77.021571, "name": "349fc1e086d0b0d2d286ccce228ac9a2", "lat": 38.92614916666667}, {"rental_uris": {"ios": "https://dc.lft.to/lastmile_qr_scan", "android": "https://dc.lft.to/lastmile_qr_scan"}, "is_disabled": 0, "bike_id": "ba4a1aa4a048175c4999b323a866e4a0", "fusion_lon": 0.0, "fusion_lat": 0.0, "is_reserved": 0, "type": "electric_scooter", "lon": -77.0366, "name": "ba4a1aa4a048175c4999b323a866e4a0", "lat": 38.91724516666667}, {"rental_uris": {"ios": "https://dc.lft.to/lastmile_qr_scan", "android": "https://dc.lft.to/lastmile_qr_scan"}, "is_disabled": 0, "bike_id": "59221840e287b937293293cba483b8ca", "fusion_lon": 0.0, "fusion_lat": 0.0, "is_reserved": 0, "type": "electric_scooter", "lon": -77.00336116666666, "name": "59221840e287b937293293cba483b8ca", "lat": 38.88742166666667}, {"rental_uris": {"ios": "https://dc.lft.to/lastmile_qr_scan", "android": "https://dc.lft.to/lastmile_qr_scan"}, "is_disabled": 0, "bike_id": "718edfd8284438740ee61174e52ad920", "fusion_lon": 0.0, "fusion_lat": 0.0, "is_reserved": 0, "type": "electric_scooter", "lon": -77.03637766666667, "name": "718edfd8284438740ee61174e52ad920", "lat": 38.92995766666667}, {"rental_uris": {"ios": "https://dc.lft.to/lastmile_qr_scan", "android": "https://dc.lft.to/lastmile_qr_scan"}, "is_disabled": 0, "bike_id": "29d0fd22875522b3fcb09045485050e8", "fusion_lon": 0.0, "fusion_lat": 0.0, "is_reserved": 0, "type": "electric_scooter", "lon": -77.04198283333334, "name": "29d0fd22875522b3fcb09045485050e8", "lat": 38.892267333333336}, {"rental_uris": {"ios": "https://dc.lft.to/lastmile_qr_scan", "android": "https://dc.lft.to/lastmile_qr_scan"}, "is_disabled": 0, "bike_id": "89b5a7056519b39e1fe74e8652fcdcb5", "fusion_lon": 0.0, "fusion_lat": 0.0, "is_reserved": 0, "type": "electric_scooter", "lon": -77.01744233333334, "name": "89b5a7056519b39e1fe74e8652fcdcb5", "lat": 38.920817666666665}, {"rental_uris": {"ios": "https://dc.lft.to/lastmile_qr_scan", "android": "https://dc.lft.to/lastmile_qr_scan"}, "is_disabled": 0, "bike_id": "7d37b22a33cdd8a87697d642863e83ae", "fusion_lon": 0.0, "fusion_lat": 0.0, "is_reserved": 0, "type": "electric_scooter", "lon": -77.0106815, "name": "7d37b22a33cdd8a87697d642863e83ae", "lat": 38.89611933333333}, {"rental_uris": {"ios": "https://dc.lft.to/lastmile_qr_scan", "android": "https://dc.lft.to/lastmile_qr_scan"}, "is_disabled": 0, "bike_id": "11160b72e2ae5ad970890547cc49dcc2", "fusion_lon": 0.0, "fusion_lat": 0.0, "is_reserved": 0, "type": "electric_scooter", "lon": -77.0383725, "name": "11160b72e2ae5ad970890547cc49dcc2", "lat": 38.914745}, {"rental_uris": {"ios": "https://dc.lft.to/lastmile_qr_scan", "android": "https://dc.lft.to/lastmile_qr_scan"}, "is_disabled": 0, "bike_id": "93d6db57be528a3cac70a36b98e3fd86", "fusion_lon": 0.0, "fusion_lat": 0.0, "is_reserved": 0, "type": "electric_scooter", "lon": -77.03639366666667, "name": "93d6db57be528a3cac70a36b98e3fd86", "lat": 38.920863833333335}, {"rental_uris": {"ios": "https://dc.lft.to/lastmile_qr_scan", "android": "https://dc.lft.to/lastmile_qr_scan"}, "is_disabled": 0, "bike_id": "91b21b028e9e433aec5c2036c1f9a7b4", "fusion_lon": 0.0, "fusion_lat": 0.0, "is_reserved": 0, "type": "electric_scooter", "lon": -76.93739516666666, "name": "91b21b028e9e433aec5c2036c1f9a7b4", "lat": 38.89010733333333}, {"rental_uris": {"ios": "https://dc.lft.to/lastmile_qr_scan", "android": "https://dc.lft.to/lastmile_qr_scan"}, "is_disabled": 0, "bike_id": "2851bc2dbf3f5eb885252356977a7a52", "fusion_lon": 0.0, "fusion_lat": 0.0, "is_reserved": 0, "type": "electric_scooter", "lon": -77.03848633333334, "name": "2851bc2dbf3f5eb885252356977a7a52", "lat": 38.91684}, {"rental_uris": {"ios": "https://dc.lft.to/lastmile_qr_scan", "android": "https://dc.lft.to/lastmile_qr_scan"}, "is_disabled": 0, "bike_id": "c7a97b82f4aea6c4b57b6546becc30bd", "fusion_lon": 0.0, "fusion_lat": 0.0, "is_reserved": 0, "type": "electric_scooter", "lon": -76.995499, "name": "c7a97b82f4aea6c4b57b6546becc30bd", "lat": 38.90108}, {"rental_uris": {"ios": "https://dc.lft.to/lastmile_qr_scan", "android": "https://dc.lft.to/lastmile_qr_scan"}, "is_disabled": 0, "bike_id": "d36fa636e895ecdebd848579178ee0e5", "fusion_lon": 0.0, "fusion_lat": 0.0, "is_reserved": 0, "type": "electric_scooter", "lon": -77.03237566666667, "name": "d36fa636e895ecdebd848579178ee0e5", "lat": 38.8991885}, {"rental_uris": {"ios": "https://dc.lft.to/lastmile_qr_scan", "android": "https://dc.lft.to/lastmile_qr_scan"}, "is_disabled": 0, "bike_id": "d580e4a721a4fc314934e3c0c0017388", "fusion_lon": 0.0, "fusion_lat": 0.0, "is_reserved": 0, "type": "electric_scooter", "lon": -77.0688925, "name": "d580e4a721a4fc314934e3c0c0017388", "lat": 38.90419033333333}, {"rental_uris": {"ios": "https://dc.lft.to/lastmile_qr_scan", "android": "https://dc.lft.to/lastmile_qr_scan"}, "is_disabled": 0, "bike_id": "89b8d64b222e520646b957e210904b1d", "fusion_lon": 0.0, "fusion_lat": 0.0, "is_reserved": 0, "type": "electric_scooter", "lon": -76.99384233333333, "name": "89b8d64b222e520646b957e210904b1d", "lat": 38.9101275}, {"rental_uris": {"ios": "https://dc.lft.to/lastmile_qr_scan", "android": "https://dc.lft.to/lastmile_qr_scan"}, "is_disabled": 0, "bike_id": "ddebf802f19768e362e3a8cb8ee03f02", "fusion_lon": 0.0, "fusion_lat": 0.0, "is_reserved": 0, "type": "electric_scooter", "lon": -77.01184116666667, "name": "ddebf802f19768e362e3a8cb8ee03f02", "lat": 38.90323566666667}, {"rental_uris": {"ios": "https://dc.lft.to/lastmile_qr_scan", "android": "https://dc.lft.to/lastmile_qr_scan"}, "is_disabled": 0, "bike_id": "3bc549772ebe03e5417553f98c5429a2", "fusion_lon": 0.0, "fusion_lat": 0.0, "is_reserved": 0, "type": "electric_scooter", "lon": -77.031612, "name": "3bc549772ebe03e5417553f98c5429a2", "lat": 38.899962}, {"rental_uris": {"ios": "https://dc.lft.to/lastmile_qr_scan", "android": "https://dc.lft.to/lastmile_qr_scan"}, "is_disabled": 0, "bike_id": "82cae9abc39ddf3cfd3ef48419fe5489", "fusion_lon": 0.0, "fusion_lat": 0.0, "is_reserved": 0, "type": "electric_scooter", "lon": -77.03219916666667, "name": "82cae9abc39ddf3cfd3ef48419fe5489", "lat": 38.9025425}, {"rental_uris": {"ios": "https://dc.lft.to/lastmile_qr_scan", "android": "https://dc.lft.to/lastmile_qr_scan"}, "is_disabled": 0, "bike_id": "4e7b012886f263131ff6d0678a5507fd", "fusion_lon": 0.0, "fusion_lat": 0.0, "is_reserved": 0, "type": "electric_scooter", "lon": -77.03829733333333, "name": "4e7b012886f263131ff6d0678a5507fd", "lat": 38.902694333333336}, {"rental_uris": {"ios": "https://dc.lft.to/lastmile_qr_scan", "android": "https://dc.lft.to/lastmile_qr_scan"}, "is_disabled": 0, "bike_id": "894de793c04d5f5e21e664e9367ff7f4", "fusion_lon": 0.0, "fusion_lat": 0.0, "is_reserved": 0, "type": "electric_scooter", "lon": -77.0413675, "name": "894de793c04d5f5e21e664e9367ff7f4", "lat": 38.9342}, {"rental_uris": {"ios": "https://dc.lft.to/lastmile_qr_scan", "android": "https://dc.lft.to/lastmile_qr_scan"}, "is_disabled": 0, "bike_id": "05fc6515509edea6ad78439c5c57b7dd", "fusion_lon": 0.0, "fusion_lat": 0.0, "is_reserved": 0, "type": "electric_scooter", "lon": -77.02148633333333, "name": "05fc6515509edea6ad78439c5c57b7dd", "lat": 38.92446966666667}, {"rental_uris": {"ios": "https://dc.lft.to/lastmile_qr_scan", "android": "https://dc.lft.to/lastmile_qr_scan"}, "is_disabled": 0, "bike_id": "700d81a18301e9a352556461895372bf", "fusion_lon": 0.0, "fusion_lat": 0.0, "is_reserved": 0, "type": "electric_scooter", "lon": -76.92722733333333, "name": "700d81a18301e9a352556461895372bf", "lat": 38.89971116666667}, {"rental_uris": {"ios": "https://dc.lft.to/lastmile_qr_scan", "android": "https://dc.lft.to/lastmile_qr_scan"}, "is_disabled": 0, "bike_id": "0c443f69326634a08347c3c9795c33f9", "fusion_lon": 0.0, "fusion_lat": 0.0, "is_reserved": 0, "type": "electric_scooter", "lon": -77.0331265, "name": "0c443f69326634a08347c3c9795c33f9", "lat": 38.912682}, {"rental_uris": {"ios": "https://dc.lft.to/lastmile_qr_scan", "android": "https://dc.lft.to/lastmile_qr_scan"}, "is_disabled": 0, "bike_id": "44e2f65fa2f78a23185893e411d64755", "fusion_lon": 0.0, "fusion_lat": 0.0, "is_reserved": 0, "type": "electric_scooter", "lon": -77.04098916666666, "name": "44e2f65fa2f78a23185893e411d64755", "lat": 38.919893333333334}, {"rental_uris": {"ios": "https://dc.lft.to/lastmile_qr_scan", "android": "https://dc.lft.to/lastmile_qr_scan"}, "is_disabled": 0, "bike_id": "2783be5a234fc99e9f2f955ffa92f4fb", "fusion_lon": 0.0, "fusion_lat": 0.0, "is_reserved": 0, "type": "electric_scooter", "lon": -77.02797166666667, "name": "2783be5a234fc99e9f2f955ffa92f4fb", "lat": 38.896635}, {"rental_uris": {"ios": "https://dc.lft.to/lastmile_qr_scan", "android": "https://dc.lft.to/lastmile_qr_scan"}, "is_disabled": 0, "bike_id": "51ae1538e3f0d7ab2359ac98911e4e1b", "fusion_lon": 0.0, "fusion_lat": 0.0, "is_reserved": 0, "type": "electric_scooter", "lon": -77.04022416666666, "name": "51ae1538e3f0d7ab2359ac98911e4e1b", "lat": 38.9244465}, {"rental_uris": {"ios": "https://dc.lft.to/lastmile_qr_scan", "android": "https://dc.lft.to/lastmile_qr_scan"}, "is_disabled": 0, "bike_id": "40436d54b1bb085baf27ad236f662123", "fusion_lon": 0.0, "fusion_lat": 0.0, "is_reserved": 0, "type": "electric_scooter", "lon": -77.03827683333333, "name": "40436d54b1bb085baf27ad236f662123", "lat": 38.906768666666665}, {"rental_uris": {"ios": "https://dc.lft.to/lastmile_qr_scan", "android": "https://dc.lft.to/lastmile_qr_scan"}, "is_disabled": 0, "bike_id": "4fe6fdc48faf86dc2bae812910184e6d", "fusion_lon": 0.0, "fusion_lat": 0.0, "is_reserved": 0, "type": "electric_scooter", "lon": -76.99773483333334, "name": "4fe6fdc48faf86dc2bae812910184e6d", "lat": 38.8442745}, {"rental_uris": {"ios": "https://dc.lft.to/lastmile_qr_scan", "android": "https://dc.lft.to/lastmile_qr_scan"}, "is_disabled": 0, "bike_id": "ad358d5fa54c17f0027499cac31ec402", "fusion_lon": 0.0, "fusion_lat": 0.0, "is_reserved": 0, "type": "electric_scooter", "lon": -76.95754083333334, "name": "ad358d5fa54c17f0027499cac31ec402", "lat": 38.88431383333333}, {"rental_uris": {"ios": "https://dc.lft.to/lastmile_qr_scan", "android": "https://dc.lft.to/lastmile_qr_scan"}, "is_disabled": 0, "bike_id": "2eff353226f31f4e1aba19190f8cbc81", "fusion_lon": 0.0, "fusion_lat": 0.0, "is_reserved": 0, "type": "electric_scooter", "lon": -77.022896, "name": "2eff353226f31f4e1aba19190f8cbc81", "lat": 38.9167175}, {"rental_uris": {"ios": "https://dc.lft.to/lastmile_qr_scan", "android": "https://dc.lft.to/lastmile_qr_scan"}, "is_disabled": 0, "bike_id": "b56105daefa59719c952596e13c64d6f", "fusion_lon": 0.0, "fusion_lat": 0.0, "is_reserved": 0, "type": "electric_scooter", "lon": -77.0322925, "name": "b56105daefa59719c952596e13c64d6f", "lat": 38.909655666666666}, {"rental_uris": {"ios": "https://dc.lft.to/lastmile_qr_scan", "android": "https://dc.lft.to/lastmile_qr_scan"}, "is_disabled": 0, "bike_id": "1c3ff325e2158b11038aa4bad074fcc9", "fusion_lon": 0.0, "fusion_lat": 0.0, "is_reserved": 0, "type": "electric_scooter", "lon": -77.027119, "name": "1c3ff325e2158b11038aa4bad074fcc9", "lat": 38.907373}, {"rental_uris": {"ios": "https://dc.lft.to/lastmile_qr_scan", "android": "https://dc.lft.to/lastmile_qr_scan"}, "is_disabled": 0, "bike_id": "2f93adacf0281ccfb1f5a6cdde5dd336", "fusion_lon": 0.0, "fusion_lat": 0.0, "is_reserved": 0, "type": "electric_scooter", "lon": -77.0329215, "name": "2f93adacf0281ccfb1f5a6cdde5dd336", "lat": 38.93417616666667}, {"rental_uris": {"ios": "https://dc.lft.to/lastmile_qr_scan", "android": "https://dc.lft.to/lastmile_qr_scan"}, "is_disabled": 0, "bike_id": "2f66a7f489dd0728e2ace3ad440e5a2b", "fusion_lon": 0.0, "fusion_lat": 0.0, "is_reserved": 0, "type": "electric_scooter", "lon": -76.99506666666667, "name": "2f66a7f489dd0728e2ace3ad440e5a2b", "lat": 38.88368}, {"rental_uris": {"ios": "https://dc.lft.to/lastmile_qr_scan", "android": "https://dc.lft.to/lastmile_qr_scan"}, "is_disabled": 0, "bike_id": "e1c0076778737701c3f6bc833896945e", "fusion_lon": 0.0, "fusion_lat": 0.0, "is_reserved": 0, "type": "electric_scooter", "lon": -76.94153233333333, "name": "e1c0076778737701c3f6bc833896945e", "lat": 38.88363666666667}, {"rental_uris": {"ios": "https://dc.lft.to/lastmile_qr_scan", "android": "https://dc.lft.to/lastmile_qr_scan"}, "is_disabled": 0, "bike_id": "d6fda0713f8954f6f4c9e0f305b31a3e", "fusion_lon": 0.0, "fusion_lat": 0.0, "is_reserved": 0, "type": "electric_scooter", "lon": -77.07878016666666, "name": "d6fda0713f8954f6f4c9e0f305b31a3e", "lat": 38.92064766666667}, {"rental_uris": {"ios": "https://dc.lft.to/lastmile_qr_scan", "android": "https://dc.lft.to/lastmile_qr_scan"}, "is_disabled": 0, "bike_id": "0aa0629f732395afa289e69f84633005", "fusion_lon": 0.0, "fusion_lat": 0.0, "is_reserved": 0, "type": "electric_scooter", "lon": -77.0263185, "name": "0aa0629f732395afa289e69f84633005", "lat": 38.9253695}, {"rental_uris": {"ios": "https://dc.lft.to/lastmile_qr_scan", "android": "https://dc.lft.to/lastmile_qr_scan"}, "is_disabled": 0, "bike_id": "b0807e8ed0a6c95ba717b32a09b05e6e", "fusion_lon": 0.0, "fusion_lat": 0.0, "is_reserved": 0, "type": "electric_scooter", "lon": -76.9652715, "name": "b0807e8ed0a6c95ba717b32a09b05e6e", "lat": 38.8762815}, {"rental_uris": {"ios": "https://dc.lft.to/lastmile_qr_scan", "android": "https://dc.lft.to/lastmile_qr_scan"}, "is_disabled": 0, "bike_id": "86d6fd0ab18f2bedb6efb6e45b8db361", "fusion_lon": 0.0, "fusion_lat": 0.0, "is_reserved": 0, "type": "electric_scooter", "lon": -77.05853683333333, "name": "86d6fd0ab18f2bedb6efb6e45b8db361", "lat": 38.93607866666667}, {"rental_uris": {"ios": "https://dc.lft.to/lastmile_qr_scan", "android": "https://dc.lft.to/lastmile_qr_scan"}, "is_disabled": 0, "bike_id": "a4dcd3f949c2690e70623bc03039a6b1", "fusion_lon": 0.0, "fusion_lat": 0.0, "is_reserved": 0, "type": "electric_bike", "lon": -76.9248175, "name": "a4dcd3f949c2690e70623bc03039a6b1", "lat": 38.9589045}, {"rental_uris": {"ios": "https://dc.lft.to/lastmile_qr_scan", "android": "https://dc.lft.to/lastmile_qr_scan"}, "is_disabled": 0, "bike_id": "5a4ef61822f670960a057b4eb21c1e18", "fusion_lon": 0.0, "fusion_lat": 0.0, "is_reserved": 0, "type": "electric_scooter", "lon": -77.0345495, "name": "5a4ef61822f670960a057b4eb21c1e18", "lat": 38.908672}, {"rental_uris": {"ios": "https://dc.lft.to/lastmile_qr_scan", "android": "https://dc.lft.to/lastmile_qr_scan"}, "is_disabled": 0, "bike_id": "9d4faf73bfbfa130710b0d3d1fe19f19", "fusion_lon": 0.0, "fusion_lat": 0.0, "is_reserved": 0, "type": "electric_scooter", "lon": -77.00405533333333, "name": "9d4faf73bfbfa130710b0d3d1fe19f19", "lat": 38.87667283333333}, {"rental_uris": {"ios": "https://dc.lft.to/lastmile_qr_scan", "android": "https://dc.lft.to/lastmile_qr_scan"}, "is_disabled": 0, "bike_id": "70ff19485e44f535a39c3a162506ca1d", "fusion_lon": 0.0, "fusion_lat": 0.0, "is_reserved": 0, "type": "electric_scooter", "lon": -77.07249916666666, "name": "70ff19485e44f535a39c3a162506ca1d", "lat": 38.93949533333333}, {"rental_uris": {"ios": "https://dc.lft.to/lastmile_qr_scan", "android": "https://dc.lft.to/lastmile_qr_scan"}, "is_disabled": 0, "bike_id": "257c2387cb07d5407ceba19f54a776be", "fusion_lon": 0.0, "fusion_lat": 0.0, "is_reserved": 0, "type": "electric_scooter", "lon": -76.9488795, "name": "257c2387cb07d5407ceba19f54a776be", "lat": 38.895293333333335}, {"rental_uris": {"ios": "https://dc.lft.to/lastmile_qr_scan", "android": "https://dc.lft.to/lastmile_qr_scan"}, "is_disabled": 0, "bike_id": "5453efd80872fcadc005ea751e6b9bf8", "fusion_lon": 0.0, "fusion_lat": 0.0, "is_reserved": 0, "type": "electric_scooter", "lon": -77.005436, "name": "5453efd80872fcadc005ea751e6b9bf8", "lat": 38.90565316666667}, {"rental_uris": {"ios": "https://dc.lft.to/lastmile_qr_scan", "android": "https://dc.lft.to/lastmile_qr_scan"}, "is_disabled": 0, "bike_id": "80e2b51502b2c83907ef1c65e0671473", "fusion_lon": 0.0, "fusion_lat": 0.0, "is_reserved": 0, "type": "electric_bike", "lon": -77.04917966666666, "name": "80e2b51502b2c83907ef1c65e0671473", "lat": 38.85566016666667}, {"rental_uris": {"ios": "https://dc.lft.to/lastmile_qr_scan", "android": "https://dc.lft.to/lastmile_qr_scan"}, "is_disabled": 0, "bike_id": "f1059e4d829a62a7a383a9954dc58638", "fusion_lon": 0.0, "fusion_lat": 0.0, "is_reserved": 0, "type": "electric_bike", "lon": -77.13098233333334, "name": "f1059e4d829a62a7a383a9954dc58638", "lat": 39.02433716666667}, {"rental_uris": {"ios": "https://dc.lft.to/lastmile_qr_scan", "android": "https://dc.lft.to/lastmile_qr_scan"}, "is_disabled": 0, "bike_id": "168c6f284e951da3e02275caaddd3947", "fusion_lon": 0.0, "fusion_lat": 0.0, "is_reserved": 0, "type": "electric_scooter", "lon": -76.993427, "name": "168c6f284e951da3e02275caaddd3947", "lat": 38.910365666666664}, {"rental_uris": {"ios": "https://dc.lft.to/lastmile_qr_scan", "android": "https://dc.lft.to/lastmile_qr_scan"}, "is_disabled": 0, "bike_id": "6f7564a895ff99f3d574c875882bb90a", "fusion_lon": 0.0, "fusion_lat": 0.0, "is_reserved": 0, "type": "electric_bike", "lon": -77.09485766666667, "name": "6f7564a895ff99f3d574c875882bb90a", "lat": 39.03051416666667}, {"rental_uris": {"ios": "https://dc.lft.to/lastmile_qr_scan", "android": "https://dc.lft.to/lastmile_qr_scan"}, "is_disabled": 0, "bike_id": "f517001fd1918e2a20695f1f84f8057e", "fusion_lon": 0.0, "fusion_lat": 0.0, "is_reserved": 0, "type": "electric_scooter", "lon": -77.0309455, "name": "f517001fd1918e2a20695f1f84f8057e", "lat": 38.9386235}, {"rental_uris": {"ios": "https://dc.lft.to/lastmile_qr_scan", "android": "https://dc.lft.to/lastmile_qr_scan"}, "is_disabled": 0, "bike_id": "fa8bdb1c656a319de7b91fb136e7a53e", "fusion_lon": 0.0, "fusion_lat": 0.0, "is_reserved": 0, "type": "electric_scooter", "lon": -77.04164366666667, "name": "fa8bdb1c656a319de7b91fb136e7a53e", "lat": 38.90301266666667}, {"rental_uris": {"ios": "https://dc.lft.to/lastmile_qr_scan", "android": "https://dc.lft.to/lastmile_qr_scan"}, "is_disabled": 0, "bike_id": "f04a6119ea63da2d98c65004b70c5407", "fusion_lon": 0.0, "fusion_lat": 0.0, "is_reserved": 0, "type": "electric_scooter", "lon": -77.042627, "name": "f04a6119ea63da2d98c65004b70c5407", "lat": 38.91633366666667}, {"rental_uris": {"ios": "https://dc.lft.to/lastmile_qr_scan", "android": "https://dc.lft.to/lastmile_qr_scan"}, "is_disabled": 0, "bike_id": "6891835eb58f2b50343021bf0f0dc049", "fusion_lon": 0.0, "fusion_lat": 0.0, "is_reserved": 0, "type": "electric_scooter", "lon": -77.01549333333334, "name": "6891835eb58f2b50343021bf0f0dc049", "lat": 38.902497333333336}, {"rental_uris": {"ios": "https://dc.lft.to/lastmile_qr_scan", "android": "https://dc.lft.to/lastmile_qr_scan"}, "is_disabled": 0, "bike_id": "e49a2b765b9fe190d3b2f692cb010cdd", "fusion_lon": 0.0, "fusion_lat": 0.0, "is_reserved": 0, "type": "electric_scooter", "lon": -77.07042033333333, "name": "e49a2b765b9fe190d3b2f692cb010cdd", "lat": 38.91926516666667}, {"rental_uris": {"ios": "https://dc.lft.to/lastmile_qr_scan", "android": "https://dc.lft.to/lastmile_qr_scan"}, "is_disabled": 0, "bike_id": "2a4eed7d2e75486ddbae41f3f069c88d", "fusion_lon": 0.0, "fusion_lat": 0.0, "is_reserved": 0, "type": "electric_scooter", "lon": -77.03238433333334, "name": "2a4eed7d2e75486ddbae41f3f069c88d", "lat": 38.957116666666664}, {"rental_uris": {"ios": "https://dc.lft.to/lastmile_qr_scan", "android": "https://dc.lft.to/lastmile_qr_scan"}, "is_disabled": 0, "bike_id": "7f9b788f14f4d5e74334add134b95e7e", "fusion_lon": 0.0, "fusion_lat": 0.0, "is_reserved": 0, "type": "electric_scooter", "lon": -77.0262065, "name": "7f9b788f14f4d5e74334add134b95e7e", "lat": 38.92768516666667}, {"rental_uris": {"ios": "https://dc.lft.to/lastmile_qr_scan", "android": "https://dc.lft.to/lastmile_qr_scan"}, "is_disabled": 0, "bike_id": "fc27a71cfa2cb242c1c492552432cfd3", "fusion_lon": 0.0, "fusion_lat": 0.0, "is_reserved": 0, "type": "electric_scooter", "lon": -77.034688, "name": "fc27a71cfa2cb242c1c492552432cfd3", "lat": 38.9225195}, {"rental_uris": {"ios": "https://dc.lft.to/lastmile_qr_scan", "android": "https://dc.lft.to/lastmile_qr_scan"}, "is_disabled": 0, "bike_id": "c4ada984ea0cb4349bc6b93b00e66c07", "fusion_lon": 0.0, "fusion_lat": 0.0, "is_reserved": 0, "type": "electric_scooter", "lon": -77.03783366666667, "name": "c4ada984ea0cb4349bc6b93b00e66c07", "lat": 38.92626966666667}, {"rental_uris": {"ios": "https://dc.lft.to/lastmile_qr_scan", "android": "https://dc.lft.to/lastmile_qr_scan"}, "is_disabled": 0, "bike_id": "0a318dc80ec1eb6cc23d60b3d6bf5b53", "fusion_lon": 0.0, "fusion_lat": 0.0, "is_reserved": 0, "type": "electric_scooter", "lon": -77.004052, "name": "0a318dc80ec1eb6cc23d60b3d6bf5b53", "lat": 38.87663283333333}, {"rental_uris": {"ios": "https://dc.lft.to/lastmile_qr_scan", "android": "https://dc.lft.to/lastmile_qr_scan"}, "is_disabled": 0, "bike_id": "2df1ad0e3b2acabd4a4d818746832b6b", "fusion_lon": 0.0, "fusion_lat": 0.0, "is_reserved": 0, "type": "electric_scooter", "lon": -76.9990045, "name": "2df1ad0e3b2acabd4a4d818746832b6b", "lat": 38.94817416666667}, {"rental_uris": {"ios": "https://dc.lft.to/lastmile_qr_scan", "android": "https://dc.lft.to/lastmile_qr_scan"}, "is_disabled": 0, "bike_id": "bfd89978b02f8da34916a484a48311c3", "fusion_lon": 0.0, "fusion_lat": 0.0, "is_reserved": 0, "type": "electric_scooter", "lon": -77.04171666666667, "name": "bfd89978b02f8da34916a484a48311c3", "lat": 38.91807933333333}, {"rental_uris": {"ios": "https://dc.lft.to/lastmile_qr_scan", "android": "https://dc.lft.to/lastmile_qr_scan"}, "is_disabled": 0, "bike_id": "18330ceb10c72848a07b9f9ecba40d1e", "fusion_lon": 0.0, "fusion_lat": 0.0, "is_reserved": 0, "type": "electric_scooter", "lon": -77.02701266666666, "name": "18330ceb10c72848a07b9f9ecba40d1e", "lat": 38.90540216666667}, {"rental_uris": {"ios": "https://dc.lft.to/lastmile_qr_scan", "android": "https://dc.lft.to/lastmile_qr_scan"}, "is_disabled": 0, "bike_id": "a49300fcb963d1135b33cba93971d5f2", "fusion_lon": 0.0, "fusion_lat": 0.0, "is_reserved": 0, "type": "electric_bike", "lon": -77.03121683333333, "name": "a49300fcb963d1135b33cba93971d5f2", "lat": 38.89712216666667}, {"rental_uris": {"ios": "https://dc.lft.to/lastmile_qr_scan", "android": "https://dc.lft.to/lastmile_qr_scan"}, "is_disabled": 0, "bike_id": "f64773e7dbaad6cb04425bd6d5c04373", "fusion_lon": 0.0, "fusion_lat": 0.0, "is_reserved": 0, "type": "electric_scooter", "lon": -77.031471, "name": "f64773e7dbaad6cb04425bd6d5c04373", "lat": 38.91566666666667}, {"rental_uris": {"ios": "https://dc.lft.to/lastmile_qr_scan", "android": "https://dc.lft.to/lastmile_qr_scan"}, "is_disabled": 0, "bike_id": "b0bcda36fd9897c28aa1aa953b787997", "fusion_lon": 0.0, "fusion_lat": 0.0, "is_reserved": 0, "type": "electric_scooter", "lon": -77.04327416666666, "name": "b0bcda36fd9897c28aa1aa953b787997", "lat": 38.89226933333333}, {"rental_uris": {"ios": "https://dc.lft.to/lastmile_qr_scan", "android": "https://dc.lft.to/lastmile_qr_scan"}, "is_disabled": 0, "bike_id": "dcac99f8cf05200915843df54004131d", "fusion_lon": 0.0, "fusion_lat": 0.0, "is_reserved": 0, "type": "electric_scooter", "lon": -77.02290116666667, "name": "dcac99f8cf05200915843df54004131d", "lat": 38.90158783333333}, {"rental_uris": {"ios": "https://dc.lft.to/lastmile_qr_scan", "android": "https://dc.lft.to/lastmile_qr_scan"}, "is_disabled": 0, "bike_id": "d5c240d1848e1f20e98261d1dbedffd0", "fusion_lon": 0.0, "fusion_lat": 0.0, "is_reserved": 0, "type": "electric_scooter", "lon": -77.03426033333334, "name": "d5c240d1848e1f20e98261d1dbedffd0", "lat": 38.90277416666667}, {"rental_uris": {"ios": "https://dc.lft.to/lastmile_qr_scan", "android": "https://dc.lft.to/lastmile_qr_scan"}, "is_disabled": 0, "bike_id": "3dd54e04d1c75537b6b98c2c4a0c736c", "fusion_lon": 0.0, "fusion_lat": 0.0, "is_reserved": 0, "type": "electric_bike", "lon": -76.97197, "name": "3dd54e04d1c75537b6b98c2c4a0c736c", "lat": 38.91772816666667}, {"rental_uris": {"ios": "https://dc.lft.to/lastmile_qr_scan", "android": "https://dc.lft.to/lastmile_qr_scan"}, "is_disabled": 0, "bike_id": "91895f26b01597a3fcaaac423fcc3c3f", "fusion_lon": 0.0, "fusion_lat": 0.0, "is_reserved": 0, "type": "electric_bike", "lon": -77.02624433333334, "name": "91895f26b01597a3fcaaac423fcc3c3f", "lat": 38.962183333333336}, {"rental_uris": {"ios": "https://dc.lft.to/lastmile_qr_scan", "android": "https://dc.lft.to/lastmile_qr_scan"}, "is_disabled": 0, "bike_id": "bb9f20c507f1cd017bf79017f6835a41", "fusion_lon": 0.0, "fusion_lat": 0.0, "is_reserved": 0, "type": "electric_scooter", "lon": -77.04351416666667, "name": "bb9f20c507f1cd017bf79017f6835a41", "lat": 38.92800416666667}, {"rental_uris": {"ios": "https://dc.lft.to/lastmile_qr_scan", "android": "https://dc.lft.to/lastmile_qr_scan"}, "is_disabled": 0, "bike_id": "4c3ac54970389394d4d1d5f455815210", "fusion_lon": 0.0, "fusion_lat": 0.0, "is_reserved": 0, "type": "electric_bike", "lon": -77.03435183333333, "name": "4c3ac54970389394d4d1d5f455815210", "lat": 38.90139466666667}, {"rental_uris": {"ios": "https://dc.lft.to/lastmile_qr_scan", "android": "https://dc.lft.to/lastmile_qr_scan"}, "is_disabled": 0, "bike_id": "51c7b1ac3e077bca164baf012b7a8511", "fusion_lon": 0.0, "fusion_lat": 0.0, "is_reserved": 0, "type": "electric_scooter", "lon": -77.03259166666666, "name": "51c7b1ac3e077bca164baf012b7a8511", "lat": 38.919884833333334}, {"rental_uris": {"ios": "https://dc.lft.to/lastmile_qr_scan", "android": "https://dc.lft.to/lastmile_qr_scan"}, "is_disabled": 0, "bike_id": "bc42451e1753781bf94dd26d279a48d0", "fusion_lon": 0.0, "fusion_lat": 0.0, "is_reserved": 0, "type": "electric_scooter", "lon": -77.0392395, "name": "bc42451e1753781bf94dd26d279a48d0", "lat": 38.90283066666667}, {"rental_uris": {"ios": "https://dc.lft.to/lastmile_qr_scan", "android": "https://dc.lft.to/lastmile_qr_scan"}, "is_disabled": 0, "bike_id": "f9eb6f667d4889d2e093a474492298ad", "fusion_lon": 0.0, "fusion_lat": 0.0, "is_reserved": 0, "type": "electric_scooter", "lon": -77.0343845, "name": "f9eb6f667d4889d2e093a474492298ad", "lat": 38.91820216666667}, {"rental_uris": {"ios": "https://dc.lft.to/lastmile_qr_scan", "android": "https://dc.lft.to/lastmile_qr_scan"}, "is_disabled": 0, "bike_id": "653782e8c35e401316ef344245ea7773", "fusion_lon": 0.0, "fusion_lat": 0.0, "is_reserved": 0, "type": "electric_bike", "lon": -77.09958833333333, "name": "653782e8c35e401316ef344245ea7773", "lat": 38.933602666666665}, {"rental_uris": {"ios": "https://dc.lft.to/lastmile_qr_scan", "android": "https://dc.lft.to/lastmile_qr_scan"}, "is_disabled": 0, "bike_id": "452f4ff89ae88fd15c7ba1aeba59f42e", "fusion_lon": 0.0, "fusion_lat": 0.0, "is_reserved": 0, "type": "electric_scooter", "lon": -77.04131016666666, "name": "452f4ff89ae88fd15c7ba1aeba59f42e", "lat": 38.926517833333335}, {"rental_uris": {"ios": "https://dc.lft.to/lastmile_qr_scan", "android": "https://dc.lft.to/lastmile_qr_scan"}, "is_disabled": 0, "bike_id": "5eb037e786c827febd98a11bc7d8b5a6", "fusion_lon": 0.0, "fusion_lat": 0.0, "is_reserved": 0, "type": "electric_scooter", "lon": -77.04466633333334, "name": "5eb037e786c827febd98a11bc7d8b5a6", "lat": 38.90351}, {"rental_uris": {"ios": "https://dc.lft.to/lastmile_qr_scan", "android": "https://dc.lft.to/lastmile_qr_scan"}, "is_disabled": 0, "bike_id": "1c386d38b45ce1f93ab8a333e9f63436", "fusion_lon": 0.0, "fusion_lat": 0.0, "is_reserved": 0, "type": "electric_scooter", "lon": -77.04250683333333, "name": "1c386d38b45ce1f93ab8a333e9f63436", "lat": 38.9220105}, {"rental_uris": {"ios": "https://dc.lft.to/lastmile_qr_scan", "android": "https://dc.lft.to/lastmile_qr_scan"}, "is_disabled": 0, "bike_id": "d221a46da7b7eed26fb6381c49d5bb83", "fusion_lon": 0.0, "fusion_lat": 0.0, "is_reserved": 0, "type": "electric_bike", "lon": -76.92327366666666, "name": "d221a46da7b7eed26fb6381c49d5bb83", "lat": 38.871094}, {"rental_uris": {"ios": "https://dc.lft.to/lastmile_qr_scan", "android": "https://dc.lft.to/lastmile_qr_scan"}, "is_disabled": 0, "bike_id": "733189ccd3e3bbb7f5894c12cd40ecab", "fusion_lon": 0.0, "fusion_lat": 0.0, "is_reserved": 0, "type": "electric_scooter", "lon": -77.05129266666667, "name": "733189ccd3e3bbb7f5894c12cd40ecab", "lat": 38.92365233333334}, {"rental_uris": {"ios": "https://dc.lft.to/lastmile_qr_scan", "android": "https://dc.lft.to/lastmile_qr_scan"}, "is_disabled": 0, "bike_id": "d4db71370b8c609ee074a869b20f2dfd", "fusion_lon": 0.0, "fusion_lat": 0.0, "is_reserved": 0, "type": "electric_scooter", "lon": -77.031764, "name": "d4db71370b8c609ee074a869b20f2dfd", "lat": 38.91935683333333}, {"rental_uris": {"ios": "https://dc.lft.to/lastmile_qr_scan", "android": "https://dc.lft.to/lastmile_qr_scan"}, "is_disabled": 0, "bike_id": "64ea9f59ee9d1cefd8404435112ec27c", "fusion_lon": 0.0, "fusion_lat": 0.0, "is_reserved": 0, "type": "electric_scooter", "lon": -77.04300116666667, "name": "64ea9f59ee9d1cefd8404435112ec27c", "lat": 38.903920666666664}, {"rental_uris": {"ios": "https://dc.lft.to/lastmile_qr_scan", "android": "https://dc.lft.to/lastmile_qr_scan"}, "is_disabled": 0, "bike_id": "cf5d05c0ec212c686a834520e4d8a08c", "fusion_lon": 0.0, "fusion_lat": 0.0, "is_reserved": 0, "type": "electric_scooter", "lon": -77.03444, "name": "cf5d05c0ec212c686a834520e4d8a08c", "lat": 38.91846266666667}, {"rental_uris": {"ios": "https://dc.lft.to/lastmile_qr_scan", "android": "https://dc.lft.to/lastmile_qr_scan"}, "is_disabled": 0, "bike_id": "ad26e4acb8eeec5a4391190249c4d2c6", "fusion_lon": 0.0, "fusion_lat": 0.0, "is_reserved": 0, "type": "electric_scooter", "lon": -76.98777316666667, "name": "ad26e4acb8eeec5a4391190249c4d2c6", "lat": 38.8983065}, {"rental_uris": {"ios": "https://dc.lft.to/lastmile_qr_scan", "android": "https://dc.lft.to/lastmile_qr_scan"}, "is_disabled": 0, "bike_id": "ddd31d55207f5093b6d9db545a9a0814", "fusion_lon": 0.0, "fusion_lat": 0.0, "is_reserved": 0, "type": "electric_scooter", "lon": -77.02829933333334, "name": "ddd31d55207f5093b6d9db545a9a0814", "lat": 38.9319255}, {"rental_uris": {"ios": "https://dc.lft.to/lastmile_qr_scan", "android": "https://dc.lft.to/lastmile_qr_scan"}, "is_disabled": 0, "bike_id": "b3110d8a0f67302a0ebb4c786ed67bb1", "fusion_lon": 0.0, "fusion_lat": 0.0, "is_reserved": 0, "type": "electric_scooter", "lon": -77.04524033333334, "name": "b3110d8a0f67302a0ebb4c786ed67bb1", "lat": 38.90375266666667}, {"rental_uris": {"ios": "https://dc.lft.to/lastmile_qr_scan", "android": "https://dc.lft.to/lastmile_qr_scan"}, "is_disabled": 0, "bike_id": "0ff493ed74dbc0cb1f5c85ea7cf67ed4", "fusion_lon": 0.0, "fusion_lat": 0.0, "is_reserved": 0, "type": "electric_scooter", "lon": -77.03440883333333, "name": "0ff493ed74dbc0cb1f5c85ea7cf67ed4", "lat": 38.90745166666667}, {"rental_uris": {"ios": "https://dc.lft.to/lastmile_qr_scan", "android": "https://dc.lft.to/lastmile_qr_scan"}, "is_disabled": 0, "bike_id": "5d1b83a660c3f2c94d365f95f6445f31", "fusion_lon": 0.0, "fusion_lat": 0.0, "is_reserved": 0, "type": "electric_scooter", "lon": -77.03842366666667, "name": "5d1b83a660c3f2c94d365f95f6445f31", "lat": 38.923157}, {"rental_uris": {"ios": "https://dc.lft.to/lastmile_qr_scan", "android": "https://dc.lft.to/lastmile_qr_scan"}, "is_disabled": 0, "bike_id": "14d406349447c90dd50b80ee5e1874ae", "fusion_lon": 0.0, "fusion_lat": 0.0, "is_reserved": 0, "type": "electric_scooter", "lon": -77.01207316666667, "name": "14d406349447c90dd50b80ee5e1874ae", "lat": 38.89331683333333}, {"rental_uris": {"ios": "https://dc.lft.to/lastmile_qr_scan", "android": "https://dc.lft.to/lastmile_qr_scan"}, "is_disabled": 0, "bike_id": "c962cd35fe96c1707bec24d19cb0711b", "fusion_lon": 0.0, "fusion_lat": 0.0, "is_reserved": 0, "type": "electric_scooter", "lon": -77.03156216666666, "name": "c962cd35fe96c1707bec24d19cb0711b", "lat": 38.91406666666666}, {"rental_uris": {"ios": "https://dc.lft.to/lastmile_qr_scan", "android": "https://dc.lft.to/lastmile_qr_scan"}, "is_disabled": 0, "bike_id": "c9909db59ce1a8dcceeb38001c5ddecf", "fusion_lon": 0.0, "fusion_lat": 0.0, "is_reserved": 0, "type": "electric_scooter", "lon": -77.0426865, "name": "c9909db59ce1a8dcceeb38001c5ddecf", "lat": 38.91025116666667}, {"rental_uris": {"ios": "https://dc.lft.to/lastmile_qr_scan", "android": "https://dc.lft.to/lastmile_qr_scan"}, "is_disabled": 0, "bike_id": "9cf5e78c076e067a78a70ff6da5265de", "fusion_lon": 0.0, "fusion_lat": 0.0, "is_reserved": 0, "type": "electric_scooter", "lon": -77.04444933333333, "name": "9cf5e78c076e067a78a70ff6da5265de", "lat": 38.93020033333333}, {"rental_uris": {"ios": "https://dc.lft.to/lastmile_qr_scan", "android": "https://dc.lft.to/lastmile_qr_scan"}, "is_disabled": 0, "bike_id": "8e1950223140a4a4a0b251dd5aa67ceb", "fusion_lon": 0.0, "fusion_lat": 0.0, "is_reserved": 0, "type": "electric_scooter", "lon": -77.04879183333334, "name": "8e1950223140a4a4a0b251dd5aa67ceb", "lat": 38.89710916666667}, {"rental_uris": {"ios": "https://dc.lft.to/lastmile_qr_scan", "android": "https://dc.lft.to/lastmile_qr_scan"}, "is_disabled": 0, "bike_id": "613310e4cf4565be8a37f68b58eec355", "fusion_lon": 0.0, "fusion_lat": 0.0, "is_reserved": 0, "type": "electric_scooter", "lon": -76.98545983333334, "name": "613310e4cf4565be8a37f68b58eec355", "lat": 38.866907166666664}, {"rental_uris": {"ios": "https://dc.lft.to/lastmile_qr_scan", "android": "https://dc.lft.to/lastmile_qr_scan"}, "is_disabled": 0, "bike_id": "5cae39757170fc3af737e2380e4a345b", "fusion_lon": 0.0, "fusion_lat": 0.0, "is_reserved": 0, "type": "electric_scooter", "lon": -77.00923633333333, "name": "5cae39757170fc3af737e2380e4a345b", "lat": 38.895549333333335}, {"rental_uris": {"ios": "https://dc.lft.to/lastmile_qr_scan", "android": "https://dc.lft.to/lastmile_qr_scan"}, "is_disabled": 0, "bike_id": "055792b51befc6926a48394e9a089a0a", "fusion_lon": 0.0, "fusion_lat": 0.0, "is_reserved": 0, "type": "electric_scooter", "lon": -77.02645833333334, "name": "055792b51befc6926a48394e9a089a0a", "lat": 38.93108316666667}, {"rental_uris": {"ios": "https://dc.lft.to/lastmile_qr_scan", "android": "https://dc.lft.to/lastmile_qr_scan"}, "is_disabled": 0, "bike_id": "1097002c3999e1fdf15fea9152e70cb4", "fusion_lon": 0.0, "fusion_lat": 0.0, "is_reserved": 0, "type": "electric_bike", "lon": -77.00260316666666, "name": "1097002c3999e1fdf15fea9152e70cb4", "lat": 38.91175633333334}, {"rental_uris": {"ios": "https://dc.lft.to/lastmile_qr_scan", "android": "https://dc.lft.to/lastmile_qr_scan"}, "is_disabled": 0, "bike_id": "0392cbe3664d2b8603728690af6ef77b", "fusion_lon": 0.0, "fusion_lat": 0.0, "is_reserved": 0, "type": "electric_scooter", "lon": -77.03202883333333, "name": "0392cbe3664d2b8603728690af6ef77b", "lat": 38.9137775}, {"rental_uris": {"ios": "https://dc.lft.to/lastmile_qr_scan", "android": "https://dc.lft.to/lastmile_qr_scan"}, "is_disabled": 0, "bike_id": "c385b947510622d909c24d7bf633f3d9", "fusion_lon": 0.0, "fusion_lat": 0.0, "is_reserved": 0, "type": "electric_scooter", "lon": -77.00201233333334, "name": "c385b947510622d909c24d7bf633f3d9", "lat": 38.9024065}, {"rental_uris": {"ios": "https://dc.lft.to/lastmile_qr_scan", "android": "https://dc.lft.to/lastmile_qr_scan"}, "is_disabled": 0, "bike_id": "53bb5c4697d9808da551e9da41c69f7c", "fusion_lon": 0.0, "fusion_lat": 0.0, "is_reserved": 0, "type": "electric_scooter", "lon": -77.02178616666667, "name": "53bb5c4697d9808da551e9da41c69f7c", "lat": 38.917445}, {"rental_uris": {"ios": "https://dc.lft.to/lastmile_qr_scan", "android": "https://dc.lft.to/lastmile_qr_scan"}, "is_disabled": 0, "bike_id": "9c2487f5d9d11d9a2d96743b1d190f2f", "fusion_lon": 0.0, "fusion_lat": 0.0, "is_reserved": 0, "type": "electric_scooter", "lon": -77.01078433333333, "name": "9c2487f5d9d11d9a2d96743b1d190f2f", "lat": 38.91194816666667}, {"rental_uris": {"ios": "https://dc.lft.to/lastmile_qr_scan", "android": "https://dc.lft.to/lastmile_qr_scan"}, "is_disabled": 0, "bike_id": "4a7626d2ae7942a7c704921f7c90cc3e", "fusion_lon": 0.0, "fusion_lat": 0.0, "is_reserved": 0, "type": "electric_scooter", "lon": -77.04886733333333, "name": "4a7626d2ae7942a7c704921f7c90cc3e", "lat": 38.9183895}, {"rental_uris": {"ios": "https://dc.lft.to/lastmile_qr_scan", "android": "https://dc.lft.to/lastmile_qr_scan"}, "is_disabled": 0, "bike_id": "6c8832a5b82cc0292723e97efe6f505a", "fusion_lon": 0.0, "fusion_lat": 0.0, "is_reserved": 0, "type": "electric_scooter", "lon": -76.933527, "name": "6c8832a5b82cc0292723e97efe6f505a", "lat": 38.899089000000004}, {"rental_uris": {"ios": "https://dc.lft.to/lastmile_qr_scan", "android": "https://dc.lft.to/lastmile_qr_scan"}, "is_disabled": 0, "bike_id": "e23669bc529339d0e842fc23407e1951", "fusion_lon": 0.0, "fusion_lat": 0.0, "is_reserved": 0, "type": "electric_scooter", "lon": -77.04625566666667, "name": "e23669bc529339d0e842fc23407e1951", "lat": 38.90275283333333}, {"rental_uris": {"ios": "https://dc.lft.to/lastmile_qr_scan", "android": "https://dc.lft.to/lastmile_qr_scan"}, "is_disabled": 0, "bike_id": "4802abd6947511aa24bdcc51c05895b7", "fusion_lon": 0.0, "fusion_lat": 0.0, "is_reserved": 0, "type": "electric_scooter", "lon": -77.04343966666667, "name": "4802abd6947511aa24bdcc51c05895b7", "lat": 38.913468}, {"rental_uris": {"ios": "https://dc.lft.to/lastmile_qr_scan", "android": "https://dc.lft.to/lastmile_qr_scan"}, "is_disabled": 0, "bike_id": "a4433e907b2a91f3c0bdf657a4f646c3", "fusion_lon": 0.0, "fusion_lat": 0.0, "is_reserved": 0, "type": "electric_bike", "lon": -77.049234, "name": "a4433e907b2a91f3c0bdf657a4f646c3", "lat": 39.02935566666667}, {"rental_uris": {"ios": "https://dc.lft.to/lastmile_qr_scan", "android": "https://dc.lft.to/lastmile_qr_scan"}, "is_disabled": 0, "bike_id": "e78de9d31826fd745eed9a3479c6bfad", "fusion_lon": 0.0, "fusion_lat": 0.0, "is_reserved": 0, "type": "electric_scooter", "lon": -77.04186166666666, "name": "e78de9d31826fd745eed9a3479c6bfad", "lat": 38.9155685}, {"rental_uris": {"ios": "https://dc.lft.to/lastmile_qr_scan", "android": "https://dc.lft.to/lastmile_qr_scan"}, "is_disabled": 0, "bike_id": "24ec771b4fd2cfe02602d1aa4109b1f8", "fusion_lon": 0.0, "fusion_lat": 0.0, "is_reserved": 0, "type": "electric_scooter", "lon": -77.0484795, "name": "24ec771b4fd2cfe02602d1aa4109b1f8", "lat": 38.91180666666666}, {"rental_uris": {"ios": "https://dc.lft.to/lastmile_qr_scan", "android": "https://dc.lft.to/lastmile_qr_scan"}, "is_disabled": 0, "bike_id": "65758a87629abb993303b9b17e0c47e1", "fusion_lon": 0.0, "fusion_lat": 0.0, "is_reserved": 0, "type": "electric_scooter", "lon": -77.03843533333334, "name": "65758a87629abb993303b9b17e0c47e1", "lat": 38.931144833333335}, {"rental_uris": {"ios": "https://dc.lft.to/lastmile_qr_scan", "android": "https://dc.lft.to/lastmile_qr_scan"}, "is_disabled": 0, "bike_id": "f49e7794366bfc9cab6c61c916ccbdda", "fusion_lon": 0.0, "fusion_lat": 0.0, "is_reserved": 0, "type": "electric_scooter", "lon": -77.00713716666667, "name": "f49e7794366bfc9cab6c61c916ccbdda", "lat": 38.884917}, {"rental_uris": {"ios": "https://dc.lft.to/lastmile_qr_scan", "android": "https://dc.lft.to/lastmile_qr_scan"}, "is_disabled": 0, "bike_id": "86fedb530d3e64d34db6f46c3b8b16fd", "fusion_lon": 0.0, "fusion_lat": 0.0, "is_reserved": 0, "type": "electric_bike", "lon": -77.01209216666666, "name": "86fedb530d3e64d34db6f46c3b8b16fd", "lat": 38.87093633333333}, {"rental_uris": {"ios": "https://dc.lft.to/lastmile_qr_scan", "android": "https://dc.lft.to/lastmile_qr_scan"}, "is_disabled": 0, "bike_id": "dc195815dd082ed9373282e3f39deec8", "fusion_lon": 0.0, "fusion_lat": 0.0, "is_reserved": 0, "type": "electric_scooter", "lon": -77.02339733333334, "name": "dc195815dd082ed9373282e3f39deec8", "lat": 38.917862166666666}, {"rental_uris": {"ios": "https://dc.lft.to/lastmile_qr_scan", "android": "https://dc.lft.to/lastmile_qr_scan"}, "is_disabled": 0, "bike_id": "2aa3b1d5aff4af92707f27184a288224", "fusion_lon": 0.0, "fusion_lat": 0.0, "is_reserved": 0, "type": "electric_scooter", "lon": -76.93544533333333, "name": "2aa3b1d5aff4af92707f27184a288224", "lat": 38.907332333333336}, {"rental_uris": {"ios": "https://dc.lft.to/lastmile_qr_scan", "android": "https://dc.lft.to/lastmile_qr_scan"}, "is_disabled": 0, "bike_id": "3bfc9c2e6f32ff3508f32000b33eeef8", "fusion_lon": 0.0, "fusion_lat": 0.0, "is_reserved": 0, "type": "electric_scooter", "lon": -76.97602516666667, "name": "3bfc9c2e6f32ff3508f32000b33eeef8", "lat": 38.9033125}, {"rental_uris": {"ios": "https://dc.lft.to/lastmile_qr_scan", "android": "https://dc.lft.to/lastmile_qr_scan"}, "is_disabled": 0, "bike_id": "19dd50c4da5aa6a20cfd8552bd24ce90", "fusion_lon": 0.0, "fusion_lat": 0.0, "is_reserved": 0, "type": "electric_scooter", "lon": -77.03164133333334, "name": "19dd50c4da5aa6a20cfd8552bd24ce90", "lat": 38.915642}, {"rental_uris": {"ios": "https://dc.lft.to/lastmile_qr_scan", "android": "https://dc.lft.to/lastmile_qr_scan"}, "is_disabled": 0, "bike_id": "e16297db9ff01bb256a4051f03e4e062", "fusion_lon": 0.0, "fusion_lat": 0.0, "is_reserved": 0, "type": "electric_bike", "lon": -77.081201, "name": "e16297db9ff01bb256a4051f03e4e062", "lat": 38.806816}, {"rental_uris": {"ios": "https://dc.lft.to/lastmile_qr_scan", "android": "https://dc.lft.to/lastmile_qr_scan"}, "is_disabled": 0, "bike_id": "2d422df2f8d8e715b46503cc2b45357c", "fusion_lon": 0.0, "fusion_lat": 0.0, "is_reserved": 0, "type": "electric_scooter", "lon": -77.032578, "name": "2d422df2f8d8e715b46503cc2b45357c", "lat": 38.92162283333333}, {"rental_uris": {"ios": "https://dc.lft.to/lastmile_qr_scan", "android": "https://dc.lft.to/lastmile_qr_scan"}, "is_disabled": 0, "bike_id": "40dda5adc596c0471004c90c087a4d8d", "fusion_lon": 0.0, "fusion_lat": 0.0, "is_reserved": 0, "type": "electric_scooter", "lon": -77.0056035, "name": "40dda5adc596c0471004c90c087a4d8d", "lat": 38.905707666666665}, {"rental_uris": {"ios": "https://dc.lft.to/lastmile_qr_scan", "android": "https://dc.lft.to/lastmile_qr_scan"}, "is_disabled": 0, "bike_id": "8fea37076953a66918af5ad64dbf41a5", "fusion_lon": 0.0, "fusion_lat": 0.0, "is_reserved": 0, "type": "electric_scooter", "lon": -77.044917, "name": "8fea37076953a66918af5ad64dbf41a5", "lat": 38.903796}, {"rental_uris": {"ios": "https://dc.lft.to/lastmile_qr_scan", "android": "https://dc.lft.to/lastmile_qr_scan"}, "is_disabled": 0, "bike_id": "d997445a16f4f4cf1aaa444d7eb60a92", "fusion_lon": 0.0, "fusion_lat": 0.0, "is_reserved": 0, "type": "electric_scooter", "lon": -77.01952466666667, "name": "d997445a16f4f4cf1aaa444d7eb60a92", "lat": 38.922572}, {"rental_uris": {"ios": "https://dc.lft.to/lastmile_qr_scan", "android": "https://dc.lft.to/lastmile_qr_scan"}, "is_disabled": 0, "bike_id": "07b5dd5e465149c714d9a7e851970688", "fusion_lon": 0.0, "fusion_lat": 0.0, "is_reserved": 0, "type": "electric_scooter", "lon": -77.00605083333333, "name": "07b5dd5e465149c714d9a7e851970688", "lat": 38.871797}, {"rental_uris": {"ios": "https://dc.lft.to/lastmile_qr_scan", "android": "https://dc.lft.to/lastmile_qr_scan"}, "is_disabled": 0, "bike_id": "63baf504f354e6fd3f8e45ba85995b6b", "fusion_lon": 0.0, "fusion_lat": 0.0, "is_reserved": 0, "type": "electric_scooter", "lon": -77.0219635, "name": "63baf504f354e6fd3f8e45ba85995b6b", "lat": 38.89793233333333}, {"rental_uris": {"ios": "https://dc.lft.to/lastmile_qr_scan", "android": "https://dc.lft.to/lastmile_qr_scan"}, "is_disabled": 0, "bike_id": "5ca1a893dc9cd93b64b35eaafe29e581", "fusion_lon": 0.0, "fusion_lat": 0.0, "is_reserved": 0, "type": "electric_scooter", "lon": -77.03975433333333, "name": "5ca1a893dc9cd93b64b35eaafe29e581", "lat": 38.901352333333335}, {"rental_uris": {"ios": "https://dc.lft.to/lastmile_qr_scan", "android": "https://dc.lft.to/lastmile_qr_scan"}, "is_disabled": 0, "bike_id": "05a690da4c7f68cdeb8968465b06169d", "fusion_lon": 0.0, "fusion_lat": 0.0, "is_reserved": 0, "type": "electric_scooter", "lon": -77.03952, "name": "05a690da4c7f68cdeb8968465b06169d", "lat": 38.89889566666667}, {"rental_uris": {"ios": "https://dc.lft.to/lastmile_qr_scan", "android": "https://dc.lft.to/lastmile_qr_scan"}, "is_disabled": 0, "bike_id": "1fdb2a2c7c06370a41f14303df70ebbc", "fusion_lon": 0.0, "fusion_lat": 0.0, "is_reserved": 0, "type": "electric_scooter", "lon": -77.03634083333333, "name": "1fdb2a2c7c06370a41f14303df70ebbc", "lat": 38.9028495}, {"rental_uris": {"ios": "https://dc.lft.to/lastmile_qr_scan", "android": "https://dc.lft.to/lastmile_qr_scan"}, "is_disabled": 0, "bike_id": "5f6bece8b178e9985de6ea3c0899e62f", "fusion_lon": 0.0, "fusion_lat": 0.0, "is_reserved": 0, "type": "electric_scooter", "lon": -76.99842716666667, "name": "5f6bece8b178e9985de6ea3c0899e62f", "lat": 38.900016666666666}, {"rental_uris": {"ios": "https://dc.lft.to/lastmile_qr_scan", "android": "https://dc.lft.to/lastmile_qr_scan"}, "is_disabled": 0, "bike_id": "e863afde67a16936806447176db01bd9", "fusion_lon": 0.0, "fusion_lat": 0.0, "is_reserved": 0, "type": "electric_scooter", "lon": -77.0164165, "name": "e863afde67a16936806447176db01bd9", "lat": 38.92900083333333}, {"rental_uris": {"ios": "https://dc.lft.to/lastmile_qr_scan", "android": "https://dc.lft.to/lastmile_qr_scan"}, "is_disabled": 0, "bike_id": "ecec474254d7abdca94cc3990da45747", "fusion_lon": 0.0, "fusion_lat": 0.0, "is_reserved": 0, "type": "electric_scooter", "lon": -77.03278933333333, "name": "ecec474254d7abdca94cc3990da45747", "lat": 38.93257833333333}, {"rental_uris": {"ios": "https://dc.lft.to/lastmile_qr_scan", "android": "https://dc.lft.to/lastmile_qr_scan"}, "is_disabled": 0, "bike_id": "891affe7ed3c41d201609b1465d46b78", "fusion_lon": 0.0, "fusion_lat": 0.0, "is_reserved": 0, "type": "electric_scooter", "lon": -77.00209183333334, "name": "891affe7ed3c41d201609b1465d46b78", "lat": 38.904348}, {"rental_uris": {"ios": "https://dc.lft.to/lastmile_qr_scan", "android": "https://dc.lft.to/lastmile_qr_scan"}, "is_disabled": 0, "bike_id": "da2a0195ccad8e29f18461a2483d6c1d", "fusion_lon": 0.0, "fusion_lat": 0.0, "is_reserved": 0, "type": "electric_scooter", "lon": -77.040662, "name": "da2a0195ccad8e29f18461a2483d6c1d", "lat": 38.899002833333334}, {"rental_uris": {"ios": "https://dc.lft.to/lastmile_qr_scan", "android": "https://dc.lft.to/lastmile_qr_scan"}, "is_disabled": 0, "bike_id": "8729f7d3443ed597a61fb591b834faac", "fusion_lon": 0.0, "fusion_lat": 0.0, "is_reserved": 0, "type": "electric_bike", "lon": -77.035161, "name": "8729f7d3443ed597a61fb591b834faac", "lat": 38.96207166666667}, {"rental_uris": {"ios": "https://dc.lft.to/lastmile_qr_scan", "android": "https://dc.lft.to/lastmile_qr_scan"}, "is_disabled": 0, "bike_id": "74c9786c2f73a61c233727823b448cb8", "fusion_lon": 0.0, "fusion_lat": 0.0, "is_reserved": 0, "type": "electric_bike", "lon": -77.04919933333333, "name": "74c9786c2f73a61c233727823b448cb8", "lat": 38.8135005}, {"rental_uris": {"ios": "https://dc.lft.to/lastmile_qr_scan", "android": "https://dc.lft.to/lastmile_qr_scan"}, "is_disabled": 0, "bike_id": "0f129480ac14fea5becc1281e71e80fa", "fusion_lon": 0.0, "fusion_lat": 0.0, "is_reserved": 0, "type": "electric_scooter", "lon": -77.03288316666666, "name": "0f129480ac14fea5becc1281e71e80fa", "lat": 38.8993455}, {"rental_uris": {"ios": "https://dc.lft.to/lastmile_qr_scan", "android": "https://dc.lft.to/lastmile_qr_scan"}, "is_disabled": 0, "bike_id": "4e50c69d7a37b3bdc8267cbef3aa4d52", "fusion_lon": 0.0, "fusion_lat": 0.0, "is_reserved": 0, "type": "electric_scooter", "lon": -77.02126966666667, "name": "4e50c69d7a37b3bdc8267cbef3aa4d52", "lat": 38.91607583333333}, {"rental_uris": {"ios": "https://dc.lft.to/lastmile_qr_scan", "android": "https://dc.lft.to/lastmile_qr_scan"}, "is_disabled": 0, "bike_id": "c8bfd795d1645b6fbad7c04d223c5bb6", "fusion_lon": 0.0, "fusion_lat": 0.0, "is_reserved": 0, "type": "electric_bike", "lon": -77.13174683333334, "name": "c8bfd795d1645b6fbad7c04d223c5bb6", "lat": 38.8691085}, {"rental_uris": {"ios": "https://dc.lft.to/lastmile_qr_scan", "android": "https://dc.lft.to/lastmile_qr_scan"}, "is_disabled": 0, "bike_id": "03481214fc13a25a864d0487123d2e79", "fusion_lon": 0.0, "fusion_lat": 0.0, "is_reserved": 0, "type": "electric_scooter", "lon": -77.05710566666667, "name": "03481214fc13a25a864d0487123d2e79", "lat": 38.90549016666667}, {"rental_uris": {"ios": "https://dc.lft.to/lastmile_qr_scan", "android": "https://dc.lft.to/lastmile_qr_scan"}, "is_disabled": 0, "bike_id": "251c429572828d2c876e255efd7a2a4c", "fusion_lon": 0.0, "fusion_lat": 0.0, "is_reserved": 0, "type": "electric_scooter", "lon": -77.02340866666667, "name": "251c429572828d2c876e255efd7a2a4c", "lat": 38.91789466666667}, {"rental_uris": {"ios": "https://dc.lft.to/lastmile_qr_scan", "android": "https://dc.lft.to/lastmile_qr_scan"}, "is_disabled": 0, "bike_id": "3f1d4ff7b15bac54d6007f588ab9c70d", "fusion_lon": 0.0, "fusion_lat": 0.0, "is_reserved": 0, "type": "electric_scooter", "lon": -77.02587566666666, "name": "3f1d4ff7b15bac54d6007f588ab9c70d", "lat": 38.90739716666667}, {"rental_uris": {"ios": "https://dc.lft.to/lastmile_qr_scan", "android": "https://dc.lft.to/lastmile_qr_scan"}, "is_disabled": 0, "bike_id": "89226a6e64fccae0607f30c939f94cf0", "fusion_lon": 0.0, "fusion_lat": 0.0, "is_reserved": 0, "type": "electric_scooter", "lon": -77.015104, "name": "89226a6e64fccae0607f30c939f94cf0", "lat": 38.910521833333334}, {"rental_uris": {"ios": "https://dc.lft.to/lastmile_qr_scan", "android": "https://dc.lft.to/lastmile_qr_scan"}, "is_disabled": 0, "bike_id": "64052f04a3733bd55a7682a76d1f662c", "fusion_lon": 0.0, "fusion_lat": 0.0, "is_reserved": 0, "type": "electric_scooter", "lon": -77.04483166666667, "name": "64052f04a3733bd55a7682a76d1f662c", "lat": 38.91209166666667}, {"rental_uris": {"ios": "https://dc.lft.to/lastmile_qr_scan", "android": "https://dc.lft.to/lastmile_qr_scan"}, "is_disabled": 0, "bike_id": "71c524cec73410c8b407b4a729755032", "fusion_lon": 0.0, "fusion_lat": 0.0, "is_reserved": 0, "type": "electric_scooter", "lon": -77.02670266666667, "name": "71c524cec73410c8b407b4a729755032", "lat": 38.8993175}, {"rental_uris": {"ios": "https://dc.lft.to/lastmile_qr_scan", "android": "https://dc.lft.to/lastmile_qr_scan"}, "is_disabled": 0, "bike_id": "135d24067d013faf3127f39316639483", "fusion_lon": 0.0, "fusion_lat": 0.0, "is_reserved": 0, "type": "electric_bike", "lon": -77.010304, "name": "135d24067d013faf3127f39316639483", "lat": 38.95880116666667}, {"rental_uris": {"ios": "https://dc.lft.to/lastmile_qr_scan", "android": "https://dc.lft.to/lastmile_qr_scan"}, "is_disabled": 0, "bike_id": "f7ff3796f558463f2b2ea4b8289683d6", "fusion_lon": 0.0, "fusion_lat": 0.0, "is_reserved": 0, "type": "electric_scooter", "lon": -77.01551766666667, "name": "f7ff3796f558463f2b2ea4b8289683d6", "lat": 38.87991183333333}, {"rental_uris": {"ios": "https://dc.lft.to/lastmile_qr_scan", "android": "https://dc.lft.to/lastmile_qr_scan"}, "is_disabled": 0, "bike_id": "932a086754720138cceddc223c0d9c11", "fusion_lon": 0.0, "fusion_lat": 0.0, "is_reserved": 0, "type": "electric_scooter", "lon": -76.94634316666667, "name": "932a086754720138cceddc223c0d9c11", "lat": 38.898443}, {"rental_uris": {"ios": "https://dc.lft.to/lastmile_qr_scan", "android": "https://dc.lft.to/lastmile_qr_scan"}, "is_disabled": 0, "bike_id": "c49a13a2bccc7470227bca9cec8f729d", "fusion_lon": 0.0, "fusion_lat": 0.0, "is_reserved": 0, "type": "electric_scooter", "lon": -77.02673733333333, "name": "c49a13a2bccc7470227bca9cec8f729d", "lat": 38.900906}, {"rental_uris": {"ios": "https://dc.lft.to/lastmile_qr_scan", "android": "https://dc.lft.to/lastmile_qr_scan"}, "is_disabled": 0, "bike_id": "b4479d32cfc7ec3dfe4d2be2597363d2", "fusion_lon": 0.0, "fusion_lat": 0.0, "is_reserved": 0, "type": "electric_bike", "lon": -77.0441525, "name": "b4479d32cfc7ec3dfe4d2be2597363d2", "lat": 39.01566283333333}, {"rental_uris": {"ios": "https://dc.lft.to/lastmile_qr_scan", "android": "https://dc.lft.to/lastmile_qr_scan"}, "is_disabled": 0, "bike_id": "bb498e54c74dc07d32cc5e7d6b5c852f", "fusion_lon": 0.0, "fusion_lat": 0.0, "is_reserved": 0, "type": "electric_scooter", "lon": -77.02604433333333, "name": "bb498e54c74dc07d32cc5e7d6b5c852f", "lat": 38.914174}, {"rental_uris": {"ios": "https://dc.lft.to/lastmile_qr_scan", "android": "https://dc.lft.to/lastmile_qr_scan"}, "is_disabled": 0, "bike_id": "4fdea66cca0abc524b52f2a5e2b62cd5", "fusion_lon": 0.0, "fusion_lat": 0.0, "is_reserved": 0, "type": "electric_scooter", "lon": -77.06403766666666, "name": "4fdea66cca0abc524b52f2a5e2b62cd5", "lat": 38.94487866666667}, {"rental_uris": {"ios": "https://dc.lft.to/lastmile_qr_scan", "android": "https://dc.lft.to/lastmile_qr_scan"}, "is_disabled": 0, "bike_id": "e047446f041ad91d276af8c65e149da6", "fusion_lon": 0.0, "fusion_lat": 0.0, "is_reserved": 0, "type": "electric_scooter", "lon": -77.03626233333334, "name": "e047446f041ad91d276af8c65e149da6", "lat": 38.954059666666666}, {"rental_uris": {"ios": "https://dc.lft.to/lastmile_qr_scan", "android": "https://dc.lft.to/lastmile_qr_scan"}, "is_disabled": 0, "bike_id": "d65ab17ea0771140d6d6e0a28775702d", "fusion_lon": 0.0, "fusion_lat": 0.0, "is_reserved": 0, "type": "electric_scooter", "lon": -77.04027933333333, "name": "d65ab17ea0771140d6d6e0a28775702d", "lat": 38.918100333333335}, {"rental_uris": {"ios": "https://dc.lft.to/lastmile_qr_scan", "android": "https://dc.lft.to/lastmile_qr_scan"}, "is_disabled": 0, "bike_id": "62ed71ebf49c94edc56d098076169b58", "fusion_lon": 0.0, "fusion_lat": 0.0, "is_reserved": 0, "type": "electric_scooter", "lon": -77.04237866666666, "name": "62ed71ebf49c94edc56d098076169b58", "lat": 38.907796833333336}, {"rental_uris": {"ios": "https://dc.lft.to/lastmile_qr_scan", "android": "https://dc.lft.to/lastmile_qr_scan"}, "is_disabled": 0, "bike_id": "c2b1312e12dcabae1d069176a34f7bce", "fusion_lon": 0.0, "fusion_lat": 0.0, "is_reserved": 0, "type": "electric_scooter", "lon": -77.040056, "name": "c2b1312e12dcabae1d069176a34f7bce", "lat": 38.9220835}, {"rental_uris": {"ios": "https://dc.lft.to/lastmile_qr_scan", "android": "https://dc.lft.to/lastmile_qr_scan"}, "is_disabled": 0, "bike_id": "30deb76155d2d0215fc8082af6819df1", "fusion_lon": 0.0, "fusion_lat": 0.0, "is_reserved": 0, "type": "electric_scooter", "lon": -77.07291783333334, "name": "30deb76155d2d0215fc8082af6819df1", "lat": 38.935279}, {"rental_uris": {"ios": "https://dc.lft.to/lastmile_qr_scan", "android": "https://dc.lft.to/lastmile_qr_scan"}, "is_disabled": 0, "bike_id": "e4b0b486f50f88d5c789f02d970ba177", "fusion_lon": 0.0, "fusion_lat": 0.0, "is_reserved": 0, "type": "electric_scooter", "lon": -77.02190983333334, "name": "e4b0b486f50f88d5c789f02d970ba177", "lat": 38.918412833333335}, {"rental_uris": {"ios": "https://dc.lft.to/lastmile_qr_scan", "android": "https://dc.lft.to/lastmile_qr_scan"}, "is_disabled": 0, "bike_id": "2f3b0771a6545cfc28c2ee9bb50eb8d5", "fusion_lon": 0.0, "fusion_lat": 0.0, "is_reserved": 0, "type": "electric_scooter", "lon": -77.044503, "name": "2f3b0771a6545cfc28c2ee9bb50eb8d5", "lat": 38.924155666666664}, {"rental_uris": {"ios": "https://dc.lft.to/lastmile_qr_scan", "android": "https://dc.lft.to/lastmile_qr_scan"}, "is_disabled": 0, "bike_id": "3071f8b14c9cfb386a3c2c598158313f", "fusion_lon": 0.0, "fusion_lat": 0.0, "is_reserved": 0, "type": "electric_scooter", "lon": -76.99223733333334, "name": "3071f8b14c9cfb386a3c2c598158313f", "lat": 38.9037695}, {"rental_uris": {"ios": "https://dc.lft.to/lastmile_qr_scan", "android": "https://dc.lft.to/lastmile_qr_scan"}, "is_disabled": 0, "bike_id": "6438aff55a68d728439f7c50cd29a18d", "fusion_lon": 0.0, "fusion_lat": 0.0, "is_reserved": 0, "type": "electric_scooter", "lon": -77.0326105, "name": "6438aff55a68d728439f7c50cd29a18d", "lat": 38.9354295}, {"rental_uris": {"ios": "https://dc.lft.to/lastmile_qr_scan", "android": "https://dc.lft.to/lastmile_qr_scan"}, "is_disabled": 0, "bike_id": "545163d0507477e129fce798414e1642", "fusion_lon": 0.0, "fusion_lat": 0.0, "is_reserved": 0, "type": "electric_scooter", "lon": -77.023958, "name": "545163d0507477e129fce798414e1642", "lat": 38.897371166666666}, {"rental_uris": {"ios": "https://dc.lft.to/lastmile_qr_scan", "android": "https://dc.lft.to/lastmile_qr_scan"}, "is_disabled": 0, "bike_id": "c92b9a1b6130d22a7186274f9893c5fe", "fusion_lon": 0.0, "fusion_lat": 0.0, "is_reserved": 0, "type": "electric_scooter", "lon": -77.00920583333334, "name": "c92b9a1b6130d22a7186274f9893c5fe", "lat": 38.89550883333333}, {"rental_uris": {"ios": "https://dc.lft.to/lastmile_qr_scan", "android": "https://dc.lft.to/lastmile_qr_scan"}, "is_disabled": 0, "bike_id": "7b3ae5b6b5f262343914551104f8f2d3", "fusion_lon": 0.0, "fusion_lat": 0.0, "is_reserved": 0, "type": "electric_scooter", "lon": -77.0216455, "name": "7b3ae5b6b5f262343914551104f8f2d3", "lat": 38.926047}, {"rental_uris": {"ios": "https://dc.lft.to/lastmile_qr_scan", "android": "https://dc.lft.to/lastmile_qr_scan"}, "is_disabled": 0, "bike_id": "6a9ca790cfddc0adef88d6b3e4cf239d", "fusion_lon": 0.0, "fusion_lat": 0.0, "is_reserved": 0, "type": "electric_scooter", "lon": -77.02795866666666, "name": "6a9ca790cfddc0adef88d6b3e4cf239d", "lat": 38.88426066666667}, {"rental_uris": {"ios": "https://dc.lft.to/lastmile_qr_scan", "android": "https://dc.lft.to/lastmile_qr_scan"}, "is_disabled": 0, "bike_id": "a8c97b0d9a54a8c2570553e47794b92b", "fusion_lon": 0.0, "fusion_lat": 0.0, "is_reserved": 0, "type": "electric_scooter", "lon": -77.02800066666667, "name": "a8c97b0d9a54a8c2570553e47794b92b", "lat": 38.9074115}, {"rental_uris": {"ios": "https://dc.lft.to/lastmile_qr_scan", "android": "https://dc.lft.to/lastmile_qr_scan"}, "is_disabled": 0, "bike_id": "9bfee26ee7d65db2cb6c6887919dbed6", "fusion_lon": 0.0, "fusion_lat": 0.0, "is_reserved": 0, "type": "electric_scooter", "lon": -77.02979483333333, "name": "9bfee26ee7d65db2cb6c6887919dbed6", "lat": 38.915658}, {"rental_uris": {"ios": "https://dc.lft.to/lastmile_qr_scan", "android": "https://dc.lft.to/lastmile_qr_scan"}, "is_disabled": 0, "bike_id": "cf3c4465782f11663381fe6a5533da79", "fusion_lon": 0.0, "fusion_lat": 0.0, "is_reserved": 0, "type": "electric_scooter", "lon": -77.00449816666666, "name": "cf3c4465782f11663381fe6a5533da79", "lat": 38.911503833333335}, {"rental_uris": {"ios": "https://dc.lft.to/lastmile_qr_scan", "android": "https://dc.lft.to/lastmile_qr_scan"}, "is_disabled": 0, "bike_id": "4e818899d268fafbbd70dab3fbfe9754", "fusion_lon": 0.0, "fusion_lat": 0.0, "is_reserved": 0, "type": "electric_scooter", "lon": -76.99514866666667, "name": "4e818899d268fafbbd70dab3fbfe9754", "lat": 38.8837685}, {"rental_uris": {"ios": "https://dc.lft.to/lastmile_qr_scan", "android": "https://dc.lft.to/lastmile_qr_scan"}, "is_disabled": 0, "bike_id": "401cdba9239868df6c4118542e200bf9", "fusion_lon": 0.0, "fusion_lat": 0.0, "is_reserved": 0, "type": "electric_scooter", "lon": -77.043322, "name": "401cdba9239868df6c4118542e200bf9", "lat": 38.9081665}, {"rental_uris": {"ios": "https://dc.lft.to/lastmile_qr_scan", "android": "https://dc.lft.to/lastmile_qr_scan"}, "is_disabled": 0, "bike_id": "2070ef5259762764df699065ae7f601c", "fusion_lon": 0.0, "fusion_lat": 0.0, "is_reserved": 0, "type": "electric_scooter", "lon": -77.02718266666666, "name": "2070ef5259762764df699065ae7f601c", "lat": 38.907403333333335}, {"rental_uris": {"ios": "https://dc.lft.to/lastmile_qr_scan", "android": "https://dc.lft.to/lastmile_qr_scan"}, "is_disabled": 0, "bike_id": "37f595cdd7ba33dc2b76d0acb3a55f0a", "fusion_lon": 0.0, "fusion_lat": 0.0, "is_reserved": 0, "type": "electric_scooter", "lon": -77.03913283333333, "name": "37f595cdd7ba33dc2b76d0acb3a55f0a", "lat": 38.91821733333333}, {"rental_uris": {"ios": "https://dc.lft.to/lastmile_qr_scan", "android": "https://dc.lft.to/lastmile_qr_scan"}, "is_disabled": 0, "bike_id": "b9e487d391d2cb1b955d113393dbf6e9", "fusion_lon": 0.0, "fusion_lat": 0.0, "is_reserved": 0, "type": "electric_scooter", "lon": -77.02835916666666, "name": "b9e487d391d2cb1b955d113393dbf6e9", "lat": 38.932819}, {"rental_uris": {"ios": "https://dc.lft.to/lastmile_qr_scan", "android": "https://dc.lft.to/lastmile_qr_scan"}, "is_disabled": 0, "bike_id": "71a90c63b958b90b95c85c7c074e6947", "fusion_lon": 0.0, "fusion_lat": 0.0, "is_reserved": 0, "type": "electric_scooter", "lon": -77.03494833333333, "name": "71a90c63b958b90b95c85c7c074e6947", "lat": 38.91715816666667}, {"rental_uris": {"ios": "https://dc.lft.to/lastmile_qr_scan", "android": "https://dc.lft.to/lastmile_qr_scan"}, "is_disabled": 0, "bike_id": "8450317e7253bc20ceda2f6044638663", "fusion_lon": 0.0, "fusion_lat": 0.0, "is_reserved": 0, "type": "electric_scooter", "lon": -77.04675933333333, "name": "8450317e7253bc20ceda2f6044638663", "lat": 38.91581216666667}, {"rental_uris": {"ios": "https://dc.lft.to/lastmile_qr_scan", "android": "https://dc.lft.to/lastmile_qr_scan"}, "is_disabled": 0, "bike_id": "de3ff270a9137cf38678df6b712c057a", "fusion_lon": 0.0, "fusion_lat": 0.0, "is_reserved": 0, "type": "electric_scooter", "lon": -77.03659466666667, "name": "de3ff270a9137cf38678df6b712c057a", "lat": 38.91736933333333}, {"rental_uris": {"ios": "https://dc.lft.to/lastmile_qr_scan", "android": "https://dc.lft.to/lastmile_qr_scan"}, "is_disabled": 0, "bike_id": "322fcb774d18cced14372f0c2a1ae188", "fusion_lon": 0.0, "fusion_lat": 0.0, "is_reserved": 0, "type": "electric_scooter", "lon": -77.0233105, "name": "322fcb774d18cced14372f0c2a1ae188", "lat": 38.917722833333336}, {"rental_uris": {"ios": "https://dc.lft.to/lastmile_qr_scan", "android": "https://dc.lft.to/lastmile_qr_scan"}, "is_disabled": 0, "bike_id": "bb3e0f95211982249b435dc374145068", "fusion_lon": 0.0, "fusion_lat": 0.0, "is_reserved": 0, "type": "electric_scooter", "lon": -77.0218455, "name": "bb3e0f95211982249b435dc374145068", "lat": 38.90026433333333}, {"rental_uris": {"ios": "https://dc.lft.to/lastmile_qr_scan", "android": "https://dc.lft.to/lastmile_qr_scan"}, "is_disabled": 0, "bike_id": "16fce41362dc729967188a602edb60e0", "fusion_lon": 0.0, "fusion_lat": 0.0, "is_reserved": 0, "type": "electric_scooter", "lon": -77.03243116666667, "name": "16fce41362dc729967188a602edb60e0", "lat": 38.909597166666664}, {"rental_uris": {"ios": "https://dc.lft.to/lastmile_qr_scan", "android": "https://dc.lft.to/lastmile_qr_scan"}, "is_disabled": 0, "bike_id": "258d870b8ff1ff7fa760635beb6f62f5", "fusion_lon": 0.0, "fusion_lat": 0.0, "is_reserved": 0, "type": "electric_scooter", "lon": -76.94845983333333, "name": "258d870b8ff1ff7fa760635beb6f62f5", "lat": 38.89603683333333}, {"rental_uris": {"ios": "https://dc.lft.to/lastmile_qr_scan", "android": "https://dc.lft.to/lastmile_qr_scan"}, "is_disabled": 0, "bike_id": "19cbceedd83e4954ab93f51ee86da2e1", "fusion_lon": 0.0, "fusion_lat": 0.0, "is_reserved": 0, "type": "electric_scooter", "lon": -76.99829266666667, "name": "19cbceedd83e4954ab93f51ee86da2e1", "lat": 38.90027516666667}, {"rental_uris": {"ios": "https://dc.lft.to/lastmile_qr_scan", "android": "https://dc.lft.to/lastmile_qr_scan"}, "is_disabled": 0, "bike_id": "b4ce3da73d000a22dc7e582d7ad772ef", "fusion_lon": 0.0, "fusion_lat": 0.0, "is_reserved": 0, "type": "electric_bike", "lon": -77.02617483333333, "name": "b4ce3da73d000a22dc7e582d7ad772ef", "lat": 38.9693175}, {"rental_uris": {"ios": "https://dc.lft.to/lastmile_qr_scan", "android": "https://dc.lft.to/lastmile_qr_scan"}, "is_disabled": 0, "bike_id": "753d7c49b941ef0c8ad642f298a78154", "fusion_lon": 0.0, "fusion_lat": 0.0, "is_reserved": 0, "type": "electric_bike", "lon": -77.11801, "name": "753d7c49b941ef0c8ad642f298a78154", "lat": 38.87377166666667}, {"rental_uris": {"ios": "https://dc.lft.to/lastmile_qr_scan", "android": "https://dc.lft.to/lastmile_qr_scan"}, "is_disabled": 0, "bike_id": "89b667c71a6effa72ca514472e567115", "fusion_lon": 0.0, "fusion_lat": 0.0, "is_reserved": 0, "type": "electric_scooter", "lon": -77.03758683333334, "name": "89b667c71a6effa72ca514472e567115", "lat": 38.906771666666664}, {"rental_uris": {"ios": "https://dc.lft.to/lastmile_qr_scan", "android": "https://dc.lft.to/lastmile_qr_scan"}, "is_disabled": 0, "bike_id": "ecc3dd83a29ce659db5f6df5230222ca", "fusion_lon": 0.0, "fusion_lat": 0.0, "is_reserved": 0, "type": "electric_scooter", "lon": -76.96527283333333, "name": "ecc3dd83a29ce659db5f6df5230222ca", "lat": 38.87629116666667}, {"rental_uris": {"ios": "https://dc.lft.to/lastmile_qr_scan", "android": "https://dc.lft.to/lastmile_qr_scan"}, "is_disabled": 0, "bike_id": "515f2cf4714339d17dfb28a4cf6aaa15", "fusion_lon": 0.0, "fusion_lat": 0.0, "is_reserved": 0, "type": "electric_scooter", "lon": -77.031654, "name": "515f2cf4714339d17dfb28a4cf6aaa15", "lat": 38.89616766666666}, {"rental_uris": {"ios": "https://dc.lft.to/lastmile_qr_scan", "android": "https://dc.lft.to/lastmile_qr_scan"}, "is_disabled": 0, "bike_id": "9e51e7f65a52ecd07323a3268dbc88da", "fusion_lon": 0.0, "fusion_lat": 0.0, "is_reserved": 0, "type": "electric_scooter", "lon": -77.05490433333334, "name": "9e51e7f65a52ecd07323a3268dbc88da", "lat": 38.90939733333333}, {"rental_uris": {"ios": "https://dc.lft.to/lastmile_qr_scan", "android": "https://dc.lft.to/lastmile_qr_scan"}, "is_disabled": 0, "bike_id": "7ea371bfcf7540df78791ad35fc4a008", "fusion_lon": 0.0, "fusion_lat": 0.0, "is_reserved": 0, "type": "electric_bike", "lon": -77.047354, "name": "7ea371bfcf7540df78791ad35fc4a008", "lat": 38.9019915}, {"rental_uris": {"ios": "https://dc.lft.to/lastmile_qr_scan", "android": "https://dc.lft.to/lastmile_qr_scan"}, "is_disabled": 0, "bike_id": "eb3742ad6326ad8ab6535af5c6b9f264", "fusion_lon": 0.0, "fusion_lat": 0.0, "is_reserved": 0, "type": "electric_scooter", "lon": -76.96528383333333, "name": "eb3742ad6326ad8ab6535af5c6b9f264", "lat": 38.87633616666667}, {"rental_uris": {"ios": "https://dc.lft.to/lastmile_qr_scan", "android": "https://dc.lft.to/lastmile_qr_scan"}, "is_disabled": 0, "bike_id": "28892859dc6b4bea710148f8c8e8986d", "fusion_lon": 0.0, "fusion_lat": 0.0, "is_reserved": 0, "type": "electric_scooter", "lon": -77.04493933333333, "name": "28892859dc6b4bea710148f8c8e8986d", "lat": 38.9160295}, {"rental_uris": {"ios": "https://dc.lft.to/lastmile_qr_scan", "android": "https://dc.lft.to/lastmile_qr_scan"}, "is_disabled": 0, "bike_id": "dcbea282162661a1673908158d7cbca9", "fusion_lon": 0.0, "fusion_lat": 0.0, "is_reserved": 0, "type": "electric_scooter", "lon": -77.037358, "name": "dcbea282162661a1673908158d7cbca9", "lat": 38.881823833333335}, {"rental_uris": {"ios": "https://dc.lft.to/lastmile_qr_scan", "android": "https://dc.lft.to/lastmile_qr_scan"}, "is_disabled": 0, "bike_id": "ff70e998f392066b7e122a2199f22434", "fusion_lon": 0.0, "fusion_lat": 0.0, "is_reserved": 0, "type": "electric_scooter", "lon": -77.0230235, "name": "ff70e998f392066b7e122a2199f22434", "lat": 38.917812}, {"rental_uris": {"ios": "https://dc.lft.to/lastmile_qr_scan", "android": "https://dc.lft.to/lastmile_qr_scan"}, "is_disabled": 0, "bike_id": "0fc7fd9734ea1bf1c0ee80db51fa63a2", "fusion_lon": 0.0, "fusion_lat": 0.0, "is_reserved": 0, "type": "electric_scooter", "lon": -77.05470033333333, "name": "0fc7fd9734ea1bf1c0ee80db51fa63a2", "lat": 38.896101}, {"rental_uris": {"ios": "https://dc.lft.to/lastmile_qr_scan", "android": "https://dc.lft.to/lastmile_qr_scan"}, "is_disabled": 0, "bike_id": "df4acffe8738511b96e51cb7c0eba96b", "fusion_lon": 0.0, "fusion_lat": 0.0, "is_reserved": 0, "type": "electric_scooter", "lon": -77.05759983333333, "name": "df4acffe8738511b96e51cb7c0eba96b", "lat": 38.93379316666667}, {"rental_uris": {"ios": "https://dc.lft.to/lastmile_qr_scan", "android": "https://dc.lft.to/lastmile_qr_scan"}, "is_disabled": 0, "bike_id": "9f287d9334f12e9b82417f81a3fc0724", "fusion_lon": 0.0, "fusion_lat": 0.0, "is_reserved": 0, "type": "electric_scooter", "lon": -77.0320405, "name": "9f287d9334f12e9b82417f81a3fc0724", "lat": 38.91047616666667}, {"rental_uris": {"ios": "https://dc.lft.to/lastmile_qr_scan", "android": "https://dc.lft.to/lastmile_qr_scan"}, "is_disabled": 0, "bike_id": "7bc56cdbf13b36f2c38dd669168998c8", "fusion_lon": 0.0, "fusion_lat": 0.0, "is_reserved": 0, "type": "electric_scooter", "lon": -77.04027566666667, "name": "7bc56cdbf13b36f2c38dd669168998c8", "lat": 38.917107333333334}, {"rental_uris": {"ios": "https://dc.lft.to/lastmile_qr_scan", "android": "https://dc.lft.to/lastmile_qr_scan"}, "is_disabled": 0, "bike_id": "2327c5090a8eb35bc8ca32c37b17580b", "fusion_lon": 0.0, "fusion_lat": 0.0, "is_reserved": 0, "type": "electric_scooter", "lon": -77.03436766666667, "name": "2327c5090a8eb35bc8ca32c37b17580b", "lat": 38.90344566666667}, {"rental_uris": {"ios": "https://dc.lft.to/lastmile_qr_scan", "android": "https://dc.lft.to/lastmile_qr_scan"}, "is_disabled": 0, "bike_id": "e2d4aaaafab1a54b69ad799f0c27dbde", "fusion_lon": 0.0, "fusion_lat": 0.0, "is_reserved": 0, "type": "electric_scooter", "lon": -77.02581016666667, "name": "e2d4aaaafab1a54b69ad799f0c27dbde", "lat": 38.89952516666666}, {"rental_uris": {"ios": "https://dc.lft.to/lastmile_qr_scan", "android": "https://dc.lft.to/lastmile_qr_scan"},