{"data": {"bikes": [{"lon": -77.024174, "fusion_lat": 0.0, "type": "electric_scooter", "lat": 38.879592333333335, "is_disabled": 0, "name": "cc776c25e167ba385e07193ffd01f9d9", "is_reserved": 0, "bike_id": "cc776c25e167ba385e07193ffd01f9d9", "fusion_lon": 0.0, "rental_uris": {"ios": "https://dc.lft.to/lastmile_qr_scan", "android": "https://dc.lft.to/lastmile_qr_scan"}}, {"lon": -76.98659, "fusion_lat": 0.0, "type": "electric_scooter", "lat": 38.86872116666667, "is_disabled": 0, "name": "c85b034e818d42f4ab45a7ece1d54d8e", "is_reserved": 0, "bike_id": "c85b034e818d42f4ab45a7ece1d54d8e", "fusion_lon": 0.0, "rental_uris": {"ios": "https://dc.lft.to/lastmile_qr_scan", "android": "https://dc.lft.to/lastmile_qr_scan"}}, {"lon": -76.99954116666666, "fusion_lat": 0.0, "type": "electric_scooter", "lat": 38.9235135, "is_disabled": 0, "name": "d12008a8a68fbf9ef9861afa340194a6", "is_reserved": 0, "bike_id": "d12008a8a68fbf9ef9861afa340194a6", "fusion_lon": 0.0, "rental_uris": {"ios": "https://dc.lft.to/lastmile_qr_scan", "android": "https://dc.lft.to/lastmile_qr_scan"}}, {"lon": -77.03453083333333, "fusion_lat": 0.0, "type": "electric_scooter", "lat": 38.905696666666664, "is_disabled": 0, "name": "b04e150ab7aa33ec7f57342dccdd8e77", "is_reserved": 0, "bike_id": "b04e150ab7aa33ec7f57342dccdd8e77", "fusion_lon": 0.0, "rental_uris": {"ios": "https://dc.lft.to/lastmile_qr_scan", "android": "https://dc.lft.to/lastmile_qr_scan"}}, {"lon": -76.9985075, "fusion_lat": 0.0, "type": "electric_scooter", "lat": 38.896240666666664, "is_disabled": 0, "name": "9e29c28865a1bea4bc25acc72632e207", "is_reserved": 0, "bike_id": "9e29c28865a1bea4bc25acc72632e207", "fusion_lon": 0.0, "rental_uris": {"ios": "https://dc.lft.to/lastmile_qr_scan", "android": "https://dc.lft.to/lastmile_qr_scan"}}, {"lon": -77.02693033333334, "fusion_lat": 0.0, "type": "electric_scooter", "lat": 38.92463683333333, "is_disabled": 0, "name": "99edc90ce1361332f1a5e27bf11e5be0", "is_reserved": 0, "bike_id": "99edc90ce1361332f1a5e27bf11e5be0", "fusion_lon": 0.0, "rental_uris": {"ios": "https://dc.lft.to/lastmile_qr_scan", "android": "https://dc.lft.to/lastmile_qr_scan"}}, {"lon": -77.00215566666667, "fusion_lat": 0.0, "type": "electric_scooter", "lat": 38.89262433333333, "is_disabled": 0, "name": "79938d76c4b5384d5ff08f345059bcea", "is_reserved": 0, "bike_id": "79938d76c4b5384d5ff08f345059bcea", "fusion_lon": 0.0, "rental_uris": {"ios": "https://dc.lft.to/lastmile_qr_scan", "android": "https://dc.lft.to/lastmile_qr_scan"}}, {"lon": -77.00577616666666, "fusion_lat": 0.0, "type": "electric_scooter", "lat": 38.8859445, "is_disabled": 0, "name": "7e1f62ca742c0970d489d1a5ccf3b16a", "is_reserved": 0, "bike_id": "7e1f62ca742c0970d489d1a5ccf3b16a", "fusion_lon": 0.0, "rental_uris": {"ios": "https://dc.lft.to/lastmile_qr_scan", "android": "https://dc.lft.to/lastmile_qr_scan"}}, {"lon": -77.01744766666667, "fusion_lat": 0.0, "type": "electric_scooter", "lat": 38.88733383333334, "is_disabled": 0, "name": "a234211a5cbfc02d2cd9944f3673d185", "is_reserved": 0, "bike_id": "a234211a5cbfc02d2cd9944f3673d185", "fusion_lon": 0.0, "rental_uris": {"ios": "https://dc.lft.to/lastmile_qr_scan", "android": "https://dc.lft.to/lastmile_qr_scan"}}, {"lon": -77.04536866666666, "fusion_lat": 0.0, "type": "electric_scooter", "lat": 38.905751, "is_disabled": 0, "name": "2400fd9cf0e9a77f593c290ce13dbabe", "is_reserved": 0, "bike_id": "2400fd9cf0e9a77f593c290ce13dbabe", "fusion_lon": 0.0, "rental_uris": {"ios": "https://dc.lft.to/lastmile_qr_scan", "android": "https://dc.lft.to/lastmile_qr_scan"}}, {"lon": -77.0163865, "fusion_lat": 0.0, "type": "electric_scooter", "lat": 38.928945666666664, "is_disabled": 0, "name": "8a5f7cf1ed6c84a680f852642a4e5429", "is_reserved": 0, "bike_id": "8a5f7cf1ed6c84a680f852642a4e5429", "fusion_lon": 0.0, "rental_uris": {"ios": "https://dc.lft.to/lastmile_qr_scan", "android": "https://dc.lft.to/lastmile_qr_scan"}}, {"lon": -77.04225966666667, "fusion_lat": 0.0, "type": "electric_scooter", "lat": 38.9014325, "is_disabled": 0, "name": "3b47c35d6080c196ea4ba60782988423", "is_reserved": 0, "bike_id": "3b47c35d6080c196ea4ba60782988423", "fusion_lon": 0.0, "rental_uris": {"ios": "https://dc.lft.to/lastmile_qr_scan", "android": "https://dc.lft.to/lastmile_qr_scan"}}, {"lon": -77.0499975, "fusion_lat": 0.0, "type": "electric_scooter", "lat": 38.901065, "is_disabled": 0, "name": "90d54e6f5a77061f0860b3f7208564a3", "is_reserved": 0, "bike_id": "90d54e6f5a77061f0860b3f7208564a3", "fusion_lon": 0.0, "rental_uris": {"ios": "https://dc.lft.to/lastmile_qr_scan", "android": "https://dc.lft.to/lastmile_qr_scan"}}, {"lon": -77.023009, "fusion_lat": 0.0, "type": "electric_scooter", "lat": 38.91707383333333, "is_disabled": 0, "name": "fa7772ccb60e349e54b1aed70a9bc56c", "is_reserved": 0, "bike_id": "fa7772ccb60e349e54b1aed70a9bc56c", "fusion_lon": 0.0, "rental_uris": {"ios": "https://dc.lft.to/lastmile_qr_scan", "android": "https://dc.lft.to/lastmile_qr_scan"}}, {"lon": -76.991158, "fusion_lat": 0.0, "type": "electric_scooter", "lat": 38.8970915, "is_disabled": 0, "name": "9357c5ed8cb663c9b9e040e88bbb1a7e", "is_reserved": 0, "bike_id": "9357c5ed8cb663c9b9e040e88bbb1a7e", "fusion_lon": 0.0, "rental_uris": {"ios": "https://dc.lft.to/lastmile_qr_scan", "android": "https://dc.lft.to/lastmile_qr_scan"}}, {"lon": -76.989099, "fusion_lat": 0.0, "type": "electric_scooter", "lat": 38.90027633333333, "is_disabled": 0, "name": "d25264cafc13f5443b2ea02ea5476e86", "is_reserved": 0, "bike_id": "d25264cafc13f5443b2ea02ea5476e86", "fusion_lon": 0.0, "rental_uris": {"ios": "https://dc.lft.to/lastmile_qr_scan", "android": "https://dc.lft.to/lastmile_qr_scan"}}, {"lon": -77.0212115, "fusion_lat": 0.0, "type": "electric_scooter", "lat": 38.92375633333333, "is_disabled": 0, "name": "bc762a996ea83f25e89d9365f2902fc9", "is_reserved": 0, "bike_id": "bc762a996ea83f25e89d9365f2902fc9", "fusion_lon": 0.0, "rental_uris": {"ios": "https://dc.lft.to/lastmile_qr_scan", "android": "https://dc.lft.to/lastmile_qr_scan"}}, {"lon": -77.02810916666667, "fusion_lat": 0.0, "type": "electric_scooter", "lat": 38.898119333333334, "is_disabled": 0, "name": "8d835f03494cc9614d8a3852a651d14d", "is_reserved": 0, "bike_id": "8d835f03494cc9614d8a3852a651d14d", "fusion_lon": 0.0, "rental_uris": {"ios": "https://dc.lft.to/lastmile_qr_scan", "android": "https://dc.lft.to/lastmile_qr_scan"}}, {"lon": -77.1346035, "fusion_lat": 0.0, "type": "electric_bike", "lat": 39.09432666666667, "is_disabled": 0, "name": "6a313d5aa02d1373af52caece5a43dc2", "is_reserved": 0, "bike_id": "6a313d5aa02d1373af52caece5a43dc2", "fusion_lon": 0.0, "rental_uris": {"ios": "https://dc.lft.to/lastmile_qr_scan", "android": "https://dc.lft.to/lastmile_qr_scan"}}, {"lon": -77.02393066666667, "fusion_lat": 0.0, "type": "electric_scooter", "lat": 38.91603333333333, "is_disabled": 0, "name": "44ab0b7e61b8cac0446212b2f69d01ab", "is_reserved": 0, "bike_id": "44ab0b7e61b8cac0446212b2f69d01ab", "fusion_lon": 0.0, "rental_uris": {"ios": "https://dc.lft.to/lastmile_qr_scan", "android": "https://dc.lft.to/lastmile_qr_scan"}}, {"lon": -77.04504483333334, "fusion_lat": 0.0, "type": "electric_scooter", "lat": 38.90021183333333, "is_disabled": 0, "name": "3cfd6152c592f9dfe2a9a71b8c99aa5b", "is_reserved": 0, "bike_id": "3cfd6152c592f9dfe2a9a71b8c99aa5b", "fusion_lon": 0.0, "rental_uris": {"ios": "https://dc.lft.to/lastmile_qr_scan", "android": "https://dc.lft.to/lastmile_qr_scan"}}, {"lon": -77.06003683333333, "fusion_lat": 0.0, "type": "electric_scooter", "lat": 38.93636866666667, "is_disabled": 0, "name": "a22f98b0162e6a4a3e2782e6ca5c50c5", "is_reserved": 0, "bike_id": "a22f98b0162e6a4a3e2782e6ca5c50c5", "fusion_lon": 0.0, "rental_uris": {"ios": "https://dc.lft.to/lastmile_qr_scan", "android": "https://dc.lft.to/lastmile_qr_scan"}}, {"lon": -77.03201566666667, "fusion_lat": 0.0, "type": "electric_scooter", "lat": 38.9157245, "is_disabled": 0, "name": "1a34ab2909ff7586cb588854dbd26ca1", "is_reserved": 0, "bike_id": "1a34ab2909ff7586cb588854dbd26ca1", "fusion_lon": 0.0, "rental_uris": {"ios": "https://dc.lft.to/lastmile_qr_scan", "android": "https://dc.lft.to/lastmile_qr_scan"}}, {"lon": -77.048562, "fusion_lat": 0.0, "type": "electric_scooter", "lat": 38.906529666666664, "is_disabled": 0, "name": "bc95ad7e67c2dd9ed273345b6b99f2a7", "is_reserved": 0, "bike_id": "bc95ad7e67c2dd9ed273345b6b99f2a7", "fusion_lon": 0.0, "rental_uris": {"ios": "https://dc.lft.to/lastmile_qr_scan", "android": "https://dc.lft.to/lastmile_qr_scan"}}, {"lon": -77.02783083333334, "fusion_lat": 0.0, "type": "electric_scooter", "lat": 38.961875166666665, "is_disabled": 0, "name": "72bf006d7d120560bbc7ccf5cc20ee86", "is_reserved": 0, "bike_id": "72bf006d7d120560bbc7ccf5cc20ee86", "fusion_lon": 0.0, "rental_uris": {"ios": "https://dc.lft.to/lastmile_qr_scan", "android": "https://dc.lft.to/lastmile_qr_scan"}}, {"lon": -76.9783185, "fusion_lat": 0.0, "type": "electric_scooter", "lat": 38.899110666666665, "is_disabled": 0, "name": "7dc50cecbd29badac195953b9b8955c9", "is_reserved": 0, "bike_id": "7dc50cecbd29badac195953b9b8955c9", "fusion_lon": 0.0, "rental_uris": {"ios": "https://dc.lft.to/lastmile_qr_scan", "android": "https://dc.lft.to/lastmile_qr_scan"}}, {"lon": -76.99158933333334, "fusion_lat": 0.0, "type": "electric_scooter", "lat": 38.901422, "is_disabled": 0, "name": "172eef3aea712e094a0368d05f5f1ab6", "is_reserved": 0, "bike_id": "172eef3aea712e094a0368d05f5f1ab6", "fusion_lon": 0.0, "rental_uris": {"ios": "https://dc.lft.to/lastmile_qr_scan", "android": "https://dc.lft.to/lastmile_qr_scan"}}, {"lon": -76.99637566666667, "fusion_lat": 0.0, "type": "electric_scooter", "lat": 38.88134066666667, "is_disabled": 0, "name": "aba879e7c3dc2ca028fe028aabce0929", "is_reserved": 0, "bike_id": "aba879e7c3dc2ca028fe028aabce0929", "fusion_lon": 0.0, "rental_uris": {"ios": "https://dc.lft.to/lastmile_qr_scan", "android": "https://dc.lft.to/lastmile_qr_scan"}}, {"lon": -76.97044133333333, "fusion_lat": 0.0, "type": "electric_bike", "lat": 38.95886733333333, "is_disabled": 0, "name": "b4e22c1bacdebcb2978f6e61d95674c7", "is_reserved": 0, "bike_id": "b4e22c1bacdebcb2978f6e61d95674c7", "fusion_lon": 0.0, "rental_uris": {"ios": "https://dc.lft.to/lastmile_qr_scan", "android": "https://dc.lft.to/lastmile_qr_scan"}}, {"lon": -76.9771005, "fusion_lat": 0.0, "type": "electric_scooter", "lat": 38.88832016666667, "is_disabled": 0, "name": "9c0606bf954c400a75e2bfd97462ac82", "is_reserved": 0, "bike_id": "9c0606bf954c400a75e2bfd97462ac82", "fusion_lon": 0.0, "rental_uris": {"ios": "https://dc.lft.to/lastmile_qr_scan", "android": "https://dc.lft.to/lastmile_qr_scan"}}, {"lon": -77.03826683333334, "fusion_lat": 0.0, "type": "electric_scooter", "lat": 38.93405516666667, "is_disabled": 0, "name": "5e7ea288364fa7bfaa25d5ad8d2feb33", "is_reserved": 0, "bike_id": "5e7ea288364fa7bfaa25d5ad8d2feb33", "fusion_lon": 0.0, "rental_uris": {"ios": "https://dc.lft.to/lastmile_qr_scan", "android": "https://dc.lft.to/lastmile_qr_scan"}}, {"lon": -76.99573466666666, "fusion_lat": 0.0, "type": "electric_scooter", "lat": 38.8948435, "is_disabled": 0, "name": "94f82491a58892c64a8d053f19562789", "is_reserved": 0, "bike_id": "94f82491a58892c64a8d053f19562789", "fusion_lon": 0.0, "rental_uris": {"ios": "https://dc.lft.to/lastmile_qr_scan", "android": "https://dc.lft.to/lastmile_qr_scan"}}, {"lon": -77.06187566666667, "fusion_lat": 0.0, "type": "electric_scooter", "lat": 38.93011683333334, "is_disabled": 0, "name": "4f592b2fe01fd45a521ebf71c1846241", "is_reserved": 0, "bike_id": "4f592b2fe01fd45a521ebf71c1846241", "fusion_lon": 0.0, "rental_uris": {"ios": "https://dc.lft.to/lastmile_qr_scan", "android": "https://dc.lft.to/lastmile_qr_scan"}}, {"lon": -76.998425, "fusion_lat": 0.0, "type": "electric_scooter", "lat": 38.9006035, "is_disabled": 0, "name": "0d21b09da03a4ff3a31e8f6329ff11a3", "is_reserved": 0, "bike_id": "0d21b09da03a4ff3a31e8f6329ff11a3", "fusion_lon": 0.0, "rental_uris": {"ios": "https://dc.lft.to/lastmile_qr_scan", "android": "https://dc.lft.to/lastmile_qr_scan"}}, {"lon": -77.04906016666666, "fusion_lat": 0.0, "type": "electric_scooter", "lat": 38.90529933333333, "is_disabled": 0, "name": "2cd58dda6027e58f037d3b2e40f24d28", "is_reserved": 0, "bike_id": "2cd58dda6027e58f037d3b2e40f24d28", "fusion_lon": 0.0, "rental_uris": {"ios": "https://dc.lft.to/lastmile_qr_scan", "android": "https://dc.lft.to/lastmile_qr_scan"}}, {"lon": -77.0269265, "fusion_lat": 0.0, "type": "electric_scooter", "lat": 38.912887833333336, "is_disabled": 0, "name": "9bc5ae311991abd417c358b98f0bdb91", "is_reserved": 0, "bike_id": "9bc5ae311991abd417c358b98f0bdb91", "fusion_lon": 0.0, "rental_uris": {"ios": "https://dc.lft.to/lastmile_qr_scan", "android": "https://dc.lft.to/lastmile_qr_scan"}}, {"lon": -77.0245535, "fusion_lat": 0.0, "type": "electric_scooter", "lat": 38.907689, "is_disabled": 0, "name": "8fe53398d759411414860cbedf75d318", "is_reserved": 0, "bike_id": "8fe53398d759411414860cbedf75d318", "fusion_lon": 0.0, "rental_uris": {"ios": "https://dc.lft.to/lastmile_qr_scan", "android": "https://dc.lft.to/lastmile_qr_scan"}}, {"lon": -77.01761566666667, "fusion_lat": 0.0, "type": "electric_scooter", "lat": 38.902304666666666, "is_disabled": 0, "name": "40e37ff6c90f0b4444de0a6edd4e7be4", "is_reserved": 0, "bike_id": "40e37ff6c90f0b4444de0a6edd4e7be4", "fusion_lon": 0.0, "rental_uris": {"ios": "https://dc.lft.to/lastmile_qr_scan", "android": "https://dc.lft.to/lastmile_qr_scan"}}, {"lon": -76.86845166666667, "fusion_lat": 0.0, "type": "electric_bike", "lat": 38.8938675, "is_disabled": 0, "name": "946290f1a616853f709643735246f64d", "is_reserved": 0, "bike_id": "946290f1a616853f709643735246f64d", "fusion_lon": 0.0, "rental_uris": {"ios": "https://dc.lft.to/lastmile_qr_scan", "android": "https://dc.lft.to/lastmile_qr_scan"}}, {"lon": -77.05541266666667, "fusion_lat": 0.0, "type": "electric_scooter", "lat": 38.92797766666666, "is_disabled": 0, "name": "2bf00d8c43a8ef0aee066d3f526aab91", "is_reserved": 0, "bike_id": "2bf00d8c43a8ef0aee066d3f526aab91", "fusion_lon": 0.0, "rental_uris": {"ios": "https://dc.lft.to/lastmile_qr_scan", "android": "https://dc.lft.to/lastmile_qr_scan"}}, {"lon": -77.03202983333334, "fusion_lat": 0.0, "type": "electric_scooter", "lat": 38.89962216666667, "is_disabled": 0, "name": "da9d3a234c72c4dccddca75c59d95211", "is_reserved": 0, "bike_id": "da9d3a234c72c4dccddca75c59d95211", "fusion_lon": 0.0, "rental_uris": {"ios": "https://dc.lft.to/lastmile_qr_scan", "android": "https://dc.lft.to/lastmile_qr_scan"}}, {"lon": -77.0420625, "fusion_lat": 0.0, "type": "electric_scooter", "lat": 38.919219166666664, "is_disabled": 0, "name": "faaa283f73883243913d3fc6ee0b6e1a", "is_reserved": 0, "bike_id": "faaa283f73883243913d3fc6ee0b6e1a", "fusion_lon": 0.0, "rental_uris": {"ios": "https://dc.lft.to/lastmile_qr_scan", "android": "https://dc.lft.to/lastmile_qr_scan"}}, {"lon": -77.02594983333333, "fusion_lat": 0.0, "type": "electric_scooter", "lat": 38.91691133333333, "is_disabled": 0, "name": "665ac7ac4968474f1d3c80727e11cca8", "is_reserved": 0, "bike_id": "665ac7ac4968474f1d3c80727e11cca8", "fusion_lon": 0.0, "rental_uris": {"ios": "https://dc.lft.to/lastmile_qr_scan", "android": "https://dc.lft.to/lastmile_qr_scan"}}, {"lon": -77.02019666666666, "fusion_lat": 0.0, "type": "electric_scooter", "lat": 38.8767845, "is_disabled": 0, "name": "13da61effd4f5a5c63a7df1304609866", "is_reserved": 0, "bike_id": "13da61effd4f5a5c63a7df1304609866", "fusion_lon": 0.0, "rental_uris": {"ios": "https://dc.lft.to/lastmile_qr_scan", "android": "https://dc.lft.to/lastmile_qr_scan"}}, {"lon": -77.03112083333333, "fusion_lat": 0.0, "type": "electric_scooter", "lat": 38.89532583333333, "is_disabled": 0, "name": "4ae33d2258f4ffa1c94aab57050ac7dd", "is_reserved": 0, "bike_id": "4ae33d2258f4ffa1c94aab57050ac7dd", "fusion_lon": 0.0, "rental_uris": {"ios": "https://dc.lft.to/lastmile_qr_scan", "android": "https://dc.lft.to/lastmile_qr_scan"}}, {"lon": -76.98213183333333, "fusion_lat": 0.0, "type": "electric_scooter", "lat": 38.899337833333334, "is_disabled": 0, "name": "99a981c77be5193859bb01fd9805d887", "is_reserved": 0, "bike_id": "99a981c77be5193859bb01fd9805d887", "fusion_lon": 0.0, "rental_uris": {"ios": "https://dc.lft.to/lastmile_qr_scan", "android": "https://dc.lft.to/lastmile_qr_scan"}}, {"lon": -77.02313316666667, "fusion_lat": 0.0, "type": "electric_scooter", "lat": 38.920599, "is_disabled": 0, "name": "884bead644569bc1f2f2f8a8da293031", "is_reserved": 0, "bike_id": "884bead644569bc1f2f2f8a8da293031", "fusion_lon": 0.0, "rental_uris": {"ios": "https://dc.lft.to/lastmile_qr_scan", "android": "https://dc.lft.to/lastmile_qr_scan"}}, {"lon": -77.040731, "fusion_lat": 0.0, "type": "electric_scooter", "lat": 38.92635816666667, "is_disabled": 0, "name": "61c86d4695f31844e1b5a26b3af2e255", "is_reserved": 0, "bike_id": "61c86d4695f31844e1b5a26b3af2e255", "fusion_lon": 0.0, "rental_uris": {"ios": "https://dc.lft.to/lastmile_qr_scan", "android": "https://dc.lft.to/lastmile_qr_scan"}}, {"lon": -76.9374655, "fusion_lat": 0.0, "type": "electric_scooter", "lat": 38.890418, "is_disabled": 0, "name": "5b2cb2721e3be2e936904a806e61835d", "is_reserved": 0, "bike_id": "5b2cb2721e3be2e936904a806e61835d", "fusion_lon": 0.0, "rental_uris": {"ios": "https://dc.lft.to/lastmile_qr_scan", "android": "https://dc.lft.to/lastmile_qr_scan"}}, {"lon": -77.030768, "fusion_lat": 0.0, "type": "electric_scooter", "lat": 38.92243, "is_disabled": 0, "name": "e45a146365db3be93ee4ec4bab1b6046", "is_reserved": 0, "bike_id": "e45a146365db3be93ee4ec4bab1b6046", "fusion_lon": 0.0, "rental_uris": {"ios": "https://dc.lft.to/lastmile_qr_scan", "android": "https://dc.lft.to/lastmile_qr_scan"}}, {"lon": -77.0482025, "fusion_lat": 0.0, "type": "electric_scooter", "lat": 38.909698, "is_disabled": 0, "name": "07ef2d0b9850af82dd4cd105a90b6105", "is_reserved": 0, "bike_id": "07ef2d0b9850af82dd4cd105a90b6105", "fusion_lon": 0.0, "rental_uris": {"ios": "https://dc.lft.to/lastmile_qr_scan", "android": "https://dc.lft.to/lastmile_qr_scan"}}, {"lon": -77.00407883333334, "fusion_lat": 0.0, "type": "electric_scooter", "lat": 38.92947483333333, "is_disabled": 0, "name": "85be08669fa2c23ed73a4dff97b2fc5a", "is_reserved": 0, "bike_id": "85be08669fa2c23ed73a4dff97b2fc5a", "fusion_lon": 0.0, "rental_uris": {"ios": "https://dc.lft.to/lastmile_qr_scan", "android": "https://dc.lft.to/lastmile_qr_scan"}}, {"lon": -77.0218005, "fusion_lat": 0.0, "type": "electric_scooter", "lat": 38.887160333333334, "is_disabled": 0, "name": "3084fdd067545f1d7cda9389ac5d634d", "is_reserved": 0, "bike_id": "3084fdd067545f1d7cda9389ac5d634d", "fusion_lon": 0.0, "rental_uris": {"ios": "https://dc.lft.to/lastmile_qr_scan", "android": "https://dc.lft.to/lastmile_qr_scan"}}, {"lon": -77.02310533333333, "fusion_lat": 0.0, "type": "electric_scooter", "lat": 38.92072533333333, "is_disabled": 0, "name": "69a0619e329e82b03f127d6bb57ab0c5", "is_reserved": 0, "bike_id": "69a0619e329e82b03f127d6bb57ab0c5", "fusion_lon": 0.0, "rental_uris": {"ios": "https://dc.lft.to/lastmile_qr_scan", "android": "https://dc.lft.to/lastmile_qr_scan"}}, {"lon": -77.021613, "fusion_lat": 0.0, "type": "electric_scooter", "lat": 38.892209666666666, "is_disabled": 0, "name": "0517d8a72ea9a8f640e4d7d0ddfe2849", "is_reserved": 0, "bike_id": "0517d8a72ea9a8f640e4d7d0ddfe2849", "fusion_lon": 0.0, "rental_uris": {"ios": "https://dc.lft.to/lastmile_qr_scan", "android": "https://dc.lft.to/lastmile_qr_scan"}}, {"lon": -77.00991033333334, "fusion_lat": 0.0, "type": "electric_scooter", "lat": 38.8947075, "is_disabled": 0, "name": "23f021f575430c66c9c837e05388d8f4", "is_reserved": 0, "bike_id": "23f021f575430c66c9c837e05388d8f4", "fusion_lon": 0.0, "rental_uris": {"ios": "https://dc.lft.to/lastmile_qr_scan", "android": "https://dc.lft.to/lastmile_qr_scan"}}, {"lon": -77.02115466666666, "fusion_lat": 0.0, "type": "electric_scooter", "lat": 38.923654666666664, "is_disabled": 0, "name": "73fc831cdae357301426debf8252ae9e", "is_reserved": 0, "bike_id": "73fc831cdae357301426debf8252ae9e", "fusion_lon": 0.0, "rental_uris": {"ios": "https://dc.lft.to/lastmile_qr_scan", "android": "https://dc.lft.to/lastmile_qr_scan"}}, {"lon": -76.98354266666666, "fusion_lat": 0.0, "type": "electric_scooter", "lat": 38.887254666666664, "is_disabled": 0, "name": "6a255d3cec2c4b2de9b7f33ce847ebf8", "is_reserved": 0, "bike_id": "6a255d3cec2c4b2de9b7f33ce847ebf8", "fusion_lon": 0.0, "rental_uris": {"ios": "https://dc.lft.to/lastmile_qr_scan", "android": "https://dc.lft.to/lastmile_qr_scan"}}, {"lon": -77.02656683333333, "fusion_lat": 0.0, "type": "electric_scooter", "lat": 38.92208216666667, "is_disabled": 0, "name": "aa491c69cb5d02fc8354bff8696cb5d6", "is_reserved": 0, "bike_id": "aa491c69cb5d02fc8354bff8696cb5d6", "fusion_lon": 0.0, "rental_uris": {"ios": "https://dc.lft.to/lastmile_qr_scan", "android": "https://dc.lft.to/lastmile_qr_scan"}}, {"lon": -77.02513183333333, "fusion_lat": 0.0, "type": "electric_scooter", "lat": 38.892319, "is_disabled": 0, "name": "b7a14f4c03953b7c494720c4c914318c", "is_reserved": 0, "bike_id": "b7a14f4c03953b7c494720c4c914318c", "fusion_lon": 0.0, "rental_uris": {"ios": "https://dc.lft.to/lastmile_qr_scan", "android": "https://dc.lft.to/lastmile_qr_scan"}}, {"lon": -77.04344116666667, "fusion_lat": 0.0, "type": "electric_scooter", "lat": 38.9061595, "is_disabled": 0, "name": "8929a904b8a943048fe9fd91a85172bb", "is_reserved": 0, "bike_id": "8929a904b8a943048fe9fd91a85172bb", "fusion_lon": 0.0, "rental_uris": {"ios": "https://dc.lft.to/lastmile_qr_scan", "android": "https://dc.lft.to/lastmile_qr_scan"}}, {"lon": -77.00281133333333, "fusion_lat": 0.0, "type": "electric_scooter", "lat": 38.88611266666667, "is_disabled": 0, "name": "4e8eda69ebed0132da12da634f5a65f9", "is_reserved": 0, "bike_id": "4e8eda69ebed0132da12da634f5a65f9", "fusion_lon": 0.0, "rental_uris": {"ios": "https://dc.lft.to/lastmile_qr_scan", "android": "https://dc.lft.to/lastmile_qr_scan"}}, {"lon": -77.03184366666666, "fusion_lat": 0.0, "type": "electric_scooter", "lat": 38.910410666666664, "is_disabled": 0, "name": "f3c11c3f32635b805c32793c1d30c4c7", "is_reserved": 0, "bike_id": "f3c11c3f32635b805c32793c1d30c4c7", "fusion_lon": 0.0, "rental_uris": {"ios": "https://dc.lft.to/lastmile_qr_scan", "android": "https://dc.lft.to/lastmile_qr_scan"}}, {"lon": -77.059042, "fusion_lat": 0.0, "type": "electric_scooter", "lat": 38.90200633333333, "is_disabled": 0, "name": "7197154570e32e3fd2b67a1d6f2d891a", "is_reserved": 0, "bike_id": "7197154570e32e3fd2b67a1d6f2d891a", "fusion_lon": 0.0, "rental_uris": {"ios": "https://dc.lft.to/lastmile_qr_scan", "android": "https://dc.lft.to/lastmile_qr_scan"}}, {"lon": -77.022242, "fusion_lat": 0.0, "type": "electric_scooter", "lat": 38.91264316666667, "is_disabled": 0, "name": "d3d294ed8a571f509ff0257df0d537c3", "is_reserved": 0, "bike_id": "d3d294ed8a571f509ff0257df0d537c3", "fusion_lon": 0.0, "rental_uris": {"ios": "https://dc.lft.to/lastmile_qr_scan", "android": "https://dc.lft.to/lastmile_qr_scan"}}, {"lon": -77.04472783333334, "fusion_lat": 0.0, "type": "electric_scooter", "lat": 38.8952895, "is_disabled": 0, "name": "62bbb8982cc40d8d5df42a813deafbd2", "is_reserved": 0, "bike_id": "62bbb8982cc40d8d5df42a813deafbd2", "fusion_lon": 0.0, "rental_uris": {"ios": "https://dc.lft.to/lastmile_qr_scan", "android": "https://dc.lft.to/lastmile_qr_scan"}}, {"lon": -77.05518933333333, "fusion_lat": 0.0, "type": "electric_scooter", "lat": 38.9441975, "is_disabled": 0, "name": "6d7a19bd5b3a94196ffd50a273dc4ca5", "is_reserved": 0, "bike_id": "6d7a19bd5b3a94196ffd50a273dc4ca5", "fusion_lon": 0.0, "rental_uris": {"ios": "https://dc.lft.to/lastmile_qr_scan", "android": "https://dc.lft.to/lastmile_qr_scan"}}, {"lon": -77.02680983333333, "fusion_lat": 0.0, "type": "electric_scooter", "lat": 38.89448216666667, "is_disabled": 0, "name": "611a257daef62b392e1ca64f0f5ab0f6", "is_reserved": 0, "bike_id": "611a257daef62b392e1ca64f0f5ab0f6", "fusion_lon": 0.0, "rental_uris": {"ios": "https://dc.lft.to/lastmile_qr_scan", "android": "https://dc.lft.to/lastmile_qr_scan"}}, {"lon": -77.049554, "fusion_lat": 0.0, "type": "electric_scooter", "lat": 38.905389166666666, "is_disabled": 0, "name": "782164d2f091bcc6ed0e443c6a8fc2b0", "is_reserved": 0, "bike_id": "782164d2f091bcc6ed0e443c6a8fc2b0", "fusion_lon": 0.0, "rental_uris": {"ios": "https://dc.lft.to/lastmile_qr_scan", "android": "https://dc.lft.to/lastmile_qr_scan"}}, {"lon": -77.00378733333334, "fusion_lat": 0.0, "type": "electric_scooter", "lat": 38.9071595, "is_disabled": 0, "name": "d108c5851034f2490d93307faeef76db", "is_reserved": 0, "bike_id": "d108c5851034f2490d93307faeef76db", "fusion_lon": 0.0, "rental_uris": {"ios": "https://dc.lft.to/lastmile_qr_scan", "android": "https://dc.lft.to/lastmile_qr_scan"}}, {"lon": -77.01950533333333, "fusion_lat": 0.0, "type": "electric_scooter", "lat": 38.923275333333336, "is_disabled": 0, "name": "382ecada52960597921bc84ef3bc5fa1", "is_reserved": 0, "bike_id": "382ecada52960597921bc84ef3bc5fa1", "fusion_lon": 0.0, "rental_uris": {"ios": "https://dc.lft.to/lastmile_qr_scan", "android": "https://dc.lft.to/lastmile_qr_scan"}}, {"lon": -77.03940716666666, "fusion_lat": 0.0, "type": "electric_scooter", "lat": 38.93059983333333, "is_disabled": 0, "name": "075b091a3e884afa1a023ca2f39acf8f", "is_reserved": 0, "bike_id": "075b091a3e884afa1a023ca2f39acf8f", "fusion_lon": 0.0, "rental_uris": {"ios": "https://dc.lft.to/lastmile_qr_scan", "android": "https://dc.lft.to/lastmile_qr_scan"}}, {"lon": -76.95049383333334, "fusion_lat": 0.0, "type": "electric_bike", "lat": 39.08493133333333, "is_disabled": 0, "name": "59c07360bb6d1aa5d0d578e3529e0f9a", "is_reserved": 0, "bike_id": "59c07360bb6d1aa5d0d578e3529e0f9a", "fusion_lon": 0.0, "rental_uris": {"ios": "https://dc.lft.to/lastmile_qr_scan", "android": "https://dc.lft.to/lastmile_qr_scan"}}, {"lon": -77.00316283333333, "fusion_lat": 0.0, "type": "electric_scooter", "lat": 38.88990666666667, "is_disabled": 0, "name": "3b34468d326cfc9b45cef6353ca067c2", "is_reserved": 0, "bike_id": "3b34468d326cfc9b45cef6353ca067c2", "fusion_lon": 0.0, "rental_uris": {"ios": "https://dc.lft.to/lastmile_qr_scan", "android": "https://dc.lft.to/lastmile_qr_scan"}}, {"lon": -76.95769233333333, "fusion_lat": 0.0, "type": "electric_scooter", "lat": 38.884423166666664, "is_disabled": 0, "name": "8e943dd145d7d77c3f26872cc7fdb1c7", "is_reserved": 0, "bike_id": "8e943dd145d7d77c3f26872cc7fdb1c7", "fusion_lon": 0.0, "rental_uris": {"ios": "https://dc.lft.to/lastmile_qr_scan", "android": "https://dc.lft.to/lastmile_qr_scan"}}, {"lon": -77.0345465, "fusion_lat": 0.0, "type": "electric_scooter", "lat": 38.9041705, "is_disabled": 0, "name": "484ccea52d91e8e967382bb14d691f34", "is_reserved": 0, "bike_id": "484ccea52d91e8e967382bb14d691f34", "fusion_lon": 0.0, "rental_uris": {"ios": "https://dc.lft.to/lastmile_qr_scan", "android": "https://dc.lft.to/lastmile_qr_scan"}}, {"lon": -77.0247405, "fusion_lat": 0.0, "type": "electric_scooter", "lat": 38.918129666666665, "is_disabled": 0, "name": "5db298c0c3c45a2869d4ed9833143a02", "is_reserved": 0, "bike_id": "5db298c0c3c45a2869d4ed9833143a02", "fusion_lon": 0.0, "rental_uris": {"ios": "https://dc.lft.to/lastmile_qr_scan", "android": "https://dc.lft.to/lastmile_qr_scan"}}, {"lon": -77.04076866666666, "fusion_lat": 0.0, "type": "electric_scooter", "lat": 38.896136, "is_disabled": 0, "name": "966c72aa8b328619fe5303ea87d46fc1", "is_reserved": 0, "bike_id": "966c72aa8b328619fe5303ea87d46fc1", "fusion_lon": 0.0, "rental_uris": {"ios": "https://dc.lft.to/lastmile_qr_scan", "android": "https://dc.lft.to/lastmile_qr_scan"}}, {"lon": -76.96905483333333, "fusion_lat": 0.0, "type": "electric_scooter", "lat": 38.865245, "is_disabled": 0, "name": "e961b9575cacf7944b3b4d081fc50c1d", "is_reserved": 0, "bike_id": "e961b9575cacf7944b3b4d081fc50c1d", "fusion_lon": 0.0, "rental_uris": {"ios": "https://dc.lft.to/lastmile_qr_scan", "android": "https://dc.lft.to/lastmile_qr_scan"}}, {"lon": -77.03338866666667, "fusion_lat": 0.0, "type": "electric_scooter", "lat": 38.89223766666667, "is_disabled": 0, "name": "10e733136a6f72c017bc3e2d5f441507", "is_reserved": 0, "bike_id": "10e733136a6f72c017bc3e2d5f441507", "fusion_lon": 0.0, "rental_uris": {"ios": "https://dc.lft.to/lastmile_qr_scan", "android": "https://dc.lft.to/lastmile_qr_scan"}}, {"lon": -77.03948733333333, "fusion_lat": 0.0, "type": "electric_scooter", "lat": 38.90726433333333, "is_disabled": 0, "name": "1d7f01681783eb3864f51b888c928033", "is_reserved": 0, "bike_id": "1d7f01681783eb3864f51b888c928033", "fusion_lon": 0.0, "rental_uris": {"ios": "https://dc.lft.to/lastmile_qr_scan", "android": "https://dc.lft.to/lastmile_qr_scan"}}, {"lon": -77.04340933333333, "fusion_lat": 0.0, "type": "electric_scooter", "lat": 38.90517416666667, "is_disabled": 0, "name": "3d7ed43b015d2a0ea3d51d5f7811aead", "is_reserved": 0, "bike_id": "3d7ed43b015d2a0ea3d51d5f7811aead", "fusion_lon": 0.0, "rental_uris": {"ios": "https://dc.lft.to/lastmile_qr_scan", "android": "https://dc.lft.to/lastmile_qr_scan"}}, {"lon": -77.02791633333334, "fusion_lat": 0.0, "type": "electric_scooter", "lat": 38.96119483333333, "is_disabled": 0, "name": "f6506756194ca6959c21c22ce450b787", "is_reserved": 0, "bike_id": "f6506756194ca6959c21c22ce450b787", "fusion_lon": 0.0, "rental_uris": {"ios": "https://dc.lft.to/lastmile_qr_scan", "android": "https://dc.lft.to/lastmile_qr_scan"}}, {"lon": -77.02662233333334, "fusion_lat": 0.0, "type": "electric_scooter", "lat": 38.93101266666667, "is_disabled": 0, "name": "16277236d7d997e87f17682dbe14bcc4", "is_reserved": 0, "bike_id": "16277236d7d997e87f17682dbe14bcc4", "fusion_lon": 0.0, "rental_uris": {"ios": "https://dc.lft.to/lastmile_qr_scan", "android": "https://dc.lft.to/lastmile_qr_scan"}}, {"lon": -77.05023216666666, "fusion_lat": 0.0, "type": "electric_scooter", "lat": 38.9072905, "is_disabled": 0, "name": "3c96be57c8ec2bb962720074c42ef3bc", "is_reserved": 0, "bike_id": "3c96be57c8ec2bb962720074c42ef3bc", "fusion_lon": 0.0, "rental_uris": {"ios": "https://dc.lft.to/lastmile_qr_scan", "android": "https://dc.lft.to/lastmile_qr_scan"}}, {"lon": -77.026941, "fusion_lat": 0.0, "type": "electric_scooter", "lat": 38.92463883333333, "is_disabled": 0, "name": "952029fd5702ddcc514cbe0949d68bdb", "is_reserved": 0, "bike_id": "952029fd5702ddcc514cbe0949d68bdb", "fusion_lon": 0.0, "rental_uris": {"ios": "https://dc.lft.to/lastmile_qr_scan", "android": "https://dc.lft.to/lastmile_qr_scan"}}, {"lon": -77.02152983333333, "fusion_lat": 0.0, "type": "electric_scooter", "lat": 38.9259265, "is_disabled": 0, "name": "18af4fb7960439477aaf25cfdfc7b05b", "is_reserved": 0, "bike_id": "18af4fb7960439477aaf25cfdfc7b05b", "fusion_lon": 0.0, "rental_uris": {"ios": "https://dc.lft.to/lastmile_qr_scan", "android": "https://dc.lft.to/lastmile_qr_scan"}}, {"lon": -76.97601116666667, "fusion_lat": 0.0, "type": "electric_scooter", "lat": 38.899005833333334, "is_disabled": 0, "name": "180afe99830cc86c1e86d2c89c20c76d", "is_reserved": 0, "bike_id": "180afe99830cc86c1e86d2c89c20c76d", "fusion_lon": 0.0, "rental_uris": {"ios": "https://dc.lft.to/lastmile_qr_scan", "android": "https://dc.lft.to/lastmile_qr_scan"}}, {"lon": -77.03344883333334, "fusion_lat": 0.0, "type": "electric_scooter", "lat": 38.89604383333333, "is_disabled": 0, "name": "266be2b43c29d00df840c4e794888599", "is_reserved": 0, "bike_id": "266be2b43c29d00df840c4e794888599", "fusion_lon": 0.0, "rental_uris": {"ios": "https://dc.lft.to/lastmile_qr_scan", "android": "https://dc.lft.to/lastmile_qr_scan"}}, {"lon": -77.05158933333334, "fusion_lat": 0.0, "type": "electric_bike", "lat": 38.85063566666667, "is_disabled": 0, "name": "370ac79104db03c1939a4ee962f96e43", "is_reserved": 0, "bike_id": "370ac79104db03c1939a4ee962f96e43", "fusion_lon": 0.0, "rental_uris": {"ios": "https://dc.lft.to/lastmile_qr_scan", "android": "https://dc.lft.to/lastmile_qr_scan"}}, {"lon": -77.01770066666667, "fusion_lat": 0.0, "type": "electric_scooter", "lat": 38.920431666666666, "is_disabled": 0, "name": "ab0fcde49f6920651a713e0409812363", "is_reserved": 0, "bike_id": "ab0fcde49f6920651a713e0409812363", "fusion_lon": 0.0, "rental_uris": {"ios": "https://dc.lft.to/lastmile_qr_scan", "android": "https://dc.lft.to/lastmile_qr_scan"}}, {"lon": -77.05595833333334, "fusion_lat": 0.0, "type": "electric_scooter", "lat": 38.93699633333333, "is_disabled": 0, "name": "31b2ef76371c4fe77f7df58bfd7b8301", "is_reserved": 0, "bike_id": "31b2ef76371c4fe77f7df58bfd7b8301", "fusion_lon": 0.0, "rental_uris": {"ios": "https://dc.lft.to/lastmile_qr_scan", "android": "https://dc.lft.to/lastmile_qr_scan"}}, {"lon": -77.03743866666667, "fusion_lat": 0.0, "type": "electric_scooter", "lat": 38.929166333333335, "is_disabled": 0, "name": "854f0b8359799305830cd67aa9a3bda3", "is_reserved": 0, "bike_id": "854f0b8359799305830cd67aa9a3bda3", "fusion_lon": 0.0, "rental_uris": {"ios": "https://dc.lft.to/lastmile_qr_scan", "android": "https://dc.lft.to/lastmile_qr_scan"}}, {"lon": -77.03084883333334, "fusion_lat": 0.0, "type": "electric_scooter", "lat": 38.927837833333335, "is_disabled": 0, "name": "b83fd18f0db28083e5672b8061913d9e", "is_reserved": 0, "bike_id": "b83fd18f0db28083e5672b8061913d9e", "fusion_lon": 0.0, "rental_uris": {"ios": "https://dc.lft.to/lastmile_qr_scan", "android": "https://dc.lft.to/lastmile_qr_scan"}}, {"lon": -77.06991766666667, "fusion_lat": 0.0, "type": "electric_scooter", "lat": 38.954896, "is_disabled": 0, "name": "69a7eb181eb32e81f475acb78617a06d", "is_reserved": 0, "bike_id": "69a7eb181eb32e81f475acb78617a06d", "fusion_lon": 0.0, "rental_uris": {"ios": "https://dc.lft.to/lastmile_qr_scan", "android": "https://dc.lft.to/lastmile_qr_scan"}}, {"lon": -77.04335366666666, "fusion_lat": 0.0, "type": "electric_scooter", "lat": 38.900553, "is_disabled": 0, "name": "98be111bd5e7659cc2594ad917dbdd20", "is_reserved": 0, "bike_id": "98be111bd5e7659cc2594ad917dbdd20", "fusion_lon": 0.0, "rental_uris": {"ios": "https://dc.lft.to/lastmile_qr_scan", "android": "https://dc.lft.to/lastmile_qr_scan"}}, {"lon": -76.988247, "fusion_lat": 0.0, "type": "electric_scooter", "lat": 38.899041833333335, "is_disabled": 0, "name": "bd856a7293d566ede542aaa93b7a971a", "is_reserved": 0, "bike_id": "bd856a7293d566ede542aaa93b7a971a", "fusion_lon": 0.0, "rental_uris": {"ios": "https://dc.lft.to/lastmile_qr_scan", "android": "https://dc.lft.to/lastmile_qr_scan"}}, {"lon": -77.01219616666667, "fusion_lat": 0.0, "type": "electric_scooter", "lat": 38.870960333333336, "is_disabled": 0, "name": "7a4854506609291533b6edd01f8a1118", "is_reserved": 0, "bike_id": "7a4854506609291533b6edd01f8a1118", "fusion_lon": 0.0, "rental_uris": {"ios": "https://dc.lft.to/lastmile_qr_scan", "android": "https://dc.lft.to/lastmile_qr_scan"}}, {"lon": -77.02604316666667, "fusion_lat": 0.0, "type": "electric_scooter", "lat": 38.92389516666667, "is_disabled": 0, "name": "a03c4920dc5049841088fc5fcd520616", "is_reserved": 0, "bike_id": "a03c4920dc5049841088fc5fcd520616", "fusion_lon": 0.0, "rental_uris": {"ios": "https://dc.lft.to/lastmile_qr_scan", "android": "https://dc.lft.to/lastmile_qr_scan"}}, {"lon": -77.01496483333334, "fusion_lat": 0.0, "type": "electric_scooter", "lat": 38.9267065, "is_disabled": 0, "name": "541d0915db1076812ac7cc9bd3c857e2", "is_reserved": 0, "bike_id": "541d0915db1076812ac7cc9bd3c857e2", "fusion_lon": 0.0, "rental_uris": {"ios": "https://dc.lft.to/lastmile_qr_scan", "android": "https://dc.lft.to/lastmile_qr_scan"}}, {"lon": -77.0056725, "fusion_lat": 0.0, "type": "electric_scooter", "lat": 38.875773333333335, "is_disabled": 0, "name": "7a0687ffd1802ac44ad928049a0135d7", "is_reserved": 0, "bike_id": "7a0687ffd1802ac44ad928049a0135d7", "fusion_lon": 0.0, "rental_uris": {"ios": "https://dc.lft.to/lastmile_qr_scan", "android": "https://dc.lft.to/lastmile_qr_scan"}}, {"lon": -77.03193366666666, "fusion_lat": 0.0, "type": "electric_scooter", "lat": 38.893220166666666, "is_disabled": 0, "name": "35e3e71f8a9cd0a9a23c824bd1258cfc", "is_reserved": 0, "bike_id": "35e3e71f8a9cd0a9a23c824bd1258cfc", "fusion_lon": 0.0, "rental_uris": {"ios": "https://dc.lft.to/lastmile_qr_scan", "android": "https://dc.lft.to/lastmile_qr_scan"}}, {"lon": -77.03219233333333, "fusion_lat": 0.0, "type": "electric_scooter", "lat": 38.91183233333334, "is_disabled": 0, "name": "b654a2554e01d5ae8cccbf8c3f5b04d2", "is_reserved": 0, "bike_id": "b654a2554e01d5ae8cccbf8c3f5b04d2", "fusion_lon": 0.0, "rental_uris": {"ios": "https://dc.lft.to/lastmile_qr_scan", "android": "https://dc.lft.to/lastmile_qr_scan"}}, {"lon": -76.997903, "fusion_lat": 0.0, "type": "electric_scooter", "lat": 38.9355345, "is_disabled": 0, "name": "9a60c9ef399dc8c02ce327513e9a37fb", "is_reserved": 0, "bike_id": "9a60c9ef399dc8c02ce327513e9a37fb", "fusion_lon": 0.0, "rental_uris": {"ios": "https://dc.lft.to/lastmile_qr_scan", "android": "https://dc.lft.to/lastmile_qr_scan"}}, {"lon": -77.00093483333333, "fusion_lat": 0.0, "type": "electric_scooter", "lat": 38.8737255, "is_disabled": 0, "name": "35244e3b01e4bba8d26f141c6698b40f", "is_reserved": 0, "bike_id": "35244e3b01e4bba8d26f141c6698b40f", "fusion_lon": 0.0, "rental_uris": {"ios": "https://dc.lft.to/lastmile_qr_scan", "android": "https://dc.lft.to/lastmile_qr_scan"}}, {"lon": -77.03644466666667, "fusion_lat": 0.0, "type": "electric_scooter", "lat": 38.90088016666667, "is_disabled": 0, "name": "d40fe09b0d36acc359079e27813becf3", "is_reserved": 0, "bike_id": "d40fe09b0d36acc359079e27813becf3", "fusion_lon": 0.0, "rental_uris": {"ios": "https://dc.lft.to/lastmile_qr_scan", "android": "https://dc.lft.to/lastmile_qr_scan"}}, {"lon": -77.03665133333334, "fusion_lat": 0.0, "type": "electric_scooter", "lat": 38.90384133333333, "is_disabled": 0, "name": "24e27ca8339f1826a1d21dcf5c250e34", "is_reserved": 0, "bike_id": "24e27ca8339f1826a1d21dcf5c250e34", "fusion_lon": 0.0, "rental_uris": {"ios": "https://dc.lft.to/lastmile_qr_scan", "android": "https://dc.lft.to/lastmile_qr_scan"}}, {"lon": -77.02779066666666, "fusion_lat": 0.0, "type": "electric_scooter", "lat": 38.902433, "is_disabled": 0, "name": "b439eb5e8785bcc1199ccc1eed83163c", "is_reserved": 0, "bike_id": "b439eb5e8785bcc1199ccc1eed83163c", "fusion_lon": 0.0, "rental_uris": {"ios": "https://dc.lft.to/lastmile_qr_scan", "android": "https://dc.lft.to/lastmile_qr_scan"}}, {"lon": -77.039156, "fusion_lat": 0.0, "type": "electric_bike", "lat": 39.035594333333336, "is_disabled": 0, "name": "a1d592c5ff599287d6e561116126d421", "is_reserved": 0, "bike_id": "a1d592c5ff599287d6e561116126d421", "fusion_lon": 0.0, "rental_uris": {"ios": "https://dc.lft.to/lastmile_qr_scan", "android": "https://dc.lft.to/lastmile_qr_scan"}}, {"lon": -77.03261916666666, "fusion_lat": 0.0, "type": "electric_scooter", "lat": 38.9281215, "is_disabled": 0, "name": "4c78702187ff4a4ea9bfbadeb24f7dcd", "is_reserved": 0, "bike_id": "4c78702187ff4a4ea9bfbadeb24f7dcd", "fusion_lon": 0.0, "rental_uris": {"ios": "https://dc.lft.to/lastmile_qr_scan", "android": "https://dc.lft.to/lastmile_qr_scan"}}, {"lon": -77.032658, "fusion_lat": 0.0, "type": "electric_scooter", "lat": 38.919222166666664, "is_disabled": 0, "name": "0ed96fed5789198085c23d98ee524435", "is_reserved": 0, "bike_id": "0ed96fed5789198085c23d98ee524435", "fusion_lon": 0.0, "rental_uris": {"ios": "https://dc.lft.to/lastmile_qr_scan", "android": "https://dc.lft.to/lastmile_qr_scan"}}, {"lon": -76.98678166666667, "fusion_lat": 0.0, "type": "electric_scooter", "lat": 38.900119333333336, "is_disabled": 0, "name": "4eb54dbb292b9dc2124e4f1f328bf894", "is_reserved": 0, "bike_id": "4eb54dbb292b9dc2124e4f1f328bf894", "fusion_lon": 0.0, "rental_uris": {"ios": "https://dc.lft.to/lastmile_qr_scan", "android": "https://dc.lft.to/lastmile_qr_scan"}}, {"lon": -77.01108883333333, "fusion_lat": 0.0, "type": "electric_scooter", "lat": 38.8948935, "is_disabled": 0, "name": "fe955b7c173acbabffe775599806040c", "is_reserved": 0, "bike_id": "fe955b7c173acbabffe775599806040c", "fusion_lon": 0.0, "rental_uris": {"ios": "https://dc.lft.to/lastmile_qr_scan", "android": "https://dc.lft.to/lastmile_qr_scan"}}, {"lon": -77.0285425, "fusion_lat": 0.0, "type": "electric_scooter", "lat": 38.9352765, "is_disabled": 0, "name": "2f5c5a2623664c6939188f00e6561595", "is_reserved": 0, "bike_id": "2f5c5a2623664c6939188f00e6561595", "fusion_lon": 0.0, "rental_uris": {"ios": "https://dc.lft.to/lastmile_qr_scan", "android": "https://dc.lft.to/lastmile_qr_scan"}}, {"lon": -77.02722783333333, "fusion_lat": 0.0, "type": "electric_scooter", "lat": 38.896511833333335, "is_disabled": 0, "name": "ca66c53f916d05e9ae72fd935aaebe1d", "is_reserved": 0, "bike_id": "ca66c53f916d05e9ae72fd935aaebe1d", "fusion_lon": 0.0, "rental_uris": {"ios": "https://dc.lft.to/lastmile_qr_scan", "android": "https://dc.lft.to/lastmile_qr_scan"}}, {"lon": -77.07105883333334, "fusion_lat": 0.0, "type": "electric_scooter", "lat": 38.919733, "is_disabled": 0, "name": "7ca8b916d2e25983a0dfbbf0943f484e", "is_reserved": 0, "bike_id": "7ca8b916d2e25983a0dfbbf0943f484e", "fusion_lon": 0.0, "rental_uris": {"ios": "https://dc.lft.to/lastmile_qr_scan", "android": "https://dc.lft.to/lastmile_qr_scan"}}, {"lon": -77.0320485, "fusion_lat": 0.0, "type": "electric_scooter", "lat": 38.89781583333333, "is_disabled": 0, "name": "77dc6b06a0a465dedc4cbea5e4492280", "is_reserved": 0, "bike_id": "77dc6b06a0a465dedc4cbea5e4492280", "fusion_lon": 0.0, "rental_uris": {"ios": "https://dc.lft.to/lastmile_qr_scan", "android": "https://dc.lft.to/lastmile_qr_scan"}}, {"lon": -77.02137616666667, "fusion_lat": 0.0, "type": "electric_scooter", "lat": 38.924123, "is_disabled": 0, "name": "925a3d5ea5e08144e347ad01f1787608", "is_reserved": 0, "bike_id": "925a3d5ea5e08144e347ad01f1787608", "fusion_lon": 0.0, "rental_uris": {"ios": "https://dc.lft.to/lastmile_qr_scan", "android": "https://dc.lft.to/lastmile_qr_scan"}}, {"lon": -77.04154883333334, "fusion_lat": 0.0, "type": "electric_scooter", "lat": 38.917439, "is_disabled": 0, "name": "d25f110ed1cda05adf4825ed265b5308", "is_reserved": 0, "bike_id": "d25f110ed1cda05adf4825ed265b5308", "fusion_lon": 0.0, "rental_uris": {"ios": "https://dc.lft.to/lastmile_qr_scan", "android": "https://dc.lft.to/lastmile_qr_scan"}}, {"lon": -77.03127283333333, "fusion_lat": 0.0, "type": "electric_scooter", "lat": 38.902552, "is_disabled": 0, "name": "77fc027642849c7c103c8392fc1eaa64", "is_reserved": 0, "bike_id": "77fc027642849c7c103c8392fc1eaa64", "fusion_lon": 0.0, "rental_uris": {"ios": "https://dc.lft.to/lastmile_qr_scan", "android": "https://dc.lft.to/lastmile_qr_scan"}}, {"lon": -76.99256783333334, "fusion_lat": 0.0, "type": "electric_bike", "lat": 38.80733266666667, "is_disabled": 0, "name": "67795e9c4ff8f34a6e598a499a72bafb", "is_reserved": 0, "bike_id": "67795e9c4ff8f34a6e598a499a72bafb", "fusion_lon": 0.0, "rental_uris": {"ios": "https://dc.lft.to/lastmile_qr_scan", "android": "https://dc.lft.to/lastmile_qr_scan"}}, {"lon": -76.93022783333333, "fusion_lat": 0.0, "type": "electric_scooter", "lat": 38.90170533333333, "is_disabled": 0, "name": "39b26a2f834cb83d1a876949f8fb5626", "is_reserved": 0, "bike_id": "39b26a2f834cb83d1a876949f8fb5626", "fusion_lon": 0.0, "rental_uris": {"ios": "https://dc.lft.to/lastmile_qr_scan", "android": "https://dc.lft.to/lastmile_qr_scan"}}, {"lon": -77.02314083333333, "fusion_lat": 0.0, "type": "electric_scooter", "lat": 38.918184, "is_disabled": 0, "name": "28b5c8385b85cb7efacb8f88b76fb5da", "is_reserved": 0, "bike_id": "28b5c8385b85cb7efacb8f88b76fb5da", "fusion_lon": 0.0, "rental_uris": {"ios": "https://dc.lft.to/lastmile_qr_scan", "android": "https://dc.lft.to/lastmile_qr_scan"}}, {"lon": -77.03164433333333, "fusion_lat": 0.0, "type": "electric_scooter", "lat": 38.90595233333333, "is_disabled": 0, "name": "b91aed16e0878d618ec4b264299ff58a", "is_reserved": 0, "bike_id": "b91aed16e0878d618ec4b264299ff58a", "fusion_lon": 0.0, "rental_uris": {"ios": "https://dc.lft.to/lastmile_qr_scan", "android": "https://dc.lft.to/lastmile_qr_scan"}}, {"lon": -77.013732, "fusion_lat": 0.0, "type": "electric_scooter", "lat": 38.8868695, "is_disabled": 0, "name": "b55282899761d37e29c85123bb4f0489", "is_reserved": 0, "bike_id": "b55282899761d37e29c85123bb4f0489", "fusion_lon": 0.0, "rental_uris": {"ios": "https://dc.lft.to/lastmile_qr_scan", "android": "https://dc.lft.to/lastmile_qr_scan"}}, {"lon": -77.02966233333333, "fusion_lat": 0.0, "type": "electric_scooter", "lat": 38.926848166666666, "is_disabled": 0, "name": "fdd8f1e538fa97b4c2b3f53b2e83a01c", "is_reserved": 0, "bike_id": "fdd8f1e538fa97b4c2b3f53b2e83a01c", "fusion_lon": 0.0, "rental_uris": {"ios": "https://dc.lft.to/lastmile_qr_scan", "android": "https://dc.lft.to/lastmile_qr_scan"}}, {"lon": -77.03737216666667, "fusion_lat": 0.0, "type": "electric_scooter", "lat": 38.87995983333333, "is_disabled": 0, "name": "e690c8cfac76cf882e511cb855327ca2", "is_reserved": 0, "bike_id": "e690c8cfac76cf882e511cb855327ca2", "fusion_lon": 0.0, "rental_uris": {"ios": "https://dc.lft.to/lastmile_qr_scan", "android": "https://dc.lft.to/lastmile_qr_scan"}}, {"lon": -77.02700566666667, "fusion_lat": 0.0, "type": "electric_scooter", "lat": 38.919909, "is_disabled": 0, "name": "a2a4449d980bfd41cadf06adfdc4ad34", "is_reserved": 0, "bike_id": "a2a4449d980bfd41cadf06adfdc4ad34", "fusion_lon": 0.0, "rental_uris": {"ios": "https://dc.lft.to/lastmile_qr_scan", "android": "https://dc.lft.to/lastmile_qr_scan"}}, {"lon": -77.03555916666667, "fusion_lat": 0.0, "type": "electric_scooter", "lat": 38.905606666666664, "is_disabled": 0, "name": "8971b897b86320e08a062db3451c1f39", "is_reserved": 0, "bike_id": "8971b897b86320e08a062db3451c1f39", "fusion_lon": 0.0, "rental_uris": {"ios": "https://dc.lft.to/lastmile_qr_scan", "android": "https://dc.lft.to/lastmile_qr_scan"}}, {"lon": -77.01220783333333, "fusion_lat": 0.0, "type": "electric_scooter", "lat": 38.89798366666667, "is_disabled": 0, "name": "4afaa4bb64a46daa0d5f0b3ed6373cbc", "is_reserved": 0, "bike_id": "4afaa4bb64a46daa0d5f0b3ed6373cbc", "fusion_lon": 0.0, "rental_uris": {"ios": "https://dc.lft.to/lastmile_qr_scan", "android": "https://dc.lft.to/lastmile_qr_scan"}}, {"lon": -77.03204183333334, "fusion_lat": 0.0, "type": "electric_scooter", "lat": 38.92976066666667, "is_disabled": 0, "name": "f79062559ef9fec7f4ed3edb0b927ed6", "is_reserved": 0, "bike_id": "f79062559ef9fec7f4ed3edb0b927ed6", "fusion_lon": 0.0, "rental_uris": {"ios": "https://dc.lft.to/lastmile_qr_scan", "android": "https://dc.lft.to/lastmile_qr_scan"}}, {"lon": -77.02626433333333, "fusion_lat": 0.0, "type": "electric_scooter", "lat": 38.892214333333335, "is_disabled": 0, "name": "187460491d2d3b5ee5ceeb800ee9bcf0", "is_reserved": 0, "bike_id": "187460491d2d3b5ee5ceeb800ee9bcf0", "fusion_lon": 0.0, "rental_uris": {"ios": "https://dc.lft.to/lastmile_qr_scan", "android": "https://dc.lft.to/lastmile_qr_scan"}}, {"lon": -77.04782, "fusion_lat": 0.0, "type": "electric_scooter", "lat": 38.900754666666664, "is_disabled": 0, "name": "ae925de3c79ac9b1b5cf2f5eb3fd7398", "is_reserved": 0, "bike_id": "ae925de3c79ac9b1b5cf2f5eb3fd7398", "fusion_lon": 0.0, "rental_uris": {"ios": "https://dc.lft.to/lastmile_qr_scan", "android": "https://dc.lft.to/lastmile_qr_scan"}}, {"lon": -77.05437333333333, "fusion_lat": 0.0, "type": "electric_bike", "lat": 38.78461266666667, "is_disabled": 0, "name": "6af71698aa4065ea9989b1ded8d42ae4", "is_reserved": 0, "bike_id": "6af71698aa4065ea9989b1ded8d42ae4", "fusion_lon": 0.0, "rental_uris": {"ios": "https://dc.lft.to/lastmile_qr_scan", "android": "https://dc.lft.to/lastmile_qr_scan"}}, {"lon": -77.0230575, "fusion_lat": 0.0, "type": "electric_scooter", "lat": 38.8964355, "is_disabled": 0, "name": "c9977e68382bee18868c6e7eb12af194", "is_reserved": 0, "bike_id": "c9977e68382bee18868c6e7eb12af194", "fusion_lon": 0.0, "rental_uris": {"ios": "https://dc.lft.to/lastmile_qr_scan", "android": "https://dc.lft.to/lastmile_qr_scan"}}, {"lon": -77.02186733333333, "fusion_lat": 0.0, "type": "electric_scooter", "lat": 38.9152925, "is_disabled": 0, "name": "6680c8c9acf6e8821628df9de1622e9f", "is_reserved": 0, "bike_id": "6680c8c9acf6e8821628df9de1622e9f", "fusion_lon": 0.0, "rental_uris": {"ios": "https://dc.lft.to/lastmile_qr_scan", "android": "https://dc.lft.to/lastmile_qr_scan"}}, {"lon": -77.00229583333333, "fusion_lat": 0.0, "type": "electric_scooter", "lat": 38.872919333333336, "is_disabled": 0, "name": "f96cc1cd834c99b96706b046403e701f", "is_reserved": 0, "bike_id": "f96cc1cd834c99b96706b046403e701f", "fusion_lon": 0.0, "rental_uris": {"ios": "https://dc.lft.to/lastmile_qr_scan", "android": "https://dc.lft.to/lastmile_qr_scan"}}, {"lon": -77.0317545, "fusion_lat": 0.0, "type": "electric_scooter", "lat": 38.9016205, "is_disabled": 0, "name": "61ff72fa470c449c5fa2b9ff1f5d96d0", "is_reserved": 0, "bike_id": "61ff72fa470c449c5fa2b9ff1f5d96d0", "fusion_lon": 0.0, "rental_uris": {"ios": "https://dc.lft.to/lastmile_qr_scan", "android": "https://dc.lft.to/lastmile_qr_scan"}}, {"lon": -77.04152133333334, "fusion_lat": 0.0, "type": "electric_scooter", "lat": 38.92350316666667, "is_disabled": 0, "name": "1f2b26b5b3522a02015a77092ea88ae1", "is_reserved": 0, "bike_id": "1f2b26b5b3522a02015a77092ea88ae1", "fusion_lon": 0.0, "rental_uris": {"ios": "https://dc.lft.to/lastmile_qr_scan", "android": "https://dc.lft.to/lastmile_qr_scan"}}, {"lon": -77.02723033333334, "fusion_lat": 0.0, "type": "electric_scooter", "lat": 38.897778333333335, "is_disabled": 0, "name": "fed83b60aab2b0908a5d49f83d9915e6", "is_reserved": 0, "bike_id": "fed83b60aab2b0908a5d49f83d9915e6", "fusion_lon": 0.0, "rental_uris": {"ios": "https://dc.lft.to/lastmile_qr_scan", "android": "https://dc.lft.to/lastmile_qr_scan"}}, {"lon": -77.02953166666667, "fusion_lat": 0.0, "type": "electric_scooter", "lat": 38.896247, "is_disabled": 0, "name": "56a11430937022a0a50de4d7c99e8988", "is_reserved": 0, "bike_id": "56a11430937022a0a50de4d7c99e8988", "fusion_lon": 0.0, "rental_uris": {"ios": "https://dc.lft.to/lastmile_qr_scan", "android": "https://dc.lft.to/lastmile_qr_scan"}}, {"lon": -77.02235666666667, "fusion_lat": 0.0, "type": "electric_scooter", "lat": 38.8785205, "is_disabled": 0, "name": "236a3dad1dff488e5685ef5083ad1f55", "is_reserved": 0, "bike_id": "236a3dad1dff488e5685ef5083ad1f55", "fusion_lon": 0.0, "rental_uris": {"ios": "https://dc.lft.to/lastmile_qr_scan", "android": "https://dc.lft.to/lastmile_qr_scan"}}, {"lon": -77.03465566666667, "fusion_lat": 0.0, "type": "electric_scooter", "lat": 38.922320666666664, "is_disabled": 0, "name": "00b0fd9214341a393d52ae4d5960451f", "is_reserved": 0, "bike_id": "00b0fd9214341a393d52ae4d5960451f", "fusion_lon": 0.0, "rental_uris": {"ios": "https://dc.lft.to/lastmile_qr_scan", "android": "https://dc.lft.to/lastmile_qr_scan"}}, {"lon": -77.01915333333334, "fusion_lat": 0.0, "type": "electric_scooter", "lat": 38.923628666666666, "is_disabled": 0, "name": "df678adc78f1f8ab553364f278d5087a", "is_reserved": 0, "bike_id": "df678adc78f1f8ab553364f278d5087a", "fusion_lon": 0.0, "rental_uris": {"ios": "https://dc.lft.to/lastmile_qr_scan", "android": "https://dc.lft.to/lastmile_qr_scan"}}, {"lon": -77.03202933333333, "fusion_lat": 0.0, "type": "electric_scooter", "lat": 38.903658166666666, "is_disabled": 0, "name": "a7cf40c772fef967dd15eb53f500f7fc", "is_reserved": 0, "bike_id": "a7cf40c772fef967dd15eb53f500f7fc", "fusion_lon": 0.0, "rental_uris": {"ios": "https://dc.lft.to/lastmile_qr_scan", "android": "https://dc.lft.to/lastmile_qr_scan"}}, {"lon": -77.00070366666667, "fusion_lat": 0.0, "type": "electric_scooter", "lat": 38.893663333333336, "is_disabled": 0, "name": "b6ffcc87a65b51fadd7b284b084090b6", "is_reserved": 0, "bike_id": "b6ffcc87a65b51fadd7b284b084090b6", "fusion_lon": 0.0, "rental_uris": {"ios": "https://dc.lft.to/lastmile_qr_scan", "android": "https://dc.lft.to/lastmile_qr_scan"}}, {"lon": -77.05808266666666, "fusion_lat": 0.0, "type": "electric_scooter", "lat": 38.9346175, "is_disabled": 0, "name": "71c80e62accc8134fbf25243be5e8a03", "is_reserved": 0, "bike_id": "71c80e62accc8134fbf25243be5e8a03", "fusion_lon": 0.0, "rental_uris": {"ios": "https://dc.lft.to/lastmile_qr_scan", "android": "https://dc.lft.to/lastmile_qr_scan"}}, {"lon": -77.0886985, "fusion_lat": 0.0, "type": "electric_bike", "lat": 38.951100333333336, "is_disabled": 0, "name": "3b13c4cb39a2d5cfe3bffcf58710ca49", "is_reserved": 0, "bike_id": "3b13c4cb39a2d5cfe3bffcf58710ca49", "fusion_lon": 0.0, "rental_uris": {"ios": "https://dc.lft.to/lastmile_qr_scan", "android": "https://dc.lft.to/lastmile_qr_scan"}}, {"lon": -77.015819, "fusion_lat": 0.0, "type": "electric_scooter", "lat": 38.916745666666664, "is_disabled": 0, "name": "1f2882d4e5fa36855f776b0842afc9fb", "is_reserved": 0, "bike_id": "1f2882d4e5fa36855f776b0842afc9fb", "fusion_lon": 0.0, "rental_uris": {"ios": "https://dc.lft.to/lastmile_qr_scan", "android": "https://dc.lft.to/lastmile_qr_scan"}}, {"lon": -77.0260635, "fusion_lat": 0.0, "type": "electric_scooter", "lat": 38.90347533333333, "is_disabled": 0, "name": "30f577caecff208db41fdcf87b37ffbf", "is_reserved": 0, "bike_id": "30f577caecff208db41fdcf87b37ffbf", "fusion_lon": 0.0, "rental_uris": {"ios": "https://dc.lft.to/lastmile_qr_scan", "android": "https://dc.lft.to/lastmile_qr_scan"}}, {"lon": -76.98400733333334, "fusion_lat": 0.0, "type": "electric_scooter", "lat": 38.9052265, "is_disabled": 0, "name": "61c955a4b78140e5c35386f0d63d3b01", "is_reserved": 0, "bike_id": "61c955a4b78140e5c35386f0d63d3b01", "fusion_lon": 0.0, "rental_uris": {"ios": "https://dc.lft.to/lastmile_qr_scan", "android": "https://dc.lft.to/lastmile_qr_scan"}}, {"lon": -77.0110395, "fusion_lat": 0.0, "type": "electric_scooter", "lat": 38.910402166666664, "is_disabled": 0, "name": "07ded453abf27e3b7856ac191c789b99", "is_reserved": 0, "bike_id": "07ded453abf27e3b7856ac191c789b99", "fusion_lon": 0.0, "rental_uris": {"ios": "https://dc.lft.to/lastmile_qr_scan", "android": "https://dc.lft.to/lastmile_qr_scan"}}, {"lon": -77.021464, "fusion_lat": 0.0, "type": "electric_scooter", "lat": 38.925880166666666, "is_disabled": 0, "name": "16a5d4f6e40a0ea1f950f58795aaa0dd", "is_reserved": 0, "bike_id": "16a5d4f6e40a0ea1f950f58795aaa0dd", "fusion_lon": 0.0, "rental_uris": {"ios": "https://dc.lft.to/lastmile_qr_scan", "android": "https://dc.lft.to/lastmile_qr_scan"}}, {"lon": -77.04153016666666, "fusion_lat": 0.0, "type": "electric_scooter", "lat": 38.90396466666667, "is_disabled": 0, "name": "98185fd19126dec6ce300a61a9e1bcca", "is_reserved": 0, "bike_id": "98185fd19126dec6ce300a61a9e1bcca", "fusion_lon": 0.0, "rental_uris": {"ios": "https://dc.lft.to/lastmile_qr_scan", "android": "https://dc.lft.to/lastmile_qr_scan"}}, {"lon": -76.99793833333334, "fusion_lat": 0.0, "type": "electric_bike", "lat": 38.95086833333333, "is_disabled": 0, "name": "ebc8cf43116ed0f26a2913d54df41aa4", "is_reserved": 0, "bike_id": "ebc8cf43116ed0f26a2913d54df41aa4", "fusion_lon": 0.0, "rental_uris": {"ios": "https://dc.lft.to/lastmile_qr_scan", "android": "https://dc.lft.to/lastmile_qr_scan"}}, {"lon": -77.046509, "fusion_lat": 0.0, "type": "electric_scooter", "lat": 38.91567283333333, "is_disabled": 0, "name": "267a60f9ddcbaedafc812bc7a6be4f00", "is_reserved": 0, "bike_id": "267a60f9ddcbaedafc812bc7a6be4f00", "fusion_lon": 0.0, "rental_uris": {"ios": "https://dc.lft.to/lastmile_qr_scan", "android": "https://dc.lft.to/lastmile_qr_scan"}}, {"lon": -77.0512955, "fusion_lat": 0.0, "type": "electric_scooter", "lat": 38.90223483333333, "is_disabled": 0, "name": "14d8472d830973707a82b3273cdde178", "is_reserved": 0, "bike_id": "14d8472d830973707a82b3273cdde178", "fusion_lon": 0.0, "rental_uris": {"ios": "https://dc.lft.to/lastmile_qr_scan", "android": "https://dc.lft.to/lastmile_qr_scan"}}, {"lon": -76.99769183333333, "fusion_lat": 0.0, "type": "electric_scooter", "lat": 38.89421933333333, "is_disabled": 0, "name": "447f8e57ee1a18d5897c8c8590b003af", "is_reserved": 0, "bike_id": "447f8e57ee1a18d5897c8c8590b003af", "fusion_lon": 0.0, "rental_uris": {"ios": "https://dc.lft.to/lastmile_qr_scan", "android": "https://dc.lft.to/lastmile_qr_scan"}}, {"lon": -77.033381, "fusion_lat": 0.0, "type": "electric_scooter", "lat": 38.89224, "is_disabled": 0, "name": "16602bd4ec623762f63976e3ac21cc62", "is_reserved": 0, "bike_id": "16602bd4ec623762f63976e3ac21cc62", "fusion_lon": 0.0, "rental_uris": {"ios": "https://dc.lft.to/lastmile_qr_scan", "android": "https://dc.lft.to/lastmile_qr_scan"}}, {"lon": -77.12833766666667, "fusion_lat": 0.0, "type": "electric_bike", "lat": 38.800532833333335, "is_disabled": 0, "name": "bcabc750cde5147950a0dac00cab23ce", "is_reserved": 0, "bike_id": "bcabc750cde5147950a0dac00cab23ce", "fusion_lon": 0.0, "rental_uris": {"ios": "https://dc.lft.to/lastmile_qr_scan", "android": "https://dc.lft.to/lastmile_qr_scan"}}, {"lon": -77.01619866666667, "fusion_lat": 0.0, "type": "electric_scooter", "lat": 38.899674833333336, "is_disabled": 0, "name": "4b0306077e7b968d062d30ed878056a9", "is_reserved": 0, "bike_id": "4b0306077e7b968d062d30ed878056a9", "fusion_lon": 0.0, "rental_uris": {"ios": "https://dc.lft.to/lastmile_qr_scan", "android": "https://dc.lft.to/lastmile_qr_scan"}}, {"lon": -77.03513766666667, "fusion_lat": 0.0, "type": "electric_scooter", "lat": 38.931075166666666, "is_disabled": 0, "name": "6a20ec4d3b4d93dbe4f53d34e6688146", "is_reserved": 0, "bike_id": "6a20ec4d3b4d93dbe4f53d34e6688146", "fusion_lon": 0.0, "rental_uris": {"ios": "https://dc.lft.to/lastmile_qr_scan", "android": "https://dc.lft.to/lastmile_qr_scan"}}, {"lon": -77.0120215, "fusion_lat": 0.0, "type": "electric_scooter", "lat": 38.897767, "is_disabled": 0, "name": "22db4c750d3d0f468a3ef278994e6e02", "is_reserved": 0, "bike_id": "22db4c750d3d0f468a3ef278994e6e02", "fusion_lon": 0.0, "rental_uris": {"ios": "https://dc.lft.to/lastmile_qr_scan", "android": "https://dc.lft.to/lastmile_qr_scan"}}, {"lon": -77.04999116666667, "fusion_lat": 0.0, "type": "electric_scooter", "lat": 38.90107166666667, "is_disabled": 0, "name": "be67c782e2495f7004cf61f6fceb2a20", "is_reserved": 0, "bike_id": "be67c782e2495f7004cf61f6fceb2a20", "fusion_lon": 0.0, "rental_uris": {"ios": "https://dc.lft.to/lastmile_qr_scan", "android": "https://dc.lft.to/lastmile_qr_scan"}}, {"lon": -77.01631183333333, "fusion_lat": 0.0, "type": "electric_scooter", "lat": 38.903161, "is_disabled": 0, "name": "5b9531a79f3f02a2d21bd53f04e33195", "is_reserved": 0, "bike_id": "5b9531a79f3f02a2d21bd53f04e33195", "fusion_lon": 0.0, "rental_uris": {"ios": "https://dc.lft.to/lastmile_qr_scan", "android": "https://dc.lft.to/lastmile_qr_scan"}}, {"lon": -77.03790816666667, "fusion_lat": 0.0, "type": "electric_scooter", "lat": 38.9242965, "is_disabled": 0, "name": "4ac284062389a3a77829b95861e061ad", "is_reserved": 0, "bike_id": "4ac284062389a3a77829b95861e061ad", "fusion_lon": 0.0, "rental_uris": {"ios": "https://dc.lft.to/lastmile_qr_scan", "android": "https://dc.lft.to/lastmile_qr_scan"}}, {"lon": -77.032231, "fusion_lat": 0.0, "type": "electric_scooter", "lat": 38.8964925, "is_disabled": 0, "name": "4fd25d7045bd0dee40ee2dd7f1f5b9e7", "is_reserved": 0, "bike_id": "4fd25d7045bd0dee40ee2dd7f1f5b9e7", "fusion_lon": 0.0, "rental_uris": {"ios": "https://dc.lft.to/lastmile_qr_scan", "android": "https://dc.lft.to/lastmile_qr_scan"}}, {"lon": -77.01178133333333, "fusion_lat": 0.0, "type": "electric_scooter", "lat": 38.880704, "is_disabled": 0, "name": "e8cd15dc55a35ce62e23c607afbbdb50", "is_reserved": 0, "bike_id": "e8cd15dc55a35ce62e23c607afbbdb50", "fusion_lon": 0.0, "rental_uris": {"ios": "https://dc.lft.to/lastmile_qr_scan", "android": "https://dc.lft.to/lastmile_qr_scan"}}, {"lon": -77.0215575, "fusion_lat": 0.0, "type": "electric_scooter", "lat": 38.924853, "is_disabled": 0, "name": "7dac8b08017f56517eac0711acd50744", "is_reserved": 0, "bike_id": "7dac8b08017f56517eac0711acd50744", "fusion_lon": 0.0, "rental_uris": {"ios": "https://dc.lft.to/lastmile_qr_scan", "android": "https://dc.lft.to/lastmile_qr_scan"}}, {"lon": -77.12889016666666, "fusion_lat": 0.0, "type": "electric_bike", "lat": 38.90598516666667, "is_disabled": 0, "name": "e82afcbf5e880ab81979a1c1ce19052c", "is_reserved": 0, "bike_id": "e82afcbf5e880ab81979a1c1ce19052c", "fusion_lon": 0.0, "rental_uris": {"ios": "https://dc.lft.to/lastmile_qr_scan", "android": "https://dc.lft.to/lastmile_qr_scan"}}, {"lon": -76.98699666666667, "fusion_lat": 0.0, "type": "electric_scooter", "lat": 38.900547833333334, "is_disabled": 0, "name": "10be50c63178f1ec43991cda24b72dbb", "is_reserved": 0, "bike_id": "10be50c63178f1ec43991cda24b72dbb", "fusion_lon": 0.0, "rental_uris": {"ios": "https://dc.lft.to/lastmile_qr_scan", "android": "https://dc.lft.to/lastmile_qr_scan"}}, {"lon": -76.99861833333334, "fusion_lat": 0.0, "type": "electric_scooter", "lat": 38.8643, "is_disabled": 0, "name": "8ce86b1d08fc8856b81f447f9ed29483", "is_reserved": 0, "bike_id": "8ce86b1d08fc8856b81f447f9ed29483", "fusion_lon": 0.0, "rental_uris": {"ios": "https://dc.lft.to/lastmile_qr_scan", "android": "https://dc.lft.to/lastmile_qr_scan"}}, {"lon": -77.03076783333333, "fusion_lat": 0.0, "type": "electric_scooter", "lat": 38.899626, "is_disabled": 0, "name": "1a827f515d13ee62e2296467da027581", "is_reserved": 0, "bike_id": "1a827f515d13ee62e2296467da027581", "fusion_lon": 0.0, "rental_uris": {"ios": "https://dc.lft.to/lastmile_qr_scan", "android": "https://dc.lft.to/lastmile_qr_scan"}}, {"lon": -77.05907933333333, "fusion_lat": 0.0, "type": "electric_scooter", "lat": 38.901786, "is_disabled": 0, "name": "0e0b46b5f6304b7468f5d582ffc74757", "is_reserved": 0, "bike_id": "0e0b46b5f6304b7468f5d582ffc74757", "fusion_lon": 0.0, "rental_uris": {"ios": "https://dc.lft.to/lastmile_qr_scan", "android": "https://dc.lft.to/lastmile_qr_scan"}}, {"lon": -77.02821333333333, "fusion_lat": 0.0, "type": "electric_scooter", "lat": 38.897286333333334, "is_disabled": 0, "name": "b63629985334c922720ef937ededdc7f", "is_reserved": 0, "bike_id": "b63629985334c922720ef937ededdc7f", "fusion_lon": 0.0, "rental_uris": {"ios": "https://dc.lft.to/lastmile_qr_scan", "android": "https://dc.lft.to/lastmile_qr_scan"}}, {"lon": -77.040128, "fusion_lat": 0.0, "type": "electric_scooter", "lat": 38.9084305, "is_disabled": 0, "name": "6b1f5704732dab7f6062af38d043c168", "is_reserved": 0, "bike_id": "6b1f5704732dab7f6062af38d043c168", "fusion_lon": 0.0, "rental_uris": {"ios": "https://dc.lft.to/lastmile_qr_scan", "android": "https://dc.lft.to/lastmile_qr_scan"}}, {"lon": -76.99957366666666, "fusion_lat": 0.0, "type": "electric_scooter", "lat": 38.925674666666666, "is_disabled": 0, "name": "1cfbbc8b47ffe806c85ac3c9df5bd609", "is_reserved": 0, "bike_id": "1cfbbc8b47ffe806c85ac3c9df5bd609", "fusion_lon": 0.0, "rental_uris": {"ios": "https://dc.lft.to/lastmile_qr_scan", "android": "https://dc.lft.to/lastmile_qr_scan"}}, {"lon": -76.9827345, "fusion_lat": 0.0, "type": "electric_scooter", "lat": 38.913293833333334, "is_disabled": 0, "name": "a84caa5d482e885bf96a73de3cf0d5bc", "is_reserved": 0, "bike_id": "a84caa5d482e885bf96a73de3cf0d5bc", "fusion_lon": 0.0, "rental_uris": {"ios": "https://dc.lft.to/lastmile_qr_scan", "android": "https://dc.lft.to/lastmile_qr_scan"}}, {"lon": -77.019145, "fusion_lat": 0.0, "type": "electric_scooter", "lat": 38.9201855, "is_disabled": 0, "name": "ec4445c97e6db3c16f38e00a499feb50", "is_reserved": 0, "bike_id": "ec4445c97e6db3c16f38e00a499feb50", "fusion_lon": 0.0, "rental_uris": {"ios": "https://dc.lft.to/lastmile_qr_scan", "android": "https://dc.lft.to/lastmile_qr_scan"}}, {"lon": -77.0214725, "fusion_lat": 0.0, "type": "electric_scooter", "lat": 38.925907333333335, "is_disabled": 0, "name": "4c7a1baa8c2625b1daf945c1bc2620e2", "is_reserved": 0, "bike_id": "4c7a1baa8c2625b1daf945c1bc2620e2", "fusion_lon": 0.0, "rental_uris": {"ios": "https://dc.lft.to/lastmile_qr_scan", "android": "https://dc.lft.to/lastmile_qr_scan"}}, {"lon": -77.02218516666667, "fusion_lat": 0.0, "type": "electric_scooter", "lat": 38.924707833333336, "is_disabled": 0, "name": "75eeb5e940017045b69b24d577a642cb", "is_reserved": 0, "bike_id": "75eeb5e940017045b69b24d577a642cb", "fusion_lon": 0.0, "rental_uris": {"ios": "https://dc.lft.to/lastmile_qr_scan", "android": "https://dc.lft.to/lastmile_qr_scan"}}, {"lon": -77.055985, "fusion_lat": 0.0, "type": "electric_scooter", "lat": 38.936962, "is_disabled": 0, "name": "d9cf2e42feba217abc396b32a3e8da61", "is_reserved": 0, "bike_id": "d9cf2e42feba217abc396b32a3e8da61", "fusion_lon": 0.0, "rental_uris": {"ios": "https://dc.lft.to/lastmile_qr_scan", "android": "https://dc.lft.to/lastmile_qr_scan"}}, {"lon": -76.932615, "fusion_lat": 0.0, "type": "electric_scooter", "lat": 38.887736833333335, "is_disabled": 0, "name": "26fbb3a21b19ca297ab0809f0e617096", "is_reserved": 0, "bike_id": "26fbb3a21b19ca297ab0809f0e617096", "fusion_lon": 0.0, "rental_uris": {"ios": "https://dc.lft.to/lastmile_qr_scan", "android": "https://dc.lft.to/lastmile_qr_scan"}}, {"lon": -77.0269275, "fusion_lat": 0.0, "type": "electric_scooter", "lat": 38.924617166666664, "is_disabled": 0, "name": "82c62a9f0fa1789631af2b745583d0b3", "is_reserved": 0, "bike_id": "82c62a9f0fa1789631af2b745583d0b3", "fusion_lon": 0.0, "rental_uris": {"ios": "https://dc.lft.to/lastmile_qr_scan", "android": "https://dc.lft.to/lastmile_qr_scan"}}, {"lon": -77.0276895, "fusion_lat": 0.0, "type": "electric_scooter", "lat": 38.9298315, "is_disabled": 0, "name": "16148eeb36ee65b7d1cc026a91a71183", "is_reserved": 0, "bike_id": "16148eeb36ee65b7d1cc026a91a71183", "fusion_lon": 0.0, "rental_uris": {"ios": "https://dc.lft.to/lastmile_qr_scan", "android": "https://dc.lft.to/lastmile_qr_scan"}}, {"lon": -77.02113516666667, "fusion_lat": 0.0, "type": "electric_scooter", "lat": 38.924651833333336, "is_disabled": 0, "name": "8dd4adf190c595fb3a6445a6a4a92ec2", "is_reserved": 0, "bike_id": "8dd4adf190c595fb3a6445a6a4a92ec2", "fusion_lon": 0.0, "rental_uris": {"ios": "https://dc.lft.to/lastmile_qr_scan", "android": "https://dc.lft.to/lastmile_qr_scan"}}, {"lon": -77.06199583333333, "fusion_lat": 0.0, "type": "electric_scooter", "lat": 38.9034365, "is_disabled": 0, "name": "40761935cf4d8c5a001f0a5a2d503587", "is_reserved": 0, "bike_id": "40761935cf4d8c5a001f0a5a2d503587", "fusion_lon": 0.0, "rental_uris": {"ios": "https://dc.lft.to/lastmile_qr_scan", "android": "https://dc.lft.to/lastmile_qr_scan"}}, {"lon": -77.01843266666667, "fusion_lat": 0.0, "type": "electric_scooter", "lat": 38.91400983333333, "is_disabled": 0, "name": "5ca2848672d70eafeeb4b2b614e724f6", "is_reserved": 0, "bike_id": "5ca2848672d70eafeeb4b2b614e724f6", "fusion_lon": 0.0, "rental_uris": {"ios": "https://dc.lft.to/lastmile_qr_scan", "android": "https://dc.lft.to/lastmile_qr_scan"}}, {"lon": -77.0438565, "fusion_lat": 0.0, "type": "electric_scooter", "lat": 38.90585033333333, "is_disabled": 0, "name": "680feaa778585f59585f0a1693269669", "is_reserved": 0, "bike_id": "680feaa778585f59585f0a1693269669", "fusion_lon": 0.0, "rental_uris": {"ios": "https://dc.lft.to/lastmile_qr_scan", "android": "https://dc.lft.to/lastmile_qr_scan"}}, {"lon": -77.04361566666667, "fusion_lat": 0.0, "type": "electric_scooter", "lat": 38.9111635, "is_disabled": 0, "name": "0d07434aa9b7e899b6d91f6985156526", "is_reserved": 0, "bike_id": "0d07434aa9b7e899b6d91f6985156526", "fusion_lon": 0.0, "rental_uris": {"ios": "https://dc.lft.to/lastmile_qr_scan", "android": "https://dc.lft.to/lastmile_qr_scan"}}, {"lon": -77.03371833333334, "fusion_lat": 0.0, "type": "electric_scooter", "lat": 38.89458533333333, "is_disabled": 0, "name": "00262e8450c8eda59a4454d0cfac6710", "is_reserved": 0, "bike_id": "00262e8450c8eda59a4454d0cfac6710", "fusion_lon": 0.0, "rental_uris": {"ios": "https://dc.lft.to/lastmile_qr_scan", "android": "https://dc.lft.to/lastmile_qr_scan"}}, {"lon": -77.02338883333333, "fusion_lat": 0.0, "type": "electric_scooter", "lat": 38.94447366666667, "is_disabled": 0, "name": "3379ed6f1e5b2e4526d7dc039b281aaf", "is_reserved": 0, "bike_id": "3379ed6f1e5b2e4526d7dc039b281aaf", "fusion_lon": 0.0, "rental_uris": {"ios": "https://dc.lft.to/lastmile_qr_scan", "android": "https://dc.lft.to/lastmile_qr_scan"}}, {"lon": -77.021563, "fusion_lat": 0.0, "type": "electric_scooter", "lat": 38.926024, "is_disabled": 0, "name": "f9f1dc7b11f5466b251896c1297b6294", "is_reserved": 0, "bike_id": "f9f1dc7b11f5466b251896c1297b6294", "fusion_lon": 0.0, "rental_uris": {"ios": "https://dc.lft.to/lastmile_qr_scan", "android": "https://dc.lft.to/lastmile_qr_scan"}}, {"lon": -76.98755916666667, "fusion_lat": 0.0, "type": "electric_bike", "lat": 38.8577965, "is_disabled": 0, "name": "25167d10410360ba27e7241ed54db4b4", "is_reserved": 0, "bike_id": "25167d10410360ba27e7241ed54db4b4", "fusion_lon": 0.0, "rental_uris": {"ios": "https://dc.lft.to/lastmile_qr_scan", "android": "https://dc.lft.to/lastmile_qr_scan"}}, {"lon": -77.03652616666666, "fusion_lat": 0.0, "type": "electric_scooter", "lat": 38.90502083333333, "is_disabled": 0, "name": "6c81c9a2d0b39defdde93afe38fc9f9b", "is_reserved": 0, "bike_id": "6c81c9a2d0b39defdde93afe38fc9f9b", "fusion_lon": 0.0, "rental_uris": {"ios": "https://dc.lft.to/lastmile_qr_scan", "android": "https://dc.lft.to/lastmile_qr_scan"}}, {"lon": -77.00544783333333, "fusion_lat": 0.0, "type": "electric_scooter", "lat": 38.905562833333335, "is_disabled": 0, "name": "6de6012acd0a0df10773b866824bfdca", "is_reserved": 0, "bike_id": "6de6012acd0a0df10773b866824bfdca", "fusion_lon": 0.0, "rental_uris": {"ios": "https://dc.lft.to/lastmile_qr_scan", "android": "https://dc.lft.to/lastmile_qr_scan"}}, {"lon": -77.03849766666667, "fusion_lat": 0.0, "type": "electric_scooter", "lat": 38.903638666666666, "is_disabled": 0, "name": "6de2bc240618eb4b88e9cd123de11378", "is_reserved": 0, "bike_id": "6de2bc240618eb4b88e9cd123de11378", "fusion_lon": 0.0, "rental_uris": {"ios": "https://dc.lft.to/lastmile_qr_scan", "android": "https://dc.lft.to/lastmile_qr_scan"}}, {"lon": -77.0402025, "fusion_lat": 0.0, "type": "electric_scooter", "lat": 38.8990825, "is_disabled": 0, "name": "df34e2c0eb7fc26df96618d686d6709b", "is_reserved": 0, "bike_id": "df34e2c0eb7fc26df96618d686d6709b", "fusion_lon": 0.0, "rental_uris": {"ios": "https://dc.lft.to/lastmile_qr_scan", "android": "https://dc.lft.to/lastmile_qr_scan"}}, {"lon": -77.02110033333334, "fusion_lat": 0.0, "type": "electric_scooter", "lat": 38.924666, "is_disabled": 0, "name": "e8080be723d55e296c34aadeb85e7932", "is_reserved": 0, "bike_id": "e8080be723d55e296c34aadeb85e7932", "fusion_lon": 0.0, "rental_uris": {"ios": "https://dc.lft.to/lastmile_qr_scan", "android": "https://dc.lft.to/lastmile_qr_scan"}}, {"lon": -77.02555733333334, "fusion_lat": 0.0, "type": "electric_scooter", "lat": 38.924670666666664, "is_disabled": 0, "name": "9b61cc1a79b8d8a7b101945fc8aff143", "is_reserved": 0, "bike_id": "9b61cc1a79b8d8a7b101945fc8aff143", "fusion_lon": 0.0, "rental_uris": {"ios": "https://dc.lft.to/lastmile_qr_scan", "android": "https://dc.lft.to/lastmile_qr_scan"}}, {"lon": -77.02329133333333, "fusion_lat": 0.0, "type": "electric_scooter", "lat": 38.894031166666664, "is_disabled": 0, "name": "fc78d3e906ef9476940bb28e937e0a85", "is_reserved": 0, "bike_id": "fc78d3e906ef9476940bb28e937e0a85", "fusion_lon": 0.0, "rental_uris": {"ios": "https://dc.lft.to/lastmile_qr_scan", "android": "https://dc.lft.to/lastmile_qr_scan"}}, {"lon": -77.02997416666666, "fusion_lat": 0.0, "type": "electric_scooter", "lat": 38.902659166666666, "is_disabled": 0, "name": "84981dfdc8f327203a2e5c171bb227d6", "is_reserved": 0, "bike_id": "84981dfdc8f327203a2e5c171bb227d6", "fusion_lon": 0.0, "rental_uris": {"ios": "https://dc.lft.to/lastmile_qr_scan", "android": "https://dc.lft.to/lastmile_qr_scan"}}, {"lon": -77.02707866666667, "fusion_lat": 0.0, "type": "electric_bike", "lat": 38.93115, "is_disabled": 0, "name": "fcbfbacf73c765d4e1e616de46737661", "is_reserved": 0, "bike_id": "fcbfbacf73c765d4e1e616de46737661", "fusion_lon": 0.0, "rental_uris": {"ios": "https://dc.lft.to/lastmile_qr_scan", "android": "https://dc.lft.to/lastmile_qr_scan"}}, {"lon": -77.04161416666666, "fusion_lat": 0.0, "type": "electric_scooter", "lat": 38.9073675, "is_disabled": 0, "name": "dbe041962279d84a1eabbf251815b62c", "is_reserved": 0, "bike_id": "dbe041962279d84a1eabbf251815b62c", "fusion_lon": 0.0, "rental_uris": {"ios": "https://dc.lft.to/lastmile_qr_scan", "android": "https://dc.lft.to/lastmile_qr_scan"}}, {"lon": -77.07266666666666, "fusion_lat": 0.0, "type": "electric_scooter", "lat": 38.909147, "is_disabled": 0, "name": "6e97fd662d86d44fa9f3d0fb574d5615", "is_reserved": 0, "bike_id": "6e97fd662d86d44fa9f3d0fb574d5615", "fusion_lon": 0.0, "rental_uris": {"ios": "https://dc.lft.to/lastmile_qr_scan", "android": "https://dc.lft.to/lastmile_qr_scan"}}, {"lon": -77.0155075, "fusion_lat": 0.0, "type": "electric_scooter", "lat": 38.89173916666667, "is_disabled": 0, "name": "921ce6fd1fc3eca37899768551547034", "is_reserved": 0, "bike_id": "921ce6fd1fc3eca37899768551547034", "fusion_lon": 0.0, "rental_uris": {"ios": "https://dc.lft.to/lastmile_qr_scan", "android": "https://dc.lft.to/lastmile_qr_scan"}}, {"lon": -77.00051633333334, "fusion_lat": 0.0, "type": "electric_scooter", "lat": 38.91870316666667, "is_disabled": 0, "name": "8b0449f83e7e86575de6cf9456c8a51d", "is_reserved": 0, "bike_id": "8b0449f83e7e86575de6cf9456c8a51d", "fusion_lon": 0.0, "rental_uris": {"ios": "https://dc.lft.to/lastmile_qr_scan", "android": "https://dc.lft.to/lastmile_qr_scan"}}, {"lon": -77.00331266666667, "fusion_lat": 0.0, "type": "electric_scooter", "lat": 38.893551, "is_disabled": 0, "name": "cfed7222f94f56e42afd899ec149596b", "is_reserved": 0, "bike_id": "cfed7222f94f56e42afd899ec149596b", "fusion_lon": 0.0, "rental_uris": {"ios": "https://dc.lft.to/lastmile_qr_scan", "android": "https://dc.lft.to/lastmile_qr_scan"}}, {"lon": -77.04676666666667, "fusion_lat": 0.0, "type": "electric_scooter", "lat": 38.89881416666667, "is_disabled": 0, "name": "1ab8f6fdaf89f5d764ffc28a508d619c", "is_reserved": 0, "bike_id": "1ab8f6fdaf89f5d764ffc28a508d619c", "fusion_lon": 0.0, "rental_uris": {"ios": "https://dc.lft.to/lastmile_qr_scan", "android": "https://dc.lft.to/lastmile_qr_scan"}}, {"lon": -77.03390683333333, "fusion_lat": 0.0, "type": "electric_scooter", "lat": 38.90545766666666, "is_disabled": 0, "name": "9403d25be69152987ea0f3d527c6f28a", "is_reserved": 0, "bike_id": "9403d25be69152987ea0f3d527c6f28a", "fusion_lon": 0.0, "rental_uris": {"ios": "https://dc.lft.to/lastmile_qr_scan", "android": "https://dc.lft.to/lastmile_qr_scan"}}, {"lon": -77.03322, "fusion_lat": 0.0, "type": "electric_scooter", "lat": 38.903766833333336, "is_disabled": 0, "name": "8b2fd7414cce387a0f0d7c07e4969c64", "is_reserved": 0, "bike_id": "8b2fd7414cce387a0f0d7c07e4969c64", "fusion_lon": 0.0, "rental_uris": {"ios": "https://dc.lft.to/lastmile_qr_scan", "android": "https://dc.lft.to/lastmile_qr_scan"}}, {"lon": -77.00257683333334, "fusion_lat": 0.0, "type": "electric_scooter", "lat": 38.90558516666667, "is_disabled": 0, "name": "1311c7eb7d1d9eb563974b7afe89ec22", "is_reserved": 0, "bike_id": "1311c7eb7d1d9eb563974b7afe89ec22", "fusion_lon": 0.0, "rental_uris": {"ios": "https://dc.lft.to/lastmile_qr_scan", "android": "https://dc.lft.to/lastmile_qr_scan"}}, {"lon": -77.0317075, "fusion_lat": 0.0, "type": "electric_scooter", "lat": 38.914043166666666, "is_disabled": 0, "name": "4b4899a3eebab89e5f1e3c41f474f976", "is_reserved": 0, "bike_id": "4b4899a3eebab89e5f1e3c41f474f976", "fusion_lon": 0.0, "rental_uris": {"ios": "https://dc.lft.to/lastmile_qr_scan", "android": "https://dc.lft.to/lastmile_qr_scan"}}, {"lon": -77.0403675, "fusion_lat": 0.0, "type": "electric_scooter", "lat": 38.905682, "is_disabled": 0, "name": "75b8dc0c63a91b3f4cf297a13d3efe6d", "is_reserved": 0, "bike_id": "75b8dc0c63a91b3f4cf297a13d3efe6d", "fusion_lon": 0.0, "rental_uris": {"ios": "https://dc.lft.to/lastmile_qr_scan", "android": "https://dc.lft.to/lastmile_qr_scan"}}, {"lon": -77.041039, "fusion_lat": 0.0, "type": "electric_scooter", "lat": 38.91903716666667, "is_disabled": 0, "name": "0bd426dabe256084e7133d8132b17e84", "is_reserved": 0, "bike_id": "0bd426dabe256084e7133d8132b17e84", "fusion_lon": 0.0, "rental_uris": {"ios": "https://dc.lft.to/lastmile_qr_scan", "android": "https://dc.lft.to/lastmile_qr_scan"}}, {"lon": -77.016821, "fusion_lat": 0.0, "type": "electric_scooter", "lat": 38.897869666666665, "is_disabled": 0, "name": "7c30304af97340e661bb8bacaa90cbd7", "is_reserved": 0, "bike_id": "7c30304af97340e661bb8bacaa90cbd7", "fusion_lon": 0.0, "rental_uris": {"ios": "https://dc.lft.to/lastmile_qr_scan", "android": "https://dc.lft.to/lastmile_qr_scan"}}, {"lon": -77.031875, "fusion_lat": 0.0, "type": "electric_scooter", "lat": 38.91681966666667, "is_disabled": 0, "name": "2386f0851a243568f2d410203b74f591", "is_reserved": 0, "bike_id": "2386f0851a243568f2d410203b74f591", "fusion_lon": 0.0, "rental_uris": {"ios": "https://dc.lft.to/lastmile_qr_scan", "android": "https://dc.lft.to/lastmile_qr_scan"}}, {"lon": -77.021563, "fusion_lat": 0.0, "type": "electric_scooter", "lat": 38.92600566666667, "is_disabled": 0, "name": "34859a1427c1ae94d0122fede0d345ec", "is_reserved": 0, "bike_id": "34859a1427c1ae94d0122fede0d345ec", "fusion_lon": 0.0, "rental_uris": {"ios": "https://dc.lft.to/lastmile_qr_scan", "android": "https://dc.lft.to/lastmile_qr_scan"}}, {"lon": -77.03830216666667, "fusion_lat": 0.0, "type": "electric_scooter", "lat": 38.91266066666667, "is_disabled": 0, "name": "5b7077b12904c4aa7d072092d2636644", "is_reserved": 0, "bike_id": "5b7077b12904c4aa7d072092d2636644", "fusion_lon": 0.0, "rental_uris": {"ios": "https://dc.lft.to/lastmile_qr_scan", "android": "https://dc.lft.to/lastmile_qr_scan"}}, {"lon": -76.99518966666666, "fusion_lat": 0.0, "type": "electric_scooter", "lat": 38.8837055, "is_disabled": 0, "name": "a3fe028d550dbdebdee7931f2724fc91", "is_reserved": 0, "bike_id": "a3fe028d550dbdebdee7931f2724fc91", "fusion_lon": 0.0, "rental_uris": {"ios": "https://dc.lft.to/lastmile_qr_scan", "android": "https://dc.lft.to/lastmile_qr_scan"}}, {"lon": -76.97097066666667, "fusion_lat": 0.0, "type": "electric_bike", "lat": 38.950257, "is_disabled": 0, "name": "9fd8996c8f2a4f6d12a689922453b9fb", "is_reserved": 0, "bike_id": "9fd8996c8f2a4f6d12a689922453b9fb", "fusion_lon": 0.0, "rental_uris": {"ios": "https://dc.lft.to/lastmile_qr_scan", "android": "https://dc.lft.to/lastmile_qr_scan"}}, {"lon": -77.03090733333333, "fusion_lat": 0.0, "type": "electric_scooter", "lat": 38.93082833333333, "is_disabled": 0, "name": "ce4cbf7da0695a414e90d5c4c2c95f70", "is_reserved": 0, "bike_id": "ce4cbf7da0695a414e90d5c4c2c95f70", "fusion_lon": 0.0, "rental_uris": {"ios": "https://dc.lft.to/lastmile_qr_scan", "android": "https://dc.lft.to/lastmile_qr_scan"}}, {"lon": -77.019442, "fusion_lat": 0.0, "type": "electric_scooter", "lat": 38.9241755, "is_disabled": 0, "name": "b72eba533f0afbeed831b889e62a9b7a", "is_reserved": 0, "bike_id": "b72eba533f0afbeed831b889e62a9b7a", "fusion_lon": 0.0, "rental_uris": {"ios": "https://dc.lft.to/lastmile_qr_scan", "android": "https://dc.lft.to/lastmile_qr_scan"}}, {"lon": -77.02693966666666, "fusion_lat": 0.0, "type": "electric_scooter", "lat": 38.906983333333336, "is_disabled": 0, "name": "0ca64dca742c62e419ec7e1b65e58884", "is_reserved": 0, "bike_id": "0ca64dca742c62e419ec7e1b65e58884", "fusion_lon": 0.0, "rental_uris": {"ios": "https://dc.lft.to/lastmile_qr_scan", "android": "https://dc.lft.to/lastmile_qr_scan"}}, {"lon": -77.04660233333334, "fusion_lat": 0.0, "type": "electric_scooter", "lat": 38.91359933333333, "is_disabled": 0, "name": "01c683ab30434f5ab77e4dbbae549dae", "is_reserved": 0, "bike_id": "01c683ab30434f5ab77e4dbbae549dae", "fusion_lon": 0.0, "rental_uris": {"ios": "https://dc.lft.to/lastmile_qr_scan", "android": "https://dc.lft.to/lastmile_qr_scan"}}, {"lon": -76.97462483333334, "fusion_lat": 0.0, "type": "electric_scooter", "lat": 38.871442, "is_disabled": 0, "name": "7e8b9e0ac0db9afc57d0fd57dfc04c3f", "is_reserved": 0, "bike_id": "7e8b9e0ac0db9afc57d0fd57dfc04c3f", "fusion_lon": 0.0, "rental_uris": {"ios": "https://dc.lft.to/lastmile_qr_scan", "android": "https://dc.lft.to/lastmile_qr_scan"}}, {"lon": -77.0211425, "fusion_lat": 0.0, "type": "electric_scooter", "lat": 38.9300335, "is_disabled": 0, "name": "ee837fd83ad9a968d66bf15c18acd09e", "is_reserved": 0, "bike_id": "ee837fd83ad9a968d66bf15c18acd09e", "fusion_lon": 0.0, "rental_uris": {"ios": "https://dc.lft.to/lastmile_qr_scan", "android": "https://dc.lft.to/lastmile_qr_scan"}}, {"lon": -76.9926415, "fusion_lat": 0.0, "type": "electric_bike", "lat": 38.89345933333333, "is_disabled": 0, "name": "aec812c60104d1647a871e2796c38b96", "is_reserved": 0, "bike_id": "aec812c60104d1647a871e2796c38b96", "fusion_lon": 0.0, "rental_uris": {"ios": "https://dc.lft.to/lastmile_qr_scan", "android": "https://dc.lft.to/lastmile_qr_scan"}}, {"lon": -77.012028, "fusion_lat": 0.0, "type": "electric_scooter", "lat": 38.895294, "is_disabled": 0, "name": "d238b22b9e08168ca96ab2e1c36b1d6a", "is_reserved": 0, "bike_id": "d238b22b9e08168ca96ab2e1c36b1d6a", "fusion_lon": 0.0, "rental_uris": {"ios": "https://dc.lft.to/lastmile_qr_scan", "android": "https://dc.lft.to/lastmile_qr_scan"}}, {"lon": -77.0212825, "fusion_lat": 0.0, "type": "electric_scooter", "lat": 38.92274966666667, "is_disabled": 0, "name": "aebee8d176bd23f646bfcbb6bb6fa0a8", "is_reserved": 0, "bike_id": "aebee8d176bd23f646bfcbb6bb6fa0a8", "fusion_lon": 0.0, "rental_uris": {"ios": "https://dc.lft.to/lastmile_qr_scan", "android": "https://dc.lft.to/lastmile_qr_scan"}}, {"lon": -77.01450916666667, "fusion_lat": 0.0, "type": "electric_scooter", "lat": 38.899399, "is_disabled": 0, "name": "9d7cde883639e41269ef222ff14a5961", "is_reserved": 0, "bike_id": "9d7cde883639e41269ef222ff14a5961", "fusion_lon": 0.0, "rental_uris": {"ios": "https://dc.lft.to/lastmile_qr_scan", "android": "https://dc.lft.to/lastmile_qr_scan"}}, {"lon": -77.0448655, "fusion_lat": 0.0, "type": "electric_scooter", "lat": 38.91323666666667, "is_disabled": 0, "name": "755de355b12bc2528c87c587585a2f8a", "is_reserved": 0, "bike_id": "755de355b12bc2528c87c587585a2f8a", "fusion_lon": 0.0, "rental_uris": {"ios": "https://dc.lft.to/lastmile_qr_scan", "android": "https://dc.lft.to/lastmile_qr_scan"}}, {"lon": -76.93003666666667, "fusion_lat": 0.0, "type": "electric_scooter", "lat": 38.90180383333333, "is_disabled": 0, "name": "53248c1c2fc5aabfef9c02ff869d43af", "is_reserved": 0, "bike_id": "53248c1c2fc5aabfef9c02ff869d43af", "fusion_lon": 0.0, "rental_uris": {"ios": "https://dc.lft.to/lastmile_qr_scan", "android": "https://dc.lft.to/lastmile_qr_scan"}}, {"lon": -77.03422316666666, "fusion_lat": 0.0, "type": "electric_scooter", "lat": 38.936028666666665, "is_disabled": 0, "name": "339c8f6621693b50d0e559afd85a9b27", "is_reserved": 0, "bike_id": "339c8f6621693b50d0e559afd85a9b27", "fusion_lon": 0.0, "rental_uris": {"ios": "https://dc.lft.to/lastmile_qr_scan", "android": "https://dc.lft.to/lastmile_qr_scan"}}, {"lon": -77.03822316666667, "fusion_lat": 0.0, "type": "electric_scooter", "lat": 38.906850166666665, "is_disabled": 0, "name": "0c446a75b687b4572c635a02f37da26d", "is_reserved": 0, "bike_id": "0c446a75b687b4572c635a02f37da26d", "fusion_lon": 0.0, "rental_uris": {"ios": "https://dc.lft.to/lastmile_qr_scan", "android": "https://dc.lft.to/lastmile_qr_scan"}}, {"lon": -77.03134, "fusion_lat": 0.0, "type": "electric_scooter", "lat": 38.9025075, "is_disabled": 0, "name": "761e14652b6631d50d72db0306cde981", "is_reserved": 0, "bike_id": "761e14652b6631d50d72db0306cde981", "fusion_lon": 0.0, "rental_uris": {"ios": "https://dc.lft.to/lastmile_qr_scan", "android": "https://dc.lft.to/lastmile_qr_scan"}}, {"lon": -76.98376066666667, "fusion_lat": 0.0, "type": "electric_scooter", "lat": 38.8997425, "is_disabled": 0, "name": "2992b0e9d6172e8dbed30510b4769278", "is_reserved": 0, "bike_id": "2992b0e9d6172e8dbed30510b4769278", "fusion_lon": 0.0, "rental_uris": {"ios": "https://dc.lft.to/lastmile_qr_scan", "android": "https://dc.lft.to/lastmile_qr_scan"}}, {"lon": -76.99572616666667, "fusion_lat": 0.0, "type": "electric_scooter", "lat": 38.894828333333336, "is_disabled": 0, "name": "f923d1a444d3a02c911c4be8b147bb3e", "is_reserved": 0, "bike_id": "f923d1a444d3a02c911c4be8b147bb3e", "fusion_lon": 0.0, "rental_uris": {"ios": "https://dc.lft.to/lastmile_qr_scan", "android": "https://dc.lft.to/lastmile_qr_scan"}}, {"lon": -77.03200933333333, "fusion_lat": 0.0, "type": "electric_scooter", "lat": 38.901349833333335, "is_disabled": 0, "name": "b2795424f9875cd38a15f358b4bf7b33", "is_reserved": 0, "bike_id": "b2795424f9875cd38a15f358b4bf7b33", "fusion_lon": 0.0, "rental_uris": {"ios": "https://dc.lft.to/lastmile_qr_scan", "android": "https://dc.lft.to/lastmile_qr_scan"}}, {"lon": -76.9955045, "fusion_lat": 0.0, "type": "electric_scooter", "lat": 38.926702666666664, "is_disabled": 0, "name": "960c2423df69b58056029e7e75cdd2f6", "is_reserved": 0, "bike_id": "960c2423df69b58056029e7e75cdd2f6", "fusion_lon": 0.0, "rental_uris": {"ios": "https://dc.lft.to/lastmile_qr_scan", "android": "https://dc.lft.to/lastmile_qr_scan"}}, {"lon": -77.0020615, "fusion_lat": 0.0, "type": "electric_scooter", "lat": 38.90517583333333, "is_disabled": 0, "name": "6a3a2bafd368071bb79407b7a6c1a1f6", "is_reserved": 0, "bike_id": "6a3a2bafd368071bb79407b7a6c1a1f6", "fusion_lon": 0.0, "rental_uris": {"ios": "https://dc.lft.to/lastmile_qr_scan", "android": "https://dc.lft.to/lastmile_qr_scan"}}, {"lon": -76.9932635, "fusion_lat": 0.0, "type": "electric_bike", "lat": 38.946762166666666, "is_disabled": 0, "name": "66150580a5a104a3b6d2c6ec0add89c2", "is_reserved": 0, "bike_id": "66150580a5a104a3b6d2c6ec0add89c2", "fusion_lon": 0.0, "rental_uris": {"ios": "https://dc.lft.to/lastmile_qr_scan", "android": "https://dc.lft.to/lastmile_qr_scan"}}, {"lon": -76.9759305, "fusion_lat": 0.0, "type": "electric_scooter", "lat": 38.9033205, "is_disabled": 0, "name": "1459bd8507869bd8edc147b7dc25e6fe", "is_reserved": 0, "bike_id": "1459bd8507869bd8edc147b7dc25e6fe", "fusion_lon": 0.0, "rental_uris": {"ios": "https://dc.lft.to/lastmile_qr_scan", "android": "https://dc.lft.to/lastmile_qr_scan"}}, {"lon": -77.03659283333333, "fusion_lat": 0.0, "type": "electric_scooter", "lat": 38.9222135, "is_disabled": 0, "name": "b0e6b80c51f74ecf4a9d47d2a266bf97", "is_reserved": 0, "bike_id": "b0e6b80c51f74ecf4a9d47d2a266bf97", "fusion_lon": 0.0, "rental_uris": {"ios": "https://dc.lft.to/lastmile_qr_scan", "android": "https://dc.lft.to/lastmile_qr_scan"}}, {"lon": -77.0831885, "fusion_lat": 0.0, "type": "electric_bike", "lat": 38.854347, "is_disabled": 0, "name": "d81fe413a07997c8917df79c120a6b01", "is_reserved": 0, "bike_id": "d81fe413a07997c8917df79c120a6b01", "fusion_lon": 0.0, "rental_uris": {"ios": "https://dc.lft.to/lastmile_qr_scan", "android": "https://dc.lft.to/lastmile_qr_scan"}}, {"lon": -77.02981483333333, "fusion_lat": 0.0, "type": "electric_scooter", "lat": 38.950765, "is_disabled": 0, "name": "25ff32582d45077297b6d29cd3b4b05f", "is_reserved": 0, "bike_id": "25ff32582d45077297b6d29cd3b4b05f", "fusion_lon": 0.0, "rental_uris": {"ios": "https://dc.lft.to/lastmile_qr_scan", "android": "https://dc.lft.to/lastmile_qr_scan"}}, {"lon": -77.00599666666666, "fusion_lat": 0.0, "type": "electric_scooter", "lat": 38.90645, "is_disabled": 0, "name": "fc80e2b66d6b3345c72f0d3e3fc0ccbf", "is_reserved": 0, "bike_id": "fc80e2b66d6b3345c72f0d3e3fc0ccbf", "fusion_lon": 0.0, "rental_uris": {"ios": "https://dc.lft.to/lastmile_qr_scan", "android": "https://dc.lft.to/lastmile_qr_scan"}}, {"lon": -77.020259, "fusion_lat": 0.0, "type": "electric_scooter", "lat": 38.924411666666664, "is_disabled": 0, "name": "d4934fef432979b889d1d2ea98216b58", "is_reserved": 0, "bike_id": "d4934fef432979b889d1d2ea98216b58", "fusion_lon": 0.0, "rental_uris": {"ios": "https://dc.lft.to/lastmile_qr_scan", "android": "https://dc.lft.to/lastmile_qr_scan"}}, {"lon": -77.02159583333334, "fusion_lat": 0.0, "type": "electric_scooter", "lat": 38.926130666666666, "is_disabled": 0, "name": "c4288b46803ce5bfae4531c1cca19201", "is_reserved": 0, "bike_id": "c4288b46803ce5bfae4531c1cca19201", "fusion_lon": 0.0, "rental_uris": {"ios": "https://dc.lft.to/lastmile_qr_scan", "android": "https://dc.lft.to/lastmile_qr_scan"}}, {"lon": -77.039323, "fusion_lat": 0.0, "type": "electric_scooter", "lat": 38.912554166666666, "is_disabled": 0, "name": "868a5387fb24c574081f443f2ed15b12", "is_reserved": 0, "bike_id": "868a5387fb24c574081f443f2ed15b12", "fusion_lon": 0.0, "rental_uris": {"ios": "https://dc.lft.to/lastmile_qr_scan", "android": "https://dc.lft.to/lastmile_qr_scan"}}, {"lon": -77.00427433333333, "fusion_lat": 0.0, "type": "electric_scooter", "lat": 38.90394366666666, "is_disabled": 0, "name": "9a1e4e2ba9f0775082b56cb5a102d65a", "is_reserved": 0, "bike_id": "9a1e4e2ba9f0775082b56cb5a102d65a", "fusion_lon": 0.0, "rental_uris": {"ios": "https://dc.lft.to/lastmile_qr_scan", "android": "https://dc.lft.to/lastmile_qr_scan"}}, {"lon": -77.019487, "fusion_lat": 0.0, "type": "electric_scooter", "lat": 38.92323716666667, "is_disabled": 0, "name": "ec53f4f0368bc6cf94f2f6ff39039991", "is_reserved": 0, "bike_id": "ec53f4f0368bc6cf94f2f6ff39039991", "fusion_lon": 0.0, "rental_uris": {"ios": "https://dc.lft.to/lastmile_qr_scan", "android": "https://dc.lft.to/lastmile_qr_scan"}}, {"lon": -77.03171016666667, "fusion_lat": 0.0, "type": "electric_scooter", "lat": 38.91413816666667, "is_disabled": 0, "name": "e3703ab613e5e31c34a1f22596803796", "is_reserved": 0, "bike_id": "e3703ab613e5e31c34a1f22596803796", "fusion_lon": 0.0, "rental_uris": {"ios": "https://dc.lft.to/lastmile_qr_scan", "android": "https://dc.lft.to/lastmile_qr_scan"}}, {"lon": -77.02944033333333, "fusion_lat": 0.0, "type": "electric_scooter", "lat": 38.90249133333333, "is_disabled": 0, "name": "749382fb744b014a07a55ca611bbd707", "is_reserved": 0, "bike_id": "749382fb744b014a07a55ca611bbd707", "fusion_lon": 0.0, "rental_uris": {"ios": "https://dc.lft.to/lastmile_qr_scan", "android": "https://dc.lft.to/lastmile_qr_scan"}}, {"lon": -77.05927616666666, "fusion_lat": 0.0, "type": "electric_scooter", "lat": 38.94301316666667, "is_disabled": 0, "name": "18845b8929fc06dfb551b8eda17d64f9", "is_reserved": 0, "bike_id": "18845b8929fc06dfb551b8eda17d64f9", "fusion_lon": 0.0, "rental_uris": {"ios": "https://dc.lft.to/lastmile_qr_scan", "android": "https://dc.lft.to/lastmile_qr_scan"}}, {"lon": -77.01966916666667, "fusion_lat": 0.0, "type": "electric_scooter", "lat": 38.89897883333333, "is_disabled": 0, "name": "26a2c64dfe5bed27d99c6c9b2d34d3f2", "is_reserved": 0, "bike_id": "26a2c64dfe5bed27d99c6c9b2d34d3f2", "fusion_lon": 0.0, "rental_uris": {"ios": "https://dc.lft.to/lastmile_qr_scan", "android": "https://dc.lft.to/lastmile_qr_scan"}}, {"lon": -77.01790883333334, "fusion_lat": 0.0, "type": "electric_scooter", "lat": 38.9003595, "is_disabled": 0, "name": "1ade4c6f99a219a088aa1e156466a0cd", "is_reserved": 0, "bike_id": "1ade4c6f99a219a088aa1e156466a0cd", "fusion_lon": 0.0, "rental_uris": {"ios": "https://dc.lft.to/lastmile_qr_scan", "android": "https://dc.lft.to/lastmile_qr_scan"}}, {"lon": -77.008868, "fusion_lat": 0.0, "type": "electric_scooter", "lat": 38.92480533333333, "is_disabled": 0, "name": "493a3ff3892f85319840b1506580e214", "is_reserved": 0, "bike_id": "493a3ff3892f85319840b1506580e214", "fusion_lon": 0.0, "rental_uris": {"ios": "https://dc.lft.to/lastmile_qr_scan", "android": "https://dc.lft.to/lastmile_qr_scan"}}, {"lon": -77.07791083333333, "fusion_lat": 0.0, "type": "electric_bike", "lat": 38.8490925, "is_disabled": 0, "name": "f9a6c5b0668c5d2a6557c580f0ea9f74", "is_reserved": 0, "bike_id": "f9a6c5b0668c5d2a6557c580f0ea9f74", "fusion_lon": 0.0, "rental_uris": {"ios": "https://dc.lft.to/lastmile_qr_scan", "android": "https://dc.lft.to/lastmile_qr_scan"}}, {"lon": -76.99416683333334, "fusion_lat": 0.0, "type": "electric_scooter", "lat": 38.9078585, "is_disabled": 0, "name": "a94ebc80c169c253952013a28a6f033c", "is_reserved": 0, "bike_id": "a94ebc80c169c253952013a28a6f033c", "fusion_lon": 0.0, "rental_uris": {"ios": "https://dc.lft.to/lastmile_qr_scan", "android": "https://dc.lft.to/lastmile_qr_scan"}}, {"lon": -77.0247525, "fusion_lat": 0.0, "type": "electric_scooter", "lat": 38.91813916666667, "is_disabled": 0, "name": "a244634b0bd99af7b0667e6aa0e906cf", "is_reserved": 0, "bike_id": "a244634b0bd99af7b0667e6aa0e906cf", "fusion_lon": 0.0, "rental_uris": {"ios": "https://dc.lft.to/lastmile_qr_scan", "android": "https://dc.lft.to/lastmile_qr_scan"}}, {"lon": -77.04148816666667, "fusion_lat": 0.0, "type": "electric_scooter", "lat": 38.91706966666667, "is_disabled": 0, "name": "1cae30df0bd01a5525cfc4910e235faa", "is_reserved": 0, "bike_id": "1cae30df0bd01a5525cfc4910e235faa", "fusion_lon": 0.0, "rental_uris": {"ios": "https://dc.lft.to/lastmile_qr_scan", "android": "https://dc.lft.to/lastmile_qr_scan"}}, {"lon": -77.04622483333333, "fusion_lat": 0.0, "type": "electric_scooter", "lat": 38.919269666666665, "is_disabled": 0, "name": "cc041dcd1ef95cdecdc62c8880208501", "is_reserved": 0, "bike_id": "cc041dcd1ef95cdecdc62c8880208501", "fusion_lon": 0.0, "rental_uris": {"ios": "https://dc.lft.to/lastmile_qr_scan", "android": "https://dc.lft.to/lastmile_qr_scan"}}, {"lon": -76.9814, "fusion_lat": 0.0, "type": "electric_bike", "lat": 39.007192333333336, "is_disabled": 0, "name": "12578b1becdb24d3f036e4b93b8e0028", "is_reserved": 0, "bike_id": "12578b1becdb24d3f036e4b93b8e0028", "fusion_lon": 0.0, "rental_uris": {"ios": "https://dc.lft.to/lastmile_qr_scan", "android": "https://dc.lft.to/lastmile_qr_scan"}}, {"lon": -77.03650316666666, "fusion_lat": 0.0, "type": "electric_scooter", "lat": 38.923441833333335, "is_disabled": 0, "name": "6c902a991c2a20c4556777751617ad36", "is_reserved": 0, "bike_id": "6c902a991c2a20c4556777751617ad36", "fusion_lon": 0.0, "rental_uris": {"ios": "https://dc.lft.to/lastmile_qr_scan", "android": "https://dc.lft.to/lastmile_qr_scan"}}, {"lon": -77.02681933333334, "fusion_lat": 0.0, "type": "electric_scooter", "lat": 38.896234666666665, "is_disabled": 0, "name": "c08b58966ea6d51318640d326c5c285a", "is_reserved": 0, "bike_id": "c08b58966ea6d51318640d326c5c285a", "fusion_lon": 0.0, "rental_uris": {"ios": "https://dc.lft.to/lastmile_qr_scan", "android": "https://dc.lft.to/lastmile_qr_scan"}}, {"lon": -77.024589, "fusion_lat": 0.0, "type": "electric_scooter", "lat": 38.937118, "is_disabled": 0, "name": "a79cdb48417ff145d03dcc1e671baee5", "is_reserved": 0, "bike_id": "a79cdb48417ff145d03dcc1e671baee5", "fusion_lon": 0.0, "rental_uris": {"ios": "https://dc.lft.to/lastmile_qr_scan", "android": "https://dc.lft.to/lastmile_qr_scan"}}, {"lon": -77.012126, "fusion_lat": 0.0, "type": "electric_scooter", "lat": 38.8972515, "is_disabled": 0, "name": "d7e38cae9d1168cd3c0f4e92ee5a1481", "is_reserved": 0, "bike_id": "d7e38cae9d1168cd3c0f4e92ee5a1481", "fusion_lon": 0.0, "rental_uris": {"ios": "https://dc.lft.to/lastmile_qr_scan", "android": "https://dc.lft.to/lastmile_qr_scan"}}, {"lon": -77.02539533333334, "fusion_lat": 0.0, "type": "electric_scooter", "lat": 38.947155, "is_disabled": 0, "name": "fd9c3edd4df9ccd260cc8ed73ccd0b5b", "is_reserved": 0, "bike_id": "fd9c3edd4df9ccd260cc8ed73ccd0b5b", "fusion_lon": 0.0, "rental_uris": {"ios": "https://dc.lft.to/lastmile_qr_scan", "android": "https://dc.lft.to/lastmile_qr_scan"}}, {"lon": -77.02212283333333, "fusion_lat": 0.0, "type": "electric_scooter", "lat": 38.921927333333336, "is_disabled": 0, "name": "4de8cde17a92839d1726fffebb547297", "is_reserved": 0, "bike_id": "4de8cde17a92839d1726fffebb547297", "fusion_lon": 0.0, "rental_uris": {"ios": "https://dc.lft.to/lastmile_qr_scan", "android": "https://dc.lft.to/lastmile_qr_scan"}}, {"lon": -77.01166566666667, "fusion_lat": 0.0, "type": "electric_scooter", "lat": 38.896216, "is_disabled": 0, "name": "2a26f1f4238054bda49cc3695a352fe7", "is_reserved": 0, "bike_id": "2a26f1f4238054bda49cc3695a352fe7", "fusion_lon": 0.0, "rental_uris": {"ios": "https://dc.lft.to/lastmile_qr_scan", "android": "https://dc.lft.to/lastmile_qr_scan"}}, {"lon": -77.01656066666666, "fusion_lat": 0.0, "type": "electric_scooter", "lat": 38.87635516666667, "is_disabled": 0, "name": "177b4749010c8d4ff8372bb26a3db3b8", "is_reserved": 0, "bike_id": "177b4749010c8d4ff8372bb26a3db3b8", "fusion_lon": 0.0, "rental_uris": {"ios": "https://dc.lft.to/lastmile_qr_scan", "android": "https://dc.lft.to/lastmile_qr_scan"}}, {"lon": -76.99157766666667, "fusion_lat": 0.0, "type": "electric_scooter", "lat": 38.87862766666667, "is_disabled": 0, "name": "4003984a7e3425f56074d5122e25b944", "is_reserved": 0, "bike_id": "4003984a7e3425f56074d5122e25b944", "fusion_lon": 0.0, "rental_uris": {"ios": "https://dc.lft.to/lastmile_qr_scan", "android": "https://dc.lft.to/lastmile_qr_scan"}}, {"lon": -76.927407, "fusion_lat": 0.0, "type": "electric_scooter", "lat": 38.9006715, "is_disabled": 0, "name": "470a5af2966d5340294bf4bcf121cd49", "is_reserved": 0, "bike_id": "470a5af2966d5340294bf4bcf121cd49", "fusion_lon": 0.0, "rental_uris": {"ios": "https://dc.lft.to/lastmile_qr_scan", "android": "https://dc.lft.to/lastmile_qr_scan"}}, {"lon": -77.071344, "fusion_lat": 0.0, "type": "electric_scooter", "lat": 38.920314833333336, "is_disabled": 0, "name": "383d057b2b8d8a8316030467f491b86d", "is_reserved": 0, "bike_id": "383d057b2b8d8a8316030467f491b86d", "fusion_lon": 0.0, "rental_uris": {"ios": "https://dc.lft.to/lastmile_qr_scan", "android": "https://dc.lft.to/lastmile_qr_scan"}}, {"lon": -77.03277716666666, "fusion_lat": 0.0, "type": "electric_scooter", "lat": 38.898927, "is_disabled": 0, "name": "c2f1b03d94f6eac01761c86a6d6ca73c", "is_reserved": 0, "bike_id": "c2f1b03d94f6eac01761c86a6d6ca73c", "fusion_lon": 0.0, "rental_uris": {"ios": "https://dc.lft.to/lastmile_qr_scan", "android": "https://dc.lft.to/lastmile_qr_scan"}}, {"lon": -77.02846966666667, "fusion_lat": 0.0, "type": "electric_scooter", "lat": 38.93524166666667, "is_disabled": 0, "name": "ca05c6ae0c0676ad58b63d4633e2a123", "is_reserved": 0, "bike_id": "ca05c6ae0c0676ad58b63d4633e2a123", "fusion_lon": 0.0, "rental_uris": {"ios": "https://dc.lft.to/lastmile_qr_scan", "android": "https://dc.lft.to/lastmile_qr_scan"}}, {"lon": -76.99195083333333, "fusion_lat": 0.0, "type": "electric_scooter", "lat": 38.882623333333335, "is_disabled": 0, "name": "75acc86284bbc41114a80cb0a793ae48", "is_reserved": 0, "bike_id": "75acc86284bbc41114a80cb0a793ae48", "fusion_lon": 0.0, "rental_uris": {"ios": "https://dc.lft.to/lastmile_qr_scan", "android": "https://dc.lft.to/lastmile_qr_scan"}}, {"lon": -77.03460416666667, "fusion_lat": 0.0, "type": "electric_scooter", "lat": 38.90553033333333, "is_disabled": 0, "name": "96086785404afd61e99dd30a360172b4", "is_reserved": 0, "bike_id": "96086785404afd61e99dd30a360172b4", "fusion_lon": 0.0, "rental_uris": {"ios": "https://dc.lft.to/lastmile_qr_scan", "android": "https://dc.lft.to/lastmile_qr_scan"}}, {"lon": -77.03556033333334, "fusion_lat": 0.0, "type": "electric_scooter", "lat": 38.90740366666667, "is_disabled": 0, "name": "fa741d5fcb779bf5ab92d4beb8d14916", "is_reserved": 0, "bike_id": "fa741d5fcb779bf5ab92d4beb8d14916", "fusion_lon": 0.0, "rental_uris": {"ios": "https://dc.lft.to/lastmile_qr_scan", "android": "https://dc.lft.to/lastmile_qr_scan"}}, {"lon": -77.037633, "fusion_lat": 0.0, "type": "electric_scooter", "lat": 38.926833, "is_disabled": 0, "name": "62b3fbd69c9849c260c395c572b6fe78", "is_reserved": 0, "bike_id": "62b3fbd69c9849c260c395c572b6fe78", "fusion_lon": 0.0, "rental_uris": {"ios": "https://dc.lft.to/lastmile_qr_scan", "android": "https://dc.lft.to/lastmile_qr_scan"}}, {"lon": -77.04465016666667, "fusion_lat": 0.0, "type": "electric_scooter", "lat": 38.900787, "is_disabled": 0, "name": "53d3766a777d71356f6adf4db82f0306", "is_reserved": 0, "bike_id": "53d3766a777d71356f6adf4db82f0306", "fusion_lon": 0.0, "rental_uris": {"ios": "https://dc.lft.to/lastmile_qr_scan", "android": "https://dc.lft.to/lastmile_qr_scan"}},