{"data": {"bikes": [{"type": "electric_scooter", "bike_id": "59b46e89ccee173f1c372e36fabce5f2", "is_disabled": 0, "name": "59b46e89ccee173f1c372e36fabce5f2", "lon": -76.9438325, "is_reserved": 0, "fusion_lon": 0.0, "lat": 38.89104716666667, "rental_uris": {"android": "https://dc.lft.to/lastmile_qr_scan", "ios": "https://dc.lft.to/lastmile_qr_scan"}, "fusion_lat": 0.0}, {"type": "electric_scooter", "bike_id": "f8bb0c0af52ff7c10d085de9e7d77766", "is_disabled": 0, "name": "f8bb0c0af52ff7c10d085de9e7d77766", "lon": -77.04652366666667, "is_reserved": 0, "fusion_lon": 0.0, "lat": 38.9066525, "rental_uris": {"android": "https://dc.lft.to/lastmile_qr_scan", "ios": "https://dc.lft.to/lastmile_qr_scan"}, "fusion_lat": 0.0}, {"type": "electric_scooter", "bike_id": "647587f6b9715d16023ae932ecdd3229", "is_disabled": 0, "name": "647587f6b9715d16023ae932ecdd3229", "lon": -76.93012583333334, "is_reserved": 0, "fusion_lon": 0.0, "lat": 38.90713183333333, "rental_uris": {"android": "https://dc.lft.to/lastmile_qr_scan", "ios": "https://dc.lft.to/lastmile_qr_scan"}, "fusion_lat": 0.0}, {"type": "electric_scooter", "bike_id": "0a02371913d9bb1bf69dd044c91212fa", "is_disabled": 0, "name": "0a02371913d9bb1bf69dd044c91212fa", "lon": -77.02844616666667, "is_reserved": 0, "fusion_lon": 0.0, "lat": 38.901967166666665, "rental_uris": {"android": "https://dc.lft.to/lastmile_qr_scan", "ios": "https://dc.lft.to/lastmile_qr_scan"}, "fusion_lat": 0.0}, {"type": "electric_bike", "bike_id": "5820872020d1f9dd7946d2a0992dd1c1", "is_disabled": 0, "name": "5820872020d1f9dd7946d2a0992dd1c1", "lon": -77.09524883333333, "is_reserved": 0, "fusion_lon": 0.0, "lat": 38.838116, "rental_uris": {"android": "https://dc.lft.to/lastmile_qr_scan", "ios": "https://dc.lft.to/lastmile_qr_scan"}, "fusion_lat": 0.0}, {"type": "electric_scooter", "bike_id": "16ea206f866ba27a25ea34e5dba2c361", "is_disabled": 0, "name": "16ea206f866ba27a25ea34e5dba2c361", "lon": -77.02848233333333, "is_reserved": 0, "fusion_lon": 0.0, "lat": 38.89331266666667, "rental_uris": {"android": "https://dc.lft.to/lastmile_qr_scan", "ios": "https://dc.lft.to/lastmile_qr_scan"}, "fusion_lat": 0.0}, {"type": "electric_scooter", "bike_id": "f0bbfe1f77ac452e3b3aae48bcca8993", "is_disabled": 0, "name": "f0bbfe1f77ac452e3b3aae48bcca8993", "lon": -77.02987533333334, "is_reserved": 0, "fusion_lon": 0.0, "lat": 38.9071865, "rental_uris": {"android": "https://dc.lft.to/lastmile_qr_scan", "ios": "https://dc.lft.to/lastmile_qr_scan"}, "fusion_lat": 0.0}, {"type": "electric_scooter", "bike_id": "4020abaa5829793141d69c25024e4d41", "is_disabled": 0, "name": "4020abaa5829793141d69c25024e4d41", "lon": -77.04343983333334, "is_reserved": 0, "fusion_lon": 0.0, "lat": 38.897454333333336, "rental_uris": {"android": "https://dc.lft.to/lastmile_qr_scan", "ios": "https://dc.lft.to/lastmile_qr_scan"}, "fusion_lat": 0.0}, {"type": "electric_scooter", "bike_id": "139aea402b635dda84a6a28d81a74d8d", "is_disabled": 0, "name": "139aea402b635dda84a6a28d81a74d8d", "lon": -77.028079, "is_reserved": 0, "fusion_lon": 0.0, "lat": 38.902493666666665, "rental_uris": {"android": "https://dc.lft.to/lastmile_qr_scan", "ios": "https://dc.lft.to/lastmile_qr_scan"}, "fusion_lat": 0.0}, {"type": "electric_scooter", "bike_id": "452401210abb02ca2f57d105f2d32222", "is_disabled": 0, "name": "452401210abb02ca2f57d105f2d32222", "lon": -77.0726435, "is_reserved": 0, "fusion_lon": 0.0, "lat": 38.908969, "rental_uris": {"android": "https://dc.lft.to/lastmile_qr_scan", "ios": "https://dc.lft.to/lastmile_qr_scan"}, "fusion_lat": 0.0}, {"type": "electric_scooter", "bike_id": "14ecb1ddf56095736a32d3949359b67b", "is_disabled": 0, "name": "14ecb1ddf56095736a32d3949359b67b", "lon": -77.00750783333334, "is_reserved": 0, "fusion_lon": 0.0, "lat": 38.900423833333335, "rental_uris": {"android": "https://dc.lft.to/lastmile_qr_scan", "ios": "https://dc.lft.to/lastmile_qr_scan"}, "fusion_lat": 0.0}, {"type": "electric_scooter", "bike_id": "48d9d6f983f30a82f2f7db5baaad9bdb", "is_disabled": 0, "name": "48d9d6f983f30a82f2f7db5baaad9bdb", "lon": -77.0220035, "is_reserved": 0, "fusion_lon": 0.0, "lat": 38.90153166666666, "rental_uris": {"android": "https://dc.lft.to/lastmile_qr_scan", "ios": "https://dc.lft.to/lastmile_qr_scan"}, "fusion_lat": 0.0}, {"type": "electric_scooter", "bike_id": "f1bf6962b52b042eefa80dec6d3d0e92", "is_disabled": 0, "name": "f1bf6962b52b042eefa80dec6d3d0e92", "lon": -77.012272, "is_reserved": 0, "fusion_lon": 0.0, "lat": 38.89775216666666, "rental_uris": {"android": "https://dc.lft.to/lastmile_qr_scan", "ios": "https://dc.lft.to/lastmile_qr_scan"}, "fusion_lat": 0.0}, {"type": "electric_scooter", "bike_id": "2f22f5922e3707b5e64ef8568efb4808", "is_disabled": 0, "name": "2f22f5922e3707b5e64ef8568efb4808", "lon": -77.07309683333334, "is_reserved": 0, "fusion_lon": 0.0, "lat": 38.92277933333333, "rental_uris": {"android": "https://dc.lft.to/lastmile_qr_scan", "ios": "https://dc.lft.to/lastmile_qr_scan"}, "fusion_lat": 0.0}, {"type": "electric_scooter", "bike_id": "131cca954d1651401d492cd9a3f9d983", "is_disabled": 0, "name": "131cca954d1651401d492cd9a3f9d983", "lon": -77.01260683333334, "is_reserved": 0, "fusion_lon": 0.0, "lat": 38.897236666666664, "rental_uris": {"android": "https://dc.lft.to/lastmile_qr_scan", "ios": "https://dc.lft.to/lastmile_qr_scan"}, "fusion_lat": 0.0}, {"type": "electric_scooter", "bike_id": "91ca768b3a411d242bf8a3bd70ffe089", "is_disabled": 0, "name": "91ca768b3a411d242bf8a3bd70ffe089", "lon": -77.04670783333333, "is_reserved": 0, "fusion_lon": 0.0, "lat": 38.903755833333335, "rental_uris": {"android": "https://dc.lft.to/lastmile_qr_scan", "ios": "https://dc.lft.to/lastmile_qr_scan"}, "fusion_lat": 0.0}, {"type": "electric_scooter", "bike_id": "573c3ebad57020a91333ac8cc006bc93", "is_disabled": 0, "name": "573c3ebad57020a91333ac8cc006bc93", "lon": -76.98888233333334, "is_reserved": 0, "fusion_lon": 0.0, "lat": 38.934681166666664, "rental_uris": {"android": "https://dc.lft.to/lastmile_qr_scan", "ios": "https://dc.lft.to/lastmile_qr_scan"}, "fusion_lat": 0.0}, {"type": "electric_scooter", "bike_id": "f8483797e774449261dac488bcf73fbd", "is_disabled": 0, "name": "f8483797e774449261dac488bcf73fbd", "lon": -77.0397835, "is_reserved": 0, "fusion_lon": 0.0, "lat": 38.89929083333333, "rental_uris": {"android": "https://dc.lft.to/lastmile_qr_scan", "ios": "https://dc.lft.to/lastmile_qr_scan"}, "fusion_lat": 0.0}, {"type": "electric_scooter", "bike_id": "e5f69d8f6afa5060e471493649051419", "is_disabled": 0, "name": "e5f69d8f6afa5060e471493649051419", "lon": -77.03163966666666, "is_reserved": 0, "fusion_lon": 0.0, "lat": 38.92370583333334, "rental_uris": {"android": "https://dc.lft.to/lastmile_qr_scan", "ios": "https://dc.lft.to/lastmile_qr_scan"}, "fusion_lat": 0.0}, {"type": "electric_scooter", "bike_id": "a95dab03c5d36c58736fecf4a0a50acd", "is_disabled": 0, "name": "a95dab03c5d36c58736fecf4a0a50acd", "lon": -77.03833333333333, "is_reserved": 0, "fusion_lon": 0.0, "lat": 38.917124333333334, "rental_uris": {"android": "https://dc.lft.to/lastmile_qr_scan", "ios": "https://dc.lft.to/lastmile_qr_scan"}, "fusion_lat": 0.0}, {"type": "electric_scooter", "bike_id": "6ea3e4223e5ac1a108f2c5200bd06fc1", "is_disabled": 0, "name": "6ea3e4223e5ac1a108f2c5200bd06fc1", "lon": -77.0294025, "is_reserved": 0, "fusion_lon": 0.0, "lat": 38.907238666666665, "rental_uris": {"android": "https://dc.lft.to/lastmile_qr_scan", "ios": "https://dc.lft.to/lastmile_qr_scan"}, "fusion_lat": 0.0}, {"type": "electric_scooter", "bike_id": "719b79e397115baffefaca59f48e9530", "is_disabled": 0, "name": "719b79e397115baffefaca59f48e9530", "lon": -77.03184766666666, "is_reserved": 0, "fusion_lon": 0.0, "lat": 38.91657033333333, "rental_uris": {"android": "https://dc.lft.to/lastmile_qr_scan", "ios": "https://dc.lft.to/lastmile_qr_scan"}, "fusion_lat": 0.0}, {"type": "electric_scooter", "bike_id": "4496169fb8d55f11f374c9dc328a1e3d", "is_disabled": 0, "name": "4496169fb8d55f11f374c9dc328a1e3d", "lon": -76.9833165, "is_reserved": 0, "fusion_lon": 0.0, "lat": 38.895430166666664, "rental_uris": {"android": "https://dc.lft.to/lastmile_qr_scan", "ios": "https://dc.lft.to/lastmile_qr_scan"}, "fusion_lat": 0.0}, {"type": "electric_scooter", "bike_id": "4562617e9c29e0d8591e67adf8c3c3b0", "is_disabled": 0, "name": "4562617e9c29e0d8591e67adf8c3c3b0", "lon": -77.04862683333333, "is_reserved": 0, "fusion_lon": 0.0, "lat": 38.91273866666667, "rental_uris": {"android": "https://dc.lft.to/lastmile_qr_scan", "ios": "https://dc.lft.to/lastmile_qr_scan"}, "fusion_lat": 0.0}, {"type": "electric_scooter", "bike_id": "4820ce7c09e4f5db3972fc52af39d2c9", "is_disabled": 0, "name": "4820ce7c09e4f5db3972fc52af39d2c9", "lon": -77.00346333333333, "is_reserved": 0, "fusion_lon": 0.0, "lat": 38.916253833333336, "rental_uris": {"android": "https://dc.lft.to/lastmile_qr_scan", "ios": "https://dc.lft.to/lastmile_qr_scan"}, "fusion_lat": 0.0}, {"type": "electric_scooter", "bike_id": "7a015b805d37b3043551cdd6b6b6589b", "is_disabled": 0, "name": "7a015b805d37b3043551cdd6b6b6589b", "lon": -77.067132, "is_reserved": 0, "fusion_lon": 0.0, "lat": 38.95013, "rental_uris": {"android": "https://dc.lft.to/lastmile_qr_scan", "ios": "https://dc.lft.to/lastmile_qr_scan"}, "fusion_lat": 0.0}, {"type": "electric_scooter", "bike_id": "5b39d2bce4c81b8c156a7d53386ee96d", "is_disabled": 0, "name": "5b39d2bce4c81b8c156a7d53386ee96d", "lon": -77.02225216666666, "is_reserved": 0, "fusion_lon": 0.0, "lat": 38.9126745, "rental_uris": {"android": "https://dc.lft.to/lastmile_qr_scan", "ios": "https://dc.lft.to/lastmile_qr_scan"}, "fusion_lat": 0.0}, {"type": "electric_scooter", "bike_id": "c4668894a19a625b6a7d25db662622b7", "is_disabled": 0, "name": "c4668894a19a625b6a7d25db662622b7", "lon": -77.01764783333333, "is_reserved": 0, "fusion_lon": 0.0, "lat": 38.921114833333334, "rental_uris": {"android": "https://dc.lft.to/lastmile_qr_scan", "ios": "https://dc.lft.to/lastmile_qr_scan"}, "fusion_lat": 0.0}, {"type": "electric_scooter", "bike_id": "2fac2d26c512adaaf4de1cbcddf368a4", "is_disabled": 0, "name": "2fac2d26c512adaaf4de1cbcddf368a4", "lon": -77.02190816666666, "is_reserved": 0, "fusion_lon": 0.0, "lat": 38.905410833333335, "rental_uris": {"android": "https://dc.lft.to/lastmile_qr_scan", "ios": "https://dc.lft.to/lastmile_qr_scan"}, "fusion_lat": 0.0}, {"type": "electric_scooter", "bike_id": "b5505ad976bc16e9616e52b62528d3ac", "is_disabled": 0, "name": "b5505ad976bc16e9616e52b62528d3ac", "lon": -77.03212516666666, "is_reserved": 0, "fusion_lon": 0.0, "lat": 38.9145445, "rental_uris": {"android": "https://dc.lft.to/lastmile_qr_scan", "ios": "https://dc.lft.to/lastmile_qr_scan"}, "fusion_lat": 0.0}, {"type": "electric_scooter", "bike_id": "46f4a90fbc14ad5426ad4f2e1637b51f", "is_disabled": 0, "name": "46f4a90fbc14ad5426ad4f2e1637b51f", "lon": -77.01857116666666, "is_reserved": 0, "fusion_lon": 0.0, "lat": 38.91528733333333, "rental_uris": {"android": "https://dc.lft.to/lastmile_qr_scan", "ios": "https://dc.lft.to/lastmile_qr_scan"}, "fusion_lat": 0.0}, {"type": "electric_scooter", "bike_id": "c43a18d5bda061d7dc95556dcd5758ad", "is_disabled": 0, "name": "c43a18d5bda061d7dc95556dcd5758ad", "lon": -77.0075425, "is_reserved": 0, "fusion_lon": 0.0, "lat": 38.871207, "rental_uris": {"android": "https://dc.lft.to/lastmile_qr_scan", "ios": "https://dc.lft.to/lastmile_qr_scan"}, "fusion_lat": 0.0}, {"type": "electric_scooter", "bike_id": "248e90d45a034ce3e894207be858d7b0", "is_disabled": 0, "name": "248e90d45a034ce3e894207be858d7b0", "lon": -77.03659283333333, "is_reserved": 0, "fusion_lon": 0.0, "lat": 38.902856666666665, "rental_uris": {"android": "https://dc.lft.to/lastmile_qr_scan", "ios": "https://dc.lft.to/lastmile_qr_scan"}, "fusion_lat": 0.0}, {"type": "electric_scooter", "bike_id": "8770c1fc2e26b0b9b90527c5b6152dab", "is_disabled": 0, "name": "8770c1fc2e26b0b9b90527c5b6152dab", "lon": -77.04883533333333, "is_reserved": 0, "fusion_lon": 0.0, "lat": 38.90971916666667, "rental_uris": {"android": "https://dc.lft.to/lastmile_qr_scan", "ios": "https://dc.lft.to/lastmile_qr_scan"}, "fusion_lat": 0.0}, {"type": "electric_bike", "bike_id": "69fb54cb6c27f908c0dd348a3a287a48", "is_disabled": 0, "name": "69fb54cb6c27f908c0dd348a3a287a48", "lon": -77.114079, "is_reserved": 0, "fusion_lon": 0.0, "lat": 38.873179666666665, "rental_uris": {"android": "https://dc.lft.to/lastmile_qr_scan", "ios": "https://dc.lft.to/lastmile_qr_scan"}, "fusion_lat": 0.0}, {"type": "electric_scooter", "bike_id": "095e147d237871bb449b606aff3511f9", "is_disabled": 0, "name": "095e147d237871bb449b606aff3511f9", "lon": -77.05003566666667, "is_reserved": 0, "fusion_lon": 0.0, "lat": 38.90618816666667, "rental_uris": {"android": "https://dc.lft.to/lastmile_qr_scan", "ios": "https://dc.lft.to/lastmile_qr_scan"}, "fusion_lat": 0.0}, {"type": "electric_scooter", "bike_id": "225469c96e295ecba1547fe840a81130", "is_disabled": 0, "name": "225469c96e295ecba1547fe840a81130", "lon": -76.983757, "is_reserved": 0, "fusion_lon": 0.0, "lat": 38.891386, "rental_uris": {"android": "https://dc.lft.to/lastmile_qr_scan", "ios": "https://dc.lft.to/lastmile_qr_scan"}, "fusion_lat": 0.0}, {"type": "electric_scooter", "bike_id": "8ff82961fdcb2a7184528c227ff2af3f", "is_disabled": 0, "name": "8ff82961fdcb2a7184528c227ff2af3f", "lon": -77.01587533333333, "is_reserved": 0, "fusion_lon": 0.0, "lat": 38.9167835, "rental_uris": {"android": "https://dc.lft.to/lastmile_qr_scan", "ios": "https://dc.lft.to/lastmile_qr_scan"}, "fusion_lat": 0.0}, {"type": "electric_scooter", "bike_id": "ee7caf37fa8d40610cc4f2df65673eb1", "is_disabled": 0, "name": "ee7caf37fa8d40610cc4f2df65673eb1", "lon": -77.02310966666667, "is_reserved": 0, "fusion_lon": 0.0, "lat": 38.894800833333335, "rental_uris": {"android": "https://dc.lft.to/lastmile_qr_scan", "ios": "https://dc.lft.to/lastmile_qr_scan"}, "fusion_lat": 0.0}, {"type": "electric_bike", "bike_id": "3b9dadf30b1ef9c406aa46b47f925dd9", "is_disabled": 0, "name": "3b9dadf30b1ef9c406aa46b47f925dd9", "lon": -77.02007366666666, "is_reserved": 0, "fusion_lon": 0.0, "lat": 39.026231, "rental_uris": {"android": "https://dc.lft.to/lastmile_qr_scan", "ios": "https://dc.lft.to/lastmile_qr_scan"}, "fusion_lat": 0.0}, {"type": "electric_bike", "bike_id": "df215db000b01d73667caba147da6efa", "is_disabled": 0, "name": "df215db000b01d73667caba147da6efa", "lon": -77.1128715, "is_reserved": 0, "fusion_lon": 0.0, "lat": 38.831021666666665, "rental_uris": {"android": "https://dc.lft.to/lastmile_qr_scan", "ios": "https://dc.lft.to/lastmile_qr_scan"}, "fusion_lat": 0.0}, {"type": "electric_scooter", "bike_id": "cabaf89674b6893d7ac901a6d916b72c", "is_disabled": 0, "name": "cabaf89674b6893d7ac901a6d916b72c", "lon": -77.031617, "is_reserved": 0, "fusion_lon": 0.0, "lat": 38.93056716666667, "rental_uris": {"android": "https://dc.lft.to/lastmile_qr_scan", "ios": "https://dc.lft.to/lastmile_qr_scan"}, "fusion_lat": 0.0}, {"type": "electric_scooter", "bike_id": "b60ccda7580b8a57945619b35f3c20b2", "is_disabled": 0, "name": "b60ccda7580b8a57945619b35f3c20b2", "lon": -77.008253, "is_reserved": 0, "fusion_lon": 0.0, "lat": 38.9156055, "rental_uris": {"android": "https://dc.lft.to/lastmile_qr_scan", "ios": "https://dc.lft.to/lastmile_qr_scan"}, "fusion_lat": 0.0}, {"type": "electric_scooter", "bike_id": "803a5115a3bf0b130c762015c8af453a", "is_disabled": 0, "name": "803a5115a3bf0b130c762015c8af453a", "lon": -77.02688516666667, "is_reserved": 0, "fusion_lon": 0.0, "lat": 38.93079066666667, "rental_uris": {"android": "https://dc.lft.to/lastmile_qr_scan", "ios": "https://dc.lft.to/lastmile_qr_scan"}, "fusion_lat": 0.0}, {"type": "electric_bike", "bike_id": "bee44074a021501efc9fd4cc01373443", "is_disabled": 0, "name": "bee44074a021501efc9fd4cc01373443", "lon": -76.995452, "is_reserved": 0, "fusion_lon": 0.0, "lat": 38.8620185, "rental_uris": {"android": "https://dc.lft.to/lastmile_qr_scan", "ios": "https://dc.lft.to/lastmile_qr_scan"}, "fusion_lat": 0.0}, {"type": "electric_scooter", "bike_id": "9e74302b188bf5ccc8e8bd7f3193cf2a", "is_disabled": 0, "name": "9e74302b188bf5ccc8e8bd7f3193cf2a", "lon": -77.01834183333334, "is_reserved": 0, "fusion_lon": 0.0, "lat": 38.92151333333333, "rental_uris": {"android": "https://dc.lft.to/lastmile_qr_scan", "ios": "https://dc.lft.to/lastmile_qr_scan"}, "fusion_lat": 0.0}, {"type": "electric_scooter", "bike_id": "b0fbc53a8eb2b02d78835a600336fbf0", "is_disabled": 0, "name": "b0fbc53a8eb2b02d78835a600336fbf0", "lon": -77.03664166666667, "is_reserved": 0, "fusion_lon": 0.0, "lat": 38.91799866666667, "rental_uris": {"android": "https://dc.lft.to/lastmile_qr_scan", "ios": "https://dc.lft.to/lastmile_qr_scan"}, "fusion_lat": 0.0}, {"type": "electric_scooter", "bike_id": "dfc93637ad50197727c32c5fd2d56c4b", "is_disabled": 0, "name": "dfc93637ad50197727c32c5fd2d56c4b", "lon": -77.03429133333333, "is_reserved": 0, "fusion_lon": 0.0, "lat": 38.9139745, "rental_uris": {"android": "https://dc.lft.to/lastmile_qr_scan", "ios": "https://dc.lft.to/lastmile_qr_scan"}, "fusion_lat": 0.0}, {"type": "electric_scooter", "bike_id": "844fc4be5380af41b1f1cbbb26b6ba82", "is_disabled": 0, "name": "844fc4be5380af41b1f1cbbb26b6ba82", "lon": -77.02656316666666, "is_reserved": 0, "fusion_lon": 0.0, "lat": 38.9238045, "rental_uris": {"android": "https://dc.lft.to/lastmile_qr_scan", "ios": "https://dc.lft.to/lastmile_qr_scan"}, "fusion_lat": 0.0}, {"type": "electric_bike", "bike_id": "c754aa85bea29936fa356e91af3ab593", "is_disabled": 0, "name": "c754aa85bea29936fa356e91af3ab593", "lon": -76.98980316666666, "is_reserved": 0, "fusion_lon": 0.0, "lat": 38.93716366666666, "rental_uris": {"android": "https://dc.lft.to/lastmile_qr_scan", "ios": "https://dc.lft.to/lastmile_qr_scan"}, "fusion_lat": 0.0}, {"type": "electric_bike", "bike_id": "3adad8a0ed982cc7cd459cd1c8dc9e4f", "is_disabled": 0, "name": "3adad8a0ed982cc7cd459cd1c8dc9e4f", "lon": -77.0306895, "is_reserved": 0, "fusion_lon": 0.0, "lat": 38.92865833333333, "rental_uris": {"android": "https://dc.lft.to/lastmile_qr_scan", "ios": "https://dc.lft.to/lastmile_qr_scan"}, "fusion_lat": 0.0}, {"type": "electric_scooter", "bike_id": "8dcf03b88ebac32bcc1f3079bbe92fd8", "is_disabled": 0, "name": "8dcf03b88ebac32bcc1f3079bbe92fd8", "lon": -76.981133, "is_reserved": 0, "fusion_lon": 0.0, "lat": 38.91468233333333, "rental_uris": {"android": "https://dc.lft.to/lastmile_qr_scan", "ios": "https://dc.lft.to/lastmile_qr_scan"}, "fusion_lat": 0.0}, {"type": "electric_bike", "bike_id": "99c8b0ca099ac4ac8a73b34059d56cfc", "is_disabled": 0, "name": "99c8b0ca099ac4ac8a73b34059d56cfc", "lon": -77.065332, "is_reserved": 0, "fusion_lon": 0.0, "lat": 38.9922515, "rental_uris": {"android": "https://dc.lft.to/lastmile_qr_scan", "ios": "https://dc.lft.to/lastmile_qr_scan"}, "fusion_lat": 0.0}, {"type": "electric_scooter", "bike_id": "4bfa0c14511087aa320542da1cad1f1a", "is_disabled": 0, "name": "4bfa0c14511087aa320542da1cad1f1a", "lon": -77.01571416666667, "is_reserved": 0, "fusion_lon": 0.0, "lat": 38.87650466666667, "rental_uris": {"android": "https://dc.lft.to/lastmile_qr_scan", "ios": "https://dc.lft.to/lastmile_qr_scan"}, "fusion_lat": 0.0}, {"type": "electric_scooter", "bike_id": "22c88f335cdcf42b8be7094008ed6cac", "is_disabled": 0, "name": "22c88f335cdcf42b8be7094008ed6cac", "lon": -77.04664766666667, "is_reserved": 0, "fusion_lon": 0.0, "lat": 38.909484166666665, "rental_uris": {"android": "https://dc.lft.to/lastmile_qr_scan", "ios": "https://dc.lft.to/lastmile_qr_scan"}, "fusion_lat": 0.0}, {"type": "electric_scooter", "bike_id": "703a8a394a6ffbf2e9767ddc7a76b7ca", "is_disabled": 0, "name": "703a8a394a6ffbf2e9767ddc7a76b7ca", "lon": -77.016302, "is_reserved": 0, "fusion_lon": 0.0, "lat": 38.887320833333334, "rental_uris": {"android": "https://dc.lft.to/lastmile_qr_scan", "ios": "https://dc.lft.to/lastmile_qr_scan"}, "fusion_lat": 0.0}, {"type": "electric_scooter", "bike_id": "87da19a18a4bcb1f520f21d4bea1213d", "is_disabled": 0, "name": "87da19a18a4bcb1f520f21d4bea1213d", "lon": -77.03449, "is_reserved": 0, "fusion_lon": 0.0, "lat": 38.913949, "rental_uris": {"android": "https://dc.lft.to/lastmile_qr_scan", "ios": "https://dc.lft.to/lastmile_qr_scan"}, "fusion_lat": 0.0}, {"type": "electric_scooter", "bike_id": "e53ae9bca834c0a57c96afe4365c7123", "is_disabled": 0, "name": "e53ae9bca834c0a57c96afe4365c7123", "lon": -77.03090866666666, "is_reserved": 0, "fusion_lon": 0.0, "lat": 38.91056233333333, "rental_uris": {"android": "https://dc.lft.to/lastmile_qr_scan", "ios": "https://dc.lft.to/lastmile_qr_scan"}, "fusion_lat": 0.0}, {"type": "electric_scooter", "bike_id": "bde61ca66a6c6c25d1b11a46096f8695", "is_disabled": 0, "name": "bde61ca66a6c6c25d1b11a46096f8695", "lon": -77.01088483333334, "is_reserved": 0, "fusion_lon": 0.0, "lat": 38.90323016666667, "rental_uris": {"android": "https://dc.lft.to/lastmile_qr_scan", "ios": "https://dc.lft.to/lastmile_qr_scan"}, "fusion_lat": 0.0}, {"type": "electric_scooter", "bike_id": "9e8e27f4b23b428dee56afa7ee7183ab", "is_disabled": 0, "name": "9e8e27f4b23b428dee56afa7ee7183ab", "lon": -77.0090805, "is_reserved": 0, "fusion_lon": 0.0, "lat": 38.89547316666667, "rental_uris": {"android": "https://dc.lft.to/lastmile_qr_scan", "ios": "https://dc.lft.to/lastmile_qr_scan"}, "fusion_lat": 0.0}, {"type": "electric_scooter", "bike_id": "e3052e9a26cfd6dc83d9fddbf35c6936", "is_disabled": 0, "name": "e3052e9a26cfd6dc83d9fddbf35c6936", "lon": -77.007303, "is_reserved": 0, "fusion_lon": 0.0, "lat": 38.9118515, "rental_uris": {"android": "https://dc.lft.to/lastmile_qr_scan", "ios": "https://dc.lft.to/lastmile_qr_scan"}, "fusion_lat": 0.0}, {"type": "electric_scooter", "bike_id": "657b4153b5a3f5dac595e283a1df3e23", "is_disabled": 0, "name": "657b4153b5a3f5dac595e283a1df3e23", "lon": -77.04201666666667, "is_reserved": 0, "fusion_lon": 0.0, "lat": 38.9186805, "rental_uris": {"android": "https://dc.lft.to/lastmile_qr_scan", "ios": "https://dc.lft.to/lastmile_qr_scan"}, "fusion_lat": 0.0}, {"type": "electric_scooter", "bike_id": "0dff6ca79327c5de6dcafd37802e358f", "is_disabled": 0, "name": "0dff6ca79327c5de6dcafd37802e358f", "lon": -77.03375483333333, "is_reserved": 0, "fusion_lon": 0.0, "lat": 38.900197666666664, "rental_uris": {"android": "https://dc.lft.to/lastmile_qr_scan", "ios": "https://dc.lft.to/lastmile_qr_scan"}, "fusion_lat": 0.0}, {"type": "electric_scooter", "bike_id": "2697ee44598447f7b1cc2dd5d66704fc", "is_disabled": 0, "name": "2697ee44598447f7b1cc2dd5d66704fc", "lon": -77.00332983333334, "is_reserved": 0, "fusion_lon": 0.0, "lat": 38.899237666666664, "rental_uris": {"android": "https://dc.lft.to/lastmile_qr_scan", "ios": "https://dc.lft.to/lastmile_qr_scan"}, "fusion_lat": 0.0}, {"type": "electric_scooter", "bike_id": "bde78e2bc2095634a3af538fb811b20b", "is_disabled": 0, "name": "bde78e2bc2095634a3af538fb811b20b", "lon": -77.032719, "is_reserved": 0, "fusion_lon": 0.0, "lat": 38.9350765, "rental_uris": {"android": "https://dc.lft.to/lastmile_qr_scan", "ios": "https://dc.lft.to/lastmile_qr_scan"}, "fusion_lat": 0.0}, {"type": "electric_scooter", "bike_id": "a1f8af8b1556240dc88d681c12bb875d", "is_disabled": 0, "name": "a1f8af8b1556240dc88d681c12bb875d", "lon": -76.98084716666666, "is_reserved": 0, "fusion_lon": 0.0, "lat": 38.89437516666667, "rental_uris": {"android": "https://dc.lft.to/lastmile_qr_scan", "ios": "https://dc.lft.to/lastmile_qr_scan"}, "fusion_lat": 0.0}, {"type": "electric_scooter", "bike_id": "ebbcbaece1162f875c0696a7c69566ef", "is_disabled": 0, "name": "ebbcbaece1162f875c0696a7c69566ef", "lon": -77.05919716666666, "is_reserved": 0, "fusion_lon": 0.0, "lat": 38.9014465, "rental_uris": {"android": "https://dc.lft.to/lastmile_qr_scan", "ios": "https://dc.lft.to/lastmile_qr_scan"}, "fusion_lat": 0.0}, {"type": "electric_scooter", "bike_id": "ad7c8524253282add49e6c98d3cd07c1", "is_disabled": 0, "name": "ad7c8524253282add49e6c98d3cd07c1", "lon": -77.042282, "is_reserved": 0, "fusion_lon": 0.0, "lat": 38.911235833333336, "rental_uris": {"android": "https://dc.lft.to/lastmile_qr_scan", "ios": "https://dc.lft.to/lastmile_qr_scan"}, "fusion_lat": 0.0}, {"type": "electric_scooter", "bike_id": "237ba34d8719d1897389c09b3582cefc", "is_disabled": 0, "name": "237ba34d8719d1897389c09b3582cefc", "lon": -77.01815416666666, "is_reserved": 0, "fusion_lon": 0.0, "lat": 38.914010166666664, "rental_uris": {"android": "https://dc.lft.to/lastmile_qr_scan", "ios": "https://dc.lft.to/lastmile_qr_scan"}, "fusion_lat": 0.0}, {"type": "electric_scooter", "bike_id": "7b418a20c7e05d0682e5f46099a2c10e", "is_disabled": 0, "name": "7b418a20c7e05d0682e5f46099a2c10e", "lon": -77.02887883333334, "is_reserved": 0, "fusion_lon": 0.0, "lat": 38.93619966666667, "rental_uris": {"android": "https://dc.lft.to/lastmile_qr_scan", "ios": "https://dc.lft.to/lastmile_qr_scan"}, "fusion_lat": 0.0}, {"type": "electric_scooter", "bike_id": "b80ee1dde818a8098de1b38725bfd0f4", "is_disabled": 0, "name": "b80ee1dde818a8098de1b38725bfd0f4", "lon": -77.03645, "is_reserved": 0, "fusion_lon": 0.0, "lat": 38.90311466666667, "rental_uris": {"android": "https://dc.lft.to/lastmile_qr_scan", "ios": "https://dc.lft.to/lastmile_qr_scan"}, "fusion_lat": 0.0}, {"type": "electric_scooter", "bike_id": "a1e7dccbdd97c7f59c26dd7ec3d897f6", "is_disabled": 0, "name": "a1e7dccbdd97c7f59c26dd7ec3d897f6", "lon": -76.99455716666667, "is_reserved": 0, "fusion_lon": 0.0, "lat": 38.827757166666665, "rental_uris": {"android": "https://dc.lft.to/lastmile_qr_scan", "ios": "https://dc.lft.to/lastmile_qr_scan"}, "fusion_lat": 0.0}, {"type": "electric_bike", "bike_id": "5670bdd4ebee7c0b47006c1b26b4bc80", "is_disabled": 0, "name": "5670bdd4ebee7c0b47006c1b26b4bc80", "lon": -76.97438433333333, "is_reserved": 0, "fusion_lon": 0.0, "lat": 38.855776666666664, "rental_uris": {"android": "https://dc.lft.to/lastmile_qr_scan", "ios": "https://dc.lft.to/lastmile_qr_scan"}, "fusion_lat": 0.0}, {"type": "electric_scooter", "bike_id": "f7f72d4663286575f5cd237cc38f7730", "is_disabled": 0, "name": "f7f72d4663286575f5cd237cc38f7730", "lon": -77.0222785, "is_reserved": 0, "fusion_lon": 0.0, "lat": 38.9126665, "rental_uris": {"android": "https://dc.lft.to/lastmile_qr_scan", "ios": "https://dc.lft.to/lastmile_qr_scan"}, "fusion_lat": 0.0}, {"type": "electric_scooter", "bike_id": "d9a86d2575beecc7da8e8de657b1ef82", "is_disabled": 0, "name": "d9a86d2575beecc7da8e8de657b1ef82", "lon": -77.04348283333333, "is_reserved": 0, "fusion_lon": 0.0, "lat": 38.90425416666667, "rental_uris": {"android": "https://dc.lft.to/lastmile_qr_scan", "ios": "https://dc.lft.to/lastmile_qr_scan"}, "fusion_lat": 0.0}, {"type": "electric_scooter", "bike_id": "d3b6525fb18ac361511796605b2e0002", "is_disabled": 0, "name": "d3b6525fb18ac361511796605b2e0002", "lon": -77.005913, "is_reserved": 0, "fusion_lon": 0.0, "lat": 38.90297916666667, "rental_uris": {"android": "https://dc.lft.to/lastmile_qr_scan", "ios": "https://dc.lft.to/lastmile_qr_scan"}, "fusion_lat": 0.0}, {"type": "electric_scooter", "bike_id": "803f56845cd3ff07a8e86329b7238d19", "is_disabled": 0, "name": "803f56845cd3ff07a8e86329b7238d19", "lon": -77.03460383333334, "is_reserved": 0, "fusion_lon": 0.0, "lat": 38.908019, "rental_uris": {"android": "https://dc.lft.to/lastmile_qr_scan", "ios": "https://dc.lft.to/lastmile_qr_scan"}, "fusion_lat": 0.0}, {"type": "electric_scooter", "bike_id": "a8aae363edf616c102dbbb37f1f83bbb", "is_disabled": 0, "name": "a8aae363edf616c102dbbb37f1f83bbb", "lon": -77.032015, "is_reserved": 0, "fusion_lon": 0.0, "lat": 38.91909783333333, "rental_uris": {"android": "https://dc.lft.to/lastmile_qr_scan", "ios": "https://dc.lft.to/lastmile_qr_scan"}, "fusion_lat": 0.0}, {"type": "electric_scooter", "bike_id": "b38a769c229ac16ebe55adf457fd82e9", "is_disabled": 0, "name": "b38a769c229ac16ebe55adf457fd82e9", "lon": -77.023955, "is_reserved": 0, "fusion_lon": 0.0, "lat": 38.90969783333333, "rental_uris": {"android": "https://dc.lft.to/lastmile_qr_scan", "ios": "https://dc.lft.to/lastmile_qr_scan"}, "fusion_lat": 0.0}, {"type": "electric_scooter", "bike_id": "803809a6c6c57a826719271dc25916ad", "is_disabled": 0, "name": "803809a6c6c57a826719271dc25916ad", "lon": -77.04174816666666, "is_reserved": 0, "fusion_lon": 0.0, "lat": 38.9057715, "rental_uris": {"android": "https://dc.lft.to/lastmile_qr_scan", "ios": "https://dc.lft.to/lastmile_qr_scan"}, "fusion_lat": 0.0}, {"type": "electric_scooter", "bike_id": "e90837213dfe92576256725e6fdbe120", "is_disabled": 0, "name": "e90837213dfe92576256725e6fdbe120", "lon": -77.02659066666666, "is_reserved": 0, "fusion_lon": 0.0, "lat": 38.930995, "rental_uris": {"android": "https://dc.lft.to/lastmile_qr_scan", "ios": "https://dc.lft.to/lastmile_qr_scan"}, "fusion_lat": 0.0}, {"type": "electric_scooter", "bike_id": "7ecb73d1d47520a6e8e1c88c1c01cc6c", "is_disabled": 0, "name": "7ecb73d1d47520a6e8e1c88c1c01cc6c", "lon": -77.02172366666667, "is_reserved": 0, "fusion_lon": 0.0, "lat": 38.91999416666667, "rental_uris": {"android": "https://dc.lft.to/lastmile_qr_scan", "ios": "https://dc.lft.to/lastmile_qr_scan"}, "fusion_lat": 0.0}, {"type": "electric_scooter", "bike_id": "d0f32ac39270e817fb9b3821203e253f", "is_disabled": 0, "name": "d0f32ac39270e817fb9b3821203e253f", "lon": -77.041299, "is_reserved": 0, "fusion_lon": 0.0, "lat": 38.92163383333333, "rental_uris": {"android": "https://dc.lft.to/lastmile_qr_scan", "ios": "https://dc.lft.to/lastmile_qr_scan"}, "fusion_lat": 0.0}, {"type": "electric_scooter", "bike_id": "9810de84eee7e6053729b991f3ec1da6", "is_disabled": 0, "name": "9810de84eee7e6053729b991f3ec1da6", "lon": -77.0385745, "is_reserved": 0, "fusion_lon": 0.0, "lat": 38.911685, "rental_uris": {"android": "https://dc.lft.to/lastmile_qr_scan", "ios": "https://dc.lft.to/lastmile_qr_scan"}, "fusion_lat": 0.0}, {"type": "electric_bike", "bike_id": "21c62acd297954ae57d77a0a5aa70518", "is_disabled": 0, "name": "21c62acd297954ae57d77a0a5aa70518", "lon": -76.91721566666666, "is_reserved": 0, "fusion_lon": 0.0, "lat": 38.88025916666667, "rental_uris": {"android": "https://dc.lft.to/lastmile_qr_scan", "ios": "https://dc.lft.to/lastmile_qr_scan"}, "fusion_lat": 0.0}, {"type": "electric_scooter", "bike_id": "c6e500b4ea933948dab44abf09989b10", "is_disabled": 0, "name": "c6e500b4ea933948dab44abf09989b10", "lon": -76.99776033333333, "is_reserved": 0, "fusion_lon": 0.0, "lat": 38.91113683333333, "rental_uris": {"android": "https://dc.lft.to/lastmile_qr_scan", "ios": "https://dc.lft.to/lastmile_qr_scan"}, "fusion_lat": 0.0}, {"type": "electric_scooter", "bike_id": "3dfd25a3b84bfb03172d0ebecf7dacfe", "is_disabled": 0, "name": "3dfd25a3b84bfb03172d0ebecf7dacfe", "lon": -77.04416066666667, "is_reserved": 0, "fusion_lon": 0.0, "lat": 38.901382166666664, "rental_uris": {"android": "https://dc.lft.to/lastmile_qr_scan", "ios": "https://dc.lft.to/lastmile_qr_scan"}, "fusion_lat": 0.0}, {"type": "electric_scooter", "bike_id": "0127f6a7bbd943bdce157e907259b31a", "is_disabled": 0, "name": "0127f6a7bbd943bdce157e907259b31a", "lon": -77.03510366666667, "is_reserved": 0, "fusion_lon": 0.0, "lat": 38.9005565, "rental_uris": {"android": "https://dc.lft.to/lastmile_qr_scan", "ios": "https://dc.lft.to/lastmile_qr_scan"}, "fusion_lat": 0.0}, {"type": "electric_scooter", "bike_id": "1ea19032760229e42ba92f5054224f36", "is_disabled": 0, "name": "1ea19032760229e42ba92f5054224f36", "lon": -77.00296916666667, "is_reserved": 0, "fusion_lon": 0.0, "lat": 38.89190033333333, "rental_uris": {"android": "https://dc.lft.to/lastmile_qr_scan", "ios": "https://dc.lft.to/lastmile_qr_scan"}, "fusion_lat": 0.0}, {"type": "electric_scooter", "bike_id": "388a93485830a85d36cfbd7d693204fa", "is_disabled": 0, "name": "388a93485830a85d36cfbd7d693204fa", "lon": -77.05030116666667, "is_reserved": 0, "fusion_lon": 0.0, "lat": 38.89836733333333, "rental_uris": {"android": "https://dc.lft.to/lastmile_qr_scan", "ios": "https://dc.lft.to/lastmile_qr_scan"}, "fusion_lat": 0.0}, {"type": "electric_scooter", "bike_id": "f9cd1ca253bc2f3c17883bbe2f426a34", "is_disabled": 0, "name": "f9cd1ca253bc2f3c17883bbe2f426a34", "lon": -77.02336933333333, "is_reserved": 0, "fusion_lon": 0.0, "lat": 38.922312, "rental_uris": {"android": "https://dc.lft.to/lastmile_qr_scan", "ios": "https://dc.lft.to/lastmile_qr_scan"}, "fusion_lat": 0.0}, {"type": "electric_scooter", "bike_id": "c7630a909fb106d2fa2eda61196405a7", "is_disabled": 0, "name": "c7630a909fb106d2fa2eda61196405a7", "lon": -77.02404583333333, "is_reserved": 0, "fusion_lon": 0.0, "lat": 38.920960666666666, "rental_uris": {"android": "https://dc.lft.to/lastmile_qr_scan", "ios": "https://dc.lft.to/lastmile_qr_scan"}, "fusion_lat": 0.0}, {"type": "electric_scooter", "bike_id": "89084bd356bf6e8c39c81783775decdf", "is_disabled": 0, "name": "89084bd356bf6e8c39c81783775decdf", "lon": -77.032587, "is_reserved": 0, "fusion_lon": 0.0, "lat": 38.91984016666667, "rental_uris": {"android": "https://dc.lft.to/lastmile_qr_scan", "ios": "https://dc.lft.to/lastmile_qr_scan"}, "fusion_lat": 0.0}, {"type": "electric_scooter", "bike_id": "ec21fd8123567fac268f9e7d33e4b052", "is_disabled": 0, "name": "ec21fd8123567fac268f9e7d33e4b052", "lon": -77.02373266666666, "is_reserved": 0, "fusion_lon": 0.0, "lat": 38.93710466666667, "rental_uris": {"android": "https://dc.lft.to/lastmile_qr_scan", "ios": "https://dc.lft.to/lastmile_qr_scan"}, "fusion_lat": 0.0}, {"type": "electric_bike", "bike_id": "04a89ca694b374cd66a62c089cb2bc5b", "is_disabled": 0, "name": "04a89ca694b374cd66a62c089cb2bc5b", "lon": -77.029143, "is_reserved": 0, "fusion_lon": 0.0, "lat": 38.92132266666667, "rental_uris": {"android": "https://dc.lft.to/lastmile_qr_scan", "ios": "https://dc.lft.to/lastmile_qr_scan"}, "fusion_lat": 0.0}, {"type": "electric_scooter", "bike_id": "e56d5160bc9c601ba38ea9740c86cc3b", "is_disabled": 0, "name": "e56d5160bc9c601ba38ea9740c86cc3b", "lon": -77.02767033333333, "is_reserved": 0, "fusion_lon": 0.0, "lat": 38.9541415, "rental_uris": {"android": "https://dc.lft.to/lastmile_qr_scan", "ios": "https://dc.lft.to/lastmile_qr_scan"}, "fusion_lat": 0.0}, {"type": "electric_scooter", "bike_id": "5772dec0d18e879016587745766aad52", "is_disabled": 0, "name": "5772dec0d18e879016587745766aad52", "lon": -77.0452725, "is_reserved": 0, "fusion_lon": 0.0, "lat": 38.918223166666664, "rental_uris": {"android": "https://dc.lft.to/lastmile_qr_scan", "ios": "https://dc.lft.to/lastmile_qr_scan"}, "fusion_lat": 0.0}, {"type": "electric_bike", "bike_id": "f245cd6257adf49cde32eec857c57386", "is_disabled": 0, "name": "f245cd6257adf49cde32eec857c57386", "lon": -77.07917416666666, "is_reserved": 0, "fusion_lon": 0.0, "lat": 38.83823483333333, "rental_uris": {"android": "https://dc.lft.to/lastmile_qr_scan", "ios": "https://dc.lft.to/lastmile_qr_scan"}, "fusion_lat": 0.0}, {"type": "electric_scooter", "bike_id": "f413e4750e35c21497c38107a281416b", "is_disabled": 0, "name": "f413e4750e35c21497c38107a281416b", "lon": -77.01212083333333, "is_reserved": 0, "fusion_lon": 0.0, "lat": 38.91500583333333, "rental_uris": {"android": "https://dc.lft.to/lastmile_qr_scan", "ios": "https://dc.lft.to/lastmile_qr_scan"}, "fusion_lat": 0.0}, {"type": "electric_scooter", "bike_id": "b889c930602ba5338b737ed24b26f139", "is_disabled": 0, "name": "b889c930602ba5338b737ed24b26f139", "lon": -77.02202466666667, "is_reserved": 0, "fusion_lon": 0.0, "lat": 38.91053266666667, "rental_uris": {"android": "https://dc.lft.to/lastmile_qr_scan", "ios": "https://dc.lft.to/lastmile_qr_scan"}, "fusion_lat": 0.0}, {"type": "electric_bike", "bike_id": "1cc47c128358713e59c26f8e57746c60", "is_disabled": 0, "name": "1cc47c128358713e59c26f8e57746c60", "lon": -76.979576, "is_reserved": 0, "fusion_lon": 0.0, "lat": 38.92033883333333, "rental_uris": {"android": "https://dc.lft.to/lastmile_qr_scan", "ios": "https://dc.lft.to/lastmile_qr_scan"}, "fusion_lat": 0.0}, {"type": "electric_scooter", "bike_id": "a7a24eca920ec91777943d111c54a043", "is_disabled": 0, "name": "a7a24eca920ec91777943d111c54a043", "lon": -76.933602, "is_reserved": 0, "fusion_lon": 0.0, "lat": 38.89828166666667, "rental_uris": {"android": "https://dc.lft.to/lastmile_qr_scan", "ios": "https://dc.lft.to/lastmile_qr_scan"}, "fusion_lat": 0.0}, {"type": "electric_bike", "bike_id": "b2196c1451807c341aaaace771060cbc", "is_disabled": 0, "name": "b2196c1451807c341aaaace771060cbc", "lon": -77.1029315, "is_reserved": 0, "fusion_lon": 0.0, "lat": 38.85250966666667, "rental_uris": {"android": "https://dc.lft.to/lastmile_qr_scan", "ios": "https://dc.lft.to/lastmile_qr_scan"}, "fusion_lat": 0.0}, {"type": "electric_scooter", "bike_id": "99604c2a3b419657735ff57297e71062", "is_disabled": 0, "name": "99604c2a3b419657735ff57297e71062", "lon": -77.0335855, "is_reserved": 0, "fusion_lon": 0.0, "lat": 38.935817666666665, "rental_uris": {"android": "https://dc.lft.to/lastmile_qr_scan", "ios": "https://dc.lft.to/lastmile_qr_scan"}, "fusion_lat": 0.0}, {"type": "electric_scooter", "bike_id": "f9bef14e0556402b278d4f9db583241f", "is_disabled": 0, "name": "f9bef14e0556402b278d4f9db583241f", "lon": -77.0448415, "is_reserved": 0, "fusion_lon": 0.0, "lat": 38.91352283333333, "rental_uris": {"android": "https://dc.lft.to/lastmile_qr_scan", "ios": "https://dc.lft.to/lastmile_qr_scan"}, "fusion_lat": 0.0}, {"type": "electric_scooter", "bike_id": "a4baab244b6b257b63f976fcd575230b", "is_disabled": 0, "name": "a4baab244b6b257b63f976fcd575230b", "lon": -77.01951616666666, "is_reserved": 0, "fusion_lon": 0.0, "lat": 38.9232875, "rental_uris": {"android": "https://dc.lft.to/lastmile_qr_scan", "ios": "https://dc.lft.to/lastmile_qr_scan"}, "fusion_lat": 0.0}, {"type": "electric_scooter", "bike_id": "b8b1cdd31de163fa09e0cda68fe91551", "is_disabled": 0, "name": "b8b1cdd31de163fa09e0cda68fe91551", "lon": -77.02570066666667, "is_reserved": 0, "fusion_lon": 0.0, "lat": 38.948473, "rental_uris": {"android": "https://dc.lft.to/lastmile_qr_scan", "ios": "https://dc.lft.to/lastmile_qr_scan"}, "fusion_lat": 0.0}, {"type": "electric_scooter", "bike_id": "84847a90f037dcb52a557b7e30f98943", "is_disabled": 0, "name": "84847a90f037dcb52a557b7e30f98943", "lon": -77.00661016666666, "is_reserved": 0, "fusion_lon": 0.0, "lat": 38.90977316666667, "rental_uris": {"android": "https://dc.lft.to/lastmile_qr_scan", "ios": "https://dc.lft.to/lastmile_qr_scan"}, "fusion_lat": 0.0}, {"type": "electric_bike", "bike_id": "d0048187b280f497ec7e4c5f6d973a04", "is_disabled": 0, "name": "d0048187b280f497ec7e4c5f6d973a04", "lon": -77.23180466666666, "is_reserved": 0, "fusion_lon": 0.0, "lat": 38.928935333333335, "rental_uris": {"android": "https://dc.lft.to/lastmile_qr_scan", "ios": "https://dc.lft.to/lastmile_qr_scan"}, "fusion_lat": 0.0}, {"type": "electric_scooter", "bike_id": "d1c9298b4a716bc3104551f27283bd3d", "is_disabled": 0, "name": "d1c9298b4a716bc3104551f27283bd3d", "lon": -76.94578366666667, "is_reserved": 0, "fusion_lon": 0.0, "lat": 38.89922583333333, "rental_uris": {"android": "https://dc.lft.to/lastmile_qr_scan", "ios": "https://dc.lft.to/lastmile_qr_scan"}, "fusion_lat": 0.0}, {"type": "electric_scooter", "bike_id": "f9807045921e8dcaa8ea6aa1c3833943", "is_disabled": 0, "name": "f9807045921e8dcaa8ea6aa1c3833943", "lon": -77.02384516666666, "is_reserved": 0, "fusion_lon": 0.0, "lat": 38.906730833333334, "rental_uris": {"android": "https://dc.lft.to/lastmile_qr_scan", "ios": "https://dc.lft.to/lastmile_qr_scan"}, "fusion_lat": 0.0}, {"type": "electric_bike", "bike_id": "260dd193ae84d55b37ef4619eb5ca83a", "is_disabled": 0, "name": "260dd193ae84d55b37ef4619eb5ca83a", "lon": -77.038842, "is_reserved": 0, "fusion_lon": 0.0, "lat": 39.02620683333333, "rental_uris": {"android": "https://dc.lft.to/lastmile_qr_scan", "ios": "https://dc.lft.to/lastmile_qr_scan"}, "fusion_lat": 0.0}, {"type": "electric_scooter", "bike_id": "4dd346e8ecdcb4630d6c95c2241cc67d", "is_disabled": 0, "name": "4dd346e8ecdcb4630d6c95c2241cc67d", "lon": -77.02714966666667, "is_reserved": 0, "fusion_lon": 0.0, "lat": 38.9223315, "rental_uris": {"android": "https://dc.lft.to/lastmile_qr_scan", "ios": "https://dc.lft.to/lastmile_qr_scan"}, "fusion_lat": 0.0}, {"type": "electric_scooter", "bike_id": "f719911a7b792bd8e94ea0cdac269617", "is_disabled": 0, "name": "f719911a7b792bd8e94ea0cdac269617", "lon": -77.02382916666667, "is_reserved": 0, "fusion_lon": 0.0, "lat": 38.89195183333333, "rental_uris": {"android": "https://dc.lft.to/lastmile_qr_scan", "ios": "https://dc.lft.to/lastmile_qr_scan"}, "fusion_lat": 0.0}, {"type": "electric_scooter", "bike_id": "676f773d0ae9eb4e459fc8fcffbba888", "is_disabled": 0, "name": "676f773d0ae9eb4e459fc8fcffbba888", "lon": -77.0037605, "is_reserved": 0, "fusion_lon": 0.0, "lat": 38.90757266666667, "rental_uris": {"android": "https://dc.lft.to/lastmile_qr_scan", "ios": "https://dc.lft.to/lastmile_qr_scan"}, "fusion_lat": 0.0}, {"type": "electric_scooter", "bike_id": "da1211dc780d16f687e9050a748120d3", "is_disabled": 0, "name": "da1211dc780d16f687e9050a748120d3", "lon": -77.01191616666667, "is_reserved": 0, "fusion_lon": 0.0, "lat": 38.896466, "rental_uris": {"android": "https://dc.lft.to/lastmile_qr_scan", "ios": "https://dc.lft.to/lastmile_qr_scan"}, "fusion_lat": 0.0}, {"type": "electric_bike", "bike_id": "ba5117c39d0948798a7fd9a124f95220", "is_disabled": 0, "name": "ba5117c39d0948798a7fd9a124f95220", "lon": -76.9791585, "is_reserved": 0, "fusion_lon": 0.0, "lat": 38.95848766666667, "rental_uris": {"android": "https://dc.lft.to/lastmile_qr_scan", "ios": "https://dc.lft.to/lastmile_qr_scan"}, "fusion_lat": 0.0}, {"type": "electric_bike", "bike_id": "52c88d3dec559d010d7258447dbcf95e", "is_disabled": 0, "name": "52c88d3dec559d010d7258447dbcf95e", "lon": -77.12741083333333, "is_reserved": 0, "fusion_lon": 0.0, "lat": 38.895617, "rental_uris": {"android": "https://dc.lft.to/lastmile_qr_scan", "ios": "https://dc.lft.to/lastmile_qr_scan"}, "fusion_lat": 0.0}, {"type": "electric_scooter", "bike_id": "af368fc6078fd1637e000ebba3e68e7c", "is_disabled": 0, "name": "af368fc6078fd1637e000ebba3e68e7c", "lon": -77.038352, "is_reserved": 0, "fusion_lon": 0.0, "lat": 38.91192183333333, "rental_uris": {"android": "https://dc.lft.to/lastmile_qr_scan", "ios": "https://dc.lft.to/lastmile_qr_scan"}, "fusion_lat": 0.0}, {"type": "electric_scooter", "bike_id": "1654632abee98f9226328883fa302f0d", "is_disabled": 0, "name": "1654632abee98f9226328883fa302f0d", "lon": -76.98474783333333, "is_reserved": 0, "fusion_lon": 0.0, "lat": 38.9002075, "rental_uris": {"android": "https://dc.lft.to/lastmile_qr_scan", "ios": "https://dc.lft.to/lastmile_qr_scan"}, "fusion_lat": 0.0}, {"type": "electric_scooter", "bike_id": "48e77b8f9d157e01b612ae6a8d26ae40", "is_disabled": 0, "name": "48e77b8f9d157e01b612ae6a8d26ae40", "lon": -77.01338666666666, "is_reserved": 0, "fusion_lon": 0.0, "lat": 38.881283333333336, "rental_uris": {"android": "https://dc.lft.to/lastmile_qr_scan", "ios": "https://dc.lft.to/lastmile_qr_scan"}, "fusion_lat": 0.0}, {"type": "electric_scooter", "bike_id": "e9eb7df4d46a64e1f6aac06db0b1a598", "is_disabled": 0, "name": "e9eb7df4d46a64e1f6aac06db0b1a598", "lon": -77.01983466666667, "is_reserved": 0, "fusion_lon": 0.0, "lat": 38.898627, "rental_uris": {"android": "https://dc.lft.to/lastmile_qr_scan", "ios": "https://dc.lft.to/lastmile_qr_scan"}, "fusion_lat": 0.0}, {"type": "electric_scooter", "bike_id": "5131c19f55c35cb896276f428f0f0b2d", "is_disabled": 0, "name": "5131c19f55c35cb896276f428f0f0b2d", "lon": -77.03290766666667, "is_reserved": 0, "fusion_lon": 0.0, "lat": 38.92453733333333, "rental_uris": {"android": "https://dc.lft.to/lastmile_qr_scan", "ios": "https://dc.lft.to/lastmile_qr_scan"}, "fusion_lat": 0.0}, {"type": "electric_scooter", "bike_id": "35eee26df029d5d7a9d409dd22f4342a", "is_disabled": 0, "name": "35eee26df029d5d7a9d409dd22f4342a", "lon": -77.03261916666666, "is_reserved": 0, "fusion_lon": 0.0, "lat": 38.92947383333333, "rental_uris": {"android": "https://dc.lft.to/lastmile_qr_scan", "ios": "https://dc.lft.to/lastmile_qr_scan"}, "fusion_lat": 0.0}, {"type": "electric_scooter", "bike_id": "775909c2f894cea626b7b08b7fc31229", "is_disabled": 0, "name": "775909c2f894cea626b7b08b7fc31229", "lon": -77.03210633333333, "is_reserved": 0, "fusion_lon": 0.0, "lat": 38.914622666666666, "rental_uris": {"android": "https://dc.lft.to/lastmile_qr_scan", "ios": "https://dc.lft.to/lastmile_qr_scan"}, "fusion_lat": 0.0}, {"type": "electric_scooter", "bike_id": "bb6d547e29388d19a83eb8b020ff3dae", "is_disabled": 0, "name": "bb6d547e29388d19a83eb8b020ff3dae", "lon": -77.0250355, "is_reserved": 0, "fusion_lon": 0.0, "lat": 38.91807166666667, "rental_uris": {"android": "https://dc.lft.to/lastmile_qr_scan", "ios": "https://dc.lft.to/lastmile_qr_scan"}, "fusion_lat": 0.0}, {"type": "electric_scooter", "bike_id": "e52214ebd4149008adaeddba2f47e819", "is_disabled": 0, "name": "e52214ebd4149008adaeddba2f47e819", "lon": -77.02258466666666, "is_reserved": 0, "fusion_lon": 0.0, "lat": 38.893601833333335, "rental_uris": {"android": "https://dc.lft.to/lastmile_qr_scan", "ios": "https://dc.lft.to/lastmile_qr_scan"}, "fusion_lat": 0.0}, {"type": "electric_scooter", "bike_id": "69921dc961b9e83b2eb7e31991919415", "is_disabled": 0, "name": "69921dc961b9e83b2eb7e31991919415", "lon": -77.0384655, "is_reserved": 0, "fusion_lon": 0.0, "lat": 38.915393, "rental_uris": {"android": "https://dc.lft.to/lastmile_qr_scan", "ios": "https://dc.lft.to/lastmile_qr_scan"}, "fusion_lat": 0.0}, {"type": "electric_scooter", "bike_id": "45bd6e6d629c4ad83b9dc696384bef01", "is_disabled": 0, "name": "45bd6e6d629c4ad83b9dc696384bef01", "lon": -77.01416333333333, "is_reserved": 0, "fusion_lon": 0.0, "lat": 38.927951666666665, "rental_uris": {"android": "https://dc.lft.to/lastmile_qr_scan", "ios": "https://dc.lft.to/lastmile_qr_scan"}, "fusion_lat": 0.0}, {"type": "electric_scooter", "bike_id": "61564ea03a1c8995aa5a2dc020b21438", "is_disabled": 0, "name": "61564ea03a1c8995aa5a2dc020b21438", "lon": -77.05602683333333, "is_reserved": 0, "fusion_lon": 0.0, "lat": 38.8942515, "rental_uris": {"android": "https://dc.lft.to/lastmile_qr_scan", "ios": "https://dc.lft.to/lastmile_qr_scan"}, "fusion_lat": 0.0}, {"type": "electric_scooter", "bike_id": "122b8362e73085acdab830b14e42c5e6", "is_disabled": 0, "name": "122b8362e73085acdab830b14e42c5e6", "lon": -77.01901433333333, "is_reserved": 0, "fusion_lon": 0.0, "lat": 38.92339316666666, "rental_uris": {"android": "https://dc.lft.to/lastmile_qr_scan", "ios": "https://dc.lft.to/lastmile_qr_scan"}, "fusion_lat": 0.0}, {"type": "electric_scooter", "bike_id": "fe8bfa9016aa2d74914a288f82aaf59c", "is_disabled": 0, "name": "fe8bfa9016aa2d74914a288f82aaf59c", "lon": -77.04365, "is_reserved": 0, "fusion_lon": 0.0, "lat": 38.91117916666666, "rental_uris": {"android": "https://dc.lft.to/lastmile_qr_scan", "ios": "https://dc.lft.to/lastmile_qr_scan"}, "fusion_lat": 0.0}, {"type": "electric_scooter", "bike_id": "7e513751973cee7d7c7df08e1fc1f883", "is_disabled": 0, "name": "7e513751973cee7d7c7df08e1fc1f883", "lon": -77.02109783333333, "is_reserved": 0, "fusion_lon": 0.0, "lat": 38.9055865, "rental_uris": {"android": "https://dc.lft.to/lastmile_qr_scan", "ios": "https://dc.lft.to/lastmile_qr_scan"}, "fusion_lat": 0.0}, {"type": "electric_scooter", "bike_id": "3b03072aac1c332b95d419f3b61171f3", "is_disabled": 0, "name": "3b03072aac1c332b95d419f3b61171f3", "lon": -77.03009416666667, "is_reserved": 0, "fusion_lon": 0.0, "lat": 38.895293, "rental_uris": {"android": "https://dc.lft.to/lastmile_qr_scan", "ios": "https://dc.lft.to/lastmile_qr_scan"}, "fusion_lat": 0.0}, {"type": "electric_bike", "bike_id": "d01deb43ea11f930bb6a65d995379f77", "is_disabled": 0, "name": "d01deb43ea11f930bb6a65d995379f77", "lon": -77.0831675, "is_reserved": 0, "fusion_lon": 0.0, "lat": 38.933447, "rental_uris": {"android": "https://dc.lft.to/lastmile_qr_scan", "ios": "https://dc.lft.to/lastmile_qr_scan"}, "fusion_lat": 0.0}, {"type": "electric_scooter", "bike_id": "95d77ba719a3c16da79ae90ff741ba5b", "is_disabled": 0, "name": "95d77ba719a3c16da79ae90ff741ba5b", "lon": -77.02392316666666, "is_reserved": 0, "fusion_lon": 0.0, "lat": 38.90970933333333, "rental_uris": {"android": "https://dc.lft.to/lastmile_qr_scan", "ios": "https://dc.lft.to/lastmile_qr_scan"}, "fusion_lat": 0.0}, {"type": "electric_scooter", "bike_id": "99941b59dfe1e836fdcffc74b4c32803", "is_disabled": 0, "name": "99941b59dfe1e836fdcffc74b4c32803", "lon": -76.96714866666667, "is_reserved": 0, "fusion_lon": 0.0, "lat": 38.859730166666665, "rental_uris": {"android": "https://dc.lft.to/lastmile_qr_scan", "ios": "https://dc.lft.to/lastmile_qr_scan"}, "fusion_lat": 0.0}, {"type": "electric_scooter", "bike_id": "34ba10ffd61cac9fb3b5eab7238c2c8d", "is_disabled": 0, "name": "34ba10ffd61cac9fb3b5eab7238c2c8d", "lon": -77.00654383333334, "is_reserved": 0, "fusion_lon": 0.0, "lat": 38.89993333333334, "rental_uris": {"android": "https://dc.lft.to/lastmile_qr_scan", "ios": "https://dc.lft.to/lastmile_qr_scan"}, "fusion_lat": 0.0}, {"type": "electric_scooter", "bike_id": "e24a48b8f028d266af89de499e61cd2e", "is_disabled": 0, "name": "e24a48b8f028d266af89de499e61cd2e", "lon": -77.0309155, "is_reserved": 0, "fusion_lon": 0.0, "lat": 38.89534533333333, "rental_uris": {"android": "https://dc.lft.to/lastmile_qr_scan", "ios": "https://dc.lft.to/lastmile_qr_scan"}, "fusion_lat": 0.0}, {"type": "electric_scooter", "bike_id": "56f828d523a9f0074bdd9bb97294a901", "is_disabled": 0, "name": "56f828d523a9f0074bdd9bb97294a901", "lon": -77.0855, "is_reserved": 0, "fusion_lon": 0.0, "lat": 38.9127055, "rental_uris": {"android": "https://dc.lft.to/lastmile_qr_scan", "ios": "https://dc.lft.to/lastmile_qr_scan"}, "fusion_lat": 0.0}, {"type": "electric_scooter", "bike_id": "c8584980435d47c2b81e63a39345c3b6", "is_disabled": 0, "name": "c8584980435d47c2b81e63a39345c3b6", "lon": -77.0251925, "is_reserved": 0, "fusion_lon": 0.0, "lat": 38.920814666666665, "rental_uris": {"android": "https://dc.lft.to/lastmile_qr_scan", "ios": "https://dc.lft.to/lastmile_qr_scan"}, "fusion_lat": 0.0}, {"type": "electric_scooter", "bike_id": "76e1159190d02d2134782f5fef892c08", "is_disabled": 0, "name": "76e1159190d02d2134782f5fef892c08", "lon": -77.05519966666667, "is_reserved": 0, "fusion_lon": 0.0, "lat": 38.92832633333333, "rental_uris": {"android": "https://dc.lft.to/lastmile_qr_scan", "ios": "https://dc.lft.to/lastmile_qr_scan"}, "fusion_lat": 0.0}, {"type": "electric_scooter", "bike_id": "19ba7ecf0f24bcf8f9bd9fc1fd1981f5", "is_disabled": 0, "name": "19ba7ecf0f24bcf8f9bd9fc1fd1981f5", "lon": -77.019479, "is_reserved": 0, "fusion_lon": 0.0, "lat": 38.92418116666666, "rental_uris": {"android": "https://dc.lft.to/lastmile_qr_scan", "ios": "https://dc.lft.to/lastmile_qr_scan"}, "fusion_lat": 0.0}, {"type": "electric_scooter", "bike_id": "9249ee256ec5caecab3226bf0a8b196a", "is_disabled": 0, "name": "9249ee256ec5caecab3226bf0a8b196a", "lon": -77.021718, "is_reserved": 0, "fusion_lon": 0.0, "lat": 38.942892, "rental_uris": {"android": "https://dc.lft.to/lastmile_qr_scan", "ios": "https://dc.lft.to/lastmile_qr_scan"}, "fusion_lat": 0.0}, {"type": "electric_scooter", "bike_id": "3a671f3086bf2d1cff5bab5b81ba7664", "is_disabled": 0, "name": "3a671f3086bf2d1cff5bab5b81ba7664", "lon": -77.027722, "is_reserved": 0, "fusion_lon": 0.0, "lat": 38.934154166666666, "rental_uris": {"android": "https://dc.lft.to/lastmile_qr_scan", "ios": "https://dc.lft.to/lastmile_qr_scan"}, "fusion_lat": 0.0}, {"type": "electric_scooter", "bike_id": "e3265511a2538dbea400f562776c7ddf", "is_disabled": 0, "name": "e3265511a2538dbea400f562776c7ddf", "lon": -77.0257535, "is_reserved": 0, "fusion_lon": 0.0, "lat": 38.91256633333333, "rental_uris": {"android": "https://dc.lft.to/lastmile_qr_scan", "ios": "https://dc.lft.to/lastmile_qr_scan"}, "fusion_lat": 0.0}, {"type": "electric_bike", "bike_id": "8e9814d0c555d0718c950b81b306696e", "is_disabled": 0, "name": "8e9814d0c555d0718c950b81b306696e", "lon": -77.00237533333333, "is_reserved": 0, "fusion_lon": 0.0, "lat": 38.952249333333334, "rental_uris": {"android": "https://dc.lft.to/lastmile_qr_scan", "ios": "https://dc.lft.to/lastmile_qr_scan"}, "fusion_lat": 0.0}, {"type": "electric_scooter", "bike_id": "03fbe104a91120a553c8012ff16c577d", "is_disabled": 0, "name": "03fbe104a91120a553c8012ff16c577d", "lon": -77.03290083333333, "is_reserved": 0, "fusion_lon": 0.0, "lat": 38.91412416666667, "rental_uris": {"android": "https://dc.lft.to/lastmile_qr_scan", "ios": "https://dc.lft.to/lastmile_qr_scan"}, "fusion_lat": 0.0}, {"type": "electric_scooter", "bike_id": "502ad424005c731c4b043f2ead0992d7", "is_disabled": 0, "name": "502ad424005c731c4b043f2ead0992d7", "lon": -77.03805816666667, "is_reserved": 0, "fusion_lon": 0.0, "lat": 38.93101733333334, "rental_uris": {"android": "https://dc.lft.to/lastmile_qr_scan", "ios": "https://dc.lft.to/lastmile_qr_scan"}, "fusion_lat": 0.0}, {"type": "electric_scooter", "bike_id": "2855fb18bb6aaf82f83f04b5855b4613", "is_disabled": 0, "name": "2855fb18bb6aaf82f83f04b5855b4613", "lon": -77.02567283333333, "is_reserved": 0, "fusion_lon": 0.0, "lat": 38.895753666666664, "rental_uris": {"android": "https://dc.lft.to/lastmile_qr_scan", "ios": "https://dc.lft.to/lastmile_qr_scan"}, "fusion_lat": 0.0}, {"type": "electric_scooter", "bike_id": "b855dd2067ac126d73b72bfee986ba6d", "is_disabled": 0, "name": "b855dd2067ac126d73b72bfee986ba6d", "lon": -77.03278483333334, "is_reserved": 0, "fusion_lon": 0.0, "lat": 38.89885016666667, "rental_uris": {"android": "https://dc.lft.to/lastmile_qr_scan", "ios": "https://dc.lft.to/lastmile_qr_scan"}, "fusion_lat": 0.0}, {"type": "electric_scooter", "bike_id": "9a9be8a60107062f76cfcb9b25739fcc", "is_disabled": 0, "name": "9a9be8a60107062f76cfcb9b25739fcc", "lon": -77.0368445, "is_reserved": 0, "fusion_lon": 0.0, "lat": 38.927166, "rental_uris": {"android": "https://dc.lft.to/lastmile_qr_scan", "ios": "https://dc.lft.to/lastmile_qr_scan"}, "fusion_lat": 0.0}, {"type": "electric_scooter", "bike_id": "1287c3541959d2c236b5006709307ce2", "is_disabled": 0, "name": "1287c3541959d2c236b5006709307ce2", "lon": -77.03173916666667, "is_reserved": 0, "fusion_lon": 0.0, "lat": 38.91417, "rental_uris": {"android": "https://dc.lft.to/lastmile_qr_scan", "ios": "https://dc.lft.to/lastmile_qr_scan"}, "fusion_lat": 0.0}, {"type": "electric_bike", "bike_id": "9aac0bd6b783a919b72cbbb22abe3834", "is_disabled": 0, "name": "9aac0bd6b783a919b72cbbb22abe3834", "lon": -77.03824833333333, "is_reserved": 0, "fusion_lon": 0.0, "lat": 38.929686, "rental_uris": {"android": "https://dc.lft.to/lastmile_qr_scan", "ios": "https://dc.lft.to/lastmile_qr_scan"}, "fusion_lat": 0.0}, {"type": "electric_bike", "bike_id": "3fce2c4fec5eb08affaf62c7f05912f9", "is_disabled": 0, "name": "3fce2c4fec5eb08affaf62c7f05912f9", "lon": -76.95714583333333, "is_reserved": 0, "fusion_lon": 0.0, "lat": 38.8507695, "rental_uris": {"android": "https://dc.lft.to/lastmile_qr_scan", "ios": "https://dc.lft.to/lastmile_qr_scan"}, "fusion_lat": 0.0}, {"type": "electric_scooter", "bike_id": "cd538486923c8acac215353f2e75425b", "is_disabled": 0, "name": "cd538486923c8acac215353f2e75425b", "lon": -77.0337815, "is_reserved": 0, "fusion_lon": 0.0, "lat": 38.9223335, "rental_uris": {"android": "https://dc.lft.to/lastmile_qr_scan", "ios": "https://dc.lft.to/lastmile_qr_scan"}, "fusion_lat": 0.0}, {"type": "electric_scooter", "bike_id": "7305858089384ec9c7bac0dc3ee4baca", "is_disabled": 0, "name": "7305858089384ec9c7bac0dc3ee4baca", "lon": -76.95738533333333, "is_reserved": 0, "fusion_lon": 0.0, "lat": 38.88388466666667, "rental_uris": {"android": "https://dc.lft.to/lastmile_qr_scan", "ios": "https://dc.lft.to/lastmile_qr_scan"}, "fusion_lat": 0.0}, {"type": "electric_scooter", "bike_id": "3d5709d8af8e84708338242a9f15e37f", "is_disabled": 0, "name": "3d5709d8af8e84708338242a9f15e37f", "lon": -77.02381016666666, "is_reserved": 0, "fusion_lon": 0.0, "lat": 38.90962666666667, "rental_uris": {"android": "https://dc.lft.to/lastmile_qr_scan", "ios": "https://dc.lft.to/lastmile_qr_scan"}, "fusion_lat": 0.0}, {"type": "electric_bike", "bike_id": "7dfb5bfc80358a066641885ab790cb45", "is_disabled": 0, "name": "7dfb5bfc80358a066641885ab790cb45", "lon": -77.09023583333334, "is_reserved": 0, "fusion_lon": 0.0, "lat": 38.926443, "rental_uris": {"android": "https://dc.lft.to/lastmile_qr_scan", "ios": "https://dc.lft.to/lastmile_qr_scan"}, "fusion_lat": 0.0}, {"type": "electric_scooter", "bike_id": "3186c8aa2f498a485a29538951eeda30", "is_disabled": 0, "name": "3186c8aa2f498a485a29538951eeda30", "lon": -76.99564333333333, "is_reserved": 0, "fusion_lon": 0.0, "lat": 38.920085, "rental_uris": {"android": "https://dc.lft.to/lastmile_qr_scan", "ios": "https://dc.lft.to/lastmile_qr_scan"}, "fusion_lat": 0.0}, {"type": "electric_bike", "bike_id": "0550a8dc95301a9f4fff29e4608c327b", "is_disabled": 0, "name": "0550a8dc95301a9f4fff29e4608c327b", "lon": -77.16246716666667, "is_reserved": 0, "fusion_lon": 0.0, "lat": 38.886520833333336, "rental_uris": {"android": "https://dc.lft.to/lastmile_qr_scan", "ios": "https://dc.lft.to/lastmile_qr_scan"}, "fusion_lat": 0.0}, {"type": "electric_scooter", "bike_id": "d470cd69e27a19ba81a696e904e35c52", "is_disabled": 0, "name": "d470cd69e27a19ba81a696e904e35c52", "lon": -76.98941183333334, "is_reserved": 0, "fusion_lon": 0.0, "lat": 38.90389716666667, "rental_uris": {"android": "https://dc.lft.to/lastmile_qr_scan", "ios": "https://dc.lft.to/lastmile_qr_scan"}, "fusion_lat": 0.0}, {"type": "electric_scooter", "bike_id": "e5b8460405d95bf2285507263e07a912", "is_disabled": 0, "name": "e5b8460405d95bf2285507263e07a912", "lon": -77.00385983333334, "is_reserved": 0, "fusion_lon": 0.0, "lat": 38.908499666666664, "rental_uris": {"android": "https://dc.lft.to/lastmile_qr_scan", "ios": "https://dc.lft.to/lastmile_qr_scan"}, "fusion_lat": 0.0}, {"type": "electric_scooter", "bike_id": "c75ee587b9c0896093cd2da354636f51", "is_disabled": 0, "name": "c75ee587b9c0896093cd2da354636f51", "lon": -76.98538766666667, "is_reserved": 0, "fusion_lon": 0.0, "lat": 38.85848383333333, "rental_uris": {"android": "https://dc.lft.to/lastmile_qr_scan", "ios": "https://dc.lft.to/lastmile_qr_scan"}, "fusion_lat": 0.0}, {"type": "electric_bike", "bike_id": "f42ed96974a1c72ebe7e6e8d10c598ba", "is_disabled": 0, "name": "f42ed96974a1c72ebe7e6e8d10c598ba", "lon": -76.97312316666667, "is_reserved": 0, "fusion_lon": 0.0, "lat": 38.86508533333333, "rental_uris": {"android": "https://dc.lft.to/lastmile_qr_scan", "ios": "https://dc.lft.to/lastmile_qr_scan"}, "fusion_lat": 0.0}, {"type": "electric_scooter", "bike_id": "8b48715711e793b5d7ae1866ee6aa649", "is_disabled": 0, "name": "8b48715711e793b5d7ae1866ee6aa649", "lon": -77.03185433333333, "is_reserved": 0, "fusion_lon": 0.0, "lat": 38.92906266666667, "rental_uris": {"android": "https://dc.lft.to/lastmile_qr_scan", "ios": "https://dc.lft.to/lastmile_qr_scan"}, "fusion_lat": 0.0}, {"type": "electric_scooter", "bike_id": "993e9a3e44cd3d20ee504400c47b4a85", "is_disabled": 0, "name": "993e9a3e44cd3d20ee504400c47b4a85", "lon": -77.04052633333333, "is_reserved": 0, "fusion_lon": 0.0, "lat": 38.903976, "rental_uris": {"android": "https://dc.lft.to/lastmile_qr_scan", "ios": "https://dc.lft.to/lastmile_qr_scan"}, "fusion_lat": 0.0}, {"type": "electric_scooter", "bike_id": "c4d739656797f185c129bc9180b193f6", "is_disabled": 0, "name": "c4d739656797f185c129bc9180b193f6", "lon": -76.9997575, "is_reserved": 0, "fusion_lon": 0.0, "lat": 38.908374333333335, "rental_uris": {"android": "https://dc.lft.to/lastmile_qr_scan", "ios": "https://dc.lft.to/lastmile_qr_scan"}, "fusion_lat": 0.0}, {"type": "electric_scooter", "bike_id": "163c33867f50012b84e4cf1cb01f428f", "is_disabled": 0, "name": "163c33867f50012b84e4cf1cb01f428f", "lon": -77.041622, "is_reserved": 0, "fusion_lon": 0.0, "lat": 38.91248916666667, "rental_uris": {"android": "https://dc.lft.to/lastmile_qr_scan", "ios": "https://dc.lft.to/lastmile_qr_scan"}, "fusion_lat": 0.0}, {"type": "electric_scooter", "bike_id": "f78b3e13a20f0e1caf0f64c0d02f1c23", "is_disabled": 0, "name": "f78b3e13a20f0e1caf0f64c0d02f1c23", "lon": -77.02645266666667, "is_reserved": 0, "fusion_lon": 0.0, "lat": 38.902539833333336, "rental_uris": {"android": "https://dc.lft.to/lastmile_qr_scan", "ios": "https://dc.lft.to/lastmile_qr_scan"}, "fusion_lat": 0.0}, {"type": "electric_scooter", "bike_id": "f15016a6b14afffd1057aa8b07925789", "is_disabled": 0, "name": "f15016a6b14afffd1057aa8b07925789", "lon": -77.04122333333333, "is_reserved": 0, "fusion_lon": 0.0, "lat": 38.899892, "rental_uris": {"android": "https://dc.lft.to/lastmile_qr_scan", "ios": "https://dc.lft.to/lastmile_qr_scan"}, "fusion_lat": 0.0}, {"type": "electric_scooter", "bike_id": "c82d453ae9e8d1f631a2306931b2b60e", "is_disabled": 0, "name": "c82d453ae9e8d1f631a2306931b2b60e", "lon": -76.99502283333334, "is_reserved": 0, "fusion_lon": 0.0, "lat": 38.88242483333333, "rental_uris": {"android": "https://dc.lft.to/lastmile_qr_scan", "ios": "https://dc.lft.to/lastmile_qr_scan"}, "fusion_lat": 0.0}, {"type": "electric_scooter", "bike_id": "839483481f5c8a82b03ef71dac71c727", "is_disabled": 0, "name": "839483481f5c8a82b03ef71dac71c727", "lon": -77.0370925, "is_reserved": 0, "fusion_lon": 0.0, "lat": 38.926317833333336, "rental_uris": {"android": "https://dc.lft.to/lastmile_qr_scan", "ios": "https://dc.lft.to/lastmile_qr_scan"}, "fusion_lat": 0.0}, {"type": "electric_bike", "bike_id": "e6df7e39fbfc74cb23e716f74c8a2d43", "is_disabled": 0, "name": "e6df7e39fbfc74cb23e716f74c8a2d43", "lon": -77.148557, "is_reserved": 0, "fusion_lon": 0.0, "lat": 38.877592166666666, "rental_uris": {"android": "https://dc.lft.to/lastmile_qr_scan", "ios": "https://dc.lft.to/lastmile_qr_scan"}, "fusion_lat": 0.0}, {"type": "electric_scooter", "bike_id": "252c0c0a8883e64aee7c0fbb31b3ebf0", "is_disabled": 0, "name": "252c0c0a8883e64aee7c0fbb31b3ebf0", "lon": -77.00204316666667, "is_reserved": 0, "fusion_lon": 0.0, "lat": 38.90236316666667, "rental_uris": {"android": "https://dc.lft.to/lastmile_qr_scan", "ios": "https://dc.lft.to/lastmile_qr_scan"}, "fusion_lat": 0.0}, {"type": "electric_scooter", "bike_id": "47266a336432cc38ab1c82a1f7ad0bd1", "is_disabled": 0, "name": "47266a336432cc38ab1c82a1f7ad0bd1", "lon": -77.04154516666667, "is_reserved": 0, "fusion_lon": 0.0, "lat": 38.92334433333333, "rental_uris": {"android": "https://dc.lft.to/lastmile_qr_scan", "ios": "https://dc.lft.to/lastmile_qr_scan"}, "fusion_lat": 0.0}, {"type": "electric_scooter", "bike_id": "5987283b157fd838a3cb3b63f1191d7a", "is_disabled": 0, "name": "5987283b157fd838a3cb3b63f1191d7a", "lon": -77.02729066666667, "is_reserved": 0, "fusion_lon": 0.0, "lat": 38.951805, "rental_uris": {"android": "https://dc.lft.to/lastmile_qr_scan", "ios": "https://dc.lft.to/lastmile_qr_scan"}, "fusion_lat": 0.0}, {"type": "electric_scooter", "bike_id": "5b3c35ac4d7deedd050d428a5df4fb00", "is_disabled": 0, "name": "5b3c35ac4d7deedd050d428a5df4fb00", "lon": -77.00139933333334, "is_reserved": 0, "fusion_lon": 0.0, "lat": 38.90775766666667, "rental_uris": {"android": "https://dc.lft.to/lastmile_qr_scan", "ios": "https://dc.lft.to/lastmile_qr_scan"}, "fusion_lat": 0.0}, {"type": "electric_scooter", "bike_id": "c5f35d98e44940655e422fb0b2147ab9", "is_disabled": 0, "name": "c5f35d98e44940655e422fb0b2147ab9", "lon": -77.01840916666667, "is_reserved": 0, "fusion_lon": 0.0, "lat": 38.909569, "rental_uris": {"android": "https://dc.lft.to/lastmile_qr_scan", "ios": "https://dc.lft.to/lastmile_qr_scan"}, "fusion_lat": 0.0}, {"type": "electric_scooter", "bike_id": "ed4383c8a82ee4adfbe716df3a522b94", "is_disabled": 0, "name": "ed4383c8a82ee4adfbe716df3a522b94", "lon": -77.01506933333333, "is_reserved": 0, "fusion_lon": 0.0, "lat": 38.9176805, "rental_uris": {"android": "https://dc.lft.to/lastmile_qr_scan", "ios": "https://dc.lft.to/lastmile_qr_scan"}, "fusion_lat": 0.0}, {"type": "electric_scooter", "bike_id": "89db1b3d84511365850a962d58b5730d", "is_disabled": 0, "name": "89db1b3d84511365850a962d58b5730d", "lon": -77.01457766666667, "is_reserved": 0, "fusion_lon": 0.0, "lat": 38.899311, "rental_uris": {"android": "https://dc.lft.to/lastmile_qr_scan", "ios": "https://dc.lft.to/lastmile_qr_scan"}, "fusion_lat": 0.0}, {"type": "electric_scooter", "bike_id": "8c51dac7fc147a68aa3c37a5ce32d87c", "is_disabled": 0, "name": "8c51dac7fc147a68aa3c37a5ce32d87c", "lon": -77.03449366666666, "is_reserved": 0, "fusion_lon": 0.0, "lat": 38.9222235, "rental_uris": {"android": "https://dc.lft.to/lastmile_qr_scan", "ios": "https://dc.lft.to/lastmile_qr_scan"}, "fusion_lat": 0.0}, {"type": "electric_bike", "bike_id": "ce089212438dfd221f08a3fc3f8544e3", "is_disabled": 0, "name": "ce089212438dfd221f08a3fc3f8544e3", "lon": -76.97319516666667, "is_reserved": 0, "fusion_lon": 0.0, "lat": 38.865062333333334, "rental_uris": {"android": "https://dc.lft.to/lastmile_qr_scan", "ios": "https://dc.lft.to/lastmile_qr_scan"}, "fusion_lat": 0.0}, {"type": "electric_scooter", "bike_id": "be256599bcaaaad18e17649f17632366", "is_disabled": 0, "name": "be256599bcaaaad18e17649f17632366", "lon": -77.02813266666666, "is_reserved": 0, "fusion_lon": 0.0, "lat": 38.91425866666667, "rental_uris": {"android": "https://dc.lft.to/lastmile_qr_scan", "ios": "https://dc.lft.to/lastmile_qr_scan"}, "fusion_lat": 0.0}, {"type": "electric_scooter", "bike_id": "f2cf1d651b98ca371f4fe6417d7645c8", "is_disabled": 0, "name": "f2cf1d651b98ca371f4fe6417d7645c8", "lon": -77.02813266666666, "is_reserved": 0, "fusion_lon": 0.0, "lat": 38.88174216666667, "rental_uris": {"android": "https://dc.lft.to/lastmile_qr_scan", "ios": "https://dc.lft.to/lastmile_qr_scan"}, "fusion_lat": 0.0}, {"type": "electric_scooter", "bike_id": "9dfc5fad5b19cbbefe914ee7d159412b", "is_disabled": 0, "name": "9dfc5fad5b19cbbefe914ee7d159412b", "lon": -77.00986133333333, "is_reserved": 0, "fusion_lon": 0.0, "lat": 38.87292883333333, "rental_uris": {"android": "https://dc.lft.to/lastmile_qr_scan", "ios": "https://dc.lft.to/lastmile_qr_scan"}, "fusion_lat": 0.0}, {"type": "electric_scooter", "bike_id": "a10195c1aef919dbe5a5c4707d8e7e98", "is_disabled": 0, "name": "a10195c1aef919dbe5a5c4707d8e7e98", "lon": -77.03546533333333, "is_reserved": 0, "fusion_lon": 0.0, "lat": 38.923459333333334, "rental_uris": {"android": "https://dc.lft.to/lastmile_qr_scan", "ios": "https://dc.lft.to/lastmile_qr_scan"}, "fusion_lat": 0.0}, {"type": "electric_scooter", "bike_id": "dc549337cb06d14a26b37b4971d94c9c", "is_disabled": 0, "name": "dc549337cb06d14a26b37b4971d94c9c", "lon": -77.03613466666667, "is_reserved": 0, "fusion_lon": 0.0, "lat": 38.937346166666664, "rental_uris": {"android": "https://dc.lft.to/lastmile_qr_scan", "ios": "https://dc.lft.to/lastmile_qr_scan"}, "fusion_lat": 0.0}, {"type": "electric_bike", "bike_id": "11f923e4feece36bbb60851f06fbc3eb", "is_disabled": 0, "name": "11f923e4feece36bbb60851f06fbc3eb", "lon": -77.10616383333333, "is_reserved": 0, "fusion_lon": 0.0, "lat": 38.837252166666666, "rental_uris": {"android": "https://dc.lft.to/lastmile_qr_scan", "ios": "https://dc.lft.to/lastmile_qr_scan"}, "fusion_lat": 0.0}, {"type": "electric_scooter", "bike_id": "2c165bf38ac341bb551cf6511507d811", "is_disabled": 0, "name": "2c165bf38ac341bb551cf6511507d811", "lon": -77.0033055, "is_reserved": 0, "fusion_lon": 0.0, "lat": 38.895056833333335, "rental_uris": {"android": "https://dc.lft.to/lastmile_qr_scan", "ios": "https://dc.lft.to/lastmile_qr_scan"}, "fusion_lat": 0.0}, {"type": "electric_scooter", "bike_id": "fe85b2cc4244a20d75bb8ea34881517c", "is_disabled": 0, "name": "fe85b2cc4244a20d75bb8ea34881517c", "lon": -77.02210983333333, "is_reserved": 0, "fusion_lon": 0.0, "lat": 38.90151383333333, "rental_uris": {"android": "https://dc.lft.to/lastmile_qr_scan", "ios": "https://dc.lft.to/lastmile_qr_scan"}, "fusion_lat": 0.0}, {"type": "electric_scooter", "bike_id": "d4359f9c6953633d57c6e758bb67f4dd", "is_disabled": 0, "name": "d4359f9c6953633d57c6e758bb67f4dd", "lon": -77.029408, "is_reserved": 0, "fusion_lon": 0.0, "lat": 38.90721533333333, "rental_uris": {"android": "https://dc.lft.to/lastmile_qr_scan", "ios": "https://dc.lft.to/lastmile_qr_scan"}, "fusion_lat": 0.0}, {"type": "electric_scooter", "bike_id": "518a4ed872a9afcfd23af3541d3bbd12", "is_disabled": 0, "name": "518a4ed872a9afcfd23af3541d3bbd12", "lon": -77.022834, "is_reserved": 0, "fusion_lon": 0.0, "lat": 38.916862333333334, "rental_uris": {"android": "https://dc.lft.to/lastmile_qr_scan", "ios": "https://dc.lft.to/lastmile_qr_scan"}, "fusion_lat": 0.0}, {"type": "electric_scooter", "bike_id": "284509166bc9c40350ef2b2a4d0ab68b", "is_disabled": 0, "name": "284509166bc9c40350ef2b2a4d0ab68b", "lon": -76.99503133333333, "is_reserved": 0, "fusion_lon": 0.0, "lat": 38.880767, "rental_uris": {"android": "https://dc.lft.to/lastmile_qr_scan", "ios": "https://dc.lft.to/lastmile_qr_scan"}, "fusion_lat": 0.0}, {"type": "electric_bike", "bike_id": "4649003490689851f7137e8fbba0def9", "is_disabled": 0, "name": "4649003490689851f7137e8fbba0def9", "lon": -77.23412466666667, "is_reserved": 0, "fusion_lon": 0.0, "lat": 38.875767333333336, "rental_uris": {"android": "https://dc.lft.to/lastmile_qr_scan", "ios": "https://dc.lft.to/lastmile_qr_scan"}, "fusion_lat": 0.0}, {"type": "electric_scooter", "bike_id": "9b15f7cc2cc03ad202e53b40a3a95eb7", "is_disabled": 0, "name": "9b15f7cc2cc03ad202e53b40a3a95eb7", "lon": -77.00936, "is_reserved": 0, "fusion_lon": 0.0, "lat": 38.91805866666667, "rental_uris": {"android": "https://dc.lft.to/lastmile_qr_scan", "ios": "https://dc.lft.to/lastmile_qr_scan"}, "fusion_lat": 0.0}, {"type": "electric_scooter", "bike_id": "1117ac4e8aee3d99648696de6a190b14", "is_disabled": 0, "name": "1117ac4e8aee3d99648696de6a190b14", "lon": -77.02160183333334, "is_reserved": 0, "fusion_lon": 0.0, "lat": 38.919935833333334, "rental_uris": {"android": "https://dc.lft.to/lastmile_qr_scan", "ios": "https://dc.lft.to/lastmile_qr_scan"}, "fusion_lat": 0.0}, {"type": "electric_scooter", "bike_id": "2b40bbbe8dd116733ad7e8f4833fae1e", "is_disabled": 0, "name": "2b40bbbe8dd116733ad7e8f4833fae1e", "lon": -77.03507033333334, "is_reserved": 0, "fusion_lon": 0.0, "lat": 38.90133733333333, "rental_uris": {"android": "https://dc.lft.to/lastmile_qr_scan", "ios": "https://dc.lft.to/lastmile_qr_scan"}, "fusion_lat": 0.0}, {"type": "electric_scooter", "bike_id": "fda56d0d31bbb4e77cebfa7d5273ef9d", "is_disabled": 0, "name": "fda56d0d31bbb4e77cebfa7d5273ef9d", "lon": -77.06653166666666, "is_reserved": 0, "fusion_lon": 0.0, "lat": 38.9506135, "rental_uris": {"android": "https://dc.lft.to/lastmile_qr_scan", "ios": "https://dc.lft.to/lastmile_qr_scan"}, "fusion_lat": 0.0}, {"type": "electric_scooter", "bike_id": "fcd5d3acff2a4a7ed2dc393db87eee06", "is_disabled": 0, "name": "fcd5d3acff2a4a7ed2dc393db87eee06", "lon": -77.061059, "is_reserved": 0, "fusion_lon": 0.0, "lat": 38.9022075, "rental_uris": {"android": "https://dc.lft.to/lastmile_qr_scan", "ios": "https://dc.lft.to/lastmile_qr_scan"}, "fusion_lat": 0.0}, {"type": "electric_scooter", "bike_id": "4c3b60fd7226b14477ae71e5debf3830", "is_disabled": 0, "name": "4c3b60fd7226b14477ae71e5debf3830", "lon": -77.03707183333333, "is_reserved": 0, "fusion_lon": 0.0, "lat": 38.9263285, "rental_uris": {"android": "https://dc.lft.to/lastmile_qr_scan", "ios": "https://dc.lft.to/lastmile_qr_scan"}, "fusion_lat": 0.0}, {"type": "electric_scooter", "bike_id": "2ab7d6d25e91128bc788361eef97ae22", "is_disabled": 0, "name": "2ab7d6d25e91128bc788361eef97ae22", "lon": -77.02835583333334, "is_reserved": 0, "fusion_lon": 0.0, "lat": 38.92233916666667, "rental_uris": {"android": "https://dc.lft.to/lastmile_qr_scan", "ios": "https://dc.lft.to/lastmile_qr_scan"}, "fusion_lat": 0.0}, {"type": "electric_scooter", "bike_id": "a9be6e74acccd1e20f174e3cc653c910", "is_disabled": 0, "name": "a9be6e74acccd1e20f174e3cc653c910", "lon": -76.94187083333334, "is_reserved": 0, "fusion_lon": 0.0, "lat": 38.89754633333333, "rental_uris": {"android": "https://dc.lft.to/lastmile_qr_scan", "ios": "https://dc.lft.to/lastmile_qr_scan"}, "fusion_lat": 0.0}, {"type": "electric_scooter", "bike_id": "4e72840fbdf44fc89b7ecb51ba7b15b3", "is_disabled": 0, "name": "4e72840fbdf44fc89b7ecb51ba7b15b3", "lon": -77.033847, "is_reserved": 0, "fusion_lon": 0.0, "lat": 38.90134783333333, "rental_uris": {"android": "https://dc.lft.to/lastmile_qr_scan", "ios": "https://dc.lft.to/lastmile_qr_scan"}, "fusion_lat": 0.0}, {"type": "electric_scooter", "bike_id": "68ae1cc1ae6de8145e67f9da1f511e82", "is_disabled": 0, "name": "68ae1cc1ae6de8145e67f9da1f511e82", "lon": -77.03556483333334, "is_reserved": 0, "fusion_lon": 0.0, "lat": 38.92470083333333, "rental_uris": {"android": "https://dc.lft.to/lastmile_qr_scan", "ios": "https://dc.lft.to/lastmile_qr_scan"}, "fusion_lat": 0.0}, {"type": "electric_scooter", "bike_id": "7bf6dffa5febca48cec5999ff686f703", "is_disabled": 0, "name": "7bf6dffa5febca48cec5999ff686f703", "lon": -77.02964766666666, "is_reserved": 0, "fusion_lon": 0.0, "lat": 38.897474833333334, "rental_uris": {"android": "https://dc.lft.to/lastmile_qr_scan", "ios": "https://dc.lft.to/lastmile_qr_scan"}, "fusion_lat": 0.0}, {"type": "electric_scooter", "bike_id": "581633792981590682460ed404b7e077", "is_disabled": 0, "name": "581633792981590682460ed404b7e077", "lon": -77.02698116666667, "is_reserved": 0, "fusion_lon": 0.0, "lat": 38.912705833333334, "rental_uris": {"android": "https://dc.lft.to/lastmile_qr_scan", "ios": "https://dc.lft.to/lastmile_qr_scan"}, "fusion_lat": 0.0}, {"type": "electric_scooter", "bike_id": "41db5d1bb74ec6d0c02ebb16134db110", "is_disabled": 0, "name": "41db5d1bb74ec6d0c02ebb16134db110", "lon": -76.99617883333333, "is_reserved": 0, "fusion_lon": 0.0, "lat": 38.88551366666667, "rental_uris": {"android": "https://dc.lft.to/lastmile_qr_scan", "ios": "https://dc.lft.to/lastmile_qr_scan"}, "fusion_lat": 0.0}, {"type": "electric_bike", "bike_id": "0bb1b3175bf069f1f99db1f6e833b422", "is_disabled": 0, "name": "0bb1b3175bf069f1f99db1f6e833b422", "lon": -77.0298925, "is_reserved": 0, "fusion_lon": 0.0, "lat": 38.94083666666667, "rental_uris": {"android": "https://dc.lft.to/lastmile_qr_scan", "ios": "https://dc.lft.to/lastmile_qr_scan"}, "fusion_lat": 0.0}, {"type": "electric_scooter", "bike_id": "96f8037a76b52132c5b280ec7103c8b5", "is_disabled": 0, "name": "96f8037a76b52132c5b280ec7103c8b5", "lon": -77.01797166666667, "is_reserved": 0, "fusion_lon": 0.0, "lat": 38.919683666666664, "rental_uris": {"android": "https://dc.lft.to/lastmile_qr_scan", "ios": "https://dc.lft.to/lastmile_qr_scan"}, "fusion_lat": 0.0}, {"type": "electric_scooter", "bike_id": "943c75430484efd67e167907b8840713", "is_disabled": 0, "name": "943c75430484efd67e167907b8840713", "lon": -77.03725566666667, "is_reserved": 0, "fusion_lon": 0.0, "lat": 38.916072166666666, "rental_uris": {"android": "https://dc.lft.to/lastmile_qr_scan", "ios": "https://dc.lft.to/lastmile_qr_scan"}, "fusion_lat": 0.0}, {"type": "electric_scooter", "bike_id": "30c80fb6a8cae8a7ce37def01e13a2b9", "is_disabled": 0, "name": "30c80fb6a8cae8a7ce37def01e13a2b9", "lon": -77.06270283333333, "is_reserved": 0, "fusion_lon": 0.0, "lat": 38.90311366666667, "rental_uris": {"android": "https://dc.lft.to/lastmile_qr_scan", "ios": "https://dc.lft.to/lastmile_qr_scan"}, "fusion_lat": 0.0}, {"type": "electric_scooter", "bike_id": "f4d66aa2381f8457c3a32d87e97ee27d", "is_disabled": 0, "name": "f4d66aa2381f8457c3a32d87e97ee27d", "lon": -77.00342666666667, "is_reserved": 0, "fusion_lon": 0.0, "lat": 38.89187233333333, "rental_uris": {"android": "https://dc.lft.to/lastmile_qr_scan", "ios": "https://dc.lft.to/lastmile_qr_scan"}, "fusion_lat": 0.0}, {"type": "electric_bike", "bike_id": "b0e4b00c1275ec95ac8839c833da5ae9", "is_disabled": 0, "name": "b0e4b00c1275ec95ac8839c833da5ae9", "lon": -77.02074716666667, "is_reserved": 0, "fusion_lon": 0.0, "lat": 38.96435983333333, "rental_uris": {"android": "https://dc.lft.to/lastmile_qr_scan", "ios": "https://dc.lft.to/lastmile_qr_scan"}, "fusion_lat": 0.0}, {"type": "electric_scooter", "bike_id": "d6bbc2eec593120774d5e1dbd8e3d4e7", "is_disabled": 0, "name": "d6bbc2eec593120774d5e1dbd8e3d4e7", "lon": -76.99348016666667, "is_reserved": 0, "fusion_lon": 0.0, "lat": 38.881226166666664, "rental_uris": {"android": "https://dc.lft.to/lastmile_qr_scan", "ios": "https://dc.lft.to/lastmile_qr_scan"}, "fusion_lat": 0.0}, {"type": "electric_scooter", "bike_id": "d7a068068173ebdde8e886b771ae9632", "is_disabled": 0, "name": "d7a068068173ebdde8e886b771ae9632", "lon": -77.0467615, "is_reserved": 0, "fusion_lon": 0.0, "lat": 38.895548166666664, "rental_uris": {"android": "https://dc.lft.to/lastmile_qr_scan", "ios": "https://dc.lft.to/lastmile_qr_scan"}, "fusion_lat": 0.0}, {"type": "electric_scooter", "bike_id": "93153c1e23a701f3d8c4f16fe1d90adc", "is_disabled": 0, "name": "93153c1e23a701f3d8c4f16fe1d90adc", "lon": -77.04052266666666, "is_reserved": 0, "fusion_lon": 0.0, "lat": 38.90402516666666, "rental_uris": {"android": "https://dc.lft.to/lastmile_qr_scan", "ios": "https://dc.lft.to/lastmile_qr_scan"}, "fusion_lat": 0.0}, {"type": "electric_bike", "bike_id": "6afc1740308f30a59ae390840d8d9684", "is_disabled": 0, "name": "6afc1740308f30a59ae390840d8d9684", "lon": -76.98762566666667, "is_reserved": 0, "fusion_lon": 0.0, "lat": 38.857658, "rental_uris": {"android": "https://dc.lft.to/lastmile_qr_scan", "ios": "https://dc.lft.to/lastmile_qr_scan"}, "fusion_lat": 0.0}, {"type": "electric_scooter", "bike_id": "a86e573d637ac96ffc79025c896a0f81", "is_disabled": 0, "name": "a86e573d637ac96ffc79025c896a0f81", "lon": -77.0118845, "is_reserved": 0, "fusion_lon": 0.0, "lat": 38.900164333333336, "rental_uris": {"android": "https://dc.lft.to/lastmile_qr_scan", "ios": "https://dc.lft.to/lastmile_qr_scan"}, "fusion_lat": 0.0}, {"type": "electric_bike", "bike_id": "a284618f2747539cc457909a6e7ff6f7", "is_disabled": 0, "name": "a284618f2747539cc457909a6e7ff6f7", "lon": -77.12984666666667, "is_reserved": 0, "fusion_lon": 0.0, "lat": 38.79982566666666, "rental_uris": {"android": "https://dc.lft.to/lastmile_qr_scan", "ios": "https://dc.lft.to/lastmile_qr_scan"}, "fusion_lat": 0.0}, {"type": "electric_scooter", "bike_id": "4201ffa2d24e0e8bbc6e5fe1c35777f2", "is_disabled": 0, "name": "4201ffa2d24e0e8bbc6e5fe1c35777f2", "lon": -77.02021316666666, "is_reserved": 0, "fusion_lon": 0.0, "lat": 38.924331333333335, "rental_uris": {"android": "https://dc.lft.to/lastmile_qr_scan", "ios": "https://dc.lft.to/lastmile_qr_scan"}, "fusion_lat": 0.0}, {"type": "electric_scooter", "bike_id": "ae998d052d183d6703f47e78cf238b79", "is_disabled": 0, "name": "ae998d052d183d6703f47e78cf238b79", "lon": -77.03039416666667, "is_reserved": 0, "fusion_lon": 0.0, "lat": 38.9169815, "rental_uris": {"android": "https://dc.lft.to/lastmile_qr_scan", "ios": "https://dc.lft.to/lastmile_qr_scan"}, "fusion_lat": 0.0}, {"type": "electric_scooter", "bike_id": "87fb05065799b550eed5be9e9ad304d8", "is_disabled": 0, "name": "87fb05065799b550eed5be9e9ad304d8", "lon": -77.02842433333333, "is_reserved": 0, "fusion_lon": 0.0, "lat": 38.88184733333333, "rental_uris": {"android": "https://dc.lft.to/lastmile_qr_scan", "ios": "https://dc.lft.to/lastmile_qr_scan"}, "fusion_lat": 0.0}, {"type": "electric_scooter", "bike_id": "950444ac482a0eae0c64ed3f1cfc2f6d", "is_disabled": 0, "name": "950444ac482a0eae0c64ed3f1cfc2f6d", "lon": -76.99809016666667, "is_reserved": 0, "fusion_lon": 0.0, "lat": 38.90558333333333, "rental_uris": {"android": "https://dc.lft.to/lastmile_qr_scan", "ios": "https://dc.lft.to/lastmile_qr_scan"}, "fusion_lat": 0.0}, {"type": "electric_scooter", "bike_id": "16eb0f65ea393c7d275ed30106c57cd1", "is_disabled": 0, "name": "16eb0f65ea393c7d275ed30106c57cd1", "lon": -77.03024166666667, "is_reserved": 0, "fusion_lon": 0.0, "lat": 38.87844233333333, "rental_uris": {"android": "https://dc.lft.to/lastmile_qr_scan", "ios": "https://dc.lft.to/lastmile_qr_scan"}, "fusion_lat": 0.0}, {"type": "electric_scooter", "bike_id": "135951610d6e47b2c90a64323797513b", "is_disabled": 0, "name": "135951610d6e47b2c90a64323797513b", "lon": -77.03934816666667, "is_reserved": 0, "fusion_lon": 0.0, "lat": 38.92472083333333, "rental_uris": {"android": "https://dc.lft.to/lastmile_qr_scan", "ios": "https://dc.lft.to/lastmile_qr_scan"}, "fusion_lat": 0.0}, {"type": "electric_scooter", "bike_id": "265578618608ac7216a5c28ab28ddec3", "is_disabled": 0, "name": "265578618608ac7216a5c28ab28ddec3", "lon": -77.02943533333334, "is_reserved": 0, "fusion_lon": 0.0, "lat": 38.907229, "rental_uris": {"android": "https://dc.lft.to/lastmile_qr_scan", "ios": "https://dc.lft.to/lastmile_qr_scan"}, "fusion_lat": 0.0}, {"type": "electric_scooter", "bike_id": "0caa769c3f470e2f7b5edea16f3f2846", "is_disabled": 0, "name": "0caa769c3f470e2f7b5edea16f3f2846", "lon": -77.01883966666666, "is_reserved": 0, "fusion_lon": 0.0, "lat": 38.906121166666665, "rental_uris": {"android": "https://dc.lft.to/lastmile_qr_scan", "ios": "https://dc.lft.to/lastmile_qr_scan"}, "fusion_lat": 0.0}, {"type": "electric_scooter", "bike_id": "e98d034110ae01669f3e8c2e8a2d98d4", "is_disabled": 0, "name": "e98d034110ae01669f3e8c2e8a2d98d4", "lon": -77.0076805, "is_reserved": 0, "fusion_lon": 0.0, "lat": 38.89881166666667, "rental_uris": {"android": "https://dc.lft.to/lastmile_qr_scan", "ios": "https://dc.lft.to/lastmile_qr_scan"}, "fusion_lat": 0.0}, {"type": "electric_bike", "bike_id": "a2de609aae622975e8a32138099cd291", "is_disabled": 0, "name": "a2de609aae622975e8a32138099cd291", "lon": -77.03430816666666, "is_reserved": 0, "fusion_lon": 0.0, "lat": 38.96621183333333, "rental_uris": {"android": "https://dc.lft.to/lastmile_qr_scan", "ios": "https://dc.lft.to/lastmile_qr_scan"}, "fusion_lat": 0.0}, {"type": "electric_scooter", "bike_id": "6a82d4aa36787aef68ba2907a6354748", "is_disabled": 0, "name": "6a82d4aa36787aef68ba2907a6354748", "lon": -77.04349316666666, "is_reserved": 0, "fusion_lon": 0.0, "lat": 38.89870916666667, "rental_uris": {"android": "https://dc.lft.to/lastmile_qr_scan", "ios": "https://dc.lft.to/lastmile_qr_scan"}, "fusion_lat": 0.0}, {"type": "electric_scooter", "bike_id": "e8ea1a19d60fe02b011ef5d4edca0fba", "is_disabled": 0, "name": "e8ea1a19d60fe02b011ef5d4edca0fba", "lon": -76.9994285, "is_reserved": 0, "fusion_lon": 0.0, "lat": 38.89165283333333, "rental_uris": {"android": "https://dc.lft.to/lastmile_qr_scan", "ios": "https://dc.lft.to/lastmile_qr_scan"}, "fusion_lat": 0.0}, {"type": "electric_bike", "bike_id": "1613bfa6fb7d9e7eddeba8c68e9fe739", "is_disabled": 0, "name": "1613bfa6fb7d9e7eddeba8c68e9fe739", "lon": -77.098146, "is_reserved": 0, "fusion_lon": 0.0, "lat": 38.85018733333333, "rental_uris": {"android": "https://dc.lft.to/lastmile_qr_scan", "ios": "https://dc.lft.to/lastmile_qr_scan"}, "fusion_lat": 0.0}, {"type": "electric_scooter", "bike_id": "1c3b8e446182f6de04dfb5e6980818f0", "is_disabled": 0, "name": "1c3b8e446182f6de04dfb5e6980818f0", "lon": -76.93818333333333, "is_reserved": 0, "fusion_lon": 0.0, "lat": 38.89838783333333, "rental_uris": {"android": "https://dc.lft.to/lastmile_qr_scan", "ios": "https://dc.lft.to/lastmile_qr_scan"}, "fusion_lat": 0.0}, {"type": "electric_scooter", "bike_id": "e17cdfa55bb102d3a8539ed60b08904c", "is_disabled": 0, "name": "e17cdfa55bb102d3a8539ed60b08904c", "lon": -77.0133335, "is_reserved": 0, "fusion_lon": 0.0, "lat": 38.89594233333333, "rental_uris": {"android": "https://dc.lft.to/lastmile_qr_scan", "ios": "https://dc.lft.to/lastmile_qr_scan"}, "fusion_lat": 0.0}, {"type": "electric_scooter", "bike_id": "fbdd31ffa8935b35d7e3b3754c0138d8", "is_disabled": 0, "name": "fbdd31ffa8935b35d7e3b3754c0138d8", "lon": -77.03309683333333, "is_reserved": 0, "fusion_lon": 0.0, "lat": 38.921550833333335, "rental_uris": {"android": "https://dc.lft.to/lastmile_qr_scan", "ios": "https://dc.lft.to/lastmile_qr_scan"}, "fusion_lat": 0.0}, {"type": "electric_scooter", "bike_id": "ff8851c0300da2a3f890bddb8606bbb7", "is_disabled": 0, "name": "ff8851c0300da2a3f890bddb8606bbb7", "lon": -77.03379916666667, "is_reserved": 0, "fusion_lon": 0.0, "lat": 38.921656666666664, "rental_uris": {"android": "https://dc.lft.to/lastmile_qr_scan", "ios": "https://dc.lft.to/lastmile_qr_scan"}, "fusion_lat": 0.0}, {"type": "electric_scooter", "bike_id": "1867204c6ab6dd00b74c022c6baad42a", "is_disabled": 0, "name": "1867204c6ab6dd00b74c022c6baad42a", "lon": -77.0452, "is_reserved": 0, "fusion_lon": 0.0, "lat": 38.899542833333335, "rental_uris": {"android": "https://dc.lft.to/lastmile_qr_scan", "ios": "https://dc.lft.to/lastmile_qr_scan"}, "fusion_lat": 0.0}, {"type": "electric_bike", "bike_id": "5778a45d335c8eaceaccd28a53d29589", "is_disabled": 0, "name": "5778a45d335c8eaceaccd28a53d29589", "lon": -76.99096383333334, "is_reserved": 0, "fusion_lon": 0.0, "lat": 38.8047645, "rental_uris": {"android": "https://dc.lft.to/lastmile_qr_scan", "ios": "https://dc.lft.to/lastmile_qr_scan"}, "fusion_lat": 0.0}, {"type": "electric_bike", "bike_id": "a65cfad42f79fa93c5fb783b33ce7d96", "is_disabled": 0, "name": "a65cfad42f79fa93c5fb783b33ce7d96", "lon": -77.004056, "is_reserved": 0, "fusion_lon": 0.0, "lat": 38.98539233333333, "rental_uris": {"android": "https://dc.lft.to/lastmile_qr_scan", "ios": "https://dc.lft.to/lastmile_qr_scan"}, "fusion_lat": 0.0}, {"type": "electric_scooter", "bike_id": "61f2ad4f7cf906ebdb934e967bd33350", "is_disabled": 0, "name": "61f2ad4f7cf906ebdb934e967bd33350", "lon": -77.03208316666667, "is_reserved": 0, "fusion_lon": 0.0, "lat": 38.91678266666667, "rental_uris": {"android": "https://dc.lft.to/lastmile_qr_scan", "ios": "https://dc.lft.to/lastmile_qr_scan"}, "fusion_lat": 0.0}, {"type": "electric_scooter", "bike_id": "806145cf736513f10c3d5d9fd14b607d", "is_disabled": 0, "name": "806145cf736513f10c3d5d9fd14b607d", "lon": -77.04609733333334, "is_reserved": 0, "fusion_lon": 0.0, "lat": 38.93285183333333, "rental_uris": {"android": "https://dc.lft.to/lastmile_qr_scan", "ios": "https://dc.lft.to/lastmile_qr_scan"}, "fusion_lat": 0.0}, {"type": "electric_scooter", "bike_id": "8bb882ffa756c17f73a5f8238d01b507", "is_disabled": 0, "name": "8bb882ffa756c17f73a5f8238d01b507", "lon": -77.0500485, "is_reserved": 0, "fusion_lon": 0.0, "lat": 38.90526466666667, "rental_uris": {"android": "https://dc.lft.to/lastmile_qr_scan", "ios": "https://dc.lft.to/lastmile_qr_scan"}, "fusion_lat": 0.0}, {"type": "electric_scooter", "bike_id": "eb7be91e02ed1b8607c4abbbf2b0cce0", "is_disabled": 0, "name": "eb7be91e02ed1b8607c4abbbf2b0cce0", "lon": -76.94463316666666, "is_reserved": 0, "fusion_lon": 0.0, "lat": 38.890305166666664, "rental_uris": {"android": "https://dc.lft.to/lastmile_qr_scan", "ios": "https://dc.lft.to/lastmile_qr_scan"}, "fusion_lat": 0.0}, {"type": "electric_scooter", "bike_id": "24eab7e8b57d9a3bb04d8e43c47b1d7f", "is_disabled": 0, "name": "24eab7e8b57d9a3bb04d8e43c47b1d7f", "lon": -77.00129316666667, "is_reserved": 0, "fusion_lon": 0.0, "lat": 38.87880533333333, "rental_uris": {"android": "https://dc.lft.to/lastmile_qr_scan", "ios": "https://dc.lft.to/lastmile_qr_scan"}, "fusion_lat": 0.0}, {"type": "electric_scooter", "bike_id": "ae716a0acee8ff28886b53da94126b87", "is_disabled": 0, "name": "ae716a0acee8ff28886b53da94126b87", "lon": -77.01190683333333, "is_reserved": 0, "fusion_lon": 0.0, "lat": 38.9002425, "rental_uris": {"android": "https://dc.lft.to/lastmile_qr_scan", "ios": "https://dc.lft.to/lastmile_qr_scan"}, "fusion_lat": 0.0}, {"type": "electric_scooter", "bike_id": "41bd9089d7ee0264887adf1f446bca23", "is_disabled": 0, "name": "41bd9089d7ee0264887adf1f446bca23", "lon": -77.03459933333333, "is_reserved": 0, "fusion_lon": 0.0, "lat": 38.91575066666667, "rental_uris": {"android": "https://dc.lft.to/lastmile_qr_scan", "ios": "https://dc.lft.to/lastmile_qr_scan"}, "fusion_lat": 0.0}, {"type": "electric_scooter", "bike_id": "f6095fcb342e5dd052914f0b86439407", "is_disabled": 0, "name": "f6095fcb342e5dd052914f0b86439407", "lon": -77.03486016666666, "is_reserved": 0, "fusion_lon": 0.0, "lat": 38.9356715, "rental_uris": {"android": "https://dc.lft.to/lastmile_qr_scan", "ios": "https://dc.lft.to/lastmile_qr_scan"}, "fusion_lat": 0.0}, {"type": "electric_scooter", "bike_id": "f466bce940555023c1480a2f5ce7e87c", "is_disabled": 0, "name": "f466bce940555023c1480a2f5ce7e87c", "lon": -77.03869966666667, "is_reserved": 0, "fusion_lon": 0.0, "lat": 38.909686666666666, "rental_uris": {"android": "https://dc.lft.to/lastmile_qr_scan", "ios": "https://dc.lft.to/lastmile_qr_scan"}, "fusion_lat": 0.0}, {"type": "electric_scooter", "bike_id": "40c292a5d9fb032cbe6b0c46726dd39c", "is_disabled": 0, "name": "40c292a5d9fb032cbe6b0c46726dd39c", "lon": -77.03334683333334, "is_reserved": 0, "fusion_lon": 0.0, "lat": 38.916940833333335, "rental_uris": {"android": "https://dc.lft.to/lastmile_qr_scan", "ios": "https://dc.lft.to/lastmile_qr_scan"}, "fusion_lat": 0.0}, {"type": "electric_scooter", "bike_id": "bff8723aed1131b16d616c49e3a3c46f", "is_disabled": 0, "name": "bff8723aed1131b16d616c49e3a3c46f", "lon": -77.0462355, "is_reserved": 0, "fusion_lon": 0.0, "lat": 38.90238683333333, "rental_uris": {"android": "https://dc.lft.to/lastmile_qr_scan", "ios": "https://dc.lft.to/lastmile_qr_scan"}, "fusion_lat": 0.0}, {"type": "electric_scooter", "bike_id": "7aa4f4ad3ab9a0f1a87a85422ee7dac0", "is_disabled": 0, "name": "7aa4f4ad3ab9a0f1a87a85422ee7dac0", "lon": -77.01988116666666, "is_reserved": 0, "fusion_lon": 0.0, "lat": 38.88591816666667, "rental_uris": {"android": "https://dc.lft.to/lastmile_qr_scan", "ios": "https://dc.lft.to/lastmile_qr_scan"}, "fusion_lat": 0.0}, {"type": "electric_scooter", "bike_id": "bfec7d87b150ef1add9e66094e1acb26", "is_disabled": 0, "name": "bfec7d87b150ef1add9e66094e1acb26", "lon": -77.03404883333333, "is_reserved": 0, "fusion_lon": 0.0, "lat": 38.9244025, "rental_uris": {"android": "https://dc.lft.to/lastmile_qr_scan", "ios": "https://dc.lft.to/lastmile_qr_scan"}, "fusion_lat": 0.0}, {"type": "electric_scooter", "bike_id": "881bc78a8d81b24de1184a9459972924", "is_disabled": 0, "name": "881bc78a8d81b24de1184a9459972924", "lon": -77.0413565, "is_reserved": 0, "fusion_lon": 0.0, "lat": 38.902534333333335, "rental_uris": {"android": "https://dc.lft.to/lastmile_qr_scan", "ios": "https://dc.lft.to/lastmile_qr_scan"}, "fusion_lat": 0.0}, {"type": "electric_scooter", "bike_id": "72e01af94f64cf4cae8937d6425ab06a", "is_disabled": 0, "name": "72e01af94f64cf4cae8937d6425ab06a", "lon": -77.04271416666667, "is_reserved": 0, "fusion_lon": 0.0, "lat": 38.93230233333333, "rental_uris": {"android": "https://dc.lft.to/lastmile_qr_scan", "ios": "https://dc.lft.to/lastmile_qr_scan"}, "fusion_lat": 0.0}, {"type": "electric_scooter", "bike_id": "775fe8dd23082ec8c8ab8eb6669421cf", "is_disabled": 0, "name": "775fe8dd23082ec8c8ab8eb6669421cf", "lon": -77.077096, "is_reserved": 0, "fusion_lon": 0.0, "lat": 38.92518233333333, "rental_uris": {"android": "https://dc.lft.to/lastmile_qr_scan", "ios": "https://dc.lft.to/lastmile_qr_scan"}, "fusion_lat": 0.0}, {"type": "electric_scooter", "bike_id": "9b4d6d3650b9d28fceb57fe8c42e49dc", "is_disabled": 0, "name": "9b4d6d3650b9d28fceb57fe8c42e49dc", "lon": -77.00919083333334, "is_reserved": 0, "fusion_lon": 0.0, "lat": 38.895473333333335, "rental_uris": {"android": "https://dc.lft.to/lastmile_qr_scan", "ios": "https://dc.lft.to/lastmile_qr_scan"}, "fusion_lat": 0.0}, {"type": "electric_scooter", "bike_id": "ac236f75867857ff16741a20ecbffb41", "is_disabled": 0, "name": "ac236f75867857ff16741a20ecbffb41", "lon": -77.02725583333333, "is_reserved": 0, "fusion_lon": 0.0, "lat": 38.91806416666667, "rental_uris": {"android": "https://dc.lft.to/lastmile_qr_scan", "ios": "https://dc.lft.to/lastmile_qr_scan"}, "fusion_lat": 0.0}, {"type": "electric_scooter", "bike_id": "e564cf9856d277a71639a9bcb441d2fe", "is_disabled": 0, "name": "e564cf9856d277a71639a9bcb441d2fe", "lon": -77.03221883333333, "is_reserved": 0, "fusion_lon": 0.0, "lat": 38.918315, "rental_uris": {"android": "https://dc.lft.to/lastmile_qr_scan", "ios": "https://dc.lft.to/lastmile_qr_scan"}, "fusion_lat": 0.0}, {"type": "electric_scooter", "bike_id": "3b701349d41711ce554f8284d134cf2b", "is_disabled": 0, "name": "3b701349d41711ce554f8284d134cf2b", "lon": -77.036655, "is_reserved": 0, "fusion_lon": 0.0, "lat": 38.9028255, "rental_uris": {"android": "https://dc.lft.to/lastmile_qr_scan", "ios": "https://dc.lft.to/lastmile_qr_scan"}, "fusion_lat": 0.0}, {"type": "electric_scooter", "bike_id": "a1aa36c9a57535c61bb2b52ee39c2d66", "is_disabled": 0, "name": "a1aa36c9a57535c61bb2b52ee39c2d66", "lon": -76.99821733333333, "is_reserved": 0, "fusion_lon": 0.0, "lat": 38.90720183333333, "rental_uris": {"android": "https://dc.lft.to/lastmile_qr_scan", "ios": "https://dc.lft.to/lastmile_qr_scan"}, "fusion_lat": 0.0}, {"type": "electric_scooter", "bike_id": "ba708bffce991dc603d59a8580ecdb2a", "is_disabled": 0, "name": "ba708bffce991dc603d59a8580ecdb2a", "lon": -77.00156816666667, "is_reserved": 0, "fusion_lon": 0.0, "lat": 38.82134166666667, "rental_uris": {"android": "https://dc.lft.to/lastmile_qr_scan", "ios": "https://dc.lft.to/lastmile_qr_scan"}, "fusion_lat": 0.0}, {"type": "electric_bike", "bike_id": "339f4f774c3ba186040d03b6c5462776", "is_disabled": 0, "name": "339f4f774c3ba186040d03b6c5462776", "lon": -77.08559816666667, "is_reserved": 0, "fusion_lon": 0.0, "lat": 38.933163666666665, "rental_uris": {"android": "https://dc.lft.to/lastmile_qr_scan", "ios": "https://dc.lft.to/lastmile_qr_scan"}, "fusion_lat": 0.0}, {"type": "electric_scooter", "bike_id": "46413dad96516a41cd36d3545e6aef68", "is_disabled": 0, "name": "46413dad96516a41cd36d3545e6aef68", "lon": -77.02373983333334, "is_reserved": 0, "fusion_lon": 0.0, "lat": 38.920537, "rental_uris": {"android": "https://dc.lft.to/lastmile_qr_scan", "ios": "https://dc.lft.to/lastmile_qr_scan"}, "fusion_lat": 0.0}, {"type": "electric_scooter", "bike_id": "e4a4e5d2c0b47e4b4f5de23c780d2f48", "is_disabled": 0, "name": "e4a4e5d2c0b47e4b4f5de23c780d2f48", "lon": -77.003004, "is_reserved": 0, "fusion_lon": 0.0, "lat": 38.891894666666666, "rental_uris": {"android": "https://dc.lft.to/lastmile_qr_scan", "ios": "https://dc.lft.to/lastmile_qr_scan"}, "fusion_lat": 0.0}, {"type": "electric_scooter", "bike_id": "e7ed0669cfbce7e5fd268a4a306ccf65", "is_disabled": 0, "name": "e7ed0669cfbce7e5fd268a4a306ccf65", "lon": -76.9360235, "is_reserved": 0, "fusion_lon": 0.0, "lat": 38.9094535, "rental_uris": {"android": "https://dc.lft.to/lastmile_qr_scan", "ios": "https://dc.lft.to/lastmile_qr_scan"}, "fusion_lat": 0.0}, {"type": "electric_bike", "bike_id": "a87dfc5eef660bbb4790fde7d7768fd2", "is_disabled": 0, "name": "a87dfc5eef660bbb4790fde7d7768fd2", "lon": -76.95162316666666, "is_reserved": 0, "fusion_lon": 0.0, "lat": 39.0843125, "rental_uris": {"android": "https://dc.lft.to/lastmile_qr_scan", "ios": "https://dc.lft.to/lastmile_qr_scan"}, "fusion_lat": 0.0}, {"type": "electric_scooter", "bike_id": "cee807a98af18e6c4e1d3ccdfdd22fda", "is_disabled": 0, "name": "cee807a98af18e6c4e1d3ccdfdd22fda", "lon": -77.06428516666666, "is_reserved": 0, "fusion_lon": 0.0, "lat": 38.935632166666664, "rental_uris": {"android": "https://dc.lft.to/lastmile_qr_scan", "ios": "https://dc.lft.to/lastmile_qr_scan"}, "fusion_lat": 0.0}, {"type": "electric_scooter", "bike_id": "4dbd85dddf90ef5795c8d7417cda70b1", "is_disabled": 0, "name": "4dbd85dddf90ef5795c8d7417cda70b1", "lon": -77.03049716666666, "is_reserved": 0, "fusion_lon": 0.0, "lat": 38.898214833333334, "rental_uris": {"android": "https://dc.lft.to/lastmile_qr_scan", "ios": "https://dc.lft.to/lastmile_qr_scan"}, "fusion_lat": 0.0}, {"type": "electric_scooter", "bike_id": "a0cc93dd25e56aa25ce1c4e98a3e8a6e", "is_disabled": 0, "name": "a0cc93dd25e56aa25ce1c4e98a3e8a6e", "lon": -77.03225333333333, "is_reserved": 0, "fusion_lon": 0.0, "lat": 38.925488333333334, "rental_uris": {"android": "https://dc.lft.to/lastmile_qr_scan", "ios": "https://dc.lft.to/lastmile_qr_scan"}, "fusion_lat": 0.0}, {"type": "electric_scooter", "bike_id": "9a66ec611934db815bb5898239fc7211", "is_disabled": 0, "name": "9a66ec611934db815bb5898239fc7211", "lon": -77.00200916666667, "is_reserved": 0, "fusion_lon": 0.0, "lat": 38.902376833333335, "rental_uris": {"android": "https://dc.lft.to/lastmile_qr_scan", "ios": "https://dc.lft.to/lastmile_qr_scan"}, "fusion_lat": 0.0}, {"type": "electric_scooter", "bike_id": "ef24e2d1c7ceb1b07da788793ff0dd56", "is_disabled": 0, "name": "ef24e2d1c7ceb1b07da788793ff0dd56", "lon": -77.02217983333334, "is_reserved": 0, "fusion_lon": 0.0, "lat": 38.89317033333333, "rental_uris": {"android": "https://dc.lft.to/lastmile_qr_scan", "ios": "https://dc.lft.to/lastmile_qr_scan"}, "fusion_lat": 0.0}, {"type": "electric_scooter", "bike_id": "a74fbdc9e6696eb6b2414807c68a615d", "is_disabled": 0, "name": "a74fbdc9e6696eb6b2414807c68a615d", "lon": -77.01794366666667, "is_reserved": 0, "fusion_lon": 0.0, "lat": 38.9203365, "rental_uris": {"android": "https://dc.lft.to/lastmile_qr_scan", "ios": "https://dc.lft.to/lastmile_qr_scan"}, "fusion_lat": 0.0}, {"type": "electric_scooter", "bike_id": "4bf30d4ccef75f56a0cac113b1456860", "is_disabled": 0, "name": "4bf30d4ccef75f56a0cac113b1456860", "lon": -77.05277716666667, "is_reserved": 0, "fusion_lon": 0.0, "lat": 38.910090333333336, "rental_uris": {"android": "https://dc.lft.to/lastmile_qr_scan", "ios": "https://dc.lft.to/lastmile_qr_scan"}, "fusion_lat": 0.0}, {"type": "electric_scooter", "bike_id": "d9784b98c825240c1214549231faf327", "is_disabled": 0, "name": "d9784b98c825240c1214549231faf327", "lon": -77.0416275, "is_reserved": 0, "fusion_lon": 0.0, "lat": 38.92302516666667, "rental_uris": {"android": "https://dc.lft.to/lastmile_qr_scan", "ios": "https://dc.lft.to/lastmile_qr_scan"}, "fusion_lat": 0.0}, {"type": "electric_scooter", "bike_id": "9995d9d2409cc0bd5c510be7f4e508c7", "is_disabled": 0, "name": "9995d9d2409cc0bd5c510be7f4e508c7", "lon": -77.01917416666667, "is_reserved": 0, "fusion_lon": 0.0, "lat": 38.920201666666664, "rental_uris": {"android": "https://dc.lft.to/lastmile_qr_scan", "ios": "https://dc.lft.to/lastmile_qr_scan"}, "fusion_lat": 0.0}, {"type": "electric_scooter", "bike_id": "ea2593cd1ee10eb163dddacecbe84ee0", "is_disabled": 0, "name": "ea2593cd1ee10eb163dddacecbe84ee0", "lon": -77.0176375, "is_reserved": 0, "fusion_lon": 0.0, "lat": 38.87680816666666, "rental_uris": {"android": "https://dc.lft.to/lastmile_qr_scan", "ios": "https://dc.lft.to/lastmile_qr_scan"}, "fusion_lat": 0.0}, {"type": "electric_scooter", "bike_id": "83a8605f06676431af637e7f767c92e5", "is_disabled": 0, "name": "83a8605f06676431af637e7f767c92e5", "lon": -77.02809916666666, "is_reserved": 0, "fusion_lon": 0.0, "lat": 38.90732083333333, "rental_uris": {"android": "https://dc.lft.to/lastmile_qr_scan", "ios": "https://dc.lft.to/lastmile_qr_scan"}, "fusion_lat": 0.0}, {"type": "electric_scooter", "bike_id": "dedc39a1f8d70a28cfca1b1e26abfc96", "is_disabled": 0, "name": "dedc39a1f8d70a28cfca1b1e26abfc96", "lon": -77.07457933333333, "is_reserved": 0, "fusion_lon": 0.0, "lat": 38.93776316666667, "rental_uris": {"android": "https://dc.lft.to/lastmile_qr_scan", "ios": "https://dc.lft.to/lastmile_qr_scan"}, "fusion_lat": 0.0}, {"type": "electric_scooter", "bike_id": "3bc81b9be824aebeddf7435afa774a4e", "is_disabled": 0, "name": "3bc81b9be824aebeddf7435afa774a4e", "lon": -76.9730625, "is_reserved": 0, "fusion_lon": 0.0, "lat": 38.919883166666665, "rental_uris": {"android": "https://dc.lft.to/lastmile_qr_scan", "ios": "https://dc.lft.to/lastmile_qr_scan"}, "fusion_lat": 0.0}, {"type": "electric_scooter", "bike_id": "db3429341104e5055a5a22821515e19a", "is_disabled": 0, "name": "db3429341104e5055a5a22821515e19a", "lon": -77.04509916666666, "is_reserved": 0, "fusion_lon": 0.0, "lat": 38.90373983333333, "rental_uris": {"android": "https://dc.lft.to/lastmile_qr_scan", "ios": "https://dc.lft.to/lastmile_qr_scan"}, "fusion_lat": 0.0}, {"type": "electric_scooter", "bike_id": "b387beb339cf7ea5b1e15fcf0bcf6bba", "is_disabled": 0, "name": "b387beb339cf7ea5b1e15fcf0bcf6bba", "lon": -77.019633, "is_reserved": 0, "fusion_lon": 0.0, "lat": 38.92319166666667, "rental_uris": {"android": "https://dc.lft.to/lastmile_qr_scan", "ios": "https://dc.lft.to/lastmile_qr_scan"},