{"data": {"bikes": [{"type": "electric_scooter", "name": "6af8e1615041f613daeeb537822d5d70", "lat": 38.92467533333333, "fusion_lat": 0.0, "bike_id": "6af8e1615041f613daeeb537822d5d70", "is_reserved": 0, "lon": -77.02148616666666, "is_disabled": 0, "fusion_lon": 0.0, "rental_uris": {"android": "https://dc.lft.to/lastmile_qr_scan", "ios": "https://dc.lft.to/lastmile_qr_scan"}}, {"type": "electric_bike", "name": "4570b1a70db6c5a97c4b83c85454d952", "lat": 38.890662, "fusion_lat": 0.0, "bike_id": "4570b1a70db6c5a97c4b83c85454d952", "is_reserved": 0, "lon": -77.184332, "is_disabled": 0, "fusion_lon": 0.0, "rental_uris": {"android": "https://dc.lft.to/lastmile_qr_scan", "ios": "https://dc.lft.to/lastmile_qr_scan"}}, {"type": "electric_scooter", "name": "c2676f4b5bc19b7939f5ffe0cf05d000", "lat": 38.89466816666667, "fusion_lat": 0.0, "bike_id": "c2676f4b5bc19b7939f5ffe0cf05d000", "is_reserved": 0, "lon": -76.9496065, "is_disabled": 0, "fusion_lon": 0.0, "rental_uris": {"android": "https://dc.lft.to/lastmile_qr_scan", "ios": "https://dc.lft.to/lastmile_qr_scan"}}, {"type": "electric_bike", "name": "26c007ca3abb8b3d93d1efe52a5af02b", "lat": 38.819995666666664, "fusion_lat": 0.0, "bike_id": "26c007ca3abb8b3d93d1efe52a5af02b", "is_reserved": 0, "lon": -76.99810883333333, "is_disabled": 0, "fusion_lon": 0.0, "rental_uris": {"android": "https://dc.lft.to/lastmile_qr_scan", "ios": "https://dc.lft.to/lastmile_qr_scan"}}, {"type": "electric_scooter", "name": "396131391a31f472a8245b4350a3044a", "lat": 38.918234166666664, "fusion_lat": 0.0, "bike_id": "396131391a31f472a8245b4350a3044a", "is_reserved": 0, "lon": -77.0416965, "is_disabled": 0, "fusion_lon": 0.0, "rental_uris": {"android": "https://dc.lft.to/lastmile_qr_scan", "ios": "https://dc.lft.to/lastmile_qr_scan"}}, {"type": "electric_scooter", "name": "e849e67982ae152ce79f3931c94cfc9f", "lat": 38.93429366666667, "fusion_lat": 0.0, "bike_id": "e849e67982ae152ce79f3931c94cfc9f", "is_reserved": 0, "lon": -77.03998416666667, "is_disabled": 0, "fusion_lon": 0.0, "rental_uris": {"android": "https://dc.lft.to/lastmile_qr_scan", "ios": "https://dc.lft.to/lastmile_qr_scan"}}, {"type": "electric_scooter", "name": "08dc3abb03e2f79202256cf9f2621969", "lat": 38.88497366666667, "fusion_lat": 0.0, "bike_id": "08dc3abb03e2f79202256cf9f2621969", "is_reserved": 0, "lon": -77.0218675, "is_disabled": 0, "fusion_lon": 0.0, "rental_uris": {"android": "https://dc.lft.to/lastmile_qr_scan", "ios": "https://dc.lft.to/lastmile_qr_scan"}}, {"type": "electric_scooter", "name": "92ccbfb62100f1537494856126897e07", "lat": 38.8642825, "fusion_lat": 0.0, "bike_id": "92ccbfb62100f1537494856126897e07", "is_reserved": 0, "lon": -76.97443233333334, "is_disabled": 0, "fusion_lon": 0.0, "rental_uris": {"android": "https://dc.lft.to/lastmile_qr_scan", "ios": "https://dc.lft.to/lastmile_qr_scan"}}, {"type": "electric_scooter", "name": "b4d5c35a035067ed3d28449231cde479", "lat": 38.903139333333336, "fusion_lat": 0.0, "bike_id": "b4d5c35a035067ed3d28449231cde479", "is_reserved": 0, "lon": -77.06017933333334, "is_disabled": 0, "fusion_lon": 0.0, "rental_uris": {"android": "https://dc.lft.to/lastmile_qr_scan", "ios": "https://dc.lft.to/lastmile_qr_scan"}}, {"type": "electric_scooter", "name": "9c3633a46d28437436fb83a033705f16", "lat": 38.9130665, "fusion_lat": 0.0, "bike_id": "9c3633a46d28437436fb83a033705f16", "is_reserved": 0, "lon": -77.0202565, "is_disabled": 0, "fusion_lon": 0.0, "rental_uris": {"android": "https://dc.lft.to/lastmile_qr_scan", "ios": "https://dc.lft.to/lastmile_qr_scan"}}, {"type": "electric_scooter", "name": "40046943b25d2ce77f00175d8d63229c", "lat": 38.86632433333333, "fusion_lat": 0.0, "bike_id": "40046943b25d2ce77f00175d8d63229c", "is_reserved": 0, "lon": -76.987159, "is_disabled": 0, "fusion_lon": 0.0, "rental_uris": {"android": "https://dc.lft.to/lastmile_qr_scan", "ios": "https://dc.lft.to/lastmile_qr_scan"}}, {"type": "electric_scooter", "name": "44921db7e4313dd6ffe05a2ba51299ab", "lat": 38.87894433333334, "fusion_lat": 0.0, "bike_id": "44921db7e4313dd6ffe05a2ba51299ab", "is_reserved": 0, "lon": -77.02322783333334, "is_disabled": 0, "fusion_lon": 0.0, "rental_uris": {"android": "https://dc.lft.to/lastmile_qr_scan", "ios": "https://dc.lft.to/lastmile_qr_scan"}}, {"type": "electric_scooter", "name": "972f603d67277b98eff8e2d0dd3ce89a", "lat": 38.911999333333334, "fusion_lat": 0.0, "bike_id": "972f603d67277b98eff8e2d0dd3ce89a", "is_reserved": 0, "lon": -77.04138583333334, "is_disabled": 0, "fusion_lon": 0.0, "rental_uris": {"android": "https://dc.lft.to/lastmile_qr_scan", "ios": "https://dc.lft.to/lastmile_qr_scan"}}, {"type": "electric_scooter", "name": "e6a8d5f992049f0b2689a83b6c2145fd", "lat": 38.92512416666667, "fusion_lat": 0.0, "bike_id": "e6a8d5f992049f0b2689a83b6c2145fd", "is_reserved": 0, "lon": -77.03781733333334, "is_disabled": 0, "fusion_lon": 0.0, "rental_uris": {"android": "https://dc.lft.to/lastmile_qr_scan", "ios": "https://dc.lft.to/lastmile_qr_scan"}}, {"type": "electric_bike", "name": "7945fe051f5b1d8c5db36565a640e7d8", "lat": 38.8332865, "fusion_lat": 0.0, "bike_id": "7945fe051f5b1d8c5db36565a640e7d8", "is_reserved": 0, "lon": -76.999991, "is_disabled": 0, "fusion_lon": 0.0, "rental_uris": {"android": "https://dc.lft.to/lastmile_qr_scan", "ios": "https://dc.lft.to/lastmile_qr_scan"}}, {"type": "electric_bike", "name": "0babd64c8798c867d2c003cc8d7e1fe0", "lat": 38.79858633333333, "fusion_lat": 0.0, "bike_id": "0babd64c8798c867d2c003cc8d7e1fe0", "is_reserved": 0, "lon": -77.06306166666667, "is_disabled": 0, "fusion_lon": 0.0, "rental_uris": {"android": "https://dc.lft.to/lastmile_qr_scan", "ios": "https://dc.lft.to/lastmile_qr_scan"}}, {"type": "electric_scooter", "name": "1167d56c03fa73953b013384d56a4e78", "lat": 38.94411566666667, "fusion_lat": 0.0, "bike_id": "1167d56c03fa73953b013384d56a4e78", "is_reserved": 0, "lon": -77.02599633333334, "is_disabled": 0, "fusion_lon": 0.0, "rental_uris": {"android": "https://dc.lft.to/lastmile_qr_scan", "ios": "https://dc.lft.to/lastmile_qr_scan"}}, {"type": "electric_bike", "name": "e5bed7d40ffc938cc7aeefc9f7bd1294", "lat": 38.8577445, "fusion_lat": 0.0, "bike_id": "e5bed7d40ffc938cc7aeefc9f7bd1294", "is_reserved": 0, "lon": -76.98754016666666, "is_disabled": 0, "fusion_lon": 0.0, "rental_uris": {"android": "https://dc.lft.to/lastmile_qr_scan", "ios": "https://dc.lft.to/lastmile_qr_scan"}}, {"type": "electric_scooter", "name": "e2efdd0809efe42b56cac9418c28b2e6", "lat": 38.895308666666665, "fusion_lat": 0.0, "bike_id": "e2efdd0809efe42b56cac9418c28b2e6", "is_reserved": 0, "lon": -77.02274516666667, "is_disabled": 0, "fusion_lon": 0.0, "rental_uris": {"android": "https://dc.lft.to/lastmile_qr_scan", "ios": "https://dc.lft.to/lastmile_qr_scan"}}, {"type": "electric_scooter", "name": "0a2b4cb5a3ea62f4f44f253a5f1864e5", "lat": 38.9197445, "fusion_lat": 0.0, "bike_id": "0a2b4cb5a3ea62f4f44f253a5f1864e5", "is_reserved": 0, "lon": -77.02400866666666, "is_disabled": 0, "fusion_lon": 0.0, "rental_uris": {"android": "https://dc.lft.to/lastmile_qr_scan", "ios": "https://dc.lft.to/lastmile_qr_scan"}}, {"type": "electric_scooter", "name": "65f05cb34db1c9afb3732780c3a74002", "lat": 38.90928683333333, "fusion_lat": 0.0, "bike_id": "65f05cb34db1c9afb3732780c3a74002", "is_reserved": 0, "lon": -77.02688933333333, "is_disabled": 0, "fusion_lon": 0.0, "rental_uris": {"android": "https://dc.lft.to/lastmile_qr_scan", "ios": "https://dc.lft.to/lastmile_qr_scan"}}, {"type": "electric_scooter", "name": "21666e2f8cda07ce2d8431247dcc3221", "lat": 38.91729266666667, "fusion_lat": 0.0, "bike_id": "21666e2f8cda07ce2d8431247dcc3221", "is_reserved": 0, "lon": -77.02808166666667, "is_disabled": 0, "fusion_lon": 0.0, "rental_uris": {"android": "https://dc.lft.to/lastmile_qr_scan", "ios": "https://dc.lft.to/lastmile_qr_scan"}}, {"type": "electric_scooter", "name": "b3e34763dc931396bce40ecbca65d7c4", "lat": 38.911228333333334, "fusion_lat": 0.0, "bike_id": "b3e34763dc931396bce40ecbca65d7c4", "is_reserved": 0, "lon": -77.02236516666666, "is_disabled": 0, "fusion_lon": 0.0, "rental_uris": {"android": "https://dc.lft.to/lastmile_qr_scan", "ios": "https://dc.lft.to/lastmile_qr_scan"}}, {"type": "electric_scooter", "name": "d9552dd2f57e1d7f589467eb6782c7f1", "lat": 38.9137355, "fusion_lat": 0.0, "bike_id": "d9552dd2f57e1d7f589467eb6782c7f1", "is_reserved": 0, "lon": -77.0449525, "is_disabled": 0, "fusion_lon": 0.0, "rental_uris": {"android": "https://dc.lft.to/lastmile_qr_scan", "ios": "https://dc.lft.to/lastmile_qr_scan"}}, {"type": "electric_scooter", "name": "56403a4ca845fc22e091586d24d3f8f1", "lat": 38.866605, "fusion_lat": 0.0, "bike_id": "56403a4ca845fc22e091586d24d3f8f1", "is_reserved": 0, "lon": -76.98881133333333, "is_disabled": 0, "fusion_lon": 0.0, "rental_uris": {"android": "https://dc.lft.to/lastmile_qr_scan", "ios": "https://dc.lft.to/lastmile_qr_scan"}}, {"type": "electric_bike", "name": "054712fc52b3398082e9cf85c20f12db", "lat": 38.94433866666667, "fusion_lat": 0.0, "bike_id": "054712fc52b3398082e9cf85c20f12db", "is_reserved": 0, "lon": -77.02599783333334, "is_disabled": 0, "fusion_lon": 0.0, "rental_uris": {"android": "https://dc.lft.to/lastmile_qr_scan", "ios": "https://dc.lft.to/lastmile_qr_scan"}}, {"type": "electric_scooter", "name": "51c6faa9fa68571c1ac877195e3df5d7", "lat": 38.9003645, "fusion_lat": 0.0, "bike_id": "51c6faa9fa68571c1ac877195e3df5d7", "is_reserved": 0, "lon": -77.01186766666666, "is_disabled": 0, "fusion_lon": 0.0, "rental_uris": {"android": "https://dc.lft.to/lastmile_qr_scan", "ios": "https://dc.lft.to/lastmile_qr_scan"}}, {"type": "electric_scooter", "name": "2932d308d889a983b8edc626706ef76b", "lat": 38.85797766666666, "fusion_lat": 0.0, "bike_id": "2932d308d889a983b8edc626706ef76b", "is_reserved": 0, "lon": -76.98908933333334, "is_disabled": 0, "fusion_lon": 0.0, "rental_uris": {"android": "https://dc.lft.to/lastmile_qr_scan", "ios": "https://dc.lft.to/lastmile_qr_scan"}}, {"type": "electric_scooter", "name": "bbf0db0bca9e57f54d6456cf1df3744b", "lat": 38.9163935, "fusion_lat": 0.0, "bike_id": "bbf0db0bca9e57f54d6456cf1df3744b", "is_reserved": 0, "lon": -77.03203016666667, "is_disabled": 0, "fusion_lon": 0.0, "rental_uris": {"android": "https://dc.lft.to/lastmile_qr_scan", "ios": "https://dc.lft.to/lastmile_qr_scan"}}, {"type": "electric_scooter", "name": "c12a50c1bcf6ce21288cecf731ff34ac", "lat": 38.92551, "fusion_lat": 0.0, "bike_id": "c12a50c1bcf6ce21288cecf731ff34ac", "is_reserved": 0, "lon": -77.02708366666667, "is_disabled": 0, "fusion_lon": 0.0, "rental_uris": {"android": "https://dc.lft.to/lastmile_qr_scan", "ios": "https://dc.lft.to/lastmile_qr_scan"}}, {"type": "electric_scooter", "name": "f3c511e5290851372bfa698a43175769", "lat": 38.9525225, "fusion_lat": 0.0, "bike_id": "f3c511e5290851372bfa698a43175769", "is_reserved": 0, "lon": -77.00697783333334, "is_disabled": 0, "fusion_lon": 0.0, "rental_uris": {"android": "https://dc.lft.to/lastmile_qr_scan", "ios": "https://dc.lft.to/lastmile_qr_scan"}}, {"type": "electric_scooter", "name": "d82689c2efb49d71315bbc9b55d2a751", "lat": 38.88738083333333, "fusion_lat": 0.0, "bike_id": "d82689c2efb49d71315bbc9b55d2a751", "is_reserved": 0, "lon": -77.02825833333333, "is_disabled": 0, "fusion_lon": 0.0, "rental_uris": {"android": "https://dc.lft.to/lastmile_qr_scan", "ios": "https://dc.lft.to/lastmile_qr_scan"}}, {"type": "electric_scooter", "name": "93b3fc6f3cf6597866b870d2c047edaa", "lat": 38.87992933333334, "fusion_lat": 0.0, "bike_id": "93b3fc6f3cf6597866b870d2c047edaa", "is_reserved": 0, "lon": -77.02410916666666, "is_disabled": 0, "fusion_lon": 0.0, "rental_uris": {"android": "https://dc.lft.to/lastmile_qr_scan", "ios": "https://dc.lft.to/lastmile_qr_scan"}}, {"type": "electric_scooter", "name": "4c3090448a6d5e223651301df97c3ed7", "lat": 38.902419333333334, "fusion_lat": 0.0, "bike_id": "4c3090448a6d5e223651301df97c3ed7", "is_reserved": 0, "lon": -77.001979, "is_disabled": 0, "fusion_lon": 0.0, "rental_uris": {"android": "https://dc.lft.to/lastmile_qr_scan", "ios": "https://dc.lft.to/lastmile_qr_scan"}}, {"type": "electric_scooter", "name": "5136d35f9a0fd56adf01d6bc5817617a", "lat": 38.84187033333333, "fusion_lat": 0.0, "bike_id": "5136d35f9a0fd56adf01d6bc5817617a", "is_reserved": 0, "lon": -76.99784316666667, "is_disabled": 0, "fusion_lon": 0.0, "rental_uris": {"android": "https://dc.lft.to/lastmile_qr_scan", "ios": "https://dc.lft.to/lastmile_qr_scan"}}, {"type": "electric_scooter", "name": "3320c394effe810a1d397d003cf96acb", "lat": 38.9168565, "fusion_lat": 0.0, "bike_id": "3320c394effe810a1d397d003cf96acb", "is_reserved": 0, "lon": -77.02962216666667, "is_disabled": 0, "fusion_lon": 0.0, "rental_uris": {"android": "https://dc.lft.to/lastmile_qr_scan", "ios": "https://dc.lft.to/lastmile_qr_scan"}}, {"type": "electric_scooter", "name": "8c5c28cd5eb06b390c47c7603097ca7c", "lat": 38.90260333333333, "fusion_lat": 0.0, "bike_id": "8c5c28cd5eb06b390c47c7603097ca7c", "is_reserved": 0, "lon": -77.04549183333333, "is_disabled": 0, "fusion_lon": 0.0, "rental_uris": {"android": "https://dc.lft.to/lastmile_qr_scan", "ios": "https://dc.lft.to/lastmile_qr_scan"}}, {"type": "electric_scooter", "name": "c8468e8e8d00f94d1546b708cf3ae5ff", "lat": 38.90575283333333, "fusion_lat": 0.0, "bike_id": "c8468e8e8d00f94d1546b708cf3ae5ff", "is_reserved": 0, "lon": -77.03456683333333, "is_disabled": 0, "fusion_lon": 0.0, "rental_uris": {"android": "https://dc.lft.to/lastmile_qr_scan", "ios": "https://dc.lft.to/lastmile_qr_scan"}}, {"type": "electric_bike", "name": "5f07a6752fc2eb309ad18fecd7c848d7", "lat": 38.794694, "fusion_lat": 0.0, "bike_id": "5f07a6752fc2eb309ad18fecd7c848d7", "is_reserved": 0, "lon": -76.99246166666667, "is_disabled": 0, "fusion_lon": 0.0, "rental_uris": {"android": "https://dc.lft.to/lastmile_qr_scan", "ios": "https://dc.lft.to/lastmile_qr_scan"}}, {"type": "electric_scooter", "name": "bd6042e723fa40ffd98009ffb71b61f5", "lat": 38.89669983333334, "fusion_lat": 0.0, "bike_id": "bd6042e723fa40ffd98009ffb71b61f5", "is_reserved": 0, "lon": -77.05463566666667, "is_disabled": 0, "fusion_lon": 0.0, "rental_uris": {"android": "https://dc.lft.to/lastmile_qr_scan", "ios": "https://dc.lft.to/lastmile_qr_scan"}}, {"type": "electric_scooter", "name": "255f6f548eabe8b26f8cf0409407e1f5", "lat": 38.917118333333335, "fusion_lat": 0.0, "bike_id": "255f6f548eabe8b26f8cf0409407e1f5", "is_reserved": 0, "lon": -77.03126616666667, "is_disabled": 0, "fusion_lon": 0.0, "rental_uris": {"android": "https://dc.lft.to/lastmile_qr_scan", "ios": "https://dc.lft.to/lastmile_qr_scan"}}, {"type": "electric_bike", "name": "97198789ad25a114bdaab456b8c661a9", "lat": 38.80655816666667, "fusion_lat": 0.0, "bike_id": "97198789ad25a114bdaab456b8c661a9", "is_reserved": 0, "lon": -77.087618, "is_disabled": 0, "fusion_lon": 0.0, "rental_uris": {"android": "https://dc.lft.to/lastmile_qr_scan", "ios": "https://dc.lft.to/lastmile_qr_scan"}}, {"type": "electric_scooter", "name": "1ca97b82e47131643f24e88628ca0235", "lat": 38.86689416666667, "fusion_lat": 0.0, "bike_id": "1ca97b82e47131643f24e88628ca0235", "is_reserved": 0, "lon": -76.985404, "is_disabled": 0, "fusion_lon": 0.0, "rental_uris": {"android": "https://dc.lft.to/lastmile_qr_scan", "ios": "https://dc.lft.to/lastmile_qr_scan"}}, {"type": "electric_scooter", "name": "a3476e15c78eb79490b86e1ed62d5c95", "lat": 38.943882, "fusion_lat": 0.0, "bike_id": "a3476e15c78eb79490b86e1ed62d5c95", "is_reserved": 0, "lon": -77.07698666666667, "is_disabled": 0, "fusion_lon": 0.0, "rental_uris": {"android": "https://dc.lft.to/lastmile_qr_scan", "ios": "https://dc.lft.to/lastmile_qr_scan"}}, {"type": "electric_scooter", "name": "fedca043ee7495f1bd27f7862d6ee805", "lat": 38.93516316666667, "fusion_lat": 0.0, "bike_id": "fedca043ee7495f1bd27f7862d6ee805", "is_reserved": 0, "lon": -77.03334266666667, "is_disabled": 0, "fusion_lon": 0.0, "rental_uris": {"android": "https://dc.lft.to/lastmile_qr_scan", "ios": "https://dc.lft.to/lastmile_qr_scan"}}, {"type": "electric_scooter", "name": "b5c0956536d4b7a55c40820c0f37a6dd", "lat": 38.920423, "fusion_lat": 0.0, "bike_id": "b5c0956536d4b7a55c40820c0f37a6dd", "is_reserved": 0, "lon": -77.0167915, "is_disabled": 0, "fusion_lon": 0.0, "rental_uris": {"android": "https://dc.lft.to/lastmile_qr_scan", "ios": "https://dc.lft.to/lastmile_qr_scan"}}, {"type": "electric_scooter", "name": "729507f7ca3e0236fe825b12295ed04e", "lat": 38.9023465, "fusion_lat": 0.0, "bike_id": "729507f7ca3e0236fe825b12295ed04e", "is_reserved": 0, "lon": -77.04361783333333, "is_disabled": 0, "fusion_lon": 0.0, "rental_uris": {"android": "https://dc.lft.to/lastmile_qr_scan", "ios": "https://dc.lft.to/lastmile_qr_scan"}}, {"type": "electric_scooter", "name": "2e871f8f80b37d57354893fcb7ed21e1", "lat": 38.8970955, "fusion_lat": 0.0, "bike_id": "2e871f8f80b37d57354893fcb7ed21e1", "is_reserved": 0, "lon": -77.02708216666667, "is_disabled": 0, "fusion_lon": 0.0, "rental_uris": {"android": "https://dc.lft.to/lastmile_qr_scan", "ios": "https://dc.lft.to/lastmile_qr_scan"}}, {"type": "electric_bike", "name": "b748d5667b796dec0c22b207558303d1", "lat": 38.931772333333335, "fusion_lat": 0.0, "bike_id": "b748d5667b796dec0c22b207558303d1", "is_reserved": 0, "lon": -77.03533266666666, "is_disabled": 0, "fusion_lon": 0.0, "rental_uris": {"android": "https://dc.lft.to/lastmile_qr_scan", "ios": "https://dc.lft.to/lastmile_qr_scan"}}, {"type": "electric_scooter", "name": "9ff303c412a0d3ab2fd0d95f990770ae", "lat": 38.91406516666667, "fusion_lat": 0.0, "bike_id": "9ff303c412a0d3ab2fd0d95f990770ae", "is_reserved": 0, "lon": -77.02283066666666, "is_disabled": 0, "fusion_lon": 0.0, "rental_uris": {"android": "https://dc.lft.to/lastmile_qr_scan", "ios": "https://dc.lft.to/lastmile_qr_scan"}}, {"type": "electric_bike", "name": "36ca5ef56839bf19b2246ca81560104c", "lat": 38.9721875, "fusion_lat": 0.0, "bike_id": "36ca5ef56839bf19b2246ca81560104c", "is_reserved": 0, "lon": -77.01428833333334, "is_disabled": 0, "fusion_lon": 0.0, "rental_uris": {"android": "https://dc.lft.to/lastmile_qr_scan", "ios": "https://dc.lft.to/lastmile_qr_scan"}}, {"type": "electric_scooter", "name": "74339ee380cbdd77d0c24289360fb81b", "lat": 38.92480116666667, "fusion_lat": 0.0, "bike_id": "74339ee380cbdd77d0c24289360fb81b", "is_reserved": 0, "lon": -77.02268983333333, "is_disabled": 0, "fusion_lon": 0.0, "rental_uris": {"android": "https://dc.lft.to/lastmile_qr_scan", "ios": "https://dc.lft.to/lastmile_qr_scan"}}, {"type": "electric_scooter", "name": "2f2ad389657514c56ec8e6949882c56b", "lat": 38.902695666666666, "fusion_lat": 0.0, "bike_id": "2f2ad389657514c56ec8e6949882c56b", "is_reserved": 0, "lon": -77.044678, "is_disabled": 0, "fusion_lon": 0.0, "rental_uris": {"android": "https://dc.lft.to/lastmile_qr_scan", "ios": "https://dc.lft.to/lastmile_qr_scan"}}, {"type": "electric_scooter", "name": "44ee3572b00e7ab8167aa514b6592368", "lat": 38.90571216666667, "fusion_lat": 0.0, "bike_id": "44ee3572b00e7ab8167aa514b6592368", "is_reserved": 0, "lon": -77.00597866666666, "is_disabled": 0, "fusion_lon": 0.0, "rental_uris": {"android": "https://dc.lft.to/lastmile_qr_scan", "ios": "https://dc.lft.to/lastmile_qr_scan"}}, {"type": "electric_scooter", "name": "509521bf5a840c14c48b310d083d7827", "lat": 38.855919666666665, "fusion_lat": 0.0, "bike_id": "509521bf5a840c14c48b310d083d7827", "is_reserved": 0, "lon": -76.9666075, "is_disabled": 0, "fusion_lon": 0.0, "rental_uris": {"android": "https://dc.lft.to/lastmile_qr_scan", "ios": "https://dc.lft.to/lastmile_qr_scan"}}, {"type": "electric_scooter", "name": "9cca1497d61f0d8d1271f3e3b7ee1b76", "lat": 38.886626666666665, "fusion_lat": 0.0, "bike_id": "9cca1497d61f0d8d1271f3e3b7ee1b76", "is_reserved": 0, "lon": -77.03386133333333, "is_disabled": 0, "fusion_lon": 0.0, "rental_uris": {"android": "https://dc.lft.to/lastmile_qr_scan", "ios": "https://dc.lft.to/lastmile_qr_scan"}}, {"type": "electric_scooter", "name": "2887025582a1add7240a7a6f762598ff", "lat": 38.905416, "fusion_lat": 0.0, "bike_id": "2887025582a1add7240a7a6f762598ff", "is_reserved": 0, "lon": -77.03251033333333, "is_disabled": 0, "fusion_lon": 0.0, "rental_uris": {"android": "https://dc.lft.to/lastmile_qr_scan", "ios": "https://dc.lft.to/lastmile_qr_scan"}}, {"type": "electric_scooter", "name": "3c956e761658ea5562afde3c8d64d6a9", "lat": 38.895431333333335, "fusion_lat": 0.0, "bike_id": "3c956e761658ea5562afde3c8d64d6a9", "is_reserved": 0, "lon": -77.0315435, "is_disabled": 0, "fusion_lon": 0.0, "rental_uris": {"android": "https://dc.lft.to/lastmile_qr_scan", "ios": "https://dc.lft.to/lastmile_qr_scan"}}, {"type": "electric_scooter", "name": "18b08cd39ea85a018ddc78ba1cef08b0", "lat": 38.924444, "fusion_lat": 0.0, "bike_id": "18b08cd39ea85a018ddc78ba1cef08b0", "is_reserved": 0, "lon": -77.02147466666666, "is_disabled": 0, "fusion_lon": 0.0, "rental_uris": {"android": "https://dc.lft.to/lastmile_qr_scan", "ios": "https://dc.lft.to/lastmile_qr_scan"}}, {"type": "electric_bike", "name": "7b7bb68661a240a199f50a34655a358b", "lat": 38.948197666666665, "fusion_lat": 0.0, "bike_id": "7b7bb68661a240a199f50a34655a358b", "is_reserved": 0, "lon": -77.02977916666667, "is_disabled": 0, "fusion_lon": 0.0, "rental_uris": {"android": "https://dc.lft.to/lastmile_qr_scan", "ios": "https://dc.lft.to/lastmile_qr_scan"}}, {"type": "electric_scooter", "name": "048ebe7be3bc6ec3c86b1d71ad6910ed", "lat": 38.923723833333334, "fusion_lat": 0.0, "bike_id": "048ebe7be3bc6ec3c86b1d71ad6910ed", "is_reserved": 0, "lon": -77.05025616666667, "is_disabled": 0, "fusion_lon": 0.0, "rental_uris": {"android": "https://dc.lft.to/lastmile_qr_scan", "ios": "https://dc.lft.to/lastmile_qr_scan"}}, {"type": "electric_scooter", "name": "0188549992a03b7b4731e87e9077864b", "lat": 38.915546, "fusion_lat": 0.0, "bike_id": "0188549992a03b7b4731e87e9077864b", "is_reserved": 0, "lon": -77.031741, "is_disabled": 0, "fusion_lon": 0.0, "rental_uris": {"android": "https://dc.lft.to/lastmile_qr_scan", "ios": "https://dc.lft.to/lastmile_qr_scan"}}, {"type": "electric_scooter", "name": "84af1f6eb087083b7ca28712f9cd8f11", "lat": 38.89709966666667, "fusion_lat": 0.0, "bike_id": "84af1f6eb087083b7ca28712f9cd8f11", "is_reserved": 0, "lon": -77.0229215, "is_disabled": 0, "fusion_lon": 0.0, "rental_uris": {"android": "https://dc.lft.to/lastmile_qr_scan", "ios": "https://dc.lft.to/lastmile_qr_scan"}}, {"type": "electric_scooter", "name": "37bf44f4cc192f022ee3997251adb990", "lat": 38.927, "fusion_lat": 0.0, "bike_id": "37bf44f4cc192f022ee3997251adb990", "is_reserved": 0, "lon": -77.03563516666667, "is_disabled": 0, "fusion_lon": 0.0, "rental_uris": {"android": "https://dc.lft.to/lastmile_qr_scan", "ios": "https://dc.lft.to/lastmile_qr_scan"}}, {"type": "electric_scooter", "name": "bf36f4adc21b71d33630f33ba7281c70", "lat": 38.902886333333335, "fusion_lat": 0.0, "bike_id": "bf36f4adc21b71d33630f33ba7281c70", "is_reserved": 0, "lon": -77.023141, "is_disabled": 0, "fusion_lon": 0.0, "rental_uris": {"android": "https://dc.lft.to/lastmile_qr_scan", "ios": "https://dc.lft.to/lastmile_qr_scan"}}, {"type": "electric_scooter", "name": "53aad458a8a8597d5e0c3843e559817b", "lat": 38.8984685, "fusion_lat": 0.0, "bike_id": "53aad458a8a8597d5e0c3843e559817b", "is_reserved": 0, "lon": -77.00727733333333, "is_disabled": 0, "fusion_lon": 0.0, "rental_uris": {"android": "https://dc.lft.to/lastmile_qr_scan", "ios": "https://dc.lft.to/lastmile_qr_scan"}}, {"type": "electric_scooter", "name": "74f02a46b23549cecbf155cb42443fce", "lat": 38.91636183333333, "fusion_lat": 0.0, "bike_id": "74f02a46b23549cecbf155cb42443fce", "is_reserved": 0, "lon": -77.0320675, "is_disabled": 0, "fusion_lon": 0.0, "rental_uris": {"android": "https://dc.lft.to/lastmile_qr_scan", "ios": "https://dc.lft.to/lastmile_qr_scan"}}, {"type": "electric_scooter", "name": "3042322eac2e22f844342d1f96281b35", "lat": 38.899320833333334, "fusion_lat": 0.0, "bike_id": "3042322eac2e22f844342d1f96281b35", "is_reserved": 0, "lon": -77.040279, "is_disabled": 0, "fusion_lon": 0.0, "rental_uris": {"android": "https://dc.lft.to/lastmile_qr_scan", "ios": "https://dc.lft.to/lastmile_qr_scan"}}, {"type": "electric_scooter", "name": "6b069e6802f1a51800bd5ab8dc6bbf2a", "lat": 38.92162966666667, "fusion_lat": 0.0, "bike_id": "6b069e6802f1a51800bd5ab8dc6bbf2a", "is_reserved": 0, "lon": -77.03223533333333, "is_disabled": 0, "fusion_lon": 0.0, "rental_uris": {"android": "https://dc.lft.to/lastmile_qr_scan", "ios": "https://dc.lft.to/lastmile_qr_scan"}}, {"type": "electric_scooter", "name": "983397e9047cb3be3ea775a3664ac02f", "lat": 38.91576583333333, "fusion_lat": 0.0, "bike_id": "983397e9047cb3be3ea775a3664ac02f", "is_reserved": 0, "lon": -77.03200366666667, "is_disabled": 0, "fusion_lon": 0.0, "rental_uris": {"android": "https://dc.lft.to/lastmile_qr_scan", "ios": "https://dc.lft.to/lastmile_qr_scan"}}, {"type": "electric_scooter", "name": "889315ccad3c272ec3af87fa6988e18d", "lat": 38.8972995, "fusion_lat": 0.0, "bike_id": "889315ccad3c272ec3af87fa6988e18d", "is_reserved": 0, "lon": -77.02667216666667, "is_disabled": 0, "fusion_lon": 0.0, "rental_uris": {"android": "https://dc.lft.to/lastmile_qr_scan", "ios": "https://dc.lft.to/lastmile_qr_scan"}}, {"type": "electric_scooter", "name": "5316be8fd7900788a35d7fd2065f4b55", "lat": 38.92051433333334, "fusion_lat": 0.0, "bike_id": "5316be8fd7900788a35d7fd2065f4b55", "is_reserved": 0, "lon": -77.025737, "is_disabled": 0, "fusion_lon": 0.0, "rental_uris": {"android": "https://dc.lft.to/lastmile_qr_scan", "ios": "https://dc.lft.to/lastmile_qr_scan"}}, {"type": "electric_scooter", "name": "5bce3685e2b61a46a059b8e9d972956d", "lat": 38.855973666666664, "fusion_lat": 0.0, "bike_id": "5bce3685e2b61a46a059b8e9d972956d", "is_reserved": 0, "lon": -76.9872155, "is_disabled": 0, "fusion_lon": 0.0, "rental_uris": {"android": "https://dc.lft.to/lastmile_qr_scan", "ios": "https://dc.lft.to/lastmile_qr_scan"}}, {"type": "electric_scooter", "name": "cea5001c1901808af6fa2033efc83212", "lat": 38.887069833333335, "fusion_lat": 0.0, "bike_id": "cea5001c1901808af6fa2033efc83212", "is_reserved": 0, "lon": -77.013738, "is_disabled": 0, "fusion_lon": 0.0, "rental_uris": {"android": "https://dc.lft.to/lastmile_qr_scan", "ios": "https://dc.lft.to/lastmile_qr_scan"}}, {"type": "electric_scooter", "name": "3e31d33c880cf4cecc59ff57ebb5bc9d", "lat": 38.90776733333333, "fusion_lat": 0.0, "bike_id": "3e31d33c880cf4cecc59ff57ebb5bc9d", "is_reserved": 0, "lon": -77.04233783333333, "is_disabled": 0, "fusion_lon": 0.0, "rental_uris": {"android": "https://dc.lft.to/lastmile_qr_scan", "ios": "https://dc.lft.to/lastmile_qr_scan"}}, {"type": "electric_scooter", "name": "c592055b15e6234beb466bd922d6fb7d", "lat": 38.88637966666667, "fusion_lat": 0.0, "bike_id": "c592055b15e6234beb466bd922d6fb7d", "is_reserved": 0, "lon": -77.01555283333333, "is_disabled": 0, "fusion_lon": 0.0, "rental_uris": {"android": "https://dc.lft.to/lastmile_qr_scan", "ios": "https://dc.lft.to/lastmile_qr_scan"}}, {"type": "electric_scooter", "name": "5a24e20fa16d906967667bf80dcf55d8", "lat": 38.9016755, "fusion_lat": 0.0, "bike_id": "5a24e20fa16d906967667bf80dcf55d8", "is_reserved": 0, "lon": -77.022168, "is_disabled": 0, "fusion_lon": 0.0, "rental_uris": {"android": "https://dc.lft.to/lastmile_qr_scan", "ios": "https://dc.lft.to/lastmile_qr_scan"}}, {"type": "electric_bike", "name": "6499bc68212483a58ff082763fef0371", "lat": 38.990552, "fusion_lat": 0.0, "bike_id": "6499bc68212483a58ff082763fef0371", "is_reserved": 0, "lon": -77.03865283333333, "is_disabled": 0, "fusion_lon": 0.0, "rental_uris": {"android": "https://dc.lft.to/lastmile_qr_scan", "ios": "https://dc.lft.to/lastmile_qr_scan"}}, {"type": "electric_scooter", "name": "84c7fbec0a8ab960d903cb003a67773b", "lat": 38.92962816666667, "fusion_lat": 0.0, "bike_id": "84c7fbec0a8ab960d903cb003a67773b", "is_reserved": 0, "lon": -77.011432, "is_disabled": 0, "fusion_lon": 0.0, "rental_uris": {"android": "https://dc.lft.to/lastmile_qr_scan", "ios": "https://dc.lft.to/lastmile_qr_scan"}}, {"type": "electric_bike", "name": "afcb098a8bbd5744eebc2bc000a88c04", "lat": 38.83549583333333, "fusion_lat": 0.0, "bike_id": "afcb098a8bbd5744eebc2bc000a88c04", "is_reserved": 0, "lon": -76.98729916666667, "is_disabled": 0, "fusion_lon": 0.0, "rental_uris": {"android": "https://dc.lft.to/lastmile_qr_scan", "ios": "https://dc.lft.to/lastmile_qr_scan"}}, {"type": "electric_scooter", "name": "cf112743f9a56b89588b98e6032ea093", "lat": 38.879087166666665, "fusion_lat": 0.0, "bike_id": "cf112743f9a56b89588b98e6032ea093", "is_reserved": 0, "lon": -77.022012, "is_disabled": 0, "fusion_lon": 0.0, "rental_uris": {"android": "https://dc.lft.to/lastmile_qr_scan", "ios": "https://dc.lft.to/lastmile_qr_scan"}}, {"type": "electric_scooter", "name": "0b97cb410872deac70c9c2911633cc67", "lat": 38.92319666666667, "fusion_lat": 0.0, "bike_id": "0b97cb410872deac70c9c2911633cc67", "is_reserved": 0, "lon": -77.01952633333333, "is_disabled": 0, "fusion_lon": 0.0, "rental_uris": {"android": "https://dc.lft.to/lastmile_qr_scan", "ios": "https://dc.lft.to/lastmile_qr_scan"}}, {"type": "electric_scooter", "name": "32e36ce307bfcfa6214f52d011824eb6", "lat": 38.84490866666667, "fusion_lat": 0.0, "bike_id": "32e36ce307bfcfa6214f52d011824eb6", "is_reserved": 0, "lon": -76.98794316666667, "is_disabled": 0, "fusion_lon": 0.0, "rental_uris": {"android": "https://dc.lft.to/lastmile_qr_scan", "ios": "https://dc.lft.to/lastmile_qr_scan"}}, {"type": "electric_scooter", "name": "49e7a88bd4a49b3742e5be28ad2ac183", "lat": 38.90289933333333, "fusion_lat": 0.0, "bike_id": "49e7a88bd4a49b3742e5be28ad2ac183", "is_reserved": 0, "lon": -77.042173, "is_disabled": 0, "fusion_lon": 0.0, "rental_uris": {"android": "https://dc.lft.to/lastmile_qr_scan", "ios": "https://dc.lft.to/lastmile_qr_scan"}}, {"type": "electric_scooter", "name": "af7adb040bf2a5b1586e8b45fc185f14", "lat": 38.90772116666667, "fusion_lat": 0.0, "bike_id": "af7adb040bf2a5b1586e8b45fc185f14", "is_reserved": 0, "lon": -77.03209783333334, "is_disabled": 0, "fusion_lon": 0.0, "rental_uris": {"android": "https://dc.lft.to/lastmile_qr_scan", "ios": "https://dc.lft.to/lastmile_qr_scan"}}, {"type": "electric_scooter", "name": "4f4ad45e9719c825ff61075decc65afe", "lat": 38.9097525, "fusion_lat": 0.0, "bike_id": "4f4ad45e9719c825ff61075decc65afe", "is_reserved": 0, "lon": -77.03429483333333, "is_disabled": 0, "fusion_lon": 0.0, "rental_uris": {"android": "https://dc.lft.to/lastmile_qr_scan", "ios": "https://dc.lft.to/lastmile_qr_scan"}}, {"type": "electric_scooter", "name": "9e44a1bfca61da94936d375eb52ba08b", "lat": 38.91741, "fusion_lat": 0.0, "bike_id": "9e44a1bfca61da94936d375eb52ba08b", "is_reserved": 0, "lon": -77.034413, "is_disabled": 0, "fusion_lon": 0.0, "rental_uris": {"android": "https://dc.lft.to/lastmile_qr_scan", "ios": "https://dc.lft.to/lastmile_qr_scan"}}, {"type": "electric_scooter", "name": "2cb64a95bc648164d2de1e63dabb2f70", "lat": 38.89233433333333, "fusion_lat": 0.0, "bike_id": "2cb64a95bc648164d2de1e63dabb2f70", "is_reserved": 0, "lon": -77.02380983333333, "is_disabled": 0, "fusion_lon": 0.0, "rental_uris": {"android": "https://dc.lft.to/lastmile_qr_scan", "ios": "https://dc.lft.to/lastmile_qr_scan"}}, {"type": "electric_scooter", "name": "be1955fdf8603e105c83b62f5fc5cbbe", "lat": 38.9057775, "fusion_lat": 0.0, "bike_id": "be1955fdf8603e105c83b62f5fc5cbbe", "is_reserved": 0, "lon": -77.00395183333333, "is_disabled": 0, "fusion_lon": 0.0, "rental_uris": {"android": "https://dc.lft.to/lastmile_qr_scan", "ios": "https://dc.lft.to/lastmile_qr_scan"}}, {"type": "electric_scooter", "name": "871a5dc567f7b6e46eaf6dbdbeac9b57", "lat": 38.9251795, "fusion_lat": 0.0, "bike_id": "871a5dc567f7b6e46eaf6dbdbeac9b57", "is_reserved": 0, "lon": -77.0214055, "is_disabled": 0, "fusion_lon": 0.0, "rental_uris": {"android": "https://dc.lft.to/lastmile_qr_scan", "ios": "https://dc.lft.to/lastmile_qr_scan"}}, {"type": "electric_scooter", "name": "88123e635e836273dbda59f6caa6d53e", "lat": 38.904383333333335, "fusion_lat": 0.0, "bike_id": "88123e635e836273dbda59f6caa6d53e", "is_reserved": 0, "lon": -77.043559, "is_disabled": 0, "fusion_lon": 0.0, "rental_uris": {"android": "https://dc.lft.to/lastmile_qr_scan", "ios": "https://dc.lft.to/lastmile_qr_scan"}}, {"type": "electric_scooter", "name": "134ed70c6a89924b8f87c2d767fa61a3", "lat": 38.910391, "fusion_lat": 0.0, "bike_id": "134ed70c6a89924b8f87c2d767fa61a3", "is_reserved": 0, "lon": -77.032238, "is_disabled": 0, "fusion_lon": 0.0, "rental_uris": {"android": "https://dc.lft.to/lastmile_qr_scan", "ios": "https://dc.lft.to/lastmile_qr_scan"}}, {"type": "electric_scooter", "name": "84f660f9ea0ed90effbc012e6476ebfe", "lat": 38.92960766666667, "fusion_lat": 0.0, "bike_id": "84f660f9ea0ed90effbc012e6476ebfe", "is_reserved": 0, "lon": -77.02788216666667, "is_disabled": 0, "fusion_lon": 0.0, "rental_uris": {"android": "https://dc.lft.to/lastmile_qr_scan", "ios": "https://dc.lft.to/lastmile_qr_scan"}}, {"type": "electric_bike", "name": "11ba55db892a28884cef7e15c98868c7", "lat": 38.9095695, "fusion_lat": 0.0, "bike_id": "11ba55db892a28884cef7e15c98868c7", "is_reserved": 0, "lon": -76.998915, "is_disabled": 0, "fusion_lon": 0.0, "rental_uris": {"android": "https://dc.lft.to/lastmile_qr_scan", "ios": "https://dc.lft.to/lastmile_qr_scan"}}, {"type": "electric_scooter", "name": "b560a313ccaad617bb1ad6f0b5fb39c0", "lat": 38.937014166666664, "fusion_lat": 0.0, "bike_id": "b560a313ccaad617bb1ad6f0b5fb39c0", "is_reserved": 0, "lon": -77.0559885, "is_disabled": 0, "fusion_lon": 0.0, "rental_uris": {"android": "https://dc.lft.to/lastmile_qr_scan", "ios": "https://dc.lft.to/lastmile_qr_scan"}}, {"type": "electric_scooter", "name": "524c7f2e7b76c1a99d448523213a761c", "lat": 38.8768935, "fusion_lat": 0.0, "bike_id": "524c7f2e7b76c1a99d448523213a761c", "is_reserved": 0, "lon": -77.01750583333333, "is_disabled": 0, "fusion_lon": 0.0, "rental_uris": {"android": "https://dc.lft.to/lastmile_qr_scan", "ios": "https://dc.lft.to/lastmile_qr_scan"}}, {"type": "electric_scooter", "name": "a93c1fe2057571e740133d3848ea3472", "lat": 38.92258183333333, "fusion_lat": 0.0, "bike_id": "a93c1fe2057571e740133d3848ea3472", "is_reserved": 0, "lon": -77.0388575, "is_disabled": 0, "fusion_lon": 0.0, "rental_uris": {"android": "https://dc.lft.to/lastmile_qr_scan", "ios": "https://dc.lft.to/lastmile_qr_scan"}}, {"type": "electric_scooter", "name": "9d1f882701851f8f95f83f2b537ad465", "lat": 38.903101, "fusion_lat": 0.0, "bike_id": "9d1f882701851f8f95f83f2b537ad465", "is_reserved": 0, "lon": -77.023645, "is_disabled": 0, "fusion_lon": 0.0, "rental_uris": {"android": "https://dc.lft.to/lastmile_qr_scan", "ios": "https://dc.lft.to/lastmile_qr_scan"}}, {"type": "electric_scooter", "name": "fbba3a04596dc1c11c5fe3e6c27a170d", "lat": 38.915555499999996, "fusion_lat": 0.0, "bike_id": "fbba3a04596dc1c11c5fe3e6c27a170d", "is_reserved": 0, "lon": -77.03175333333333, "is_disabled": 0, "fusion_lon": 0.0, "rental_uris": {"android": "https://dc.lft.to/lastmile_qr_scan", "ios": "https://dc.lft.to/lastmile_qr_scan"}}, {"type": "electric_bike", "name": "f0a17015d32d91d480b9c6aabdbe2422", "lat": 38.98463, "fusion_lat": 0.0, "bike_id": "f0a17015d32d91d480b9c6aabdbe2422", "is_reserved": 0, "lon": -76.97053016666666, "is_disabled": 0, "fusion_lon": 0.0, "rental_uris": {"android": "https://dc.lft.to/lastmile_qr_scan", "ios": "https://dc.lft.to/lastmile_qr_scan"}}, {"type": "electric_scooter", "name": "9c7b8e0fba585cb2ea6e1003408f6f44", "lat": 38.910079, "fusion_lat": 0.0, "bike_id": "9c7b8e0fba585cb2ea6e1003408f6f44", "is_reserved": 0, "lon": -77.03664083333334, "is_disabled": 0, "fusion_lon": 0.0, "rental_uris": {"android": "https://dc.lft.to/lastmile_qr_scan", "ios": "https://dc.lft.to/lastmile_qr_scan"}}, {"type": "electric_scooter", "name": "b6e7a073c6e8f09c53073be4106f38b5", "lat": 38.90547933333333, "fusion_lat": 0.0, "bike_id": "b6e7a073c6e8f09c53073be4106f38b5", "is_reserved": 0, "lon": -77.05708766666666, "is_disabled": 0, "fusion_lon": 0.0, "rental_uris": {"android": "https://dc.lft.to/lastmile_qr_scan", "ios": "https://dc.lft.to/lastmile_qr_scan"}}, {"type": "electric_scooter", "name": "2822b3731e9538493f0fee8389de9ab4", "lat": 38.899179833333335, "fusion_lat": 0.0, "bike_id": "2822b3731e9538493f0fee8389de9ab4", "is_reserved": 0, "lon": -77.03294033333333, "is_disabled": 0, "fusion_lon": 0.0, "rental_uris": {"android": "https://dc.lft.to/lastmile_qr_scan", "ios": "https://dc.lft.to/lastmile_qr_scan"}}, {"type": "electric_scooter", "name": "1471632d66e95dd4540b083dee21b8dd", "lat": 38.93398283333333, "fusion_lat": 0.0, "bike_id": "1471632d66e95dd4540b083dee21b8dd", "is_reserved": 0, "lon": -77.05741383333333, "is_disabled": 0, "fusion_lon": 0.0, "rental_uris": {"android": "https://dc.lft.to/lastmile_qr_scan", "ios": "https://dc.lft.to/lastmile_qr_scan"}}, {"type": "electric_bike", "name": "77a9d0afbe0560afb7b9b176d17c04b3", "lat": 38.973819166666665, "fusion_lat": 0.0, "bike_id": "77a9d0afbe0560afb7b9b176d17c04b3", "is_reserved": 0, "lon": -77.06472233333334, "is_disabled": 0, "fusion_lon": 0.0, "rental_uris": {"android": "https://dc.lft.to/lastmile_qr_scan", "ios": "https://dc.lft.to/lastmile_qr_scan"}}, {"type": "electric_scooter", "name": "e634481345736884ad49a31dd0d84b03", "lat": 38.888169833333336, "fusion_lat": 0.0, "bike_id": "e634481345736884ad49a31dd0d84b03", "is_reserved": 0, "lon": -76.98070666666666, "is_disabled": 0, "fusion_lon": 0.0, "rental_uris": {"android": "https://dc.lft.to/lastmile_qr_scan", "ios": "https://dc.lft.to/lastmile_qr_scan"}}, {"type": "electric_scooter", "name": "064de4ee3e22cc8644bb1989b95d4943", "lat": 38.89835583333333, "fusion_lat": 0.0, "bike_id": "064de4ee3e22cc8644bb1989b95d4943", "is_reserved": 0, "lon": -77.04335566666667, "is_disabled": 0, "fusion_lon": 0.0, "rental_uris": {"android": "https://dc.lft.to/lastmile_qr_scan", "ios": "https://dc.lft.to/lastmile_qr_scan"}}, {"type": "electric_scooter", "name": "6b53121e25174aa43621a55c6f6b247f", "lat": 38.90278983333333, "fusion_lat": 0.0, "bike_id": "6b53121e25174aa43621a55c6f6b247f", "is_reserved": 0, "lon": -77.03845483333333, "is_disabled": 0, "fusion_lon": 0.0, "rental_uris": {"android": "https://dc.lft.to/lastmile_qr_scan", "ios": "https://dc.lft.to/lastmile_qr_scan"}}, {"type": "electric_scooter", "name": "67855934cd5e6bd7ee62f2aa3b512d65", "lat": 38.9116, "fusion_lat": 0.0, "bike_id": "67855934cd5e6bd7ee62f2aa3b512d65", "is_reserved": 0, "lon": -77.02375283333333, "is_disabled": 0, "fusion_lon": 0.0, "rental_uris": {"android": "https://dc.lft.to/lastmile_qr_scan", "ios": "https://dc.lft.to/lastmile_qr_scan"}}, {"type": "electric_scooter", "name": "351b03f620a0ff7e78abc7f470d41ddd", "lat": 38.89869316666667, "fusion_lat": 0.0, "bike_id": "351b03f620a0ff7e78abc7f470d41ddd", "is_reserved": 0, "lon": -76.9463215, "is_disabled": 0, "fusion_lon": 0.0, "rental_uris": {"android": "https://dc.lft.to/lastmile_qr_scan", "ios": "https://dc.lft.to/lastmile_qr_scan"}}, {"type": "electric_bike", "name": "f39e26c3c5af4200a18d7ee2ec910553", "lat": 38.966278333333335, "fusion_lat": 0.0, "bike_id": "f39e26c3c5af4200a18d7ee2ec910553", "is_reserved": 0, "lon": -77.03428066666666, "is_disabled": 0, "fusion_lon": 0.0, "rental_uris": {"android": "https://dc.lft.to/lastmile_qr_scan", "ios": "https://dc.lft.to/lastmile_qr_scan"}}, {"type": "electric_scooter", "name": "0a02c3484c2c926e951b8b08b31137cd", "lat": 38.909826, "fusion_lat": 0.0, "bike_id": "0a02c3484c2c926e951b8b08b31137cd", "is_reserved": 0, "lon": -77.03370483333333, "is_disabled": 0, "fusion_lon": 0.0, "rental_uris": {"android": "https://dc.lft.to/lastmile_qr_scan", "ios": "https://dc.lft.to/lastmile_qr_scan"}}, {"type": "electric_scooter", "name": "35f75651f7569b3a71d016abe98220fc", "lat": 38.91055566666667, "fusion_lat": 0.0, "bike_id": "35f75651f7569b3a71d016abe98220fc", "is_reserved": 0, "lon": -77.04372083333334, "is_disabled": 0, "fusion_lon": 0.0, "rental_uris": {"android": "https://dc.lft.to/lastmile_qr_scan", "ios": "https://dc.lft.to/lastmile_qr_scan"}}, {"type": "electric_scooter", "name": "5f42d3d4453cd4bce26ef52a1d5528c8", "lat": 38.912035833333334, "fusion_lat": 0.0, "bike_id": "5f42d3d4453cd4bce26ef52a1d5528c8", "is_reserved": 0, "lon": -77.03638783333334, "is_disabled": 0, "fusion_lon": 0.0, "rental_uris": {"android": "https://dc.lft.to/lastmile_qr_scan", "ios": "https://dc.lft.to/lastmile_qr_scan"}}, {"type": "electric_scooter", "name": "79221c561dd5d91e4db8b7fe72a81e64", "lat": 38.91258333333333, "fusion_lat": 0.0, "bike_id": "79221c561dd5d91e4db8b7fe72a81e64", "is_reserved": 0, "lon": -77.02222766666667, "is_disabled": 0, "fusion_lon": 0.0, "rental_uris": {"android": "https://dc.lft.to/lastmile_qr_scan", "ios": "https://dc.lft.to/lastmile_qr_scan"}}, {"type": "electric_scooter", "name": "025ac3055988980794bd336625fa70fd", "lat": 38.897359333333334, "fusion_lat": 0.0, "bike_id": "025ac3055988980794bd336625fa70fd", "is_reserved": 0, "lon": -77.05522866666666, "is_disabled": 0, "fusion_lon": 0.0, "rental_uris": {"android": "https://dc.lft.to/lastmile_qr_scan", "ios": "https://dc.lft.to/lastmile_qr_scan"}}, {"type": "electric_scooter", "name": "0b4e5b32f4fe9f4c99e210d28c722c0f", "lat": 38.903035, "fusion_lat": 0.0, "bike_id": "0b4e5b32f4fe9f4c99e210d28c722c0f", "is_reserved": 0, "lon": -77.0317375, "is_disabled": 0, "fusion_lon": 0.0, "rental_uris": {"android": "https://dc.lft.to/lastmile_qr_scan", "ios": "https://dc.lft.to/lastmile_qr_scan"}}, {"type": "electric_scooter", "name": "c13e9e77cf2a99a0069d11d63a70acab", "lat": 38.9049045, "fusion_lat": 0.0, "bike_id": "c13e9e77cf2a99a0069d11d63a70acab", "is_reserved": 0, "lon": -77.03918866666666, "is_disabled": 0, "fusion_lon": 0.0, "rental_uris": {"android": "https://dc.lft.to/lastmile_qr_scan", "ios": "https://dc.lft.to/lastmile_qr_scan"}}, {"type": "electric_scooter", "name": "2f4302698856a092b7234ea17e793109", "lat": 38.905574, "fusion_lat": 0.0, "bike_id": "2f4302698856a092b7234ea17e793109", "is_reserved": 0, "lon": -77.00534783333333, "is_disabled": 0, "fusion_lon": 0.0, "rental_uris": {"android": "https://dc.lft.to/lastmile_qr_scan", "ios": "https://dc.lft.to/lastmile_qr_scan"}}, {"type": "electric_scooter", "name": "690621bf18227ce4461a6da7f46652f4", "lat": 38.884950333333336, "fusion_lat": 0.0, "bike_id": "690621bf18227ce4461a6da7f46652f4", "is_reserved": 0, "lon": -77.007246, "is_disabled": 0, "fusion_lon": 0.0, "rental_uris": {"android": "https://dc.lft.to/lastmile_qr_scan", "ios": "https://dc.lft.to/lastmile_qr_scan"}}, {"type": "electric_scooter", "name": "c4032b9b7bf2f26e4e9dac739ff6a3cb", "lat": 38.89612866666667, "fusion_lat": 0.0, "bike_id": "c4032b9b7bf2f26e4e9dac739ff6a3cb", "is_reserved": 0, "lon": -77.02196066666667, "is_disabled": 0, "fusion_lon": 0.0, "rental_uris": {"android": "https://dc.lft.to/lastmile_qr_scan", "ios": "https://dc.lft.to/lastmile_qr_scan"}}, {"type": "electric_scooter", "name": "3f2c720523718aff986453eb448cfbaa", "lat": 38.860378, "fusion_lat": 0.0, "bike_id": "3f2c720523718aff986453eb448cfbaa", "is_reserved": 0, "lon": -76.96704916666667, "is_disabled": 0, "fusion_lon": 0.0, "rental_uris": {"android": "https://dc.lft.to/lastmile_qr_scan", "ios": "https://dc.lft.to/lastmile_qr_scan"}}, {"type": "electric_scooter", "name": "2cce698dec5facbdb3273ae8bb175431", "lat": 38.909279833333336, "fusion_lat": 0.0, "bike_id": "2cce698dec5facbdb3273ae8bb175431", "is_reserved": 0, "lon": -77.02693116666667, "is_disabled": 0, "fusion_lon": 0.0, "rental_uris": {"android": "https://dc.lft.to/lastmile_qr_scan", "ios": "https://dc.lft.to/lastmile_qr_scan"}}, {"type": "electric_scooter", "name": "2fe01397d6dbb2267326c68d43e0bc94", "lat": 38.9024695, "fusion_lat": 0.0, "bike_id": "2fe01397d6dbb2267326c68d43e0bc94", "is_reserved": 0, "lon": -77.02647583333334, "is_disabled": 0, "fusion_lon": 0.0, "rental_uris": {"android": "https://dc.lft.to/lastmile_qr_scan", "ios": "https://dc.lft.to/lastmile_qr_scan"}}, {"type": "electric_scooter", "name": "49ae5fc17b9198bf641e5e2f35f278ba", "lat": 38.9236745, "fusion_lat": 0.0, "bike_id": "49ae5fc17b9198bf641e5e2f35f278ba", "is_reserved": 0, "lon": -77.01950866666667, "is_disabled": 0, "fusion_lon": 0.0, "rental_uris": {"android": "https://dc.lft.to/lastmile_qr_scan", "ios": "https://dc.lft.to/lastmile_qr_scan"}}, {"type": "electric_scooter", "name": "99dec7ce6ef9599e2429b7899090d45d", "lat": 38.95103233333333, "fusion_lat": 0.0, "bike_id": "99dec7ce6ef9599e2429b7899090d45d", "is_reserved": 0, "lon": -77.09713966666666, "is_disabled": 0, "fusion_lon": 0.0, "rental_uris": {"android": "https://dc.lft.to/lastmile_qr_scan", "ios": "https://dc.lft.to/lastmile_qr_scan"}}, {"type": "electric_scooter", "name": "f21df91bae73f9de1dad5d6744f556b9", "lat": 38.9181935, "fusion_lat": 0.0, "bike_id": "f21df91bae73f9de1dad5d6744f556b9", "is_reserved": 0, "lon": -77.04176216666667, "is_disabled": 0, "fusion_lon": 0.0, "rental_uris": {"android": "https://dc.lft.to/lastmile_qr_scan", "ios": "https://dc.lft.to/lastmile_qr_scan"}}, {"type": "electric_scooter", "name": "9d82b99ab5c0cc34cc95bb9ef618b5af", "lat": 38.941845, "fusion_lat": 0.0, "bike_id": "9d82b99ab5c0cc34cc95bb9ef618b5af", "is_reserved": 0, "lon": -77.0314455, "is_disabled": 0, "fusion_lon": 0.0, "rental_uris": {"android": "https://dc.lft.to/lastmile_qr_scan", "ios": "https://dc.lft.to/lastmile_qr_scan"}}, {"type": "electric_scooter", "name": "f274efa83d93a5e1a6cd308b8df4c63e", "lat": 38.911382333333336, "fusion_lat": 0.0, "bike_id": "f274efa83d93a5e1a6cd308b8df4c63e", "is_reserved": 0, "lon": -77.02197483333333, "is_disabled": 0, "fusion_lon": 0.0, "rental_uris": {"android": "https://dc.lft.to/lastmile_qr_scan", "ios": "https://dc.lft.to/lastmile_qr_scan"}}, {"type": "electric_bike", "name": "20d85363bbe940c4f131c815eefd9e3b", "lat": 38.98502583333333, "fusion_lat": 0.0, "bike_id": "20d85363bbe940c4f131c815eefd9e3b", "is_reserved": 0, "lon": -76.98190433333333, "is_disabled": 0, "fusion_lon": 0.0, "rental_uris": {"android": "https://dc.lft.to/lastmile_qr_scan", "ios": "https://dc.lft.to/lastmile_qr_scan"}}, {"type": "electric_scooter", "name": "53dd67988f58a74b592113a0402020d7", "lat": 38.88489116666667, "fusion_lat": 0.0, "bike_id": "53dd67988f58a74b592113a0402020d7", "is_reserved": 0, "lon": -77.007104, "is_disabled": 0, "fusion_lon": 0.0, "rental_uris": {"android": "https://dc.lft.to/lastmile_qr_scan", "ios": "https://dc.lft.to/lastmile_qr_scan"}}, {"type": "electric_scooter", "name": "5509795b28a34a09e2edc8f21f84a556", "lat": 38.907296333333335, "fusion_lat": 0.0, "bike_id": "5509795b28a34a09e2edc8f21f84a556", "is_reserved": 0, "lon": -77.04356333333334, "is_disabled": 0, "fusion_lon": 0.0, "rental_uris": {"android": "https://dc.lft.to/lastmile_qr_scan", "ios": "https://dc.lft.to/lastmile_qr_scan"}}, {"type": "electric_scooter", "name": "3154dced2244cc31e865b042c7b1e06d", "lat": 38.912548666666666, "fusion_lat": 0.0, "bike_id": "3154dced2244cc31e865b042c7b1e06d", "is_reserved": 0, "lon": -77.02545833333333, "is_disabled": 0, "fusion_lon": 0.0, "rental_uris": {"android": "https://dc.lft.to/lastmile_qr_scan", "ios": "https://dc.lft.to/lastmile_qr_scan"}}, {"type": "electric_scooter", "name": "f8313d27fa8dffbfae2ae50db8181a13", "lat": 38.8843035, "fusion_lat": 0.0, "bike_id": "f8313d27fa8dffbfae2ae50db8181a13", "is_reserved": 0, "lon": -76.99597833333333, "is_disabled": 0, "fusion_lon": 0.0, "rental_uris": {"android": "https://dc.lft.to/lastmile_qr_scan", "ios": "https://dc.lft.to/lastmile_qr_scan"}}, {"type": "electric_scooter", "name": "50f3ebfd88a85c9d0bc136510c1289ed", "lat": 38.909137666666666, "fusion_lat": 0.0, "bike_id": "50f3ebfd88a85c9d0bc136510c1289ed", "is_reserved": 0, "lon": -77.02806383333333, "is_disabled": 0, "fusion_lon": 0.0, "rental_uris": {"android": "https://dc.lft.to/lastmile_qr_scan", "ios": "https://dc.lft.to/lastmile_qr_scan"}}, {"type": "electric_scooter", "name": "fd4db940a23f9d1e8ed76898ad5f577f", "lat": 38.90357016666667, "fusion_lat": 0.0, "bike_id": "fd4db940a23f9d1e8ed76898ad5f577f", "is_reserved": 0, "lon": -77.06008333333334, "is_disabled": 0, "fusion_lon": 0.0, "rental_uris": {"android": "https://dc.lft.to/lastmile_qr_scan", "ios": "https://dc.lft.to/lastmile_qr_scan"}}, {"type": "electric_scooter", "name": "757f407acfda08f02a6aec0fcac5458e", "lat": 38.90961633333333, "fusion_lat": 0.0, "bike_id": "757f407acfda08f02a6aec0fcac5458e", "is_reserved": 0, "lon": -77.03415183333334, "is_disabled": 0, "fusion_lon": 0.0, "rental_uris": {"android": "https://dc.lft.to/lastmile_qr_scan", "ios": "https://dc.lft.to/lastmile_qr_scan"}}, {"type": "electric_bike", "name": "f222a5136e1bc3560732f201e1a78c71", "lat": 38.87871883333333, "fusion_lat": 0.0, "bike_id": "f222a5136e1bc3560732f201e1a78c71", "is_reserved": 0, "lon": -76.98254483333334, "is_disabled": 0, "fusion_lon": 0.0, "rental_uris": {"android": "https://dc.lft.to/lastmile_qr_scan", "ios": "https://dc.lft.to/lastmile_qr_scan"}}, {"type": "electric_scooter", "name": "f0206b36ad6d7cf3639ac9c04e43a684", "lat": 38.932191, "fusion_lat": 0.0, "bike_id": "f0206b36ad6d7cf3639ac9c04e43a684", "is_reserved": 0, "lon": -77.03260616666667, "is_disabled": 0, "fusion_lon": 0.0, "rental_uris": {"android": "https://dc.lft.to/lastmile_qr_scan", "ios": "https://dc.lft.to/lastmile_qr_scan"}}, {"type": "electric_scooter", "name": "9697517f240f4a1f58758ce0a3369736", "lat": 38.887489, "fusion_lat": 0.0, "bike_id": "9697517f240f4a1f58758ce0a3369736", "is_reserved": 0, "lon": -77.02116933333333, "is_disabled": 0, "fusion_lon": 0.0, "rental_uris": {"android": "https://dc.lft.to/lastmile_qr_scan", "ios": "https://dc.lft.to/lastmile_qr_scan"}}, {"type": "electric_bike", "name": "be9b0baf9979cd0c5f0383d7682b50b4", "lat": 38.884089, "fusion_lat": 0.0, "bike_id": "be9b0baf9979cd0c5f0383d7682b50b4", "is_reserved": 0, "lon": -76.95416266666666, "is_disabled": 0, "fusion_lon": 0.0, "rental_uris": {"android": "https://dc.lft.to/lastmile_qr_scan", "ios": "https://dc.lft.to/lastmile_qr_scan"}}, {"type": "electric_scooter", "name": "840be85eb265e78129ff7c5c689354b9", "lat": 38.865357, "fusion_lat": 0.0, "bike_id": "840be85eb265e78129ff7c5c689354b9", "is_reserved": 0, "lon": -76.98956283333334, "is_disabled": 0, "fusion_lon": 0.0, "rental_uris": {"android": "https://dc.lft.to/lastmile_qr_scan", "ios": "https://dc.lft.to/lastmile_qr_scan"}}, {"type": "electric_scooter", "name": "2690fdfe7e81e90c8dfdcbf4b332661f", "lat": 38.898104833333335, "fusion_lat": 0.0, "bike_id": "2690fdfe7e81e90c8dfdcbf4b332661f", "is_reserved": 0, "lon": -77.027253, "is_disabled": 0, "fusion_lon": 0.0, "rental_uris": {"android": "https://dc.lft.to/lastmile_qr_scan", "ios": "https://dc.lft.to/lastmile_qr_scan"}}, {"type": "electric_scooter", "name": "e9e2d14d2a8e40b6f63f7a1c6265d10e", "lat": 38.91458883333333, "fusion_lat": 0.0, "bike_id": "e9e2d14d2a8e40b6f63f7a1c6265d10e", "is_reserved": 0, "lon": -77.046247, "is_disabled": 0, "fusion_lon": 0.0, "rental_uris": {"android": "https://dc.lft.to/lastmile_qr_scan", "ios": "https://dc.lft.to/lastmile_qr_scan"}}, {"type": "electric_scooter", "name": "ea9ecb1eace1dd396553f6f5c70effb6", "lat": 38.905744166666665, "fusion_lat": 0.0, "bike_id": "ea9ecb1eace1dd396553f6f5c70effb6", "is_reserved": 0, "lon": -77.003924, "is_disabled": 0, "fusion_lon": 0.0, "rental_uris": {"android": "https://dc.lft.to/lastmile_qr_scan", "ios": "https://dc.lft.to/lastmile_qr_scan"}}, {"type": "electric_scooter", "name": "98cf10e5912b3b3fafad55266bd990fb", "lat": 38.9065885, "fusion_lat": 0.0, "bike_id": "98cf10e5912b3b3fafad55266bd990fb", "is_reserved": 0, "lon": -77.0386955, "is_disabled": 0, "fusion_lon": 0.0, "rental_uris": {"android": "https://dc.lft.to/lastmile_qr_scan", "ios": "https://dc.lft.to/lastmile_qr_scan"}}, {"type": "electric_scooter", "name": "b982a9c097b2c35f78657555a9ec1cd7", "lat": 38.903349166666665, "fusion_lat": 0.0, "bike_id": "b982a9c097b2c35f78657555a9ec1cd7", "is_reserved": 0, "lon": -77.04358866666666, "is_disabled": 0, "fusion_lon": 0.0, "rental_uris": {"android": "https://dc.lft.to/lastmile_qr_scan", "ios": "https://dc.lft.to/lastmile_qr_scan"}}, {"type": "electric_scooter", "name": "8349f3c209d5e16126bcf129dac5dce1", "lat": 38.91696066666667, "fusion_lat": 0.0, "bike_id": "8349f3c209d5e16126bcf129dac5dce1", "is_reserved": 0, "lon": -77.03139633333333, "is_disabled": 0, "fusion_lon": 0.0, "rental_uris": {"android": "https://dc.lft.to/lastmile_qr_scan", "ios": "https://dc.lft.to/lastmile_qr_scan"}}, {"type": "electric_bike", "name": "536c321c24c45d87f53e76b7fe9531fb", "lat": 38.90066216666666, "fusion_lat": 0.0, "bike_id": "536c321c24c45d87f53e76b7fe9531fb", "is_reserved": 0, "lon": -77.0130335, "is_disabled": 0, "fusion_lon": 0.0, "rental_uris": {"android": "https://dc.lft.to/lastmile_qr_scan", "ios": "https://dc.lft.to/lastmile_qr_scan"}}, {"type": "electric_scooter", "name": "81460f45ce54b474348724625034796e", "lat": 38.92985266666667, "fusion_lat": 0.0, "bike_id": "81460f45ce54b474348724625034796e", "is_reserved": 0, "lon": -77.036567, "is_disabled": 0, "fusion_lon": 0.0, "rental_uris": {"android": "https://dc.lft.to/lastmile_qr_scan", "ios": "https://dc.lft.to/lastmile_qr_scan"}}, {"type": "electric_scooter", "name": "04e181a1eacede317cb09871b4edb68b", "lat": 38.866844666666665, "fusion_lat": 0.0, "bike_id": "04e181a1eacede317cb09871b4edb68b", "is_reserved": 0, "lon": -76.98562866666667, "is_disabled": 0, "fusion_lon": 0.0, "rental_uris": {"android": "https://dc.lft.to/lastmile_qr_scan", "ios": "https://dc.lft.to/lastmile_qr_scan"}}, {"type": "electric_scooter", "name": "0bb6473014661f374e42abf51230a2b2", "lat": 38.903238, "fusion_lat": 0.0, "bike_id": "0bb6473014661f374e42abf51230a2b2", "is_reserved": 0, "lon": -76.97549, "is_disabled": 0, "fusion_lon": 0.0, "rental_uris": {"android": "https://dc.lft.to/lastmile_qr_scan", "ios": "https://dc.lft.to/lastmile_qr_scan"}}, {"type": "electric_scooter", "name": "e2233412a5684641eeab04da7c155b10", "lat": 38.923559833333336, "fusion_lat": 0.0, "bike_id": "e2233412a5684641eeab04da7c155b10", "is_reserved": 0, "lon": -77.04387183333333, "is_disabled": 0, "fusion_lon": 0.0, "rental_uris": {"android": "https://dc.lft.to/lastmile_qr_scan", "ios": "https://dc.lft.to/lastmile_qr_scan"}}, {"type": "electric_bike", "name": "5fba4873f9e23fcf799761eddce81ecf", "lat": 38.942603166666665, "fusion_lat": 0.0, "bike_id": "5fba4873f9e23fcf799761eddce81ecf", "is_reserved": 0, "lon": -76.99073366666667, "is_disabled": 0, "fusion_lon": 0.0, "rental_uris": {"android": "https://dc.lft.to/lastmile_qr_scan", "ios": "https://dc.lft.to/lastmile_qr_scan"}}, {"type": "electric_scooter", "name": "3083e741f56e8d6160c40e84808f0f32", "lat": 38.92422083333334, "fusion_lat": 0.0, "bike_id": "3083e741f56e8d6160c40e84808f0f32", "is_reserved": 0, "lon": -77.019385, "is_disabled": 0, "fusion_lon": 0.0, "rental_uris": {"android": "https://dc.lft.to/lastmile_qr_scan", "ios": "https://dc.lft.to/lastmile_qr_scan"}}, {"type": "electric_scooter", "name": "4ee9132fea8c8571e44baedfc3765585", "lat": 38.898647833333335, "fusion_lat": 0.0, "bike_id": "4ee9132fea8c8571e44baedfc3765585", "is_reserved": 0, "lon": -76.946346, "is_disabled": 0, "fusion_lon": 0.0, "rental_uris": {"android": "https://dc.lft.to/lastmile_qr_scan", "ios": "https://dc.lft.to/lastmile_qr_scan"}}, {"type": "electric_scooter", "name": "437225549d51dea5c1d5cdd7ebb0a675", "lat": 38.901916166666666, "fusion_lat": 0.0, "bike_id": "437225549d51dea5c1d5cdd7ebb0a675", "is_reserved": 0, "lon": -77.02168, "is_disabled": 0, "fusion_lon": 0.0, "rental_uris": {"android": "https://dc.lft.to/lastmile_qr_scan", "ios": "https://dc.lft.to/lastmile_qr_scan"}}, {"type": "electric_scooter", "name": "5a7af29533ebac4b1afa00ea7bd105a5", "lat": 38.9069975, "fusion_lat": 0.0, "bike_id": "5a7af29533ebac4b1afa00ea7bd105a5", "is_reserved": 0, "lon": -77.00208683333334, "is_disabled": 0, "fusion_lon": 0.0, "rental_uris": {"android": "https://dc.lft.to/lastmile_qr_scan", "ios": "https://dc.lft.to/lastmile_qr_scan"}}, {"type": "electric_scooter", "name": "0e0293016a71b659ce6e085d72da5afe", "lat": 38.920574, "fusion_lat": 0.0, "bike_id": "0e0293016a71b659ce6e085d72da5afe", "is_reserved": 0, "lon": -77.03438233333334, "is_disabled": 0, "fusion_lon": 0.0, "rental_uris": {"android": "https://dc.lft.to/lastmile_qr_scan", "ios": "https://dc.lft.to/lastmile_qr_scan"}}, {"type": "electric_bike", "name": "2bd3fc627eccb480b79e376709ca0524", "lat": 38.949212833333334, "fusion_lat": 0.0, "bike_id": "2bd3fc627eccb480b79e376709ca0524", "is_reserved": 0, "lon": -77.07838216666667, "is_disabled": 0, "fusion_lon": 0.0, "rental_uris": {"android": "https://dc.lft.to/lastmile_qr_scan", "ios": "https://dc.lft.to/lastmile_qr_scan"}}, {"type": "electric_scooter", "name": "4b83a8a03eb13dc9145512125d1c6881", "lat": 38.9184425, "fusion_lat": 0.0, "bike_id": "4b83a8a03eb13dc9145512125d1c6881", "is_reserved": 0, "lon": -77.03514466666667, "is_disabled": 0, "fusion_lon": 0.0, "rental_uris": {"android": "https://dc.lft.to/lastmile_qr_scan", "ios": "https://dc.lft.to/lastmile_qr_scan"}}, {"type": "electric_scooter", "name": "ad908193a4a33216e2d8eea0f672b637", "lat": 38.90665533333333, "fusion_lat": 0.0, "bike_id": "ad908193a4a33216e2d8eea0f672b637", "is_reserved": 0, "lon": -77.038736, "is_disabled": 0, "fusion_lon": 0.0, "rental_uris": {"android": "https://dc.lft.to/lastmile_qr_scan", "ios": "https://dc.lft.to/lastmile_qr_scan"}}, {"type": "electric_scooter", "name": "841d65e2006bfe3783aec1ccc5258625", "lat": 38.90263983333333, "fusion_lat": 0.0, "bike_id": "841d65e2006bfe3783aec1ccc5258625", "is_reserved": 0, "lon": -77.03955366666666, "is_disabled": 0, "fusion_lon": 0.0, "rental_uris": {"android": "https://dc.lft.to/lastmile_qr_scan", "ios": "https://dc.lft.to/lastmile_qr_scan"}}, {"type": "electric_scooter", "name": "0c0f7f6b0cf8f50c087ee4d5d00e7c84", "lat": 38.9107225, "fusion_lat": 0.0, "bike_id": "0c0f7f6b0cf8f50c087ee4d5d00e7c84", "is_reserved": 0, "lon": -77.00450483333333, "is_disabled": 0, "fusion_lon": 0.0, "rental_uris": {"android": "https://dc.lft.to/lastmile_qr_scan", "ios": "https://dc.lft.to/lastmile_qr_scan"}}, {"type": "electric_scooter", "name": "aea102c93c333e381715c46aad2d20dc", "lat": 38.87788166666667, "fusion_lat": 0.0, "bike_id": "aea102c93c333e381715c46aad2d20dc", "is_reserved": 0, "lon": -76.994041, "is_disabled": 0, "fusion_lon": 0.0, "rental_uris": {"android": "https://dc.lft.to/lastmile_qr_scan", "ios": "https://dc.lft.to/lastmile_qr_scan"}}, {"type": "electric_scooter", "name": "d05a3cc4919f45ee3c838b35731ce641", "lat": 38.92361266666666, "fusion_lat": 0.0, "bike_id": "d05a3cc4919f45ee3c838b35731ce641", "is_reserved": 0, "lon": -77.04152766666667, "is_disabled": 0, "fusion_lon": 0.0, "rental_uris": {"android": "https://dc.lft.to/lastmile_qr_scan", "ios": "https://dc.lft.to/lastmile_qr_scan"}}, {"type": "electric_scooter", "name": "27c1e443fb7d2f55519758a4133c94c3", "lat": 38.90853383333334, "fusion_lat": 0.0, "bike_id": "27c1e443fb7d2f55519758a4133c94c3", "is_reserved": 0, "lon": -77.0197115, "is_disabled": 0, "fusion_lon": 0.0, "rental_uris": {"android": "https://dc.lft.to/lastmile_qr_scan", "ios": "https://dc.lft.to/lastmile_qr_scan"}}, {"type": "electric_scooter", "name": "376dc01086fc3db2fa0595389b9dede2", "lat": 38.923254, "fusion_lat": 0.0, "bike_id": "376dc01086fc3db2fa0595389b9dede2", "is_reserved": 0, "lon": -77.01950566666666, "is_disabled": 0, "fusion_lon": 0.0, "rental_uris": {"android": "https://dc.lft.to/lastmile_qr_scan", "ios": "https://dc.lft.to/lastmile_qr_scan"}}, {"type": "electric_scooter", "name": "a122b7582b1355a27ecec8145fe74f9e", "lat": 38.90413483333333, "fusion_lat": 0.0, "bike_id": "a122b7582b1355a27ecec8145fe74f9e", "is_reserved": 0, "lon": -76.97329416666666, "is_disabled": 0, "fusion_lon": 0.0, "rental_uris": {"android": "https://dc.lft.to/lastmile_qr_scan", "ios": "https://dc.lft.to/lastmile_qr_scan"}}, {"type": "electric_scooter", "name": "0150a52d8eb06d0b89b491a9f2fd79da", "lat": 38.90384133333333, "fusion_lat": 0.0, "bike_id": "0150a52d8eb06d0b89b491a9f2fd79da", "is_reserved": 0, "lon": -77.03627516666667, "is_disabled": 0, "fusion_lon": 0.0, "rental_uris": {"android": "https://dc.lft.to/lastmile_qr_scan", "ios": "https://dc.lft.to/lastmile_qr_scan"}}, {"type": "electric_scooter", "name": "f8cbc6dc9988bd7ca3d5218ffe1fc880", "lat": 38.89228333333333, "fusion_lat": 0.0, "bike_id": "f8cbc6dc9988bd7ca3d5218ffe1fc880", "is_reserved": 0, "lon": -77.03208316666667, "is_disabled": 0, "fusion_lon": 0.0, "rental_uris": {"android": "https://dc.lft.to/lastmile_qr_scan", "ios": "https://dc.lft.to/lastmile_qr_scan"}}, {"type": "electric_scooter", "name": "f7b538dd860e61fd626da4372e882ff4", "lat": 38.899198166666665, "fusion_lat": 0.0, "bike_id": "f7b538dd860e61fd626da4372e882ff4", "is_reserved": 0, "lon": -77.02818983333333, "is_disabled": 0, "fusion_lon": 0.0, "rental_uris": {"android": "https://dc.lft.to/lastmile_qr_scan", "ios": "https://dc.lft.to/lastmile_qr_scan"}}, {"type": "electric_scooter", "name": "b39ded4b2d4248607e0cc3a49ad218d6", "lat": 38.895487, "fusion_lat": 0.0, "bike_id": "b39ded4b2d4248607e0cc3a49ad218d6", "is_reserved": 0, "lon": -77.0317275, "is_disabled": 0, "fusion_lon": 0.0, "rental_uris": {"android": "https://dc.lft.to/lastmile_qr_scan", "ios": "https://dc.lft.to/lastmile_qr_scan"}}, {"type": "electric_scooter", "name": "f6c7f7ff6c4c468b959098addd260f3e", "lat": 38.866568, "fusion_lat": 0.0, "bike_id": "f6c7f7ff6c4c468b959098addd260f3e", "is_reserved": 0, "lon": -76.9888085, "is_disabled": 0, "fusion_lon": 0.0, "rental_uris": {"android": "https://dc.lft.to/lastmile_qr_scan", "ios": "https://dc.lft.to/lastmile_qr_scan"}}, {"type": "electric_scooter", "name": "c9e6434692032a29972a3a46afe2c1c8", "lat": 38.893548833333334, "fusion_lat": 0.0, "bike_id": "c9e6434692032a29972a3a46afe2c1c8", "is_reserved": 0, "lon": -77.00333833333333, "is_disabled": 0, "fusion_lon": 0.0, "rental_uris": {"android": "https://dc.lft.to/lastmile_qr_scan", "ios": "https://dc.lft.to/lastmile_qr_scan"}}, {"type": "electric_scooter", "name": "1bf7247023fd14442c0b4bf713d61748", "lat": 38.87705833333333, "fusion_lat": 0.0, "bike_id": "1bf7247023fd14442c0b4bf713d61748", "is_reserved": 0, "lon": -77.017645, "is_disabled": 0, "fusion_lon": 0.0, "rental_uris": {"android": "https://dc.lft.to/lastmile_qr_scan", "ios": "https://dc.lft.to/lastmile_qr_scan"}}, {"type": "electric_bike", "name": "705a2dec643d1a5146a35891ee6d881b", "lat": 38.909619666666664, "fusion_lat": 0.0, "bike_id": "705a2dec643d1a5146a35891ee6d881b", "is_reserved": 0, "lon": -77.22887933333334, "is_disabled": 0, "fusion_lon": 0.0, "rental_uris": {"android": "https://dc.lft.to/lastmile_qr_scan", "ios": "https://dc.lft.to/lastmile_qr_scan"}}, {"type": "electric_scooter", "name": "3e4f4fe59baf106a5f6ca7051c0f94e5", "lat": 38.93420966666667, "fusion_lat": 0.0, "bike_id": "3e4f4fe59baf106a5f6ca7051c0f94e5", "is_reserved": 0, "lon": -77.0440505, "is_disabled": 0, "fusion_lon": 0.0, "rental_uris": {"android": "https://dc.lft.to/lastmile_qr_scan", "ios": "https://dc.lft.to/lastmile_qr_scan"}}, {"type": "electric_scooter", "name": "c9467d2e69a4d8b8c606111aab53db26", "lat": 38.90845783333333, "fusion_lat": 0.0, "bike_id": "c9467d2e69a4d8b8c606111aab53db26", "is_reserved": 0, "lon": -77.00219416666667, "is_disabled": 0, "fusion_lon": 0.0, "rental_uris": {"android": "https://dc.lft.to/lastmile_qr_scan", "ios": "https://dc.lft.to/lastmile_qr_scan"}}, {"type": "electric_scooter", "name": "bcd85cd04559a38ee6bc9dee50c12841", "lat": 38.921169, "fusion_lat": 0.0, "bike_id": "bcd85cd04559a38ee6bc9dee50c12841", "is_reserved": 0, "lon": -77.009146, "is_disabled": 0, "fusion_lon": 0.0, "rental_uris": {"android": "https://dc.lft.to/lastmile_qr_scan", "ios": "https://dc.lft.to/lastmile_qr_scan"}}, {"type": "electric_scooter", "name": "b59e8ff1a8e5201e48347e62f574332e", "lat": 38.92385016666667, "fusion_lat": 0.0, "bike_id": "b59e8ff1a8e5201e48347e62f574332e", "is_reserved": 0, "lon": -77.03090116666667, "is_disabled": 0, "fusion_lon": 0.0, "rental_uris": {"android": "https://dc.lft.to/lastmile_qr_scan", "ios": "https://dc.lft.to/lastmile_qr_scan"}}, {"type": "electric_scooter", "name": "9dde5e189d3f39387c3bec8fde29cbd0", "lat": 38.9058915, "fusion_lat": 0.0, "bike_id": "9dde5e189d3f39387c3bec8fde29cbd0", "is_reserved": 0, "lon": -77.04197383333333, "is_disabled": 0, "fusion_lon": 0.0, "rental_uris": {"android": "https://dc.lft.to/lastmile_qr_scan", "ios": "https://dc.lft.to/lastmile_qr_scan"}}, {"type": "electric_scooter", "name": "5d70a417599ac251c76d913954cc3a52", "lat": 38.898411333333335, "fusion_lat": 0.0, "bike_id": "5d70a417599ac251c76d913954cc3a52", "is_reserved": 0, "lon": -77.03325333333333, "is_disabled": 0, "fusion_lon": 0.0, "rental_uris": {"android": "https://dc.lft.to/lastmile_qr_scan", "ios": "https://dc.lft.to/lastmile_qr_scan"}}, {"type": "electric_scooter", "name": "5d12158d374d4ad191ca7728cf3f398a", "lat": 38.90235966666667, "fusion_lat": 0.0, "bike_id": "5d12158d374d4ad191ca7728cf3f398a", "is_reserved": 0, "lon": -77.05986733333333, "is_disabled": 0, "fusion_lon": 0.0, "rental_uris": {"android": "https://dc.lft.to/lastmile_qr_scan", "ios": "https://dc.lft.to/lastmile_qr_scan"}}, {"type": "electric_scooter", "name": "88c5c154c689d5f6a34ec96ec4b76099", "lat": 38.94302016666666, "fusion_lat": 0.0, "bike_id": "88c5c154c689d5f6a34ec96ec4b76099", "is_reserved": 0, "lon": -77.02955533333333, "is_disabled": 0, "fusion_lon": 0.0, "rental_uris": {"android": "https://dc.lft.to/lastmile_qr_scan", "ios": "https://dc.lft.to/lastmile_qr_scan"}}, {"type": "electric_scooter", "name": "0d050ebc7b74d1b038247fb0a8b242d7", "lat": 38.9015975, "fusion_lat": 0.0, "bike_id": "0d050ebc7b74d1b038247fb0a8b242d7", "is_reserved": 0, "lon": -76.99019, "is_disabled": 0, "fusion_lon": 0.0, "rental_uris": {"android": "https://dc.lft.to/lastmile_qr_scan", "ios": "https://dc.lft.to/lastmile_qr_scan"}}, {"type": "electric_scooter", "name": "47a2321a068cd2308a39fc38553da9a9", "lat": 38.9067725, "fusion_lat": 0.0, "bike_id": "47a2321a068cd2308a39fc38553da9a9", "is_reserved": 0, "lon": -77.03771583333334, "is_disabled": 0, "fusion_lon": 0.0, "rental_uris": {"android": "https://dc.lft.to/lastmile_qr_scan", "ios": "https://dc.lft.to/lastmile_qr_scan"}}, {"type": "electric_scooter", "name": "e9f10c64ad53202e17475823bbcd3018", "lat": 38.884933, "fusion_lat": 0.0, "bike_id": "e9f10c64ad53202e17475823bbcd3018", "is_reserved": 0, "lon": -77.00711266666667, "is_disabled": 0, "fusion_lon": 0.0, "rental_uris": {"android": "https://dc.lft.to/lastmile_qr_scan", "ios": "https://dc.lft.to/lastmile_qr_scan"}}, {"type": "electric_scooter", "name": "3ffefa99030af7d7c3fd0d98908782ef", "lat": 38.912584333333335, "fusion_lat": 0.0, "bike_id": "3ffefa99030af7d7c3fd0d98908782ef", "is_reserved": 0, "lon": -77.00626166666666, "is_disabled": 0, "fusion_lon": 0.0, "rental_uris": {"android": "https://dc.lft.to/lastmile_qr_scan", "ios": "https://dc.lft.to/lastmile_qr_scan"}}, {"type": "electric_scooter", "name": "23b95969fc8466fd1ab0f638ea3a5cca", "lat": 38.916972333333334, "fusion_lat": 0.0, "bike_id": "23b95969fc8466fd1ab0f638ea3a5cca", "is_reserved": 0, "lon": -77.03343566666666, "is_disabled": 0, "fusion_lon": 0.0, "rental_uris": {"android": "https://dc.lft.to/lastmile_qr_scan", "ios": "https://dc.lft.to/lastmile_qr_scan"}}, {"type": "electric_scooter", "name": "d66f70a83cd69787acbe89dec33e7555", "lat": 38.89164566666667, "fusion_lat": 0.0, "bike_id": "d66f70a83cd69787acbe89dec33e7555", "is_reserved": 0, "lon": -77.015424, "is_disabled": 0, "fusion_lon": 0.0, "rental_uris": {"android": "https://dc.lft.to/lastmile_qr_scan", "ios": "https://dc.lft.to/lastmile_qr_scan"}}, {"type": "electric_scooter", "name": "b37c3a575f259db13edcae0acc71111f", "lat": 38.92239283333333, "fusion_lat": 0.0, "bike_id": "b37c3a575f259db13edcae0acc71111f", "is_reserved": 0, "lon": -77.03347266666667, "is_disabled": 0, "fusion_lon": 0.0, "rental_uris": {"android": "https://dc.lft.to/lastmile_qr_scan", "ios": "https://dc.lft.to/lastmile_qr_scan"}}, {"type": "electric_scooter", "name": "33830ba1ec2b5e92e574204fe4a6311c", "lat": 38.926202833333335, "fusion_lat": 0.0, "bike_id": "33830ba1ec2b5e92e574204fe4a6311c", "is_reserved": 0, "lon": -77.02214383333333, "is_disabled": 0, "fusion_lon": 0.0, "rental_uris": {"android": "https://dc.lft.to/lastmile_qr_scan", "ios": "https://dc.lft.to/lastmile_qr_scan"}}, {"type": "electric_scooter", "name": "626496a05624a4316bd93718d22667c3", "lat": 38.897506666666665, "fusion_lat": 0.0, "bike_id": "626496a05624a4316bd93718d22667c3", "is_reserved": 0, "lon": -77.0092925, "is_disabled": 0, "fusion_lon": 0.0, "rental_uris": {"android": "https://dc.lft.to/lastmile_qr_scan", "ios": "https://dc.lft.to/lastmile_qr_scan"}}, {"type": "electric_scooter", "name": "b882bef229ff309a6e2f95d4500b74b6", "lat": 38.8672355, "fusion_lat": 0.0, "bike_id": "b882bef229ff309a6e2f95d4500b74b6", "is_reserved": 0, "lon": -76.98696766666667, "is_disabled": 0, "fusion_lon": 0.0, "rental_uris": {"android": "https://dc.lft.to/lastmile_qr_scan", "ios": "https://dc.lft.to/lastmile_qr_scan"}}, {"type": "electric_scooter", "name": "19f64e1b77e41957e3072d548db45b9a", "lat": 38.898852, "fusion_lat": 0.0, "bike_id": "19f64e1b77e41957e3072d548db45b9a", "is_reserved": 0, "lon": -77.01210733333333, "is_disabled": 0, "fusion_lon": 0.0, "rental_uris": {"android": "https://dc.lft.to/lastmile_qr_scan", "ios": "https://dc.lft.to/lastmile_qr_scan"}}, {"type": "electric_scooter", "name": "660c0d6c9cfe54d8acadd961015750f0", "lat": 38.92752633333333, "fusion_lat": 0.0, "bike_id": "660c0d6c9cfe54d8acadd961015750f0", "is_reserved": 0, "lon": -77.0330695, "is_disabled": 0, "fusion_lon": 0.0, "rental_uris": {"android": "https://dc.lft.to/lastmile_qr_scan", "ios": "https://dc.lft.to/lastmile_qr_scan"}}, {"type": "electric_scooter", "name": "e3725711a3a099409dbf6ee2cf3818fd", "lat": 38.924205, "fusion_lat": 0.0, "bike_id": "e3725711a3a099409dbf6ee2cf3818fd", "is_reserved": 0, "lon": -77.0195255, "is_disabled": 0, "fusion_lon": 0.0, "rental_uris": {"android": "https://dc.lft.to/lastmile_qr_scan", "ios": "https://dc.lft.to/lastmile_qr_scan"}}, {"type": "electric_scooter", "name": "3c9ca050ac205a24758b39b133444b2f", "lat": 38.887478333333334, "fusion_lat": 0.0, "bike_id": "3c9ca050ac205a24758b39b133444b2f", "is_reserved": 0, "lon": -77.02226883333333, "is_disabled": 0, "fusion_lon": 0.0, "rental_uris": {"android": "https://dc.lft.to/lastmile_qr_scan", "ios": "https://dc.lft.to/lastmile_qr_scan"}}, {"type": "electric_scooter", "name": "9062ad9c608f75cf7b5a7ba06dd3942f", "lat": 38.909191666666665, "fusion_lat": 0.0, "bike_id": "9062ad9c608f75cf7b5a7ba06dd3942f", "is_reserved": 0, "lon": -77.03180766666667, "is_disabled": 0, "fusion_lon": 0.0, "rental_uris": {"android": "https://dc.lft.to/lastmile_qr_scan", "ios": "https://dc.lft.to/lastmile_qr_scan"}}, {"type": "electric_scooter", "name": "1c30dbeeca6d1e093234db349178a9d7", "lat": 38.87402816666667, "fusion_lat": 0.0, "bike_id": "1c30dbeeca6d1e093234db349178a9d7", "is_reserved": 0, "lon": -77.00000733333333, "is_disabled": 0, "fusion_lon": 0.0, "rental_uris": {"android": "https://dc.lft.to/lastmile_qr_scan", "ios": "https://dc.lft.to/lastmile_qr_scan"}}, {"type": "electric_scooter", "name": "3d6cefaf64e8fe4f8b8843e706d0c350", "lat": 38.9520345, "fusion_lat": 0.0, "bike_id": "3d6cefaf64e8fe4f8b8843e706d0c350", "is_reserved": 0, "lon": -77.02734866666667, "is_disabled": 0, "fusion_lon": 0.0, "rental_uris": {"android": "https://dc.lft.to/lastmile_qr_scan", "ios": "https://dc.lft.to/lastmile_qr_scan"}}, {"type": "electric_scooter", "name": "ac63b80b6b69be29b90ede685b2dae71", "lat": 38.928786833333334, "fusion_lat": 0.0, "bike_id": "ac63b80b6b69be29b90ede685b2dae71", "is_reserved": 0, "lon": -77.0337545, "is_disabled": 0, "fusion_lon": 0.0, "rental_uris": {"android": "https://dc.lft.to/lastmile_qr_scan", "ios": "https://dc.lft.to/lastmile_qr_scan"}}, {"type": "electric_scooter", "name": "c09c33725b621f124f16ab7d782de822", "lat": 38.89677533333333, "fusion_lat": 0.0, "bike_id": "c09c33725b621f124f16ab7d782de822", "is_reserved": 0, "lon": -77.0239305, "is_disabled": 0, "fusion_lon": 0.0, "rental_uris": {"android": "https://dc.lft.to/lastmile_qr_scan", "ios": "https://dc.lft.to/lastmile_qr_scan"}}, {"type": "electric_scooter", "name": "4b6afd07e120712440dd0fd9f1cfecf5", "lat": 38.9247195, "fusion_lat": 0.0, "bike_id": "4b6afd07e120712440dd0fd9f1cfecf5", "is_reserved": 0, "lon": -77.0221315, "is_disabled": 0, "fusion_lon": 0.0, "rental_uris": {"android": "https://dc.lft.to/lastmile_qr_scan", "ios": "https://dc.lft.to/lastmile_qr_scan"}}, {"type": "electric_scooter", "name": "1e09c4f4d2657bfd9470f9e3bd4f99d2", "lat": 38.8924925, "fusion_lat": 0.0, "bike_id": "1e09c4f4d2657bfd9470f9e3bd4f99d2", "is_reserved": 0, "lon": -77.039559, "is_disabled": 0, "fusion_lon": 0.0, "rental_uris": {"android": "https://dc.lft.to/lastmile_qr_scan", "ios": "https://dc.lft.to/lastmile_qr_scan"}}, {"type": "electric_scooter", "name": "3003c1830090a60c47d70976dd7f736e", "lat": 38.903005666666665, "fusion_lat": 0.0, "bike_id": "3003c1830090a60c47d70976dd7f736e", "is_reserved": 0, "lon": -77.03457883333333, "is_disabled": 0, "fusion_lon": 0.0, "rental_uris": {"android": "https://dc.lft.to/lastmile_qr_scan", "ios": "https://dc.lft.to/lastmile_qr_scan"}}, {"type": "electric_scooter", "name": "2b986c8b99a33c88e30efb683af3d838", "lat": 38.909205166666666, "fusion_lat": 0.0, "bike_id": "2b986c8b99a33c88e30efb683af3d838", "is_reserved": 0, "lon": -77.07190383333334, "is_disabled": 0, "fusion_lon": 0.0, "rental_uris": {"android": "https://dc.lft.to/lastmile_qr_scan", "ios": "https://dc.lft.to/lastmile_qr_scan"}}, {"type": "electric_scooter", "name": "5b398919e5c94b00d4b82b61b8c42c78", "lat": 38.87465683333333, "fusion_lat": 0.0, "bike_id": "5b398919e5c94b00d4b82b61b8c42c78", "is_reserved": 0, "lon": -77.00489233333333, "is_disabled": 0, "fusion_lon": 0.0, "rental_uris": {"android": "https://dc.lft.to/lastmile_qr_scan", "ios": "https://dc.lft.to/lastmile_qr_scan"}}, {"type": "electric_scooter", "name": "1c1a3dd10cb4414a8ef8b056909183d0", "lat": 38.91708966666667, "fusion_lat": 0.0, "bike_id": "1c1a3dd10cb4414a8ef8b056909183d0", "is_reserved": 0, "lon": -77.03223416666667, "is_disabled": 0, "fusion_lon": 0.0, "rental_uris": {"android": "https://dc.lft.to/lastmile_qr_scan", "ios": "https://dc.lft.to/lastmile_qr_scan"}}, {"type": "electric_scooter", "name": "36ea5f33cd71caeeeba2d7e188c5e7c8", "lat": 38.901226, "fusion_lat": 0.0, "bike_id": "36ea5f33cd71caeeeba2d7e188c5e7c8", "is_reserved": 0, "lon": -77.03192833333334, "is_disabled": 0, "fusion_lon": 0.0, "rental_uris": {"android": "https://dc.lft.to/lastmile_qr_scan", "ios": "https://dc.lft.to/lastmile_qr_scan"}}, {"type": "electric_scooter", "name": "2baf4de68ec294fce265f549cc291c34", "lat": 38.93271166666667, "fusion_lat": 0.0, "bike_id": "2baf4de68ec294fce265f549cc291c34", "is_reserved": 0, "lon": -77.04683033333333, "is_disabled": 0, "fusion_lon": 0.0, "rental_uris": {"android": "https://dc.lft.to/lastmile_qr_scan", "ios": "https://dc.lft.to/lastmile_qr_scan"}}, {"type": "electric_scooter", "name": "73150fe4fead310769e304b41767e0c5", "lat": 38.92322083333333, "fusion_lat": 0.0, "bike_id": "73150fe4fead310769e304b41767e0c5", "is_reserved": 0, "lon": -77.04520316666667, "is_disabled": 0, "fusion_lon": 0.0, "rental_uris": {"android": "https://dc.lft.to/lastmile_qr_scan", "ios": "https://dc.lft.to/lastmile_qr_scan"}}, {"type": "electric_scooter", "name": "dc4bec955668e4fc1b6f60d8532767bd", "lat": 38.884929, "fusion_lat": 0.0, "bike_id": "dc4bec955668e4fc1b6f60d8532767bd", "is_reserved": 0, "lon": -76.9564905, "is_disabled": 0, "fusion_lon": 0.0, "rental_uris": {"android": "https://dc.lft.to/lastmile_qr_scan", "ios": "https://dc.lft.to/lastmile_qr_scan"}}, {"type": "electric_scooter", "name": "0e0ff7af3e55caf104724a971088a04d", "lat": 38.90242283333333, "fusion_lat": 0.0, "bike_id": "0e0ff7af3e55caf104724a971088a04d", "is_reserved": 0, "lon": -77.00194733333333, "is_disabled": 0, "fusion_lon": 0.0, "rental_uris": {"android": "https://dc.lft.to/lastmile_qr_scan", "ios": "https://dc.lft.to/lastmile_qr_scan"}}, {"type": "electric_scooter", "name": "6a4b7707d421b7089c82994099d532fe", "lat": 38.92791066666667, "fusion_lat": 0.0, "bike_id": "6a4b7707d421b7089c82994099d532fe", "is_reserved": 0, "lon": -77.02316016666667, "is_disabled": 0, "fusion_lon": 0.0, "rental_uris": {"android": "https://dc.lft.to/lastmile_qr_scan", "ios": "https://dc.lft.to/lastmile_qr_scan"}}, {"type": "electric_scooter", "name": "abc755697fc479d1dfcc2e94dd9ce5d3", "lat": 38.9003275, "fusion_lat": 0.0, "bike_id": "abc755697fc479d1dfcc2e94dd9ce5d3", "is_reserved": 0, "lon": -77.01189116666667, "is_disabled": 0, "fusion_lon": 0.0, "rental_uris": {"android": "https://dc.lft.to/lastmile_qr_scan", "ios": "https://dc.lft.to/lastmile_qr_scan"}}, {"type": "electric_scooter", "name": "eb0091fc0c6413666c0796a75b8c7164", "lat": 38.955771166666665, "fusion_lat": 0.0, "bike_id": "eb0091fc0c6413666c0796a75b8c7164", "is_reserved": 0, "lon": -77.02566433333334, "is_disabled": 0, "fusion_lon": 0.0, "rental_uris": {"android": "https://dc.lft.to/lastmile_qr_scan", "ios": "https://dc.lft.to/lastmile_qr_scan"}}, {"type": "electric_scooter", "name": "e85ed0cae0874fa0769abc86dc8646b5", "lat": 38.897312166666666, "fusion_lat": 0.0, "bike_id": "e85ed0cae0874fa0769abc86dc8646b5", "is_reserved": 0, "lon": -77.0267445, "is_disabled": 0, "fusion_lon": 0.0, "rental_uris": {"android": "https://dc.lft.to/lastmile_qr_scan", "ios": "https://dc.lft.to/lastmile_qr_scan"}}, {"type": "electric_scooter", "name": "a91b65bc423fd017a84973831672d275", "lat": 38.88496383333333, "fusion_lat": 0.0, "bike_id": "a91b65bc423fd017a84973831672d275", "is_reserved": 0, "lon": -77.01535483333333, "is_disabled": 0, "fusion_lon": 0.0, "rental_uris": {"android": "https://dc.lft.to/lastmile_qr_scan", "ios": "https://dc.lft.to/lastmile_qr_scan"}}, {"type": "electric_scooter", "name": "92949eb20dbd63362e9dee23e5cdafe5", "lat": 38.90735983333333, "fusion_lat": 0.0, "bike_id": "92949eb20dbd63362e9dee23e5cdafe5", "is_reserved": 0, "lon": -77.042696, "is_disabled": 0, "fusion_lon": 0.0, "rental_uris": {"android": "https://dc.lft.to/lastmile_qr_scan", "ios": "https://dc.lft.to/lastmile_qr_scan"}}, {"type": "electric_scooter", "name": "7e876cf2f98ce825c42bbca152d54ffe", "lat": 38.9112255, "fusion_lat": 0.0, "bike_id": "7e876cf2f98ce825c42bbca152d54ffe", "is_reserved": 0, "lon": -77.00603716666667, "is_disabled": 0, "fusion_lon": 0.0, "rental_uris": {"android": "https://dc.lft.to/lastmile_qr_scan", "ios": "https://dc.lft.to/lastmile_qr_scan"}}, {"type": "electric_scooter", "name": "e9ae765caf76b25ea0fbe625e8d7bd9f", "lat": 38.90036216666667, "fusion_lat": 0.0, "bike_id": "e9ae765caf76b25ea0fbe625e8d7bd9f", "is_reserved": 0, "lon": -77.01183916666666, "is_disabled": 0, "fusion_lon": 0.0, "rental_uris": {"android": "https://dc.lft.to/lastmile_qr_scan", "ios": "https://dc.lft.to/lastmile_qr_scan"}}, {"type": "electric_scooter", "name": "88d8fa976a0e696242d048951d4c5197", "lat": 38.925222833333336, "fusion_lat": 0.0, "bike_id": "88d8fa976a0e696242d048951d4c5197", "is_reserved": 0, "lon": -77.05129266666667, "is_disabled": 0, "fusion_lon": 0.0, "rental_uris": {"android": "https://dc.lft.to/lastmile_qr_scan", "ios": "https://dc.lft.to/lastmile_qr_scan"}}, {"type": "electric_scooter", "name": "cf84590d8e505776b7a61852ffcc3312", "lat": 38.908259666666666, "fusion_lat": 0.0, "bike_id": "cf84590d8e505776b7a61852ffcc3312", "is_reserved": 0, "lon": -77.03935716666666, "is_disabled": 0, "fusion_lon": 0.0, "rental_uris": {"android": "https://dc.lft.to/lastmile_qr_scan", "ios": "https://dc.lft.to/lastmile_qr_scan"}}, {"type": "electric_scooter", "name": "d87f97dfa5a4193528955622e6ef2edb", "lat": 38.9094125, "fusion_lat": 0.0, "bike_id": "d87f97dfa5a4193528955622e6ef2edb", "is_reserved": 0, "lon": -77.028208, "is_disabled": 0, "fusion_lon": 0.0, "rental_uris": {"android": "https://dc.lft.to/lastmile_qr_scan", "ios": "https://dc.lft.to/lastmile_qr_scan"}}, {"type": "electric_scooter", "name": "6c8a8df80873d495c1e07abb9bc3cae0", "lat": 38.927925, "fusion_lat": 0.0, "bike_id": "6c8a8df80873d495c1e07abb9bc3cae0", "is_reserved": 0, "lon": -77.03211, "is_disabled": 0, "fusion_lon": 0.0, "rental_uris": {"android": "https://dc.lft.to/lastmile_qr_scan", "ios": "https://dc.lft.to/lastmile_qr_scan"}}, {"type": "electric_scooter", "name": "6caed8f39ac3c7a12a2748f6af5fa1ec", "lat": 38.928339666666666, "fusion_lat": 0.0, "bike_id": "6caed8f39ac3c7a12a2748f6af5fa1ec", "is_reserved": 0, "lon": -77.04344633333334, "is_disabled": 0, "fusion_lon": 0.0, "rental_uris": {"android": "https://dc.lft.to/lastmile_qr_scan", "ios": "https://dc.lft.to/lastmile_qr_scan"}}, {"type": "electric_scooter", "name": "81479c38e611d39d8d0d27ef08dcdae7", "lat": 38.9003005, "fusion_lat": 0.0, "bike_id": "81479c38e611d39d8d0d27ef08dcdae7", "is_reserved": 0, "lon": -76.98900983333333, "is_disabled": 0, "fusion_lon": 0.0, "rental_uris": {"android": "https://dc.lft.to/lastmile_qr_scan", "ios": "https://dc.lft.to/lastmile_qr_scan"}}, {"type": "electric_scooter", "name": "c4556e28b72beb8c4bac1e0a7eb4ce44", "lat": 38.93272483333333, "fusion_lat": 0.0, "bike_id": "c4556e28b72beb8c4bac1e0a7eb4ce44", "is_reserved": 0, "lon": -77.02363183333334, "is_disabled": 0, "fusion_lon": 0.0, "rental_uris": {"android": "https://dc.lft.to/lastmile_qr_scan", "ios": "https://dc.lft.to/lastmile_qr_scan"}}, {"type": "electric_scooter", "name": "87f3fbf6db805b0187bb29f5466c7d41", "lat": 38.895971, "fusion_lat": 0.0, "bike_id": "87f3fbf6db805b0187bb29f5466c7d41", "is_reserved": 0, "lon": -77.02199583333334, "is_disabled": 0, "fusion_lon": 0.0, "rental_uris": {"android": "https://dc.lft.to/lastmile_qr_scan", "ios": "https://dc.lft.to/lastmile_qr_scan"}}, {"type": "electric_scooter", "name": "bdf8fdfdd2cf2cd94fc5a24e36cb4030", "lat": 38.895916166666666, "fusion_lat": 0.0, "bike_id": "bdf8fdfdd2cf2cd94fc5a24e36cb4030", "is_reserved": 0, "lon": -77.02308416666666, "is_disabled": 0, "fusion_lon": 0.0, "rental_uris": {"android": "https://dc.lft.to/lastmile_qr_scan", "ios": "https://dc.lft.to/lastmile_qr_scan"}}, {"type": "electric_scooter", "name": "3ea3d3ebbcd949ab0072eedea4645cf1", "lat": 38.89891083333333, "fusion_lat": 0.0, "bike_id": "3ea3d3ebbcd949ab0072eedea4645cf1", "is_reserved": 0, "lon": -77.00216533333334, "is_disabled": 0, "fusion_lon": 0.0, "rental_uris": {"android": "https://dc.lft.to/lastmile_qr_scan", "ios": "https://dc.lft.to/lastmile_qr_scan"}}, {"type": "electric_scooter", "name": "de94e49b2e5fa7ac7520ba14d4f32caa", "lat": 38.923283166666664, "fusion_lat": 0.0, "bike_id": "de94e49b2e5fa7ac7520ba14d4f32caa", "is_reserved": 0, "lon": -77.02128416666666, "is_disabled": 0, "fusion_lon": 0.0, "rental_uris": {"android": "https://dc.lft.to/lastmile_qr_scan", "ios": "https://dc.lft.to/lastmile_qr_scan"}}, {"type": "electric_scooter", "name": "47a795aa7f01706b190118b4d626ed9a", "lat": 38.90141783333333, "fusion_lat": 0.0, "bike_id": "47a795aa7f01706b190118b4d626ed9a", "is_reserved": 0, "lon": -77.04236166666666, "is_disabled": 0, "fusion_lon": 0.0, "rental_uris": {"android": "https://dc.lft.to/lastmile_qr_scan", "ios": "https://dc.lft.to/lastmile_qr_scan"}}, {"type": "electric_scooter", "name": "9549a522ac2e3e3f78eb5a6aeda32f17", "lat": 38.8922645, "fusion_lat": 0.0, "bike_id": "9549a522ac2e3e3f78eb5a6aeda32f17", "is_reserved": 0, "lon": -77.04686733333334, "is_disabled": 0, "fusion_lon": 0.0, "rental_uris": {"android": "https://dc.lft.to/lastmile_qr_scan", "ios": "https://dc.lft.to/lastmile_qr_scan"}}, {"type": "electric_scooter", "name": "9533c62dee990ffe204ae4993663bd67", "lat": 38.89994016666667, "fusion_lat": 0.0, "bike_id": "9533c62dee990ffe204ae4993663bd67", "is_reserved": 0, "lon": -77.0223565, "is_disabled": 0, "fusion_lon": 0.0, "rental_uris": {"android": "https://dc.lft.to/lastmile_qr_scan", "ios": "https://dc.lft.to/lastmile_qr_scan"}}, {"type": "electric_scooter", "name": "2ebc1980742d5a6644871bbf7f0c0d88", "lat": 38.910046666666666, "fusion_lat": 0.0, "bike_id": "2ebc1980742d5a6644871bbf7f0c0d88", "is_reserved": 0, "lon": -76.9940715, "is_disabled": 0, "fusion_lon": 0.0, "rental_uris": {"android": "https://dc.lft.to/lastmile_qr_scan", "ios": "https://dc.lft.to/lastmile_qr_scan"}}, {"type": "electric_scooter", "name": "da0051ec3e239ecc8442c02c13af8476", "lat": 38.93699316666667, "fusion_lat": 0.0, "bike_id": "da0051ec3e239ecc8442c02c13af8476", "is_reserved": 0, "lon": -77.0240325, "is_disabled": 0, "fusion_lon": 0.0, "rental_uris": {"android": "https://dc.lft.to/lastmile_qr_scan", "ios": "https://dc.lft.to/lastmile_qr_scan"}}, {"type": "electric_scooter", "name": "a68438f8980ad636e1582f32fcf9b8ef", "lat": 38.92086283333333, "fusion_lat": 0.0, "bike_id": "a68438f8980ad636e1582f32fcf9b8ef", "is_reserved": 0, "lon": -77.0138905, "is_disabled": 0, "fusion_lon": 0.0, "rental_uris": {"android": "https://dc.lft.to/lastmile_qr_scan", "ios": "https://dc.lft.to/lastmile_qr_scan"}}, {"type": "electric_scooter", "name": "7705c7bf584b619aedf977d5b42b761c", "lat": 38.916841, "fusion_lat": 0.0, "bike_id": "7705c7bf584b619aedf977d5b42b761c", "is_reserved": 0, "lon": -77.036339, "is_disabled": 0, "fusion_lon": 0.0, "rental_uris": {"android": "https://dc.lft.to/lastmile_qr_scan", "ios": "https://dc.lft.to/lastmile_qr_scan"}}, {"type": "electric_scooter", "name": "a1565ec1565b58217d8862b8f048cd2f", "lat": 38.900686666666665, "fusion_lat": 0.0, "bike_id": "a1565ec1565b58217d8862b8f048cd2f", "is_reserved": 0, "lon": -77.04533033333334, "is_disabled": 0, "fusion_lon": 0.0, "rental_uris": {"android": "https://dc.lft.to/lastmile_qr_scan", "ios": "https://dc.lft.to/lastmile_qr_scan"}}, {"type": "electric_scooter", "name": "fa4f3f776ccd0bc731a0cd8cc83d5ba6", "lat": 38.9174345, "fusion_lat": 0.0, "bike_id": "fa4f3f776ccd0bc731a0cd8cc83d5ba6", "is_reserved": 0, "lon": -77.03435366666666, "is_disabled": 0, "fusion_lon": 0.0, "rental_uris": {"android": "https://dc.lft.to/lastmile_qr_scan", "ios": "https://dc.lft.to/lastmile_qr_scan"}}, {"type": "electric_scooter", "name": "d159ac7c1b659a1f9ff286fae60c1380", "lat": 38.892237, "fusion_lat": 0.0, "bike_id": "d159ac7c1b659a1f9ff286fae60c1380", "is_reserved": 0, "lon": -77.04690566666666, "is_disabled": 0, "fusion_lon": 0.0, "rental_uris": {"android": "https://dc.lft.to/lastmile_qr_scan", "ios": "https://dc.lft.to/lastmile_qr_scan"}}, {"type": "electric_scooter", "name": "47da1fb4fc7cc22d522c3d08a735671f", "lat": 38.886817666666666, "fusion_lat": 0.0, "bike_id": "47da1fb4fc7cc22d522c3d08a735671f", "is_reserved": 0, "lon": -77.00067266666667, "is_disabled": 0, "fusion_lon": 0.0, "rental_uris": {"android": "https://dc.lft.to/lastmile_qr_scan", "ios": "https://dc.lft.to/lastmile_qr_scan"}}, {"type": "electric_bike", "name": "a677cef333979544efe987ed7a6bf314", "lat": 38.898356166666666, "fusion_lat": 0.0, "bike_id": "a677cef333979544efe987ed7a6bf314", "is_reserved": 0, "lon": -77.04688333333333, "is_disabled": 0, "fusion_lon": 0.0, "rental_uris": {"android": "https://dc.lft.to/lastmile_qr_scan", "ios": "https://dc.lft.to/lastmile_qr_scan"}}, {"type": "electric_scooter", "name": "d161f2b71c751f99dbc29294d4fdd49f", "lat": 38.90030516666667, "fusion_lat": 0.0, "bike_id": "d161f2b71c751f99dbc29294d4fdd49f", "is_reserved": 0, "lon": -77.01135566666666, "is_disabled": 0, "fusion_lon": 0.0, "rental_uris": {"android": "https://dc.lft.to/lastmile_qr_scan", "ios": "https://dc.lft.to/lastmile_qr_scan"}}, {"type": "electric_scooter", "name": "bf19223f8db1d6b3bfe14c89e72e7398", "lat": 38.898483166666665, "fusion_lat": 0.0, "bike_id": "bf19223f8db1d6b3bfe14c89e72e7398", "is_reserved": 0, "lon": -76.94253616666667, "is_disabled": 0, "fusion_lon": 0.0, "rental_uris": {"android": "https://dc.lft.to/lastmile_qr_scan", "ios": "https://dc.lft.to/lastmile_qr_scan"}}, {"type": "electric_scooter", "name": "99f6c83aea175b70bcbc07b95cda4d89", "lat": 38.876700666666665, "fusion_lat": 0.0, "bike_id": "99f6c83aea175b70bcbc07b95cda4d89", "is_reserved": 0, "lon": -77.0089195, "is_disabled": 0, "fusion_lon": 0.0, "rental_uris": {"android": "https://dc.lft.to/lastmile_qr_scan", "ios": "https://dc.lft.to/lastmile_qr_scan"}}, {"type": "electric_scooter", "name": "647b48fae87bbd9c012978fea3a5a4ba", "lat": 38.9155605, "fusion_lat": 0.0, "bike_id": "647b48fae87bbd9c012978fea3a5a4ba", "is_reserved": 0, "lon": -77.009694, "is_disabled": 0, "fusion_lon": 0.0, "rental_uris": {"android": "https://dc.lft.to/lastmile_qr_scan", "ios": "https://dc.lft.to/lastmile_qr_scan"}}, {"type": "electric_scooter", "name": "0d5452adcb10f49896fe0d0178114b60", "lat": 38.887375166666665, "fusion_lat": 0.0, "bike_id": "0d5452adcb10f49896fe0d0178114b60", "is_reserved": 0, "lon": -77.025762, "is_disabled": 0, "fusion_lon": 0.0, "rental_uris": {"android": "https://dc.lft.to/lastmile_qr_scan", "ios": "https://dc.lft.to/lastmile_qr_scan"}}, {"type": "electric_scooter", "name": "000a910bbac61d850ba4ad9fcb75bd92", "lat": 38.883256, "fusion_lat": 0.0, "bike_id": "000a910bbac61d850ba4ad9fcb75bd92", "is_reserved": 0, "lon": -77.017637, "is_disabled": 0, "fusion_lon": 0.0, "rental_uris": {"android": "https://dc.lft.to/lastmile_qr_scan", "ios": "https://dc.lft.to/lastmile_qr_scan"}}, {"type": "electric_scooter", "name": "469e7e21930006e0ff70b6595f035f32", "lat": 38.901459, "fusion_lat": 0.0, "bike_id": "469e7e21930006e0ff70b6595f035f32", "is_reserved": 0, "lon": -77.035666, "is_disabled": 0, "fusion_lon": 0.0, "rental_uris": {"android": "https://dc.lft.to/lastmile_qr_scan", "ios": "https://dc.lft.to/lastmile_qr_scan"}}, {"type": "electric_scooter", "name": "172f3304f9b619d0235af60a25d47657", "lat": 38.89884166666667, "fusion_lat": 0.0, "bike_id": "172f3304f9b619d0235af60a25d47657", "is_reserved": 0, "lon": -77.00910533333334, "is_disabled": 0, "fusion_lon": 0.0, "rental_uris": {"android": "https://dc.lft.to/lastmile_qr_scan", "ios": "https://dc.lft.to/lastmile_qr_scan"}}, {"type": "electric_scooter", "name": "68672d58d821d443594d515e12e3a125", "lat": 38.940993166666665, "fusion_lat": 0.0, "bike_id": "68672d58d821d443594d515e12e3a125", "is_reserved": 0, "lon": -77.03277766666666, "is_disabled": 0, "fusion_lon": 0.0, "rental_uris": {"android": "https://dc.lft.to/lastmile_qr_scan", "ios": "https://dc.lft.to/lastmile_qr_scan"}}, {"type": "electric_scooter", "name": "e44ae3e07390c5ffc931c83bf25db85e", "lat": 38.866838, "fusion_lat": 0.0, "bike_id": "e44ae3e07390c5ffc931c83bf25db85e", "is_reserved": 0, "lon": -76.98569133333334, "is_disabled": 0, "fusion_lon": 0.0, "rental_uris": {"android": "https://dc.lft.to/lastmile_qr_scan", "ios": "https://dc.lft.to/lastmile_qr_scan"}}, {"type": "electric_scooter", "name": "868e4a1fef051efe1b09e66d5eeb23cf", "lat": 38.897615, "fusion_lat": 0.0, "bike_id": "868e4a1fef051efe1b09e66d5eeb23cf", "is_reserved": 0, "lon": -77.05170433333333, "is_disabled": 0, "fusion_lon": 0.0, "rental_uris": {"android": "https://dc.lft.to/lastmile_qr_scan", "ios": "https://dc.lft.to/lastmile_qr_scan"}}, {"type": "electric_scooter", "name": "7ba621ec8edf9a28fdfd108fa9a12fb2", "lat": 38.90204, "fusion_lat": 0.0, "bike_id": "7ba621ec8edf9a28fdfd108fa9a12fb2", "is_reserved": 0, "lon": -77.020759, "is_disabled": 0, "fusion_lon": 0.0, "rental_uris": {"android": "https://dc.lft.to/lastmile_qr_scan", "ios": "https://dc.lft.to/lastmile_qr_scan"}}, {"type": "electric_scooter", "name": "046289b358e5fc20d3efabd2b1fb09e7", "lat": 38.897462166666664, "fusion_lat": 0.0, "bike_id": "046289b358e5fc20d3efabd2b1fb09e7", "is_reserved": 0, "lon": -76.97970233333334, "is_disabled": 0, "fusion_lon": 0.0, "rental_uris": {"android": "https://dc.lft.to/lastmile_qr_scan", "ios": "https://dc.lft.to/lastmile_qr_scan"}}, {"type": "electric_scooter", "name": "270eeee7cb7c7e42a5fb43a0ca659caa", "lat": 38.9250305, "fusion_lat": 0.0, "bike_id": "270eeee7cb7c7e42a5fb43a0ca659caa", "is_reserved": 0, "lon": -77.03876683333333, "is_disabled": 0, "fusion_lon": 0.0, "rental_uris": {"android": "https://dc.lft.to/lastmile_qr_scan", "ios": "https://dc.lft.to/lastmile_qr_scan"}}, {"type": "electric_scooter", "name": "5168f40524f85e3405bb645502d38ab9", "lat": 38.91071, "fusion_lat": 0.0, "bike_id": "5168f40524f85e3405bb645502d38ab9", "is_reserved": 0, "lon": -77.042416, "is_disabled": 0, "fusion_lon": 0.0, "rental_uris": {"android": "https://dc.lft.to/lastmile_qr_scan", "ios": "https://dc.lft.to/lastmile_qr_scan"}}, {"type": "electric_scooter", "name": "dcb248faec08fe1e5f7f9853b4cef801", "lat": 38.911381166666665, "fusion_lat": 0.0, "bike_id": "dcb248faec08fe1e5f7f9853b4cef801", "is_reserved": 0, "lon": -77.0219445, "is_disabled": 0, "fusion_lon": 0.0, "rental_uris": {"android": "https://dc.lft.to/lastmile_qr_scan", "ios": "https://dc.lft.to/lastmile_qr_scan"}}, {"type": "electric_scooter", "name": "871274f6092c204ac8a22cceca705ef3", "lat": 38.896439, "fusion_lat": 0.0, "bike_id": "871274f6092c204ac8a22cceca705ef3", "is_reserved": 0, "lon": -77.00929483333333, "is_disabled": 0, "fusion_lon": 0.0, "rental_uris": {"android": "https://dc.lft.to/lastmile_qr_scan", "ios": "https://dc.lft.to/lastmile_qr_scan"}}, {"type": "electric_scooter", "name": "8079117e5080c190a77d840758ae1aca", "lat": 38.916847833333335, "fusion_lat": 0.0, "bike_id": "8079117e5080c190a77d840758ae1aca", "is_reserved": 0, "lon": -77.0368355, "is_disabled": 0, "fusion_lon": 0.0, "rental_uris": {"android": "https://dc.lft.to/lastmile_qr_scan", "ios": "https://dc.lft.to/lastmile_qr_scan"}}, {"type": "electric_scooter", "name": "24f2e10f2c4ccb5e5b2bc39748fcd2d3", "lat": 38.8922005, "fusion_lat": 0.0, "bike_id": "24f2e10f2c4ccb5e5b2bc39748fcd2d3", "is_reserved": 0, "lon": -77.04511116666667, "is_disabled": 0, "fusion_lon": 0.0, "rental_uris": {"android": "https://dc.lft.to/lastmile_qr_scan", "ios": "https://dc.lft.to/lastmile_qr_scan"}}, {"type": "electric_scooter", "name": "4b7c5fbb58e77519078a664d27b166b2", "lat": 38.88494933333333, "fusion_lat": 0.0, "bike_id": "4b7c5fbb58e77519078a664d27b166b2", "is_reserved": 0, "lon": -77.00727833333333, "is_disabled": 0, "fusion_lon": 0.0, "rental_uris": {"android": "https://dc.lft.to/lastmile_qr_scan", "ios": "https://dc.lft.to/lastmile_qr_scan"}}, {"type": "electric_scooter", "name": "1c8bd89e32e402d40b2c5c926e0599a8", "lat": 38.95584366666667, "fusion_lat": 0.0, "bike_id": "1c8bd89e32e402d40b2c5c926e0599a8", "is_reserved": 0, "lon": -77.07011766666666, "is_disabled": 0, "fusion_lon": 0.0, "rental_uris": {"android": "https://dc.lft.to/lastmile_qr_scan", "ios": "https://dc.lft.to/lastmile_qr_scan"}}, {"type": "electric_scooter", "name": "1d36766a070166a87fe2e8b997cba2bb", "lat": 38.90202266666667, "fusion_lat": 0.0, "bike_id": "1d36766a070166a87fe2e8b997cba2bb", "is_reserved": 0, "lon": -77.02167583333333, "is_disabled": 0, "fusion_lon": 0.0, "rental_uris": {"android": "https://dc.lft.to/lastmile_qr_scan", "ios": "https://dc.lft.to/lastmile_qr_scan"}}, {"type": "electric_scooter", "name": "9cafdff302dcc68578b3bd6f4f540469", "lat": 38.919176666666665, "fusion_lat": 0.0, "bike_id": "9cafdff302dcc68578b3bd6f4f540469", "is_reserved": 0, "lon": -77.01205516666667, "is_disabled": 0, "fusion_lon": 0.0, "rental_uris": {"android": "https://dc.lft.to/lastmile_qr_scan", "ios": "https://dc.lft.to/lastmile_qr_scan"}}, {"type": "electric_scooter", "name": "fe4d057cc01bdd6d32c4f29ddff756f7", "lat": 38.842945, "fusion_lat": 0.0, "bike_id": "fe4d057cc01bdd6d32c4f29ddff756f7", "is_reserved": 0, "lon": -76.99946916666667, "is_disabled": 0, "fusion_lon": 0.0, "rental_uris": {"android": "https://dc.lft.to/lastmile_qr_scan", "ios": "https://dc.lft.to/lastmile_qr_scan"}}, {"type": "electric_scooter", "name": "cd3b4c8523a8cdfff9619b66e7065a3a", "lat": 38.935643166666665, "fusion_lat": 0.0, "bike_id": "cd3b4c8523a8cdfff9619b66e7065a3a", "is_reserved": 0, "lon": -77.05827916666667, "is_disabled": 0, "fusion_lon": 0.0, "rental_uris": {"android": "https://dc.lft.to/lastmile_qr_scan", "ios": "https://dc.lft.to/lastmile_qr_scan"}}, {"type": "electric_scooter", "name": "54d8d1a0f3db6768073cafbf89906e79", "lat": 38.92045016666667, "fusion_lat": 0.0, "bike_id": "54d8d1a0f3db6768073cafbf89906e79", "is_reserved": 0, "lon": -77.01671233333333, "is_disabled": 0, "fusion_lon": 0.0, "rental_uris": {"android": "https://dc.lft.to/lastmile_qr_scan", "ios": "https://dc.lft.to/lastmile_qr_scan"}}, {"type": "electric_scooter", "name": "6cb409cf21a828d1624e1488a266d636", "lat": 38.90040616666667, "fusion_lat": 0.0, "bike_id": "6cb409cf21a828d1624e1488a266d636", "is_reserved": 0, "lon": -77.00196016666666, "is_disabled": 0, "fusion_lon": 0.0, "rental_uris": {"android": "https://dc.lft.to/lastmile_qr_scan", "ios": "https://dc.lft.to/lastmile_qr_scan"}}, {"type": "electric_scooter", "name": "1ad8aae0dd3e658c150c875e461b0586", "lat": 38.895581166666666, "fusion_lat": 0.0, "bike_id": "1ad8aae0dd3e658c150c875e461b0586", "is_reserved": 0, "lon": -77.0112305, "is_disabled": 0, "fusion_lon": 0.0, "rental_uris": {"android": "https://dc.lft.to/lastmile_qr_scan", "ios": "https://dc.lft.to/lastmile_qr_scan"}}, {"type": "electric_scooter", "name": "4ce6420b1e275c2de1a72c56ba4e086f", "lat": 38.92551266666667, "fusion_lat": 0.0, "bike_id": "4ce6420b1e275c2de1a72c56ba4e086f", "is_reserved": 0, "lon": -77.00065333333333, "is_disabled": 0, "fusion_lon": 0.0, "rental_uris": {"android": "https://dc.lft.to/lastmile_qr_scan", "ios": "https://dc.lft.to/lastmile_qr_scan"}}, {"type": "electric_scooter", "name": "70289d773acbc32721d5f9f5008a5d22", "lat": 38.90385716666667, "fusion_lat": 0.0, "bike_id": "70289d773acbc32721d5f9f5008a5d22", "is_reserved": 0, "lon": -77.04333116666666, "is_disabled": 0, "fusion_lon": 0.0, "rental_uris": {"android": "https://dc.lft.to/lastmile_qr_scan", "ios": "https://dc.lft.to/lastmile_qr_scan"}}, {"type": "electric_scooter", "name": "080da6ba1292fe998f542289b1e5eb96", "lat": 38.900982, "fusion_lat": 0.0, "bike_id": "080da6ba1292fe998f542289b1e5eb96", "is_reserved": 0, "lon": -77.05777616666667, "is_disabled": 0, "fusion_lon": 0.0, "rental_uris": {"android": "https://dc.lft.to/lastmile_qr_scan", "ios": "https://dc.lft.to/lastmile_qr_scan"}}, {"type": "electric_scooter", "name": "a5d4fafd78a44b9ab8ede3471abe7573", "lat": 38.917124333333334, "fusion_lat": 0.0, "bike_id": "a5d4fafd78a44b9ab8ede3471abe7573", "is_reserved": 0, "lon": -77.041253, "is_disabled": 0, "fusion_lon": 0.0, "rental_uris": {"android": "https://dc.lft.to/lastmile_qr_scan", "ios": "https://dc.lft.to/lastmile_qr_scan"}}, {"type": "electric_scooter", "name": "60ccb5dbd4f4a35d3062691e55316e49", "lat": 38.90863983333333, "fusion_lat": 0.0, "bike_id": "60ccb5dbd4f4a35d3062691e55316e49", "is_reserved": 0, "lon": -77.042698, "is_disabled": 0, "fusion_lon": 0.0, "rental_uris": {"android": "https://dc.lft.to/lastmile_qr_scan", "ios": "https://dc.lft.to/lastmile_qr_scan"}}, {"type": "electric_scooter", "name": "31766331c87b5eb4546ccf6bdaba1850", "lat": 38.8969295, "fusion_lat": 0.0, "bike_id": "31766331c87b5eb4546ccf6bdaba1850", "is_reserved": 0, "lon": -77.04896133333334, "is_disabled": 0, "fusion_lon": 0.0, "rental_uris": {"android": "https://dc.lft.to/lastmile_qr_scan", "ios": "https://dc.lft.to/lastmile_qr_scan"}}, {"type": "electric_scooter", "name": "228c82b47ebba1d0d6e7b109ff5dc44a", "lat": 38.88303583333333, "fusion_lat": 0.0, "bike_id": "228c82b47ebba1d0d6e7b109ff5dc44a", "is_reserved": 0, "lon": -76.94848016666667, "is_disabled": 0, "fusion_lon": 0.0, "rental_uris": {"android": "https://dc.lft.to/lastmile_qr_scan", "ios": "https://dc.lft.to/lastmile_qr_scan"}}, {"type": "electric_bike", "name": "f131324f2da291a423b894f70289f98c", "lat": 38.88518, "fusion_lat": 0.0, "bike_id": "f131324f2da291a423b894f70289f98c", "is_reserved": 0, "lon": -76.95159583333333, "is_disabled": 0, "fusion_lon": 0.0, "rental_uris": {"android": "https://dc.lft.to/lastmile_qr_scan", "ios": "https://dc.lft.to/lastmile_qr_scan"}},