{"data": {"bikes": [{"fusion_lat": 0.0, "name": "d5b02d0a9f06ee13adf69f0715b81a18", "is_disabled": 0, "rental_uris": {"android": "https://dc.lft.to/lastmile_qr_scan", "ios": "https://dc.lft.to/lastmile_qr_scan"}, "fusion_lon": 0.0, "lat": 38.9109985, "bike_id": "d5b02d0a9f06ee13adf69f0715b81a18", "type": "electric_scooter", "is_reserved": 0, "lon": -77.0735065}, {"fusion_lat": 0.0, "name": "43abe5686c07853e1767d9b99357f108", "is_disabled": 0, "rental_uris": {"android": "https://dc.lft.to/lastmile_qr_scan", "ios": "https://dc.lft.to/lastmile_qr_scan"}, "fusion_lon": 0.0, "lat": 38.9056625, "bike_id": "43abe5686c07853e1767d9b99357f108", "type": "electric_scooter", "is_reserved": 0, "lon": -77.0346635}, {"fusion_lat": 0.0, "name": "63a243257cde36b67b97b82c2587edf3", "is_disabled": 0, "rental_uris": {"android": "https://dc.lft.to/lastmile_qr_scan", "ios": "https://dc.lft.to/lastmile_qr_scan"}, "fusion_lon": 0.0, "lat": 38.8763825, "bike_id": "63a243257cde36b67b97b82c2587edf3", "type": "electric_scooter", "is_reserved": 0, "lon": -77.00815833333333}, {"fusion_lat": 0.0, "name": "8bcc13c1ace765050334c77023c8691c", "is_disabled": 0, "rental_uris": {"android": "https://dc.lft.to/lastmile_qr_scan", "ios": "https://dc.lft.to/lastmile_qr_scan"}, "fusion_lon": 0.0, "lat": 38.8994635, "bike_id": "8bcc13c1ace765050334c77023c8691c", "type": "electric_scooter", "is_reserved": 0, "lon": -77.057038}, {"fusion_lat": 0.0, "name": "4727dd4425f36c13cb601347e5367990", "is_disabled": 0, "rental_uris": {"android": "https://dc.lft.to/lastmile_qr_scan", "ios": "https://dc.lft.to/lastmile_qr_scan"}, "fusion_lon": 0.0, "lat": 38.88987483333333, "bike_id": "4727dd4425f36c13cb601347e5367990", "type": "electric_scooter", "is_reserved": 0, "lon": -77.0033575}, {"fusion_lat": 0.0, "name": "baeb0c3497091e276f8ee8ed2440af55", "is_disabled": 0, "rental_uris": {"android": "https://dc.lft.to/lastmile_qr_scan", "ios": "https://dc.lft.to/lastmile_qr_scan"}, "fusion_lon": 0.0, "lat": 38.8967975, "bike_id": "baeb0c3497091e276f8ee8ed2440af55", "type": "electric_scooter", "is_reserved": 0, "lon": -77.0244445}, {"fusion_lat": 0.0, "name": "93f4e34524fc6d0a200ab5dc5b81dd16", "is_disabled": 0, "rental_uris": {"android": "https://dc.lft.to/lastmile_qr_scan", "ios": "https://dc.lft.to/lastmile_qr_scan"}, "fusion_lon": 0.0, "lat": 39.070497833333334, "bike_id": "93f4e34524fc6d0a200ab5dc5b81dd16", "type": "electric_bike", "is_reserved": 0, "lon": -77.11483466666667}, {"fusion_lat": 0.0, "name": "b610117671280841ea87ef7336f77475", "is_disabled": 0, "rental_uris": {"android": "https://dc.lft.to/lastmile_qr_scan", "ios": "https://dc.lft.to/lastmile_qr_scan"}, "fusion_lon": 0.0, "lat": 38.89814333333333, "bike_id": "b610117671280841ea87ef7336f77475", "type": "electric_scooter", "is_reserved": 0, "lon": -77.00747866666667}, {"fusion_lat": 0.0, "name": "05321318c0ce0c068c0d905ae1e5b479", "is_disabled": 0, "rental_uris": {"android": "https://dc.lft.to/lastmile_qr_scan", "ios": "https://dc.lft.to/lastmile_qr_scan"}, "fusion_lon": 0.0, "lat": 38.89896516666667, "bike_id": "05321318c0ce0c068c0d905ae1e5b479", "type": "electric_scooter", "is_reserved": 0, "lon": -76.98065066666666}, {"fusion_lat": 0.0, "name": "7bced2aa364b8d580fe75eb9d899be56", "is_disabled": 0, "rental_uris": {"android": "https://dc.lft.to/lastmile_qr_scan", "ios": "https://dc.lft.to/lastmile_qr_scan"}, "fusion_lon": 0.0, "lat": 38.92359233333333, "bike_id": "7bced2aa364b8d580fe75eb9d899be56", "type": "electric_scooter", "is_reserved": 0, "lon": -77.03372133333333}, {"fusion_lat": 0.0, "name": "30b6df9e684ae85b03ddcd3eb2e68479", "is_disabled": 0, "rental_uris": {"android": "https://dc.lft.to/lastmile_qr_scan", "ios": "https://dc.lft.to/lastmile_qr_scan"}, "fusion_lon": 0.0, "lat": 38.89843366666667, "bike_id": "30b6df9e684ae85b03ddcd3eb2e68479", "type": "electric_scooter", "is_reserved": 0, "lon": -77.03926283333334}, {"fusion_lat": 0.0, "name": "f190387c8c3137f8e32d086c0a76d5be", "is_disabled": 0, "rental_uris": {"android": "https://dc.lft.to/lastmile_qr_scan", "ios": "https://dc.lft.to/lastmile_qr_scan"}, "fusion_lon": 0.0, "lat": 38.87628633333333, "bike_id": "f190387c8c3137f8e32d086c0a76d5be", "type": "electric_scooter", "is_reserved": 0, "lon": -77.00051683333334}, {"fusion_lat": 0.0, "name": "afdfeb9c4f7f9f789549575e9e3a973c", "is_disabled": 0, "rental_uris": {"android": "https://dc.lft.to/lastmile_qr_scan", "ios": "https://dc.lft.to/lastmile_qr_scan"}, "fusion_lon": 0.0, "lat": 38.89984166666667, "bike_id": "afdfeb9c4f7f9f789549575e9e3a973c", "type": "electric_scooter", "is_reserved": 0, "lon": -77.022807}, {"fusion_lat": 0.0, "name": "092ec5a0a4179e7c213f1b237ad71018", "is_disabled": 0, "rental_uris": {"android": "https://dc.lft.to/lastmile_qr_scan", "ios": "https://dc.lft.to/lastmile_qr_scan"}, "fusion_lon": 0.0, "lat": 38.9233795, "bike_id": "092ec5a0a4179e7c213f1b237ad71018", "type": "electric_scooter", "is_reserved": 0, "lon": -77.03618166666666}, {"fusion_lat": 0.0, "name": "e91dc975d45a530d0b21010c96b826c1", "is_disabled": 0, "rental_uris": {"android": "https://dc.lft.to/lastmile_qr_scan", "ios": "https://dc.lft.to/lastmile_qr_scan"}, "fusion_lon": 0.0, "lat": 38.897221333333334, "bike_id": "e91dc975d45a530d0b21010c96b826c1", "type": "electric_scooter", "is_reserved": 0, "lon": -77.0093285}, {"fusion_lat": 0.0, "name": "f2f05e59c848c21417e9843212317e5f", "is_disabled": 0, "rental_uris": {"android": "https://dc.lft.to/lastmile_qr_scan", "ios": "https://dc.lft.to/lastmile_qr_scan"}, "fusion_lon": 0.0, "lat": 38.913339666666666, "bike_id": "f2f05e59c848c21417e9843212317e5f", "type": "electric_scooter", "is_reserved": 0, "lon": -77.03172366666666}, {"fusion_lat": 0.0, "name": "96346377e6d83747b4a75dce6c285c0c", "is_disabled": 0, "rental_uris": {"android": "https://dc.lft.to/lastmile_qr_scan", "ios": "https://dc.lft.to/lastmile_qr_scan"}, "fusion_lon": 0.0, "lat": 38.9094825, "bike_id": "96346377e6d83747b4a75dce6c285c0c", "type": "electric_scooter", "is_reserved": 0, "lon": -76.98770316666666}, {"fusion_lat": 0.0, "name": "5ed795e7c2382f40d1d305b71a6314b9", "is_disabled": 0, "rental_uris": {"android": "https://dc.lft.to/lastmile_qr_scan", "ios": "https://dc.lft.to/lastmile_qr_scan"}, "fusion_lon": 0.0, "lat": 38.91255, "bike_id": "5ed795e7c2382f40d1d305b71a6314b9", "type": "electric_scooter", "is_reserved": 0, "lon": -77.03871916666667}, {"fusion_lat": 0.0, "name": "e3d42cd175a27d93cfa34a97c45e1e39", "is_disabled": 0, "rental_uris": {"android": "https://dc.lft.to/lastmile_qr_scan", "ios": "https://dc.lft.to/lastmile_qr_scan"}, "fusion_lon": 0.0, "lat": 38.900262166666664, "bike_id": "e3d42cd175a27d93cfa34a97c45e1e39", "type": "electric_scooter", "is_reserved": 0, "lon": -76.97400283333333}, {"fusion_lat": 0.0, "name": "0af3b2b620d693890a0a6d4c19ddd879", "is_disabled": 0, "rental_uris": {"android": "https://dc.lft.to/lastmile_qr_scan", "ios": "https://dc.lft.to/lastmile_qr_scan"}, "fusion_lon": 0.0, "lat": 38.906825833333336, "bike_id": "0af3b2b620d693890a0a6d4c19ddd879", "type": "electric_scooter", "is_reserved": 0, "lon": -76.99967066666666}, {"fusion_lat": 0.0, "name": "cceba95579afae5b382108469ef2a3d8", "is_disabled": 0, "rental_uris": {"android": "https://dc.lft.to/lastmile_qr_scan", "ios": "https://dc.lft.to/lastmile_qr_scan"}, "fusion_lon": 0.0, "lat": 38.91993, "bike_id": "cceba95579afae5b382108469ef2a3d8", "type": "electric_scooter", "is_reserved": 0, "lon": -77.02380216666667}, {"fusion_lat": 0.0, "name": "18347be324bcc54b9caad7adf3111487", "is_disabled": 0, "rental_uris": {"android": "https://dc.lft.to/lastmile_qr_scan", "ios": "https://dc.lft.to/lastmile_qr_scan"}, "fusion_lon": 0.0, "lat": 38.93050983333333, "bike_id": "18347be324bcc54b9caad7adf3111487", "type": "electric_scooter", "is_reserved": 0, "lon": -77.0380105}, {"fusion_lat": 0.0, "name": "f08c321937771f2571e2af890e6383fb", "is_disabled": 0, "rental_uris": {"android": "https://dc.lft.to/lastmile_qr_scan", "ios": "https://dc.lft.to/lastmile_qr_scan"}, "fusion_lon": 0.0, "lat": 38.922859833333334, "bike_id": "f08c321937771f2571e2af890e6383fb", "type": "electric_scooter", "is_reserved": 0, "lon": -76.99770483333333}, {"fusion_lat": 0.0, "name": "7d9e6f84853af8a2af58169f0513a2b0", "is_disabled": 0, "rental_uris": {"android": "https://dc.lft.to/lastmile_qr_scan", "ios": "https://dc.lft.to/lastmile_qr_scan"}, "fusion_lon": 0.0, "lat": 38.88537566666667, "bike_id": "7d9e6f84853af8a2af58169f0513a2b0", "type": "electric_scooter", "is_reserved": 0, "lon": -77.00064583333334}, {"fusion_lat": 0.0, "name": "0d3862f53c1212e7e85c0ae8cf5cd15c", "is_disabled": 0, "rental_uris": {"android": "https://dc.lft.to/lastmile_qr_scan", "ios": "https://dc.lft.to/lastmile_qr_scan"}, "fusion_lon": 0.0, "lat": 38.9407265, "bike_id": "0d3862f53c1212e7e85c0ae8cf5cd15c", "type": "electric_scooter", "is_reserved": 0, "lon": -77.02393516666666}, {"fusion_lat": 0.0, "name": "9a401cf29599c5397ad14e1a7295195a", "is_disabled": 0, "rental_uris": {"android": "https://dc.lft.to/lastmile_qr_scan", "ios": "https://dc.lft.to/lastmile_qr_scan"}, "fusion_lon": 0.0, "lat": 38.9015025, "bike_id": "9a401cf29599c5397ad14e1a7295195a", "type": "electric_scooter", "is_reserved": 0, "lon": -77.03464933333333}, {"fusion_lat": 0.0, "name": "f1ef71d47cf1b5ec5d498292c7879e16", "is_disabled": 0, "rental_uris": {"android": "https://dc.lft.to/lastmile_qr_scan", "ios": "https://dc.lft.to/lastmile_qr_scan"}, "fusion_lon": 0.0, "lat": 38.8853965, "bike_id": "f1ef71d47cf1b5ec5d498292c7879e16", "type": "electric_scooter", "is_reserved": 0, "lon": -77.00065266666667}, {"fusion_lat": 0.0, "name": "7957c9c1c6047efeb5ec5311ebfc5e84", "is_disabled": 0, "rental_uris": {"android": "https://dc.lft.to/lastmile_qr_scan", "ios": "https://dc.lft.to/lastmile_qr_scan"}, "fusion_lon": 0.0, "lat": 38.926136, "bike_id": "7957c9c1c6047efeb5ec5311ebfc5e84", "type": "electric_scooter", "is_reserved": 0, "lon": -77.03961783333334}, {"fusion_lat": 0.0, "name": "40af7d9dd5110149d20d9c90acf597cf", "is_disabled": 0, "rental_uris": {"android": "https://dc.lft.to/lastmile_qr_scan", "ios": "https://dc.lft.to/lastmile_qr_scan"}, "fusion_lon": 0.0, "lat": 38.87746516666667, "bike_id": "40af7d9dd5110149d20d9c90acf597cf", "type": "electric_scooter", "is_reserved": 0, "lon": -76.99668283333334}, {"fusion_lat": 0.0, "name": "0a0933d413918cbb8a16fcf3ca06a26b", "is_disabled": 0, "rental_uris": {"android": "https://dc.lft.to/lastmile_qr_scan", "ios": "https://dc.lft.to/lastmile_qr_scan"}, "fusion_lon": 0.0, "lat": 38.9097725, "bike_id": "0a0933d413918cbb8a16fcf3ca06a26b", "type": "electric_scooter", "is_reserved": 0, "lon": -77.03434616666667}, {"fusion_lat": 0.0, "name": "58205941d1c8a8f626a6fb24834cab1b", "is_disabled": 0, "rental_uris": {"android": "https://dc.lft.to/lastmile_qr_scan", "ios": "https://dc.lft.to/lastmile_qr_scan"}, "fusion_lon": 0.0, "lat": 38.91426666666667, "bike_id": "58205941d1c8a8f626a6fb24834cab1b", "type": "electric_scooter", "is_reserved": 0, "lon": -77.02190466666667}, {"fusion_lat": 0.0, "name": "c62df7690beb80b3e54b9f723a037c70", "is_disabled": 0, "rental_uris": {"android": "https://dc.lft.to/lastmile_qr_scan", "ios": "https://dc.lft.to/lastmile_qr_scan"}, "fusion_lon": 0.0, "lat": 38.9045885, "bike_id": "c62df7690beb80b3e54b9f723a037c70", "type": "electric_scooter", "is_reserved": 0, "lon": -77.001706}, {"fusion_lat": 0.0, "name": "721f6d5d0b99cd390f1a7c9e1fef15df", "is_disabled": 0, "rental_uris": {"android": "https://dc.lft.to/lastmile_qr_scan", "ios": "https://dc.lft.to/lastmile_qr_scan"}, "fusion_lon": 0.0, "lat": 38.91708033333333, "bike_id": "721f6d5d0b99cd390f1a7c9e1fef15df", "type": "electric_scooter", "is_reserved": 0, "lon": -77.024165}, {"fusion_lat": 0.0, "name": "f748cf4a99ea07ff1827e0e2314bbf70", "is_disabled": 0, "rental_uris": {"android": "https://dc.lft.to/lastmile_qr_scan", "ios": "https://dc.lft.to/lastmile_qr_scan"}, "fusion_lon": 0.0, "lat": 38.83312383333333, "bike_id": "f748cf4a99ea07ff1827e0e2314bbf70", "type": "electric_bike", "is_reserved": 0, "lon": -77.04174216666667}, {"fusion_lat": 0.0, "name": "abb7380c56d71881900e43e1a857a155", "is_disabled": 0, "rental_uris": {"android": "https://dc.lft.to/lastmile_qr_scan", "ios": "https://dc.lft.to/lastmile_qr_scan"}, "fusion_lon": 0.0, "lat": 38.90061266666667, "bike_id": "abb7380c56d71881900e43e1a857a155", "type": "electric_scooter", "is_reserved": 0, "lon": -77.01622166666667}, {"fusion_lat": 0.0, "name": "c324fc5cccb572ab419844ed335602f9", "is_disabled": 0, "rental_uris": {"android": "https://dc.lft.to/lastmile_qr_scan", "ios": "https://dc.lft.to/lastmile_qr_scan"}, "fusion_lon": 0.0, "lat": 38.91365533333333, "bike_id": "c324fc5cccb572ab419844ed335602f9", "type": "electric_scooter", "is_reserved": 0, "lon": -77.02059566666667}, {"fusion_lat": 0.0, "name": "33a7642287b8fdbea49cf4627dfb169e", "is_disabled": 0, "rental_uris": {"android": "https://dc.lft.to/lastmile_qr_scan", "ios": "https://dc.lft.to/lastmile_qr_scan"}, "fusion_lon": 0.0, "lat": 38.89747366666667, "bike_id": "33a7642287b8fdbea49cf4627dfb169e", "type": "electric_scooter", "is_reserved": 0, "lon": -77.0335355}, {"fusion_lat": 0.0, "name": "c11919e683135f7975198746938d000b", "is_disabled": 0, "rental_uris": {"android": "https://dc.lft.to/lastmile_qr_scan", "ios": "https://dc.lft.to/lastmile_qr_scan"}, "fusion_lon": 0.0, "lat": 38.923793, "bike_id": "c11919e683135f7975198746938d000b", "type": "electric_scooter", "is_reserved": 0, "lon": -77.03639233333334}, {"fusion_lat": 0.0, "name": "979ecc2ab4df53e0d9e8b4ad48126cb3", "is_disabled": 0, "rental_uris": {"android": "https://dc.lft.to/lastmile_qr_scan", "ios": "https://dc.lft.to/lastmile_qr_scan"}, "fusion_lon": 0.0, "lat": 38.920224833333336, "bike_id": "979ecc2ab4df53e0d9e8b4ad48126cb3", "type": "electric_scooter", "is_reserved": 0, "lon": -77.0250605}, {"fusion_lat": 0.0, "name": "4a47e04cdb0bc5d8eda9d2b2f529deba", "is_disabled": 0, "rental_uris": {"android": "https://dc.lft.to/lastmile_qr_scan", "ios": "https://dc.lft.to/lastmile_qr_scan"}, "fusion_lon": 0.0, "lat": 38.914797166666666, "bike_id": "4a47e04cdb0bc5d8eda9d2b2f529deba", "type": "electric_scooter", "is_reserved": 0, "lon": -77.0352615}, {"fusion_lat": 0.0, "name": "25ac6cf998b918ca63bcf0e63220e5d0", "is_disabled": 0, "rental_uris": {"android": "https://dc.lft.to/lastmile_qr_scan", "ios": "https://dc.lft.to/lastmile_qr_scan"}, "fusion_lon": 0.0, "lat": 38.945448, "bike_id": "25ac6cf998b918ca63bcf0e63220e5d0", "type": "electric_scooter", "is_reserved": 0, "lon": -77.0169265}, {"fusion_lat": 0.0, "name": "4f93def8245afc0c59931548311d69ba", "is_disabled": 0, "rental_uris": {"android": "https://dc.lft.to/lastmile_qr_scan", "ios": "https://dc.lft.to/lastmile_qr_scan"}, "fusion_lon": 0.0, "lat": 38.93490633333333, "bike_id": "4f93def8245afc0c59931548311d69ba", "type": "electric_scooter", "is_reserved": 0, "lon": -77.030256}, {"fusion_lat": 0.0, "name": "e766e54260b618384e21f0542b149a86", "is_disabled": 0, "rental_uris": {"android": "https://dc.lft.to/lastmile_qr_scan", "ios": "https://dc.lft.to/lastmile_qr_scan"}, "fusion_lon": 0.0, "lat": 38.865624, "bike_id": "e766e54260b618384e21f0542b149a86", "type": "electric_bike", "is_reserved": 0, "lon": -76.97346233333333}, {"fusion_lat": 0.0, "name": "c8c7c3b98018c67908e38593484fdfb1", "is_disabled": 0, "rental_uris": {"android": "https://dc.lft.to/lastmile_qr_scan", "ios": "https://dc.lft.to/lastmile_qr_scan"}, "fusion_lon": 0.0, "lat": 38.874348166666664, "bike_id": "c8c7c3b98018c67908e38593484fdfb1", "type": "electric_scooter", "is_reserved": 0, "lon": -77.0057995}, {"fusion_lat": 0.0, "name": "b1647839ca29547c1fbcc7bcd1e0973c", "is_disabled": 0, "rental_uris": {"android": "https://dc.lft.to/lastmile_qr_scan", "ios": "https://dc.lft.to/lastmile_qr_scan"}, "fusion_lon": 0.0, "lat": 38.927345833333334, "bike_id": "b1647839ca29547c1fbcc7bcd1e0973c", "type": "electric_scooter", "is_reserved": 0, "lon": -77.03060533333333}, {"fusion_lat": 0.0, "name": "5954043517319ae6c1d7e76671ca5368", "is_disabled": 0, "rental_uris": {"android": "https://dc.lft.to/lastmile_qr_scan", "ios": "https://dc.lft.to/lastmile_qr_scan"}, "fusion_lon": 0.0, "lat": 38.91711466666667, "bike_id": "5954043517319ae6c1d7e76671ca5368", "type": "electric_scooter", "is_reserved": 0, "lon": -77.038724}, {"fusion_lat": 0.0, "name": "2c2242a326cbab3e5a06a8540d6f82bb", "is_disabled": 0, "rental_uris": {"android": "https://dc.lft.to/lastmile_qr_scan", "ios": "https://dc.lft.to/lastmile_qr_scan"}, "fusion_lon": 0.0, "lat": 38.80707833333334, "bike_id": "2c2242a326cbab3e5a06a8540d6f82bb", "type": "electric_bike", "is_reserved": 0, "lon": -77.06171483333334}, {"fusion_lat": 0.0, "name": "e79e7898c002779008ff778718c9dbb6", "is_disabled": 0, "rental_uris": {"android": "https://dc.lft.to/lastmile_qr_scan", "ios": "https://dc.lft.to/lastmile_qr_scan"}, "fusion_lon": 0.0, "lat": 38.925355333333336, "bike_id": "e79e7898c002779008ff778718c9dbb6", "type": "electric_scooter", "is_reserved": 0, "lon": -77.00754816666667}, {"fusion_lat": 0.0, "name": "e04ded9fb29426509e7e417075ce6f1a", "is_disabled": 0, "rental_uris": {"android": "https://dc.lft.to/lastmile_qr_scan", "ios": "https://dc.lft.to/lastmile_qr_scan"}, "fusion_lon": 0.0, "lat": 38.819146333333336, "bike_id": "e04ded9fb29426509e7e417075ce6f1a", "type": "electric_bike", "is_reserved": 0, "lon": -77.04793616666667}, {"fusion_lat": 0.0, "name": "a1b6fc45213969cefae1ac60b5830ff6", "is_disabled": 0, "rental_uris": {"android": "https://dc.lft.to/lastmile_qr_scan", "ios": "https://dc.lft.to/lastmile_qr_scan"}, "fusion_lon": 0.0, "lat": 38.81255633333333, "bike_id": "a1b6fc45213969cefae1ac60b5830ff6", "type": "electric_bike", "is_reserved": 0, "lon": -77.11791366666667}, {"fusion_lat": 0.0, "name": "6e054ae7f7352d78496a3759dc19455e", "is_disabled": 0, "rental_uris": {"android": "https://dc.lft.to/lastmile_qr_scan", "ios": "https://dc.lft.to/lastmile_qr_scan"}, "fusion_lon": 0.0, "lat": 38.891029333333336, "bike_id": "6e054ae7f7352d78496a3759dc19455e", "type": "electric_scooter", "is_reserved": 0, "lon": -76.99618716666667}, {"fusion_lat": 0.0, "name": "88acd6f9d51a4e7040517d4292ebe667", "is_disabled": 0, "rental_uris": {"android": "https://dc.lft.to/lastmile_qr_scan", "ios": "https://dc.lft.to/lastmile_qr_scan"}, "fusion_lon": 0.0, "lat": 38.883014333333335, "bike_id": "88acd6f9d51a4e7040517d4292ebe667", "type": "electric_scooter", "is_reserved": 0, "lon": -76.9485605}, {"fusion_lat": 0.0, "name": "1b8ce6b10aba0f5dd65f5f47d37228e4", "is_disabled": 0, "rental_uris": {"android": "https://dc.lft.to/lastmile_qr_scan", "ios": "https://dc.lft.to/lastmile_qr_scan"}, "fusion_lon": 0.0, "lat": 38.90397166666666, "bike_id": "1b8ce6b10aba0f5dd65f5f47d37228e4", "type": "electric_scooter", "is_reserved": 0, "lon": -77.06808616666666}, {"fusion_lat": 0.0, "name": "d81682e9d7933725f2b39d6b7e3a082b", "is_disabled": 0, "rental_uris": {"android": "https://dc.lft.to/lastmile_qr_scan", "ios": "https://dc.lft.to/lastmile_qr_scan"}, "fusion_lon": 0.0, "lat": 38.907348, "bike_id": "d81682e9d7933725f2b39d6b7e3a082b", "type": "electric_scooter", "is_reserved": 0, "lon": -76.93543916666667}, {"fusion_lat": 0.0, "name": "0706df08770cb03e8b6bb2d4a6028401", "is_disabled": 0, "rental_uris": {"android": "https://dc.lft.to/lastmile_qr_scan", "ios": "https://dc.lft.to/lastmile_qr_scan"}, "fusion_lon": 0.0, "lat": 38.84193166666667, "bike_id": "0706df08770cb03e8b6bb2d4a6028401", "type": "electric_bike", "is_reserved": 0, "lon": -77.07753216666667}, {"fusion_lat": 0.0, "name": "19f8077269f6f310a50f8b827ccc22fb", "is_disabled": 0, "rental_uris": {"android": "https://dc.lft.to/lastmile_qr_scan", "ios": "https://dc.lft.to/lastmile_qr_scan"}, "fusion_lon": 0.0, "lat": 38.922674, "bike_id": "19f8077269f6f310a50f8b827ccc22fb", "type": "electric_scooter", "is_reserved": 0, "lon": -77.03516566666667}, {"fusion_lat": 0.0, "name": "2d600141d383c96f1f9e5c3fd71af3bc", "is_disabled": 0, "rental_uris": {"android": "https://dc.lft.to/lastmile_qr_scan", "ios": "https://dc.lft.to/lastmile_qr_scan"}, "fusion_lon": 0.0, "lat": 38.905145833333336, "bike_id": "2d600141d383c96f1f9e5c3fd71af3bc", "type": "electric_scooter", "is_reserved": 0, "lon": -77.0678485}, {"fusion_lat": 0.0, "name": "1297c7224bb4911e9d73f863f02d51ed", "is_disabled": 0, "rental_uris": {"android": "https://dc.lft.to/lastmile_qr_scan", "ios": "https://dc.lft.to/lastmile_qr_scan"}, "fusion_lon": 0.0, "lat": 38.930335, "bike_id": "1297c7224bb4911e9d73f863f02d51ed", "type": "electric_scooter", "is_reserved": 0, "lon": -77.03809}, {"fusion_lat": 0.0, "name": "4c04daf663ad9699de59b3460143eb44", "is_disabled": 0, "rental_uris": {"android": "https://dc.lft.to/lastmile_qr_scan", "ios": "https://dc.lft.to/lastmile_qr_scan"}, "fusion_lon": 0.0, "lat": 38.89748016666667, "bike_id": "4c04daf663ad9699de59b3460143eb44", "type": "electric_scooter", "is_reserved": 0, "lon": -77.001964}, {"fusion_lat": 0.0, "name": "edad0373f181952389372a166f8e73b0", "is_disabled": 0, "rental_uris": {"android": "https://dc.lft.to/lastmile_qr_scan", "ios": "https://dc.lft.to/lastmile_qr_scan"}, "fusion_lon": 0.0, "lat": 38.9276835, "bike_id": "edad0373f181952389372a166f8e73b0", "type": "electric_scooter", "is_reserved": 0, "lon": -77.02744716666666}, {"fusion_lat": 0.0, "name": "f030ed5b53fc9cfabc5e2971a420724d", "is_disabled": 0, "rental_uris": {"android": "https://dc.lft.to/lastmile_qr_scan", "ios": "https://dc.lft.to/lastmile_qr_scan"}, "fusion_lon": 0.0, "lat": 38.93670316666667, "bike_id": "f030ed5b53fc9cfabc5e2971a420724d", "type": "electric_scooter", "is_reserved": 0, "lon": -77.03638033333333}, {"fusion_lat": 0.0, "name": "5af529465b4d74c7393e479c5b32e2c2", "is_disabled": 0, "rental_uris": {"android": "https://dc.lft.to/lastmile_qr_scan", "ios": "https://dc.lft.to/lastmile_qr_scan"}, "fusion_lon": 0.0, "lat": 38.9286385, "bike_id": "5af529465b4d74c7393e479c5b32e2c2", "type": "electric_scooter", "is_reserved": 0, "lon": -77.07339566666667}, {"fusion_lat": 0.0, "name": "88e0289d4fe6a81eaef45e02b06c0602", "is_disabled": 0, "rental_uris": {"android": "https://dc.lft.to/lastmile_qr_scan", "ios": "https://dc.lft.to/lastmile_qr_scan"}, "fusion_lon": 0.0, "lat": 38.8838615, "bike_id": "88e0289d4fe6a81eaef45e02b06c0602", "type": "electric_scooter", "is_reserved": 0, "lon": -76.930429}, {"fusion_lat": 0.0, "name": "00a7d729d741db1a49c2f2276eac0ee9", "is_disabled": 0, "rental_uris": {"android": "https://dc.lft.to/lastmile_qr_scan", "ios": "https://dc.lft.to/lastmile_qr_scan"}, "fusion_lon": 0.0, "lat": 38.90054666666666, "bike_id": "00a7d729d741db1a49c2f2276eac0ee9", "type": "electric_scooter", "is_reserved": 0, "lon": -77.01622733333333}, {"fusion_lat": 0.0, "name": "dae87f14a7e2489188e8f94f01862b86", "is_disabled": 0, "rental_uris": {"android": "https://dc.lft.to/lastmile_qr_scan", "ios": "https://dc.lft.to/lastmile_qr_scan"}, "fusion_lon": 0.0, "lat": 38.910191833333336, "bike_id": "dae87f14a7e2489188e8f94f01862b86", "type": "electric_scooter", "is_reserved": 0, "lon": -77.05281916666667}, {"fusion_lat": 0.0, "name": "5f9218499217951cf8c3444f0b5e1e01", "is_disabled": 0, "rental_uris": {"android": "https://dc.lft.to/lastmile_qr_scan", "ios": "https://dc.lft.to/lastmile_qr_scan"}, "fusion_lon": 0.0, "lat": 38.88364966666666, "bike_id": "5f9218499217951cf8c3444f0b5e1e01", "type": "electric_scooter", "is_reserved": 0, "lon": -77.01360566666666}, {"fusion_lat": 0.0, "name": "e71848941f07de5206ffb5de8554431d", "is_disabled": 0, "rental_uris": {"android": "https://dc.lft.to/lastmile_qr_scan", "ios": "https://dc.lft.to/lastmile_qr_scan"}, "fusion_lon": 0.0, "lat": 38.919253833333336, "bike_id": "e71848941f07de5206ffb5de8554431d", "type": "electric_scooter", "is_reserved": 0, "lon": -77.0266495}, {"fusion_lat": 0.0, "name": "aad237fc65ceebf98dae8ed3a8a54122", "is_disabled": 0, "rental_uris": {"android": "https://dc.lft.to/lastmile_qr_scan", "ios": "https://dc.lft.to/lastmile_qr_scan"}, "fusion_lon": 0.0, "lat": 38.95885333333333, "bike_id": "aad237fc65ceebf98dae8ed3a8a54122", "type": "electric_scooter", "is_reserved": 0, "lon": -77.00283733333333}, {"fusion_lat": 0.0, "name": "ce028aaf68fa6b0fba722772a6bf6d19", "is_disabled": 0, "rental_uris": {"android": "https://dc.lft.to/lastmile_qr_scan", "ios": "https://dc.lft.to/lastmile_qr_scan"}, "fusion_lon": 0.0, "lat": 38.9273945, "bike_id": "ce028aaf68fa6b0fba722772a6bf6d19", "type": "electric_scooter", "is_reserved": 0, "lon": -77.02263033333334}, {"fusion_lat": 0.0, "name": "8d0b5747340ee6c6d3c1d9c48f8cdec7", "is_disabled": 0, "rental_uris": {"android": "https://dc.lft.to/lastmile_qr_scan", "ios": "https://dc.lft.to/lastmile_qr_scan"}, "fusion_lon": 0.0, "lat": 38.87663883333333, "bike_id": "8d0b5747340ee6c6d3c1d9c48f8cdec7", "type": "electric_scooter", "is_reserved": 0, "lon": -77.00466533333334}, {"fusion_lat": 0.0, "name": "81df163e703d5fd64202e7fbc3a29564", "is_disabled": 0, "rental_uris": {"android": "https://dc.lft.to/lastmile_qr_scan", "ios": "https://dc.lft.to/lastmile_qr_scan"}, "fusion_lon": 0.0, "lat": 38.9168715, "bike_id": "81df163e703d5fd64202e7fbc3a29564", "type": "electric_scooter", "is_reserved": 0, "lon": -77.02597866666666}, {"fusion_lat": 0.0, "name": "adf1606394f0bd75b2caefad1f591978", "is_disabled": 0, "rental_uris": {"android": "https://dc.lft.to/lastmile_qr_scan", "ios": "https://dc.lft.to/lastmile_qr_scan"}, "fusion_lon": 0.0, "lat": 38.921242166666666, "bike_id": "adf1606394f0bd75b2caefad1f591978", "type": "electric_scooter", "is_reserved": 0, "lon": -77.0442575}, {"fusion_lat": 0.0, "name": "032f3cfc9603786c650fb35cd973aec4", "is_disabled": 0, "rental_uris": {"android": "https://dc.lft.to/lastmile_qr_scan", "ios": "https://dc.lft.to/lastmile_qr_scan"}, "fusion_lon": 0.0, "lat": 38.90099, "bike_id": "032f3cfc9603786c650fb35cd973aec4", "type": "electric_bike", "is_reserved": 0, "lon": -77.0394845}, {"fusion_lat": 0.0, "name": "a575909ea81b33df168bb8bbbeddbc78", "is_disabled": 0, "rental_uris": {"android": "https://dc.lft.to/lastmile_qr_scan", "ios": "https://dc.lft.to/lastmile_qr_scan"}, "fusion_lon": 0.0, "lat": 38.91994233333333, "bike_id": "a575909ea81b33df168bb8bbbeddbc78", "type": "electric_scooter", "is_reserved": 0, "lon": -77.03283083333334}, {"fusion_lat": 0.0, "name": "bfb3c8a2c32622a98bb36a372f869c06", "is_disabled": 0, "rental_uris": {"android": "https://dc.lft.to/lastmile_qr_scan", "ios": "https://dc.lft.to/lastmile_qr_scan"}, "fusion_lon": 0.0, "lat": 38.90672083333333, "bike_id": "bfb3c8a2c32622a98bb36a372f869c06", "type": "electric_scooter", "is_reserved": 0, "lon": -77.02711966666666}, {"fusion_lat": 0.0, "name": "ef8d3bc2a0615517045a832b87e530ea", "is_disabled": 0, "rental_uris": {"android": "https://dc.lft.to/lastmile_qr_scan", "ios": "https://dc.lft.to/lastmile_qr_scan"}, "fusion_lon": 0.0, "lat": 38.9223575, "bike_id": "ef8d3bc2a0615517045a832b87e530ea", "type": "electric_bike", "is_reserved": 0, "lon": -77.03080733333333}, {"fusion_lat": 0.0, "name": "1fa47781061883f226e9f95563209146", "is_disabled": 0, "rental_uris": {"android": "https://dc.lft.to/lastmile_qr_scan", "ios": "https://dc.lft.to/lastmile_qr_scan"}, "fusion_lon": 0.0, "lat": 38.94411216666666, "bike_id": "1fa47781061883f226e9f95563209146", "type": "electric_scooter", "is_reserved": 0, "lon": -77.0632175}, {"fusion_lat": 0.0, "name": "ee28a3407bdf91e13c63d1d8fc7d64af", "is_disabled": 0, "rental_uris": {"android": "https://dc.lft.to/lastmile_qr_scan", "ios": "https://dc.lft.to/lastmile_qr_scan"}, "fusion_lon": 0.0, "lat": 38.89941266666666, "bike_id": "ee28a3407bdf91e13c63d1d8fc7d64af", "type": "electric_scooter", "is_reserved": 0, "lon": -77.02212783333333}, {"fusion_lat": 0.0, "name": "71ed88ef10fcbc44da48e9e62d34fd05", "is_disabled": 0, "rental_uris": {"android": "https://dc.lft.to/lastmile_qr_scan", "ios": "https://dc.lft.to/lastmile_qr_scan"}, "fusion_lon": 0.0, "lat": 38.919179166666666, "bike_id": "71ed88ef10fcbc44da48e9e62d34fd05", "type": "electric_scooter", "is_reserved": 0, "lon": -77.0338755}, {"fusion_lat": 0.0, "name": "8a412a0dc0bad78dcedc0d1db191944b", "is_disabled": 0, "rental_uris": {"android": "https://dc.lft.to/lastmile_qr_scan", "ios": "https://dc.lft.to/lastmile_qr_scan"}, "fusion_lon": 0.0, "lat": 38.899630333333334, "bike_id": "8a412a0dc0bad78dcedc0d1db191944b", "type": "electric_scooter", "is_reserved": 0, "lon": -77.04873616666667}, {"fusion_lat": 0.0, "name": "36bab81e976d29ac26f7d5fcddb5eec1", "is_disabled": 0, "rental_uris": {"android": "https://dc.lft.to/lastmile_qr_scan", "ios": "https://dc.lft.to/lastmile_qr_scan"}, "fusion_lon": 0.0, "lat": 38.927708333333335, "bike_id": "36bab81e976d29ac26f7d5fcddb5eec1", "type": "electric_scooter", "is_reserved": 0, "lon": -77.02296433333333}, {"fusion_lat": 0.0, "name": "ba58674e15e63069536ca3b69eb2b74e", "is_disabled": 0, "rental_uris": {"android": "https://dc.lft.to/lastmile_qr_scan", "ios": "https://dc.lft.to/lastmile_qr_scan"}, "fusion_lon": 0.0, "lat": 38.9111525, "bike_id": "ba58674e15e63069536ca3b69eb2b74e", "type": "electric_scooter", "is_reserved": 0, "lon": -77.0116365}, {"fusion_lat": 0.0, "name": "0652bbf036982de5e8a6a749a4168e2d", "is_disabled": 0, "rental_uris": {"android": "https://dc.lft.to/lastmile_qr_scan", "ios": "https://dc.lft.to/lastmile_qr_scan"}, "fusion_lon": 0.0, "lat": 38.901209, "bike_id": "0652bbf036982de5e8a6a749a4168e2d", "type": "electric_scooter", "is_reserved": 0, "lon": -77.04149333333334}, {"fusion_lat": 0.0, "name": "51af5924a5535955dbebfc1ef0340162", "is_disabled": 0, "rental_uris": {"android": "https://dc.lft.to/lastmile_qr_scan", "ios": "https://dc.lft.to/lastmile_qr_scan"}, "fusion_lon": 0.0, "lat": 38.9041025, "bike_id": "51af5924a5535955dbebfc1ef0340162", "type": "electric_scooter", "is_reserved": 0, "lon": -77.02600183333334}, {"fusion_lat": 0.0, "name": "63ff3969679bdfd78c9896771c9d43a5", "is_disabled": 0, "rental_uris": {"android": "https://dc.lft.to/lastmile_qr_scan", "ios": "https://dc.lft.to/lastmile_qr_scan"}, "fusion_lon": 0.0, "lat": 38.90925516666667, "bike_id": "63ff3969679bdfd78c9896771c9d43a5", "type": "electric_scooter", "is_reserved": 0, "lon": -77.02315183333333}, {"fusion_lat": 0.0, "name": "da3cc1a65d57af7a7e32ef716ef54375", "is_disabled": 0, "rental_uris": {"android": "https://dc.lft.to/lastmile_qr_scan", "ios": "https://dc.lft.to/lastmile_qr_scan"}, "fusion_lon": 0.0, "lat": 38.923108666666664, "bike_id": "da3cc1a65d57af7a7e32ef716ef54375", "type": "electric_scooter", "is_reserved": 0, "lon": -77.04132066666666}, {"fusion_lat": 0.0, "name": "9dbcd09a3c5b4d9673a64c7854bbeee7", "is_disabled": 0, "rental_uris": {"android": "https://dc.lft.to/lastmile_qr_scan", "ios": "https://dc.lft.to/lastmile_qr_scan"}, "fusion_lon": 0.0, "lat": 38.910317666666664, "bike_id": "9dbcd09a3c5b4d9673a64c7854bbeee7", "type": "electric_scooter", "is_reserved": 0, "lon": -77.03424916666667}, {"fusion_lat": 0.0, "name": "6d04ba839f087c2389d51f4b027f7ce5", "is_disabled": 0, "rental_uris": {"android": "https://dc.lft.to/lastmile_qr_scan", "ios": "https://dc.lft.to/lastmile_qr_scan"}, "fusion_lon": 0.0, "lat": 38.91910283333333, "bike_id": "6d04ba839f087c2389d51f4b027f7ce5", "type": "electric_scooter", "is_reserved": 0, "lon": -77.02408383333334}, {"fusion_lat": 0.0, "name": "4ebf04b780882981ef0afecd52c79edc", "is_disabled": 0, "rental_uris": {"android": "https://dc.lft.to/lastmile_qr_scan", "ios": "https://dc.lft.to/lastmile_qr_scan"}, "fusion_lon": 0.0, "lat": 38.90496233333333, "bike_id": "4ebf04b780882981ef0afecd52c79edc", "type": "electric_scooter", "is_reserved": 0, "lon": -77.02964666666666}, {"fusion_lat": 0.0, "name": "06d3c750f67306f9d58e43fac92fa8a2", "is_disabled": 0, "rental_uris": {"android": "https://dc.lft.to/lastmile_qr_scan", "ios": "https://dc.lft.to/lastmile_qr_scan"}, "fusion_lon": 0.0, "lat": 38.917392, "bike_id": "06d3c750f67306f9d58e43fac92fa8a2", "type": "electric_scooter", "is_reserved": 0, "lon": -77.03200133333333}, {"fusion_lat": 0.0, "name": "30b8803d5c8cf226164de87bde1c0fb5", "is_disabled": 0, "rental_uris": {"android": "https://dc.lft.to/lastmile_qr_scan", "ios": "https://dc.lft.to/lastmile_qr_scan"}, "fusion_lon": 0.0, "lat": 38.9181075, "bike_id": "30b8803d5c8cf226164de87bde1c0fb5", "type": "electric_scooter", "is_reserved": 0, "lon": -77.027093}, {"fusion_lat": 0.0, "name": "3157b3241b620a3d9e900989ed43f5d8", "is_disabled": 0, "rental_uris": {"android": "https://dc.lft.to/lastmile_qr_scan", "ios": "https://dc.lft.to/lastmile_qr_scan"}, "fusion_lon": 0.0, "lat": 38.8442725, "bike_id": "3157b3241b620a3d9e900989ed43f5d8", "type": "electric_scooter", "is_reserved": 0, "lon": -76.99782183333333}, {"fusion_lat": 0.0, "name": "a94cf08a12962c60177c11785a20c80c", "is_disabled": 0, "rental_uris": {"android": "https://dc.lft.to/lastmile_qr_scan", "ios": "https://dc.lft.to/lastmile_qr_scan"}, "fusion_lon": 0.0, "lat": 38.92086366666667, "bike_id": "a94cf08a12962c60177c11785a20c80c", "type": "electric_scooter", "is_reserved": 0, "lon": -77.025209}, {"fusion_lat": 0.0, "name": "8e5d11e3738f1632a69c042d0c3bd02b", "is_disabled": 0, "rental_uris": {"android": "https://dc.lft.to/lastmile_qr_scan", "ios": "https://dc.lft.to/lastmile_qr_scan"}, "fusion_lon": 0.0, "lat": 38.895293333333335, "bike_id": "8e5d11e3738f1632a69c042d0c3bd02b", "type": "electric_scooter", "is_reserved": 0, "lon": -77.0305795}, {"fusion_lat": 0.0, "name": "5a5ac3cfdcbed8c82464c86aa491d9a4", "is_disabled": 0, "rental_uris": {"android": "https://dc.lft.to/lastmile_qr_scan", "ios": "https://dc.lft.to/lastmile_qr_scan"}, "fusion_lon": 0.0, "lat": 38.87712966666667, "bike_id": "5a5ac3cfdcbed8c82464c86aa491d9a4", "type": "electric_scooter", "is_reserved": 0, "lon": -77.01758583333333}, {"fusion_lat": 0.0, "name": "66fd84a01f9ed318369bf119b11b61f1", "is_disabled": 0, "rental_uris": {"android": "https://dc.lft.to/lastmile_qr_scan", "ios": "https://dc.lft.to/lastmile_qr_scan"}, "fusion_lon": 0.0, "lat": 38.90004316666667, "bike_id": "66fd84a01f9ed318369bf119b11b61f1", "type": "electric_bike", "is_reserved": 0, "lon": -76.99853433333334}, {"fusion_lat": 0.0, "name": "eb7e303d4e01ab5e7c5cea3f24fb372e", "is_disabled": 0, "rental_uris": {"android": "https://dc.lft.to/lastmile_qr_scan", "ios": "https://dc.lft.to/lastmile_qr_scan"}, "fusion_lon": 0.0, "lat": 38.88894966666667, "bike_id": "eb7e303d4e01ab5e7c5cea3f24fb372e", "type": "electric_bike", "is_reserved": 0, "lon": -77.11527633333333}, {"fusion_lat": 0.0, "name": "2d2d44a8cfae1fd5a5d8419701e9fa87", "is_disabled": 0, "rental_uris": {"android": "https://dc.lft.to/lastmile_qr_scan", "ios": "https://dc.lft.to/lastmile_qr_scan"}, "fusion_lon": 0.0, "lat": 38.927692666666665, "bike_id": "2d2d44a8cfae1fd5a5d8419701e9fa87", "type": "electric_scooter", "is_reserved": 0, "lon": -77.02297483333334}, {"fusion_lat": 0.0, "name": "c06be7c597cc7583444abd0bc7d72bb1", "is_disabled": 0, "rental_uris": {"android": "https://dc.lft.to/lastmile_qr_scan", "ios": "https://dc.lft.to/lastmile_qr_scan"}, "fusion_lon": 0.0, "lat": 38.9341485, "bike_id": "c06be7c597cc7583444abd0bc7d72bb1", "type": "electric_scooter", "is_reserved": 0, "lon": -76.97963483333334}, {"fusion_lat": 0.0, "name": "38a0b13780798466d5b791ff9adff797", "is_disabled": 0, "rental_uris": {"android": "https://dc.lft.to/lastmile_qr_scan", "ios": "https://dc.lft.to/lastmile_qr_scan"}, "fusion_lon": 0.0, "lat": 38.904644, "bike_id": "38a0b13780798466d5b791ff9adff797", "type": "electric_scooter", "is_reserved": 0, "lon": -77.0533055}, {"fusion_lat": 0.0, "name": "f7145f0e3adfc1a08b8e9d0408c71c33", "is_disabled": 0, "rental_uris": {"android": "https://dc.lft.to/lastmile_qr_scan", "ios": "https://dc.lft.to/lastmile_qr_scan"}, "fusion_lon": 0.0, "lat": 38.92609266666667, "bike_id": "f7145f0e3adfc1a08b8e9d0408c71c33", "type": "electric_scooter", "is_reserved": 0, "lon": -77.039601}, {"fusion_lat": 0.0, "name": "94e858c32b04c8575ffde0ddc5644be7", "is_disabled": 0, "rental_uris": {"android": "https://dc.lft.to/lastmile_qr_scan", "ios": "https://dc.lft.to/lastmile_qr_scan"}, "fusion_lon": 0.0, "lat": 38.92035683333334, "bike_id": "94e858c32b04c8575ffde0ddc5644be7", "type": "electric_scooter", "is_reserved": 0, "lon": -77.031707}, {"fusion_lat": 0.0, "name": "caf60780917ceefadebb09b6b70ae813", "is_disabled": 0, "rental_uris": {"android": "https://dc.lft.to/lastmile_qr_scan", "ios": "https://dc.lft.to/lastmile_qr_scan"}, "fusion_lon": 0.0, "lat": 38.909737166666666, "bike_id": "caf60780917ceefadebb09b6b70ae813", "type": "electric_scooter", "is_reserved": 0, "lon": -77.03987433333333}, {"fusion_lat": 0.0, "name": "717d350ec096cad1616e6c61889bba60", "is_disabled": 0, "rental_uris": {"android": "https://dc.lft.to/lastmile_qr_scan", "ios": "https://dc.lft.to/lastmile_qr_scan"}, "fusion_lon": 0.0, "lat": 38.912543166666666, "bike_id": "717d350ec096cad1616e6c61889bba60", "type": "electric_scooter", "is_reserved": 0, "lon": -77.0067435}, {"fusion_lat": 0.0, "name": "72a199573a80d70f29a20376755c4343", "is_disabled": 0, "rental_uris": {"android": "https://dc.lft.to/lastmile_qr_scan", "ios": "https://dc.lft.to/lastmile_qr_scan"}, "fusion_lon": 0.0, "lat": 38.96071766666667, "bike_id": "72a199573a80d70f29a20376755c4343", "type": "electric_scooter", "is_reserved": 0, "lon": -77.00097633333333}, {"fusion_lat": 0.0, "name": "beaaea1420220294b91bf5b9c6d0335d", "is_disabled": 0, "rental_uris": {"android": "https://dc.lft.to/lastmile_qr_scan", "ios": "https://dc.lft.to/lastmile_qr_scan"}, "fusion_lon": 0.0, "lat": 38.861883666666664, "bike_id": "beaaea1420220294b91bf5b9c6d0335d", "type": "electric_scooter", "is_reserved": 0, "lon": -76.98392633333333}, {"fusion_lat": 0.0, "name": "ebe1814b0d1854b1e409eb1ddcd9fc2a", "is_disabled": 0, "rental_uris": {"android": "https://dc.lft.to/lastmile_qr_scan", "ios": "https://dc.lft.to/lastmile_qr_scan"}, "fusion_lon": 0.0, "lat": 38.90426766666667, "bike_id": "ebe1814b0d1854b1e409eb1ddcd9fc2a", "type": "electric_scooter", "is_reserved": 0, "lon": -77.04842733333334}, {"fusion_lat": 0.0, "name": "a7d0c23e4a0f5f93ec0ed7e157c837cb", "is_disabled": 0, "rental_uris": {"android": "https://dc.lft.to/lastmile_qr_scan", "ios": "https://dc.lft.to/lastmile_qr_scan"}, "fusion_lon": 0.0, "lat": 38.901908666666664, "bike_id": "a7d0c23e4a0f5f93ec0ed7e157c837cb", "type": "electric_scooter", "is_reserved": 0, "lon": -77.02371266666667}, {"fusion_lat": 0.0, "name": "83b429d7e01aa61bf0290cf5e80d8527", "is_disabled": 0, "rental_uris": {"android": "https://dc.lft.to/lastmile_qr_scan", "ios": "https://dc.lft.to/lastmile_qr_scan"}, "fusion_lon": 0.0, "lat": 38.93242266666667, "bike_id": "83b429d7e01aa61bf0290cf5e80d8527", "type": "electric_scooter", "is_reserved": 0, "lon": -77.03409783333333}, {"fusion_lat": 0.0, "name": "72832bf873b2835dcb51f4786c3c78d2", "is_disabled": 0, "rental_uris": {"android": "https://dc.lft.to/lastmile_qr_scan", "ios": "https://dc.lft.to/lastmile_qr_scan"}, "fusion_lon": 0.0, "lat": 38.897301, "bike_id": "72832bf873b2835dcb51f4786c3c78d2", "type": "electric_scooter", "is_reserved": 0, "lon": -76.94705083333334}, {"fusion_lat": 0.0, "name": "995906fa5fdfaa86bc824e5e6d6be1ce", "is_disabled": 0, "rental_uris": {"android": "https://dc.lft.to/lastmile_qr_scan", "ios": "https://dc.lft.to/lastmile_qr_scan"}, "fusion_lon": 0.0, "lat": 38.86293033333333, "bike_id": "995906fa5fdfaa86bc824e5e6d6be1ce", "type": "electric_bike", "is_reserved": 0, "lon": -77.063464}, {"fusion_lat": 0.0, "name": "f9d349582d6ae67056696f43bdc1614c", "is_disabled": 0, "rental_uris": {"android": "https://dc.lft.to/lastmile_qr_scan", "ios": "https://dc.lft.to/lastmile_qr_scan"}, "fusion_lon": 0.0, "lat": 38.907831333333334, "bike_id": "f9d349582d6ae67056696f43bdc1614c", "type": "electric_scooter", "is_reserved": 0, "lon": -77.00222283333333}, {"fusion_lat": 0.0, "name": "9594880897aec43636189ea5900ae917", "is_disabled": 0, "rental_uris": {"android": "https://dc.lft.to/lastmile_qr_scan", "ios": "https://dc.lft.to/lastmile_qr_scan"}, "fusion_lon": 0.0, "lat": 38.916857, "bike_id": "9594880897aec43636189ea5900ae917", "type": "electric_scooter", "is_reserved": 0, "lon": -77.02973916666667}, {"fusion_lat": 0.0, "name": "7546293f8cdf6e53637fe06175253e2b", "is_disabled": 0, "rental_uris": {"android": "https://dc.lft.to/lastmile_qr_scan", "ios": "https://dc.lft.to/lastmile_qr_scan"}, "fusion_lon": 0.0, "lat": 38.920557333333335, "bike_id": "7546293f8cdf6e53637fe06175253e2b", "type": "electric_scooter", "is_reserved": 0, "lon": -77.0339225}, {"fusion_lat": 0.0, "name": "1125ed93e8d41065e3468f1c53fee5af", "is_disabled": 0, "rental_uris": {"android": "https://dc.lft.to/lastmile_qr_scan", "ios": "https://dc.lft.to/lastmile_qr_scan"}, "fusion_lon": 0.0, "lat": 38.9563865, "bike_id": "1125ed93e8d41065e3468f1c53fee5af", "type": "electric_scooter", "is_reserved": 0, "lon": -77.02419433333333}, {"fusion_lat": 0.0, "name": "a975101ca15dd0380c9d4aa95f3111e1", "is_disabled": 0, "rental_uris": {"android": "https://dc.lft.to/lastmile_qr_scan", "ios": "https://dc.lft.to/lastmile_qr_scan"}, "fusion_lon": 0.0, "lat": 38.90572133333333, "bike_id": "a975101ca15dd0380c9d4aa95f3111e1", "type": "electric_scooter", "is_reserved": 0, "lon": -77.03470816666666}, {"fusion_lat": 0.0, "name": "6d999bba147a81c440a39047d7cccceb", "is_disabled": 0, "rental_uris": {"android": "https://dc.lft.to/lastmile_qr_scan", "ios": "https://dc.lft.to/lastmile_qr_scan"}, "fusion_lon": 0.0, "lat": 38.917868666666664, "bike_id": "6d999bba147a81c440a39047d7cccceb", "type": "electric_scooter", "is_reserved": 0, "lon": -77.0358365}, {"fusion_lat": 0.0, "name": "7baf34dfa3b45e7a11ae320a8d4b2727", "is_disabled": 0, "rental_uris": {"android": "https://dc.lft.to/lastmile_qr_scan", "ios": "https://dc.lft.to/lastmile_qr_scan"}, "fusion_lon": 0.0, "lat": 38.91256416666667, "bike_id": "7baf34dfa3b45e7a11ae320a8d4b2727", "type": "electric_scooter", "is_reserved": 0, "lon": -77.01037283333334}, {"fusion_lat": 0.0, "name": "362e2300fdb67eaa536c36d9f2d68484", "is_disabled": 0, "rental_uris": {"android": "https://dc.lft.to/lastmile_qr_scan", "ios": "https://dc.lft.to/lastmile_qr_scan"}, "fusion_lon": 0.0, "lat": 38.87380266666667, "bike_id": "362e2300fdb67eaa536c36d9f2d68484", "type": "electric_scooter", "is_reserved": 0, "lon": -77.00034833333333}, {"fusion_lat": 0.0, "name": "a8b093e532b599bb037281d2f8631f94", "is_disabled": 0, "rental_uris": {"android": "https://dc.lft.to/lastmile_qr_scan", "ios": "https://dc.lft.to/lastmile_qr_scan"}, "fusion_lon": 0.0, "lat": 38.913095166666665, "bike_id": "a8b093e532b599bb037281d2f8631f94", "type": "electric_scooter", "is_reserved": 0, "lon": -77.04875283333334}, {"fusion_lat": 0.0, "name": "49e5b29e3ab7d45caaa09c2fb17c9c2e", "is_disabled": 0, "rental_uris": {"android": "https://dc.lft.to/lastmile_qr_scan", "ios": "https://dc.lft.to/lastmile_qr_scan"}, "fusion_lon": 0.0, "lat": 38.819465, "bike_id": "49e5b29e3ab7d45caaa09c2fb17c9c2e", "type": "electric_bike", "is_reserved": 0, "lon": -77.12719366666667}, {"fusion_lat": 0.0, "name": "44ccc7421756078a61c18a3e33b5b546", "is_disabled": 0, "rental_uris": {"android": "https://dc.lft.to/lastmile_qr_scan", "ios": "https://dc.lft.to/lastmile_qr_scan"}, "fusion_lon": 0.0, "lat": 38.903312666666665, "bike_id": "44ccc7421756078a61c18a3e33b5b546", "type": "electric_scooter", "is_reserved": 0, "lon": -77.04500466666667}, {"fusion_lat": 0.0, "name": "227f0e1cef5e6bfc8d500f1fe006d46b", "is_disabled": 0, "rental_uris": {"android": "https://dc.lft.to/lastmile_qr_scan", "ios": "https://dc.lft.to/lastmile_qr_scan"}, "fusion_lon": 0.0, "lat": 38.90729183333333, "bike_id": "227f0e1cef5e6bfc8d500f1fe006d46b", "type": "electric_scooter", "is_reserved": 0, "lon": -77.04173383333334}, {"fusion_lat": 0.0, "name": "d2e9775d010e610f59c777a4c1d57e7a", "is_disabled": 0, "rental_uris": {"android": "https://dc.lft.to/lastmile_qr_scan", "ios": "https://dc.lft.to/lastmile_qr_scan"}, "fusion_lon": 0.0, "lat": 38.92493866666667, "bike_id": "d2e9775d010e610f59c777a4c1d57e7a", "type": "electric_scooter", "is_reserved": 0, "lon": -76.985388}, {"fusion_lat": 0.0, "name": "2677e209c45865fceb81359949372162", "is_disabled": 0, "rental_uris": {"android": "https://dc.lft.to/lastmile_qr_scan", "ios": "https://dc.lft.to/lastmile_qr_scan"}, "fusion_lon": 0.0, "lat": 38.907131166666666, "bike_id": "2677e209c45865fceb81359949372162", "type": "electric_scooter", "is_reserved": 0, "lon": -77.03458783333333}, {"fusion_lat": 0.0, "name": "fd827ca3fdcd1690aea90a508327139a", "is_disabled": 0, "rental_uris": {"android": "https://dc.lft.to/lastmile_qr_scan", "ios": "https://dc.lft.to/lastmile_qr_scan"}, "fusion_lon": 0.0, "lat": 38.915638333333334, "bike_id": "fd827ca3fdcd1690aea90a508327139a", "type": "electric_scooter", "is_reserved": 0, "lon": -77.02232866666667}, {"fusion_lat": 0.0, "name": "1b0781727477d14681d2501a9636b029", "is_disabled": 0, "rental_uris": {"android": "https://dc.lft.to/lastmile_qr_scan", "ios": "https://dc.lft.to/lastmile_qr_scan"}, "fusion_lon": 0.0, "lat": 38.9210645, "bike_id": "1b0781727477d14681d2501a9636b029", "type": "electric_scooter", "is_reserved": 0, "lon": -77.04692916666667}, {"fusion_lat": 0.0, "name": "2b2dd9116ed619489a8aa6a31d7f3cd1", "is_disabled": 0, "rental_uris": {"android": "https://dc.lft.to/lastmile_qr_scan", "ios": "https://dc.lft.to/lastmile_qr_scan"}, "fusion_lon": 0.0, "lat": 38.8783305, "bike_id": "2b2dd9116ed619489a8aa6a31d7f3cd1", "type": "electric_scooter", "is_reserved": 0, "lon": -76.96323033333333}, {"fusion_lat": 0.0, "name": "3741bd1f2364fe6ee0bf61910795b287", "is_disabled": 0, "rental_uris": {"android": "https://dc.lft.to/lastmile_qr_scan", "ios": "https://dc.lft.to/lastmile_qr_scan"}, "fusion_lon": 0.0, "lat": 38.925594, "bike_id": "3741bd1f2364fe6ee0bf61910795b287", "type": "electric_scooter", "is_reserved": 0, "lon": -77.077603}, {"fusion_lat": 0.0, "name": "fb52943636e98921da1baae18b3b3920", "is_disabled": 0, "rental_uris": {"android": "https://dc.lft.to/lastmile_qr_scan", "ios": "https://dc.lft.to/lastmile_qr_scan"}, "fusion_lon": 0.0, "lat": 38.90744083333333, "bike_id": "fb52943636e98921da1baae18b3b3920", "type": "electric_scooter", "is_reserved": 0, "lon": -77.038445}, {"fusion_lat": 0.0, "name": "1a1653998fcd13721afc11f41233c68c", "is_disabled": 0, "rental_uris": {"android": "https://dc.lft.to/lastmile_qr_scan", "ios": "https://dc.lft.to/lastmile_qr_scan"}, "fusion_lon": 0.0, "lat": 38.9097285, "bike_id": "1a1653998fcd13721afc11f41233c68c", "type": "electric_scooter", "is_reserved": 0, "lon": -77.03432516666666}, {"fusion_lat": 0.0, "name": "0812b19146816860061a13aeb0a0ef30", "is_disabled": 0, "rental_uris": {"android": "https://dc.lft.to/lastmile_qr_scan", "ios": "https://dc.lft.to/lastmile_qr_scan"}, "fusion_lon": 0.0, "lat": 38.90028183333333, "bike_id": "0812b19146816860061a13aeb0a0ef30", "type": "electric_scooter", "is_reserved": 0, "lon": -77.01175366666666}, {"fusion_lat": 0.0, "name": "d9aa05885aff1bae16ccfc885325845a", "is_disabled": 0, "rental_uris": {"android": "https://dc.lft.to/lastmile_qr_scan", "ios": "https://dc.lft.to/lastmile_qr_scan"}, "fusion_lon": 0.0, "lat": 38.835846833333335, "bike_id": "d9aa05885aff1bae16ccfc885325845a", "type": "electric_bike", "is_reserved": 0, "lon": -76.99009933333333}, {"fusion_lat": 0.0, "name": "b301836405ebd6a2fd9e77422f44f1ec", "is_disabled": 0, "rental_uris": {"android": "https://dc.lft.to/lastmile_qr_scan", "ios": "https://dc.lft.to/lastmile_qr_scan"}, "fusion_lon": 0.0, "lat": 38.8984165, "bike_id": "b301836405ebd6a2fd9e77422f44f1ec", "type": "electric_scooter", "is_reserved": 0, "lon": -76.981677}, {"fusion_lat": 0.0, "name": "2501cb598a95ef4397d10763a18e716b", "is_disabled": 0, "rental_uris": {"android": "https://dc.lft.to/lastmile_qr_scan", "ios": "https://dc.lft.to/lastmile_qr_scan"}, "fusion_lon": 0.0, "lat": 38.93218733333333, "bike_id": "2501cb598a95ef4397d10763a18e716b", "type": "electric_scooter", "is_reserved": 0, "lon": -77.044135}, {"fusion_lat": 0.0, "name": "269f2e01f51232fbbb7718b2ea5309dc", "is_disabled": 0, "rental_uris": {"android": "https://dc.lft.to/lastmile_qr_scan", "ios": "https://dc.lft.to/lastmile_qr_scan"}, "fusion_lon": 0.0, "lat": 38.9309205, "bike_id": "269f2e01f51232fbbb7718b2ea5309dc", "type": "electric_scooter", "is_reserved": 0, "lon": -77.03439866666666}, {"fusion_lat": 0.0, "name": "984e8d86bcb57c52143d517fca1407f2", "is_disabled": 0, "rental_uris": {"android": "https://dc.lft.to/lastmile_qr_scan", "ios": "https://dc.lft.to/lastmile_qr_scan"}, "fusion_lon": 0.0, "lat": 38.874687, "bike_id": "984e8d86bcb57c52143d517fca1407f2", "type": "electric_scooter", "is_reserved": 0, "lon": -77.0056315}, {"fusion_lat": 0.0, "name": "14c495a84e23e717f4eb4c7a98d1c3fc", "is_disabled": 0, "rental_uris": {"android": "https://dc.lft.to/lastmile_qr_scan", "ios": "https://dc.lft.to/lastmile_qr_scan"}, "fusion_lon": 0.0, "lat": 38.887388333333334, "bike_id": "14c495a84e23e717f4eb4c7a98d1c3fc", "type": "electric_scooter", "is_reserved": 0, "lon": -77.0034685}, {"fusion_lat": 0.0, "name": "5898a70854d58c9be8694aea37a70a32", "is_disabled": 0, "rental_uris": {"android": "https://dc.lft.to/lastmile_qr_scan", "ios": "https://dc.lft.to/lastmile_qr_scan"}, "fusion_lon": 0.0, "lat": 38.91626266666667, "bike_id": "5898a70854d58c9be8694aea37a70a32", "type": "electric_scooter", "is_reserved": 0, "lon": -77.01346516666666}, {"fusion_lat": 0.0, "name": "1151a5be95b2f49ae2d89aee11291ddb", "is_disabled": 0, "rental_uris": {"android": "https://dc.lft.to/lastmile_qr_scan", "ios": "https://dc.lft.to/lastmile_qr_scan"}, "fusion_lon": 0.0, "lat": 38.907139, "bike_id": "1151a5be95b2f49ae2d89aee11291ddb", "type": "electric_scooter", "is_reserved": 0, "lon": -77.04815366666666}, {"fusion_lat": 0.0, "name": "0019126a916bc63d0ba47fde20b18454", "is_disabled": 0, "rental_uris": {"android": "https://dc.lft.to/lastmile_qr_scan", "ios": "https://dc.lft.to/lastmile_qr_scan"}, "fusion_lon": 0.0, "lat": 38.906603833333335, "bike_id": "0019126a916bc63d0ba47fde20b18454", "type": "electric_scooter", "is_reserved": 0, "lon": -77.038559}, {"fusion_lat": 0.0, "name": "43e14689e163a71b5b3f967216c691f9", "is_disabled": 0, "rental_uris": {"android": "https://dc.lft.to/lastmile_qr_scan", "ios": "https://dc.lft.to/lastmile_qr_scan"}, "fusion_lon": 0.0, "lat": 38.931496833333334, "bike_id": "43e14689e163a71b5b3f967216c691f9", "type": "electric_scooter", "is_reserved": 0, "lon": -77.07840483333334}, {"fusion_lat": 0.0, "name": "b221a5f26b22fe4cd20e85473b6f6ca9", "is_disabled": 0, "rental_uris": {"android": "https://dc.lft.to/lastmile_qr_scan", "ios": "https://dc.lft.to/lastmile_qr_scan"}, "fusion_lon": 0.0, "lat": 38.923350166666665, "bike_id": "b221a5f26b22fe4cd20e85473b6f6ca9", "type": "electric_scooter", "is_reserved": 0, "lon": -77.02074316666666}, {"fusion_lat": 0.0, "name": "cee6f83493a69c995f959afd860d633f", "is_disabled": 0, "rental_uris": {"android": "https://dc.lft.to/lastmile_qr_scan", "ios": "https://dc.lft.to/lastmile_qr_scan"}, "fusion_lon": 0.0, "lat": 38.94074916666667, "bike_id": "cee6f83493a69c995f959afd860d633f", "type": "electric_bike", "is_reserved": 0, "lon": -76.99459583333334}, {"fusion_lat": 0.0, "name": "dc8e7669cfd063472c62f545563d5adb", "is_disabled": 0, "rental_uris": {"android": "https://dc.lft.to/lastmile_qr_scan", "ios": "https://dc.lft.to/lastmile_qr_scan"}, "fusion_lon": 0.0, "lat": 38.925226, "bike_id": "dc8e7669cfd063472c62f545563d5adb", "type": "electric_scooter", "is_reserved": 0, "lon": -77.02970116666667}, {"fusion_lat": 0.0, "name": "0f0cc90aad2deee59737bc8baf871c95", "is_disabled": 0, "rental_uris": {"android": "https://dc.lft.to/lastmile_qr_scan", "ios": "https://dc.lft.to/lastmile_qr_scan"}, "fusion_lon": 0.0, "lat": 38.934623, "bike_id": "0f0cc90aad2deee59737bc8baf871c95", "type": "electric_scooter", "is_reserved": 0, "lon": -77.0411805}, {"fusion_lat": 0.0, "name": "533ceb3f9783a0cda7a9efa0adb1f5e4", "is_disabled": 0, "rental_uris": {"android": "https://dc.lft.to/lastmile_qr_scan", "ios": "https://dc.lft.to/lastmile_qr_scan"}, "fusion_lon": 0.0, "lat": 38.903149166666665, "bike_id": "533ceb3f9783a0cda7a9efa0adb1f5e4", "type": "electric_scooter", "is_reserved": 0, "lon": -77.011907}, {"fusion_lat": 0.0, "name": "caa4868a255f6def4c44713c64db7c9c", "is_disabled": 0, "rental_uris": {"android": "https://dc.lft.to/lastmile_qr_scan", "ios": "https://dc.lft.to/lastmile_qr_scan"}, "fusion_lon": 0.0, "lat": 38.918008, "bike_id": "caa4868a255f6def4c44713c64db7c9c", "type": "electric_scooter", "is_reserved": 0, "lon": -77.03438483333333}, {"fusion_lat": 0.0, "name": "b2416f26232b18991816ec3ebd8257e1", "is_disabled": 0, "rental_uris": {"android": "https://dc.lft.to/lastmile_qr_scan", "ios": "https://dc.lft.to/lastmile_qr_scan"}, "fusion_lon": 0.0, "lat": 38.919814, "bike_id": "b2416f26232b18991816ec3ebd8257e1", "type": "electric_scooter", "is_reserved": 0, "lon": -77.02390583333333}, {"fusion_lat": 0.0, "name": "92a0ebab5e0b7da2cb7c9facbd54c347", "is_disabled": 0, "rental_uris": {"android": "https://dc.lft.to/lastmile_qr_scan", "ios": "https://dc.lft.to/lastmile_qr_scan"}, "fusion_lon": 0.0, "lat": 38.933658666666666, "bike_id": "92a0ebab5e0b7da2cb7c9facbd54c347", "type": "electric_scooter", "is_reserved": 0, "lon": -77.05743866666667}, {"fusion_lat": 0.0, "name": "cac896c0e0f5e076650775da122a43db", "is_disabled": 0, "rental_uris": {"android": "https://dc.lft.to/lastmile_qr_scan", "ios": "https://dc.lft.to/lastmile_qr_scan"}, "fusion_lon": 0.0, "lat": 38.92672983333333, "bike_id": "cac896c0e0f5e076650775da122a43db", "type": "electric_scooter", "is_reserved": 0, "lon": -77.0149765}, {"fusion_lat": 0.0, "name": "38d4b97b51c809be63a1bd674b6aa02d", "is_disabled": 0, "rental_uris": {"android": "https://dc.lft.to/lastmile_qr_scan", "ios": "https://dc.lft.to/lastmile_qr_scan"}, "fusion_lon": 0.0, "lat": 38.994432333333336, "bike_id": "38d4b97b51c809be63a1bd674b6aa02d", "type": "electric_bike", "is_reserved": 0, "lon": -76.99587883333334}, {"fusion_lat": 0.0, "name": "50cc7c37717fc622f4391313644f382e", "is_disabled": 0, "rental_uris": {"android": "https://dc.lft.to/lastmile_qr_scan", "ios": "https://dc.lft.to/lastmile_qr_scan"}, "fusion_lon": 0.0, "lat": 38.90304833333333, "bike_id": "50cc7c37717fc622f4391313644f382e", "type": "electric_scooter", "is_reserved": 0, "lon": -76.97657083333333}, {"fusion_lat": 0.0, "name": "79a7d7a1997eb364399a450a4a40de70", "is_disabled": 0, "rental_uris": {"android": "https://dc.lft.to/lastmile_qr_scan", "ios": "https://dc.lft.to/lastmile_qr_scan"}, "fusion_lon": 0.0, "lat": 38.923576833333335, "bike_id": "79a7d7a1997eb364399a450a4a40de70", "type": "electric_scooter", "is_reserved": 0, "lon": -77.0503105}, {"fusion_lat": 0.0, "name": "529b5a1b4cf5cb7a42c658e604762f7d", "is_disabled": 0, "rental_uris": {"android": "https://dc.lft.to/lastmile_qr_scan", "ios": "https://dc.lft.to/lastmile_qr_scan"}, "fusion_lon": 0.0, "lat": 38.921060833333335, "bike_id": "529b5a1b4cf5cb7a42c658e604762f7d", "type": "electric_scooter", "is_reserved": 0, "lon": -77.031665}, {"fusion_lat": 0.0, "name": "54f0a9e6467b9631528e3df3b91dacc5", "is_disabled": 0, "rental_uris": {"android": "https://dc.lft.to/lastmile_qr_scan", "ios": "https://dc.lft.to/lastmile_qr_scan"}, "fusion_lon": 0.0, "lat": 38.90540716666667, "bike_id": "54f0a9e6467b9631528e3df3b91dacc5", "type": "electric_scooter", "is_reserved": 0, "lon": -77.0409975}, {"fusion_lat": 0.0, "name": "3c177f2824d9d406a2c5c79e6cc38f03", "is_disabled": 0, "rental_uris": {"android": "https://dc.lft.to/lastmile_qr_scan", "ios": "https://dc.lft.to/lastmile_qr_scan"}, "fusion_lon": 0.0, "lat": 38.917374833333334, "bike_id": "3c177f2824d9d406a2c5c79e6cc38f03", "type": "electric_scooter", "is_reserved": 0, "lon": -77.032091}, {"fusion_lat": 0.0, "name": "2b41118c6d15d6d7171a48c139a3b4c7", "is_disabled": 0, "rental_uris": {"android": "https://dc.lft.to/lastmile_qr_scan", "ios": "https://dc.lft.to/lastmile_qr_scan"}, "fusion_lon": 0.0, "lat": 38.905737333333335, "bike_id": "2b41118c6d15d6d7171a48c139a3b4c7", "type": "electric_scooter", "is_reserved": 0, "lon": -77.02207216666666}, {"fusion_lat": 0.0, "name": "164f08810fb0ff7e3ff2e22c5f839438", "is_disabled": 0, "rental_uris": {"android": "https://dc.lft.to/lastmile_qr_scan", "ios": "https://dc.lft.to/lastmile_qr_scan"}, "fusion_lon": 0.0, "lat": 38.920836333333334, "bike_id": "164f08810fb0ff7e3ff2e22c5f839438", "type": "electric_scooter", "is_reserved": 0, "lon": -77.02555416666667}, {"fusion_lat": 0.0, "name": "1f5b7598e6d2fa58e0a24086d2136b3a", "is_disabled": 0, "rental_uris": {"android": "https://dc.lft.to/lastmile_qr_scan", "ios": "https://dc.lft.to/lastmile_qr_scan"}, "fusion_lon": 0.0, "lat": 38.920782, "bike_id": "1f5b7598e6d2fa58e0a24086d2136b3a", "type": "electric_bike", "is_reserved": 0, "lon": -76.98947333333334}, {"fusion_lat": 0.0, "name": "f4dbe5635291115e35bfb4d955f12a35", "is_disabled": 0, "rental_uris": {"android": "https://dc.lft.to/lastmile_qr_scan", "ios": "https://dc.lft.to/lastmile_qr_scan"}, "fusion_lon": 0.0, "lat": 38.8873825, "bike_id": "f4dbe5635291115e35bfb4d955f12a35", "type": "electric_scooter", "is_reserved": 0, "lon": -77.0318005}, {"fusion_lat": 0.0, "name": "1044f7a80fbd91be8d7cea43aa6a214b", "is_disabled": 0, "rental_uris": {"android": "https://dc.lft.to/lastmile_qr_scan", "ios": "https://dc.lft.to/lastmile_qr_scan"}, "fusion_lon": 0.0, "lat": 38.942295, "bike_id": "1044f7a80fbd91be8d7cea43aa6a214b", "type": "electric_scooter", "is_reserved": 0, "lon": -77.0138605}, {"fusion_lat": 0.0, "name": "6d558a739f146daceef87e11f9ca6e97", "is_disabled": 0, "rental_uris": {"android": "https://dc.lft.to/lastmile_qr_scan", "ios": "https://dc.lft.to/lastmile_qr_scan"}, "fusion_lon": 0.0, "lat": 38.919949, "bike_id": "6d558a739f146daceef87e11f9ca6e97", "type": "electric_scooter", "is_reserved": 0, "lon": -77.03277983333334}, {"fusion_lat": 0.0, "name": "42ad2939aaac9236214c666027043047", "is_disabled": 0, "rental_uris": {"android": "https://dc.lft.to/lastmile_qr_scan", "ios": "https://dc.lft.to/lastmile_qr_scan"}, "fusion_lon": 0.0, "lat": 38.91823183333333, "bike_id": "42ad2939aaac9236214c666027043047", "type": "electric_scooter", "is_reserved": 0, "lon": -77.03684283333334}, {"fusion_lat": 0.0, "name": "84690b9ee6d233cc3ac167af97226415", "is_disabled": 0, "rental_uris": {"android": "https://dc.lft.to/lastmile_qr_scan", "ios": "https://dc.lft.to/lastmile_qr_scan"}, "fusion_lon": 0.0, "lat": 38.903889166666666, "bike_id": "84690b9ee6d233cc3ac167af97226415", "type": "electric_scooter", "is_reserved": 0, "lon": -77.03818033333333}, {"fusion_lat": 0.0, "name": "eaa9990f6ea53118d0dd7e5c8f3ffe44", "is_disabled": 0, "rental_uris": {"android": "https://dc.lft.to/lastmile_qr_scan", "ios": "https://dc.lft.to/lastmile_qr_scan"}, "fusion_lon": 0.0, "lat": 38.887390333333336, "bike_id": "eaa9990f6ea53118d0dd7e5c8f3ffe44", "type": "electric_scooter", "is_reserved": 0, "lon": -77.003195}, {"fusion_lat": 0.0, "name": "f1d40704f61f7f0f51bb3fed7d44b854", "is_disabled": 0, "rental_uris": {"android": "https://dc.lft.to/lastmile_qr_scan", "ios": "https://dc.lft.to/lastmile_qr_scan"}, "fusion_lon": 0.0, "lat": 38.92435233333333, "bike_id": "f1d40704f61f7f0f51bb3fed7d44b854", "type": "electric_scooter", "is_reserved": 0, "lon": -77.000685}, {"fusion_lat": 0.0, "name": "9f34f13d09206c11bcf98775fc0259be", "is_disabled": 0, "rental_uris": {"android": "https://dc.lft.to/lastmile_qr_scan", "ios": "https://dc.lft.to/lastmile_qr_scan"}, "fusion_lon": 0.0, "lat": 38.90303016666667, "bike_id": "9f34f13d09206c11bcf98775fc0259be", "type": "electric_scooter", "is_reserved": 0, "lon": -77.039688}, {"fusion_lat": 0.0, "name": "ad5874d51dadc7d9ade39807dc074a5e", "is_disabled": 0, "rental_uris": {"android": "https://dc.lft.to/lastmile_qr_scan", "ios": "https://dc.lft.to/lastmile_qr_scan"}, "fusion_lon": 0.0, "lat": 38.887229833333336, "bike_id": "ad5874d51dadc7d9ade39807dc074a5e", "type": "electric_scooter", "is_reserved": 0, "lon": -76.98355016666666}, {"fusion_lat": 0.0, "name": "c475af709a2fffc72983fac8a1265645", "is_disabled": 0, "rental_uris": {"android": "https://dc.lft.to/lastmile_qr_scan", "ios": "https://dc.lft.to/lastmile_qr_scan"}, "fusion_lon": 0.0, "lat": 38.899674833333336, "bike_id": "c475af709a2fffc72983fac8a1265645", "type": "electric_scooter", "is_reserved": 0, "lon": -76.9870715}, {"fusion_lat": 0.0, "name": "85fbc815351939c7ab8aead212c7aa0e", "is_disabled": 0, "rental_uris": {"android": "https://dc.lft.to/lastmile_qr_scan", "ios": "https://dc.lft.to/lastmile_qr_scan"}, "fusion_lon": 0.0, "lat": 38.900326166666666, "bike_id": "85fbc815351939c7ab8aead212c7aa0e", "type": "electric_scooter", "is_reserved": 0, "lon": -77.01191466666667}, {"fusion_lat": 0.0, "name": "64b9c9a34ae8c811918e3734d5e4b468", "is_disabled": 0, "rental_uris": {"android": "https://dc.lft.to/lastmile_qr_scan", "ios": "https://dc.lft.to/lastmile_qr_scan"}, "fusion_lon": 0.0, "lat": 38.883182166666664, "bike_id": "64b9c9a34ae8c811918e3734d5e4b468", "type": "electric_scooter", "is_reserved": 0, "lon": -76.93494483333333}, {"fusion_lat": 0.0, "name": "cc3af0be72e6557a552595ca62e58be1", "is_disabled": 0, "rental_uris": {"android": "https://dc.lft.to/lastmile_qr_scan", "ios": "https://dc.lft.to/lastmile_qr_scan"}, "fusion_lon": 0.0, "lat": 38.915668, "bike_id": "cc3af0be72e6557a552595ca62e58be1", "type": "electric_scooter", "is_reserved": 0, "lon": -77.01037233333334}, {"fusion_lat": 0.0, "name": "4de643773aa99f281c7e5d5da6d07e0b", "is_disabled": 0, "rental_uris": {"android": "https://dc.lft.to/lastmile_qr_scan", "ios": "https://dc.lft.to/lastmile_qr_scan"}, "fusion_lon": 0.0, "lat": 38.890285, "bike_id": "4de643773aa99f281c7e5d5da6d07e0b", "type": "electric_scooter", "is_reserved": 0, "lon": -77.03182883333334}, {"fusion_lat": 0.0, "name": "c9e6ea48cc8dee396854380fc9706402", "is_disabled": 0, "rental_uris": {"android": "https://dc.lft.to/lastmile_qr_scan", "ios": "https://dc.lft.to/lastmile_qr_scan"}, "fusion_lon": 0.0, "lat": 38.90120066666667, "bike_id": "c9e6ea48cc8dee396854380fc9706402", "type": "electric_scooter", "is_reserved": 0, "lon": -77.04469716666667}, {"fusion_lat": 0.0, "name": "08b88c90807f3f12af2b48e2ef3c1e83", "is_disabled": 0, "rental_uris": {"android": "https://dc.lft.to/lastmile_qr_scan", "ios": "https://dc.lft.to/lastmile_qr_scan"}, "fusion_lon": 0.0, "lat": 38.943834333333335, "bike_id": "08b88c90807f3f12af2b48e2ef3c1e83", "type": "electric_scooter", "is_reserved": 0, "lon": -77.0950595}, {"fusion_lat": 0.0, "name": "584de710161c0eeae89a458c287a17aa", "is_disabled": 0, "rental_uris": {"android": "https://dc.lft.to/lastmile_qr_scan", "ios": "https://dc.lft.to/lastmile_qr_scan"}, "fusion_lon": 0.0, "lat": 38.92167766666667, "bike_id": "584de710161c0eeae89a458c287a17aa", "type": "electric_scooter", "is_reserved": 0, "lon": -77.03268383333334}, {"fusion_lat": 0.0, "name": "5cf541a794d8d7da43157ef9ea2ee10c", "is_disabled": 0, "rental_uris": {"android": "https://dc.lft.to/lastmile_qr_scan", "ios": "https://dc.lft.to/lastmile_qr_scan"}, "fusion_lon": 0.0, "lat": 38.920935166666666, "bike_id": "5cf541a794d8d7da43157ef9ea2ee10c", "type": "electric_scooter", "is_reserved": 0, "lon": -77.02534233333333}, {"fusion_lat": 0.0, "name": "bf43b512c197ab1ed19816c3fbf1890e", "is_disabled": 0, "rental_uris": {"android": "https://dc.lft.to/lastmile_qr_scan", "ios": "https://dc.lft.to/lastmile_qr_scan"}, "fusion_lon": 0.0, "lat": 38.92857933333333, "bike_id": "bf43b512c197ab1ed19816c3fbf1890e", "type": "electric_scooter", "is_reserved": 0, "lon": -77.05430583333333}, {"fusion_lat": 0.0, "name": "fa4d98ce42a8e6530ae27720096166f6", "is_disabled": 0, "rental_uris": {"android": "https://dc.lft.to/lastmile_qr_scan", "ios": "https://dc.lft.to/lastmile_qr_scan"}, "fusion_lon": 0.0, "lat": 38.92761683333333, "bike_id": "fa4d98ce42a8e6530ae27720096166f6", "type": "electric_scooter", "is_reserved": 0, "lon": -77.032771}, {"fusion_lat": 0.0, "name": "440ff9b20cdd69ff1f5c392a40732a8e", "is_disabled": 0, "rental_uris": {"android": "https://dc.lft.to/lastmile_qr_scan", "ios": "https://dc.lft.to/lastmile_qr_scan"}, "fusion_lon": 0.0, "lat": 38.904091333333334, "bike_id": "440ff9b20cdd69ff1f5c392a40732a8e", "type": "electric_scooter", "is_reserved": 0, "lon": -77.02600233333334}, {"fusion_lat": 0.0, "name": "f1997df1ed9b5d6f6bf476b1d0551566", "is_disabled": 0, "rental_uris": {"android": "https://dc.lft.to/lastmile_qr_scan", "ios": "https://dc.lft.to/lastmile_qr_scan"}, "fusion_lon": 0.0, "lat": 38.898718833333334, "bike_id": "f1997df1ed9b5d6f6bf476b1d0551566", "type": "electric_scooter", "is_reserved": 0, "lon": -76.93186683333333}, {"fusion_lat": 0.0, "name": "d8c0f8f54876e1269076c91755c205b8", "is_disabled": 0, "rental_uris": {"android": "https://dc.lft.to/lastmile_qr_scan", "ios": "https://dc.lft.to/lastmile_qr_scan"}, "fusion_lon": 0.0, "lat": 38.92974266666667, "bike_id": "d8c0f8f54876e1269076c91755c205b8", "type": "electric_scooter", "is_reserved": 0, "lon": -77.027941}, {"fusion_lat": 0.0, "name": "15a537999b59a8f5e27d621c2b6012be", "is_disabled": 0, "rental_uris": {"android": "https://dc.lft.to/lastmile_qr_scan", "ios": "https://dc.lft.to/lastmile_qr_scan"}, "fusion_lon": 0.0, "lat": 38.911207, "bike_id": "15a537999b59a8f5e27d621c2b6012be", "type": "electric_scooter", "is_reserved": 0, "lon": -77.0076865}, {"fusion_lat": 0.0, "name": "63540081a11b3cc4106efdf319d7b9eb", "is_disabled": 0, "rental_uris": {"android": "https://dc.lft.to/lastmile_qr_scan", "ios": "https://dc.lft.to/lastmile_qr_scan"}, "fusion_lon": 0.0, "lat": 38.920192666666665, "bike_id": "63540081a11b3cc4106efdf319d7b9eb", "type": "electric_scooter", "is_reserved": 0, "lon": -77.0131475}, {"fusion_lat": 0.0, "name": "5aa48ddd1d1f200993150b3be222680d", "is_disabled": 0, "rental_uris": {"android": "https://dc.lft.to/lastmile_qr_scan", "ios": "https://dc.lft.to/lastmile_qr_scan"}, "fusion_lon": 0.0, "lat": 38.893337833333334, "bike_id": "5aa48ddd1d1f200993150b3be222680d", "type": "electric_scooter", "is_reserved": 0, "lon": -77.032299}, {"fusion_lat": 0.0, "name": "76c0befac147510f1f9d502cccb68cd6", "is_disabled": 0, "rental_uris": {"android": "https://dc.lft.to/lastmile_qr_scan", "ios": "https://dc.lft.to/lastmile_qr_scan"}, "fusion_lon": 0.0, "lat": 38.89221966666667, "bike_id": "76c0befac147510f1f9d502cccb68cd6", "type": "electric_scooter", "is_reserved": 0, "lon": -77.04873666666667}, {"fusion_lat": 0.0, "name": "6dfb9bc3e8c6e376ff399f0a807b6cde", "is_disabled": 0, "rental_uris": {"android": "https://dc.lft.to/lastmile_qr_scan", "ios": "https://dc.lft.to/lastmile_qr_scan"}, "fusion_lon": 0.0, "lat": 38.900113, "bike_id": "6dfb9bc3e8c6e376ff399f0a807b6cde", "type": "electric_scooter", "is_reserved": 0, "lon": -76.98812133333334}, {"fusion_lat": 0.0, "name": "927a4121dc6973252ec70b3983f37992", "is_disabled": 0, "rental_uris": {"android": "https://dc.lft.to/lastmile_qr_scan", "ios": "https://dc.lft.to/lastmile_qr_scan"}, "fusion_lon": 0.0, "lat": 38.9126385, "bike_id": "927a4121dc6973252ec70b3983f37992", "type": "electric_scooter", "is_reserved": 0, "lon": -77.03869166666667}, {"fusion_lat": 0.0, "name": "957040eaa827047a822de46a6a10880c", "is_disabled": 0, "rental_uris": {"android": "https://dc.lft.to/lastmile_qr_scan", "ios": "https://dc.lft.to/lastmile_qr_scan"}, "fusion_lon": 0.0, "lat": 38.9049815, "bike_id": "957040eaa827047a822de46a6a10880c", "type": "electric_scooter", "is_reserved": 0, "lon": -77.0268675}, {"fusion_lat": 0.0, "name": "e579bb4591c8756991821968485e6469", "is_disabled": 0, "rental_uris": {"android": "https://dc.lft.to/lastmile_qr_scan", "ios": "https://dc.lft.to/lastmile_qr_scan"}, "fusion_lon": 0.0, "lat": 38.929666, "bike_id": "e579bb4591c8756991821968485e6469", "type": "electric_scooter", "is_reserved": 0, "lon": -77.03096983333333}, {"fusion_lat": 0.0, "name": "1393c397b4853b1988d948061d6998d3", "is_disabled": 0, "rental_uris": {"android": "https://dc.lft.to/lastmile_qr_scan", "ios": "https://dc.lft.to/lastmile_qr_scan"}, "fusion_lon": 0.0, "lat": 38.865170166666665, "bike_id": "1393c397b4853b1988d948061d6998d3", "type": "electric_bike", "is_reserved": 0, "lon": -77.12939833333333}, {"fusion_lat": 0.0, "name": "863ad246ecd34cbd330028e55d604ffb", "is_disabled": 0, "rental_uris": {"android": "https://dc.lft.to/lastmile_qr_scan", "ios": "https://dc.lft.to/lastmile_qr_scan"}, "fusion_lon": 0.0, "lat": 38.901833833333335, "bike_id": "863ad246ecd34cbd330028e55d604ffb", "type": "electric_scooter", "is_reserved": 0, "lon": -77.02471366666667}, {"fusion_lat": 0.0, "name": "86f81868e11f737e25b2c8d9eb19ea24", "is_disabled": 0, "rental_uris": {"android": "https://dc.lft.to/lastmile_qr_scan", "ios": "https://dc.lft.to/lastmile_qr_scan"}, "fusion_lon": 0.0, "lat": 38.88836883333333, "bike_id": "86f81868e11f737e25b2c8d9eb19ea24", "type": "electric_scooter", "is_reserved": 0, "lon": -77.04910566666666}, {"fusion_lat": 0.0, "name": "cffdae156875a2680ae474d9a753716d", "is_disabled": 0, "rental_uris": {"android": "https://dc.lft.to/lastmile_qr_scan", "ios": "https://dc.lft.to/lastmile_qr_scan"}, "fusion_lon": 0.0, "lat": 38.91409483333333, "bike_id": "cffdae156875a2680ae474d9a753716d", "type": "electric_scooter", "is_reserved": 0, "lon": -77.042518}, {"fusion_lat": 0.0, "name": "b411429b1e3865fae1279935d5a9334b", "is_disabled": 0, "rental_uris": {"android": "https://dc.lft.to/lastmile_qr_scan", "ios": "https://dc.lft.to/lastmile_qr_scan"}, "fusion_lon": 0.0, "lat": 38.903844166666666, "bike_id": "b411429b1e3865fae1279935d5a9334b", "type": "electric_scooter", "is_reserved": 0, "lon": -77.017678}, {"fusion_lat": 0.0, "name": "2eafcb83226c131710de58900647bd25", "is_disabled": 0, "rental_uris": {"android": "https://dc.lft.to/lastmile_qr_scan", "ios": "https://dc.lft.to/lastmile_qr_scan"}, "fusion_lon": 0.0, "lat": 38.922430166666665, "bike_id": "2eafcb83226c131710de58900647bd25", "type": "electric_scooter", "is_reserved": 0, "lon": -77.02237583333333}, {"fusion_lat": 0.0, "name": "0dfea815a4293a790ac1d02e90a2d343", "is_disabled": 0, "rental_uris": {"android": "https://dc.lft.to/lastmile_qr_scan", "ios": "https://dc.lft.to/lastmile_qr_scan"}, "fusion_lon": 0.0, "lat": 38.905417666666665, "bike_id": "0dfea815a4293a790ac1d02e90a2d343", "type": "electric_scooter", "is_reserved": 0, "lon": -76.98195616666666}, {"fusion_lat": 0.0, "name": "1475df2e1f4cbf2c34bf92c940458859", "is_disabled": 0, "rental_uris": {"android": "https://dc.lft.to/lastmile_qr_scan", "ios": "https://dc.lft.to/lastmile_qr_scan"}, "fusion_lon": 0.0, "lat": 38.916515833333335, "bike_id": "1475df2e1f4cbf2c34bf92c940458859", "type": "electric_scooter", "is_reserved": 0, "lon": -77.0095855}, {"fusion_lat": 0.0, "name": "a80f9f204d0536c18b1b8443be89f550", "is_disabled": 0, "rental_uris": {"android": "https://dc.lft.to/lastmile_qr_scan", "ios": "https://dc.lft.to/lastmile_qr_scan"}, "fusion_lon": 0.0, "lat": 38.90782133333333, "bike_id": "a80f9f204d0536c18b1b8443be89f550", "type": "electric_scooter", "is_reserved": 0, "lon": -77.03859066666666}, {"fusion_lat": 0.0, "name": "0e008523ced00128a33e73550df3210a", "is_disabled": 0, "rental_uris": {"android": "https://dc.lft.to/lastmile_qr_scan", "ios": "https://dc.lft.to/lastmile_qr_scan"}, "fusion_lon": 0.0, "lat": 38.9308735, "bike_id": "0e008523ced00128a33e73550df3210a", "type": "electric_scooter", "is_reserved": 0, "lon": -77.0255295}, {"fusion_lat": 0.0, "name": "d1e9711ca5a5b56b373953479ba0060e", "is_disabled": 0, "rental_uris": {"android": "https://dc.lft.to/lastmile_qr_scan", "ios": "https://dc.lft.to/lastmile_qr_scan"}, "fusion_lon": 0.0, "lat": 38.9010335, "bike_id": "d1e9711ca5a5b56b373953479ba0060e", "type": "electric_scooter", "is_reserved": 0, "lon": -77.02286883333333}, {"fusion_lat": 0.0, "name": "81789f0e11d8f56bdb00c50a08483679", "is_disabled": 0, "rental_uris": {"android": "https://dc.lft.to/lastmile_qr_scan", "ios": "https://dc.lft.to/lastmile_qr_scan"}, "fusion_lon": 0.0, "lat": 38.91119716666667, "bike_id": "81789f0e11d8f56bdb00c50a08483679", "type": "electric_scooter", "is_reserved": 0, "lon": -77.03834966666666}, {"fusion_lat": 0.0, "name": "cc5561ec47a8e27adc5a45a802ec90bf", "is_disabled": 0, "rental_uris": {"android": "https://dc.lft.to/lastmile_qr_scan", "ios": "https://dc.lft.to/lastmile_qr_scan"}, "fusion_lon": 0.0, "lat": 38.90151216666667, "bike_id": "cc5561ec47a8e27adc5a45a802ec90bf", "type": "electric_scooter", "is_reserved": 0, "lon": -77.04171216666667}, {"fusion_lat": 0.0, "name": "5df68e20316c9359af6c7b4b0338f5de", "is_disabled": 0, "rental_uris": {"android": "https://dc.lft.to/lastmile_qr_scan", "ios": "https://dc.lft.to/lastmile_qr_scan"}, "fusion_lon": 0.0, "lat": 38.87950716666667, "bike_id": "5df68e20316c9359af6c7b4b0338f5de", "type": "electric_scooter", "is_reserved": 0, "lon": -77.00841633333333}, {"fusion_lat": 0.0, "name": "db3915a3568e996f9282f3d5fce441db", "is_disabled": 0, "rental_uris": {"android": "https://dc.lft.to/lastmile_qr_scan", "ios": "https://dc.lft.to/lastmile_qr_scan"}, "fusion_lon": 0.0, "lat": 38.946815666666666, "bike_id": "db3915a3568e996f9282f3d5fce441db", "type": "electric_bike", "is_reserved": 0, "lon": -76.95677}, {"fusion_lat": 0.0, "name": "35a12ff14d11b36e22b868f1ffdee93e", "is_disabled": 0, "rental_uris": {"android": "https://dc.lft.to/lastmile_qr_scan", "ios": "https://dc.lft.to/lastmile_qr_scan"}, "fusion_lon": 0.0, "lat": 38.896287, "bike_id": "35a12ff14d11b36e22b868f1ffdee93e", "type": "electric_scooter", "is_reserved": 0, "lon": -77.0214845}, {"fusion_lat": 0.0, "name": "133dc2dac9578674b2a256b4b71fa1c9", "is_disabled": 0, "rental_uris": {"android": "https://dc.lft.to/lastmile_qr_scan", "ios": "https://dc.lft.to/lastmile_qr_scan"}, "fusion_lon": 0.0, "lat": 38.919128666666666, "bike_id": "133dc2dac9578674b2a256b4b71fa1c9", "type": "electric_scooter", "is_reserved": 0, "lon": -77.03379233333334}, {"fusion_lat": 0.0, "name": "35eba86e215124327526f8ef98700afa", "is_disabled": 0, "rental_uris": {"android": "https://dc.lft.to/lastmile_qr_scan", "ios": "https://dc.lft.to/lastmile_qr_scan"}, "fusion_lon": 0.0, "lat": 38.938696666666665, "bike_id": "35eba86e215124327526f8ef98700afa", "type": "electric_scooter", "is_reserved": 0, "lon": -77.02918533333333}, {"fusion_lat": 0.0, "name": "3cc4638bc01f9da4d97849b486b57a9f", "is_disabled": 0, "rental_uris": {"android": "https://dc.lft.to/lastmile_qr_scan", "ios": "https://dc.lft.to/lastmile_qr_scan"}, "fusion_lon": 0.0, "lat": 38.92049933333333, "bike_id": "3cc4638bc01f9da4d97849b486b57a9f", "type": "electric_scooter", "is_reserved": 0, "lon": -77.03407383333334}, {"fusion_lat": 0.0, "name": "b22a81d3d46359e2d5ff3b6bf44baa14", "is_disabled": 0, "rental_uris": {"android": "https://dc.lft.to/lastmile_qr_scan", "ios": "https://dc.lft.to/lastmile_qr_scan"}, "fusion_lon": 0.0, "lat": 38.962325166666666, "bike_id": "b22a81d3d46359e2d5ff3b6bf44baa14", "type": "electric_bike", "is_reserved": 0, "lon": -76.92799066666667}, {"fusion_lat": 0.0, "name": "bcce20570d10167a31f7c100280f6e4f", "is_disabled": 0, "rental_uris": {"android": "https://dc.lft.to/lastmile_qr_scan", "ios": "https://dc.lft.to/lastmile_qr_scan"}, "fusion_lon": 0.0, "lat": 38.92735116666667, "bike_id": "bcce20570d10167a31f7c100280f6e4f", "type": "electric_scooter", "is_reserved": 0, "lon": -77.02278533333333}, {"fusion_lat": 0.0, "name": "5bfb261358e71d4fa8ff6ed4ab14fc13", "is_disabled": 0, "rental_uris": {"android": "https://dc.lft.to/lastmile_qr_scan", "ios": "https://dc.lft.to/lastmile_qr_scan"}, "fusion_lon": 0.0, "lat": 38.92035116666667, "bike_id": "5bfb261358e71d4fa8ff6ed4ab14fc13", "type": "electric_scooter", "is_reserved": 0, "lon": -76.9899475}, {"fusion_lat": 0.0, "name": "410099595d7c2d6715c473d575b7e590", "is_disabled": 0, "rental_uris": {"android": "https://dc.lft.to/lastmile_qr_scan", "ios": "https://dc.lft.to/lastmile_qr_scan"}, "fusion_lon": 0.0, "lat": 38.9483985, "bike_id": "410099595d7c2d6715c473d575b7e590", "type": "electric_scooter", "is_reserved": 0, "lon": -77.0257235}, {"fusion_lat": 0.0, "name": "7a2ca651d5601134f030fb9df414b9ac", "is_disabled": 0, "rental_uris": {"android": "https://dc.lft.to/lastmile_qr_scan", "ios": "https://dc.lft.to/lastmile_qr_scan"}, "fusion_lon": 0.0, "lat": 38.903316333333336, "bike_id": "7a2ca651d5601134f030fb9df414b9ac", "type": "electric_scooter", "is_reserved": 0, "lon": -77.03782966666667}, {"fusion_lat": 0.0, "name": "067c68f8f50309768dc3d25f2426aa36", "is_disabled": 0, "rental_uris": {"android": "https://dc.lft.to/lastmile_qr_scan", "ios": "https://dc.lft.to/lastmile_qr_scan"}, "fusion_lon": 0.0, "lat": 38.9595725, "bike_id": "067c68f8f50309768dc3d25f2426aa36", "type": "electric_bike", "is_reserved": 0, "lon": -77.0305775}, {"fusion_lat": 0.0, "name": "65a99a3ea4944812529a58740104b70e", "is_disabled": 0, "rental_uris": {"android": "https://dc.lft.to/lastmile_qr_scan", "ios": "https://dc.lft.to/lastmile_qr_scan"}, "fusion_lon": 0.0, "lat": 38.90265566666667, "bike_id": "65a99a3ea4944812529a58740104b70e", "type": "electric_scooter", "is_reserved": 0, "lon": -77.03375333333334}, {"fusion_lat": 0.0, "name": "7c6508c37fc8a657054c0246f4e8f589", "is_disabled": 0, "rental_uris": {"android": "https://dc.lft.to/lastmile_qr_scan", "ios": "https://dc.lft.to/lastmile_qr_scan"}, "fusion_lon": 0.0, "lat": 38.907192, "bike_id": "7c6508c37fc8a657054c0246f4e8f589", "type": "electric_scooter", "is_reserved": 0, "lon": -77.04498266666667}, {"fusion_lat": 0.0, "name": "e7980a2cf6316cc84c8b567639afb236", "is_disabled": 0, "rental_uris": {"android": "https://dc.lft.to/lastmile_qr_scan", "ios": "https://dc.lft.to/lastmile_qr_scan"}, "fusion_lon": 0.0, "lat": 38.90598, "bike_id": "e7980a2cf6316cc84c8b567639afb236", "type": "electric_scooter", "is_reserved": 0, "lon": -77.0715875}, {"fusion_lat": 0.0, "name": "54b4e922de9efa92a37faf95be7262bf", "is_disabled": 0, "rental_uris": {"android": "https://dc.lft.to/lastmile_qr_scan", "ios": "https://dc.lft.to/lastmile_qr_scan"}, "fusion_lon": 0.0, "lat": 38.892292, "bike_id": "54b4e922de9efa92a37faf95be7262bf", "type": "electric_scooter", "is_reserved": 0, "lon": -77.05}, {"fusion_lat": 0.0, "name": "97bdd675974c5ba03f6a3bfa461a29b2", "is_disabled": 0, "rental_uris": {"android": "https://dc.lft.to/lastmile_qr_scan", "ios": "https://dc.lft.to/lastmile_qr_scan"}, "fusion_lon": 0.0, "lat": 38.93451866666667, "bike_id": "97bdd675974c5ba03f6a3bfa461a29b2", "type": "electric_scooter", "is_reserved": 0, "lon": -77.03875533333333}, {"fusion_lat": 0.0, "name": "577fd8cc246f3240673be7843ec9a987", "is_disabled": 0, "rental_uris": {"android": "https://dc.lft.to/lastmile_qr_scan", "ios": "https://dc.lft.to/lastmile_qr_scan"}, "fusion_lon": 0.0, "lat": 38.949781333333334, "bike_id": "577fd8cc246f3240673be7843ec9a987", "type": "electric_scooter", "is_reserved": 0, "lon": -77.0244615}, {"fusion_lat": 0.0, "name": "d1dac21da9f5dab933713eedf4031a75", "is_disabled": 0, "rental_uris": {"android": "https://dc.lft.to/lastmile_qr_scan", "ios": "https://dc.lft.to/lastmile_qr_scan"}, "fusion_lon": 0.0, "lat": 38.9181435, "bike_id": "d1dac21da9f5dab933713eedf4031a75", "type": "electric_scooter", "is_reserved": 0, "lon": -77.02714483333334}, {"fusion_lat": 0.0, "name": "52a3d64a3c2014826bacd66683d29002", "is_disabled": 0, "rental_uris": {"android": "https://dc.lft.to/lastmile_qr_scan", "ios": "https://dc.lft.to/lastmile_qr_scan"}, "fusion_lon": 0.0, "lat": 38.906060833333335, "bike_id": "52a3d64a3c2014826bacd66683d29002", "type": "electric_scooter", "is_reserved": 0, "lon": -77.02601183333333}, {"fusion_lat": 0.0, "name": "f8b39c8888275ec3de582fe3f9dd9b78", "is_disabled": 0, "rental_uris": {"android": "https://dc.lft.to/lastmile_qr_scan", "ios": "https://dc.lft.to/lastmile_qr_scan"}, "fusion_lon": 0.0, "lat": 38.89993033333333, "bike_id": "f8b39c8888275ec3de582fe3f9dd9b78", "type": "electric_scooter", "is_reserved": 0, "lon": -77.022961}, {"fusion_lat": 0.0, "name": "d1607e602aa7b21c309ad514f522ec4e", "is_disabled": 0, "rental_uris": {"android": "https://dc.lft.to/lastmile_qr_scan", "ios": "https://dc.lft.to/lastmile_qr_scan"}, "fusion_lon": 0.0, "lat": 38.887086333333336, "bike_id": "d1607e602aa7b21c309ad514f522ec4e", "type": "electric_scooter", "is_reserved": 0, "lon": -76.996773}, {"fusion_lat": 0.0, "name": "4e7fd03435184c24b26d520d78f7088c", "is_disabled": 0, "rental_uris": {"android": "https://dc.lft.to/lastmile_qr_scan", "ios": "https://dc.lft.to/lastmile_qr_scan"}, "fusion_lon": 0.0, "lat": 38.89544716666666, "bike_id": "4e7fd03435184c24b26d520d78f7088c", "type": "electric_scooter", "is_reserved": 0, "lon": -76.983377}, {"fusion_lat": 0.0, "name": "c29d23a008819772b0787218a54fde5a", "is_disabled": 0, "rental_uris": {"android": "https://dc.lft.to/lastmile_qr_scan", "ios": "https://dc.lft.to/lastmile_qr_scan"}, "fusion_lon": 0.0, "lat": 38.93441516666667, "bike_id": "c29d23a008819772b0787218a54fde5a", "type": "electric_scooter", "is_reserved": 0, "lon": -77.03873133333333}, {"fusion_lat": 0.0, "name": "d35b17424aa2fd2a0a9039485d522867", "is_disabled": 0, "rental_uris": {"android": "https://dc.lft.to/lastmile_qr_scan", "ios": "https://dc.lft.to/lastmile_qr_scan"}, "fusion_lon": 0.0, "lat": 38.902671166666664, "bike_id": "d35b17424aa2fd2a0a9039485d522867", "type": "electric_scooter", "is_reserved": 0, "lon": -77.00326266666667}, {"fusion_lat": 0.0, "name": "65fe21645f6c5553fc2a0d28b0cef562", "is_disabled": 0, "rental_uris": {"android": "https://dc.lft.to/lastmile_qr_scan", "ios": "https://dc.lft.to/lastmile_qr_scan"}, "fusion_lon": 0.0, "lat": 38.90557483333333, "bike_id": "65fe21645f6c5553fc2a0d28b0cef562", "type": "electric_scooter", "is_reserved": 0, "lon": -77.00729766666667}, {"fusion_lat": 0.0, "name": "de38f898170d8090854e16c154a8398b", "is_disabled": 0, "rental_uris": {"android": "https://dc.lft.to/lastmile_qr_scan", "ios": "https://dc.lft.to/lastmile_qr_scan"}, "fusion_lon": 0.0, "lat": 38.9254365, "bike_id": "de38f898170d8090854e16c154a8398b", "type": "electric_scooter", "is_reserved": 0, "lon": -77.0348925}, {"fusion_lat": 0.0, "name": "21fdcbf0d6e397f50b107ac5c9501382", "is_disabled": 0, "rental_uris": {"android": "https://dc.lft.to/lastmile_qr_scan", "ios": "https://dc.lft.to/lastmile_qr_scan"}, "fusion_lon": 0.0, "lat": 38.90256883333333, "bike_id": "21fdcbf0d6e397f50b107ac5c9501382", "type": "electric_scooter", "is_reserved": 0, "lon": -77.01706916666667}, {"fusion_lat": 0.0, "name": "e370be44c9dd6e321a4e7fc0bad5ab71", "is_disabled": 0, "rental_uris": {"android": "https://dc.lft.to/lastmile_qr_scan", "ios": "https://dc.lft.to/lastmile_qr_scan"}, "fusion_lon": 0.0, "lat": 38.91204316666666, "bike_id": "e370be44c9dd6e321a4e7fc0bad5ab71", "type": "electric_scooter", "is_reserved": 0, "lon": -77.03203433333333}, {"fusion_lat": 0.0, "name": "b387aa0de31a75902769b54ea8e80153", "is_disabled": 0, "rental_uris": {"android": "https://dc.lft.to/lastmile_qr_scan", "ios": "https://dc.lft.to/lastmile_qr_scan"}, "fusion_lon": 0.0, "lat": 38.90980483333333, "bike_id": "b387aa0de31a75902769b54ea8e80153", "type": "electric_scooter", "is_reserved": 0, "lon": -77.0320975}, {"fusion_lat": 0.0, "name": "5d65c3b8d5d69ceef45f15cd28a78629", "is_disabled": 0, "rental_uris": {"android": "https://dc.lft.to/lastmile_qr_scan", "ios": "https://dc.lft.to/lastmile_qr_scan"}, "fusion_lon": 0.0, "lat": 38.92236666666667, "bike_id": "5d65c3b8d5d69ceef45f15cd28a78629", "type": "electric_scooter", "is_reserved": 0, "lon": -77.035214}, {"fusion_lat": 0.0, "name": "7c7429bb9289987df2afdb78db4a9f42", "is_disabled": 0, "rental_uris": {"android": "https://dc.lft.to/lastmile_qr_scan", "ios": "https://dc.lft.to/lastmile_qr_scan"}, "fusion_lon": 0.0, "lat": 38.932006, "bike_id": "7c7429bb9289987df2afdb78db4a9f42", "type": "electric_scooter", "is_reserved": 0, "lon": -77.036643}, {"fusion_lat": 0.0, "name": "e1827ac189b105309dd5943c6055bbd3", "is_disabled": 0, "rental_uris": {"android": "https://dc.lft.to/lastmile_qr_scan", "ios": "https://dc.lft.to/lastmile_qr_scan"}, "fusion_lon": 0.0, "lat": 38.917070833333334, "bike_id": "e1827ac189b105309dd5943c6055bbd3", "type": "electric_scooter", "is_reserved": 0, "lon": -77.042063}, {"fusion_lat": 0.0, "name": "8bb09c3a1dea493295c82abddf14c729", "is_disabled": 0, "rental_uris": {"android": "https://dc.lft.to/lastmile_qr_scan", "ios": "https://dc.lft.to/lastmile_qr_scan"}, "fusion_lon": 0.0, "lat": 38.89223883333333, "bike_id": "8bb09c3a1dea493295c82abddf14c729", "type": "electric_scooter", "is_reserved": 0, "lon": -77.04868683333333}, {"fusion_lat": 0.0, "name": "d148fbdc254bcc777001a0f9ffa0e3a8", "is_disabled": 0, "rental_uris": {"android": "https://dc.lft.to/lastmile_qr_scan", "ios": "https://dc.lft.to/lastmile_qr_scan"}, "fusion_lon": 0.0, "lat": 38.90712466666667, "bike_id": "d148fbdc254bcc777001a0f9ffa0e3a8", "type": "electric_scooter", "is_reserved": 0, "lon": -77.03449183333333}, {"fusion_lat": 0.0, "name": "5ff2f34dca9da4414cce0e8ab4508b24", "is_disabled": 0, "rental_uris": {"android": "https://dc.lft.to/lastmile_qr_scan", "ios": "https://dc.lft.to/lastmile_qr_scan"}, "fusion_lon": 0.0, "lat": 38.855132166666664, "bike_id": "5ff2f34dca9da4414cce0e8ab4508b24", "type": "electric_bike", "is_reserved": 0, "lon": -77.105395}, {"fusion_lat": 0.0, "name": "301376eca4e999bf0b42914c02788122", "is_disabled": 0, "rental_uris": {"android": "https://dc.lft.to/lastmile_qr_scan", "ios": "https://dc.lft.to/lastmile_qr_scan"}, "fusion_lon": 0.0, "lat": 38.905586666666665, "bike_id": "301376eca4e999bf0b42914c02788122", "type": "electric_scooter", "is_reserved": 0, "lon": -77.00550383333334}, {"fusion_lat": 0.0, "name": "49d3940cc359b35d0bc982a0a9d00d9a", "is_disabled": 0, "rental_uris": {"android": "https://dc.lft.to/lastmile_qr_scan", "ios": "https://dc.lft.to/lastmile_qr_scan"}, "fusion_lon": 0.0, "lat": 38.89484, "bike_id": "49d3940cc359b35d0bc982a0a9d00d9a", "type": "electric_scooter", "is_reserved": 0, "lon": -76.99743483333333}, {"fusion_lat": 0.0, "name": "0e6df0ed9b19d21b8c96818497fe32cb", "is_disabled": 0, "rental_uris": {"android": "https://dc.lft.to/lastmile_qr_scan", "ios": "https://dc.lft.to/lastmile_qr_scan"}, "fusion_lon": 0.0, "lat": 38.8961725, "bike_id": "0e6df0ed9b19d21b8c96818497fe32cb", "type": "electric_scooter", "is_reserved": 0, "lon": -76.98571633333333}, {"fusion_lat": 0.0, "name": "c99b05ef38635ce39c3b1029cda5e990", "is_disabled": 0, "rental_uris": {"android": "https://dc.lft.to/lastmile_qr_scan", "ios": "https://dc.lft.to/lastmile_qr_scan"}, "fusion_lon": 0.0, "lat": 38.90513933333333, "bike_id": "c99b05ef38635ce39c3b1029cda5e990", "type": "electric_scooter", "is_reserved": 0, "lon": -77.01719133333333}, {"fusion_lat": 0.0, "name": "77233e9b0c04c165076e62781d8797a0", "is_disabled": 0, "rental_uris": {"android": "https://dc.lft.to/lastmile_qr_scan", "ios": "https://dc.lft.to/lastmile_qr_scan"}, "fusion_lon": 0.0, "lat": 38.9096015, "bike_id": "77233e9b0c04c165076e62781d8797a0", "type": "electric_scooter", "is_reserved": 0, "lon": -77.0394135}, {"fusion_lat": 0.0, "name": "1768959669ed0829f36eb14ed8b7d421", "is_disabled": 0, "rental_uris": {"android": "https://dc.lft.to/lastmile_qr_scan", "ios": "https://dc.lft.to/lastmile_qr_scan"}, "fusion_lon": 0.0, "lat": 38.91222716666667, "bike_id": "1768959669ed0829f36eb14ed8b7d421", "type": "electric_scooter", "is_reserved": 0, "lon": -77.04779833333333}, {"fusion_lat": 0.0, "name": "13c6d551e0821b8e2d11cbc68dac19ba", "is_disabled": 0, "rental_uris": {"android": "https://dc.lft.to/lastmile_qr_scan", "ios": "https://dc.lft.to/lastmile_qr_scan"}, "fusion_lon": 0.0, "lat": 38.959638, "bike_id": "13c6d551e0821b8e2d11cbc68dac19ba", "type": "electric_bike", "is_reserved": 0, "lon": -76.98153616666667}, {"fusion_lat": 0.0, "name": "37b756de2dde91998ec6ef696fb9552b", "is_disabled": 0, "rental_uris": {"android": "https://dc.lft.to/lastmile_qr_scan", "ios": "https://dc.lft.to/lastmile_qr_scan"}, "fusion_lon": 0.0, "lat": 38.89244166666667, "bike_id": "37b756de2dde91998ec6ef696fb9552b", "type": "electric_scooter", "is_reserved": 0, "lon": -77.05025283333333}, {"fusion_lat": 0.0, "name": "06b562353117d3758ac75e5f875b3cce", "is_disabled": 0, "rental_uris": {"android": "https://dc.lft.to/lastmile_qr_scan", "ios": "https://dc.lft.to/lastmile_qr_scan"}, "fusion_lon": 0.0, "lat": 38.91780966666666, "bike_id": "06b562353117d3758ac75e5f875b3cce", "type": "electric_scooter", "is_reserved": 0, "lon": -77.02311566666667}, {"fusion_lat": 0.0, "name": "8f434784bc997a7227931d2b8b3f2ccb", "is_disabled": 0, "rental_uris": {"android": "https://dc.lft.to/lastmile_qr_scan", "ios": "https://dc.lft.to/lastmile_qr_scan"}, "fusion_lon": 0.0, "lat": 38.891017, "bike_id": "8f434784bc997a7227931d2b8b3f2ccb", "type": "electric_scooter", "is_reserved": 0, "lon": -76.9835595}, {"fusion_lat": 0.0, "name": "e7e3768d7411555e601d8ee58f0d7da7", "is_disabled": 0, "rental_uris": {"android": "https://dc.lft.to/lastmile_qr_scan", "ios": "https://dc.lft.to/lastmile_qr_scan"}, "fusion_lon": 0.0, "lat": 38.86517766666667, "bike_id": "e7e3768d7411555e601d8ee58f0d7da7", "type": "electric_bike", "is_reserved": 0, "lon": -76.9733475}, {"fusion_lat": 0.0, "name": "7f4981b9a8f824cf455ea9478edae739", "is_disabled": 0, "rental_uris": {"android": "https://dc.lft.to/lastmile_qr_scan", "ios": "https://dc.lft.to/lastmile_qr_scan"}, "fusion_lon": 0.0, "lat": 38.905394, "bike_id": "7f4981b9a8f824cf455ea9478edae739", "type": "electric_bike", "is_reserved": 0, "lon": -77.059123}, {"fusion_lat": 0.0, "name": "df3c6b7a6866cf5c8cb044001e9bc6bd", "is_disabled": 0, "rental_uris": {"android": "https://dc.lft.to/lastmile_qr_scan", "ios": "https://dc.lft.to/lastmile_qr_scan"}, "fusion_lon": 0.0, "lat": 38.916599, "bike_id": "df3c6b7a6866cf5c8cb044001e9bc6bd", "type": "electric_scooter", "is_reserved": 0, "lon": -77.03853483333333}, {"fusion_lat": 0.0, "name": "f5e9ea06088d986f727b84cc8bc11dc1", "is_disabled": 0, "rental_uris": {"android": "https://dc.lft.to/lastmile_qr_scan", "ios": "https://dc.lft.to/lastmile_qr_scan"}, "fusion_lon": 0.0, "lat": 38.91708583333333, "bike_id": "f5e9ea06088d986f727b84cc8bc11dc1", "type": "electric_scooter", "is_reserved": 0, "lon": -77.03870416666666}, {"fusion_lat": 0.0, "name": "b3a0bf4389bf8a57a0bb711179dda499", "is_disabled": 0, "rental_uris": {"android": "https://dc.lft.to/lastmile_qr_scan", "ios": "https://dc.lft.to/lastmile_qr_scan"}, "fusion_lon": 0.0, "lat": 38.917202, "bike_id": "b3a0bf4389bf8a57a0bb711179dda499", "type": "electric_scooter", "is_reserved": 0, "lon": -77.03188033333333}, {"fusion_lat": 0.0, "name": "306b45cc7584450db0920cf8b1df3953", "is_disabled": 0, "rental_uris": {"android": "https://dc.lft.to/lastmile_qr_scan", "ios": "https://dc.lft.to/lastmile_qr_scan"}, "fusion_lon": 0.0, "lat": 38.87822233333333, "bike_id": "306b45cc7584450db0920cf8b1df3953", "type": "electric_scooter", "is_reserved": 0, "lon": -77.001316}, {"fusion_lat": 0.0, "name": "438b72ac63d1825c1a86c17051b241a0", "is_disabled": 0, "rental_uris": {"android": "https://dc.lft.to/lastmile_qr_scan", "ios": "https://dc.lft.to/lastmile_qr_scan"}, "fusion_lon": 0.0, "lat": 38.849117666666665, "bike_id": "438b72ac63d1825c1a86c17051b241a0", "type": "electric_bike", "is_reserved": 0, "lon": -77.09982966666666}, {"fusion_lat": 0.0, "name": "c98b970c71397b184e2c1c3ecb2e8297", "is_disabled": 0, "rental_uris": {"android": "https://dc.lft.to/lastmile_qr_scan", "ios": "https://dc.lft.to/lastmile_qr_scan"}, "fusion_lon": 0.0, "lat": 38.92814466666667, "bike_id": "c98b970c71397b184e2c1c3ecb2e8297", "type": "electric_scooter", "is_reserved": 0, "lon": -77.04358983333333}, {"fusion_lat": 0.0, "name": "ab98efbb4a6027f5b8b0a348fa7d98d0", "is_disabled": 0, "rental_uris": {"android": "https://dc.lft.to/lastmile_qr_scan", "ios": "https://dc.lft.to/lastmile_qr_scan"}, "fusion_lon": 0.0, "lat": 38.91927283333333, "bike_id": "ab98efbb4a6027f5b8b0a348fa7d98d0", "type": "electric_scooter", "is_reserved": 0, "lon": -77.03175733333333}, {"fusion_lat": 0.0, "name": "047e847f4a0024b4bb2906f5f35ba242", "is_disabled": 0, "rental_uris": {"android": "https://dc.lft.to/lastmile_qr_scan", "ios": "https://dc.lft.to/lastmile_qr_scan"}, "fusion_lon": 0.0, "lat": 38.984728833333335, "bike_id": "047e847f4a0024b4bb2906f5f35ba242", "type": "electric_scooter", "is_reserved": 0, "lon": -77.0264015}, {"fusion_lat": 0.0, "name": "e9acb7a0e7fdc172d9603e1ac6a34cc7", "is_disabled": 0, "rental_uris": {"android": "https://dc.lft.to/lastmile_qr_scan", "ios": "https://dc.lft.to/lastmile_qr_scan"}, "fusion_lon": 0.0, "lat": 38.921329166666666, "bike_id": "e9acb7a0e7fdc172d9603e1ac6a34cc7", "type": "electric_scooter", "is_reserved": 0, "lon": -77.00401933333333}, {"fusion_lat": 0.0, "name": "1c2456a36c4e6bf123013f943700bc63", "is_disabled": 0, "rental_uris": {"android": "https://dc.lft.to/lastmile_qr_scan", "ios": "https://dc.lft.to/lastmile_qr_scan"}, "fusion_lon": 0.0, "lat": 38.90957566666667, "bike_id": "1c2456a36c4e6bf123013f943700bc63", "type": "electric_scooter", "is_reserved": 0, "lon": -77.04608966666666}, {"fusion_lat": 0.0, "name": "0428a0fb491cee7eb39111c22a9dbdf4", "is_disabled": 0, "rental_uris": {"android": "https://dc.lft.to/lastmile_qr_scan", "ios": "https://dc.lft.to/lastmile_qr_scan"}, "fusion_lon": 0.0, "lat": 38.91983033333333, "bike_id": "0428a0fb491cee7eb39111c22a9dbdf4", "type": "electric_scooter", "is_reserved": 0, "lon": -77.04092816666666}, {"fusion_lat": 0.0, "name": "57c4daae397b43e9ede12b93f5304776", "is_disabled": 0, "rental_uris": {"android": "https://dc.lft.to/lastmile_qr_scan", "ios": "https://dc.lft.to/lastmile_qr_scan"}, "fusion_lon": 0.0, "lat": 38.99228766666667, "bike_id": "57c4daae397b43e9ede12b93f5304776", "type": "electric_bike", "is_reserved": 0, "lon": -76.94455233333333}, {"fusion_lat": 0.0, "name": "2d0a4ef3b3c4c47ba97d524cfea1bbeb", "is_disabled": 0, "rental_uris": {"android": "https://dc.lft.to/lastmile_qr_scan", "ios": "https://dc.lft.to/lastmile_qr_scan"}, "fusion_lon": 0.0, "lat": 38.905590833333335, "bike_id": "2d0a4ef3b3c4c47ba97d524cfea1bbeb", "type": "electric_scooter", "is_reserved": 0, "lon": -77.03654366666666}, {"fusion_lat": 0.0, "name": "09e6bfb2259c91b5fabd71bdc1219a02", "is_disabled": 0, "rental_uris": {"android": "https://dc.lft.to/lastmile_qr_scan", "ios": "https://dc.lft.to/lastmile_qr_scan"}, "fusion_lon": 0.0, "lat": 38.908415166666664, "bike_id": "09e6bfb2259c91b5fabd71bdc1219a02", "type": "electric_scooter", "is_reserved": 0, "lon": -77.026977}, {"fusion_lat": 0.0, "name": "b1385590d3b0aba0c3fd1364de930cab", "is_disabled": 0, "rental_uris": {"android": "https://dc.lft.to/lastmile_qr_scan", "ios": "https://dc.lft.to/lastmile_qr_scan"}, "fusion_lon": 0.0, "lat": 38.87735766666667, "bike_id": "b1385590d3b0aba0c3fd1364de930cab", "type": "electric_scooter", "is_reserved": 0, "lon": -76.97033516666667}, {"fusion_lat": 0.0, "name": "96168fd50cf678927facc45ee57fe3ba", "is_disabled": 0, "rental_uris": {"android": "https://dc.lft.to/lastmile_qr_scan", "ios": "https://dc.lft.to/lastmile_qr_scan"}, "fusion_lon": 0.0, "lat": 38.9308365, "bike_id": "96168fd50cf678927facc45ee57fe3ba", "type": "electric_scooter", "is_reserved": 0, "lon": -77.03658983333334}, {"fusion_lat": 0.0, "name": "8340a5150bf264f9a5dd06f99a11abd9", "is_disabled": 0, "rental_uris": {"android": "https://dc.lft.to/lastmile_qr_scan", "ios": "https://dc.lft.to/lastmile_qr_scan"}, "fusion_lon": 0.0, "lat": 38.911111, "bike_id": "8340a5150bf264f9a5dd06f99a11abd9", "type": "electric_bike", "is_reserved": 0, "lon": -77.00259566666666}, {"fusion_lat": 0.0, "name": "6ee0b3673f104f8c0884d85856e70a7a", "is_disabled": 0, "rental_uris": {"android": "https://dc.lft.to/lastmile_qr_scan", "ios": "https://dc.lft.to/lastmile_qr_scan"}, "fusion_lon": 0.0, "lat": 38.95515, "bike_id": "6ee0b3673f104f8c0884d85856e70a7a", "type": "electric_scooter", "is_reserved": 0, "lon": -77.02844833333333}, {"fusion_lat": 0.0, "name": "eb4716ff00cd165f68fd0d9f049245a4", "is_disabled": 0, "rental_uris": {"android": "https://dc.lft.to/lastmile_qr_scan", "ios": "https://dc.lft.to/lastmile_qr_scan"}, "fusion_lon": 0.0, "lat": 38.92502483333333, "bike_id": "eb4716ff00cd165f68fd0d9f049245a4", "type": "electric_scooter", "is_reserved": 0, "lon": -77.05232733333334}, {"fusion_lat": 0.0, "name": "517a228030ced29d2ba5663d84041fa5", "is_disabled": 0, "rental_uris": {"android": "https://dc.lft.to/lastmile_qr_scan", "ios": "https://dc.lft.to/lastmile_qr_scan"}, "fusion_lon": 0.0, "lat": 38.89016, "bike_id": "517a228030ced29d2ba5663d84041fa5", "type": "electric_scooter", "is_reserved": 0, "lon": -76.9373695}, {"fusion_lat": 0.0, "name": "029eadcb777465ce42661922eba88565", "is_disabled": 0, "rental_uris": {"android": "https://dc.lft.to/lastmile_qr_scan", "ios": "https://dc.lft.to/lastmile_qr_scan"}, "fusion_lon": 0.0, "lat": 38.928388, "bike_id": "029eadcb777465ce42661922eba88565", "type": "electric_scooter", "is_reserved": 0, "lon": -76.99345916666667}, {"fusion_lat": 0.0, "name": "6ba8ae8d7554ea32589b09648da2a1f3", "is_disabled": 0, "rental_uris": {"android": "https://dc.lft.to/lastmile_qr_scan", "ios": "https://dc.lft.to/lastmile_qr_scan"}, "fusion_lon": 0.0, "lat": 38.90517766666667, "bike_id": "6ba8ae8d7554ea32589b09648da2a1f3", "type": "electric_scooter", "is_reserved": 0, "lon": -77.03178033333333}, {"fusion_lat": 0.0, "name": "a1bbeee351a547619c0914fb8605aa2e", "is_disabled": 0, "rental_uris": {"android": "https://dc.lft.to/lastmile_qr_scan", "ios": "https://dc.lft.to/lastmile_qr_scan"}, "fusion_lon": 0.0, "lat": 38.93250283333333, "bike_id": "a1bbeee351a547619c0914fb8605aa2e", "type": "electric_scooter", "is_reserved": 0, "lon": -77.03847966666666}, {"fusion_lat": 0.0, "name": "2440597fd4ca33ad5c36ee5760c21cef", "is_disabled": 0, "rental_uris": {"android": "https://dc.lft.to/lastmile_qr_scan", "ios": "https://dc.lft.to/lastmile_qr_scan"}, "fusion_lon": 0.0, "lat": 38.9375915, "bike_id": "2440597fd4ca33ad5c36ee5760c21cef", "type": "electric_bike", "is_reserved": 0, "lon": -76.95823766666666}, {"fusion_lat": 0.0, "name": "9548d1bb7554f61308890fcdd788dce9", "is_disabled": 0, "rental_uris": {"android": "https://dc.lft.to/lastmile_qr_scan", "ios": "https://dc.lft.to/lastmile_qr_scan"}, "fusion_lon": 0.0, "lat": 38.90758733333333, "bike_id": "9548d1bb7554f61308890fcdd788dce9", "type": "electric_scooter", "is_reserved": 0, "lon": -77.00027633333333}, {"fusion_lat": 0.0, "name": "b5c4af55a693df2e2be7256d5e259792", "is_disabled": 0, "rental_uris": {"android": "https://dc.lft.to/lastmile_qr_scan", "ios": "https://dc.lft.to/lastmile_qr_scan"}, "fusion_lon": 0.0, "lat": 38.9327775, "bike_id": "b5c4af55a693df2e2be7256d5e259792", "type": "electric_scooter", "is_reserved": 0, "lon": -77.04087416666667}, {"fusion_lat": 0.0, "name": "278822bb28056df7540d60fe5dab4281", "is_disabled": 0, "rental_uris": {"android": "https://dc.lft.to/lastmile_qr_scan", "ios": "https://dc.lft.to/lastmile_qr_scan"}, "fusion_lon": 0.0, "lat": 38.916372, "bike_id": "278822bb28056df7540d60fe5dab4281", "type": "electric_scooter", "is_reserved": 0, "lon": -77.01074116666666}, {"fusion_lat": 0.0, "name": "b17485ca67e285acdf94e65bcb4e3009", "is_disabled": 0, "rental_uris": {"android": "https://dc.lft.to/lastmile_qr_scan", "ios": "https://dc.lft.to/lastmile_qr_scan"}, "fusion_lon": 0.0, "lat": 38.9256425, "bike_id": "b17485ca67e285acdf94e65bcb4e3009", "type": "electric_scooter", "is_reserved": 0, "lon": -77.03556733333333}, {"fusion_lat": 0.0, "name": "3737398edc54361aa8dfed8434634c23", "is_disabled": 0, "rental_uris": {"android": "https://dc.lft.to/lastmile_qr_scan", "ios": "https://dc.lft.to/lastmile_qr_scan"}, "fusion_lon": 0.0, "lat": 38.902651, "bike_id": "3737398edc54361aa8dfed8434634c23", "type": "electric_scooter", "is_reserved": 0, "lon": -77.05333816666666}, {"fusion_lat": 0.0, "name": "2def72a677c7396fc03cb3115335d348", "is_disabled": 0, "rental_uris": {"android": "https://dc.lft.to/lastmile_qr_scan", "ios": "https://dc.lft.to/lastmile_qr_scan"}, "fusion_lon": 0.0, "lat": 38.931275, "bike_id": "2def72a677c7396fc03cb3115335d348", "type": "electric_scooter", "is_reserved": 0, "lon": -77.03602333333333},