{"data": {"bikes": [{"name": "ce1756fde79ecaf05f1bee1b1e399a40", "fusion_lon": 0.0, "lat": 38.90253283333333, "is_reserved": 0, "type": "electric_scooter", "bike_id": "ce1756fde79ecaf05f1bee1b1e399a40", "is_disabled": 0, "rental_uris": {"android": "https://dc.lft.to/lastmile_qr_scan", "ios": "https://dc.lft.to/lastmile_qr_scan"}, "lon": -77.01763566666666, "fusion_lat": 0.0}, {"name": "d9055a8e73e78ef6519c91c560a25535", "fusion_lon": 0.0, "lat": 38.90412166666667, "is_reserved": 0, "type": "electric_scooter", "bike_id": "d9055a8e73e78ef6519c91c560a25535", "is_disabled": 0, "rental_uris": {"android": "https://dc.lft.to/lastmile_qr_scan", "ios": "https://dc.lft.to/lastmile_qr_scan"}, "lon": -76.97329666666667, "fusion_lat": 0.0}, {"name": "169888e6adae7352f78fb82ebe8680f1", "fusion_lon": 0.0, "lat": 38.921709, "is_reserved": 0, "type": "electric_scooter", "bike_id": "169888e6adae7352f78fb82ebe8680f1", "is_disabled": 0, "rental_uris": {"android": "https://dc.lft.to/lastmile_qr_scan", "ios": "https://dc.lft.to/lastmile_qr_scan"}, "lon": -77.01917916666666, "fusion_lat": 0.0}, {"name": "5a696907d075338ac2b0d46b22d6a938", "fusion_lon": 0.0, "lat": 38.90065083333333, "is_reserved": 0, "type": "electric_scooter", "bike_id": "5a696907d075338ac2b0d46b22d6a938", "is_disabled": 0, "rental_uris": {"android": "https://dc.lft.to/lastmile_qr_scan", "ios": "https://dc.lft.to/lastmile_qr_scan"}, "lon": -76.98709733333334, "fusion_lat": 0.0}, {"name": "103d16b41a8ad682bc194c304ec325c0", "fusion_lon": 0.0, "lat": 38.957308, "is_reserved": 0, "type": "electric_scooter", "bike_id": "103d16b41a8ad682bc194c304ec325c0", "is_disabled": 0, "rental_uris": {"android": "https://dc.lft.to/lastmile_qr_scan", "ios": "https://dc.lft.to/lastmile_qr_scan"}, "lon": -77.02407616666666, "fusion_lat": 0.0}, {"name": "39d69b1d3026588094c1bb8589092adf", "fusion_lon": 0.0, "lat": 38.95152733333333, "is_reserved": 0, "type": "electric_scooter", "bike_id": "39d69b1d3026588094c1bb8589092adf", "is_disabled": 0, "rental_uris": {"android": "https://dc.lft.to/lastmile_qr_scan", "ios": "https://dc.lft.to/lastmile_qr_scan"}, "lon": -77.01871233333334, "fusion_lat": 0.0}, {"name": "0ce14b1d1965719b2dd98c671beaf1b4", "fusion_lon": 0.0, "lat": 38.916401666666665, "is_reserved": 0, "type": "electric_scooter", "bike_id": "0ce14b1d1965719b2dd98c671beaf1b4", "is_disabled": 0, "rental_uris": {"android": "https://dc.lft.to/lastmile_qr_scan", "ios": "https://dc.lft.to/lastmile_qr_scan"}, "lon": -77.02246866666667, "fusion_lat": 0.0}, {"name": "3b8179dea0ba493d134584262ab3fdc1", "fusion_lon": 0.0, "lat": 38.9170815, "is_reserved": 0, "type": "electric_scooter", "bike_id": "3b8179dea0ba493d134584262ab3fdc1", "is_disabled": 0, "rental_uris": {"android": "https://dc.lft.to/lastmile_qr_scan", "ios": "https://dc.lft.to/lastmile_qr_scan"}, "lon": -77.095801, "fusion_lat": 0.0}, {"name": "57b704d8a25d6d6d2d0bb77889e9a817", "fusion_lon": 0.0, "lat": 38.89825, "is_reserved": 0, "type": "electric_scooter", "bike_id": "57b704d8a25d6d6d2d0bb77889e9a817", "is_disabled": 0, "rental_uris": {"android": "https://dc.lft.to/lastmile_qr_scan", "ios": "https://dc.lft.to/lastmile_qr_scan"}, "lon": -77.02580166666667, "fusion_lat": 0.0}, {"name": "27d5d64e1632517a8a653a60528a2f06", "fusion_lon": 0.0, "lat": 38.917850666666666, "is_reserved": 0, "type": "electric_scooter", "bike_id": "27d5d64e1632517a8a653a60528a2f06", "is_disabled": 0, "rental_uris": {"android": "https://dc.lft.to/lastmile_qr_scan", "ios": "https://dc.lft.to/lastmile_qr_scan"}, "lon": -77.04216816666667, "fusion_lat": 0.0}, {"name": "6d0a3d17ae4d11e4158178d36472656c", "fusion_lon": 0.0, "lat": 38.90422066666667, "is_reserved": 0, "type": "electric_scooter", "bike_id": "6d0a3d17ae4d11e4158178d36472656c", "is_disabled": 0, "rental_uris": {"android": "https://dc.lft.to/lastmile_qr_scan", "ios": "https://dc.lft.to/lastmile_qr_scan"}, "lon": -77.04996816666667, "fusion_lat": 0.0}, {"name": "22e161ad5f7aa2e95c791f39f84346db", "fusion_lon": 0.0, "lat": 38.900791166666664, "is_reserved": 0, "type": "electric_scooter", "bike_id": "22e161ad5f7aa2e95c791f39f84346db", "is_disabled": 0, "rental_uris": {"android": "https://dc.lft.to/lastmile_qr_scan", "ios": "https://dc.lft.to/lastmile_qr_scan"}, "lon": -77.04990233333334, "fusion_lat": 0.0}, {"name": "d61236e0ad7bde32f945476df8a93fc5", "fusion_lon": 0.0, "lat": 38.89222633333333, "is_reserved": 0, "type": "electric_scooter", "bike_id": "d61236e0ad7bde32f945476df8a93fc5", "is_disabled": 0, "rental_uris": {"android": "https://dc.lft.to/lastmile_qr_scan", "ios": "https://dc.lft.to/lastmile_qr_scan"}, "lon": -77.04859766666667, "fusion_lat": 0.0}, {"name": "4a94c01d83dc5b36d1843f869670b2c4", "fusion_lon": 0.0, "lat": 38.9067215, "is_reserved": 0, "type": "electric_scooter", "bike_id": "4a94c01d83dc5b36d1843f869670b2c4", "is_disabled": 0, "rental_uris": {"android": "https://dc.lft.to/lastmile_qr_scan", "ios": "https://dc.lft.to/lastmile_qr_scan"}, "lon": -77.03864783333333, "fusion_lat": 0.0}, {"name": "66cec0682e067976d372d45252385818", "fusion_lon": 0.0, "lat": 38.918958833333335, "is_reserved": 0, "type": "electric_scooter", "bike_id": "66cec0682e067976d372d45252385818", "is_disabled": 0, "rental_uris": {"android": "https://dc.lft.to/lastmile_qr_scan", "ios": "https://dc.lft.to/lastmile_qr_scan"}, "lon": -77.02300783333334, "fusion_lat": 0.0}, {"name": "7de7058393d9f6f45f93f1a2181111ed", "fusion_lon": 0.0, "lat": 38.91305583333333, "is_reserved": 0, "type": "electric_scooter", "bike_id": "7de7058393d9f6f45f93f1a2181111ed", "is_disabled": 0, "rental_uris": {"android": "https://dc.lft.to/lastmile_qr_scan", "ios": "https://dc.lft.to/lastmile_qr_scan"}, "lon": -77.06673433333333, "fusion_lat": 0.0}, {"name": "48a1c1872d5b3be756880d7b7d3116c9", "fusion_lon": 0.0, "lat": 38.90255833333333, "is_reserved": 0, "type": "electric_scooter", "bike_id": "48a1c1872d5b3be756880d7b7d3116c9", "is_disabled": 0, "rental_uris": {"android": "https://dc.lft.to/lastmile_qr_scan", "ios": "https://dc.lft.to/lastmile_qr_scan"}, "lon": -77.02423183333333, "fusion_lat": 0.0}, {"name": "fa0fb7211e65774d3b772511f0ed7628", "fusion_lon": 0.0, "lat": 38.931832666666665, "is_reserved": 0, "type": "electric_scooter", "bike_id": "fa0fb7211e65774d3b772511f0ed7628", "is_disabled": 0, "rental_uris": {"android": "https://dc.lft.to/lastmile_qr_scan", "ios": "https://dc.lft.to/lastmile_qr_scan"}, "lon": -77.03657716666666, "fusion_lat": 0.0}, {"name": "c5eaac465fe7a4ae0724e8b1bb21216f", "fusion_lon": 0.0, "lat": 38.954766, "is_reserved": 0, "type": "electric_scooter", "bike_id": "c5eaac465fe7a4ae0724e8b1bb21216f", "is_disabled": 0, "rental_uris": {"android": "https://dc.lft.to/lastmile_qr_scan", "ios": "https://dc.lft.to/lastmile_qr_scan"}, "lon": -77.02229016666666, "fusion_lat": 0.0}, {"name": "21d8f5af8ee1866b8ce73c30ed767de4", "fusion_lon": 0.0, "lat": 38.923264, "is_reserved": 0, "type": "electric_scooter", "bike_id": "21d8f5af8ee1866b8ce73c30ed767de4", "is_disabled": 0, "rental_uris": {"android": "https://dc.lft.to/lastmile_qr_scan", "ios": "https://dc.lft.to/lastmile_qr_scan"}, "lon": -77.00052616666666, "fusion_lat": 0.0}, {"name": "21d503953ef5f5d8f374a8466e78ded0", "fusion_lon": 0.0, "lat": 38.8871345, "is_reserved": 0, "type": "electric_scooter", "bike_id": "21d503953ef5f5d8f374a8466e78ded0", "is_disabled": 0, "rental_uris": {"android": "https://dc.lft.to/lastmile_qr_scan", "ios": "https://dc.lft.to/lastmile_qr_scan"}, "lon": -77.003462, "fusion_lat": 0.0}, {"name": "205d618526598d0409a3cdeb4a2de2ee", "fusion_lon": 0.0, "lat": 38.90819466666667, "is_reserved": 0, "type": "electric_scooter", "bike_id": "205d618526598d0409a3cdeb4a2de2ee", "is_disabled": 0, "rental_uris": {"android": "https://dc.lft.to/lastmile_qr_scan", "ios": "https://dc.lft.to/lastmile_qr_scan"}, "lon": -77.03945416666667, "fusion_lat": 0.0}, {"name": "c33ad81e44a2830407ee7f5ed6587beb", "fusion_lon": 0.0, "lat": 38.91401316666666, "is_reserved": 0, "type": "electric_scooter", "bike_id": "c33ad81e44a2830407ee7f5ed6587beb", "is_disabled": 0, "rental_uris": {"android": "https://dc.lft.to/lastmile_qr_scan", "ios": "https://dc.lft.to/lastmile_qr_scan"}, "lon": -77.02659083333333, "fusion_lat": 0.0}, {"name": "9f71008fafbd606dd90240f6623f1c8b", "fusion_lon": 0.0, "lat": 38.90064916666667, "is_reserved": 0, "type": "electric_scooter", "bike_id": "9f71008fafbd606dd90240f6623f1c8b", "is_disabled": 0, "rental_uris": {"android": "https://dc.lft.to/lastmile_qr_scan", "ios": "https://dc.lft.to/lastmile_qr_scan"}, "lon": -76.92748383333333, "fusion_lat": 0.0}, {"name": "07ed6203efb5d7eba9417ebd085d7683", "fusion_lon": 0.0, "lat": 39.05787433333333, "is_reserved": 0, "type": "electric_bike", "bike_id": "07ed6203efb5d7eba9417ebd085d7683", "is_disabled": 0, "rental_uris": {"android": "https://dc.lft.to/lastmile_qr_scan", "ios": "https://dc.lft.to/lastmile_qr_scan"}, "lon": -77.1502395, "fusion_lat": 0.0}, {"name": "dc08c60f2db855ee717621b99f42d7cd", "fusion_lon": 0.0, "lat": 38.9211585, "is_reserved": 0, "type": "electric_scooter", "bike_id": "dc08c60f2db855ee717621b99f42d7cd", "is_disabled": 0, "rental_uris": {"android": "https://dc.lft.to/lastmile_qr_scan", "ios": "https://dc.lft.to/lastmile_qr_scan"}, "lon": -77.01767866666667, "fusion_lat": 0.0}, {"name": "cff4b6d83d76e6d26754907618b372ae", "fusion_lon": 0.0, "lat": 38.846198333333334, "is_reserved": 0, "type": "electric_scooter", "bike_id": "cff4b6d83d76e6d26754907618b372ae", "is_disabled": 0, "rental_uris": {"android": "https://dc.lft.to/lastmile_qr_scan", "ios": "https://dc.lft.to/lastmile_qr_scan"}, "lon": -76.98133266666666, "fusion_lat": 0.0}, {"name": "b304aabb280ee0793fe5de02b63fcfb0", "fusion_lon": 0.0, "lat": 38.9267485, "is_reserved": 0, "type": "electric_scooter", "bike_id": "b304aabb280ee0793fe5de02b63fcfb0", "is_disabled": 0, "rental_uris": {"android": "https://dc.lft.to/lastmile_qr_scan", "ios": "https://dc.lft.to/lastmile_qr_scan"}, "lon": -77.015141, "fusion_lat": 0.0}, {"name": "85e5d08ef50d491fd2116ba35fa6670f", "fusion_lon": 0.0, "lat": 38.85695, "is_reserved": 0, "type": "electric_scooter", "bike_id": "85e5d08ef50d491fd2116ba35fa6670f", "is_disabled": 0, "rental_uris": {"android": "https://dc.lft.to/lastmile_qr_scan", "ios": "https://dc.lft.to/lastmile_qr_scan"}, "lon": -76.98972616666667, "fusion_lat": 0.0}, {"name": "bd53a2d98ef097accd97beb24fde36c6", "fusion_lon": 0.0, "lat": 38.93009966666666, "is_reserved": 0, "type": "electric_scooter", "bike_id": "bd53a2d98ef097accd97beb24fde36c6", "is_disabled": 0, "rental_uris": {"android": "https://dc.lft.to/lastmile_qr_scan", "ios": "https://dc.lft.to/lastmile_qr_scan"}, "lon": -77.01433916666667, "fusion_lat": 0.0}, {"name": "e4a3e51b9178d4be0d4a826e03f2cbd1", "fusion_lon": 0.0, "lat": 38.900592333333336, "is_reserved": 0, "type": "electric_scooter", "bike_id": "e4a3e51b9178d4be0d4a826e03f2cbd1", "is_disabled": 0, "rental_uris": {"android": "https://dc.lft.to/lastmile_qr_scan", "ios": "https://dc.lft.to/lastmile_qr_scan"}, "lon": -76.934749, "fusion_lat": 0.0}, {"name": "0913821218da60f735ac267a0ebf5627", "fusion_lon": 0.0, "lat": 38.9246175, "is_reserved": 0, "type": "electric_scooter", "bike_id": "0913821218da60f735ac267a0ebf5627", "is_disabled": 0, "rental_uris": {"android": "https://dc.lft.to/lastmile_qr_scan", "ios": "https://dc.lft.to/lastmile_qr_scan"}, "lon": -77.00210033333333, "fusion_lat": 0.0}, {"name": "f3efd1626cd4e2e3db7fda6b3bea2b5a", "fusion_lon": 0.0, "lat": 38.90583566666667, "is_reserved": 0, "type": "electric_scooter", "bike_id": "f3efd1626cd4e2e3db7fda6b3bea2b5a", "is_disabled": 0, "rental_uris": {"android": "https://dc.lft.to/lastmile_qr_scan", "ios": "https://dc.lft.to/lastmile_qr_scan"}, "lon": -77.07022266666667, "fusion_lat": 0.0}, {"name": "9b35dde1a685176204988d8362ecfbd8", "fusion_lon": 0.0, "lat": 38.918425, "is_reserved": 0, "type": "electric_scooter", "bike_id": "9b35dde1a685176204988d8362ecfbd8", "is_disabled": 0, "rental_uris": {"android": "https://dc.lft.to/lastmile_qr_scan", "ios": "https://dc.lft.to/lastmile_qr_scan"}, "lon": -77.02197633333333, "fusion_lat": 0.0}, {"name": "06af3248b3452739b24592ca7320f713", "fusion_lon": 0.0, "lat": 38.92409216666667, "is_reserved": 0, "type": "electric_scooter", "bike_id": "06af3248b3452739b24592ca7320f713", "is_disabled": 0, "rental_uris": {"android": "https://dc.lft.to/lastmile_qr_scan", "ios": "https://dc.lft.to/lastmile_qr_scan"}, "lon": -77.04453033333333, "fusion_lat": 0.0}, {"name": "380c8e1503da690eef2d332b44751c0d", "fusion_lon": 0.0, "lat": 38.893499166666665, "is_reserved": 0, "type": "electric_scooter", "bike_id": "380c8e1503da690eef2d332b44751c0d", "is_disabled": 0, "rental_uris": {"android": "https://dc.lft.to/lastmile_qr_scan", "ios": "https://dc.lft.to/lastmile_qr_scan"}, "lon": -77.02875483333334, "fusion_lat": 0.0}, {"name": "6a9c7af8bccdb73995ead26c0ec0fd0e", "fusion_lon": 0.0, "lat": 38.908821333333336, "is_reserved": 0, "type": "electric_scooter", "bike_id": "6a9c7af8bccdb73995ead26c0ec0fd0e", "is_disabled": 0, "rental_uris": {"android": "https://dc.lft.to/lastmile_qr_scan", "ios": "https://dc.lft.to/lastmile_qr_scan"}, "lon": -77.03760133333333, "fusion_lat": 0.0}, {"name": "74cec7da24f9d66eca6e6b410a41d1c2", "fusion_lon": 0.0, "lat": 38.901536166666666, "is_reserved": 0, "type": "electric_scooter", "bike_id": "74cec7da24f9d66eca6e6b410a41d1c2", "is_disabled": 0, "rental_uris": {"android": "https://dc.lft.to/lastmile_qr_scan", "ios": "https://dc.lft.to/lastmile_qr_scan"}, "lon": -76.93061066666667, "fusion_lat": 0.0}, {"name": "dde31560a4e8fe218e79cd9670d85e34", "fusion_lon": 0.0, "lat": 38.96452216666667, "is_reserved": 0, "type": "electric_scooter", "bike_id": "dde31560a4e8fe218e79cd9670d85e34", "is_disabled": 0, "rental_uris": {"android": "https://dc.lft.to/lastmile_qr_scan", "ios": "https://dc.lft.to/lastmile_qr_scan"}, "lon": -77.075122, "fusion_lat": 0.0}, {"name": "35b543c647b6eaa5bba30067b3573fc4", "fusion_lon": 0.0, "lat": 38.91268516666667, "is_reserved": 0, "type": "electric_scooter", "bike_id": "35b543c647b6eaa5bba30067b3573fc4", "is_disabled": 0, "rental_uris": {"android": "https://dc.lft.to/lastmile_qr_scan", "ios": "https://dc.lft.to/lastmile_qr_scan"}, "lon": -77.02694316666667, "fusion_lat": 0.0}, {"name": "abab276419b7810b054cf4b20facd1df", "fusion_lon": 0.0, "lat": 38.90378066666667, "is_reserved": 0, "type": "electric_scooter", "bike_id": "abab276419b7810b054cf4b20facd1df", "is_disabled": 0, "rental_uris": {"android": "https://dc.lft.to/lastmile_qr_scan", "ios": "https://dc.lft.to/lastmile_qr_scan"}, "lon": -76.93759033333333, "fusion_lat": 0.0}, {"name": "ff1a57140026adaa965241ffdab4a3fd", "fusion_lon": 0.0, "lat": 38.90002666666667, "is_reserved": 0, "type": "electric_bike", "bike_id": "ff1a57140026adaa965241ffdab4a3fd", "is_disabled": 0, "rental_uris": {"android": "https://dc.lft.to/lastmile_qr_scan", "ios": "https://dc.lft.to/lastmile_qr_scan"}, "lon": -77.04297883333334, "fusion_lat": 0.0}, {"name": "2f4d71347ed3ec2b868ee95cc3a1d600", "fusion_lon": 0.0, "lat": 38.920122, "is_reserved": 0, "type": "electric_scooter", "bike_id": "2f4d71347ed3ec2b868ee95cc3a1d600", "is_disabled": 0, "rental_uris": {"android": "https://dc.lft.to/lastmile_qr_scan", "ios": "https://dc.lft.to/lastmile_qr_scan"}, "lon": -77.019461, "fusion_lat": 0.0}, {"name": "788e84c94b90a90e4474d92c3e9269c4", "fusion_lon": 0.0, "lat": 39.06295766666667, "is_reserved": 0, "type": "electric_bike", "bike_id": "788e84c94b90a90e4474d92c3e9269c4", "is_disabled": 0, "rental_uris": {"android": "https://dc.lft.to/lastmile_qr_scan", "ios": "https://dc.lft.to/lastmile_qr_scan"}, "lon": -77.04980033333334, "fusion_lat": 0.0}, {"name": "a874fdef35bf69ad9ae263032762fa25", "fusion_lon": 0.0, "lat": 38.9035285, "is_reserved": 0, "type": "electric_scooter", "bike_id": "a874fdef35bf69ad9ae263032762fa25", "is_disabled": 0, "rental_uris": {"android": "https://dc.lft.to/lastmile_qr_scan", "ios": "https://dc.lft.to/lastmile_qr_scan"}, "lon": -77.03932516666667, "fusion_lat": 0.0}, {"name": "064b70c0bf491645e2334b1400b9f8f0", "fusion_lon": 0.0, "lat": 38.909428, "is_reserved": 0, "type": "electric_scooter", "bike_id": "064b70c0bf491645e2334b1400b9f8f0", "is_disabled": 0, "rental_uris": {"android": "https://dc.lft.to/lastmile_qr_scan", "ios": "https://dc.lft.to/lastmile_qr_scan"}, "lon": -77.03208016666666, "fusion_lat": 0.0}, {"name": "69eec3ce6901d4ac3fe8cb192747c9f7", "fusion_lon": 0.0, "lat": 38.9038775, "is_reserved": 0, "type": "electric_scooter", "bike_id": "69eec3ce6901d4ac3fe8cb192747c9f7", "is_disabled": 0, "rental_uris": {"android": "https://dc.lft.to/lastmile_qr_scan", "ios": "https://dc.lft.to/lastmile_qr_scan"}, "lon": -77.044739, "fusion_lat": 0.0}, {"name": "723de661d381e5621d659ecd7785d482", "fusion_lon": 0.0, "lat": 38.90787066666667, "is_reserved": 0, "type": "electric_scooter", "bike_id": "723de661d381e5621d659ecd7785d482", "is_disabled": 0, "rental_uris": {"android": "https://dc.lft.to/lastmile_qr_scan", "ios": "https://dc.lft.to/lastmile_qr_scan"}, "lon": -77.01111866666666, "fusion_lat": 0.0}, {"name": "3485b0eedbc268bf4554a43da84336ef", "fusion_lon": 0.0, "lat": 38.89825316666666, "is_reserved": 0, "type": "electric_scooter", "bike_id": "3485b0eedbc268bf4554a43da84336ef", "is_disabled": 0, "rental_uris": {"android": "https://dc.lft.to/lastmile_qr_scan", "ios": "https://dc.lft.to/lastmile_qr_scan"}, "lon": -77.03329483333333, "fusion_lat": 0.0}, {"name": "be76d5005a887e3e9651f3fc39f70ccd", "fusion_lon": 0.0, "lat": 38.933795833333335, "is_reserved": 0, "type": "electric_scooter", "bike_id": "be76d5005a887e3e9651f3fc39f70ccd", "is_disabled": 0, "rental_uris": {"android": "https://dc.lft.to/lastmile_qr_scan", "ios": "https://dc.lft.to/lastmile_qr_scan"}, "lon": -77.030978, "fusion_lat": 0.0}, {"name": "e763a6555fa79aeabc5b7480602a4e03", "fusion_lon": 0.0, "lat": 38.903692, "is_reserved": 0, "type": "electric_scooter", "bike_id": "e763a6555fa79aeabc5b7480602a4e03", "is_disabled": 0, "rental_uris": {"android": "https://dc.lft.to/lastmile_qr_scan", "ios": "https://dc.lft.to/lastmile_qr_scan"}, "lon": -77.044955, "fusion_lat": 0.0}, {"name": "747528df5c2900584a0148754fa8924c", "fusion_lon": 0.0, "lat": 38.901384166666666, "is_reserved": 0, "type": "electric_scooter", "bike_id": "747528df5c2900584a0148754fa8924c", "is_disabled": 0, "rental_uris": {"android": "https://dc.lft.to/lastmile_qr_scan", "ios": "https://dc.lft.to/lastmile_qr_scan"}, "lon": -77.03374816666667, "fusion_lat": 0.0}, {"name": "1a2b4f34ccc3daa02fd2c252cb53555d", "fusion_lon": 0.0, "lat": 38.896796, "is_reserved": 0, "type": "electric_scooter", "bike_id": "1a2b4f34ccc3daa02fd2c252cb53555d", "is_disabled": 0, "rental_uris": {"android": "https://dc.lft.to/lastmile_qr_scan", "ios": "https://dc.lft.to/lastmile_qr_scan"}, "lon": -77.03214483333333, "fusion_lat": 0.0}, {"name": "771f7aeafb03b9d0eecf21492441ffaf", "fusion_lon": 0.0, "lat": 38.89353933333334, "is_reserved": 0, "type": "electric_scooter", "bike_id": "771f7aeafb03b9d0eecf21492441ffaf", "is_disabled": 0, "rental_uris": {"android": "https://dc.lft.to/lastmile_qr_scan", "ios": "https://dc.lft.to/lastmile_qr_scan"}, "lon": -77.00338716666667, "fusion_lat": 0.0}, {"name": "777e798300ca999e7dda956a3e7f8f7b", "fusion_lon": 0.0, "lat": 38.93364966666667, "is_reserved": 0, "type": "electric_scooter", "bike_id": "777e798300ca999e7dda956a3e7f8f7b", "is_disabled": 0, "rental_uris": {"android": "https://dc.lft.to/lastmile_qr_scan", "ios": "https://dc.lft.to/lastmile_qr_scan"}, "lon": -77.08856166666666, "fusion_lat": 0.0}, {"name": "8d6ec8a3779104d4e06a0557d190be84", "fusion_lon": 0.0, "lat": 38.9057335, "is_reserved": 0, "type": "electric_scooter", "bike_id": "8d6ec8a3779104d4e06a0557d190be84", "is_disabled": 0, "rental_uris": {"android": "https://dc.lft.to/lastmile_qr_scan", "ios": "https://dc.lft.to/lastmile_qr_scan"}, "lon": -77.03441666666667, "fusion_lat": 0.0}, {"name": "6e535b5d4dd5f9d2eb5dac15cdb0fc8f", "fusion_lon": 0.0, "lat": 38.902527666666664, "is_reserved": 0, "type": "electric_scooter", "bike_id": "6e535b5d4dd5f9d2eb5dac15cdb0fc8f", "is_disabled": 0, "rental_uris": {"android": "https://dc.lft.to/lastmile_qr_scan", "ios": "https://dc.lft.to/lastmile_qr_scan"}, "lon": -77.02827383333333, "fusion_lat": 0.0}, {"name": "799db5720344443ea3f135afc4374cd2", "fusion_lon": 0.0, "lat": 38.92156666666666, "is_reserved": 0, "type": "electric_scooter", "bike_id": "799db5720344443ea3f135afc4374cd2", "is_disabled": 0, "rental_uris": {"android": "https://dc.lft.to/lastmile_qr_scan", "ios": "https://dc.lft.to/lastmile_qr_scan"}, "lon": -77.03380666666666, "fusion_lat": 0.0}, {"name": "5f3c28f5204a882961868e9ac78b4e99", "fusion_lon": 0.0, "lat": 38.879342666666666, "is_reserved": 0, "type": "electric_scooter", "bike_id": "5f3c28f5204a882961868e9ac78b4e99", "is_disabled": 0, "rental_uris": {"android": "https://dc.lft.to/lastmile_qr_scan", "ios": "https://dc.lft.to/lastmile_qr_scan"}, "lon": -77.01466633333334, "fusion_lat": 0.0}, {"name": "0f2b8402a4b45ef5fe53a3103a877839", "fusion_lon": 0.0, "lat": 38.908562833333335, "is_reserved": 0, "type": "electric_scooter", "bike_id": "0f2b8402a4b45ef5fe53a3103a877839", "is_disabled": 0, "rental_uris": {"android": "https://dc.lft.to/lastmile_qr_scan", "ios": "https://dc.lft.to/lastmile_qr_scan"}, "lon": -77.04266883333334, "fusion_lat": 0.0}, {"name": "9382982eda5a9628079c106d5a76607d", "fusion_lon": 0.0, "lat": 38.932322166666665, "is_reserved": 0, "type": "electric_scooter", "bike_id": "9382982eda5a9628079c106d5a76607d", "is_disabled": 0, "rental_uris": {"android": "https://dc.lft.to/lastmile_qr_scan", "ios": "https://dc.lft.to/lastmile_qr_scan"}, "lon": -76.996153, "fusion_lat": 0.0}, {"name": "6ff2fe9228efcbd0b84e8985987661f8", "fusion_lon": 0.0, "lat": 38.933372166666665, "is_reserved": 0, "type": "electric_scooter", "bike_id": "6ff2fe9228efcbd0b84e8985987661f8", "is_disabled": 0, "rental_uris": {"android": "https://dc.lft.to/lastmile_qr_scan", "ios": "https://dc.lft.to/lastmile_qr_scan"}, "lon": -77.03883733333333, "fusion_lat": 0.0}, {"name": "f3a2ee9dfa4a978f6cf20ab3440ed0be", "fusion_lon": 0.0, "lat": 38.92618316666667, "is_reserved": 0, "type": "electric_scooter", "bike_id": "f3a2ee9dfa4a978f6cf20ab3440ed0be", "is_disabled": 0, "rental_uris": {"android": "https://dc.lft.to/lastmile_qr_scan", "ios": "https://dc.lft.to/lastmile_qr_scan"}, "lon": -77.04325966666667, "fusion_lat": 0.0}, {"name": "6f46617b8f9b084d3daac7eee8cbdadd", "fusion_lon": 0.0, "lat": 38.88054866666667, "is_reserved": 0, "type": "electric_scooter", "bike_id": "6f46617b8f9b084d3daac7eee8cbdadd", "is_disabled": 0, "rental_uris": {"android": "https://dc.lft.to/lastmile_qr_scan", "ios": "https://dc.lft.to/lastmile_qr_scan"}, "lon": -76.93211166666667, "fusion_lat": 0.0}, {"name": "78a21064166efbc90b0bcbb588817f35", "fusion_lon": 0.0, "lat": 38.9055195, "is_reserved": 0, "type": "electric_scooter", "bike_id": "78a21064166efbc90b0bcbb588817f35", "is_disabled": 0, "rental_uris": {"android": "https://dc.lft.to/lastmile_qr_scan", "ios": "https://dc.lft.to/lastmile_qr_scan"}, "lon": -77.03506866666666, "fusion_lat": 0.0}, {"name": "b5365131cfa96c92f3ad2f695a87d0a6", "fusion_lon": 0.0, "lat": 38.922364, "is_reserved": 0, "type": "electric_scooter", "bike_id": "b5365131cfa96c92f3ad2f695a87d0a6", "is_disabled": 0, "rental_uris": {"android": "https://dc.lft.to/lastmile_qr_scan", "ios": "https://dc.lft.to/lastmile_qr_scan"}, "lon": -77.03518183333334, "fusion_lat": 0.0}, {"name": "2441e183ac37b760b6ee2dbd045bbe59", "fusion_lon": 0.0, "lat": 38.904276333333335, "is_reserved": 0, "type": "electric_scooter", "bike_id": "2441e183ac37b760b6ee2dbd045bbe59", "is_disabled": 0, "rental_uris": {"android": "https://dc.lft.to/lastmile_qr_scan", "ios": "https://dc.lft.to/lastmile_qr_scan"}, "lon": -77.0436795, "fusion_lat": 0.0}, {"name": "a180c25657cdec6f0851ebed84486ef1", "fusion_lon": 0.0, "lat": 38.90122083333333, "is_reserved": 0, "type": "electric_scooter", "bike_id": "a180c25657cdec6f0851ebed84486ef1", "is_disabled": 0, "rental_uris": {"android": "https://dc.lft.to/lastmile_qr_scan", "ios": "https://dc.lft.to/lastmile_qr_scan"}, "lon": -77.02684633333334, "fusion_lat": 0.0}, {"name": "3066fc8d7d2681dadbe731777778b073", "fusion_lon": 0.0, "lat": 38.92887283333334, "is_reserved": 0, "type": "electric_scooter", "bike_id": "3066fc8d7d2681dadbe731777778b073", "is_disabled": 0, "rental_uris": {"android": "https://dc.lft.to/lastmile_qr_scan", "ios": "https://dc.lft.to/lastmile_qr_scan"}, "lon": -77.03737116666667, "fusion_lat": 0.0}, {"name": "a19432b9d6c87949ecc49bd4081da078", "fusion_lon": 0.0, "lat": 38.887380666666665, "is_reserved": 0, "type": "electric_scooter", "bike_id": "a19432b9d6c87949ecc49bd4081da078", "is_disabled": 0, "rental_uris": {"android": "https://dc.lft.to/lastmile_qr_scan", "ios": "https://dc.lft.to/lastmile_qr_scan"}, "lon": -77.01534116666667, "fusion_lat": 0.0}, {"name": "22f8e7cf36f87b3366e1f3e926f275c8", "fusion_lon": 0.0, "lat": 38.9156295, "is_reserved": 0, "type": "electric_scooter", "bike_id": "22f8e7cf36f87b3366e1f3e926f275c8", "is_disabled": 0, "rental_uris": {"android": "https://dc.lft.to/lastmile_qr_scan", "ios": "https://dc.lft.to/lastmile_qr_scan"}, "lon": -77.031707, "fusion_lat": 0.0}, {"name": "6b4d8c77b9f2146c1418156fc6faf6c3", "fusion_lon": 0.0, "lat": 38.924538166666665, "is_reserved": 0, "type": "electric_bike", "bike_id": "6b4d8c77b9f2146c1418156fc6faf6c3", "is_disabled": 0, "rental_uris": {"android": "https://dc.lft.to/lastmile_qr_scan", "ios": "https://dc.lft.to/lastmile_qr_scan"}, "lon": -77.2256695, "fusion_lat": 0.0}, {"name": "b3841e40e92437d88e2045a785bfad7b", "fusion_lon": 0.0, "lat": 38.90083683333334, "is_reserved": 0, "type": "electric_scooter", "bike_id": "b3841e40e92437d88e2045a785bfad7b", "is_disabled": 0, "rental_uris": {"android": "https://dc.lft.to/lastmile_qr_scan", "ios": "https://dc.lft.to/lastmile_qr_scan"}, "lon": -77.030764, "fusion_lat": 0.0}, {"name": "07b713b00f9fb8b7c61687a569ada580", "fusion_lon": 0.0, "lat": 38.90831566666667, "is_reserved": 0, "type": "electric_scooter", "bike_id": "07b713b00f9fb8b7c61687a569ada580", "is_disabled": 0, "rental_uris": {"android": "https://dc.lft.to/lastmile_qr_scan", "ios": "https://dc.lft.to/lastmile_qr_scan"}, "lon": -77.04334083333333, "fusion_lat": 0.0}, {"name": "4e083f29e89a2f306c7da8c188780cf3", "fusion_lon": 0.0, "lat": 38.92261033333333, "is_reserved": 0, "type": "electric_scooter", "bike_id": "4e083f29e89a2f306c7da8c188780cf3", "is_disabled": 0, "rental_uris": {"android": "https://dc.lft.to/lastmile_qr_scan", "ios": "https://dc.lft.to/lastmile_qr_scan"}, "lon": -77.0429835, "fusion_lat": 0.0}, {"name": "9e7ce77a392fa20573bc89ec101313b7", "fusion_lon": 0.0, "lat": 38.881285166666665, "is_reserved": 0, "type": "electric_scooter", "bike_id": "9e7ce77a392fa20573bc89ec101313b7", "is_disabled": 0, "rental_uris": {"android": "https://dc.lft.to/lastmile_qr_scan", "ios": "https://dc.lft.to/lastmile_qr_scan"}, "lon": -77.01333416666667, "fusion_lat": 0.0}, {"name": "2cf0a1ad0c08fb845295dc1c6412d298", "fusion_lon": 0.0, "lat": 38.87440216666667, "is_reserved": 0, "type": "electric_scooter", "bike_id": "2cf0a1ad0c08fb845295dc1c6412d298", "is_disabled": 0, "rental_uris": {"android": "https://dc.lft.to/lastmile_qr_scan", "ios": "https://dc.lft.to/lastmile_qr_scan"}, "lon": -77.00072016666667, "fusion_lat": 0.0}, {"name": "a25460e131cfbcf2aec1104d6cb3f67e", "fusion_lon": 0.0, "lat": 38.9141535, "is_reserved": 0, "type": "electric_scooter", "bike_id": "a25460e131cfbcf2aec1104d6cb3f67e", "is_disabled": 0, "rental_uris": {"android": "https://dc.lft.to/lastmile_qr_scan", "ios": "https://dc.lft.to/lastmile_qr_scan"}, "lon": -77.022306, "fusion_lat": 0.0}, {"name": "c29effb6f40e97616e9cfb789e6b5e83", "fusion_lon": 0.0, "lat": 38.91318066666667, "is_reserved": 0, "type": "electric_scooter", "bike_id": "c29effb6f40e97616e9cfb789e6b5e83", "is_disabled": 0, "rental_uris": {"android": "https://dc.lft.to/lastmile_qr_scan", "ios": "https://dc.lft.to/lastmile_qr_scan"}, "lon": -76.98499433333333, "fusion_lat": 0.0}, {"name": "4b225f5c14688929c58b1bc1dff5aa1c", "fusion_lon": 0.0, "lat": 38.902116166666666, "is_reserved": 0, "type": "electric_scooter", "bike_id": "4b225f5c14688929c58b1bc1dff5aa1c", "is_disabled": 0, "rental_uris": {"android": "https://dc.lft.to/lastmile_qr_scan", "ios": "https://dc.lft.to/lastmile_qr_scan"}, "lon": -77.023668, "fusion_lat": 0.0}, {"name": "da97ce0ec6e27a5b5fc8860da2ed2d0a", "fusion_lon": 0.0, "lat": 38.951506333333334, "is_reserved": 0, "type": "electric_scooter", "bike_id": "da97ce0ec6e27a5b5fc8860da2ed2d0a", "is_disabled": 0, "rental_uris": {"android": "https://dc.lft.to/lastmile_qr_scan", "ios": "https://dc.lft.to/lastmile_qr_scan"}, "lon": -77.01869966666666, "fusion_lat": 0.0}, {"name": "e0701b75e99255a49b4f47a39dc0521b", "fusion_lon": 0.0, "lat": 38.9007405, "is_reserved": 0, "type": "electric_scooter", "bike_id": "e0701b75e99255a49b4f47a39dc0521b", "is_disabled": 0, "rental_uris": {"android": "https://dc.lft.to/lastmile_qr_scan", "ios": "https://dc.lft.to/lastmile_qr_scan"}, "lon": -77.01869116666667, "fusion_lat": 0.0}, {"name": "ad6db2c8312ceb8bd3975964f1b2b22a", "fusion_lon": 0.0, "lat": 38.902009666666665, "is_reserved": 0, "type": "electric_scooter", "bike_id": "ad6db2c8312ceb8bd3975964f1b2b22a", "is_disabled": 0, "rental_uris": {"android": "https://dc.lft.to/lastmile_qr_scan", "ios": "https://dc.lft.to/lastmile_qr_scan"}, "lon": -77.02369983333334, "fusion_lat": 0.0}, {"name": "21d65d5f6c3453ecbf8376b0ab4714e5", "fusion_lon": 0.0, "lat": 38.921755, "is_reserved": 0, "type": "electric_scooter", "bike_id": "21d65d5f6c3453ecbf8376b0ab4714e5", "is_disabled": 0, "rental_uris": {"android": "https://dc.lft.to/lastmile_qr_scan", "ios": "https://dc.lft.to/lastmile_qr_scan"}, "lon": -77.04344783333333, "fusion_lat": 0.0}, {"name": "8671c03ab67adeda7ce8fe55233e4d43", "fusion_lon": 0.0, "lat": 38.893232833333336, "is_reserved": 0, "type": "electric_scooter", "bike_id": "8671c03ab67adeda7ce8fe55233e4d43", "is_disabled": 0, "rental_uris": {"android": "https://dc.lft.to/lastmile_qr_scan", "ios": "https://dc.lft.to/lastmile_qr_scan"}, "lon": -77.04879833333334, "fusion_lat": 0.0}, {"name": "00c46614076f88fc1f036975b43e724d", "fusion_lon": 0.0, "lat": 38.874152, "is_reserved": 0, "type": "electric_scooter", "bike_id": "00c46614076f88fc1f036975b43e724d", "is_disabled": 0, "rental_uris": {"android": "https://dc.lft.to/lastmile_qr_scan", "ios": "https://dc.lft.to/lastmile_qr_scan"}, "lon": -76.97117366666667, "fusion_lat": 0.0}, {"name": "b6366fb8478f1d28fce931c76ba7d543", "fusion_lon": 0.0, "lat": 38.92382516666667, "is_reserved": 0, "type": "electric_scooter", "bike_id": "b6366fb8478f1d28fce931c76ba7d543", "is_disabled": 0, "rental_uris": {"android": "https://dc.lft.to/lastmile_qr_scan", "ios": "https://dc.lft.to/lastmile_qr_scan"}, "lon": -77.0305805, "fusion_lat": 0.0}, {"name": "4565549371cb67256d8898ab95591657", "fusion_lon": 0.0, "lat": 38.916397833333335, "is_reserved": 0, "type": "electric_scooter", "bike_id": "4565549371cb67256d8898ab95591657", "is_disabled": 0, "rental_uris": {"android": "https://dc.lft.to/lastmile_qr_scan", "ios": "https://dc.lft.to/lastmile_qr_scan"}, "lon": -77.04250716666667, "fusion_lat": 0.0}, {"name": "73317cd8d839341402e7fe2f8a9d7b3f", "fusion_lon": 0.0, "lat": 38.921513166666664, "is_reserved": 0, "type": "electric_scooter", "bike_id": "73317cd8d839341402e7fe2f8a9d7b3f", "is_disabled": 0, "rental_uris": {"android": "https://dc.lft.to/lastmile_qr_scan", "ios": "https://dc.lft.to/lastmile_qr_scan"}, "lon": -77.03506966666667, "fusion_lat": 0.0}, {"name": "1057313b6965994a451c6aeb0fde1c33", "fusion_lon": 0.0, "lat": 38.90866466666667, "is_reserved": 0, "type": "electric_scooter", "bike_id": "1057313b6965994a451c6aeb0fde1c33", "is_disabled": 0, "rental_uris": {"android": "https://dc.lft.to/lastmile_qr_scan", "ios": "https://dc.lft.to/lastmile_qr_scan"}, "lon": -77.03222433333333, "fusion_lat": 0.0}, {"name": "851dbf37b024c87eb238e23cf7727040", "fusion_lon": 0.0, "lat": 38.905377666666666, "is_reserved": 0, "type": "electric_scooter", "bike_id": "851dbf37b024c87eb238e23cf7727040", "is_disabled": 0, "rental_uris": {"android": "https://dc.lft.to/lastmile_qr_scan", "ios": "https://dc.lft.to/lastmile_qr_scan"}, "lon": -77.030797, "fusion_lat": 0.0}, {"name": "c8abe072a4f819755aba68e2a1c828b0", "fusion_lon": 0.0, "lat": 38.926617, "is_reserved": 0, "type": "electric_scooter", "bike_id": "c8abe072a4f819755aba68e2a1c828b0", "is_disabled": 0, "rental_uris": {"android": "https://dc.lft.to/lastmile_qr_scan", "ios": "https://dc.lft.to/lastmile_qr_scan"}, "lon": -76.99541, "fusion_lat": 0.0}, {"name": "838ee08279c75822a31f53bfc1a8b099", "fusion_lon": 0.0, "lat": 38.89859233333333, "is_reserved": 0, "type": "electric_scooter", "bike_id": "838ee08279c75822a31f53bfc1a8b099", "is_disabled": 0, "rental_uris": {"android": "https://dc.lft.to/lastmile_qr_scan", "ios": "https://dc.lft.to/lastmile_qr_scan"}, "lon": -76.92755433333333, "fusion_lat": 0.0}, {"name": "8c6075c54a205a08d02f667ab04d49e8", "fusion_lon": 0.0, "lat": 38.95943, "is_reserved": 0, "type": "electric_scooter", "bike_id": "8c6075c54a205a08d02f667ab04d49e8", "is_disabled": 0, "rental_uris": {"android": "https://dc.lft.to/lastmile_qr_scan", "ios": "https://dc.lft.to/lastmile_qr_scan"}, "lon": -77.0304735, "fusion_lat": 0.0}, {"name": "39b06e96cf690815f47b8dfaa5d801d8", "fusion_lon": 0.0, "lat": 38.855389833333334, "is_reserved": 0, "type": "electric_scooter", "bike_id": "39b06e96cf690815f47b8dfaa5d801d8", "is_disabled": 0, "rental_uris": {"android": "https://dc.lft.to/lastmile_qr_scan", "ios": "https://dc.lft.to/lastmile_qr_scan"}, "lon": -76.98419183333333, "fusion_lat": 0.0}, {"name": "ae38de1c5bb2c50b7bed39ad2eb31df2", "fusion_lon": 0.0, "lat": 38.924557166666666, "is_reserved": 0, "type": "electric_scooter", "bike_id": "ae38de1c5bb2c50b7bed39ad2eb31df2", "is_disabled": 0, "rental_uris": {"android": "https://dc.lft.to/lastmile_qr_scan", "ios": "https://dc.lft.to/lastmile_qr_scan"}, "lon": -77.03991, "fusion_lat": 0.0}, {"name": "f82e4bc9aba559e04aee785718c6f4db", "fusion_lon": 0.0, "lat": 38.90087483333333, "is_reserved": 0, "type": "electric_scooter", "bike_id": "f82e4bc9aba559e04aee785718c6f4db", "is_disabled": 0, "rental_uris": {"android": "https://dc.lft.to/lastmile_qr_scan", "ios": "https://dc.lft.to/lastmile_qr_scan"}, "lon": -76.93021583333334, "fusion_lat": 0.0}, {"name": "8ff875694be67d79e7002e1e219d2664", "fusion_lon": 0.0, "lat": 38.910499333333334, "is_reserved": 0, "type": "electric_scooter", "bike_id": "8ff875694be67d79e7002e1e219d2664", "is_disabled": 0, "rental_uris": {"android": "https://dc.lft.to/lastmile_qr_scan", "ios": "https://dc.lft.to/lastmile_qr_scan"}, "lon": -77.03140416666666, "fusion_lat": 0.0}, {"name": "af21d11d7a2517a59758609b991c0281", "fusion_lon": 0.0, "lat": 38.92972316666667, "is_reserved": 0, "type": "electric_scooter", "bike_id": "af21d11d7a2517a59758609b991c0281", "is_disabled": 0, "rental_uris": {"android": "https://dc.lft.to/lastmile_qr_scan", "ios": "https://dc.lft.to/lastmile_qr_scan"}, "lon": -77.016916, "fusion_lat": 0.0}, {"name": "5ad982596f38b5348a1cd2880818b7e2", "fusion_lon": 0.0, "lat": 38.91107866666667, "is_reserved": 0, "type": "electric_scooter", "bike_id": "5ad982596f38b5348a1cd2880818b7e2", "is_disabled": 0, "rental_uris": {"android": "https://dc.lft.to/lastmile_qr_scan", "ios": "https://dc.lft.to/lastmile_qr_scan"}, "lon": -77.003664, "fusion_lat": 0.0}, {"name": "32d21ab58fedc455d862713c6bf72d38", "fusion_lon": 0.0, "lat": 38.86372566666667, "is_reserved": 0, "type": "electric_scooter", "bike_id": "32d21ab58fedc455d862713c6bf72d38", "is_disabled": 0, "rental_uris": {"android": "https://dc.lft.to/lastmile_qr_scan", "ios": "https://dc.lft.to/lastmile_qr_scan"}, "lon": -76.99061483333334, "fusion_lat": 0.0}, {"name": "00db5b5efe5f0df67116eae044612e30", "fusion_lon": 0.0, "lat": 38.913195333333334, "is_reserved": 0, "type": "electric_bike", "bike_id": "00db5b5efe5f0df67116eae044612e30", "is_disabled": 0, "rental_uris": {"android": "https://dc.lft.to/lastmile_qr_scan", "ios": "https://dc.lft.to/lastmile_qr_scan"}, "lon": -77.22313766666667, "fusion_lat": 0.0}, {"name": "ff6d8c8a7f4d8885d4c85d63055d1a0f", "fusion_lon": 0.0, "lat": 38.883695, "is_reserved": 0, "type": "electric_scooter", "bike_id": "ff6d8c8a7f4d8885d4c85d63055d1a0f", "is_disabled": 0, "rental_uris": {"android": "https://dc.lft.to/lastmile_qr_scan", "ios": "https://dc.lft.to/lastmile_qr_scan"}, "lon": -76.99520383333333, "fusion_lat": 0.0}, {"name": "41050e39bd89102065529fd65638fcc8", "fusion_lon": 0.0, "lat": 38.91923516666667, "is_reserved": 0, "type": "electric_scooter", "bike_id": "41050e39bd89102065529fd65638fcc8", "is_disabled": 0, "rental_uris": {"android": "https://dc.lft.to/lastmile_qr_scan", "ios": "https://dc.lft.to/lastmile_qr_scan"}, "lon": -77.04251916666666, "fusion_lat": 0.0}, {"name": "715cfeb8aa567cdabb3a174ed01179a3", "fusion_lon": 0.0, "lat": 38.891992333333334, "is_reserved": 0, "type": "electric_scooter", "bike_id": "715cfeb8aa567cdabb3a174ed01179a3", "is_disabled": 0, "rental_uris": {"android": "https://dc.lft.to/lastmile_qr_scan", "ios": "https://dc.lft.to/lastmile_qr_scan"}, "lon": -77.00299183333334, "fusion_lat": 0.0}, {"name": "d09d8f19e48f8e1db709e73cd7769634", "fusion_lon": 0.0, "lat": 38.92096866666667, "is_reserved": 0, "type": "electric_scooter", "bike_id": "d09d8f19e48f8e1db709e73cd7769634", "is_disabled": 0, "rental_uris": {"android": "https://dc.lft.to/lastmile_qr_scan", "ios": "https://dc.lft.to/lastmile_qr_scan"}, "lon": -77.03045633333333, "fusion_lat": 0.0}, {"name": "a6b2dde3e4faee08be59929bd2f9f5d0", "fusion_lon": 0.0, "lat": 38.866848166666664, "is_reserved": 0, "type": "electric_scooter", "bike_id": "a6b2dde3e4faee08be59929bd2f9f5d0", "is_disabled": 0, "rental_uris": {"android": "https://dc.lft.to/lastmile_qr_scan", "ios": "https://dc.lft.to/lastmile_qr_scan"}, "lon": -76.98561516666666, "fusion_lat": 0.0}, {"name": "56b9ec6cb1cf7caed5b8b71aad37a915", "fusion_lon": 0.0, "lat": 38.904843, "is_reserved": 0, "type": "electric_scooter", "bike_id": "56b9ec6cb1cf7caed5b8b71aad37a915", "is_disabled": 0, "rental_uris": {"android": "https://dc.lft.to/lastmile_qr_scan", "ios": "https://dc.lft.to/lastmile_qr_scan"}, "lon": -77.05344516666666, "fusion_lat": 0.0}, {"name": "f5170ca9d8f94aa763517faf7504f52f", "fusion_lon": 0.0, "lat": 38.91264, "is_reserved": 0, "type": "electric_scooter", "bike_id": "f5170ca9d8f94aa763517faf7504f52f", "is_disabled": 0, "rental_uris": {"android": "https://dc.lft.to/lastmile_qr_scan", "ios": "https://dc.lft.to/lastmile_qr_scan"}, "lon": -77.02515683333333, "fusion_lat": 0.0}, {"name": "73123e72aeb147015e21b553eea2f146", "fusion_lon": 0.0, "lat": 38.93185916666667, "is_reserved": 0, "type": "electric_scooter", "bike_id": "73123e72aeb147015e21b553eea2f146", "is_disabled": 0, "rental_uris": {"android": "https://dc.lft.to/lastmile_qr_scan", "ios": "https://dc.lft.to/lastmile_qr_scan"}, "lon": -77.03876816666667, "fusion_lat": 0.0}, {"name": "967ea249a6a904e2325b1f1a3d2ec6ae", "fusion_lon": 0.0, "lat": 38.8976035, "is_reserved": 0, "type": "electric_scooter", "bike_id": "967ea249a6a904e2325b1f1a3d2ec6ae", "is_disabled": 0, "rental_uris": {"android": "https://dc.lft.to/lastmile_qr_scan", "ios": "https://dc.lft.to/lastmile_qr_scan"}, "lon": -77.008993, "fusion_lat": 0.0}, {"name": "a4f294c44a62856513efc76a4e6d128e", "fusion_lon": 0.0, "lat": 38.902858333333334, "is_reserved": 0, "type": "electric_scooter", "bike_id": "a4f294c44a62856513efc76a4e6d128e", "is_disabled": 0, "rental_uris": {"android": "https://dc.lft.to/lastmile_qr_scan", "ios": "https://dc.lft.to/lastmile_qr_scan"}, "lon": -77.039779, "fusion_lat": 0.0}, {"name": "0f26c14fdadd028925c82707d3f9454c", "fusion_lon": 0.0, "lat": 38.911713666666664, "is_reserved": 0, "type": "electric_scooter", "bike_id": "0f26c14fdadd028925c82707d3f9454c", "is_disabled": 0, "rental_uris": {"android": "https://dc.lft.to/lastmile_qr_scan", "ios": "https://dc.lft.to/lastmile_qr_scan"}, "lon": -77.01126066666667, "fusion_lat": 0.0}, {"name": "49a7dfd01610667b63595f79729d8a16", "fusion_lon": 0.0, "lat": 38.87011233333333, "is_reserved": 0, "type": "electric_scooter", "bike_id": "49a7dfd01610667b63595f79729d8a16", "is_disabled": 0, "rental_uris": {"android": "https://dc.lft.to/lastmile_qr_scan", "ios": "https://dc.lft.to/lastmile_qr_scan"}, "lon": -76.98088333333334, "fusion_lat": 0.0}, {"name": "84ebca326f9067696a093681a1c77c6d", "fusion_lon": 0.0, "lat": 38.876569333333336, "is_reserved": 0, "type": "electric_scooter", "bike_id": "84ebca326f9067696a093681a1c77c6d", "is_disabled": 0, "rental_uris": {"android": "https://dc.lft.to/lastmile_qr_scan", "ios": "https://dc.lft.to/lastmile_qr_scan"}, "lon": -77.00313983333334, "fusion_lat": 0.0}, {"name": "ee62fa7360efbbb0afe4e9ba885eddd6", "fusion_lon": 0.0, "lat": 38.92215366666667, "is_reserved": 0, "type": "electric_scooter", "bike_id": "ee62fa7360efbbb0afe4e9ba885eddd6", "is_disabled": 0, "rental_uris": {"android": "https://dc.lft.to/lastmile_qr_scan", "ios": "https://dc.lft.to/lastmile_qr_scan"}, "lon": -76.98733966666667, "fusion_lat": 0.0}, {"name": "a4f1dd2b5d7582a3428639e8f0f6dfff", "fusion_lon": 0.0, "lat": 38.892235166666666, "is_reserved": 0, "type": "electric_scooter", "bike_id": "a4f1dd2b5d7582a3428639e8f0f6dfff", "is_disabled": 0, "rental_uris": {"android": "https://dc.lft.to/lastmile_qr_scan", "ios": "https://dc.lft.to/lastmile_qr_scan"}, "lon": -77.048629, "fusion_lat": 0.0}, {"name": "cfa2564d6262c299d275d79ab7eefe26", "fusion_lon": 0.0, "lat": 38.909892666666664, "is_reserved": 0, "type": "electric_scooter", "bike_id": "cfa2564d6262c299d275d79ab7eefe26", "is_disabled": 0, "rental_uris": {"android": "https://dc.lft.to/lastmile_qr_scan", "ios": "https://dc.lft.to/lastmile_qr_scan"}, "lon": -77.03843633333334, "fusion_lat": 0.0}, {"name": "7b9102ea285e2f7ca78e063b600932b4", "fusion_lon": 0.0, "lat": 38.9225985, "is_reserved": 0, "type": "electric_scooter", "bike_id": "7b9102ea285e2f7ca78e063b600932b4", "is_disabled": 0, "rental_uris": {"android": "https://dc.lft.to/lastmile_qr_scan", "ios": "https://dc.lft.to/lastmile_qr_scan"}, "lon": -77.02422483333334, "fusion_lat": 0.0}, {"name": "491552a557bcba082d052e925f4102a9", "fusion_lon": 0.0, "lat": 38.894755333333336, "is_reserved": 0, "type": "electric_scooter", "bike_id": "491552a557bcba082d052e925f4102a9", "is_disabled": 0, "rental_uris": {"android": "https://dc.lft.to/lastmile_qr_scan", "ios": "https://dc.lft.to/lastmile_qr_scan"}, "lon": -77.02256333333334, "fusion_lat": 0.0}, {"name": "52ce09b0104444814b27262d2c408633", "fusion_lon": 0.0, "lat": 38.952473166666664, "is_reserved": 0, "type": "electric_scooter", "bike_id": "52ce09b0104444814b27262d2c408633", "is_disabled": 0, "rental_uris": {"android": "https://dc.lft.to/lastmile_qr_scan", "ios": "https://dc.lft.to/lastmile_qr_scan"}, "lon": -77.0019875, "fusion_lat": 0.0}, {"name": "ccccbafe9a549b1ca4fd68ccedbf9f2f", "fusion_lon": 0.0, "lat": 38.87477333333333, "is_reserved": 0, "type": "electric_bike", "bike_id": "ccccbafe9a549b1ca4fd68ccedbf9f2f", "is_disabled": 0, "rental_uris": {"android": "https://dc.lft.to/lastmile_qr_scan", "ios": "https://dc.lft.to/lastmile_qr_scan"}, "lon": -76.96535633333333, "fusion_lat": 0.0}, {"name": "746839f4590a2618aeed02670f44e93b", "fusion_lon": 0.0, "lat": 38.892364, "is_reserved": 0, "type": "electric_scooter", "bike_id": "746839f4590a2618aeed02670f44e93b", "is_disabled": 0, "rental_uris": {"android": "https://dc.lft.to/lastmile_qr_scan", "ios": "https://dc.lft.to/lastmile_qr_scan"}, "lon": -77.03378283333333, "fusion_lat": 0.0}, {"name": "cea68fd10c6444275088c46a061028d7", "fusion_lon": 0.0, "lat": 38.896148, "is_reserved": 0, "type": "electric_scooter", "bike_id": "cea68fd10c6444275088c46a061028d7", "is_disabled": 0, "rental_uris": {"android": "https://dc.lft.to/lastmile_qr_scan", "ios": "https://dc.lft.to/lastmile_qr_scan"}, "lon": -76.98111516666667, "fusion_lat": 0.0}, {"name": "788ebe090de7204089a1700e0cbd789d", "fusion_lon": 0.0, "lat": 38.91287233333333, "is_reserved": 0, "type": "electric_scooter", "bike_id": "788ebe090de7204089a1700e0cbd789d", "is_disabled": 0, "rental_uris": {"android": "https://dc.lft.to/lastmile_qr_scan", "ios": "https://dc.lft.to/lastmile_qr_scan"}, "lon": -77.0239055, "fusion_lat": 0.0}, {"name": "de1f07a3dfe63f0f2b776cc468f075d1", "fusion_lon": 0.0, "lat": 38.896252, "is_reserved": 0, "type": "electric_scooter", "bike_id": "de1f07a3dfe63f0f2b776cc468f075d1", "is_disabled": 0, "rental_uris": {"android": "https://dc.lft.to/lastmile_qr_scan", "ios": "https://dc.lft.to/lastmile_qr_scan"}, "lon": -77.01598683333333, "fusion_lat": 0.0}, {"name": "5961932a95ae7c8259f329e17dae5728", "fusion_lon": 0.0, "lat": 38.89616766666666, "is_reserved": 0, "type": "electric_scooter", "bike_id": "5961932a95ae7c8259f329e17dae5728", "is_disabled": 0, "rental_uris": {"android": "https://dc.lft.to/lastmile_qr_scan", "ios": "https://dc.lft.to/lastmile_qr_scan"}, "lon": -77.021989, "fusion_lat": 0.0}, {"name": "619bc3bae961354d2c19468a5092895a", "fusion_lon": 0.0, "lat": 38.910156666666666, "is_reserved": 0, "type": "electric_scooter", "bike_id": "619bc3bae961354d2c19468a5092895a", "is_disabled": 0, "rental_uris": {"android": "https://dc.lft.to/lastmile_qr_scan", "ios": "https://dc.lft.to/lastmile_qr_scan"}, "lon": -77.052847, "fusion_lat": 0.0}, {"name": "a8b21f7d0c6eaf5eccec5fec637c15a2", "fusion_lon": 0.0, "lat": 38.873621166666666, "is_reserved": 0, "type": "electric_scooter", "bike_id": "a8b21f7d0c6eaf5eccec5fec637c15a2", "is_disabled": 0, "rental_uris": {"android": "https://dc.lft.to/lastmile_qr_scan", "ios": "https://dc.lft.to/lastmile_qr_scan"}, "lon": -77.00577966666667, "fusion_lat": 0.0}, {"name": "ed9365b2e8f9cd50a321b9769796bca2", "fusion_lon": 0.0, "lat": 38.93612366666667, "is_reserved": 0, "type": "electric_scooter", "bike_id": "ed9365b2e8f9cd50a321b9769796bca2", "is_disabled": 0, "rental_uris": {"android": "https://dc.lft.to/lastmile_qr_scan", "ios": "https://dc.lft.to/lastmile_qr_scan"}, "lon": -77.037262, "fusion_lat": 0.0}, {"name": "a5d0c03e8470db1967af65c2840eccdf", "fusion_lon": 0.0, "lat": 38.9000325, "is_reserved": 0, "type": "electric_scooter", "bike_id": "a5d0c03e8470db1967af65c2840eccdf", "is_disabled": 0, "rental_uris": {"android": "https://dc.lft.to/lastmile_qr_scan", "ios": "https://dc.lft.to/lastmile_qr_scan"}, "lon": -76.99633333333334, "fusion_lat": 0.0}, {"name": "9d02cfa917ed3acd0d6720baabf3d45e", "fusion_lon": 0.0, "lat": 38.903984666666666, "is_reserved": 0, "type": "electric_scooter", "bike_id": "9d02cfa917ed3acd0d6720baabf3d45e", "is_disabled": 0, "rental_uris": {"android": "https://dc.lft.to/lastmile_qr_scan", "ios": "https://dc.lft.to/lastmile_qr_scan"}, "lon": -77.06514233333333, "fusion_lat": 0.0}, {"name": "fd191bb7794dce49e1d7730d81e7a0db", "fusion_lon": 0.0, "lat": 38.92232683333334, "is_reserved": 0, "type": "electric_scooter", "bike_id": "fd191bb7794dce49e1d7730d81e7a0db", "is_disabled": 0, "rental_uris": {"android": "https://dc.lft.to/lastmile_qr_scan", "ios": "https://dc.lft.to/lastmile_qr_scan"}, "lon": -77.022994, "fusion_lat": 0.0}, {"name": "624c9919db5b4797d28f69f6ac7ce8da", "fusion_lon": 0.0, "lat": 38.91576933333333, "is_reserved": 0, "type": "electric_scooter", "bike_id": "624c9919db5b4797d28f69f6ac7ce8da", "is_disabled": 0, "rental_uris": {"android": "https://dc.lft.to/lastmile_qr_scan", "ios": "https://dc.lft.to/lastmile_qr_scan"}, "lon": -77.01233433333333, "fusion_lat": 0.0}, {"name": "b632b6a9b17a54ca2a958cb7f4515982", "fusion_lon": 0.0, "lat": 38.97877866666666, "is_reserved": 0, "type": "electric_bike", "bike_id": "b632b6a9b17a54ca2a958cb7f4515982", "is_disabled": 0, "rental_uris": {"android": "https://dc.lft.to/lastmile_qr_scan", "ios": "https://dc.lft.to/lastmile_qr_scan"}, "lon": -77.06029783333334, "fusion_lat": 0.0}, {"name": "78edb8565db0a3332d694c5b00465a0d", "fusion_lon": 0.0, "lat": 38.9050295, "is_reserved": 0, "type": "electric_scooter", "bike_id": "78edb8565db0a3332d694c5b00465a0d", "is_disabled": 0, "rental_uris": {"android": "https://dc.lft.to/lastmile_qr_scan", "ios": "https://dc.lft.to/lastmile_qr_scan"}, "lon": -77.06124583333333, "fusion_lat": 0.0}, {"name": "cc4b6c9b2ce78ea700eb725cd65bb736", "fusion_lon": 0.0, "lat": 38.91334833333333, "is_reserved": 0, "type": "electric_scooter", "bike_id": "cc4b6c9b2ce78ea700eb725cd65bb736", "is_disabled": 0, "rental_uris": {"android": "https://dc.lft.to/lastmile_qr_scan", "ios": "https://dc.lft.to/lastmile_qr_scan"}, "lon": -77.031937, "fusion_lat": 0.0}, {"name": "b3616c8bdec08a75811b1fbac7ffd827", "fusion_lon": 0.0, "lat": 38.91248, "is_reserved": 0, "type": "electric_scooter", "bike_id": "b3616c8bdec08a75811b1fbac7ffd827", "is_disabled": 0, "rental_uris": {"android": "https://dc.lft.to/lastmile_qr_scan", "ios": "https://dc.lft.to/lastmile_qr_scan"}, "lon": -77.03415183333334, "fusion_lat": 0.0}, {"name": "62aa263174a0e488cf6243251b7a6357", "fusion_lon": 0.0, "lat": 38.906931166666666, "is_reserved": 0, "type": "electric_scooter", "bike_id": "62aa263174a0e488cf6243251b7a6357", "is_disabled": 0, "rental_uris": {"android": "https://dc.lft.to/lastmile_qr_scan", "ios": "https://dc.lft.to/lastmile_qr_scan"}, "lon": -77.0259395, "fusion_lat": 0.0}, {"name": "a51f9563227dbebab90e279022775709", "fusion_lon": 0.0, "lat": 38.90975683333333, "is_reserved": 0, "type": "electric_scooter", "bike_id": "a51f9563227dbebab90e279022775709", "is_disabled": 0, "rental_uris": {"android": "https://dc.lft.to/lastmile_qr_scan", "ios": "https://dc.lft.to/lastmile_qr_scan"}, "lon": -77.0344735, "fusion_lat": 0.0}, {"name": "c02abd95317cd0d22e8d53b8ab99789b", "fusion_lon": 0.0, "lat": 38.905615833333336, "is_reserved": 0, "type": "electric_scooter", "bike_id": "c02abd95317cd0d22e8d53b8ab99789b", "is_disabled": 0, "rental_uris": {"android": "https://dc.lft.to/lastmile_qr_scan", "ios": "https://dc.lft.to/lastmile_qr_scan"}, "lon": -77.0399335, "fusion_lat": 0.0}, {"name": "e33199bc314433fb9b0b7c2b425533d6", "fusion_lon": 0.0, "lat": 38.90721166666667, "is_reserved": 0, "type": "electric_scooter", "bike_id": "e33199bc314433fb9b0b7c2b425533d6", "is_disabled": 0, "rental_uris": {"android": "https://dc.lft.to/lastmile_qr_scan", "ios": "https://dc.lft.to/lastmile_qr_scan"}, "lon": -77.02546166666667, "fusion_lat": 0.0}, {"name": "0448548b095a1ccb5ab5fb944f0ae9c3", "fusion_lon": 0.0, "lat": 38.905062, "is_reserved": 0, "type": "electric_scooter", "bike_id": "0448548b095a1ccb5ab5fb944f0ae9c3", "is_disabled": 0, "rental_uris": {"android": "https://dc.lft.to/lastmile_qr_scan", "ios": "https://dc.lft.to/lastmile_qr_scan"}, "lon": -77.06018516666667, "fusion_lat": 0.0}, {"name": "3ca2e5defabade5fc21eaab8fa40370b", "fusion_lon": 0.0, "lat": 38.8761085, "is_reserved": 0, "type": "electric_scooter", "bike_id": "3ca2e5defabade5fc21eaab8fa40370b", "is_disabled": 0, "rental_uris": {"android": "https://dc.lft.to/lastmile_qr_scan", "ios": "https://dc.lft.to/lastmile_qr_scan"}, "lon": -77.000853, "fusion_lat": 0.0}, {"name": "677c1a7bdab35a0529d6e0e1377d7b72", "fusion_lon": 0.0, "lat": 38.921351666666666, "is_reserved": 0, "type": "electric_scooter", "bike_id": "677c1a7bdab35a0529d6e0e1377d7b72", "is_disabled": 0, "rental_uris": {"android": "https://dc.lft.to/lastmile_qr_scan", "ios": "https://dc.lft.to/lastmile_qr_scan"}, "lon": -77.01824, "fusion_lat": 0.0}, {"name": "81fcdcf49f58bfa43009b2fffcbcdbc9", "fusion_lon": 0.0, "lat": 38.900097, "is_reserved": 0, "type": "electric_scooter", "bike_id": "81fcdcf49f58bfa43009b2fffcbcdbc9", "is_disabled": 0, "rental_uris": {"android": "https://dc.lft.to/lastmile_qr_scan", "ios": "https://dc.lft.to/lastmile_qr_scan"}, "lon": -77.00690783333333, "fusion_lat": 0.0}, {"name": "192ce73b4a006642db681ef9d0c1c852", "fusion_lon": 0.0, "lat": 38.92867, "is_reserved": 0, "type": "electric_scooter", "bike_id": "192ce73b4a006642db681ef9d0c1c852", "is_disabled": 0, "rental_uris": {"android": "https://dc.lft.to/lastmile_qr_scan", "ios": "https://dc.lft.to/lastmile_qr_scan"}, "lon": -77.02178166666667, "fusion_lat": 0.0}, {"name": "9a15ef0b57061a772b7cf9e4833d1ef7", "fusion_lon": 0.0, "lat": 38.85435616666667, "is_reserved": 0, "type": "electric_bike", "bike_id": "9a15ef0b57061a772b7cf9e4833d1ef7", "is_disabled": 0, "rental_uris": {"android": "https://dc.lft.to/lastmile_qr_scan", "ios": "https://dc.lft.to/lastmile_qr_scan"}, "lon": -77.08308183333334, "fusion_lat": 0.0}, {"name": "9cad35f1bd8f1f0f2b396fa9428104f2", "fusion_lon": 0.0, "lat": 38.918211166666666, "is_reserved": 0, "type": "electric_scooter", "bike_id": "9cad35f1bd8f1f0f2b396fa9428104f2", "is_disabled": 0, "rental_uris": {"android": "https://dc.lft.to/lastmile_qr_scan", "ios": "https://dc.lft.to/lastmile_qr_scan"}, "lon": -77.031854, "fusion_lat": 0.0}, {"name": "4024da05cf178408e3b9ce3bca9c0390", "fusion_lon": 0.0, "lat": 38.907088333333334, "is_reserved": 0, "type": "electric_scooter", "bike_id": "4024da05cf178408e3b9ce3bca9c0390", "is_disabled": 0, "rental_uris": {"android": "https://dc.lft.to/lastmile_qr_scan", "ios": "https://dc.lft.to/lastmile_qr_scan"}, "lon": -77.03512533333334, "fusion_lat": 0.0}, {"name": "e987ace087c080cf3e899b3dd2295803", "fusion_lon": 0.0, "lat": 38.88475616666667, "is_reserved": 0, "type": "electric_scooter", "bike_id": "e987ace087c080cf3e899b3dd2295803", "is_disabled": 0, "rental_uris": {"android": "https://dc.lft.to/lastmile_qr_scan", "ios": "https://dc.lft.to/lastmile_qr_scan"}, "lon": -77.02657633333334, "fusion_lat": 0.0}, {"name": "8c50ef0cb3186077546554b4a1c62eea", "fusion_lon": 0.0, "lat": 38.900337666666665, "is_reserved": 0, "type": "electric_scooter", "bike_id": "8c50ef0cb3186077546554b4a1c62eea", "is_disabled": 0, "rental_uris": {"android": "https://dc.lft.to/lastmile_qr_scan", "ios": "https://dc.lft.to/lastmile_qr_scan"}, "lon": -77.00195316666667, "fusion_lat": 0.0}, {"name": "ef411389b81d38f87242da4245bdac68", "fusion_lon": 0.0, "lat": 38.9348195, "is_reserved": 0, "type": "electric_scooter", "bike_id": "ef411389b81d38f87242da4245bdac68", "is_disabled": 0, "rental_uris": {"android": "https://dc.lft.to/lastmile_qr_scan", "ios": "https://dc.lft.to/lastmile_qr_scan"}, "lon": -77.0360705, "fusion_lat": 0.0}, {"name": "0b8c7e88c8ca9d93e60c811250089073", "fusion_lon": 0.0, "lat": 38.914160333333335, "is_reserved": 0, "type": "electric_scooter", "bike_id": "0b8c7e88c8ca9d93e60c811250089073", "is_disabled": 0, "rental_uris": {"android": "https://dc.lft.to/lastmile_qr_scan", "ios": "https://dc.lft.to/lastmile_qr_scan"}, "lon": -77.025512, "fusion_lat": 0.0}, {"name": "6a31a841a59bfbf98f5cfb39d1f8168e", "fusion_lon": 0.0, "lat": 38.9026245, "is_reserved": 0, "type": "electric_bike", "bike_id": "6a31a841a59bfbf98f5cfb39d1f8168e", "is_disabled": 0, "rental_uris": {"android": "https://dc.lft.to/lastmile_qr_scan", "ios": "https://dc.lft.to/lastmile_qr_scan"}, "lon": -77.03272083333333, "fusion_lat": 0.0}, {"name": "bc91727335c424b39f44fb5b086eb409", "fusion_lon": 0.0, "lat": 38.919885, "is_reserved": 0, "type": "electric_scooter", "bike_id": "bc91727335c424b39f44fb5b086eb409", "is_disabled": 0, "rental_uris": {"android": "https://dc.lft.to/lastmile_qr_scan", "ios": "https://dc.lft.to/lastmile_qr_scan"}, "lon": -77.032484, "fusion_lat": 0.0}, {"name": "d0d4903abda8bc422734a0e31900d8f7", "fusion_lon": 0.0, "lat": 38.89613383333333, "is_reserved": 0, "type": "electric_scooter", "bike_id": "d0d4903abda8bc422734a0e31900d8f7", "is_disabled": 0, "rental_uris": {"android": "https://dc.lft.to/lastmile_qr_scan", "ios": "https://dc.lft.to/lastmile_qr_scan"}, "lon": -76.98157583333334, "fusion_lat": 0.0}, {"name": "a6e082a8d338aac0666ce381f6c79384", "fusion_lon": 0.0, "lat": 38.926709333333335, "is_reserved": 0, "type": "electric_scooter", "bike_id": "a6e082a8d338aac0666ce381f6c79384", "is_disabled": 0, "rental_uris": {"android": "https://dc.lft.to/lastmile_qr_scan", "ios": "https://dc.lft.to/lastmile_qr_scan"}, "lon": -77.04348983333334, "fusion_lat": 0.0}, {"name": "64eac2b064890af38f5a8bf955f8b56e", "fusion_lon": 0.0, "lat": 38.91689916666667, "is_reserved": 0, "type": "electric_scooter", "bike_id": "64eac2b064890af38f5a8bf955f8b56e", "is_disabled": 0, "rental_uris": {"android": "https://dc.lft.to/lastmile_qr_scan", "ios": "https://dc.lft.to/lastmile_qr_scan"}, "lon": -77.034954, "fusion_lat": 0.0}, {"name": "3b1b16b16f3883ae03151922f6a6c732", "fusion_lon": 0.0, "lat": 38.900678666666664, "is_reserved": 0, "type": "electric_scooter", "bike_id": "3b1b16b16f3883ae03151922f6a6c732", "is_disabled": 0, "rental_uris": {"android": "https://dc.lft.to/lastmile_qr_scan", "ios": "https://dc.lft.to/lastmile_qr_scan"}, "lon": -77.050657, "fusion_lat": 0.0}, {"name": "e0bcdd37d20b1348b47a4bbc1fbe09e9", "fusion_lon": 0.0, "lat": 38.9078135, "is_reserved": 0, "type": "electric_scooter", "bike_id": "e0bcdd37d20b1348b47a4bbc1fbe09e9", "is_disabled": 0, "rental_uris": {"android": "https://dc.lft.to/lastmile_qr_scan", "ios": "https://dc.lft.to/lastmile_qr_scan"}, "lon": -77.03831666666666, "fusion_lat": 0.0}, {"name": "a758f5757400dd332d60b35d290356b7", "fusion_lon": 0.0, "lat": 38.915740166666666, "is_reserved": 0, "type": "electric_scooter", "bike_id": "a758f5757400dd332d60b35d290356b7", "is_disabled": 0, "rental_uris": {"android": "https://dc.lft.to/lastmile_qr_scan", "ios": "https://dc.lft.to/lastmile_qr_scan"}, "lon": -77.034585, "fusion_lat": 0.0}, {"name": "f24e321dcfa673888cfc5e015360e2b8", "fusion_lon": 0.0, "lat": 38.8839315, "is_reserved": 0, "type": "electric_scooter", "bike_id": "f24e321dcfa673888cfc5e015360e2b8", "is_disabled": 0, "rental_uris": {"android": "https://dc.lft.to/lastmile_qr_scan", "ios": "https://dc.lft.to/lastmile_qr_scan"}, "lon": -76.95446783333334, "fusion_lat": 0.0}, {"name": "877cab1d7ba59fbcd8eb798abd646e35", "fusion_lon": 0.0, "lat": 38.925033166666665, "is_reserved": 0, "type": "electric_scooter", "bike_id": "877cab1d7ba59fbcd8eb798abd646e35", "is_disabled": 0, "rental_uris": {"android": "https://dc.lft.to/lastmile_qr_scan", "ios": "https://dc.lft.to/lastmile_qr_scan"}, "lon": -77.02354966666667, "fusion_lat": 0.0}, {"name": "1af8cbceb4d0456549750e8a3cfe3f82", "fusion_lon": 0.0, "lat": 38.90644016666667, "is_reserved": 0, "type": "electric_scooter", "bike_id": "1af8cbceb4d0456549750e8a3cfe3f82", "is_disabled": 0, "rental_uris": {"android": "https://dc.lft.to/lastmile_qr_scan", "ios": "https://dc.lft.to/lastmile_qr_scan"}, "lon": -77.04866583333333, "fusion_lat": 0.0}, {"name": "16b584e048945bc7f77a0a1ad4d18b92", "fusion_lon": 0.0, "lat": 38.92054233333333, "is_reserved": 0, "type": "electric_scooter", "bike_id": "16b584e048945bc7f77a0a1ad4d18b92", "is_disabled": 0, "rental_uris": {"android": "https://dc.lft.to/lastmile_qr_scan", "ios": "https://dc.lft.to/lastmile_qr_scan"}, "lon": -77.02403833333334, "fusion_lat": 0.0}, {"name": "15917f44dcbe1e64300c3ee628a1f337", "fusion_lon": 0.0, "lat": 38.90360966666667, "is_reserved": 0, "type": "electric_scooter", "bike_id": "15917f44dcbe1e64300c3ee628a1f337", "is_disabled": 0, "rental_uris": {"android": "https://dc.lft.to/lastmile_qr_scan", "ios": "https://dc.lft.to/lastmile_qr_scan"}, "lon": -77.04099233333334, "fusion_lat": 0.0}, {"name": "5ac44d209e711c4b1998b78428e0b4ed", "fusion_lon": 0.0, "lat": 38.92873866666667, "is_reserved": 0, "type": "electric_scooter", "bike_id": "5ac44d209e711c4b1998b78428e0b4ed", "is_disabled": 0, "rental_uris": {"android": "https://dc.lft.to/lastmile_qr_scan", "ios": "https://dc.lft.to/lastmile_qr_scan"}, "lon": -77.01234233333334, "fusion_lat": 0.0}, {"name": "ba6ffc2b25b175fbf77aed110739d0d8", "fusion_lon": 0.0, "lat": 38.892228833333334, "is_reserved": 0, "type": "electric_bike", "bike_id": "ba6ffc2b25b175fbf77aed110739d0d8", "is_disabled": 0, "rental_uris": {"android": "https://dc.lft.to/lastmile_qr_scan", "ios": "https://dc.lft.to/lastmile_qr_scan"}, "lon": -77.03996966666666, "fusion_lat": 0.0}, {"name": "69cbfc544829671214c07e942b2be174", "fusion_lon": 0.0, "lat": 38.91552433333333, "is_reserved": 0, "type": "electric_scooter", "bike_id": "69cbfc544829671214c07e942b2be174", "is_disabled": 0, "rental_uris": {"android": "https://dc.lft.to/lastmile_qr_scan", "ios": "https://dc.lft.to/lastmile_qr_scan"}, "lon": -77.021458, "fusion_lat": 0.0}, {"name": "646fd9bf80bcbd71c2115afe271973e1", "fusion_lon": 0.0, "lat": 39.014783, "is_reserved": 0, "type": "electric_bike", "bike_id": "646fd9bf80bcbd71c2115afe271973e1", "is_disabled": 0, "rental_uris": {"android": "https://dc.lft.to/lastmile_qr_scan", "ios": "https://dc.lft.to/lastmile_qr_scan"}, "lon": -77.054972, "fusion_lat": 0.0}, {"name": "b76fab0fae7ee411387715ad2aba6a67", "fusion_lon": 0.0, "lat": 38.909606, "is_reserved": 0, "type": "electric_scooter", "bike_id": "b76fab0fae7ee411387715ad2aba6a67", "is_disabled": 0, "rental_uris": {"android": "https://dc.lft.to/lastmile_qr_scan", "ios": "https://dc.lft.to/lastmile_qr_scan"}, "lon": -77.03335583333333, "fusion_lat": 0.0}, {"name": "ab23b18de94ac3e79a701de937bb46de", "fusion_lon": 0.0, "lat": 38.900073166666665, "is_reserved": 0, "type": "electric_scooter", "bike_id": "ab23b18de94ac3e79a701de937bb46de", "is_disabled": 0, "rental_uris": {"android": "https://dc.lft.to/lastmile_qr_scan", "ios": "https://dc.lft.to/lastmile_qr_scan"}, "lon": -76.99298083333333, "fusion_lat": 0.0}, {"name": "13766f4e6ba2325934a92ca93951d659", "fusion_lon": 0.0, "lat": 38.94407966666667, "is_reserved": 0, "type": "electric_bike", "bike_id": "13766f4e6ba2325934a92ca93951d659", "is_disabled": 0, "rental_uris": {"android": "https://dc.lft.to/lastmile_qr_scan", "ios": "https://dc.lft.to/lastmile_qr_scan"}, "lon": -77.03204566666666, "fusion_lat": 0.0}, {"name": "45e0011c0085d9d911630e9d952ce26e", "fusion_lon": 0.0, "lat": 38.90256516666667, "is_reserved": 0, "type": "electric_scooter", "bike_id": "45e0011c0085d9d911630e9d952ce26e", "is_disabled": 0, "rental_uris": {"android": "https://dc.lft.to/lastmile_qr_scan", "ios": "https://dc.lft.to/lastmile_qr_scan"}, "lon": -77.03414683333334, "fusion_lat": 0.0}, {"name": "13ab2c0e83b7cc34d0719f64b5a6cdbe", "fusion_lon": 0.0, "lat": 38.906757999999996, "is_reserved": 0, "type": "electric_scooter", "bike_id": "13ab2c0e83b7cc34d0719f64b5a6cdbe", "is_disabled": 0, "rental_uris": {"android": "https://dc.lft.to/lastmile_qr_scan", "ios": "https://dc.lft.to/lastmile_qr_scan"}, "lon": -77.04498533333333, "fusion_lat": 0.0}, {"name": "8e152b49f587df3e7692e04f6260e36a", "fusion_lon": 0.0, "lat": 38.910408333333336, "is_reserved": 0, "type": "electric_scooter", "bike_id": "8e152b49f587df3e7692e04f6260e36a", "is_disabled": 0, "rental_uris": {"android": "https://dc.lft.to/lastmile_qr_scan", "ios": "https://dc.lft.to/lastmile_qr_scan"}, "lon": -77.04368616666666, "fusion_lat": 0.0}, {"name": "9a850c4d15e0e70add56a3b301d2c7de", "fusion_lon": 0.0, "lat": 38.919214833333335, "is_reserved": 0, "type": "electric_scooter", "bike_id": "9a850c4d15e0e70add56a3b301d2c7de", "is_disabled": 0, "rental_uris": {"android": "https://dc.lft.to/lastmile_qr_scan", "ios": "https://dc.lft.to/lastmile_qr_scan"}, "lon": -77.0250705, "fusion_lat": 0.0}, {"name": "ad9d5aad38c05f9989319ed9e64ca174", "fusion_lon": 0.0, "lat": 38.925191, "is_reserved": 0, "type": "electric_scooter", "bike_id": "ad9d5aad38c05f9989319ed9e64ca174", "is_disabled": 0, "rental_uris": {"android": "https://dc.lft.to/lastmile_qr_scan", "ios": "https://dc.lft.to/lastmile_qr_scan"}, "lon": -77.052608, "fusion_lat": 0.0}, {"name": "4a9d61ff199349eedb85f646032639f6", "fusion_lon": 0.0, "lat": 38.9280645, "is_reserved": 0, "type": "electric_scooter", "bike_id": "4a9d61ff199349eedb85f646032639f6", "is_disabled": 0, "rental_uris": {"android": "https://dc.lft.to/lastmile_qr_scan", "ios": "https://dc.lft.to/lastmile_qr_scan"}, "lon": -77.01408433333333, "fusion_lat": 0.0}, {"name": "46976b3041d03177304fe3f460718b47", "fusion_lon": 0.0, "lat": 38.90353666666667, "is_reserved": 0, "type": "electric_scooter", "bike_id": "46976b3041d03177304fe3f460718b47", "is_disabled": 0, "rental_uris": {"android": "https://dc.lft.to/lastmile_qr_scan", "ios": "https://dc.lft.to/lastmile_qr_scan"}, "lon": -76.97479033333333, "fusion_lat": 0.0}, {"name": "11f1a5567a28f719e21a924b6c67e165", "fusion_lon": 0.0, "lat": 38.9074305, "is_reserved": 0, "type": "electric_scooter", "bike_id": "11f1a5567a28f719e21a924b6c67e165", "is_disabled": 0, "rental_uris": {"android": "https://dc.lft.to/lastmile_qr_scan", "ios": "https://dc.lft.to/lastmile_qr_scan"}, "lon": -77.0346665, "fusion_lat": 0.0}, {"name": "15a620cf31a276847ab339529ecf422a", "fusion_lon": 0.0, "lat": 38.921285, "is_reserved": 0, "type": "electric_scooter", "bike_id": "15a620cf31a276847ab339529ecf422a", "is_disabled": 0, "rental_uris": {"android": "https://dc.lft.to/lastmile_qr_scan", "ios": "https://dc.lft.to/lastmile_qr_scan"}, "lon": -77.04577066666667, "fusion_lat": 0.0}, {"name": "adae06375f434fdefcab15304622fa1a", "fusion_lon": 0.0, "lat": 38.9003275, "is_reserved": 0, "type": "electric_scooter", "bike_id": "adae06375f434fdefcab15304622fa1a", "is_disabled": 0, "rental_uris": {"android": "https://dc.lft.to/lastmile_qr_scan", "ios": "https://dc.lft.to/lastmile_qr_scan"}, "lon": -77.029082, "fusion_lat": 0.0}, {"name": "56022b3362a949d6faabd3212528fd65", "fusion_lon": 0.0, "lat": 38.918201833333335, "is_reserved": 0, "type": "electric_scooter", "bike_id": "56022b3362a949d6faabd3212528fd65", "is_disabled": 0, "rental_uris": {"android": "https://dc.lft.to/lastmile_qr_scan", "ios": "https://dc.lft.to/lastmile_qr_scan"}, "lon": -77.024958, "fusion_lat": 0.0}, {"name": "53f60dd3d04f786949c1af53ce8a484c", "fusion_lon": 0.0, "lat": 38.907150666666666, "is_reserved": 0, "type": "electric_scooter", "bike_id": "53f60dd3d04f786949c1af53ce8a484c", "is_disabled": 0, "rental_uris": {"android": "https://dc.lft.to/lastmile_qr_scan", "ios": "https://dc.lft.to/lastmile_qr_scan"}, "lon": -77.010114, "fusion_lat": 0.0}, {"name": "a154b0c20b7f5375965c431c22c6f876", "fusion_lon": 0.0, "lat": 38.89610233333333, "is_reserved": 0, "type": "electric_scooter", "bike_id": "a154b0c20b7f5375965c431c22c6f876", "is_disabled": 0, "rental_uris": {"android": "https://dc.lft.to/lastmile_qr_scan", "ios": "https://dc.lft.to/lastmile_qr_scan"}, "lon": -77.021534, "fusion_lat": 0.0}, {"name": "38dc6400defd6401ceeedb741f8eb7ed", "fusion_lon": 0.0, "lat": 38.900671833333334, "is_reserved": 0, "type": "electric_scooter", "bike_id": "38dc6400defd6401ceeedb741f8eb7ed", "is_disabled": 0, "rental_uris": {"android": "https://dc.lft.to/lastmile_qr_scan", "ios": "https://dc.lft.to/lastmile_qr_scan"}, "lon": -77.047651, "fusion_lat": 0.0}, {"name": "4ba22d8930d3a68fe45edd4e95df1e1b", "fusion_lon": 0.0, "lat": 38.913806666666666, "is_reserved": 0, "type": "electric_scooter", "bike_id": "4ba22d8930d3a68fe45edd4e95df1e1b", "is_disabled": 0, "rental_uris": {"android": "https://dc.lft.to/lastmile_qr_scan", "ios": "https://dc.lft.to/lastmile_qr_scan"}, "lon": -77.0413495, "fusion_lat": 0.0}, {"name": "f4d181dfa4c0538c5c45aafe03fde94c", "fusion_lon": 0.0, "lat": 38.964771999999996, "is_reserved": 0, "type": "electric_bike", "bike_id": "f4d181dfa4c0538c5c45aafe03fde94c", "is_disabled": 0, "rental_uris": {"android": "https://dc.lft.to/lastmile_qr_scan", "ios": "https://dc.lft.to/lastmile_qr_scan"}, "lon": -77.03559566666667, "fusion_lat": 0.0}, {"name": "f9c15be6359efb0968e1dc0e2f57f0e7", "fusion_lon": 0.0, "lat": 38.89773133333333, "is_reserved": 0, "type": "electric_scooter", "bike_id": "f9c15be6359efb0968e1dc0e2f57f0e7", "is_disabled": 0, "rental_uris": {"android": "https://dc.lft.to/lastmile_qr_scan", "ios": "https://dc.lft.to/lastmile_qr_scan"}, "lon": -77.01223966666667, "fusion_lat": 0.0}, {"name": "543bd33c6249ce33cb8c503456ea5bbd", "fusion_lon": 0.0, "lat": 38.908260166666665, "is_reserved": 0, "type": "electric_scooter", "bike_id": "543bd33c6249ce33cb8c503456ea5bbd", "is_disabled": 0, "rental_uris": {"android": "https://dc.lft.to/lastmile_qr_scan", "ios": "https://dc.lft.to/lastmile_qr_scan"}, "lon": -76.9416165, "fusion_lat": 0.0}, {"name": "22049c07c9c978e0d985a041ff6764a9", "fusion_lon": 0.0, "lat": 38.901783, "is_reserved": 0, "type": "electric_scooter", "bike_id": "22049c07c9c978e0d985a041ff6764a9", "is_disabled": 0, "rental_uris": {"android": "https://dc.lft.to/lastmile_qr_scan", "ios": "https://dc.lft.to/lastmile_qr_scan"}, "lon": -77.06017333333334, "fusion_lat": 0.0}, {"name": "af2345d84b9aa83b9755856946abbb47", "fusion_lon": 0.0, "lat": 38.87277133333333, "is_reserved": 0, "type": "electric_bike", "bike_id": "af2345d84b9aa83b9755856946abbb47", "is_disabled": 0, "rental_uris": {"android": "https://dc.lft.to/lastmile_qr_scan", "ios": "https://dc.lft.to/lastmile_qr_scan"}, "lon": -77.23333783333334, "fusion_lat": 0.0}, {"name": "b27bb0e29967d1524867b4819671e13e", "fusion_lon": 0.0, "lat": 38.90747416666667, "is_reserved": 0, "type": "electric_scooter", "bike_id": "b27bb0e29967d1524867b4819671e13e", "is_disabled": 0, "rental_uris": {"android": "https://dc.lft.to/lastmile_qr_scan", "ios": "https://dc.lft.to/lastmile_qr_scan"}, "lon": -77.03467233333333, "fusion_lat": 0.0}, {"name": "29d0d82a4e3b3bac44218a8b1de6413b", "fusion_lon": 0.0, "lat": 38.92903116666667, "is_reserved": 0, "type": "electric_scooter", "bike_id": "29d0d82a4e3b3bac44218a8b1de6413b", "is_disabled": 0, "rental_uris": {"android": "https://dc.lft.to/lastmile_qr_scan", "ios": "https://dc.lft.to/lastmile_qr_scan"}, "lon": -77.016673, "fusion_lat": 0.0}, {"name": "7de2ad914523285845c068fb71d9fc5f", "fusion_lon": 0.0, "lat": 38.90015266666666, "is_reserved": 0, "type": "electric_scooter", "bike_id": "7de2ad914523285845c068fb71d9fc5f", "is_disabled": 0, "rental_uris": {"android": "https://dc.lft.to/lastmile_qr_scan", "ios": "https://dc.lft.to/lastmile_qr_scan"}, "lon": -77.00626516666667, "fusion_lat": 0.0}, {"name": "0dd1c2819d898b12ccfce2a9cd18631f", "fusion_lon": 0.0, "lat": 38.9271255, "is_reserved": 0, "type": "electric_scooter", "bike_id": "0dd1c2819d898b12ccfce2a9cd18631f", "is_disabled": 0, "rental_uris": {"android": "https://dc.lft.to/lastmile_qr_scan", "ios": "https://dc.lft.to/lastmile_qr_scan"}, "lon": -77.03986183333333, "fusion_lat": 0.0}, {"name": "dd3c3addc16c35a6da75478b0fcf3e23", "fusion_lon": 0.0, "lat": 38.90748933333333, "is_reserved": 0, "type": "electric_scooter", "bike_id": "dd3c3addc16c35a6da75478b0fcf3e23", "is_disabled": 0, "rental_uris": {"android": "https://dc.lft.to/lastmile_qr_scan", "ios": "https://dc.lft.to/lastmile_qr_scan"}, "lon": -77.03203316666666, "fusion_lat": 0.0}, {"name": "c190b7f89d21fb2c1351e9510f709274", "fusion_lon": 0.0, "lat": 38.91092166666667, "is_reserved": 0, "type": "electric_scooter", "bike_id": "c190b7f89d21fb2c1351e9510f709274", "is_disabled": 0, "rental_uris": {"android": "https://dc.lft.to/lastmile_qr_scan", "ios": "https://dc.lft.to/lastmile_qr_scan"}, "lon": -77.03839316666667, "fusion_lat": 0.0}, {"name": "ceeac24d7c63d1a9af59ce5aabb7fbff", "fusion_lon": 0.0, "lat": 38.919848, "is_reserved": 0, "type": "electric_scooter", "bike_id": "ceeac24d7c63d1a9af59ce5aabb7fbff", "is_disabled": 0, "rental_uris": {"android": "https://dc.lft.to/lastmile_qr_scan", "ios": "https://dc.lft.to/lastmile_qr_scan"}, "lon": -76.97306283333333, "fusion_lat": 0.0}, {"name": "aa7ba6737567d9460dcb2583d3a1b0d9", "fusion_lon": 0.0, "lat": 38.92112216666666, "is_reserved": 0, "type": "electric_scooter", "bike_id": "aa7ba6737567d9460dcb2583d3a1b0d9", "is_disabled": 0, "rental_uris": {"android": "https://dc.lft.to/lastmile_qr_scan", "ios": "https://dc.lft.to/lastmile_qr_scan"}, "lon": -77.03332616666667, "fusion_lat": 0.0}, {"name": "934dff1e0f9e9f52334924cf858af4d0", "fusion_lon": 0.0, "lat": 38.902388, "is_reserved": 0, "type": "electric_scooter", "bike_id": "934dff1e0f9e9f52334924cf858af4d0", "is_disabled": 0, "rental_uris": {"android": "https://dc.lft.to/lastmile_qr_scan", "ios": "https://dc.lft.to/lastmile_qr_scan"}, "lon": -76.97414666666667, "fusion_lat": 0.0}, {"name": "2fb1b67c15411953d45fea246e3137cb", "fusion_lon": 0.0, "lat": 38.911582833333334, "is_reserved": 0, "type": "electric_scooter", "bike_id": "2fb1b67c15411953d45fea246e3137cb", "is_disabled": 0, "rental_uris": {"android": "https://dc.lft.to/lastmile_qr_scan", "ios": "https://dc.lft.to/lastmile_qr_scan"}, "lon": -77.03852733333333, "fusion_lat": 0.0}, {"name": "fb700c23fe3497532fd40ae5cb43b0c3", "fusion_lon": 0.0, "lat": 38.892248, "is_reserved": 0, "type": "electric_scooter", "bike_id": "fb700c23fe3497532fd40ae5cb43b0c3", "is_disabled": 0, "rental_uris": {"android": "https://dc.lft.to/lastmile_qr_scan", "ios": "https://dc.lft.to/lastmile_qr_scan"}, "lon": -77.04375833333333, "fusion_lat": 0.0}, {"name": "a60571d54167ce91d70f0c73ec00803e", "fusion_lon": 0.0, "lat": 38.935295833333335, "is_reserved": 0, "type": "electric_scooter", "bike_id": "a60571d54167ce91d70f0c73ec00803e", "is_disabled": 0, "rental_uris": {"android": "https://dc.lft.to/lastmile_qr_scan", "ios": "https://dc.lft.to/lastmile_qr_scan"}, "lon": -77.05450166666667, "fusion_lat": 0.0}, {"name": "37e0a261d9597bd020fb3c1f2c3a31fc", "fusion_lon": 0.0, "lat": 38.895243666666666, "is_reserved": 0, "type": "electric_scooter", "bike_id": "37e0a261d9597bd020fb3c1f2c3a31fc", "is_disabled": 0, "rental_uris": {"android": "https://dc.lft.to/lastmile_qr_scan", "ios": "https://dc.lft.to/lastmile_qr_scan"}, "lon": -76.988237, "fusion_lat": 0.0}, {"name": "03dcd74c3fbe5f95a0d6b5d753d17f16", "fusion_lon": 0.0, "lat": 38.91792983333333, "is_reserved": 0, "type": "electric_scooter", "bike_id": "03dcd74c3fbe5f95a0d6b5d753d17f16", "is_disabled": 0, "rental_uris": {"android": "https://dc.lft.to/lastmile_qr_scan", "ios": "https://dc.lft.to/lastmile_qr_scan"}, "lon": -77.03207566666667, "fusion_lat": 0.0}, {"name": "0ebcf2f0e6dc424ae3c5bbbd17890d17", "fusion_lon": 0.0, "lat": 38.85175233333333, "is_reserved": 0, "type": "electric_scooter", "bike_id": "0ebcf2f0e6dc424ae3c5bbbd17890d17", "is_disabled": 0, "rental_uris": {"android": "https://dc.lft.to/lastmile_qr_scan", "ios": "https://dc.lft.to/lastmile_qr_scan"}, "lon": -76.99581966666666, "fusion_lat": 0.0}, {"name": "66271ae5f4e3fda8c57650c30b40243a", "fusion_lon": 0.0, "lat": 38.87460083333333, "is_reserved": 0, "type": "electric_scooter", "bike_id": "66271ae5f4e3fda8c57650c30b40243a", "is_disabled": 0, "rental_uris": {"android": "https://dc.lft.to/lastmile_qr_scan", "ios": "https://dc.lft.to/lastmile_qr_scan"}, "lon": -77.00542816666666, "fusion_lat": 0.0}, {"name": "1d7c78a1d6bf14498b9e0c2275d1340e", "fusion_lon": 0.0, "lat": 38.906388166666666, "is_reserved": 0, "type": "electric_scooter", "bike_id": "1d7c78a1d6bf14498b9e0c2275d1340e", "is_disabled": 0, "rental_uris": {"android": "https://dc.lft.to/lastmile_qr_scan", "ios": "https://dc.lft.to/lastmile_qr_scan"}, "lon": -77.02498216666666, "fusion_lat": 0.0}, {"name": "392e50175b6b2732eb72ad9f1642cf08", "fusion_lon": 0.0, "lat": 38.90793033333333, "is_reserved": 0, "type": "electric_scooter", "bike_id": "392e50175b6b2732eb72ad9f1642cf08", "is_disabled": 0, "rental_uris": {"android": "https://dc.lft.to/lastmile_qr_scan", "ios": "https://dc.lft.to/lastmile_qr_scan"}, "lon": -77.0382275, "fusion_lat": 0.0}, {"name": "86bba1d9e77c6f2abbf7cf7f591408be", "fusion_lon": 0.0, "lat": 38.9236155, "is_reserved": 0, "type": "electric_scooter", "bike_id": "86bba1d9e77c6f2abbf7cf7f591408be", "is_disabled": 0, "rental_uris": {"android": "https://dc.lft.to/lastmile_qr_scan", "ios": "https://dc.lft.to/lastmile_qr_scan"}, "lon": -77.05077133333333, "fusion_lat": 0.0}, {"name": "fe3800b2ff130a214c42a76957e657ac", "fusion_lon": 0.0, "lat": 38.925078666666664, "is_reserved": 0, "type": "electric_scooter", "bike_id": "fe3800b2ff130a214c42a76957e657ac", "is_disabled": 0, "rental_uris": {"android": "https://dc.lft.to/lastmile_qr_scan", "ios": "https://dc.lft.to/lastmile_qr_scan"}, "lon": -77.00893766666667, "fusion_lat": 0.0}, {"name": "6ae241d1343311bf9211b1817e41c658", "fusion_lon": 0.0, "lat": 38.914898666666666, "is_reserved": 0, "type": "electric_scooter", "bike_id": "6ae241d1343311bf9211b1817e41c658", "is_disabled": 0, "rental_uris": {"android": "https://dc.lft.to/lastmile_qr_scan", "ios": "https://dc.lft.to/lastmile_qr_scan"}, "lon": -76.98580916666667, "fusion_lat": 0.0}, {"name": "6d2d1fdfbde3bb099e41586bc213028d", "fusion_lon": 0.0, "lat": 38.90783783333333, "is_reserved": 0, "type": "electric_scooter", "bike_id": "6d2d1fdfbde3bb099e41586bc213028d", "is_disabled": 0, "rental_uris": {"android": "https://dc.lft.to/lastmile_qr_scan", "ios": "https://dc.lft.to/lastmile_qr_scan"}, "lon": -77.03835816666667, "fusion_lat": 0.0}, {"name": "057bfc5d7b1c998bac7e9450f99aed54", "fusion_lon": 0.0, "lat": 38.935341333333334, "is_reserved": 0, "type": "electric_scooter", "bike_id": "057bfc5d7b1c998bac7e9450f99aed54", "is_disabled": 0, "rental_uris": {"android": "https://dc.lft.to/lastmile_qr_scan", "ios": "https://dc.lft.to/lastmile_qr_scan"}, "lon": -77.03473783333334, "fusion_lat": 0.0}, {"name": "e992550b1a0c41cf0371ada51aabc26a", "fusion_lon": 0.0, "lat": 38.92863783333333, "is_reserved": 0, "type": "electric_scooter", "bike_id": "e992550b1a0c41cf0371ada51aabc26a", "is_disabled": 0, "rental_uris": {"android": "https://dc.lft.to/lastmile_qr_scan", "ios": "https://dc.lft.to/lastmile_qr_scan"}, "lon": -77.01392066666666, "fusion_lat": 0.0}, {"name": "f40b490134f617d9cbcff8422d08f21a", "fusion_lon": 0.0, "lat": 38.92509916666667, "is_reserved": 0, "type": "electric_scooter", "bike_id": "f40b490134f617d9cbcff8422d08f21a", "is_disabled": 0, "rental_uris": {"android": "https://dc.lft.to/lastmile_qr_scan", "ios": "https://dc.lft.to/lastmile_qr_scan"}, "lon": -77.02700416666667, "fusion_lat": 0.0}, {"name": "416fedff7dd3d08d5eca6b85f15a3812", "fusion_lon": 0.0, "lat": 38.9271355, "is_reserved": 0, "type": "electric_scooter", "bike_id": "416fedff7dd3d08d5eca6b85f15a3812", "is_disabled": 0, "rental_uris": {"android": "https://dc.lft.to/lastmile_qr_scan", "ios": "https://dc.lft.to/lastmile_qr_scan"}, "lon": -77.02096833333333, "fusion_lat": 0.0}, {"name": "05cd8e6e03e2457024fa07112d117b31", "fusion_lon": 0.0, "lat": 38.90066133333333, "is_reserved": 0, "type": "electric_scooter", "bike_id": "05cd8e6e03e2457024fa07112d117b31", "is_disabled": 0, "rental_uris": {"android": "https://dc.lft.to/lastmile_qr_scan", "ios": "https://dc.lft.to/lastmile_qr_scan"}, "lon": -77.04541283333333, "fusion_lat": 0.0}, {"name": "42b7b506916b88b65d644a53550ff219", "fusion_lon": 0.0, "lat": 38.9138495, "is_reserved": 0, "type": "electric_bike", "bike_id": "42b7b506916b88b65d644a53550ff219", "is_disabled": 0, "rental_uris": {"android": "https://dc.lft.to/lastmile_qr_scan", "ios": "https://dc.lft.to/lastmile_qr_scan"}, "lon": -77.089308, "fusion_lat": 0.0}, {"name": "2f1c55295cda334765392b875f05c8ff", "fusion_lon": 0.0, "lat": 38.834296, "is_reserved": 0, "type": "electric_bike", "bike_id": "2f1c55295cda334765392b875f05c8ff", "is_disabled": 0, "rental_uris": {"android": "https://dc.lft.to/lastmile_qr_scan", "ios": "https://dc.lft.to/lastmile_qr_scan"}, "lon": -77.10357083333334, "fusion_lat": 0.0}, {"name": "70d745dbd805d3151292e2b9faae0b55", "fusion_lon": 0.0, "lat": 38.913669166666665, "is_reserved": 0, "type": "electric_scooter", "bike_id": "70d745dbd805d3151292e2b9faae0b55", "is_disabled": 0, "rental_uris": {"android": "https://dc.lft.to/lastmile_qr_scan", "ios": "https://dc.lft.to/lastmile_qr_scan"}, "lon": -77.06940516666667, "fusion_lat": 0.0}, {"name": "7488c4ef30154808cb5b1d4fccae617f", "fusion_lon": 0.0, "lat": 38.917292833333335, "is_reserved": 0, "type": "electric_scooter", "bike_id": "7488c4ef30154808cb5b1d4fccae617f", "is_disabled": 0, "rental_uris": {"android": "https://dc.lft.to/lastmile_qr_scan", "ios": "https://dc.lft.to/lastmile_qr_scan"}, "lon": -77.02504016666667, "fusion_lat": 0.0}, {"name": "1caf5d59c90de242ac02bc31b3366d3b", "fusion_lon": 0.0, "lat": 38.92089983333334, "is_reserved": 0, "type": "electric_scooter", "bike_id": "1caf5d59c90de242ac02bc31b3366d3b", "is_disabled": 0, "rental_uris": {"android": "https://dc.lft.to/lastmile_qr_scan", "ios": "https://dc.lft.to/lastmile_qr_scan"}, "lon": -77.04214416666667, "fusion_lat": 0.0}, {"name": "29cca65fc6cdc74854f7df260d105f86", "fusion_lon": 0.0, "lat": 38.892194, "is_reserved": 0, "type": "electric_bike", "bike_id": "29cca65fc6cdc74854f7df260d105f86", "is_disabled": 0, "rental_uris": {"android": "https://dc.lft.to/lastmile_qr_scan", "ios": "https://dc.lft.to/lastmile_qr_scan"}, "lon": -76.97083483333333, "fusion_lat": 0.0}, {"name": "000e29e135c2917e3df48dc52a24c8d4", "fusion_lon": 0.0, "lat": 38.9083425, "is_reserved": 0, "type": "electric_scooter", "bike_id": "000e29e135c2917e3df48dc52a24c8d4", "is_disabled": 0, "rental_uris": {"android": "https://dc.lft.to/lastmile_qr_scan", "ios": "https://dc.lft.to/lastmile_qr_scan"}, "lon": -77.04458283333334, "fusion_lat": 0.0}, {"name": "6127520e9eca320fb0c7f11e59cf7abd", "fusion_lon": 0.0, "lat": 38.922715, "is_reserved": 0, "type": "electric_scooter", "bike_id": "6127520e9eca320fb0c7f11e59cf7abd", "is_disabled": 0, "rental_uris": {"android": "https://dc.lft.to/lastmile_qr_scan", "ios": "https://dc.lft.to/lastmile_qr_scan"}, "lon": -77.0218785, "fusion_lat": 0.0}, {"name": "87239cb261e8ba4f9edc61d4e870aaa2", "fusion_lon": 0.0, "lat": 38.9565465, "is_reserved": 0, "type": "electric_scooter", "bike_id": "87239cb261e8ba4f9edc61d4e870aaa2", "is_disabled": 0, "rental_uris": {"android": "https://dc.lft.to/lastmile_qr_scan", "ios": "https://dc.lft.to/lastmile_qr_scan"}, "lon": -77.010306, "fusion_lat": 0.0}, {"name": "f2646868a49e23fb2f54fb834d53ab45", "fusion_lon": 0.0, "lat": 38.95183766666667, "is_reserved": 0, "type": "electric_scooter", "bike_id": "f2646868a49e23fb2f54fb834d53ab45", "is_disabled": 0, "rental_uris": {"android": "https://dc.lft.to/lastmile_qr_scan", "ios": "https://dc.lft.to/lastmile_qr_scan"}, "lon": -77.02610183333333, "fusion_lat": 0.0}, {"name": "5448a0e3cd368bc1269c49e9547566eb", "fusion_lon": 0.0, "lat": 38.91315683333333, "is_reserved": 0, "type": "electric_scooter", "bike_id": "5448a0e3cd368bc1269c49e9547566eb", "is_disabled": 0, "rental_uris": {"android": "https://dc.lft.to/lastmile_qr_scan", "ios": "https://dc.lft.to/lastmile_qr_scan"}, "lon": -77.06247016666667, "fusion_lat": 0.0}, {"name": "122f417ceb0a1e75776e828529222e0f", "fusion_lon": 0.0, "lat": 38.866176333333335, "is_reserved": 0, "type": "electric_scooter", "bike_id": "122f417ceb0a1e75776e828529222e0f", "is_disabled": 0, "rental_uris": {"android": "https://dc.lft.to/lastmile_qr_scan", "ios": "https://dc.lft.to/lastmile_qr_scan"}, "lon": -77.087846, "fusion_lat": 0.0}, {"name": "b9bc0ef03feafdbb24283b590fddfd87", "fusion_lon": 0.0, "lat": 38.91641716666667, "is_reserved": 0, "type": "electric_scooter", "bike_id": "b9bc0ef03feafdbb24283b590fddfd87", "is_disabled": 0, "rental_uris": {"android": "https://dc.lft.to/lastmile_qr_scan", "ios": "https://dc.lft.to/lastmile_qr_scan"}, "lon": -77.03204983333333, "fusion_lat": 0.0}, {"name": "53c9d6c5ae7c6c59cd6ad6f54f3c7f58", "fusion_lon": 0.0, "lat": 38.876387, "is_reserved": 0, "type": "electric_scooter", "bike_id": "53c9d6c5ae7c6c59cd6ad6f54f3c7f58", "is_disabled": 0, "rental_uris": {"android": "https://dc.lft.to/lastmile_qr_scan", "ios": "https://dc.lft.to/lastmile_qr_scan"}, "lon": -77.00455516666666, "fusion_lat": 0.0}, {"name": "eca89187f2211ccbcb6a54e44acd1ed3", "fusion_lon": 0.0, "lat": 38.916255, "is_reserved": 0, "type": "electric_scooter", "bike_id": "eca89187f2211ccbcb6a54e44acd1ed3", "is_disabled": 0, "rental_uris": {"android": "https://dc.lft.to/lastmile_qr_scan", "ios": "https://dc.lft.to/lastmile_qr_scan"}, "lon": -77.04866133333333, "fusion_lat": 0.0}, {"name": "3f45ef5f8d183053097b42e7cb45eb77", "fusion_lon": 0.0, "lat": 38.920747666666664, "is_reserved": 0, "type": "electric_scooter", "bike_id": "3f45ef5f8d183053097b42e7cb45eb77", "is_disabled": 0, "rental_uris": {"android": "https://dc.lft.to/lastmile_qr_scan", "ios": "https://dc.lft.to/lastmile_qr_scan"}, "lon": -77.02501766666667, "fusion_lat": 0.0}, {"name": "dee019278686e1bca5f02590000c491b", "fusion_lon": 0.0, "lat": 38.932278, "is_reserved": 0, "type": "electric_bike", "bike_id": "dee019278686e1bca5f02590000c491b", "is_disabled": 0, "rental_uris": {"android": "https://dc.lft.to/lastmile_qr_scan", "ios": "https://dc.lft.to/lastmile_qr_scan"}, "lon": -77.18122683333333, "fusion_lat": 0.0}, {"name": "6a3006a8540be26aac7cf2eb6c65930a", "fusion_lon": 0.0, "lat": 38.913303166666665, "is_reserved": 0, "type": "electric_scooter", "bike_id": "6a3006a8540be26aac7cf2eb6c65930a", "is_disabled": 0, "rental_uris": {"android": "https://dc.lft.to/lastmile_qr_scan", "ios": "https://dc.lft.to/lastmile_qr_scan"}, "lon": -77.032731, "fusion_lat": 0.0}, {"name": "6dbb80500cd53a0725bb5a0bf0291626", "fusion_lon": 0.0, "lat": 38.91366033333333, "is_reserved": 0, "type": "electric_scooter", "bike_id": "6dbb80500cd53a0725bb5a0bf0291626", "is_disabled": 0, "rental_uris": {"android": "https://dc.lft.to/lastmile_qr_scan", "ios": "https://dc.lft.to/lastmile_qr_scan"}, "lon": -77.06616433333333, "fusion_lat": 0.0}, {"name": "6a83cf75808d7c8c28b6a7ac1d53a80a", "fusion_lon": 0.0, "lat": 38.917679666666665, "is_reserved": 0, "type": "electric_scooter", "bike_id": "6a83cf75808d7c8c28b6a7ac1d53a80a", "is_disabled": 0, "rental_uris": {"android": "https://dc.lft.to/lastmile_qr_scan", "ios": "https://dc.lft.to/lastmile_qr_scan"}, "lon": -77.04058233333333, "fusion_lat": 0.0}, {"name": "6e208ed1c246f949ff284adc1a85dee1", "fusion_lon": 0.0, "lat": 38.91564266666666, "is_reserved": 0, "type": "electric_scooter", "bike_id": "6e208ed1c246f949ff284adc1a85dee1", "is_disabled": 0, "rental_uris": {"android": "https://dc.lft.to/lastmile_qr_scan", "ios": "https://dc.lft.to/lastmile_qr_scan"}, "lon": -77.03769866666667, "fusion_lat": 0.0}, {"name": "8e07d20b7b24507d7e5fa64a38b3e857", "fusion_lon": 0.0, "lat": 38.8960905, "is_reserved": 0, "type": "electric_scooter", "bike_id": "8e07d20b7b24507d7e5fa64a38b3e857", "is_disabled": 0, "rental_uris": {"android": "https://dc.lft.to/lastmile_qr_scan", "ios": "https://dc.lft.to/lastmile_qr_scan"}, "lon": -77.05440266666666, "fusion_lat": 0.0}, {"name": "2ad04dcc9df93b81978fa2283188c1f0", "fusion_lon": 0.0, "lat": 38.907808333333335, "is_reserved": 0, "type": "electric_scooter", "bike_id": "2ad04dcc9df93b81978fa2283188c1f0", "is_disabled": 0, "rental_uris": {"android": "https://dc.lft.to/lastmile_qr_scan", "ios": "https://dc.lft.to/lastmile_qr_scan"}, "lon": -77.03833783333333, "fusion_lat": 0.0}, {"name": "81478f61896dd14ea798e0c9ee738c4b", "fusion_lon": 0.0, "lat": 38.958714, "is_reserved": 0, "type": "electric_bike", "bike_id": "81478f61896dd14ea798e0c9ee738c4b", "is_disabled": 0, "rental_uris": {"android": "https://dc.lft.to/lastmile_qr_scan", "ios": "https://dc.lft.to/lastmile_qr_scan"}, "lon": -77.00137633333334, "fusion_lat": 0.0}, {"name": "b7d4bae550406386a427529c156fc13c", "fusion_lon": 0.0, "lat": 38.87103066666667, "is_reserved": 0, "type": "electric_scooter", "bike_id": "b7d4bae550406386a427529c156fc13c", "is_disabled": 0, "rental_uris": {"android": "https://dc.lft.to/lastmile_qr_scan", "ios": "https://dc.lft.to/lastmile_qr_scan"}, "lon": -76.98932716666667, "fusion_lat": 0.0}, {"name": "e2ef004f0d5a7da7cde386451345d62b", "fusion_lon": 0.0, "lat": 38.920384, "is_reserved": 0, "type": "electric_scooter", "bike_id": "e2ef004f0d5a7da7cde386451345d62b", "is_disabled": 0, "rental_uris": {"android": "https://dc.lft.to/lastmile_qr_scan", "ios": "https://dc.lft.to/lastmile_qr_scan"}, "lon": -77.02592466666667, "fusion_lat": 0.0}, {"name": "83bc086ffd8289a69ad560aaede4f5b0", "fusion_lon": 0.0, "lat": 38.91767266666667, "is_reserved": 0, "type": "electric_scooter", "bike_id": "83bc086ffd8289a69ad560aaede4f5b0", "is_disabled": 0, "rental_uris": {"android": "https://dc.lft.to/lastmile_qr_scan", "ios": "https://dc.lft.to/lastmile_qr_scan"}, "lon": -77.04058416666666, "fusion_lat": 0.0}, {"name": "c76a5a8e5ad8b61a39ecdd3e283f63fc", "fusion_lon": 0.0, "lat": 38.92896316666667, "is_reserved": 0, "type": "electric_scooter", "bike_id": "c76a5a8e5ad8b61a39ecdd3e283f63fc", "is_disabled": 0, "rental_uris": {"android": "https://dc.lft.to/lastmile_qr_scan", "ios": "https://dc.lft.to/lastmile_qr_scan"}, "lon": -77.0275755, "fusion_lat": 0.0}, {"name": "aa4e2f79478e869534239f7f23fb0bf6", "fusion_lon": 0.0, "lat": 38.91694116666667, "is_reserved": 0, "type": "electric_scooter", "bike_id": "aa4e2f79478e869534239f7f23fb0bf6", "is_disabled": 0, "rental_uris": {"android": "https://dc.lft.to/lastmile_qr_scan", "ios": "https://dc.lft.to/lastmile_qr_scan"}, "lon": -77.0259925, "fusion_lat": 0.0}, {"name": "d599ae246f90f5a1218c4931ff8b9520", "fusion_lon": 0.0, "lat": 38.911056, "is_reserved": 0, "type": "electric_scooter", "bike_id": "d599ae246f90f5a1218c4931ff8b9520", "is_disabled": 0, "rental_uris": {"android": "https://dc.lft.to/lastmile_qr_scan", "ios": "https://dc.lft.to/lastmile_qr_scan"}, "lon": -77.04307283333333, "fusion_lat": 0.0}, {"name": "16ccfe631fd288249c003362e9707e5b", "fusion_lon": 0.0, "lat": 38.89224083333333, "is_reserved": 0, "type": "electric_scooter", "bike_id": "16ccfe631fd288249c003362e9707e5b", "is_disabled": 0, "rental_uris": {"android": "https://dc.lft.to/lastmile_qr_scan", "ios": "https://dc.lft.to/lastmile_qr_scan"}, "lon": -77.02508016666667, "fusion_lat": 0.0}, {"name": "818ef8fecd769b9f6595b24cf0e9b57f", "fusion_lon": 0.0, "lat": 38.917688, "is_reserved": 0, "type": "electric_scooter", "bike_id": "818ef8fecd769b9f6595b24cf0e9b57f", "is_disabled": 0, "rental_uris": {"android": "https://dc.lft.to/lastmile_qr_scan", "ios": "https://dc.lft.to/lastmile_qr_scan"}, "lon": -77.04060633333333, "fusion_lat": 0.0}, {"name": "6ed0e76b0b7ab77b55dc10e21c6b4563", "fusion_lon": 0.0, "lat": 38.92307133333333, "is_reserved": 0, "type": "electric_scooter", "bike_id": "6ed0e76b0b7ab77b55dc10e21c6b4563", "is_disabled": 0, "rental_uris": {"android": "https://dc.lft.to/lastmile_qr_scan", "ios": "https://dc.lft.to/lastmile_qr_scan"}, "lon": -77.03122566666667, "fusion_lat": 0.0}, {"name": "170924b416cd7b301142fb7224277e23", "fusion_lon": 0.0, "lat": 38.89672683333333, "is_reserved": 0, "type": "electric_scooter", "bike_id": "170924b416cd7b301142fb7224277e23", "is_disabled": 0, "rental_uris": {"android": "https://dc.lft.to/lastmile_qr_scan", "ios": "https://dc.lft.to/lastmile_qr_scan"}, "lon": -76.9882215, "fusion_lat": 0.0}, {"name": "ada68824b8339fac3fe04c4be81f4d51", "fusion_lon": 0.0, "lat": 38.9162415, "is_reserved": 0, "type": "electric_scooter", "bike_id": "ada68824b8339fac3fe04c4be81f4d51", "is_disabled": 0, "rental_uris": {"android": "https://dc.lft.to/lastmile_qr_scan", "ios": "https://dc.lft.to/lastmile_qr_scan"}, "lon": -77.03853616666666, "fusion_lat": 0.0}, {"name": "5da8bfe83103bc9d558e449c8aaebd6a", "fusion_lon": 0.0, "lat": 38.92102533333333, "is_reserved": 0, "type": "electric_scooter", "bike_id": "5da8bfe83103bc9d558e449c8aaebd6a", "is_disabled": 0, "rental_uris": {"android": "https://dc.lft.to/lastmile_qr_scan", "ios": "https://dc.lft.to/lastmile_qr_scan"}, "lon": -77.03049916666667, "fusion_lat": 0.0}, {"name": "90538838c9e5e19d8f16f0c477677765", "fusion_lon": 0.0, "lat": 38.92246883333333, "is_reserved": 0, "type": "electric_scooter", "bike_id": "90538838c9e5e19d8f16f0c477677765", "is_disabled": 0, "rental_uris": {"android": "https://dc.lft.to/lastmile_qr_scan", "ios": "https://dc.lft.to/lastmile_qr_scan"}, "lon": -77.039037, "fusion_lat": 0.0}, {"name": "bf5db1ae657f4718b43c2aabca53a8c6", "fusion_lon": 0.0, "lat": 38.9033415, "is_reserved": 0, "type": "electric_scooter", "bike_id": "bf5db1ae657f4718b43c2aabca53a8c6", "is_disabled": 0, "rental_uris": {"android": "https://dc.lft.to/lastmile_qr_scan", "ios": "https://dc.lft.to/lastmile_qr_scan"}, "lon": -76.97588733333333, "fusion_lat": 0.0}, {"name": "0cedd1d9e2d08f0cf40bf1792446c295", "fusion_lon": 0.0, "lat": 38.9159935, "is_reserved": 0, "type": "electric_scooter", "bike_id": "0cedd1d9e2d08f0cf40bf1792446c295", "is_disabled": 0, "rental_uris": {"android": "https://dc.lft.to/lastmile_qr_scan", "ios": "https://dc.lft.to/lastmile_qr_scan"}, "lon": -77.03184366666666, "fusion_lat": 0.0}, {"name": "0269f092937be9840f07419834ad462c", "fusion_lon": 0.0, "lat": 38.90684383333333, "is_reserved": 0, "type": "electric_scooter", "bike_id": "0269f092937be9840f07419834ad462c", "is_disabled": 0, "rental_uris": {"android": "https://dc.lft.to/lastmile_qr_scan", "ios": "https://dc.lft.to/lastmile_qr_scan"}, "lon": -77.07169566666667, "fusion_lat": 0.0}, {"name": "8a795a156a6da43e2b52850dbce18e53", "fusion_lon": 0.0, "lat": 38.896761166666664, "is_reserved": 0, "type": "electric_scooter", "bike_id": "8a795a156a6da43e2b52850dbce18e53", "is_disabled": 0, "rental_uris": {"android": "https://dc.lft.to/lastmile_qr_scan", "ios": "https://dc.lft.to/lastmile_qr_scan"}, "lon": -77.00519916666667, "fusion_lat": 0.0}, {"name": "eee9feaa2082ad250633f989fd7eacd8", "fusion_lon": 0.0, "lat": 38.912744833333335, "is_reserved": 0, "type": "electric_scooter", "bike_id": "eee9feaa2082ad250633f989fd7eacd8", "is_disabled": 0, "rental_uris": {"android": "https://dc.lft.to/lastmile_qr_scan", "ios": "https://dc.lft.to/lastmile_qr_scan"}, "lon": -77.0269285, "fusion_lat": 0.0}, {"name": "15c55eef56ba31165b20df014c4a36f8", "fusion_lon": 0.0, "lat": 38.90039316666667, "is_reserved": 0, "type": "electric_scooter", "bike_id": "15c55eef56ba31165b20df014c4a36f8", "is_disabled": 0, "rental_uris": {"android": "https://dc.lft.to/lastmile_qr_scan", "ios": "https://dc.lft.to/lastmile_qr_scan"}, "lon": -77.02393966666666, "fusion_lat": 0.0}, {"name": "a884fb69d31fff743df672a84d7ddce3", "fusion_lon": 0.0, "lat": 38.921488333333336, "is_reserved": 0, "type": "electric_scooter", "bike_id": "a884fb69d31fff743df672a84d7ddce3", "is_disabled": 0, "rental_uris": {"android": "https://dc.lft.to/lastmile_qr_scan", "ios": "https://dc.lft.to/lastmile_qr_scan"}, "lon": -77.01817166666666, "fusion_lat": 0.0}, {"name": "21884a189a3e09baaacdbe2383785beb", "fusion_lon": 0.0, "lat": 38.90266716666667, "is_reserved": 0, "type": "electric_scooter", "bike_id": "21884a189a3e09baaacdbe2383785beb", "is_disabled": 0, "rental_uris": {"android": "https://dc.lft.to/lastmile_qr_scan", "ios": "https://dc.lft.to/lastmile_qr_scan"}, "lon": -77.03973033333334, "fusion_lat": 0.0}, {"name": "63e7c349bd14e2af081f6b445c714089", "fusion_lon": 0.0, "lat": 38.90855533333333, "is_reserved": 0, "type": "electric_bike", "bike_id": "63e7c349bd14e2af081f6b445c714089", "is_disabled": 0, "rental_uris": {"android": "https://dc.lft.to/lastmile_qr_scan", "ios": "https://dc.lft.to/lastmile_qr_scan"}, "lon": -76.99149883333334, "fusion_lat": 0.0}, {"name": "5d99dcc1dec246fb1048088c24e8cda8", "fusion_lon": 0.0, "lat": 38.891741333333336, "is_reserved": 0, "type": "electric_scooter", "bike_id": "5d99dcc1dec246fb1048088c24e8cda8", "is_disabled": 0, "rental_uris": {"android": "https://dc.lft.to/lastmile_qr_scan", "ios": "https://dc.lft.to/lastmile_qr_scan"}, "lon": -77.0155205, "fusion_lat": 0.0}, {"name": "47c8c85bde797c583d1e5f1c300a48c9", "fusion_lon": 0.0, "lat": 38.890441, "is_reserved": 0, "type": "electric_scooter", "bike_id": "47c8c85bde797c583d1e5f1c300a48c9", "is_disabled": 0, "rental_uris": {"android": "https://dc.lft.to/lastmile_qr_scan", "ios": "https://dc.lft.to/lastmile_qr_scan"}, "lon": -76.9514275, "fusion_lat": 0.0}, {"name": "702e3f2aac1070863914664a2bcee331", "fusion_lon": 0.0, "lat": 38.9141295, "is_reserved": 0, "type": "electric_scooter", "bike_id": "702e3f2aac1070863914664a2bcee331", "is_disabled": 0, "rental_uris": {"android": "https://dc.lft.to/lastmile_qr_scan", "ios": "https://dc.lft.to/lastmile_qr_scan"}, "lon": -77.022328, "fusion_lat": 0.0}, {"name": "ea1fbff7992d93b2a8d44abee85891e5", "fusion_lon": 0.0, "lat": 38.907591833333335, "is_reserved": 0, "type": "electric_scooter", "bike_id": "ea1fbff7992d93b2a8d44abee85891e5", "is_disabled": 0, "rental_uris": {"android": "https://dc.lft.to/lastmile_qr_scan", "ios": "https://dc.lft.to/lastmile_qr_scan"}, "lon": -77.03202916666666, "fusion_lat": 0.0}, {"name": "7cd93f8de1d153a7bf3790ffc37dda32", "fusion_lon": 0.0, "lat": 38.901524333333334, "is_reserved": 0, "type": "electric_scooter", "bike_id": "7cd93f8de1d153a7bf3790ffc37dda32", "is_disabled": 0, "rental_uris": {"android": "https://dc.lft.to/lastmile_qr_scan", "ios": "https://dc.lft.to/lastmile_qr_scan"}, "lon": -76.92137066666666, "fusion_lat": 0.0}, {"name": "d598c48f4d9e8beae1defa32200f291a", "fusion_lon": 0.0, "lat": 38.902730166666665, "is_reserved": 0, "type": "electric_scooter", "bike_id": "d598c48f4d9e8beae1defa32200f291a", "is_disabled": 0, "rental_uris": {"android": "https://dc.lft.to/lastmile_qr_scan", "ios": "https://dc.lft.to/lastmile_qr_scan"}, "lon": -77.0397905, "fusion_lat": 0.0}, {"name": "0146b03166f6188be764e42bd9a7c3b6", "fusion_lon": 0.0, "lat": 38.931284833333336, "is_reserved": 0, "type": "electric_scooter", "bike_id": "0146b03166f6188be764e42bd9a7c3b6", "is_disabled": 0, "rental_uris": {"android": "https://dc.lft.to/lastmile_qr_scan", "ios": "https://dc.lft.to/lastmile_qr_scan"}, "lon": -77.0330595, "fusion_lat": 0.0}, {"name": "1464203d9ec531e7870437ad0bf04aba", "fusion_lon": 0.0, "lat": 38.8472815, "is_reserved": 0, "type": "electric_bike", "bike_id": "1464203d9ec531e7870437ad0bf04aba", "is_disabled": 0, "rental_uris": {"android": "https://dc.lft.to/lastmile_qr_scan", "ios": "https://dc.lft.to/lastmile_qr_scan"}, "lon": -77.1198675, "fusion_lat": 0.0}, {"name": "3529aeed7e757375c60f7580bfa206f5", "fusion_lon": 0.0, "lat": 38.86241583333333, "is_reserved": 0, "type": "electric_scooter", "bike_id": "3529aeed7e757375c60f7580bfa206f5", "is_disabled": 0, "rental_uris": {"android": "https://dc.lft.to/lastmile_qr_scan", "ios": "https://dc.lft.to/lastmile_qr_scan"}, "lon": -76.99493366666667, "fusion_lat": 0.0}, {"name": "aca79236a9ce70b977f0c26ae62574e6", "fusion_lon": 0.0, "lat": 38.900733833333334, "is_reserved": 0, "type": "electric_scooter", "bike_id": "aca79236a9ce70b977f0c26ae62574e6", "is_disabled": 0, "rental_uris": {"android": "https://dc.lft.to/lastmile_qr_scan", "ios": "https://dc.lft.to/lastmile_qr_scan"}, "lon": -77.04349583333334, "fusion_lat": 0.0}, {"name": "50a7999b5365d78979a4461a2f258c65", "fusion_lon": 0.0, "lat": 38.935339, "is_reserved": 0, "type": "electric_scooter", "bike_id": "50a7999b5365d78979a4461a2f258c65", "is_disabled": 0, "rental_uris": {"android": "https://dc.lft.to/lastmile_qr_scan", "ios": "https://dc.lft.to/lastmile_qr_scan"}, "lon": -77.023538, "fusion_lat": 0.0}, {"name": "b2f1167f72209c4bcf610690cc6bb93c", "fusion_lon": 0.0, "lat": 38.92338933333333, "is_reserved": 0, "type": "electric_scooter", "bike_id": "b2f1167f72209c4bcf610690cc6bb93c", "is_disabled": 0, "rental_uris": {"android": "https://dc.lft.to/lastmile_qr_scan", "ios": "https://dc.lft.to/lastmile_qr_scan"}, "lon": -77.05249916666666, "fusion_lat": 0.0}, {"name": "7d313339c70a26828e742bb5817657b9", "fusion_lon": 0.0, "lat": 38.92039366666667, "is_reserved": 0, "type": "electric_scooter", "bike_id": "7d313339c70a26828e742bb5817657b9", "is_disabled": 0, "rental_uris": {"android": "https://dc.lft.to/lastmile_qr_scan", "ios": "https://dc.lft.to/lastmile_qr_scan"}, "lon": -77.025839, "fusion_lat": 0.0}, {"name": "043c5308ac2b8bc61e6aa299ec82e2b6", "fusion_lon": 0.0, "lat": 38.89221783333333, "is_reserved": 0, "type": "electric_scooter", "bike_id": "043c5308ac2b8bc61e6aa299ec82e2b6", "is_disabled": 0, "rental_uris": {"android": "https://dc.lft.to/lastmile_qr_scan", "ios": "https://dc.lft.to/lastmile_qr_scan"}, "lon": -77.01281133333333, "fusion_lat": 0.0}, {"name": "50081f995b374cf5ea8cd02160fc059b", "fusion_lon": 0.0, "lat": 38.87626683333333, "is_reserved": 0, "type": "electric_scooter", "bike_id": "50081f995b374cf5ea8cd02160fc059b", "is_disabled": 0, "rental_uris": {"android": "https://dc.lft.to/lastmile_qr_scan", "ios": "https://dc.lft.to/lastmile_qr_scan"},