{"data": {"bikes": [{"lat": 38.917145166666664, "is_disabled": 0, "type": "electric_scooter", "lon": -77.0324975, "bike_id": "375629855bd0af11df5c4ad94df1a70e", "fusion_lat": 0.0, "name": "375629855bd0af11df5c4ad94df1a70e", "is_reserved": 0, "rental_uris": {"android": "https://dc.lft.to/lastmile_qr_scan", "ios": "https://dc.lft.to/lastmile_qr_scan"}, "fusion_lon": 0.0}, {"lat": 38.900430666666665, "is_disabled": 0, "type": "electric_scooter", "lon": -77.02590466666666, "bike_id": "aeb96add582b6fdc29bd99b15b5d8ef2", "fusion_lat": 0.0, "name": "aeb96add582b6fdc29bd99b15b5d8ef2", "is_reserved": 0, "rental_uris": {"android": "https://dc.lft.to/lastmile_qr_scan", "ios": "https://dc.lft.to/lastmile_qr_scan"}, "fusion_lon": 0.0}, {"lat": 38.9154935, "is_disabled": 0, "type": "electric_scooter", "lon": -77.03849516666666, "bike_id": "279e8e716251f58d0884ac357b8e0257", "fusion_lat": 0.0, "name": "279e8e716251f58d0884ac357b8e0257", "is_reserved": 0, "rental_uris": {"android": "https://dc.lft.to/lastmile_qr_scan", "ios": "https://dc.lft.to/lastmile_qr_scan"}, "fusion_lon": 0.0}, {"lat": 38.93297366666667, "is_disabled": 0, "type": "electric_scooter", "lon": -77.02802983333333, "bike_id": "efc109ef20336fa89093669990c5077e", "fusion_lat": 0.0, "name": "efc109ef20336fa89093669990c5077e", "is_reserved": 0, "rental_uris": {"android": "https://dc.lft.to/lastmile_qr_scan", "ios": "https://dc.lft.to/lastmile_qr_scan"}, "fusion_lon": 0.0}, {"lat": 38.924716333333336, "is_disabled": 0, "type": "electric_bike", "lon": -77.20843166666667, "bike_id": "d1de91a1d9dc9b3aa2e00027bc9fab9e", "fusion_lat": 0.0, "name": "d1de91a1d9dc9b3aa2e00027bc9fab9e", "is_reserved": 0, "rental_uris": {"android": "https://dc.lft.to/lastmile_qr_scan", "ios": "https://dc.lft.to/lastmile_qr_scan"}, "fusion_lon": 0.0}, {"lat": 38.905106333333336, "is_disabled": 0, "type": "electric_scooter", "lon": -77.0414985, "bike_id": "0ea54d2c80d9dea1079dcda3ce33c0e4", "fusion_lat": 0.0, "name": "0ea54d2c80d9dea1079dcda3ce33c0e4", "is_reserved": 0, "rental_uris": {"android": "https://dc.lft.to/lastmile_qr_scan", "ios": "https://dc.lft.to/lastmile_qr_scan"}, "fusion_lon": 0.0}, {"lat": 38.91706466666667, "is_disabled": 0, "type": "electric_scooter", "lon": -77.04278216666667, "bike_id": "8b07b14c36bf54ba1c5f5e0c06e09e45", "fusion_lat": 0.0, "name": "8b07b14c36bf54ba1c5f5e0c06e09e45", "is_reserved": 0, "rental_uris": {"android": "https://dc.lft.to/lastmile_qr_scan", "ios": "https://dc.lft.to/lastmile_qr_scan"}, "fusion_lon": 0.0}, {"lat": 38.911987833333335, "is_disabled": 0, "type": "electric_scooter", "lon": -77.05974133333333, "bike_id": "8e1476a5d206932e5c3094a002605e03", "fusion_lat": 0.0, "name": "8e1476a5d206932e5c3094a002605e03", "is_reserved": 0, "rental_uris": {"android": "https://dc.lft.to/lastmile_qr_scan", "ios": "https://dc.lft.to/lastmile_qr_scan"}, "fusion_lon": 0.0}, {"lat": 38.842542333333334, "is_disabled": 0, "type": "electric_bike", "lon": -77.05832166666667, "bike_id": "fe16d654d8c7f21f300b96d3abbb4464", "fusion_lat": 0.0, "name": "fe16d654d8c7f21f300b96d3abbb4464", "is_reserved": 0, "rental_uris": {"android": "https://dc.lft.to/lastmile_qr_scan", "ios": "https://dc.lft.to/lastmile_qr_scan"}, "fusion_lon": 0.0}, {"lat": 38.90684133333333, "is_disabled": 0, "type": "electric_scooter", "lon": -77.01012966666667, "bike_id": "ecb859cbf1d0d51ffb80920cfee72034", "fusion_lat": 0.0, "name": "ecb859cbf1d0d51ffb80920cfee72034", "is_reserved": 0, "rental_uris": {"android": "https://dc.lft.to/lastmile_qr_scan", "ios": "https://dc.lft.to/lastmile_qr_scan"}, "fusion_lon": 0.0}, {"lat": 38.93596483333334, "is_disabled": 0, "type": "electric_scooter", "lon": -77.03654633333333, "bike_id": "025a72dd6c206e1e220bb6be52781795", "fusion_lat": 0.0, "name": "025a72dd6c206e1e220bb6be52781795", "is_reserved": 0, "rental_uris": {"android": "https://dc.lft.to/lastmile_qr_scan", "ios": "https://dc.lft.to/lastmile_qr_scan"}, "fusion_lon": 0.0}, {"lat": 38.89221166666667, "is_disabled": 0, "type": "electric_scooter", "lon": -77.02315533333334, "bike_id": "25faba1e42f1234fa88ad55af28d5bb3", "fusion_lat": 0.0, "name": "25faba1e42f1234fa88ad55af28d5bb3", "is_reserved": 0, "rental_uris": {"android": "https://dc.lft.to/lastmile_qr_scan", "ios": "https://dc.lft.to/lastmile_qr_scan"}, "fusion_lon": 0.0}, {"lat": 38.91105916666667, "is_disabled": 0, "type": "electric_scooter", "lon": -77.04205216666666, "bike_id": "9b3767a3b1104f6f157958b72620b76c", "fusion_lat": 0.0, "name": "9b3767a3b1104f6f157958b72620b76c", "is_reserved": 0, "rental_uris": {"android": "https://dc.lft.to/lastmile_qr_scan", "ios": "https://dc.lft.to/lastmile_qr_scan"}, "fusion_lon": 0.0}, {"lat": 38.91261733333333, "is_disabled": 0, "type": "electric_scooter", "lon": -77.0225045, "bike_id": "f1082ba77693f2a400ba049b71aed615", "fusion_lat": 0.0, "name": "f1082ba77693f2a400ba049b71aed615", "is_reserved": 0, "rental_uris": {"android": "https://dc.lft.to/lastmile_qr_scan", "ios": "https://dc.lft.to/lastmile_qr_scan"}, "fusion_lon": 0.0}, {"lat": 38.902404, "is_disabled": 0, "type": "electric_scooter", "lon": -77.00198966666666, "bike_id": "35d542b0321429014f6cb99e4d04d665", "fusion_lat": 0.0, "name": "35d542b0321429014f6cb99e4d04d665", "is_reserved": 0, "rental_uris": {"android": "https://dc.lft.to/lastmile_qr_scan", "ios": "https://dc.lft.to/lastmile_qr_scan"}, "fusion_lon": 0.0}, {"lat": 38.908281, "is_disabled": 0, "type": "electric_scooter", "lon": -76.99696883333333, "bike_id": "555b7cf3da8e3b4436aac64debbff05d", "fusion_lat": 0.0, "name": "555b7cf3da8e3b4436aac64debbff05d", "is_reserved": 0, "rental_uris": {"android": "https://dc.lft.to/lastmile_qr_scan", "ios": "https://dc.lft.to/lastmile_qr_scan"}, "fusion_lon": 0.0}, {"lat": 38.90623316666667, "is_disabled": 0, "type": "electric_scooter", "lon": -77.0218395, "bike_id": "618fb540bb14df7909cc09c14b0027ef", "fusion_lat": 0.0, "name": "618fb540bb14df7909cc09c14b0027ef", "is_reserved": 0, "rental_uris": {"android": "https://dc.lft.to/lastmile_qr_scan", "ios": "https://dc.lft.to/lastmile_qr_scan"}, "fusion_lon": 0.0}, {"lat": 38.887442666666665, "is_disabled": 0, "type": "electric_scooter", "lon": -77.02206233333334, "bike_id": "0d505d9164bbce5f465a82889092bde8", "fusion_lat": 0.0, "name": "0d505d9164bbce5f465a82889092bde8", "is_reserved": 0, "rental_uris": {"android": "https://dc.lft.to/lastmile_qr_scan", "ios": "https://dc.lft.to/lastmile_qr_scan"}, "fusion_lon": 0.0}, {"lat": 38.92363683333333, "is_disabled": 0, "type": "electric_scooter", "lon": -77.05129283333333, "bike_id": "70bd0808705b87735922a338ccdb8c05", "fusion_lat": 0.0, "name": "70bd0808705b87735922a338ccdb8c05", "is_reserved": 0, "rental_uris": {"android": "https://dc.lft.to/lastmile_qr_scan", "ios": "https://dc.lft.to/lastmile_qr_scan"}, "fusion_lon": 0.0}, {"lat": 38.893900333333335, "is_disabled": 0, "type": "electric_scooter", "lon": -76.94996833333333, "bike_id": "cbd31cdb31858a2b70c7f3ebf576d84e", "fusion_lat": 0.0, "name": "cbd31cdb31858a2b70c7f3ebf576d84e", "is_reserved": 0, "rental_uris": {"android": "https://dc.lft.to/lastmile_qr_scan", "ios": "https://dc.lft.to/lastmile_qr_scan"}, "fusion_lon": 0.0}, {"lat": 38.95414016666667, "is_disabled": 0, "type": "electric_bike", "lon": -76.9806485, "bike_id": "3ef8c58753d8381f8f5e3c8d7553c180", "fusion_lat": 0.0, "name": "3ef8c58753d8381f8f5e3c8d7553c180", "is_reserved": 0, "rental_uris": {"android": "https://dc.lft.to/lastmile_qr_scan", "ios": "https://dc.lft.to/lastmile_qr_scan"}, "fusion_lon": 0.0}, {"lat": 38.9157115, "is_disabled": 0, "type": "electric_scooter", "lon": -77.020085, "bike_id": "e79eca626868308567d429ff2fd0976f", "fusion_lat": 0.0, "name": "e79eca626868308567d429ff2fd0976f", "is_reserved": 0, "rental_uris": {"android": "https://dc.lft.to/lastmile_qr_scan", "ios": "https://dc.lft.to/lastmile_qr_scan"}, "fusion_lon": 0.0}, {"lat": 38.944302666666665, "is_disabled": 0, "type": "electric_scooter", "lon": -77.06343883333334, "bike_id": "df5c2c22335beb1cc7c55e1deeff6ebb", "fusion_lat": 0.0, "name": "df5c2c22335beb1cc7c55e1deeff6ebb", "is_reserved": 0, "rental_uris": {"android": "https://dc.lft.to/lastmile_qr_scan", "ios": "https://dc.lft.to/lastmile_qr_scan"}, "fusion_lon": 0.0}, {"lat": 38.900946, "is_disabled": 0, "type": "electric_scooter", "lon": -77.00064283333333, "bike_id": "d8fd4d426489eaf2e6a985de0bf24d1f", "fusion_lat": 0.0, "name": "d8fd4d426489eaf2e6a985de0bf24d1f", "is_reserved": 0, "rental_uris": {"android": "https://dc.lft.to/lastmile_qr_scan", "ios": "https://dc.lft.to/lastmile_qr_scan"}, "fusion_lon": 0.0}, {"lat": 38.905016, "is_disabled": 0, "type": "electric_scooter", "lon": -77.0294855, "bike_id": "84926a7ca445d591d2b4026e4179ce87", "fusion_lat": 0.0, "name": "84926a7ca445d591d2b4026e4179ce87", "is_reserved": 0, "rental_uris": {"android": "https://dc.lft.to/lastmile_qr_scan", "ios": "https://dc.lft.to/lastmile_qr_scan"}, "fusion_lon": 0.0}, {"lat": 38.873446333333334, "is_disabled": 0, "type": "electric_scooter", "lon": -76.99168083333333, "bike_id": "f533abb985201abb5de322084ff6058d", "fusion_lat": 0.0, "name": "f533abb985201abb5de322084ff6058d", "is_reserved": 0, "rental_uris": {"android": "https://dc.lft.to/lastmile_qr_scan", "ios": "https://dc.lft.to/lastmile_qr_scan"}, "fusion_lon": 0.0}, {"lat": 38.919125, "is_disabled": 0, "type": "electric_scooter", "lon": -77.025896, "bike_id": "19f27c44bd59304255c22b519cc5c844", "fusion_lat": 0.0, "name": "19f27c44bd59304255c22b519cc5c844", "is_reserved": 0, "rental_uris": {"android": "https://dc.lft.to/lastmile_qr_scan", "ios": "https://dc.lft.to/lastmile_qr_scan"}, "fusion_lon": 0.0}, {"lat": 38.9067855, "is_disabled": 0, "type": "electric_scooter", "lon": -77.03829666666667, "bike_id": "34bf9959348f74b0c4933f7a16cee4b7", "fusion_lat": 0.0, "name": "34bf9959348f74b0c4933f7a16cee4b7", "is_reserved": 0, "rental_uris": {"android": "https://dc.lft.to/lastmile_qr_scan", "ios": "https://dc.lft.to/lastmile_qr_scan"}, "fusion_lon": 0.0}, {"lat": 38.9038765, "is_disabled": 0, "type": "electric_scooter", "lon": -77.0341605, "bike_id": "4d31a0d9a367c58890cd9a380d4c0c20", "fusion_lat": 0.0, "name": "4d31a0d9a367c58890cd9a380d4c0c20", "is_reserved": 0, "rental_uris": {"android": "https://dc.lft.to/lastmile_qr_scan", "ios": "https://dc.lft.to/lastmile_qr_scan"}, "fusion_lon": 0.0}, {"lat": 38.90720316666667, "is_disabled": 0, "type": "electric_scooter", "lon": -77.03446316666667, "bike_id": "9c79eb7983097891e9d8742856e49370", "fusion_lat": 0.0, "name": "9c79eb7983097891e9d8742856e49370", "is_reserved": 0, "rental_uris": {"android": "https://dc.lft.to/lastmile_qr_scan", "ios": "https://dc.lft.to/lastmile_qr_scan"}, "fusion_lon": 0.0}, {"lat": 38.9021715, "is_disabled": 0, "type": "electric_scooter", "lon": -76.9459215, "bike_id": "3d75534e73fa5858ed61101eedf61d37", "fusion_lat": 0.0, "name": "3d75534e73fa5858ed61101eedf61d37", "is_reserved": 0, "rental_uris": {"android": "https://dc.lft.to/lastmile_qr_scan", "ios": "https://dc.lft.to/lastmile_qr_scan"}, "fusion_lon": 0.0}, {"lat": 38.9175725, "is_disabled": 0, "type": "electric_scooter", "lon": -77.0318845, "bike_id": "8fd94187ec3d0e94cedd1bdfd71d406f", "fusion_lat": 0.0, "name": "8fd94187ec3d0e94cedd1bdfd71d406f", "is_reserved": 0, "rental_uris": {"android": "https://dc.lft.to/lastmile_qr_scan", "ios": "https://dc.lft.to/lastmile_qr_scan"}, "fusion_lon": 0.0}, {"lat": 38.91206733333333, "is_disabled": 0, "type": "electric_scooter", "lon": -77.02755866666666, "bike_id": "bb7f4a6d9ab310c1b20a3b54458fbab3", "fusion_lat": 0.0, "name": "bb7f4a6d9ab310c1b20a3b54458fbab3", "is_reserved": 0, "rental_uris": {"android": "https://dc.lft.to/lastmile_qr_scan", "ios": "https://dc.lft.to/lastmile_qr_scan"}, "fusion_lon": 0.0}, {"lat": 38.919628, "is_disabled": 0, "type": "electric_bike", "lon": -76.972596, "bike_id": "b6cd17b101fa66696f5ea047df292656", "fusion_lat": 0.0, "name": "b6cd17b101fa66696f5ea047df292656", "is_reserved": 0, "rental_uris": {"android": "https://dc.lft.to/lastmile_qr_scan", "ios": "https://dc.lft.to/lastmile_qr_scan"}, "fusion_lon": 0.0}, {"lat": 38.936689, "is_disabled": 0, "type": "electric_bike", "lon": -76.95203, "bike_id": "5fb5952c656b503443c502736483a1ff", "fusion_lat": 0.0, "name": "5fb5952c656b503443c502736483a1ff", "is_reserved": 0, "rental_uris": {"android": "https://dc.lft.to/lastmile_qr_scan", "ios": "https://dc.lft.to/lastmile_qr_scan"}, "fusion_lon": 0.0}, {"lat": 38.947152833333334, "is_disabled": 0, "type": "electric_scooter", "lon": -77.02258766666667, "bike_id": "118bfcc7a3be2040508e734074a8d960", "fusion_lat": 0.0, "name": "118bfcc7a3be2040508e734074a8d960", "is_reserved": 0, "rental_uris": {"android": "https://dc.lft.to/lastmile_qr_scan", "ios": "https://dc.lft.to/lastmile_qr_scan"}, "fusion_lon": 0.0}, {"lat": 38.9301375, "is_disabled": 0, "type": "electric_bike", "lon": -77.216491, "bike_id": "7cd0365558ed214d7d4ca6085c288581", "fusion_lat": 0.0, "name": "7cd0365558ed214d7d4ca6085c288581", "is_reserved": 0, "rental_uris": {"android": "https://dc.lft.to/lastmile_qr_scan", "ios": "https://dc.lft.to/lastmile_qr_scan"}, "fusion_lon": 0.0}, {"lat": 38.89491016666667, "is_disabled": 0, "type": "electric_scooter", "lon": -77.02192766666667, "bike_id": "d89b9955171a11347af06534c1d57daf", "fusion_lat": 0.0, "name": "d89b9955171a11347af06534c1d57daf", "is_reserved": 0, "rental_uris": {"android": "https://dc.lft.to/lastmile_qr_scan", "ios": "https://dc.lft.to/lastmile_qr_scan"}, "fusion_lon": 0.0}, {"lat": 38.917102, "is_disabled": 0, "type": "electric_scooter", "lon": -77.03124166666667, "bike_id": "35431b31524ec0f31aae680ffb9b432d", "fusion_lat": 0.0, "name": "35431b31524ec0f31aae680ffb9b432d", "is_reserved": 0, "rental_uris": {"android": "https://dc.lft.to/lastmile_qr_scan", "ios": "https://dc.lft.to/lastmile_qr_scan"}, "fusion_lon": 0.0}, {"lat": 38.901101, "is_disabled": 0, "type": "electric_scooter", "lon": -76.99546983333333, "bike_id": "660426d0843e695fb70ad75618f9a83b", "fusion_lat": 0.0, "name": "660426d0843e695fb70ad75618f9a83b", "is_reserved": 0, "rental_uris": {"android": "https://dc.lft.to/lastmile_qr_scan", "ios": "https://dc.lft.to/lastmile_qr_scan"}, "fusion_lon": 0.0}, {"lat": 38.91140866666667, "is_disabled": 0, "type": "electric_scooter", "lon": -77.02699766666667, "bike_id": "3924734bc77f04ef3901ca4074678cdb", "fusion_lat": 0.0, "name": "3924734bc77f04ef3901ca4074678cdb", "is_reserved": 0, "rental_uris": {"android": "https://dc.lft.to/lastmile_qr_scan", "ios": "https://dc.lft.to/lastmile_qr_scan"}, "fusion_lon": 0.0}, {"lat": 38.930959, "is_disabled": 0, "type": "electric_scooter", "lon": -77.03441266666667, "bike_id": "98aeb4ee96749ab21a6117ff054f01ad", "fusion_lat": 0.0, "name": "98aeb4ee96749ab21a6117ff054f01ad", "is_reserved": 0, "rental_uris": {"android": "https://dc.lft.to/lastmile_qr_scan", "ios": "https://dc.lft.to/lastmile_qr_scan"}, "fusion_lon": 0.0}, {"lat": 38.895636333333336, "is_disabled": 0, "type": "electric_bike", "lon": -77.1272915, "bike_id": "9af2cc1236709edb06961e2c77e90a8f", "fusion_lat": 0.0, "name": "9af2cc1236709edb06961e2c77e90a8f", "is_reserved": 0, "rental_uris": {"android": "https://dc.lft.to/lastmile_qr_scan", "ios": "https://dc.lft.to/lastmile_qr_scan"}, "fusion_lon": 0.0}, {"lat": 38.90418583333334, "is_disabled": 0, "type": "electric_scooter", "lon": -77.0688895, "bike_id": "5731ffceb336a8b174aee22ca2ed4274", "fusion_lat": 0.0, "name": "5731ffceb336a8b174aee22ca2ed4274", "is_reserved": 0, "rental_uris": {"android": "https://dc.lft.to/lastmile_qr_scan", "ios": "https://dc.lft.to/lastmile_qr_scan"}, "fusion_lon": 0.0}, {"lat": 38.91898533333333, "is_disabled": 0, "type": "electric_scooter", "lon": -77.00044983333333, "bike_id": "fa26dac686db219fe1e8b2f62e095262", "fusion_lat": 0.0, "name": "fa26dac686db219fe1e8b2f62e095262", "is_reserved": 0, "rental_uris": {"android": "https://dc.lft.to/lastmile_qr_scan", "ios": "https://dc.lft.to/lastmile_qr_scan"}, "fusion_lon": 0.0}, {"lat": 38.88738083333333, "is_disabled": 0, "type": "electric_scooter", "lon": -77.01534666666667, "bike_id": "d7e6c5943a1f254e81893cc740a234c4", "fusion_lat": 0.0, "name": "d7e6c5943a1f254e81893cc740a234c4", "is_reserved": 0, "rental_uris": {"android": "https://dc.lft.to/lastmile_qr_scan", "ios": "https://dc.lft.to/lastmile_qr_scan"}, "fusion_lon": 0.0}, {"lat": 38.92085633333333, "is_disabled": 0, "type": "electric_scooter", "lon": -77.03641266666666, "bike_id": "a99a695a175d52c69c418fc1f0aa5bc5", "fusion_lat": 0.0, "name": "a99a695a175d52c69c418fc1f0aa5bc5", "is_reserved": 0, "rental_uris": {"android": "https://dc.lft.to/lastmile_qr_scan", "ios": "https://dc.lft.to/lastmile_qr_scan"}, "fusion_lon": 0.0}, {"lat": 38.890065, "is_disabled": 0, "type": "electric_scooter", "lon": -76.93743466666666, "bike_id": "3bbf9f5186416ced85f5e3ceac79f5d9", "fusion_lat": 0.0, "name": "3bbf9f5186416ced85f5e3ceac79f5d9", "is_reserved": 0, "rental_uris": {"android": "https://dc.lft.to/lastmile_qr_scan", "ios": "https://dc.lft.to/lastmile_qr_scan"}, "fusion_lon": 0.0}, {"lat": 38.9168355, "is_disabled": 0, "type": "electric_scooter", "lon": -77.02804816666666, "bike_id": "6897df37cff467ba1059f79d2df0a093", "fusion_lat": 0.0, "name": "6897df37cff467ba1059f79d2df0a093", "is_reserved": 0, "rental_uris": {"android": "https://dc.lft.to/lastmile_qr_scan", "ios": "https://dc.lft.to/lastmile_qr_scan"}, "fusion_lon": 0.0}, {"lat": 38.90055016666667, "is_disabled": 0, "type": "electric_scooter", "lon": -77.00196716666666, "bike_id": "ed7c5cb8cc461aaf33b1905c411f533f", "fusion_lat": 0.0, "name": "ed7c5cb8cc461aaf33b1905c411f533f", "is_reserved": 0, "rental_uris": {"android": "https://dc.lft.to/lastmile_qr_scan", "ios": "https://dc.lft.to/lastmile_qr_scan"}, "fusion_lon": 0.0}, {"lat": 38.907922666666664, "is_disabled": 0, "type": "electric_scooter", "lon": -77.026939, "bike_id": "161a7b1e78952614a08ce946cc67ffcf", "fusion_lat": 0.0, "name": "161a7b1e78952614a08ce946cc67ffcf", "is_reserved": 0, "rental_uris": {"android": "https://dc.lft.to/lastmile_qr_scan", "ios": "https://dc.lft.to/lastmile_qr_scan"}, "fusion_lon": 0.0}, {"lat": 38.921003166666665, "is_disabled": 0, "type": "electric_scooter", "lon": -77.01751816666666, "bike_id": "bcb994c85fb3be49c6aa33499dec11b4", "fusion_lat": 0.0, "name": "bcb994c85fb3be49c6aa33499dec11b4", "is_reserved": 0, "rental_uris": {"android": "https://dc.lft.to/lastmile_qr_scan", "ios": "https://dc.lft.to/lastmile_qr_scan"}, "fusion_lon": 0.0}, {"lat": 38.91949, "is_disabled": 0, "type": "electric_scooter", "lon": -77.02431933333334, "bike_id": "785319f1ab3874bc2bf267b48a2f19db", "fusion_lat": 0.0, "name": "785319f1ab3874bc2bf267b48a2f19db", "is_reserved": 0, "rental_uris": {"android": "https://dc.lft.to/lastmile_qr_scan", "ios": "https://dc.lft.to/lastmile_qr_scan"}, "fusion_lon": 0.0}, {"lat": 38.928536, "is_disabled": 0, "type": "electric_scooter", "lon": -77.03653183333333, "bike_id": "0c8de6a0e45d4d08ea13c82d265660e6", "fusion_lat": 0.0, "name": "0c8de6a0e45d4d08ea13c82d265660e6", "is_reserved": 0, "rental_uris": {"android": "https://dc.lft.to/lastmile_qr_scan", "ios": "https://dc.lft.to/lastmile_qr_scan"}, "fusion_lon": 0.0}, {"lat": 38.901349333333336, "is_disabled": 0, "type": "electric_scooter", "lon": -77.04193533333333, "bike_id": "5839252796a05ebb86a3174664ac0555", "fusion_lat": 0.0, "name": "5839252796a05ebb86a3174664ac0555", "is_reserved": 0, "rental_uris": {"android": "https://dc.lft.to/lastmile_qr_scan", "ios": "https://dc.lft.to/lastmile_qr_scan"}, "fusion_lon": 0.0}, {"lat": 38.917345166666664, "is_disabled": 0, "type": "electric_scooter", "lon": -77.0227395, "bike_id": "afb324d9dad56cf8e6aaae8e83917c79", "fusion_lat": 0.0, "name": "afb324d9dad56cf8e6aaae8e83917c79", "is_reserved": 0, "rental_uris": {"android": "https://dc.lft.to/lastmile_qr_scan", "ios": "https://dc.lft.to/lastmile_qr_scan"}, "fusion_lon": 0.0}, {"lat": 38.89754416666667, "is_disabled": 0, "type": "electric_scooter", "lon": -77.02671783333334, "bike_id": "91d1860ab04a4bb4a33bd60211ee3aeb", "fusion_lat": 0.0, "name": "91d1860ab04a4bb4a33bd60211ee3aeb", "is_reserved": 0, "rental_uris": {"android": "https://dc.lft.to/lastmile_qr_scan", "ios": "https://dc.lft.to/lastmile_qr_scan"}, "fusion_lon": 0.0}, {"lat": 38.91703316666667, "is_disabled": 0, "type": "electric_scooter", "lon": -77.03771566666667, "bike_id": "74458eac4a8dc91a9d1abde6e2727b9a", "fusion_lat": 0.0, "name": "74458eac4a8dc91a9d1abde6e2727b9a", "is_reserved": 0, "rental_uris": {"android": "https://dc.lft.to/lastmile_qr_scan", "ios": "https://dc.lft.to/lastmile_qr_scan"}, "fusion_lon": 0.0}, {"lat": 38.9307395, "is_disabled": 0, "type": "electric_scooter", "lon": -77.040379, "bike_id": "152be75e58bfb2d937b93dca2ddf32c1", "fusion_lat": 0.0, "name": "152be75e58bfb2d937b93dca2ddf32c1", "is_reserved": 0, "rental_uris": {"android": "https://dc.lft.to/lastmile_qr_scan", "ios": "https://dc.lft.to/lastmile_qr_scan"}, "fusion_lon": 0.0}, {"lat": 38.9204435, "is_disabled": 0, "type": "electric_scooter", "lon": -77.03143966666667, "bike_id": "371bb45c1c6a56fd3001aca4272154bd", "fusion_lat": 0.0, "name": "371bb45c1c6a56fd3001aca4272154bd", "is_reserved": 0, "rental_uris": {"android": "https://dc.lft.to/lastmile_qr_scan", "ios": "https://dc.lft.to/lastmile_qr_scan"}, "fusion_lon": 0.0}, {"lat": 38.879207666666666, "is_disabled": 0, "type": "electric_scooter", "lon": -76.9951035, "bike_id": "961accb1d7abf4d1e3772471c2ab2d59", "fusion_lat": 0.0, "name": "961accb1d7abf4d1e3772471c2ab2d59", "is_reserved": 0, "rental_uris": {"android": "https://dc.lft.to/lastmile_qr_scan", "ios": "https://dc.lft.to/lastmile_qr_scan"}, "fusion_lon": 0.0}, {"lat": 38.927650166666666, "is_disabled": 0, "type": "electric_scooter", "lon": -77.027878, "bike_id": "c7c2ec2af4fcebd84561746511763be1", "fusion_lat": 0.0, "name": "c7c2ec2af4fcebd84561746511763be1", "is_reserved": 0, "rental_uris": {"android": "https://dc.lft.to/lastmile_qr_scan", "ios": "https://dc.lft.to/lastmile_qr_scan"}, "fusion_lon": 0.0}, {"lat": 38.91843016666667, "is_disabled": 0, "type": "electric_scooter", "lon": -76.96548316666667, "bike_id": "3122755b1a474296a7cbeaced4f0d538", "fusion_lat": 0.0, "name": "3122755b1a474296a7cbeaced4f0d538", "is_reserved": 0, "rental_uris": {"android": "https://dc.lft.to/lastmile_qr_scan", "ios": "https://dc.lft.to/lastmile_qr_scan"}, "fusion_lon": 0.0}, {"lat": 38.92205233333333, "is_disabled": 0, "type": "electric_bike", "lon": -77.08185666666667, "bike_id": "84744de9189eb925b6445f0bb8e40b93", "fusion_lat": 0.0, "name": "84744de9189eb925b6445f0bb8e40b93", "is_reserved": 0, "rental_uris": {"android": "https://dc.lft.to/lastmile_qr_scan", "ios": "https://dc.lft.to/lastmile_qr_scan"}, "fusion_lon": 0.0}, {"lat": 38.90836316666667, "is_disabled": 0, "type": "electric_scooter", "lon": -77.02014816666667, "bike_id": "3e516b0e94f2d9633a662ee6ece57bad", "fusion_lat": 0.0, "name": "3e516b0e94f2d9633a662ee6ece57bad", "is_reserved": 0, "rental_uris": {"android": "https://dc.lft.to/lastmile_qr_scan", "ios": "https://dc.lft.to/lastmile_qr_scan"}, "fusion_lon": 0.0}, {"lat": 38.919623333333334, "is_disabled": 0, "type": "electric_scooter", "lon": -77.01440083333334, "bike_id": "294d599703f0cfa8d20666b668815630", "fusion_lat": 0.0, "name": "294d599703f0cfa8d20666b668815630", "is_reserved": 0, "rental_uris": {"android": "https://dc.lft.to/lastmile_qr_scan", "ios": "https://dc.lft.to/lastmile_qr_scan"}, "fusion_lon": 0.0}, {"lat": 38.90404516666667, "is_disabled": 0, "type": "electric_scooter", "lon": -77.05076366666667, "bike_id": "18e819de776d7aca39ef22a556fa4a7e", "fusion_lat": 0.0, "name": "18e819de776d7aca39ef22a556fa4a7e", "is_reserved": 0, "rental_uris": {"android": "https://dc.lft.to/lastmile_qr_scan", "ios": "https://dc.lft.to/lastmile_qr_scan"}, "fusion_lon": 0.0}, {"lat": 38.88679466666667, "is_disabled": 0, "type": "electric_bike", "lon": -77.162386, "bike_id": "97c929dbc71a77dce9fcf6d57b527339", "fusion_lat": 0.0, "name": "97c929dbc71a77dce9fcf6d57b527339", "is_reserved": 0, "rental_uris": {"android": "https://dc.lft.to/lastmile_qr_scan", "ios": "https://dc.lft.to/lastmile_qr_scan"}, "fusion_lon": 0.0}, {"lat": 38.8771945, "is_disabled": 0, "type": "electric_scooter", "lon": -77.0176355, "bike_id": "13685c7eb6e20db6e36ee6eab224327d", "fusion_lat": 0.0, "name": "13685c7eb6e20db6e36ee6eab224327d", "is_reserved": 0, "rental_uris": {"android": "https://dc.lft.to/lastmile_qr_scan", "ios": "https://dc.lft.to/lastmile_qr_scan"}, "fusion_lon": 0.0}, {"lat": 38.94825483333334, "is_disabled": 0, "type": "electric_scooter", "lon": -76.999052, "bike_id": "5a572a7ca8a6c2ee69a34da7044755ad", "fusion_lat": 0.0, "name": "5a572a7ca8a6c2ee69a34da7044755ad", "is_reserved": 0, "rental_uris": {"android": "https://dc.lft.to/lastmile_qr_scan", "ios": "https://dc.lft.to/lastmile_qr_scan"}, "fusion_lon": 0.0}, {"lat": 38.8860135, "is_disabled": 0, "type": "electric_scooter", "lon": -77.01890183333333, "bike_id": "4713dd63ad73b1c0c2a6044e9e1a07a2", "fusion_lat": 0.0, "name": "4713dd63ad73b1c0c2a6044e9e1a07a2", "is_reserved": 0, "rental_uris": {"android": "https://dc.lft.to/lastmile_qr_scan", "ios": "https://dc.lft.to/lastmile_qr_scan"}, "fusion_lon": 0.0}, {"lat": 38.88548766666667, "is_disabled": 0, "type": "electric_bike", "lon": -77.117883, "bike_id": "8e468d869035db7458f14d55b7cb6206", "fusion_lat": 0.0, "name": "8e468d869035db7458f14d55b7cb6206", "is_reserved": 0, "rental_uris": {"android": "https://dc.lft.to/lastmile_qr_scan", "ios": "https://dc.lft.to/lastmile_qr_scan"}, "fusion_lon": 0.0}, {"lat": 38.91707566666667, "is_disabled": 0, "type": "electric_scooter", "lon": -76.97927566666667, "bike_id": "4da418b2b3b9ed2705e1903a1de9374e", "fusion_lat": 0.0, "name": "4da418b2b3b9ed2705e1903a1de9374e", "is_reserved": 0, "rental_uris": {"android": "https://dc.lft.to/lastmile_qr_scan", "ios": "https://dc.lft.to/lastmile_qr_scan"}, "fusion_lon": 0.0}, {"lat": 38.9062145, "is_disabled": 0, "type": "electric_bike", "lon": -76.98607616666666, "bike_id": "81d357224a6007791757d136ffefc8e7", "fusion_lat": 0.0, "name": "81d357224a6007791757d136ffefc8e7", "is_reserved": 0, "rental_uris": {"android": "https://dc.lft.to/lastmile_qr_scan", "ios": "https://dc.lft.to/lastmile_qr_scan"}, "fusion_lon": 0.0}, {"lat": 38.92343266666666, "is_disabled": 0, "type": "electric_scooter", "lon": -77.0352465, "bike_id": "026b66d2a460796d53dc36e140cfc7b3", "fusion_lat": 0.0, "name": "026b66d2a460796d53dc36e140cfc7b3", "is_reserved": 0, "rental_uris": {"android": "https://dc.lft.to/lastmile_qr_scan", "ios": "https://dc.lft.to/lastmile_qr_scan"}, "fusion_lon": 0.0}, {"lat": 38.903986333333336, "is_disabled": 0, "type": "electric_scooter", "lon": -77.0431505, "bike_id": "ceebd0ca2f0ab07c4209ec19b3f7ba27", "fusion_lat": 0.0, "name": "ceebd0ca2f0ab07c4209ec19b3f7ba27", "is_reserved": 0, "rental_uris": {"android": "https://dc.lft.to/lastmile_qr_scan", "ios": "https://dc.lft.to/lastmile_qr_scan"}, "fusion_lon": 0.0}, {"lat": 38.921148, "is_disabled": 0, "type": "electric_scooter", "lon": -77.04568433333333, "bike_id": "266a6124be844bfe2ef33cbb0255b26b", "fusion_lat": 0.0, "name": "266a6124be844bfe2ef33cbb0255b26b", "is_reserved": 0, "rental_uris": {"android": "https://dc.lft.to/lastmile_qr_scan", "ios": "https://dc.lft.to/lastmile_qr_scan"}, "fusion_lon": 0.0}, {"lat": 38.90192433333333, "is_disabled": 0, "type": "electric_scooter", "lon": -77.02184133333333, "bike_id": "7aa3325c5571ce34635d979c70499a6e", "fusion_lat": 0.0, "name": "7aa3325c5571ce34635d979c70499a6e", "is_reserved": 0, "rental_uris": {"android": "https://dc.lft.to/lastmile_qr_scan", "ios": "https://dc.lft.to/lastmile_qr_scan"}, "fusion_lon": 0.0}, {"lat": 39.07501933333333, "is_disabled": 0, "type": "electric_bike", "lon": -77.11899183333334, "bike_id": "23bef7c6f8e13851b6eeee3280a668bb", "fusion_lat": 0.0, "name": "23bef7c6f8e13851b6eeee3280a668bb", "is_reserved": 0, "rental_uris": {"android": "https://dc.lft.to/lastmile_qr_scan", "ios": "https://dc.lft.to/lastmile_qr_scan"}, "fusion_lon": 0.0}, {"lat": 38.912639666666664, "is_disabled": 0, "type": "electric_scooter", "lon": -77.02250783333334, "bike_id": "92ae58ca17237722dee9902469ab0161", "fusion_lat": 0.0, "name": "92ae58ca17237722dee9902469ab0161", "is_reserved": 0, "rental_uris": {"android": "https://dc.lft.to/lastmile_qr_scan", "ios": "https://dc.lft.to/lastmile_qr_scan"}, "fusion_lon": 0.0}, {"lat": 38.886681833333334, "is_disabled": 0, "type": "electric_scooter", "lon": -76.99030116666667, "bike_id": "9ae6b14012da561b723897a1dd5a4a5e", "fusion_lat": 0.0, "name": "9ae6b14012da561b723897a1dd5a4a5e", "is_reserved": 0, "rental_uris": {"android": "https://dc.lft.to/lastmile_qr_scan", "ios": "https://dc.lft.to/lastmile_qr_scan"}, "fusion_lon": 0.0}, {"lat": 38.8974175, "is_disabled": 0, "type": "electric_scooter", "lon": -77.02171383333334, "bike_id": "96761c1b00179701c968d7ce00e026b6", "fusion_lat": 0.0, "name": "96761c1b00179701c968d7ce00e026b6", "is_reserved": 0, "rental_uris": {"android": "https://dc.lft.to/lastmile_qr_scan", "ios": "https://dc.lft.to/lastmile_qr_scan"}, "fusion_lon": 0.0}, {"lat": 38.807605, "is_disabled": 0, "type": "electric_bike", "lon": -77.09469466666667, "bike_id": "278f49bbc95498a2c2b4a0994d3586a3", "fusion_lat": 0.0, "name": "278f49bbc95498a2c2b4a0994d3586a3", "is_reserved": 0, "rental_uris": {"android": "https://dc.lft.to/lastmile_qr_scan", "ios": "https://dc.lft.to/lastmile_qr_scan"}, "fusion_lon": 0.0}, {"lat": 38.892287333333336, "is_disabled": 0, "type": "electric_bike", "lon": -77.03442483333333, "bike_id": "40da3ce31d9f520d02ab2f98285203ac", "fusion_lat": 0.0, "name": "40da3ce31d9f520d02ab2f98285203ac", "is_reserved": 0, "rental_uris": {"android": "https://dc.lft.to/lastmile_qr_scan", "ios": "https://dc.lft.to/lastmile_qr_scan"}, "fusion_lon": 0.0}, {"lat": 38.912679833333335, "is_disabled": 0, "type": "electric_bike", "lon": -77.045508, "bike_id": "8a2536b9438490d678a9ddbe31280338", "fusion_lat": 0.0, "name": "8a2536b9438490d678a9ddbe31280338", "is_reserved": 0, "rental_uris": {"android": "https://dc.lft.to/lastmile_qr_scan", "ios": "https://dc.lft.to/lastmile_qr_scan"}, "fusion_lon": 0.0}, {"lat": 38.916115166666664, "is_disabled": 0, "type": "electric_scooter", "lon": -77.022997, "bike_id": "392503fdebc1970052a8d1d3106ebabc", "fusion_lat": 0.0, "name": "392503fdebc1970052a8d1d3106ebabc", "is_reserved": 0, "rental_uris": {"android": "https://dc.lft.to/lastmile_qr_scan", "ios": "https://dc.lft.to/lastmile_qr_scan"}, "fusion_lon": 0.0}, {"lat": 38.906363166666665, "is_disabled": 0, "type": "electric_scooter", "lon": -77.03390683333333, "bike_id": "9de2e18dd5f5d9535f95d1e4b98c52a9", "fusion_lat": 0.0, "name": "9de2e18dd5f5d9535f95d1e4b98c52a9", "is_reserved": 0, "rental_uris": {"android": "https://dc.lft.to/lastmile_qr_scan", "ios": "https://dc.lft.to/lastmile_qr_scan"}, "fusion_lon": 0.0}, {"lat": 38.918186, "is_disabled": 0, "type": "electric_scooter", "lon": -77.01392683333333, "bike_id": "e47c0bde3b3b5b4e217576a48f4289a5", "fusion_lat": 0.0, "name": "e47c0bde3b3b5b4e217576a48f4289a5", "is_reserved": 0, "rental_uris": {"android": "https://dc.lft.to/lastmile_qr_scan", "ios": "https://dc.lft.to/lastmile_qr_scan"}, "fusion_lon": 0.0}, {"lat": 38.92042083333333, "is_disabled": 0, "type": "electric_scooter", "lon": -77.04179116666667, "bike_id": "51628b5746080d7f6cd6b5735b274593", "fusion_lat": 0.0, "name": "51628b5746080d7f6cd6b5735b274593", "is_reserved": 0, "rental_uris": {"android": "https://dc.lft.to/lastmile_qr_scan", "ios": "https://dc.lft.to/lastmile_qr_scan"}, "fusion_lon": 0.0}, {"lat": 38.90952583333333, "is_disabled": 0, "type": "electric_scooter", "lon": -77.0237855, "bike_id": "b66595a30e00d9d56b3e3af770c4c454", "fusion_lat": 0.0, "name": "b66595a30e00d9d56b3e3af770c4c454", "is_reserved": 0, "rental_uris": {"android": "https://dc.lft.to/lastmile_qr_scan", "ios": "https://dc.lft.to/lastmile_qr_scan"}, "fusion_lon": 0.0}, {"lat": 38.8550685, "is_disabled": 0, "type": "electric_bike", "lon": -77.12019716666667, "bike_id": "d005c03f5537274a357983017aa005e8", "fusion_lat": 0.0, "name": "d005c03f5537274a357983017aa005e8", "is_reserved": 0, "rental_uris": {"android": "https://dc.lft.to/lastmile_qr_scan", "ios": "https://dc.lft.to/lastmile_qr_scan"}, "fusion_lon": 0.0}, {"lat": 38.902618, "is_disabled": 0, "type": "electric_scooter", "lon": -77.03975916666667, "bike_id": "6a8debd683132f7d695e0570a55a837f", "fusion_lat": 0.0, "name": "6a8debd683132f7d695e0570a55a837f", "is_reserved": 0, "rental_uris": {"android": "https://dc.lft.to/lastmile_qr_scan", "ios": "https://dc.lft.to/lastmile_qr_scan"}, "fusion_lon": 0.0}, {"lat": 38.902029166666665, "is_disabled": 0, "type": "electric_scooter", "lon": -77.02673633333333, "bike_id": "cb28077d3abc3c1a36fd08d7c9f4b913", "fusion_lat": 0.0, "name": "cb28077d3abc3c1a36fd08d7c9f4b913", "is_reserved": 0, "rental_uris": {"android": "https://dc.lft.to/lastmile_qr_scan", "ios": "https://dc.lft.to/lastmile_qr_scan"}, "fusion_lon": 0.0}, {"lat": 38.944373166666665, "is_disabled": 0, "type": "electric_scooter", "lon": -77.01506666666667, "bike_id": "b7f8eaf842267bebe982a0ead6360c04", "fusion_lat": 0.0, "name": "b7f8eaf842267bebe982a0ead6360c04", "is_reserved": 0, "rental_uris": {"android": "https://dc.lft.to/lastmile_qr_scan", "ios": "https://dc.lft.to/lastmile_qr_scan"}, "fusion_lon": 0.0}, {"lat": 38.92235983333333, "is_disabled": 0, "type": "electric_scooter", "lon": -77.03349083333333, "bike_id": "2c5b7477cd8bb05b6edcb85e8ad13bd6", "fusion_lat": 0.0, "name": "2c5b7477cd8bb05b6edcb85e8ad13bd6", "is_reserved": 0, "rental_uris": {"android": "https://dc.lft.to/lastmile_qr_scan", "ios": "https://dc.lft.to/lastmile_qr_scan"}, "fusion_lon": 0.0}, {"lat": 38.9006345, "is_disabled": 0, "type": "electric_scooter", "lon": -77.00212133333333, "bike_id": "56ee97cff72d16650a55c8414ab115d9", "fusion_lat": 0.0, "name": "56ee97cff72d16650a55c8414ab115d9", "is_reserved": 0, "rental_uris": {"android": "https://dc.lft.to/lastmile_qr_scan", "ios": "https://dc.lft.to/lastmile_qr_scan"}, "fusion_lon": 0.0}, {"lat": 38.8984545, "is_disabled": 0, "type": "electric_scooter", "lon": -76.94633116666667, "bike_id": "ec1e0ead71576dd27797bae9e6b163ac", "fusion_lat": 0.0, "name": "ec1e0ead71576dd27797bae9e6b163ac", "is_reserved": 0, "rental_uris": {"android": "https://dc.lft.to/lastmile_qr_scan", "ios": "https://dc.lft.to/lastmile_qr_scan"}, "fusion_lon": 0.0}, {"lat": 38.915655666666666, "is_disabled": 0, "type": "electric_scooter", "lon": -77.03147316666667, "bike_id": "00c4b6c0e743de60c7f0d7f55bb432ca", "fusion_lat": 0.0, "name": "00c4b6c0e743de60c7f0d7f55bb432ca", "is_reserved": 0, "rental_uris": {"android": "https://dc.lft.to/lastmile_qr_scan", "ios": "https://dc.lft.to/lastmile_qr_scan"}, "fusion_lon": 0.0}, {"lat": 38.94099833333333, "is_disabled": 0, "type": "electric_scooter", "lon": -77.02107933333333, "bike_id": "d45a54269266e2371fc40fa227ca601f", "fusion_lat": 0.0, "name": "d45a54269266e2371fc40fa227ca601f", "is_reserved": 0, "rental_uris": {"android": "https://dc.lft.to/lastmile_qr_scan", "ios": "https://dc.lft.to/lastmile_qr_scan"}, "fusion_lon": 0.0}, {"lat": 38.91713766666667, "is_disabled": 0, "type": "electric_scooter", "lon": -77.02955, "bike_id": "6ee799a78c31206f1b16f9561f3996ae", "fusion_lat": 0.0, "name": "6ee799a78c31206f1b16f9561f3996ae", "is_reserved": 0, "rental_uris": {"android": "https://dc.lft.to/lastmile_qr_scan", "ios": "https://dc.lft.to/lastmile_qr_scan"}, "fusion_lon": 0.0}, {"lat": 38.90829516666667, "is_disabled": 0, "type": "electric_scooter", "lon": -77.0384655, "bike_id": "798bf9e01d34991fa8b24bef2ae1346e", "fusion_lat": 0.0, "name": "798bf9e01d34991fa8b24bef2ae1346e", "is_reserved": 0, "rental_uris": {"android": "https://dc.lft.to/lastmile_qr_scan", "ios": "https://dc.lft.to/lastmile_qr_scan"}, "fusion_lon": 0.0}, {"lat": 38.851965, "is_disabled": 0, "type": "electric_bike", "lon": -76.961184, "bike_id": "f21ce0b8cf0cfc0f1807b8317fbc775e", "fusion_lat": 0.0, "name": "f21ce0b8cf0cfc0f1807b8317fbc775e", "is_reserved": 0, "rental_uris": {"android": "https://dc.lft.to/lastmile_qr_scan", "ios": "https://dc.lft.to/lastmile_qr_scan"}, "fusion_lon": 0.0}, {"lat": 38.90733516666667, "is_disabled": 0, "type": "electric_bike", "lon": -77.01068133333334, "bike_id": "f91d785f2f8ed32d9e632d548f6b864c", "fusion_lat": 0.0, "name": "f91d785f2f8ed32d9e632d548f6b864c", "is_reserved": 0, "rental_uris": {"android": "https://dc.lft.to/lastmile_qr_scan", "ios": "https://dc.lft.to/lastmile_qr_scan"}, "fusion_lon": 0.0}, {"lat": 38.86103833333333, "is_disabled": 0, "type": "electric_scooter", "lon": -76.98879533333333, "bike_id": "041bde50dffe8d0ac142f98beb935046", "fusion_lat": 0.0, "name": "041bde50dffe8d0ac142f98beb935046", "is_reserved": 0, "rental_uris": {"android": "https://dc.lft.to/lastmile_qr_scan", "ios": "https://dc.lft.to/lastmile_qr_scan"}, "fusion_lon": 0.0}, {"lat": 38.966101333333334, "is_disabled": 0, "type": "electric_scooter", "lon": -77.02055033333333, "bike_id": "cce0a80deef7b2fdb42faf120b91a69d", "fusion_lat": 0.0, "name": "cce0a80deef7b2fdb42faf120b91a69d", "is_reserved": 0, "rental_uris": {"android": "https://dc.lft.to/lastmile_qr_scan", "ios": "https://dc.lft.to/lastmile_qr_scan"}, "fusion_lon": 0.0}, {"lat": 38.904934833333336, "is_disabled": 0, "type": "electric_scooter", "lon": -77.02958183333334, "bike_id": "ce82b95e30611231473dc86aa0a751b1", "fusion_lat": 0.0, "name": "ce82b95e30611231473dc86aa0a751b1", "is_reserved": 0, "rental_uris": {"android": "https://dc.lft.to/lastmile_qr_scan", "ios": "https://dc.lft.to/lastmile_qr_scan"}, "fusion_lon": 0.0}, {"lat": 38.89621916666667, "is_disabled": 0, "type": "electric_scooter", "lon": -77.03162733333333, "bike_id": "04786345969a17ba7aabb82512d19b96", "fusion_lat": 0.0, "name": "04786345969a17ba7aabb82512d19b96", "is_reserved": 0, "rental_uris": {"android": "https://dc.lft.to/lastmile_qr_scan", "ios": "https://dc.lft.to/lastmile_qr_scan"}, "fusion_lon": 0.0}, {"lat": 38.8963175, "is_disabled": 0, "type": "electric_scooter", "lon": -77.03162816666666, "bike_id": "37fdfcfb74d2e1c50005e6ecc830cbaa", "fusion_lat": 0.0, "name": "37fdfcfb74d2e1c50005e6ecc830cbaa", "is_reserved": 0, "rental_uris": {"android": "https://dc.lft.to/lastmile_qr_scan", "ios": "https://dc.lft.to/lastmile_qr_scan"}, "fusion_lon": 0.0}, {"lat": 38.9205495, "is_disabled": 0, "type": "electric_scooter", "lon": -77.02519683333334, "bike_id": "69d4be745d5253ea781e7087537e7210", "fusion_lat": 0.0, "name": "69d4be745d5253ea781e7087537e7210", "is_reserved": 0, "rental_uris": {"android": "https://dc.lft.to/lastmile_qr_scan", "ios": "https://dc.lft.to/lastmile_qr_scan"}, "fusion_lon": 0.0}, {"lat": 38.91757783333333, "is_disabled": 0, "type": "electric_scooter", "lon": -77.01164533333333, "bike_id": "bdc714221c95eaec73c27aa277a81301", "fusion_lat": 0.0, "name": "bdc714221c95eaec73c27aa277a81301", "is_reserved": 0, "rental_uris": {"android": "https://dc.lft.to/lastmile_qr_scan", "ios": "https://dc.lft.to/lastmile_qr_scan"}, "fusion_lon": 0.0}, {"lat": 38.9015085, "is_disabled": 0, "type": "electric_scooter", "lon": -77.0328795, "bike_id": "41247bcaf739316e13d06388d3f9b420", "fusion_lat": 0.0, "name": "41247bcaf739316e13d06388d3f9b420", "is_reserved": 0, "rental_uris": {"android": "https://dc.lft.to/lastmile_qr_scan", "ios": "https://dc.lft.to/lastmile_qr_scan"}, "fusion_lon": 0.0}, {"lat": 38.907238666666665, "is_disabled": 0, "type": "electric_scooter", "lon": -77.029646, "bike_id": "de7fcb41e52a4d148708335f91789cc4", "fusion_lat": 0.0, "name": "de7fcb41e52a4d148708335f91789cc4", "is_reserved": 0, "rental_uris": {"android": "https://dc.lft.to/lastmile_qr_scan", "ios": "https://dc.lft.to/lastmile_qr_scan"}, "fusion_lon": 0.0}, {"lat": 38.90665283333333, "is_disabled": 0, "type": "electric_scooter", "lon": -77.07430016666666, "bike_id": "57aa9764abcc7f1f1d30572d199ca5a7", "fusion_lat": 0.0, "name": "57aa9764abcc7f1f1d30572d199ca5a7", "is_reserved": 0, "rental_uris": {"android": "https://dc.lft.to/lastmile_qr_scan", "ios": "https://dc.lft.to/lastmile_qr_scan"}, "fusion_lon": 0.0}, {"lat": 38.914249833333336, "is_disabled": 0, "type": "electric_scooter", "lon": -77.03184166666666, "bike_id": "559245c3044d3a3c31f207fa2716be32", "fusion_lat": 0.0, "name": "559245c3044d3a3c31f207fa2716be32", "is_reserved": 0, "rental_uris": {"android": "https://dc.lft.to/lastmile_qr_scan", "ios": "https://dc.lft.to/lastmile_qr_scan"}, "fusion_lon": 0.0}, {"lat": 38.923877166666664, "is_disabled": 0, "type": "electric_scooter", "lon": -77.035343, "bike_id": "54ae52121f6f40a8f29aab5b911e0e5a", "fusion_lat": 0.0, "name": "54ae52121f6f40a8f29aab5b911e0e5a", "is_reserved": 0, "rental_uris": {"android": "https://dc.lft.to/lastmile_qr_scan", "ios": "https://dc.lft.to/lastmile_qr_scan"}, "fusion_lon": 0.0}, {"lat": 38.90534383333333, "is_disabled": 0, "type": "electric_scooter", "lon": -77.05136716666667, "bike_id": "09c3dc8b4a6f2660c620c7fa03af94da", "fusion_lat": 0.0, "name": "09c3dc8b4a6f2660c620c7fa03af94da", "is_reserved": 0, "rental_uris": {"android": "https://dc.lft.to/lastmile_qr_scan", "ios": "https://dc.lft.to/lastmile_qr_scan"}, "fusion_lon": 0.0}, {"lat": 38.8580035, "is_disabled": 0, "type": "electric_scooter", "lon": -76.9872005, "bike_id": "50c3f4b4917af04705c075398eb1d2de", "fusion_lat": 0.0, "name": "50c3f4b4917af04705c075398eb1d2de", "is_reserved": 0, "rental_uris": {"android": "https://dc.lft.to/lastmile_qr_scan", "ios": "https://dc.lft.to/lastmile_qr_scan"}, "fusion_lon": 0.0}, {"lat": 38.880342, "is_disabled": 0, "type": "electric_scooter", "lon": -77.003653, "bike_id": "7352a767932bcd48205dc8268409b70b", "fusion_lat": 0.0, "name": "7352a767932bcd48205dc8268409b70b", "is_reserved": 0, "rental_uris": {"android": "https://dc.lft.to/lastmile_qr_scan", "ios": "https://dc.lft.to/lastmile_qr_scan"}, "fusion_lon": 0.0}, {"lat": 38.918169166666665, "is_disabled": 0, "type": "electric_scooter", "lon": -77.02488833333334, "bike_id": "1f70af6f7fb99840db183b13aefa038e", "fusion_lat": 0.0, "name": "1f70af6f7fb99840db183b13aefa038e", "is_reserved": 0, "rental_uris": {"android": "https://dc.lft.to/lastmile_qr_scan", "ios": "https://dc.lft.to/lastmile_qr_scan"}, "fusion_lon": 0.0}, {"lat": 38.92154333333333, "is_disabled": 0, "type": "electric_scooter", "lon": -77.03514716666666, "bike_id": "93ca30e019f28de04950fdbe4e615c2c", "fusion_lat": 0.0, "name": "93ca30e019f28de04950fdbe4e615c2c", "is_reserved": 0, "rental_uris": {"android": "https://dc.lft.to/lastmile_qr_scan", "ios": "https://dc.lft.to/lastmile_qr_scan"}, "fusion_lon": 0.0}, {"lat": 38.9094665, "is_disabled": 0, "type": "electric_bike", "lon": -77.04869733333334, "bike_id": "7fe1e7c2a96e879db76ab717e2c6bd25", "fusion_lat": 0.0, "name": "7fe1e7c2a96e879db76ab717e2c6bd25", "is_reserved": 0, "rental_uris": {"android": "https://dc.lft.to/lastmile_qr_scan", "ios": "https://dc.lft.to/lastmile_qr_scan"}, "fusion_lon": 0.0}, {"lat": 38.929062, "is_disabled": 0, "type": "electric_scooter", "lon": -77.03747116666666, "bike_id": "5e81e819118e5130d3860f5295b32aba", "fusion_lat": 0.0, "name": "5e81e819118e5130d3860f5295b32aba", "is_reserved": 0, "rental_uris": {"android": "https://dc.lft.to/lastmile_qr_scan", "ios": "https://dc.lft.to/lastmile_qr_scan"}, "fusion_lon": 0.0}, {"lat": 38.913273, "is_disabled": 0, "type": "electric_scooter", "lon": -77.04011883333334, "bike_id": "9fc1765737f972a6b137e806a09d3caf", "fusion_lat": 0.0, "name": "9fc1765737f972a6b137e806a09d3caf", "is_reserved": 0, "rental_uris": {"android": "https://dc.lft.to/lastmile_qr_scan", "ios": "https://dc.lft.to/lastmile_qr_scan"}, "fusion_lon": 0.0}, {"lat": 38.92369083333333, "is_disabled": 0, "type": "electric_scooter", "lon": -77.0505265, "bike_id": "44566859412d2382058aa0a30562c22b", "fusion_lat": 0.0, "name": "44566859412d2382058aa0a30562c22b", "is_reserved": 0, "rental_uris": {"android": "https://dc.lft.to/lastmile_qr_scan", "ios": "https://dc.lft.to/lastmile_qr_scan"}, "fusion_lon": 0.0}, {"lat": 38.92270666666667, "is_disabled": 0, "type": "electric_scooter", "lon": -77.04474783333333, "bike_id": "927f81538e52b7374d00607217690560", "fusion_lat": 0.0, "name": "927f81538e52b7374d00607217690560", "is_reserved": 0, "rental_uris": {"android": "https://dc.lft.to/lastmile_qr_scan", "ios": "https://dc.lft.to/lastmile_qr_scan"}, "fusion_lon": 0.0}, {"lat": 38.93364416666667, "is_disabled": 0, "type": "electric_scooter", "lon": -77.05719016666667, "bike_id": "a62bc26d14ca097025119f9a0dc58650", "fusion_lat": 0.0, "name": "a62bc26d14ca097025119f9a0dc58650", "is_reserved": 0, "rental_uris": {"android": "https://dc.lft.to/lastmile_qr_scan", "ios": "https://dc.lft.to/lastmile_qr_scan"}, "fusion_lon": 0.0}, {"lat": 38.90030433333333, "is_disabled": 0, "type": "electric_scooter", "lon": -77.00195933333333, "bike_id": "865b0b6a7a3fd69524af54c8769f1612", "fusion_lat": 0.0, "name": "865b0b6a7a3fd69524af54c8769f1612", "is_reserved": 0, "rental_uris": {"android": "https://dc.lft.to/lastmile_qr_scan", "ios": "https://dc.lft.to/lastmile_qr_scan"}, "fusion_lon": 0.0}, {"lat": 38.92474683333333, "is_disabled": 0, "type": "electric_scooter", "lon": -77.03500816666667, "bike_id": "96c855aab18b51039d969412b537e583", "fusion_lat": 0.0, "name": "96c855aab18b51039d969412b537e583", "is_reserved": 0, "rental_uris": {"android": "https://dc.lft.to/lastmile_qr_scan", "ios": "https://dc.lft.to/lastmile_qr_scan"}, "fusion_lon": 0.0}, {"lat": 38.89846516666667, "is_disabled": 0, "type": "electric_scooter", "lon": -76.97630883333333, "bike_id": "120acac75fda9b129d8cfbe4d8728e24", "fusion_lat": 0.0, "name": "120acac75fda9b129d8cfbe4d8728e24", "is_reserved": 0, "rental_uris": {"android": "https://dc.lft.to/lastmile_qr_scan", "ios": "https://dc.lft.to/lastmile_qr_scan"}, "fusion_lon": 0.0}, {"lat": 38.927871833333334, "is_disabled": 0, "type": "electric_scooter", "lon": -77.03201066666666, "bike_id": "1841f3fd97301520240d38a2d652a694", "fusion_lat": 0.0, "name": "1841f3fd97301520240d38a2d652a694", "is_reserved": 0, "rental_uris": {"android": "https://dc.lft.to/lastmile_qr_scan", "ios": "https://dc.lft.to/lastmile_qr_scan"}, "fusion_lon": 0.0}, {"lat": 38.903395, "is_disabled": 0, "type": "electric_scooter", "lon": -77.06310516666667, "bike_id": "8f71e8204de4c221fefea35eb9652f48", "fusion_lat": 0.0, "name": "8f71e8204de4c221fefea35eb9652f48", "is_reserved": 0, "rental_uris": {"android": "https://dc.lft.to/lastmile_qr_scan", "ios": "https://dc.lft.to/lastmile_qr_scan"}, "fusion_lon": 0.0}, {"lat": 38.91117966666667, "is_disabled": 0, "type": "electric_scooter", "lon": -77.03839683333334, "bike_id": "3b09b1931214df0fb09f3bd51bb0d718", "fusion_lat": 0.0, "name": "3b09b1931214df0fb09f3bd51bb0d718", "is_reserved": 0, "rental_uris": {"android": "https://dc.lft.to/lastmile_qr_scan", "ios": "https://dc.lft.to/lastmile_qr_scan"}, "fusion_lon": 0.0}, {"lat": 38.8550035, "is_disabled": 0, "type": "electric_bike", "lon": -76.98416483333334, "bike_id": "fa30564b1af1ae22350373edca984f6c", "fusion_lat": 0.0, "name": "fa30564b1af1ae22350373edca984f6c", "is_reserved": 0, "rental_uris": {"android": "https://dc.lft.to/lastmile_qr_scan", "ios": "https://dc.lft.to/lastmile_qr_scan"}, "fusion_lon": 0.0}, {"lat": 38.934292166666665, "is_disabled": 0, "type": "electric_scooter", "lon": -77.0555665, "bike_id": "d4d07638e980177dd8ac1977f77802a4", "fusion_lat": 0.0, "name": "d4d07638e980177dd8ac1977f77802a4", "is_reserved": 0, "rental_uris": {"android": "https://dc.lft.to/lastmile_qr_scan", "ios": "https://dc.lft.to/lastmile_qr_scan"}, "fusion_lon": 0.0}, {"lat": 38.911078333333336, "is_disabled": 0, "type": "electric_scooter", "lon": -77.048176, "bike_id": "d807e8e6fdeb617d2ccb19426f97f310", "fusion_lat": 0.0, "name": "d807e8e6fdeb617d2ccb19426f97f310", "is_reserved": 0, "rental_uris": {"android": "https://dc.lft.to/lastmile_qr_scan", "ios": "https://dc.lft.to/lastmile_qr_scan"}, "fusion_lon": 0.0}, {"lat": 38.918131, "is_disabled": 0, "type": "electric_scooter", "lon": -77.0366885, "bike_id": "f8919af0731e90b8277ade138971880e", "fusion_lat": 0.0, "name": "f8919af0731e90b8277ade138971880e", "is_reserved": 0, "rental_uris": {"android": "https://dc.lft.to/lastmile_qr_scan", "ios": "https://dc.lft.to/lastmile_qr_scan"}, "fusion_lon": 0.0}, {"lat": 38.911141, "is_disabled": 0, "type": "electric_scooter", "lon": -77.02013316666667, "bike_id": "37fe197b75adc98b69ebd2ef654438e1", "fusion_lat": 0.0, "name": "37fe197b75adc98b69ebd2ef654438e1", "is_reserved": 0, "rental_uris": {"android": "https://dc.lft.to/lastmile_qr_scan", "ios": "https://dc.lft.to/lastmile_qr_scan"}, "fusion_lon": 0.0}, {"lat": 38.813484, "is_disabled": 0, "type": "electric_bike", "lon": -77.04930933333333, "bike_id": "0a1c34bdc6d0adc794ef956206fba4f0", "fusion_lat": 0.0, "name": "0a1c34bdc6d0adc794ef956206fba4f0", "is_reserved": 0, "rental_uris": {"android": "https://dc.lft.to/lastmile_qr_scan", "ios": "https://dc.lft.to/lastmile_qr_scan"}, "fusion_lon": 0.0}, {"lat": 38.914807833333334, "is_disabled": 0, "type": "electric_scooter", "lon": -77.01375233333333, "bike_id": "6762577d8b814bcfc0d8e85c3679a743", "fusion_lat": 0.0, "name": "6762577d8b814bcfc0d8e85c3679a743", "is_reserved": 0, "rental_uris": {"android": "https://dc.lft.to/lastmile_qr_scan", "ios": "https://dc.lft.to/lastmile_qr_scan"}, "fusion_lon": 0.0}, {"lat": 38.908559, "is_disabled": 0, "type": "electric_scooter", "lon": -77.04283916666667, "bike_id": "24e20c50f28094bca6bd94f0d74caa25", "fusion_lat": 0.0, "name": "24e20c50f28094bca6bd94f0d74caa25", "is_reserved": 0, "rental_uris": {"android": "https://dc.lft.to/lastmile_qr_scan", "ios": "https://dc.lft.to/lastmile_qr_scan"}, "fusion_lon": 0.0}, {"lat": 38.911019333333336, "is_disabled": 0, "type": "electric_scooter", "lon": -77.0421085, "bike_id": "d7baea46d5df4d78c577f6fed9da1436", "fusion_lat": 0.0, "name": "d7baea46d5df4d78c577f6fed9da1436", "is_reserved": 0, "rental_uris": {"android": "https://dc.lft.to/lastmile_qr_scan", "ios": "https://dc.lft.to/lastmile_qr_scan"}, "fusion_lon": 0.0}, {"lat": 38.9613605, "is_disabled": 0, "type": "electric_scooter", "lon": -77.02238116666666, "bike_id": "05c847099d47d0f7a917ed16bd0482bd", "fusion_lat": 0.0, "name": "05c847099d47d0f7a917ed16bd0482bd", "is_reserved": 0, "rental_uris": {"android": "https://dc.lft.to/lastmile_qr_scan", "ios": "https://dc.lft.to/lastmile_qr_scan"}, "fusion_lon": 0.0}, {"lat": 38.922872166666664, "is_disabled": 0, "type": "electric_scooter", "lon": -77.04261083333333, "bike_id": "84de8c8257fa8e8ceb4731f2d1ee3ed1", "fusion_lat": 0.0, "name": "84de8c8257fa8e8ceb4731f2d1ee3ed1", "is_reserved": 0, "rental_uris": {"android": "https://dc.lft.to/lastmile_qr_scan", "ios": "https://dc.lft.to/lastmile_qr_scan"}, "fusion_lon": 0.0}, {"lat": 38.91882783333333, "is_disabled": 0, "type": "electric_scooter", "lon": -77.035103, "bike_id": "7295f3d4f16f094dd7ee4da08ef945cc", "fusion_lat": 0.0, "name": "7295f3d4f16f094dd7ee4da08ef945cc", "is_reserved": 0, "rental_uris": {"android": "https://dc.lft.to/lastmile_qr_scan", "ios": "https://dc.lft.to/lastmile_qr_scan"}, "fusion_lon": 0.0}, {"lat": 38.9100235, "is_disabled": 0, "type": "electric_scooter", "lon": -77.03084533333333, "bike_id": "2e518cd6e0c6a73bf00693cd67a100f7", "fusion_lat": 0.0, "name": "2e518cd6e0c6a73bf00693cd67a100f7", "is_reserved": 0, "rental_uris": {"android": "https://dc.lft.to/lastmile_qr_scan", "ios": "https://dc.lft.to/lastmile_qr_scan"}, "fusion_lon": 0.0}, {"lat": 38.87139233333333, "is_disabled": 0, "type": "electric_bike", "lon": -76.93700166666666, "bike_id": "b2340e0971c6abba13c5b063711f403e", "fusion_lat": 0.0, "name": "b2340e0971c6abba13c5b063711f403e", "is_reserved": 0, "rental_uris": {"android": "https://dc.lft.to/lastmile_qr_scan", "ios": "https://dc.lft.to/lastmile_qr_scan"}, "fusion_lon": 0.0}, {"lat": 38.93057, "is_disabled": 0, "type": "electric_bike", "lon": -77.02294583333334, "bike_id": "515624f4e544e252e803bb3db6b2481d", "fusion_lat": 0.0, "name": "515624f4e544e252e803bb3db6b2481d", "is_reserved": 0, "rental_uris": {"android": "https://dc.lft.to/lastmile_qr_scan", "ios": "https://dc.lft.to/lastmile_qr_scan"}, "fusion_lon": 0.0}, {"lat": 38.92061366666667, "is_disabled": 0, "type": "electric_scooter", "lon": -77.02519766666667, "bike_id": "adf722b36fa5707f583a4ddf30f58c2c", "fusion_lat": 0.0, "name": "adf722b36fa5707f583a4ddf30f58c2c", "is_reserved": 0, "rental_uris": {"android": "https://dc.lft.to/lastmile_qr_scan", "ios": "https://dc.lft.to/lastmile_qr_scan"}, "fusion_lon": 0.0}, {"lat": 38.92246733333333, "is_disabled": 0, "type": "electric_scooter", "lon": -77.03010733333333, "bike_id": "d525dd59c8f7611da8446acc12cdf72e", "fusion_lat": 0.0, "name": "d525dd59c8f7611da8446acc12cdf72e", "is_reserved": 0, "rental_uris": {"android": "https://dc.lft.to/lastmile_qr_scan", "ios": "https://dc.lft.to/lastmile_qr_scan"}, "fusion_lon": 0.0}, {"lat": 38.92054683333333, "is_disabled": 0, "type": "electric_scooter", "lon": -77.03393016666666, "bike_id": "ab5b1bd011777942d161222a049f2a6f", "fusion_lat": 0.0, "name": "ab5b1bd011777942d161222a049f2a6f", "is_reserved": 0, "rental_uris": {"android": "https://dc.lft.to/lastmile_qr_scan", "ios": "https://dc.lft.to/lastmile_qr_scan"}, "fusion_lon": 0.0}, {"lat": 38.85731333333333, "is_disabled": 0, "type": "electric_bike", "lon": -76.97101833333333, "bike_id": "46cefeecfb5445c5c6e372f98d8bc10a", "fusion_lat": 0.0, "name": "46cefeecfb5445c5c6e372f98d8bc10a", "is_reserved": 0, "rental_uris": {"android": "https://dc.lft.to/lastmile_qr_scan", "ios": "https://dc.lft.to/lastmile_qr_scan"}, "fusion_lon": 0.0}, {"lat": 38.929724, "is_disabled": 0, "type": "electric_scooter", "lon": -77.013001, "bike_id": "b5229fae52881f038073478ca3c7595b", "fusion_lat": 0.0, "name": "b5229fae52881f038073478ca3c7595b", "is_reserved": 0, "rental_uris": {"android": "https://dc.lft.to/lastmile_qr_scan", "ios": "https://dc.lft.to/lastmile_qr_scan"}, "fusion_lon": 0.0}, {"lat": 38.884312, "is_disabled": 0, "type": "electric_scooter", "lon": -76.95760383333334, "bike_id": "6328e0b0f2d3f2cd6144f6a88a21b25a", "fusion_lat": 0.0, "name": "6328e0b0f2d3f2cd6144f6a88a21b25a", "is_reserved": 0, "rental_uris": {"android": "https://dc.lft.to/lastmile_qr_scan", "ios": "https://dc.lft.to/lastmile_qr_scan"}, "fusion_lon": 0.0}, {"lat": 38.907178, "is_disabled": 0, "type": "electric_scooter", "lon": -77.03788466666667, "bike_id": "46009116d5169b526be247cd2cb8fbfe", "fusion_lat": 0.0, "name": "46009116d5169b526be247cd2cb8fbfe", "is_reserved": 0, "rental_uris": {"android": "https://dc.lft.to/lastmile_qr_scan", "ios": "https://dc.lft.to/lastmile_qr_scan"}, "fusion_lon": 0.0}, {"lat": 38.906422, "is_disabled": 0, "type": "electric_scooter", "lon": -77.01136433333333, "bike_id": "51f1fecc2a5eec3c14692a8f8ff3e068", "fusion_lat": 0.0, "name": "51f1fecc2a5eec3c14692a8f8ff3e068", "is_reserved": 0, "rental_uris": {"android": "https://dc.lft.to/lastmile_qr_scan", "ios": "https://dc.lft.to/lastmile_qr_scan"}, "fusion_lon": 0.0}, {"lat": 38.9446635, "is_disabled": 0, "type": "electric_scooter", "lon": -77.006609, "bike_id": "a09a04cde6789599989c79ca25a87324", "fusion_lat": 0.0, "name": "a09a04cde6789599989c79ca25a87324", "is_reserved": 0, "rental_uris": {"android": "https://dc.lft.to/lastmile_qr_scan", "ios": "https://dc.lft.to/lastmile_qr_scan"}, "fusion_lon": 0.0}, {"lat": 38.92816416666667, "is_disabled": 0, "type": "electric_scooter", "lon": -77.0287705, "bike_id": "306246faa8bb5ba6c0bcd693cbefee9e", "fusion_lat": 0.0, "name": "306246faa8bb5ba6c0bcd693cbefee9e", "is_reserved": 0, "rental_uris": {"android": "https://dc.lft.to/lastmile_qr_scan", "ios": "https://dc.lft.to/lastmile_qr_scan"}, "fusion_lon": 0.0}, {"lat": 38.902385, "is_disabled": 0, "type": "electric_scooter", "lon": -77.00200933333333, "bike_id": "986109073a0f3c1571f4676b5f4ce03c", "fusion_lat": 0.0, "name": "986109073a0f3c1571f4676b5f4ce03c", "is_reserved": 0, "rental_uris": {"android": "https://dc.lft.to/lastmile_qr_scan", "ios": "https://dc.lft.to/lastmile_qr_scan"}, "fusion_lon": 0.0}, {"lat": 38.905599, "is_disabled": 0, "type": "electric_scooter", "lon": -77.00704583333334, "bike_id": "7134fa8012496b385c0c0341265c4e5e", "fusion_lat": 0.0, "name": "7134fa8012496b385c0c0341265c4e5e", "is_reserved": 0, "rental_uris": {"android": "https://dc.lft.to/lastmile_qr_scan", "ios": "https://dc.lft.to/lastmile_qr_scan"}, "fusion_lon": 0.0}, {"lat": 38.891768666666664, "is_disabled": 0, "type": "electric_scooter", "lon": -77.03207766666667, "bike_id": "bb33e1268f8c637ded0f0300f79475c5", "fusion_lat": 0.0, "name": "bb33e1268f8c637ded0f0300f79475c5", "is_reserved": 0, "rental_uris": {"android": "https://dc.lft.to/lastmile_qr_scan", "ios": "https://dc.lft.to/lastmile_qr_scan"}, "fusion_lon": 0.0}, {"lat": 38.91680216666666, "is_disabled": 0, "type": "electric_scooter", "lon": -77.02963983333333, "bike_id": "53d789de65d23b65fe33fbc4eb915b1b", "fusion_lat": 0.0, "name": "53d789de65d23b65fe33fbc4eb915b1b", "is_reserved": 0, "rental_uris": {"android": "https://dc.lft.to/lastmile_qr_scan", "ios": "https://dc.lft.to/lastmile_qr_scan"}, "fusion_lon": 0.0}, {"lat": 38.944277666666665, "is_disabled": 0, "type": "electric_scooter", "lon": -77.06338433333333, "bike_id": "20bcae9421ac6e5955e4107e711f1d24", "fusion_lat": 0.0, "name": "20bcae9421ac6e5955e4107e711f1d24", "is_reserved": 0, "rental_uris": {"android": "https://dc.lft.to/lastmile_qr_scan", "ios": "https://dc.lft.to/lastmile_qr_scan"}, "fusion_lon": 0.0}, {"lat": 38.87065066666667, "is_disabled": 0, "type": "electric_scooter", "lon": -77.00839033333334, "bike_id": "9e4ed9a7234143b0e0f8186537058343", "fusion_lat": 0.0, "name": "9e4ed9a7234143b0e0f8186537058343", "is_reserved": 0, "rental_uris": {"android": "https://dc.lft.to/lastmile_qr_scan", "ios": "https://dc.lft.to/lastmile_qr_scan"}, "fusion_lon": 0.0}, {"lat": 38.86213716666666, "is_disabled": 0, "type": "electric_bike", "lon": -76.997801, "bike_id": "159778d8a15d409cbe59c1c4d27d99c9", "fusion_lat": 0.0, "name": "159778d8a15d409cbe59c1c4d27d99c9", "is_reserved": 0, "rental_uris": {"android": "https://dc.lft.to/lastmile_qr_scan", "ios": "https://dc.lft.to/lastmile_qr_scan"}, "fusion_lon": 0.0}, {"lat": 38.919269166666666, "is_disabled": 0, "type": "electric_scooter", "lon": -77.03425683333333, "bike_id": "d9941e59f0f582a144d8696359b194f7", "fusion_lat": 0.0, "name": "d9941e59f0f582a144d8696359b194f7", "is_reserved": 0, "rental_uris": {"android": "https://dc.lft.to/lastmile_qr_scan", "ios": "https://dc.lft.to/lastmile_qr_scan"}, "fusion_lon": 0.0}, {"lat": 38.86674433333334, "is_disabled": 0, "type": "electric_scooter", "lon": -76.985402, "bike_id": "5c3d12ad42ec80c3188a54184bdccdc1", "fusion_lat": 0.0, "name": "5c3d12ad42ec80c3188a54184bdccdc1", "is_reserved": 0, "rental_uris": {"android": "https://dc.lft.to/lastmile_qr_scan", "ios": "https://dc.lft.to/lastmile_qr_scan"}, "fusion_lon": 0.0}, {"lat": 38.892221, "is_disabled": 0, "type": "electric_scooter", "lon": -77.02318783333334, "bike_id": "9b3c6021bd74b3477d1f86d94f0c82fa", "fusion_lat": 0.0, "name": "9b3c6021bd74b3477d1f86d94f0c82fa", "is_reserved": 0, "rental_uris": {"android": "https://dc.lft.to/lastmile_qr_scan", "ios": "https://dc.lft.to/lastmile_qr_scan"}, "fusion_lon": 0.0}, {"lat": 38.934000166666664, "is_disabled": 0, "type": "electric_scooter", "lon": -77.04119983333334, "bike_id": "512e22c9a9f247e064af8baf20eb0ce7", "fusion_lat": 0.0, "name": "512e22c9a9f247e064af8baf20eb0ce7", "is_reserved": 0, "rental_uris": {"android": "https://dc.lft.to/lastmile_qr_scan", "ios": "https://dc.lft.to/lastmile_qr_scan"}, "fusion_lon": 0.0}, {"lat": 38.960943666666665, "is_disabled": 0, "type": "electric_scooter", "lon": -77.082852, "bike_id": "6fa0ccc65f9158fb319541126c2e657f", "fusion_lat": 0.0, "name": "6fa0ccc65f9158fb319541126c2e657f", "is_reserved": 0, "rental_uris": {"android": "https://dc.lft.to/lastmile_qr_scan", "ios": "https://dc.lft.to/lastmile_qr_scan"}, "fusion_lon": 0.0}, {"lat": 38.93486733333334, "is_disabled": 0, "type": "electric_scooter", "lon": -77.072742, "bike_id": "6c6876a92c03348882c93d36fdbe9405", "fusion_lat": 0.0, "name": "6c6876a92c03348882c93d36fdbe9405", "is_reserved": 0, "rental_uris": {"android": "https://dc.lft.to/lastmile_qr_scan", "ios": "https://dc.lft.to/lastmile_qr_scan"}, "fusion_lon": 0.0}, {"lat": 38.92115616666667, "is_disabled": 0, "type": "electric_bike", "lon": -77.03931333333334, "bike_id": "5394dc5eceb09cb617ad5fe7e8f42e6e", "fusion_lat": 0.0, "name": "5394dc5eceb09cb617ad5fe7e8f42e6e", "is_reserved": 0, "rental_uris": {"android": "https://dc.lft.to/lastmile_qr_scan", "ios": "https://dc.lft.to/lastmile_qr_scan"}, "fusion_lon": 0.0}, {"lat": 38.9222295, "is_disabled": 0, "type": "electric_scooter", "lon": -77.03297666666667, "bike_id": "257001804ab397e3bea827796adf6584", "fusion_lat": 0.0, "name": "257001804ab397e3bea827796adf6584", "is_reserved": 0, "rental_uris": {"android": "https://dc.lft.to/lastmile_qr_scan", "ios": "https://dc.lft.to/lastmile_qr_scan"}, "fusion_lon": 0.0}, {"lat": 38.9183795, "is_disabled": 0, "type": "electric_scooter", "lon": -77.02302066666667, "bike_id": "0c587cf57d176d183fd0aca8f2e0e6da", "fusion_lat": 0.0, "name": "0c587cf57d176d183fd0aca8f2e0e6da", "is_reserved": 0, "rental_uris": {"android": "https://dc.lft.to/lastmile_qr_scan", "ios": "https://dc.lft.to/lastmile_qr_scan"}, "fusion_lon": 0.0}, {"lat": 38.905011, "is_disabled": 0, "type": "electric_scooter", "lon": -77.02950633333333, "bike_id": "dc96e97a3377f43225952fbb386e1988", "fusion_lat": 0.0, "name": "dc96e97a3377f43225952fbb386e1988", "is_reserved": 0, "rental_uris": {"android": "https://dc.lft.to/lastmile_qr_scan", "ios": "https://dc.lft.to/lastmile_qr_scan"}, "fusion_lon": 0.0}, {"lat": 38.902277166666664, "is_disabled": 0, "type": "electric_scooter", "lon": -77.04876516666667, "bike_id": "538f4a91ea831c1f1e530c4a550ad54e", "fusion_lat": 0.0, "name": "538f4a91ea831c1f1e530c4a550ad54e", "is_reserved": 0, "rental_uris": {"android": "https://dc.lft.to/lastmile_qr_scan", "ios": "https://dc.lft.to/lastmile_qr_scan"}, "fusion_lon": 0.0}, {"lat": 38.924225666666665, "is_disabled": 0, "type": "electric_scooter", "lon": -77.0445145, "bike_id": "9c3218b837233d2a65d7923726c4b63b", "fusion_lat": 0.0, "name": "9c3218b837233d2a65d7923726c4b63b", "is_reserved": 0, "rental_uris": {"android": "https://dc.lft.to/lastmile_qr_scan", "ios": "https://dc.lft.to/lastmile_qr_scan"}, "fusion_lon": 0.0}, {"lat": 38.895481, "is_disabled": 0, "type": "electric_scooter", "lon": -77.00909433333334, "bike_id": "abf7326e956cb5eaf0f64b54b5528c72", "fusion_lat": 0.0, "name": "abf7326e956cb5eaf0f64b54b5528c72", "is_reserved": 0, "rental_uris": {"android": "https://dc.lft.to/lastmile_qr_scan", "ios": "https://dc.lft.to/lastmile_qr_scan"}, "fusion_lon": 0.0}, {"lat": 38.935295833333335, "is_disabled": 0, "type": "electric_scooter", "lon": -77.072932, "bike_id": "a10b4e0b8708ee527519c08fdba28a56", "fusion_lat": 0.0, "name": "a10b4e0b8708ee527519c08fdba28a56", "is_reserved": 0, "rental_uris": {"android": "https://dc.lft.to/lastmile_qr_scan", "ios": "https://dc.lft.to/lastmile_qr_scan"}, "fusion_lon": 0.0}, {"lat": 38.903732833333336, "is_disabled": 0, "type": "electric_scooter", "lon": -76.99224433333333, "bike_id": "18d34616ed5591cc1cd1b1e27419fb6d", "fusion_lat": 0.0, "name": "18d34616ed5591cc1cd1b1e27419fb6d", "is_reserved": 0, "rental_uris": {"android": "https://dc.lft.to/lastmile_qr_scan", "ios": "https://dc.lft.to/lastmile_qr_scan"}, "fusion_lon": 0.0}, {"lat": 38.90854266666667, "is_disabled": 0, "type": "electric_scooter", "lon": -77.01967433333333, "bike_id": "ea0514a7b277bc90678d53da8fe9c336", "fusion_lat": 0.0, "name": "ea0514a7b277bc90678d53da8fe9c336", "is_reserved": 0, "rental_uris": {"android": "https://dc.lft.to/lastmile_qr_scan", "ios": "https://dc.lft.to/lastmile_qr_scan"}, "fusion_lon": 0.0}, {"lat": 38.89743633333333, "is_disabled": 0, "type": "electric_scooter", "lon": -77.02390316666667, "bike_id": "ada7fd15ff76728b152ef8ff8874ea9d", "fusion_lat": 0.0, "name": "ada7fd15ff76728b152ef8ff8874ea9d", "is_reserved": 0, "rental_uris": {"android": "https://dc.lft.to/lastmile_qr_scan", "ios": "https://dc.lft.to/lastmile_qr_scan"}, "fusion_lon": 0.0}, {"lat": 38.93477, "is_disabled": 0, "type": "electric_scooter", "lon": -77.04118783333334, "bike_id": "be9d90fc5701a2ecbee0c2113210146f", "fusion_lat": 0.0, "name": "be9d90fc5701a2ecbee0c2113210146f", "is_reserved": 0, "rental_uris": {"android": "https://dc.lft.to/lastmile_qr_scan", "ios": "https://dc.lft.to/lastmile_qr_scan"}, "fusion_lon": 0.0}, {"lat": 38.917109833333335, "is_disabled": 0, "type": "electric_scooter", "lon": -77.03247516666667, "bike_id": "ec729218e02e63cef791b9d55fe3a139", "fusion_lat": 0.0, "name": "ec729218e02e63cef791b9d55fe3a139", "is_reserved": 0, "rental_uris": {"android": "https://dc.lft.to/lastmile_qr_scan", "ios": "https://dc.lft.to/lastmile_qr_scan"}, "fusion_lon": 0.0}, {"lat": 38.99394616666667, "is_disabled": 0, "type": "electric_bike", "lon": -77.032157, "bike_id": "25d20a62db8b236db2ffd77b5b3fcff4", "fusion_lat": 0.0, "name": "25d20a62db8b236db2ffd77b5b3fcff4", "is_reserved": 0, "rental_uris": {"android": "https://dc.lft.to/lastmile_qr_scan", "ios": "https://dc.lft.to/lastmile_qr_scan"}, "fusion_lon": 0.0}, {"lat": 38.8849, "is_disabled": 0, "type": "electric_scooter", "lon": -77.00708033333333, "bike_id": "551896fe0863aea1322b2b4b47baecc9", "fusion_lat": 0.0, "name": "551896fe0863aea1322b2b4b47baecc9", "is_reserved": 0, "rental_uris": {"android": "https://dc.lft.to/lastmile_qr_scan", "ios": "https://dc.lft.to/lastmile_qr_scan"}, "fusion_lon": 0.0}, {"lat": 38.92472383333333, "is_disabled": 0, "type": "electric_scooter", "lon": -77.0523045, "bike_id": "7a08f2abda5cbeddca75abe1c3fbe83d", "fusion_lat": 0.0, "name": "7a08f2abda5cbeddca75abe1c3fbe83d", "is_reserved": 0, "rental_uris": {"android": "https://dc.lft.to/lastmile_qr_scan", "ios": "https://dc.lft.to/lastmile_qr_scan"}, "fusion_lon": 0.0}, {"lat": 38.928546, "is_disabled": 0, "type": "electric_scooter", "lon": -77.03100516666667, "bike_id": "0baeb0d0a46d315c2dca5db5f37dfc6e", "fusion_lat": 0.0, "name": "0baeb0d0a46d315c2dca5db5f37dfc6e", "is_reserved": 0, "rental_uris": {"android": "https://dc.lft.to/lastmile_qr_scan", "ios": "https://dc.lft.to/lastmile_qr_scan"}, "fusion_lon": 0.0}, {"lat": 38.909414, "is_disabled": 0, "type": "electric_scooter", "lon": -77.044724, "bike_id": "785300c8b69d287329dd36226e3e35ad", "fusion_lat": 0.0, "name": "785300c8b69d287329dd36226e3e35ad", "is_reserved": 0, "rental_uris": {"android": "https://dc.lft.to/lastmile_qr_scan", "ios": "https://dc.lft.to/lastmile_qr_scan"}, "fusion_lon": 0.0}, {"lat": 38.923779, "is_disabled": 0, "type": "electric_scooter", "lon": -77.027466, "bike_id": "78720fc827419e628af5d772c4335292", "fusion_lat": 0.0, "name": "78720fc827419e628af5d772c4335292", "is_reserved": 0, "rental_uris": {"android": "https://dc.lft.to/lastmile_qr_scan", "ios": "https://dc.lft.to/lastmile_qr_scan"}, "fusion_lon": 0.0}, {"lat": 38.84290983333333, "is_disabled": 0, "type": "electric_scooter", "lon": -76.99946966666667, "bike_id": "10032a254df2fed6148576694e2efc5e", "fusion_lat": 0.0, "name": "10032a254df2fed6148576694e2efc5e", "is_reserved": 0, "rental_uris": {"android": "https://dc.lft.to/lastmile_qr_scan", "ios": "https://dc.lft.to/lastmile_qr_scan"}, "fusion_lon": 0.0}, {"lat": 38.9302955, "is_disabled": 0, "type": "electric_scooter", "lon": -77.02324466666667, "bike_id": "e1c2d7cc11405151ed1796c23d84bf2e", "fusion_lat": 0.0, "name": "e1c2d7cc11405151ed1796c23d84bf2e", "is_reserved": 0, "rental_uris": {"android": "https://dc.lft.to/lastmile_qr_scan", "ios": "https://dc.lft.to/lastmile_qr_scan"}, "fusion_lon": 0.0}, {"lat": 38.92486316666667, "is_disabled": 0, "type": "electric_scooter", "lon": -77.0732605, "bike_id": "da4baf4065541dcf8056e38ce78accb7", "fusion_lat": 0.0, "name": "da4baf4065541dcf8056e38ce78accb7", "is_reserved": 0, "rental_uris": {"android": "https://dc.lft.to/lastmile_qr_scan", "ios": "https://dc.lft.to/lastmile_qr_scan"}, "fusion_lon": 0.0}, {"lat": 38.880749, "is_disabled": 0, "type": "electric_scooter", "lon": -77.005901, "bike_id": "682473a6a2761f843dfb0c4f340d9229", "fusion_lat": 0.0, "name": "682473a6a2761f843dfb0c4f340d9229", "is_reserved": 0, "rental_uris": {"android": "https://dc.lft.to/lastmile_qr_scan", "ios": "https://dc.lft.to/lastmile_qr_scan"}, "fusion_lon": 0.0}, {"lat": 38.9052435, "is_disabled": 0, "type": "electric_scooter", "lon": -77.064531, "bike_id": "3fcfea9fdb501ea0c842de2ed6522026", "fusion_lat": 0.0, "name": "3fcfea9fdb501ea0c842de2ed6522026", "is_reserved": 0, "rental_uris": {"android": "https://dc.lft.to/lastmile_qr_scan", "ios": "https://dc.lft.to/lastmile_qr_scan"}, "fusion_lon": 0.0}, {"lat": 38.922097, "is_disabled": 0, "type": "electric_scooter", "lon": -77.0377515, "bike_id": "b6d1fe35f3e2728af4e04fa23cbb9265", "fusion_lat": 0.0, "name": "b6d1fe35f3e2728af4e04fa23cbb9265", "is_reserved": 0, "rental_uris": {"android": "https://dc.lft.to/lastmile_qr_scan", "ios": "https://dc.lft.to/lastmile_qr_scan"}, "fusion_lon": 0.0}, {"lat": 38.8938785, "is_disabled": 0, "type": "electric_scooter", "lon": -76.94992716666667, "bike_id": "50e8e52ef1254f68b06a3d5f625a8b1b", "fusion_lat": 0.0, "name": "50e8e52ef1254f68b06a3d5f625a8b1b", "is_reserved": 0, "rental_uris": {"android": "https://dc.lft.to/lastmile_qr_scan", "ios": "https://dc.lft.to/lastmile_qr_scan"}, "fusion_lon": 0.0}, {"lat": 38.899894333333336, "is_disabled": 0, "type": "electric_scooter", "lon": -77.021593, "bike_id": "7ed069801450f8136b08e0996627d526", "fusion_lat": 0.0, "name": "7ed069801450f8136b08e0996627d526", "is_reserved": 0, "rental_uris": {"android": "https://dc.lft.to/lastmile_qr_scan", "ios": "https://dc.lft.to/lastmile_qr_scan"}, "fusion_lon": 0.0}, {"lat": 38.8670295, "is_disabled": 0, "type": "electric_scooter", "lon": -76.98716583333334, "bike_id": "01f95e3fac2ab8563abc9251588dd4b1", "fusion_lat": 0.0, "name": "01f95e3fac2ab8563abc9251588dd4b1", "is_reserved": 0, "rental_uris": {"android": "https://dc.lft.to/lastmile_qr_scan", "ios": "https://dc.lft.to/lastmile_qr_scan"}, "fusion_lon": 0.0}, {"lat": 38.928670333333336, "is_disabled": 0, "type": "electric_scooter", "lon": -76.99028366666667, "bike_id": "fd0c72b1b846c6ecf24141213d5cc100", "fusion_lat": 0.0, "name": "fd0c72b1b846c6ecf24141213d5cc100", "is_reserved": 0, "rental_uris": {"android": "https://dc.lft.to/lastmile_qr_scan", "ios": "https://dc.lft.to/lastmile_qr_scan"}, "fusion_lon": 0.0}, {"lat": 38.915565, "is_disabled": 0, "type": "electric_scooter", "lon": -77.041791, "bike_id": "6b040aa6037aace5ef96494252518e6d", "fusion_lat": 0.0, "name": "6b040aa6037aace5ef96494252518e6d", "is_reserved": 0, "rental_uris": {"android": "https://dc.lft.to/lastmile_qr_scan", "ios": "https://dc.lft.to/lastmile_qr_scan"}, "fusion_lon": 0.0}, {"lat": 38.916870333333335, "is_disabled": 0, "type": "electric_scooter", "lon": -77.0294845, "bike_id": "c65e0eb3e293585768046b58db4f2007", "fusion_lat": 0.0, "name": "c65e0eb3e293585768046b58db4f2007", "is_reserved": 0, "rental_uris": {"android": "https://dc.lft.to/lastmile_qr_scan", "ios": "https://dc.lft.to/lastmile_qr_scan"}, "fusion_lon": 0.0}, {"lat": 38.88442216666667, "is_disabled": 0, "type": "electric_scooter", "lon": -77.00055033333334, "bike_id": "8420f5b52880fdcdcf7e4ff39c6969d8", "fusion_lat": 0.0, "name": "8420f5b52880fdcdcf7e4ff39c6969d8", "is_reserved": 0, "rental_uris": {"android": "https://dc.lft.to/lastmile_qr_scan", "ios": "https://dc.lft.to/lastmile_qr_scan"}, "fusion_lon": 0.0}, {"lat": 38.903133833333335, "is_disabled": 0, "type": "electric_scooter", "lon": -77.05181633333333, "bike_id": "d7685a9f5650aef0a5bf66bd8604bb22", "fusion_lat": 0.0, "name": "d7685a9f5650aef0a5bf66bd8604bb22", "is_reserved": 0, "rental_uris": {"android": "https://dc.lft.to/lastmile_qr_scan", "ios": "https://dc.lft.to/lastmile_qr_scan"}, "fusion_lon": 0.0}, {"lat": 38.90509633333333, "is_disabled": 0, "type": "electric_scooter", "lon": -77.029655, "bike_id": "c62fc5054108f0abea04cadd73e53fed", "fusion_lat": 0.0, "name": "c62fc5054108f0abea04cadd73e53fed", "is_reserved": 0, "rental_uris": {"android": "https://dc.lft.to/lastmile_qr_scan", "ios": "https://dc.lft.to/lastmile_qr_scan"}, "fusion_lon": 0.0}, {"lat": 38.893985666666666, "is_disabled": 0, "type": "electric_scooter", "lon": -77.02210483333333, "bike_id": "19c83622839b4b9910022afff9ab0bef", "fusion_lat": 0.0, "name": "19c83622839b4b9910022afff9ab0bef", "is_reserved": 0, "rental_uris": {"android": "https://dc.lft.to/lastmile_qr_scan", "ios": "https://dc.lft.to/lastmile_qr_scan"}, "fusion_lon": 0.0}, {"lat": 38.892222, "is_disabled": 0, "type": "electric_scooter", "lon": -77.04202083333334, "bike_id": "f1ba5cf55335b0cffbd8aa6e3fd6aae6", "fusion_lat": 0.0, "name": "f1ba5cf55335b0cffbd8aa6e3fd6aae6", "is_reserved": 0, "rental_uris": {"android": "https://dc.lft.to/lastmile_qr_scan", "ios": "https://dc.lft.to/lastmile_qr_scan"}, "fusion_lon": 0.0}, {"lat": 38.892245333333335, "is_disabled": 0, "type": "electric_scooter", "lon": -77.03218933333333, "bike_id": "069273fec470f0ad7a1199a7eeeb2ec9", "fusion_lat": 0.0, "name": "069273fec470f0ad7a1199a7eeeb2ec9", "is_reserved": 0, "rental_uris": {"android": "https://dc.lft.to/lastmile_qr_scan", "ios": "https://dc.lft.to/lastmile_qr_scan"}, "fusion_lon": 0.0}, {"lat": 38.922479833333334, "is_disabled": 0, "type": "electric_scooter", "lon": -77.03079866666667, "bike_id": "aeb0ec285e6602d313be977618a7a717", "fusion_lat": 0.0, "name": "aeb0ec285e6602d313be977618a7a717", "is_reserved": 0, "rental_uris": {"android": "https://dc.lft.to/lastmile_qr_scan", "ios": "https://dc.lft.to/lastmile_qr_scan"}, "fusion_lon": 0.0}, {"lat": 38.86363383333333, "is_disabled": 0, "type": "electric_scooter", "lon": -76.990354, "bike_id": "abff57f3e08b4e40d8d0013b8ffadb45", "fusion_lat": 0.0, "name": "abff57f3e08b4e40d8d0013b8ffadb45", "is_reserved": 0, "rental_uris": {"android": "https://dc.lft.to/lastmile_qr_scan", "ios": "https://dc.lft.to/lastmile_qr_scan"}, "fusion_lon": 0.0}, {"lat": 38.923114, "is_disabled": 0, "type": "electric_scooter", "lon": -77.04220583333333, "bike_id": "7b195c81bbc95cb90405851ae14b5637", "fusion_lat": 0.0, "name": "7b195c81bbc95cb90405851ae14b5637", "is_reserved": 0, "rental_uris": {"android": "https://dc.lft.to/lastmile_qr_scan", "ios": "https://dc.lft.to/lastmile_qr_scan"}, "fusion_lon": 0.0}, {"lat": 38.95908633333333, "is_disabled": 0, "type": "electric_scooter", "lon": -77.08063383333334, "bike_id": "71f84fe16d206a5367e6504d27aa4663", "fusion_lat": 0.0, "name": "71f84fe16d206a5367e6504d27aa4663", "is_reserved": 0, "rental_uris": {"android": "https://dc.lft.to/lastmile_qr_scan", "ios": "https://dc.lft.to/lastmile_qr_scan"}, "fusion_lon": 0.0}, {"lat": 38.917072, "is_disabled": 0, "type": "electric_scooter", "lon": -77.00961833333334, "bike_id": "20a0626638478ef3553269fe4f7ce485", "fusion_lat": 0.0, "name": "20a0626638478ef3553269fe4f7ce485", "is_reserved": 0, "rental_uris": {"android": "https://dc.lft.to/lastmile_qr_scan", "ios": "https://dc.lft.to/lastmile_qr_scan"}, "fusion_lon": 0.0}, {"lat": 38.92971133333333, "is_disabled": 0, "type": "electric_scooter", "lon": -77.02925666666667, "bike_id": "7b3dacdd03dfe66692c662fbf13f4d62", "fusion_lat": 0.0, "name": "7b3dacdd03dfe66692c662fbf13f4d62", "is_reserved": 0, "rental_uris": {"android": "https://dc.lft.to/lastmile_qr_scan", "ios": "https://dc.lft.to/lastmile_qr_scan"}, "fusion_lon": 0.0}, {"lat": 38.93092633333333, "is_disabled": 0, "type": "electric_scooter", "lon": -77.023435, "bike_id": "cddb7900a8d25510b89a899bf950c180", "fusion_lat": 0.0, "name": "cddb7900a8d25510b89a899bf950c180", "is_reserved": 0, "rental_uris": {"android": "https://dc.lft.to/lastmile_qr_scan", "ios": "https://dc.lft.to/lastmile_qr_scan"}, "fusion_lon": 0.0}, {"lat": 38.87154016666667, "is_disabled": 0, "type": "electric_bike", "lon": -76.93674266666666, "bike_id": "b62cdff688721707bb5f17f391bf8286", "fusion_lat": 0.0, "name": "b62cdff688721707bb5f17f391bf8286", "is_reserved": 0, "rental_uris": {"android": "https://dc.lft.to/lastmile_qr_scan", "ios": "https://dc.lft.to/lastmile_qr_scan"}, "fusion_lon": 0.0}, {"lat": 38.91124333333333, "is_disabled": 0, "type": "electric_scooter", "lon": -77.03837933333334, "bike_id": "b7865a3164cb488b896a939f16b4e994", "fusion_lat": 0.0, "name": "b7865a3164cb488b896a939f16b4e994", "is_reserved": 0, "rental_uris": {"android": "https://dc.lft.to/lastmile_qr_scan", "ios": "https://dc.lft.to/lastmile_qr_scan"}, "fusion_lon": 0.0}, {"lat": 38.892256833333334, "is_disabled": 0, "type": "electric_scooter", "lon": -77.045157, "bike_id": "0b7a7c0a1aae7b28b156820c771dca40", "fusion_lat": 0.0, "name": "0b7a7c0a1aae7b28b156820c771dca40", "is_reserved": 0, "rental_uris": {"android": "https://dc.lft.to/lastmile_qr_scan", "ios": "https://dc.lft.to/lastmile_qr_scan"}, "fusion_lon": 0.0}, {"lat": 38.917433833333334, "is_disabled": 0, "type": "electric_scooter", "lon": -77.03185216666667, "bike_id": "406cdd1a82d3a823e4a71f8360555a0e", "fusion_lat": 0.0, "name": "406cdd1a82d3a823e4a71f8360555a0e", "is_reserved": 0, "rental_uris": {"android": "https://dc.lft.to/lastmile_qr_scan", "ios": "https://dc.lft.to/lastmile_qr_scan"}, "fusion_lon": 0.0}, {"lat": 38.89489666666667, "is_disabled": 0, "type": "electric_scooter", "lon": -76.99507333333334, "bike_id": "ab5ef1b78bb27e3e4b76965d697f42ee", "fusion_lat": 0.0, "name": "ab5ef1b78bb27e3e4b76965d697f42ee", "is_reserved": 0, "rental_uris": {"android": "https://dc.lft.to/lastmile_qr_scan", "ios": "https://dc.lft.to/lastmile_qr_scan"}, "fusion_lon": 0.0}, {"lat": 38.90948133333333, "is_disabled": 0, "type": "electric_scooter", "lon": -77.04655916666667, "bike_id": "6358765ae930f88212ded7c49796609c", "fusion_lat": 0.0, "name": "6358765ae930f88212ded7c49796609c", "is_reserved": 0, "rental_uris": {"android": "https://dc.lft.to/lastmile_qr_scan", "ios": "https://dc.lft.to/lastmile_qr_scan"}, "fusion_lon": 0.0}, {"lat": 38.93582966666666, "is_disabled": 0, "type": "electric_bike", "lon": -77.106846, "bike_id": "1b25bfde1f3885455d6af77ea807e90e", "fusion_lat": 0.0, "name": "1b25bfde1f3885455d6af77ea807e90e", "is_reserved": 0, "rental_uris": {"android": "https://dc.lft.to/lastmile_qr_scan", "ios": "https://dc.lft.to/lastmile_qr_scan"}, "fusion_lon": 0.0}, {"lat": 38.881162833333335, "is_disabled": 0, "type": "electric_scooter", "lon": -77.01634266666667, "bike_id": "ae0f56788efbcac08c44d20a9520699e", "fusion_lat": 0.0, "name": "ae0f56788efbcac08c44d20a9520699e", "is_reserved": 0, "rental_uris": {"android": "https://dc.lft.to/lastmile_qr_scan", "ios": "https://dc.lft.to/lastmile_qr_scan"}, "fusion_lon": 0.0}, {"lat": 38.95187466666667, "is_disabled": 0, "type": "electric_bike", "lon": -76.93545366666666, "bike_id": "2436d93933ed89e1886d453a811fb505", "fusion_lat": 0.0, "name": "2436d93933ed89e1886d453a811fb505", "is_reserved": 0, "rental_uris": {"android": "https://dc.lft.to/lastmile_qr_scan", "ios": "https://dc.lft.to/lastmile_qr_scan"}, "fusion_lon": 0.0}, {"lat": 38.91998516666666, "is_disabled": 0, "type": "electric_scooter", "lon": -77.03957066666666, "bike_id": "b524f17eb6a57388bb7f8b3c2fbd6103", "fusion_lat": 0.0, "name": "b524f17eb6a57388bb7f8b3c2fbd6103", "is_reserved": 0, "rental_uris": {"android": "https://dc.lft.to/lastmile_qr_scan", "ios": "https://dc.lft.to/lastmile_qr_scan"}, "fusion_lon": 0.0}, {"lat": 38.907073833333335, "is_disabled": 0, "type": "electric_scooter", "lon": -76.98697266666667, "bike_id": "61f304a9096570944725c759a798d009", "fusion_lat": 0.0, "name": "61f304a9096570944725c759a798d009", "is_reserved": 0, "rental_uris": {"android": "https://dc.lft.to/lastmile_qr_scan", "ios": "https://dc.lft.to/lastmile_qr_scan"}, "fusion_lon": 0.0}, {"lat": 38.877336, "is_disabled": 0, "type": "electric_bike", "lon": -77.11850283333334, "bike_id": "e526b6a6c18a685171334274e209e46c", "fusion_lat": 0.0, "name": "e526b6a6c18a685171334274e209e46c", "is_reserved": 0, "rental_uris": {"android": "https://dc.lft.to/lastmile_qr_scan", "ios": "https://dc.lft.to/lastmile_qr_scan"}, "fusion_lon": 0.0}, {"lat": 38.946283666666666, "is_disabled": 0, "type": "electric_scooter", "lon": -77.0184845, "bike_id": "5ef5386e520c020e1ff80b8c18e072f4", "fusion_lat": 0.0, "name": "5ef5386e520c020e1ff80b8c18e072f4", "is_reserved": 0, "rental_uris": {"android": "https://dc.lft.to/lastmile_qr_scan", "ios": "https://dc.lft.to/lastmile_qr_scan"}, "fusion_lon": 0.0}, {"lat": 38.90962666666667, "is_disabled": 0, "type": "electric_scooter", "lon": -77.038412, "bike_id": "df3662e5bf6c0adc61ee2bc744314b1e", "fusion_lat": 0.0, "name": "df3662e5bf6c0adc61ee2bc744314b1e", "is_reserved": 0, "rental_uris": {"android": "https://dc.lft.to/lastmile_qr_scan", "ios": "https://dc.lft.to/lastmile_qr_scan"}, "fusion_lon": 0.0}, {"lat": 38.90914716666666, "is_disabled": 0, "type": "electric_scooter", "lon": -77.08014116666666, "bike_id": "721b6fbc7837d777f2251725edebbf3c", "fusion_lat": 0.0, "name": "721b6fbc7837d777f2251725edebbf3c", "is_reserved": 0, "rental_uris": {"android": "https://dc.lft.to/lastmile_qr_scan", "ios": "https://dc.lft.to/lastmile_qr_scan"}, "fusion_lon": 0.0}, {"lat": 38.86744066666667, "is_disabled": 0, "type": "electric_scooter", "lon": -76.97664283333333, "bike_id": "c8c281de2fdf954c2a2de0d7b3bddda8", "fusion_lat": 0.0, "name": "c8c281de2fdf954c2a2de0d7b3bddda8", "is_reserved": 0, "rental_uris": {"android": "https://dc.lft.to/lastmile_qr_scan", "ios": "https://dc.lft.to/lastmile_qr_scan"}, "fusion_lon": 0.0}, {"lat": 38.866989, "is_disabled": 0, "type": "electric_scooter", "lon": -76.98718966666667, "bike_id": "c173f7650793b13fce706277b64c6e45", "fusion_lat": 0.0, "name": "c173f7650793b13fce706277b64c6e45", "is_reserved": 0, "rental_uris": {"android": "https://dc.lft.to/lastmile_qr_scan", "ios": "https://dc.lft.to/lastmile_qr_scan"}, "fusion_lon": 0.0}, {"lat": 38.935294999999996, "is_disabled": 0, "type": "electric_scooter", "lon": -77.07296766666667, "bike_id": "889a83ff04e15a56d98be1e2b12b7fcb", "fusion_lat": 0.0, "name": "889a83ff04e15a56d98be1e2b12b7fcb", "is_reserved": 0, "rental_uris": {"android": "https://dc.lft.to/lastmile_qr_scan", "ios": "https://dc.lft.to/lastmile_qr_scan"}, "fusion_lon": 0.0}, {"lat": 38.8952935, "is_disabled": 0, "type": "electric_scooter", "lon": -76.94890483333333, "bike_id": "5c9c2a0af2e1a50cb7bb9e1f09edd4bd", "fusion_lat": 0.0, "name": "5c9c2a0af2e1a50cb7bb9e1f09edd4bd", "is_reserved": 0, "rental_uris": {"android": "https://dc.lft.to/lastmile_qr_scan", "ios": "https://dc.lft.to/lastmile_qr_scan"}, "fusion_lon": 0.0}, {"lat": 38.905522833333336, "is_disabled": 0, "type": "electric_scooter", "lon": -77.01675383333334, "bike_id": "40bb76c018414f37062ad1c5ff69a27b", "fusion_lat": 0.0, "name": "40bb76c018414f37062ad1c5ff69a27b", "is_reserved": 0, "rental_uris": {"android": "https://dc.lft.to/lastmile_qr_scan", "ios": "https://dc.lft.to/lastmile_qr_scan"}, "fusion_lon": 0.0}, {"lat": 38.9028155, "is_disabled": 0, "type": "electric_scooter", "lon": -77.05812716666667, "bike_id": "cf1cd72e6a56ce2b64ebab775938742c", "fusion_lat": 0.0, "name": "cf1cd72e6a56ce2b64ebab775938742c", "is_reserved": 0, "rental_uris": {"android": "https://dc.lft.to/lastmile_qr_scan", "ios": "https://dc.lft.to/lastmile_qr_scan"}, "fusion_lon": 0.0}, {"lat": 38.87406083333333, "is_disabled": 0, "type": "electric_bike", "lon": -76.96575116666666, "bike_id": "7688158e8de2499fcc330796e7fc2db7", "fusion_lat": 0.0, "name": "7688158e8de2499fcc330796e7fc2db7", "is_reserved": 0, "rental_uris": {"android": "https://dc.lft.to/lastmile_qr_scan", "ios": "https://dc.lft.to/lastmile_qr_scan"}, "fusion_lon": 0.0}, {"lat": 38.93089416666667, "is_disabled": 0, "type": "electric_scooter", "lon": -77.07750566666667, "bike_id": "aefee77e411a59e61912c70aa7d91c8e", "fusion_lat": 0.0, "name": "aefee77e411a59e61912c70aa7d91c8e", "is_reserved": 0, "rental_uris": {"android": "https://dc.lft.to/lastmile_qr_scan", "ios": "https://dc.lft.to/lastmile_qr_scan"}, "fusion_lon": 0.0}, {"lat": 38.90943766666667, "is_disabled": 0, "type": "electric_scooter", "lon": -76.98961683333333, "bike_id": "f8c2ab4ccec1b3ff4c6d12f5e7bc07b7", "fusion_lat": 0.0, "name": "f8c2ab4ccec1b3ff4c6d12f5e7bc07b7", "is_reserved": 0, "rental_uris": {"android": "https://dc.lft.to/lastmile_qr_scan", "ios": "https://dc.lft.to/lastmile_qr_scan"}, "fusion_lon": 0.0}, {"lat": 38.840260666666666, "is_disabled": 0, "type": "electric_bike", "lon": -76.97571516666666, "bike_id": "54f265b498174b58c8a02b34d56b61fd", "fusion_lat": 0.0, "name": "54f265b498174b58c8a02b34d56b61fd", "is_reserved": 0, "rental_uris": {"android": "https://dc.lft.to/lastmile_qr_scan", "ios": "https://dc.lft.to/lastmile_qr_scan"}, "fusion_lon": 0.0}, {"lat": 38.9006645, "is_disabled": 0, "type": "electric_scooter", "lon": -77.02717383333334, "bike_id": "c60aa8022ad3164671c076c9b8c06b7a", "fusion_lat": 0.0, "name": "c60aa8022ad3164671c076c9b8c06b7a", "is_reserved": 0, "rental_uris": {"android": "https://dc.lft.to/lastmile_qr_scan", "ios": "https://dc.lft.to/lastmile_qr_scan"}, "fusion_lon": 0.0}, {"lat": 38.9035095, "is_disabled": 0, "type": "electric_scooter", "lon": -77.01096883333334, "bike_id": "cde57b33c73ff0e54eba438b33b391ef", "fusion_lat": 0.0, "name": "cde57b33c73ff0e54eba438b33b391ef", "is_reserved": 0, "rental_uris": {"android": "https://dc.lft.to/lastmile_qr_scan", "ios": "https://dc.lft.to/lastmile_qr_scan"}, "fusion_lon": 0.0}, {"lat": 38.95637966666666, "is_disabled": 0, "type": "electric_bike", "lon": -77.019611, "bike_id": "53a233a3b8cd9571ad419a4ae4207210", "fusion_lat": 0.0, "name": "53a233a3b8cd9571ad419a4ae4207210", "is_reserved": 0, "rental_uris": {"android": "https://dc.lft.to/lastmile_qr_scan", "ios": "https://dc.lft.to/lastmile_qr_scan"}, "fusion_lon": 0.0}, {"lat": 38.898774833333334, "is_disabled": 0, "type": "electric_scooter", "lon": -76.93188566666667, "bike_id": "432bb7483d733b3eab07027ee26063da", "fusion_lat": 0.0, "name": "432bb7483d733b3eab07027ee26063da", "is_reserved": 0, "rental_uris": {"android": "https://dc.lft.to/lastmile_qr_scan", "ios": "https://dc.lft.to/lastmile_qr_scan"}, "fusion_lon": 0.0}, {"lat": 38.887416333333334, "is_disabled": 0, "type": "electric_scooter", "lon": -76.98359716666667, "bike_id": "7e0c8ccb41a7d73f1b8998efa65f3319", "fusion_lat": 0.0, "name": "7e0c8ccb41a7d73f1b8998efa65f3319", "is_reserved": 0, "rental_uris": {"android": "https://dc.lft.to/lastmile_qr_scan", "ios": "https://dc.lft.to/lastmile_qr_scan"}, "fusion_lon": 0.0}, {"lat": 38.923655333333336, "is_disabled": 0, "type": "electric_scooter", "lon": -77.05132433333333, "bike_id": "3f58312c1a00aef1a183c760f16623d1", "fusion_lat": 0.0, "name": "3f58312c1a00aef1a183c760f16623d1", "is_reserved": 0, "rental_uris": {"android": "https://dc.lft.to/lastmile_qr_scan", "ios": "https://dc.lft.to/lastmile_qr_scan"}, "fusion_lon": 0.0}, {"lat": 38.880232166666666, "is_disabled": 0, "type": "electric_scooter", "lon": -76.9601655, "bike_id": "729183157a2a7c2d40197535bbe6ad64", "fusion_lat": 0.0, "name": "729183157a2a7c2d40197535bbe6ad64", "is_reserved": 0, "rental_uris": {"android": "https://dc.lft.to/lastmile_qr_scan", "ios": "https://dc.lft.to/lastmile_qr_scan"}, "fusion_lon": 0.0}, {"lat": 38.9282555, "is_disabled": 0, "type": "electric_scooter", "lon": -77.05437133333334, "bike_id": "f5affc4b1ce41d88119025556feb4c51", "fusion_lat": 0.0, "name": "f5affc4b1ce41d88119025556feb4c51", "is_reserved": 0, "rental_uris": {"android": "https://dc.lft.to/lastmile_qr_scan", "ios": "https://dc.lft.to/lastmile_qr_scan"}, "fusion_lon": 0.0}, {"lat": 38.86652633333333, "is_disabled": 0, "type": "electric_scooter", "lon": -76.98889266666667, "bike_id": "022fa962c17ebfe99cea36bc8fff4ea7", "fusion_lat": 0.0, "name": "022fa962c17ebfe99cea36bc8fff4ea7", "is_reserved": 0, "rental_uris": {"android": "https://dc.lft.to/lastmile_qr_scan", "ios": "https://dc.lft.to/lastmile_qr_scan"}, "fusion_lon": 0.0}, {"lat": 38.91748233333333, "is_disabled": 0, "type": "electric_scooter", "lon": -77.04151983333334, "bike_id": "199e5954e50c390377a64a20d26e5578", "fusion_lat": 0.0, "name": "199e5954e50c390377a64a20d26e5578", "is_reserved": 0, "rental_uris": {"android": "https://dc.lft.to/lastmile_qr_scan", "ios": "https://dc.lft.to/lastmile_qr_scan"}, "fusion_lon": 0.0}, {"lat": 38.93860033333333, "is_disabled": 0, "type": "electric_scooter", "lon": -77.030876, "bike_id": "bb7b7a1202fc5df93faf020484f265d4", "fusion_lat": 0.0, "name": "bb7b7a1202fc5df93faf020484f265d4", "is_reserved": 0, "rental_uris": {"android": "https://dc.lft.to/lastmile_qr_scan", "ios": "https://dc.lft.to/lastmile_qr_scan"}, "fusion_lon": 0.0}, {"lat": 38.921874, "is_disabled": 0, "type": "electric_scooter", "lon": -77.04238266666667, "bike_id": "05e5ad0b71892ce35811dc14b49d4135", "fusion_lat": 0.0, "name": "05e5ad0b71892ce35811dc14b49d4135", "is_reserved": 0, "rental_uris": {"android": "https://dc.lft.to/lastmile_qr_scan", "ios": "https://dc.lft.to/lastmile_qr_scan"}, "fusion_lon": 0.0}, {"lat": 38.90032083333333, "is_disabled": 0, "type": "electric_scooter", "lon": -76.9898275, "bike_id": "689493d2700218a45c4383bcdfd02417", "fusion_lat": 0.0, "name": "689493d2700218a45c4383bcdfd02417", "is_reserved": 0, "rental_uris": {"android": "https://dc.lft.to/lastmile_qr_scan", "ios": "https://dc.lft.to/lastmile_qr_scan"}, "fusion_lon": 0.0}, {"lat": 38.9387505, "is_disabled": 0, "type": "electric_scooter", "lon": -77.03125033333333, "bike_id": "5a746f5603b9c3a60a0fd5059238706c", "fusion_lat": 0.0, "name": "5a746f5603b9c3a60a0fd5059238706c", "is_reserved": 0, "rental_uris": {"android": "https://dc.lft.to/lastmile_qr_scan", "ios": "https://dc.lft.to/lastmile_qr_scan"}, "fusion_lon": 0.0}, {"lat": 38.8968075, "is_disabled": 0, "type": "electric_scooter", "lon": -77.0512865, "bike_id": "04f92493e0b6ed89de49149a878d613e", "fusion_lat": 0.0, "name": "04f92493e0b6ed89de49149a878d613e", "is_reserved": 0, "rental_uris": {"android": "https://dc.lft.to/lastmile_qr_scan", "ios": "https://dc.lft.to/lastmile_qr_scan"}, "fusion_lon": 0.0}, {"lat": 38.87649566666666, "is_disabled": 0, "type": "electric_scooter", "lon": -77.004053, "bike_id": "7c87175813d61b4ad18018019ccd5e09", "fusion_lat": 0.0, "name": "7c87175813d61b4ad18018019ccd5e09", "is_reserved": 0, "rental_uris": {"android": "https://dc.lft.to/lastmile_qr_scan", "ios": "https://dc.lft.to/lastmile_qr_scan"}, "fusion_lon": 0.0}, {"lat": 38.9588015, "is_disabled": 0, "type": "electric_bike", "lon": -77.01034616666666, "bike_id": "bd6e700c277cd51b0d00f728d8947567", "fusion_lat": 0.0, "name": "bd6e700c277cd51b0d00f728d8947567", "is_reserved": 0, "rental_uris": {"android": "https://dc.lft.to/lastmile_qr_scan", "ios": "https://dc.lft.to/lastmile_qr_scan"}, "fusion_lon": 0.0}, {"lat": 38.93867633333333, "is_disabled": 0, "type": "electric_scooter", "lon": -77.02652216666667, "bike_id": "4da2e76bb72c5db8bb7a8e06134cd49f", "fusion_lat": 0.0, "name": "4da2e76bb72c5db8bb7a8e06134cd49f", "is_reserved": 0, "rental_uris": {"android": "https://dc.lft.to/lastmile_qr_scan", "ios": "https://dc.lft.to/lastmile_qr_scan"}, "fusion_lon": 0.0}, {"lat": 38.90855166666667, "is_disabled": 0, "type": "electric_scooter", "lon": -77.0062615, "bike_id": "1d1fa3ba7cbee4de2572800fe65e0956", "fusion_lat": 0.0, "name": "1d1fa3ba7cbee4de2572800fe65e0956", "is_reserved": 0, "rental_uris": {"android": "https://dc.lft.to/lastmile_qr_scan", "ios": "https://dc.lft.to/lastmile_qr_scan"}, "fusion_lon": 0.0}, {"lat": 38.920149333333335, "is_disabled": 0, "type": "electric_scooter", "lon": -77.0143115, "bike_id": "3b05c092fae474cc0c90e95a77675f3d", "fusion_lat": 0.0, "name": "3b05c092fae474cc0c90e95a77675f3d", "is_reserved": 0, "rental_uris": {"android": "https://dc.lft.to/lastmile_qr_scan", "ios": "https://dc.lft.to/lastmile_qr_scan"}, "fusion_lon": 0.0}, {"lat": 38.912638, "is_disabled": 0, "type": "electric_scooter", "lon": -77.02248616666667, "bike_id": "9eca26aa69c4f1c2f96b1a5d302ab35b", "fusion_lat": 0.0, "name": "9eca26aa69c4f1c2f96b1a5d302ab35b", "is_reserved": 0, "rental_uris": {"android": "https://dc.lft.to/lastmile_qr_scan", "ios": "https://dc.lft.to/lastmile_qr_scan"}, "fusion_lon": 0.0}, {"lat": 38.917926666666666, "is_disabled": 0, "type": "electric_scooter", "lon": -77.04043, "bike_id": "b816f7dd730a2f6330e14e2812f62d22", "fusion_lat": 0.0, "name": "b816f7dd730a2f6330e14e2812f62d22", "is_reserved": 0, "rental_uris": {"android": "https://dc.lft.to/lastmile_qr_scan", "ios": "https://dc.lft.to/lastmile_qr_scan"}, "fusion_lon": 0.0}, {"lat": 38.89826133333333, "is_disabled": 0, "type": "electric_scooter", "lon": -77.029578, "bike_id": "15ab19cc890b87fd89cbbe8f21bb78ad", "fusion_lat": 0.0, "name": "15ab19cc890b87fd89cbbe8f21bb78ad", "is_reserved": 0, "rental_uris": {"android": "https://dc.lft.to/lastmile_qr_scan", "ios": "https://dc.lft.to/lastmile_qr_scan"}, "fusion_lon": 0.0}, {"lat": 38.9181175, "is_disabled": 0, "type": "electric_bike", "lon": -77.223251, "bike_id": "987b99c28051645c92c75fdee77df6e9", "fusion_lat": 0.0, "name": "987b99c28051645c92c75fdee77df6e9", "is_reserved": 0, "rental_uris": {"android": "https://dc.lft.to/lastmile_qr_scan", "ios": "https://dc.lft.to/lastmile_qr_scan"}, "fusion_lon": 0.0}, {"lat": 38.9173145, "is_disabled": 0, "type": "electric_scooter", "lon": -77.03642533333333, "bike_id": "7234bb958b7fecef9410cc20784e9eb5", "fusion_lat": 0.0, "name": "7234bb958b7fecef9410cc20784e9eb5", "is_reserved": 0, "rental_uris": {"android": "https://dc.lft.to/lastmile_qr_scan", "ios": "https://dc.lft.to/lastmile_qr_scan"}, "fusion_lon": 0.0}, {"lat": 38.906177166666666, "is_disabled": 0, "type": "electric_scooter", "lon": -77.0188635, "bike_id": "d596d359442f911600513e1b806bcd13", "fusion_lat": 0.0, "name": "d596d359442f911600513e1b806bcd13", "is_reserved": 0, "rental_uris": {"android": "https://dc.lft.to/lastmile_qr_scan", "ios": "https://dc.lft.to/lastmile_qr_scan"}, "fusion_lon": 0.0}, {"lat": 39.0519985, "is_disabled": 0, "type": "electric_bike", "lon": -77.10919533333333, "bike_id": "474f3cd7e76ccbe2b53581e2e28f035e", "fusion_lat": 0.0, "name": "474f3cd7e76ccbe2b53581e2e28f035e", "is_reserved": 0, "rental_uris": {"android": "https://dc.lft.to/lastmile_qr_scan", "ios": "https://dc.lft.to/lastmile_qr_scan"}, "fusion_lon": 0.0}, {"lat": 38.85909383333333, "is_disabled": 0, "type": "electric_scooter", "lon": -76.99148933333333, "bike_id": "b5f190195db1863d987872f8f638afb9", "fusion_lat": 0.0, "name": "b5f190195db1863d987872f8f638afb9", "is_reserved": 0, "rental_uris": {"android": "https://dc.lft.to/lastmile_qr_scan", "ios": "https://dc.lft.to/lastmile_qr_scan"}, "fusion_lon": 0.0}, {"lat": 38.919440333333334, "is_disabled": 0, "type": "electric_scooter", "lon": -77.02433766666667, "bike_id": "cdac4cfe32a5499de1c5aa1eb208c210", "fusion_lat": 0.0, "name": "cdac4cfe32a5499de1c5aa1eb208c210", "is_reserved": 0, "rental_uris": {"android": "https://dc.lft.to/lastmile_qr_scan", "ios": "https://dc.lft.to/lastmile_qr_scan"}, "fusion_lon": 0.0}, {"lat": 38.938873, "is_disabled": 0, "type": "electric_bike", "lon": -76.99503066666666, "bike_id": "81445f3dae3d7a67fa90e50b5b3bc6db", "fusion_lat": 0.0, "name": "81445f3dae3d7a67fa90e50b5b3bc6db", "is_reserved": 0, "rental_uris": {"android": "https://dc.lft.to/lastmile_qr_scan", "ios": "https://dc.lft.to/lastmile_qr_scan"}, "fusion_lon": 0.0}, {"lat": 38.90209633333333, "is_disabled": 0, "type": "electric_scooter", "lon": -77.023745, "bike_id": "2d16518ba8d938552450f76cae020b55", "fusion_lat": 0.0, "name": "2d16518ba8d938552450f76cae020b55", "is_reserved": 0, "rental_uris": {"android": "https://dc.lft.to/lastmile_qr_scan", "ios": "https://dc.lft.to/lastmile_qr_scan"}, "fusion_lon": 0.0}, {"lat": 38.898929, "is_disabled": 0, "type": "electric_scooter", "lon": -76.9335375, "bike_id": "c0452c7d445e5c876ec310ee2a98b3ae", "fusion_lat": 0.0, "name": "c0452c7d445e5c876ec310ee2a98b3ae", "is_reserved": 0, "rental_uris": {"android": "https://dc.lft.to/lastmile_qr_scan", "ios": "https://dc.lft.to/lastmile_qr_scan"}, "fusion_lon": 0.0}, {"lat": 38.9529035, "is_disabled": 0, "type": "electric_scooter", "lon": -77.06833183333333, "bike_id": "75733d2126eb6ff021c84731a9620a75", "fusion_lat": 0.0, "name": "75733d2126eb6ff021c84731a9620a75", "is_reserved": 0, "rental_uris": {"android": "https://dc.lft.to/lastmile_qr_scan", "ios": "https://dc.lft.to/lastmile_qr_scan"}, "fusion_lon": 0.0}, {"lat": 38.8665555, "is_disabled": 0, "type": "electric_scooter", "lon": -76.988866, "bike_id": "14ad22cd4ef130eb4cddff4d6ff1dd72", "fusion_lat": 0.0, "name": "14ad22cd4ef130eb4cddff4d6ff1dd72", "is_reserved": 0, "rental_uris": {"android": "https://dc.lft.to/lastmile_qr_scan", "ios": "https://dc.lft.to/lastmile_qr_scan"}, "fusion_lon": 0.0}, {"lat": 38.915540666666665, "is_disabled": 0, "type": "electric_scooter", "lon": -77.0531795, "bike_id": "c9921f2d3c501a157cb75a97ce77bf10", "fusion_lat": 0.0, "name": "c9921f2d3c501a157cb75a97ce77bf10", "is_reserved": 0, "rental_uris": {"android": "https://dc.lft.to/lastmile_qr_scan", "ios": "https://dc.lft.to/lastmile_qr_scan"}, "fusion_lon": 0.0}, {"lat": 38.92363316666667, "is_disabled": 0, "type": "electric_scooter", "lon": -77.05047, "bike_id": "dd421d98165f7fa00978ba3d2594b51b", "fusion_lat": 0.0, "name": "dd421d98165f7fa00978ba3d2594b51b", "is_reserved": 0, "rental_uris": {"android": "https://dc.lft.to/lastmile_qr_scan", "ios": "https://dc.lft.to/lastmile_qr_scan"}, "fusion_lon": 0.0}, {"lat": 38.905675333333335, "is_disabled": 0, "type": "electric_scooter", "lon": -77.03434, "bike_id": "afd4a4e241dafe57ea5370933467dff1", "fusion_lat": 0.0, "name": "afd4a4e241dafe57ea5370933467dff1", "is_reserved": 0, "rental_uris": {"android": "https://dc.lft.to/lastmile_qr_scan", "ios": "https://dc.lft.to/lastmile_qr_scan"}, "fusion_lon": 0.0}, {"lat": 38.86715866666667, "is_disabled": 0, "type": "electric_scooter", "lon": -76.98725066666667, "bike_id": "3b81110f7043f797a4b9e9ba93717e89", "fusion_lat": 0.0, "name": "3b81110f7043f797a4b9e9ba93717e89", "is_reserved": 0, "rental_uris": {"android": "https://dc.lft.to/lastmile_qr_scan", "ios": "https://dc.lft.to/lastmile_qr_scan"}, "fusion_lon": 0.0}, {"lat": 38.90947216666667, "is_disabled": 0, "type": "electric_scooter", "lon": -77.03440366666666, "bike_id": "8b1a2c71cbcf6d4b7c856bc2a3099c43", "fusion_lat": 0.0, "name": "8b1a2c71cbcf6d4b7c856bc2a3099c43", "is_reserved": 0, "rental_uris": {"android": "https://dc.lft.to/lastmile_qr_scan", "ios": "https://dc.lft.to/lastmile_qr_scan"}, "fusion_lon": 0.0}, {"lat": 38.89219216666667, "is_disabled": 0, "type": "electric_scooter", "lon": -77.02225083333333, "bike_id": "0c50cbfe90b70ee74da828984e811d0b", "fusion_lat": 0.0, "name": "0c50cbfe90b70ee74da828984e811d0b", "is_reserved": 0, "rental_uris": {"android": "https://dc.lft.to/lastmile_qr_scan", "ios": "https://dc.lft.to/lastmile_qr_scan"}, "fusion_lon": 0.0}, {"lat": 38.86509183333333, "is_disabled": 0, "type": "electric_scooter", "lon": -76.99008666666667, "bike_id": "e5d92264ce052217d621fb52a4e617b4", "fusion_lat": 0.0, "name": "e5d92264ce052217d621fb52a4e617b4", "is_reserved": 0, "rental_uris": {"android": "https://dc.lft.to/lastmile_qr_scan", "ios": "https://dc.lft.to/lastmile_qr_scan"}, "fusion_lon": 0.0}, {"lat": 38.89223333333333, "is_disabled": 0, "type": "electric_scooter", "lon": -77.022256, "bike_id": "9a946d66bd032b3032e79c27ec63e549", "fusion_lat": 0.0, "name": "9a946d66bd032b3032e79c27ec63e549", "is_reserved": 0, "rental_uris": {"android": "https://dc.lft.to/lastmile_qr_scan", "ios": "https://dc.lft.to/lastmile_qr_scan"}, "fusion_lon": 0.0}, {"lat": 38.872939333333335, "is_disabled": 0, "type": "electric_scooter", "lon": -77.00987316666667, "bike_id": "cadcf4b56583a79712a251c2d83c29ec", "fusion_lat": 0.0, "name": "cadcf4b56583a79712a251c2d83c29ec", "is_reserved": 0, "rental_uris": {"android": "https://dc.lft.to/lastmile_qr_scan", "ios": "https://dc.lft.to/lastmile_qr_scan"}, "fusion_lon": 0.0},