{"data": {"bikes": [{"is_disabled": 0, "fusion_lon": 0.0, "fusion_lat": 0.0, "lat": 38.99250116666666, "type": "electric_bike", "lon": -77.04996716666666, "bike_id": "8078ae314fcf1787ab491b9efe2bb329", "rental_uris": {"android": "https://dc.lft.to/lastmile_qr_scan", "ios": "https://dc.lft.to/lastmile_qr_scan"}, "name": "8078ae314fcf1787ab491b9efe2bb329", "is_reserved": 0}, {"is_disabled": 0, "fusion_lon": 0.0, "fusion_lat": 0.0, "lat": 39.115080666666664, "type": "electric_bike", "lon": -77.19548566666667, "bike_id": "328207feb8a9f4df08e99fad64190e36", "rental_uris": {"android": "https://dc.lft.to/lastmile_qr_scan", "ios": "https://dc.lft.to/lastmile_qr_scan"}, "name": "328207feb8a9f4df08e99fad64190e36", "is_reserved": 0}, {"is_disabled": 0, "fusion_lon": 0.0, "fusion_lat": 0.0, "lat": 38.943034833333336, "type": "electric_scooter", "lon": -77.02354166666667, "bike_id": "767c4671fb09c0792ac7bb8bd63461a8", "rental_uris": {"android": "https://dc.lft.to/lastmile_qr_scan", "ios": "https://dc.lft.to/lastmile_qr_scan"}, "name": "767c4671fb09c0792ac7bb8bd63461a8", "is_reserved": 0}, {"is_disabled": 0, "fusion_lon": 0.0, "fusion_lat": 0.0, "lat": 38.93045733333334, "type": "electric_scooter", "lon": -77.0041375, "bike_id": "5f3fdf2d406931f6083aaf2081824e9a", "rental_uris": {"android": "https://dc.lft.to/lastmile_qr_scan", "ios": "https://dc.lft.to/lastmile_qr_scan"}, "name": "5f3fdf2d406931f6083aaf2081824e9a", "is_reserved": 0}, {"is_disabled": 0, "fusion_lon": 0.0, "fusion_lat": 0.0, "lat": 38.93874816666667, "type": "electric_scooter", "lon": -77.03324683333334, "bike_id": "2a5276f85b9b12e8f150f18a3c09d4d8", "rental_uris": {"android": "https://dc.lft.to/lastmile_qr_scan", "ios": "https://dc.lft.to/lastmile_qr_scan"}, "name": "2a5276f85b9b12e8f150f18a3c09d4d8", "is_reserved": 0}, {"is_disabled": 0, "fusion_lon": 0.0, "fusion_lat": 0.0, "lat": 38.99078, "type": "electric_bike", "lon": -77.0017565, "bike_id": "beae2629fb69d99aad83ba8be8648e6e", "rental_uris": {"android": "https://dc.lft.to/lastmile_qr_scan", "ios": "https://dc.lft.to/lastmile_qr_scan"}, "name": "beae2629fb69d99aad83ba8be8648e6e", "is_reserved": 0}, {"is_disabled": 0, "fusion_lon": 0.0, "fusion_lat": 0.0, "lat": 38.83812416666667, "type": "electric_scooter", "lon": -77.00431416666666, "bike_id": "0e2c5ccad7b39d3fe5159a3024ac44a7", "rental_uris": {"android": "https://dc.lft.to/lastmile_qr_scan", "ios": "https://dc.lft.to/lastmile_qr_scan"}, "name": "0e2c5ccad7b39d3fe5159a3024ac44a7", "is_reserved": 0}, {"is_disabled": 0, "fusion_lon": 0.0, "fusion_lat": 0.0, "lat": 38.85713283333333, "type": "electric_bike", "lon": -76.9810685, "bike_id": "526a846ad888904d9bb2faada889f406", "rental_uris": {"android": "https://dc.lft.to/lastmile_qr_scan", "ios": "https://dc.lft.to/lastmile_qr_scan"}, "name": "526a846ad888904d9bb2faada889f406", "is_reserved": 0}, {"is_disabled": 0, "fusion_lon": 0.0, "fusion_lat": 0.0, "lat": 38.83118533333333, "type": "electric_bike", "lon": -77.04325916666667, "bike_id": "a046a9bbad08d31ed50c1a071732d9f7", "rental_uris": {"android": "https://dc.lft.to/lastmile_qr_scan", "ios": "https://dc.lft.to/lastmile_qr_scan"}, "name": "a046a9bbad08d31ed50c1a071732d9f7", "is_reserved": 0}, {"is_disabled": 0, "fusion_lon": 0.0, "fusion_lat": 0.0, "lat": 38.9243765, "type": "electric_bike", "lon": -76.90758783333334, "bike_id": "c1516c3692ea65a0ed1bb20d49c16bdc", "rental_uris": {"android": "https://dc.lft.to/lastmile_qr_scan", "ios": "https://dc.lft.to/lastmile_qr_scan"}, "name": "c1516c3692ea65a0ed1bb20d49c16bdc", "is_reserved": 0}, {"is_disabled": 0, "fusion_lon": 0.0, "fusion_lat": 0.0, "lat": 38.90009033333333, "type": "electric_scooter", "lon": -77.033781, "bike_id": "d79e27fb265fda7efde277853182bd52", "rental_uris": {"android": "https://dc.lft.to/lastmile_qr_scan", "ios": "https://dc.lft.to/lastmile_qr_scan"}, "name": "d79e27fb265fda7efde277853182bd52", "is_reserved": 0}, {"is_disabled": 0, "fusion_lon": 0.0, "fusion_lat": 0.0, "lat": 38.899502, "type": "electric_scooter", "lon": -77.00207666666667, "bike_id": "a2dc26adcdcd60790c7be0b0866b13d7", "rental_uris": {"android": "https://dc.lft.to/lastmile_qr_scan", "ios": "https://dc.lft.to/lastmile_qr_scan"}, "name": "a2dc26adcdcd60790c7be0b0866b13d7", "is_reserved": 0}, {"is_disabled": 0, "fusion_lon": 0.0, "fusion_lat": 0.0, "lat": 38.87194383333333, "type": "electric_scooter", "lon": -76.97822983333333, "bike_id": "94cc3706d7ffe790d3479ae6df8ebccc", "rental_uris": {"android": "https://dc.lft.to/lastmile_qr_scan", "ios": "https://dc.lft.to/lastmile_qr_scan"}, "name": "94cc3706d7ffe790d3479ae6df8ebccc", "is_reserved": 0}, {"is_disabled": 0, "fusion_lon": 0.0, "fusion_lat": 0.0, "lat": 38.961392833333335, "type": "electric_scooter", "lon": -77.02793416666667, "bike_id": "94597fd0ee0006852117c6aaf04dc595", "rental_uris": {"android": "https://dc.lft.to/lastmile_qr_scan", "ios": "https://dc.lft.to/lastmile_qr_scan"}, "name": "94597fd0ee0006852117c6aaf04dc595", "is_reserved": 0}, {"is_disabled": 0, "fusion_lon": 0.0, "fusion_lat": 0.0, "lat": 38.89665216666667, "type": "electric_scooter", "lon": -77.01184266666667, "bike_id": "ca0d0e8ca0f566a8703c2f4d773057cf", "rental_uris": {"android": "https://dc.lft.to/lastmile_qr_scan", "ios": "https://dc.lft.to/lastmile_qr_scan"}, "name": "ca0d0e8ca0f566a8703c2f4d773057cf", "is_reserved": 0}, {"is_disabled": 0, "fusion_lon": 0.0, "fusion_lat": 0.0, "lat": 38.904173666666665, "type": "electric_scooter", "lon": -77.06875733333334, "bike_id": "b4caa50b640d91902602a427ce0b6fd9", "rental_uris": {"android": "https://dc.lft.to/lastmile_qr_scan", "ios": "https://dc.lft.to/lastmile_qr_scan"}, "name": "b4caa50b640d91902602a427ce0b6fd9", "is_reserved": 0}, {"is_disabled": 0, "fusion_lon": 0.0, "fusion_lat": 0.0, "lat": 38.90577483333333, "type": "electric_scooter", "lon": -77.069073, "bike_id": "14615d2e3ed0d11a10d4597d3c30f958", "rental_uris": {"android": "https://dc.lft.to/lastmile_qr_scan", "ios": "https://dc.lft.to/lastmile_qr_scan"}, "name": "14615d2e3ed0d11a10d4597d3c30f958", "is_reserved": 0}, {"is_disabled": 0, "fusion_lon": 0.0, "fusion_lat": 0.0, "lat": 38.908016, "type": "electric_scooter", "lon": -77.00142883333334, "bike_id": "f54b86805fc1e94f90e182c2802db22e", "rental_uris": {"android": "https://dc.lft.to/lastmile_qr_scan", "ios": "https://dc.lft.to/lastmile_qr_scan"}, "name": "f54b86805fc1e94f90e182c2802db22e", "is_reserved": 0}, {"is_disabled": 0, "fusion_lon": 0.0, "fusion_lat": 0.0, "lat": 38.889184, "type": "electric_scooter", "lon": -76.98006583333333, "bike_id": "27a7d3aebad25eae6bf76fcb7a6d93c5", "rental_uris": {"android": "https://dc.lft.to/lastmile_qr_scan", "ios": "https://dc.lft.to/lastmile_qr_scan"}, "name": "27a7d3aebad25eae6bf76fcb7a6d93c5", "is_reserved": 0}, {"is_disabled": 0, "fusion_lon": 0.0, "fusion_lat": 0.0, "lat": 38.928842833333334, "type": "electric_scooter", "lon": -77.03736816666667, "bike_id": "f316b7afdd7721bd924b86540ea088ac", "rental_uris": {"android": "https://dc.lft.to/lastmile_qr_scan", "ios": "https://dc.lft.to/lastmile_qr_scan"}, "name": "f316b7afdd7721bd924b86540ea088ac", "is_reserved": 0}, {"is_disabled": 0, "fusion_lon": 0.0, "fusion_lat": 0.0, "lat": 38.903362333333334, "type": "electric_scooter", "lon": -77.0386145, "bike_id": "287bec2e618360fef826e59106eda646", "rental_uris": {"android": "https://dc.lft.to/lastmile_qr_scan", "ios": "https://dc.lft.to/lastmile_qr_scan"}, "name": "287bec2e618360fef826e59106eda646", "is_reserved": 0}, {"is_disabled": 0, "fusion_lon": 0.0, "fusion_lat": 0.0, "lat": 38.91345233333333, "type": "electric_scooter", "lon": -77.06412566666667, "bike_id": "48f7a1eb7fc02a04559acdcefc353df0", "rental_uris": {"android": "https://dc.lft.to/lastmile_qr_scan", "ios": "https://dc.lft.to/lastmile_qr_scan"}, "name": "48f7a1eb7fc02a04559acdcefc353df0", "is_reserved": 0}, {"is_disabled": 0, "fusion_lon": 0.0, "fusion_lat": 0.0, "lat": 38.89843966666667, "type": "electric_scooter", "lon": -77.0218245, "bike_id": "8a6dbdaaf15ba65112684e25670fa578", "rental_uris": {"android": "https://dc.lft.to/lastmile_qr_scan", "ios": "https://dc.lft.to/lastmile_qr_scan"}, "name": "8a6dbdaaf15ba65112684e25670fa578", "is_reserved": 0}, {"is_disabled": 0, "fusion_lon": 0.0, "fusion_lat": 0.0, "lat": 38.886338, "type": "electric_scooter", "lon": -76.95501266666666, "bike_id": "c977f11f68f8e21258152819f5291bc2", "rental_uris": {"android": "https://dc.lft.to/lastmile_qr_scan", "ios": "https://dc.lft.to/lastmile_qr_scan"}, "name": "c977f11f68f8e21258152819f5291bc2", "is_reserved": 0}, {"is_disabled": 0, "fusion_lon": 0.0, "fusion_lat": 0.0, "lat": 38.900222666666664, "type": "electric_scooter", "lon": -77.04686966666667, "bike_id": "c0cfe58349ec77a640bc9699223316a9", "rental_uris": {"android": "https://dc.lft.to/lastmile_qr_scan", "ios": "https://dc.lft.to/lastmile_qr_scan"}, "name": "c0cfe58349ec77a640bc9699223316a9", "is_reserved": 0}, {"is_disabled": 0, "fusion_lon": 0.0, "fusion_lat": 0.0, "lat": 38.924764, "type": "electric_scooter", "lon": -77.03772383333333, "bike_id": "72aa52100fc16a4ab0651f02629a829e", "rental_uris": {"android": "https://dc.lft.to/lastmile_qr_scan", "ios": "https://dc.lft.to/lastmile_qr_scan"}, "name": "72aa52100fc16a4ab0651f02629a829e", "is_reserved": 0}, {"is_disabled": 0, "fusion_lon": 0.0, "fusion_lat": 0.0, "lat": 38.91680066666667, "type": "electric_scooter", "lon": -77.027124, "bike_id": "415f4cc284c5c398676465606f252e17", "rental_uris": {"android": "https://dc.lft.to/lastmile_qr_scan", "ios": "https://dc.lft.to/lastmile_qr_scan"}, "name": "415f4cc284c5c398676465606f252e17", "is_reserved": 0}, {"is_disabled": 0, "fusion_lon": 0.0, "fusion_lat": 0.0, "lat": 38.855361333333335, "type": "electric_bike", "lon": -77.10705866666666, "bike_id": "2f65ac7bc25db1788880fdc0c2b28bcd", "rental_uris": {"android": "https://dc.lft.to/lastmile_qr_scan", "ios": "https://dc.lft.to/lastmile_qr_scan"}, "name": "2f65ac7bc25db1788880fdc0c2b28bcd", "is_reserved": 0}, {"is_disabled": 0, "fusion_lon": 0.0, "fusion_lat": 0.0, "lat": 38.9455335, "type": "electric_bike", "lon": -77.05128433333333, "bike_id": "a68e36d27bfc114f05c12f83f743fd83", "rental_uris": {"android": "https://dc.lft.to/lastmile_qr_scan", "ios": "https://dc.lft.to/lastmile_qr_scan"}, "name": "a68e36d27bfc114f05c12f83f743fd83", "is_reserved": 0}, {"is_disabled": 0, "fusion_lon": 0.0, "fusion_lat": 0.0, "lat": 38.902589, "type": "electric_scooter", "lon": -77.000199, "bike_id": "d195e391b7b5030fa5d2933f01c5f94c", "rental_uris": {"android": "https://dc.lft.to/lastmile_qr_scan", "ios": "https://dc.lft.to/lastmile_qr_scan"}, "name": "d195e391b7b5030fa5d2933f01c5f94c", "is_reserved": 0}, {"is_disabled": 0, "fusion_lon": 0.0, "fusion_lat": 0.0, "lat": 38.864627, "type": "electric_scooter", "lon": -76.99611783333333, "bike_id": "4a02f2139123353ec9b89a476e853da4", "rental_uris": {"android": "https://dc.lft.to/lastmile_qr_scan", "ios": "https://dc.lft.to/lastmile_qr_scan"}, "name": "4a02f2139123353ec9b89a476e853da4", "is_reserved": 0}, {"is_disabled": 0, "fusion_lon": 0.0, "fusion_lat": 0.0, "lat": 38.92140366666667, "type": "electric_scooter", "lon": -77.009172, "bike_id": "f9f73787e133739546ff52c18986a388", "rental_uris": {"android": "https://dc.lft.to/lastmile_qr_scan", "ios": "https://dc.lft.to/lastmile_qr_scan"}, "name": "f9f73787e133739546ff52c18986a388", "is_reserved": 0}, {"is_disabled": 0, "fusion_lon": 0.0, "fusion_lat": 0.0, "lat": 38.90730416666667, "type": "electric_scooter", "lon": -77.024167, "bike_id": "59328470bd714cb8961ca8b826ed7dba", "rental_uris": {"android": "https://dc.lft.to/lastmile_qr_scan", "ios": "https://dc.lft.to/lastmile_qr_scan"}, "name": "59328470bd714cb8961ca8b826ed7dba", "is_reserved": 0}, {"is_disabled": 0, "fusion_lon": 0.0, "fusion_lat": 0.0, "lat": 38.91920116666667, "type": "electric_scooter", "lon": -77.04465816666666, "bike_id": "5cf47fc0730d44bb589fc033a16f45ef", "rental_uris": {"android": "https://dc.lft.to/lastmile_qr_scan", "ios": "https://dc.lft.to/lastmile_qr_scan"}, "name": "5cf47fc0730d44bb589fc033a16f45ef", "is_reserved": 0}, {"is_disabled": 0, "fusion_lon": 0.0, "fusion_lat": 0.0, "lat": 38.87495716666667, "type": "electric_scooter", "lon": -76.99795116666667, "bike_id": "fb5ee4ebf0569d76a32140e050963e2a", "rental_uris": {"android": "https://dc.lft.to/lastmile_qr_scan", "ios": "https://dc.lft.to/lastmile_qr_scan"}, "name": "fb5ee4ebf0569d76a32140e050963e2a", "is_reserved": 0}, {"is_disabled": 0, "fusion_lon": 0.0, "fusion_lat": 0.0, "lat": 38.845078, "type": "electric_scooter", "lon": -76.9814595, "bike_id": "a984d1e663780f5f5a6782f05d5675cd", "rental_uris": {"android": "https://dc.lft.to/lastmile_qr_scan", "ios": "https://dc.lft.to/lastmile_qr_scan"}, "name": "a984d1e663780f5f5a6782f05d5675cd", "is_reserved": 0}, {"is_disabled": 0, "fusion_lon": 0.0, "fusion_lat": 0.0, "lat": 38.88720566666667, "type": "electric_scooter", "lon": -77.02204166666667, "bike_id": "86b149bf6622c4f55463a6302eb69319", "rental_uris": {"android": "https://dc.lft.to/lastmile_qr_scan", "ios": "https://dc.lft.to/lastmile_qr_scan"}, "name": "86b149bf6622c4f55463a6302eb69319", "is_reserved": 0}, {"is_disabled": 0, "fusion_lon": 0.0, "fusion_lat": 0.0, "lat": 38.91820666666667, "type": "electric_scooter", "lon": -77.03531883333333, "bike_id": "b9f8cfbc5f16545b2298a5707e58023a", "rental_uris": {"android": "https://dc.lft.to/lastmile_qr_scan", "ios": "https://dc.lft.to/lastmile_qr_scan"}, "name": "b9f8cfbc5f16545b2298a5707e58023a", "is_reserved": 0}, {"is_disabled": 0, "fusion_lon": 0.0, "fusion_lat": 0.0, "lat": 38.931007, "type": "electric_scooter", "lon": -77.024495, "bike_id": "8e9778e811683c518601e9a42dc5e043", "rental_uris": {"android": "https://dc.lft.to/lastmile_qr_scan", "ios": "https://dc.lft.to/lastmile_qr_scan"}, "name": "8e9778e811683c518601e9a42dc5e043", "is_reserved": 0}, {"is_disabled": 0, "fusion_lon": 0.0, "fusion_lat": 0.0, "lat": 38.904523833333336, "type": "electric_scooter", "lon": -77.0239105, "bike_id": "f861faf55646abcdcab6f0cca2115946", "rental_uris": {"android": "https://dc.lft.to/lastmile_qr_scan", "ios": "https://dc.lft.to/lastmile_qr_scan"}, "name": "f861faf55646abcdcab6f0cca2115946", "is_reserved": 0}, {"is_disabled": 0, "fusion_lon": 0.0, "fusion_lat": 0.0, "lat": 38.85275816666667, "type": "electric_bike", "lon": -76.981499, "bike_id": "e328d979d01e1715ff455cb8b38606f1", "rental_uris": {"android": "https://dc.lft.to/lastmile_qr_scan", "ios": "https://dc.lft.to/lastmile_qr_scan"}, "name": "e328d979d01e1715ff455cb8b38606f1", "is_reserved": 0}, {"is_disabled": 0, "fusion_lon": 0.0, "fusion_lat": 0.0, "lat": 38.90472183333333, "type": "electric_bike", "lon": -76.92946766666667, "bike_id": "7b2d1146e5f36a13daa4006eb1742d8c", "rental_uris": {"android": "https://dc.lft.to/lastmile_qr_scan", "ios": "https://dc.lft.to/lastmile_qr_scan"}, "name": "7b2d1146e5f36a13daa4006eb1742d8c", "is_reserved": 0}, {"is_disabled": 0, "fusion_lon": 0.0, "fusion_lat": 0.0, "lat": 38.90000283333333, "type": "electric_scooter", "lon": -77.03349766666666, "bike_id": "52d5aa1fd79ed23d2f068cbd3566a3a9", "rental_uris": {"android": "https://dc.lft.to/lastmile_qr_scan", "ios": "https://dc.lft.to/lastmile_qr_scan"}, "name": "52d5aa1fd79ed23d2f068cbd3566a3a9", "is_reserved": 0}, {"is_disabled": 0, "fusion_lon": 0.0, "fusion_lat": 0.0, "lat": 38.92125333333333, "type": "electric_scooter", "lon": -77.044384, "bike_id": "5f471aa9d19834e2cecfe52ea6ee4f55", "rental_uris": {"android": "https://dc.lft.to/lastmile_qr_scan", "ios": "https://dc.lft.to/lastmile_qr_scan"}, "name": "5f471aa9d19834e2cecfe52ea6ee4f55", "is_reserved": 0}, {"is_disabled": 0, "fusion_lon": 0.0, "fusion_lat": 0.0, "lat": 38.857799166666666, "type": "electric_bike", "lon": -76.98745883333333, "bike_id": "ef7b3f89fa7b8eff1512aae8ae21d455", "rental_uris": {"android": "https://dc.lft.to/lastmile_qr_scan", "ios": "https://dc.lft.to/lastmile_qr_scan"}, "name": "ef7b3f89fa7b8eff1512aae8ae21d455", "is_reserved": 0}, {"is_disabled": 0, "fusion_lon": 0.0, "fusion_lat": 0.0, "lat": 38.91412166666667, "type": "electric_scooter", "lon": -77.03996966666666, "bike_id": "020cd8b1614e3674f96ce295b9257bab", "rental_uris": {"android": "https://dc.lft.to/lastmile_qr_scan", "ios": "https://dc.lft.to/lastmile_qr_scan"}, "name": "020cd8b1614e3674f96ce295b9257bab", "is_reserved": 0}, {"is_disabled": 0, "fusion_lon": 0.0, "fusion_lat": 0.0, "lat": 38.921132166666666, "type": "electric_scooter", "lon": -77.043928, "bike_id": "978241b2bf45212936bb44dbb0cdd72f", "rental_uris": {"android": "https://dc.lft.to/lastmile_qr_scan", "ios": "https://dc.lft.to/lastmile_qr_scan"}, "name": "978241b2bf45212936bb44dbb0cdd72f", "is_reserved": 0}, {"is_disabled": 0, "fusion_lon": 0.0, "fusion_lat": 0.0, "lat": 38.943299833333334, "type": "electric_bike", "lon": -77.01474483333334, "bike_id": "ed41066fedfa0214caa336505ec7dc2c", "rental_uris": {"android": "https://dc.lft.to/lastmile_qr_scan", "ios": "https://dc.lft.to/lastmile_qr_scan"}, "name": "ed41066fedfa0214caa336505ec7dc2c", "is_reserved": 0}, {"is_disabled": 0, "fusion_lon": 0.0, "fusion_lat": 0.0, "lat": 38.91778266666667, "type": "electric_scooter", "lon": -77.041463, "bike_id": "5b4f0bf15cda6b1a2825ea0ac3e4b3f8", "rental_uris": {"android": "https://dc.lft.to/lastmile_qr_scan", "ios": "https://dc.lft.to/lastmile_qr_scan"}, "name": "5b4f0bf15cda6b1a2825ea0ac3e4b3f8", "is_reserved": 0}, {"is_disabled": 0, "fusion_lon": 0.0, "fusion_lat": 0.0, "lat": 38.90574816666667, "type": "electric_scooter", "lon": -77.05600033333333, "bike_id": "ac2ecb5149a46b6d1a61b3e94dc6876e", "rental_uris": {"android": "https://dc.lft.to/lastmile_qr_scan", "ios": "https://dc.lft.to/lastmile_qr_scan"}, "name": "ac2ecb5149a46b6d1a61b3e94dc6876e", "is_reserved": 0}, {"is_disabled": 0, "fusion_lon": 0.0, "fusion_lat": 0.0, "lat": 38.89476483333333, "type": "electric_scooter", "lon": -76.9951945, "bike_id": "640c44538df02d8fbe9b8cb46c506ede", "rental_uris": {"android": "https://dc.lft.to/lastmile_qr_scan", "ios": "https://dc.lft.to/lastmile_qr_scan"}, "name": "640c44538df02d8fbe9b8cb46c506ede", "is_reserved": 0}, {"is_disabled": 0, "fusion_lon": 0.0, "fusion_lat": 0.0, "lat": 38.926753166666664, "type": "electric_scooter", "lon": -77.02682366666667, "bike_id": "f8ac6bf45feca50104f169d3cf55f1d0", "rental_uris": {"android": "https://dc.lft.to/lastmile_qr_scan", "ios": "https://dc.lft.to/lastmile_qr_scan"}, "name": "f8ac6bf45feca50104f169d3cf55f1d0", "is_reserved": 0}, {"is_disabled": 0, "fusion_lon": 0.0, "fusion_lat": 0.0, "lat": 38.9612395, "type": "electric_scooter", "lon": -77.0281115, "bike_id": "5d47fdfb0b211062eb79d79293372e07", "rental_uris": {"android": "https://dc.lft.to/lastmile_qr_scan", "ios": "https://dc.lft.to/lastmile_qr_scan"}, "name": "5d47fdfb0b211062eb79d79293372e07", "is_reserved": 0}, {"is_disabled": 0, "fusion_lon": 0.0, "fusion_lat": 0.0, "lat": 38.921014666666665, "type": "electric_scooter", "lon": -77.01778783333333, "bike_id": "6eaa1fbcae5aead006cadaf5bc9e0f68", "rental_uris": {"android": "https://dc.lft.to/lastmile_qr_scan", "ios": "https://dc.lft.to/lastmile_qr_scan"}, "name": "6eaa1fbcae5aead006cadaf5bc9e0f68", "is_reserved": 0}, {"is_disabled": 0, "fusion_lon": 0.0, "fusion_lat": 0.0, "lat": 38.917068, "type": "electric_scooter", "lon": -77.028312, "bike_id": "413d486d73bf7b2affa06ab7a298c5f0", "rental_uris": {"android": "https://dc.lft.to/lastmile_qr_scan", "ios": "https://dc.lft.to/lastmile_qr_scan"}, "name": "413d486d73bf7b2affa06ab7a298c5f0", "is_reserved": 0}, {"is_disabled": 0, "fusion_lon": 0.0, "fusion_lat": 0.0, "lat": 38.892825333333334, "type": "electric_scooter", "lon": -77.02143516666666, "bike_id": "c20a264426b6557f02362b749ca672fc", "rental_uris": {"android": "https://dc.lft.to/lastmile_qr_scan", "ios": "https://dc.lft.to/lastmile_qr_scan"}, "name": "c20a264426b6557f02362b749ca672fc", "is_reserved": 0}, {"is_disabled": 0, "fusion_lon": 0.0, "fusion_lat": 0.0, "lat": 38.9498125, "type": "electric_scooter", "lon": -77.0270405, "bike_id": "485f842204a9cc29cc12ea579200e851", "rental_uris": {"android": "https://dc.lft.to/lastmile_qr_scan", "ios": "https://dc.lft.to/lastmile_qr_scan"}, "name": "485f842204a9cc29cc12ea579200e851", "is_reserved": 0}, {"is_disabled": 0, "fusion_lon": 0.0, "fusion_lat": 0.0, "lat": 38.91664433333333, "type": "electric_scooter", "lon": -77.02968116666666, "bike_id": "b6b71cd072e6ecb0464cb6294733e5ed", "rental_uris": {"android": "https://dc.lft.to/lastmile_qr_scan", "ios": "https://dc.lft.to/lastmile_qr_scan"}, "name": "b6b71cd072e6ecb0464cb6294733e5ed", "is_reserved": 0}, {"is_disabled": 0, "fusion_lon": 0.0, "fusion_lat": 0.0, "lat": 38.865166, "type": "electric_scooter", "lon": -76.97329966666666, "bike_id": "68020e89db7010b734a8d43b418278f4", "rental_uris": {"android": "https://dc.lft.to/lastmile_qr_scan", "ios": "https://dc.lft.to/lastmile_qr_scan"}, "name": "68020e89db7010b734a8d43b418278f4", "is_reserved": 0}, {"is_disabled": 0, "fusion_lon": 0.0, "fusion_lat": 0.0, "lat": 38.85810166666667, "type": "electric_scooter", "lon": -76.9896405, "bike_id": "be8af4db283c042f7ab957b68fe848ae", "rental_uris": {"android": "https://dc.lft.to/lastmile_qr_scan", "ios": "https://dc.lft.to/lastmile_qr_scan"}, "name": "be8af4db283c042f7ab957b68fe848ae", "is_reserved": 0}, {"is_disabled": 0, "fusion_lon": 0.0, "fusion_lat": 0.0, "lat": 38.907668666666666, "type": "electric_scooter", "lon": -77.0354035, "bike_id": "f39af0d021a118c149375d9dc15460b9", "rental_uris": {"android": "https://dc.lft.to/lastmile_qr_scan", "ios": "https://dc.lft.to/lastmile_qr_scan"}, "name": "f39af0d021a118c149375d9dc15460b9", "is_reserved": 0}, {"is_disabled": 0, "fusion_lon": 0.0, "fusion_lat": 0.0, "lat": 38.962121833333335, "type": "electric_scooter", "lon": -77.02792566666666, "bike_id": "ab75432b2e251057a799f2985c9c5efa", "rental_uris": {"android": "https://dc.lft.to/lastmile_qr_scan", "ios": "https://dc.lft.to/lastmile_qr_scan"}, "name": "ab75432b2e251057a799f2985c9c5efa", "is_reserved": 0}, {"is_disabled": 0, "fusion_lon": 0.0, "fusion_lat": 0.0, "lat": 38.8603745, "type": "electric_scooter", "lon": -76.9837175, "bike_id": "43b053458725d8afff184ce06c51c469", "rental_uris": {"android": "https://dc.lft.to/lastmile_qr_scan", "ios": "https://dc.lft.to/lastmile_qr_scan"}, "name": "43b053458725d8afff184ce06c51c469", "is_reserved": 0}, {"is_disabled": 0, "fusion_lon": 0.0, "fusion_lat": 0.0, "lat": 38.8671875, "type": "electric_scooter", "lon": -76.9791555, "bike_id": "bbd8cd6268bfc3738b10143c400d7e39", "rental_uris": {"android": "https://dc.lft.to/lastmile_qr_scan", "ios": "https://dc.lft.to/lastmile_qr_scan"}, "name": "bbd8cd6268bfc3738b10143c400d7e39", "is_reserved": 0}, {"is_disabled": 0, "fusion_lon": 0.0, "fusion_lat": 0.0, "lat": 38.93884833333333, "type": "electric_scooter", "lon": -77.02824883333334, "bike_id": "660fdefaa048999c5bf10b52ac693fcb", "rental_uris": {"android": "https://dc.lft.to/lastmile_qr_scan", "ios": "https://dc.lft.to/lastmile_qr_scan"}, "name": "660fdefaa048999c5bf10b52ac693fcb", "is_reserved": 0}, {"is_disabled": 0, "fusion_lon": 0.0, "fusion_lat": 0.0, "lat": 38.957456, "type": "electric_scooter", "lon": -77.02428933333333, "bike_id": "f513f72047d8ba8f4b267078af98e995", "rental_uris": {"android": "https://dc.lft.to/lastmile_qr_scan", "ios": "https://dc.lft.to/lastmile_qr_scan"}, "name": "f513f72047d8ba8f4b267078af98e995", "is_reserved": 0}, {"is_disabled": 0, "fusion_lon": 0.0, "fusion_lat": 0.0, "lat": 38.90782633333333, "type": "electric_scooter", "lon": -77.0353125, "bike_id": "2fc5dec53474eeaa0122bfaa7725b414", "rental_uris": {"android": "https://dc.lft.to/lastmile_qr_scan", "ios": "https://dc.lft.to/lastmile_qr_scan"}, "name": "2fc5dec53474eeaa0122bfaa7725b414", "is_reserved": 0}, {"is_disabled": 0, "fusion_lon": 0.0, "fusion_lat": 0.0, "lat": 38.933358166666665, "type": "electric_scooter", "lon": -77.0413295, "bike_id": "31009e5bc951fa617c286362b5349f27", "rental_uris": {"android": "https://dc.lft.to/lastmile_qr_scan", "ios": "https://dc.lft.to/lastmile_qr_scan"}, "name": "31009e5bc951fa617c286362b5349f27", "is_reserved": 0}, {"is_disabled": 0, "fusion_lon": 0.0, "fusion_lat": 0.0, "lat": 38.93542933333333, "type": "electric_scooter", "lon": -77.02306533333334, "bike_id": "09fcf670dbe1c74494d7f3898153801c", "rental_uris": {"android": "https://dc.lft.to/lastmile_qr_scan", "ios": "https://dc.lft.to/lastmile_qr_scan"}, "name": "09fcf670dbe1c74494d7f3898153801c", "is_reserved": 0}, {"is_disabled": 0, "fusion_lon": 0.0, "fusion_lat": 0.0, "lat": 38.92872766666667, "type": "electric_scooter", "lon": -76.99029183333333, "bike_id": "7a482178323dba86904406ed74046836", "rental_uris": {"android": "https://dc.lft.to/lastmile_qr_scan", "ios": "https://dc.lft.to/lastmile_qr_scan"}, "name": "7a482178323dba86904406ed74046836", "is_reserved": 0}, {"is_disabled": 0, "fusion_lon": 0.0, "fusion_lat": 0.0, "lat": 38.92072783333333, "type": "electric_bike", "lon": -77.02220533333333, "bike_id": "eaf02178e19cab227c70b51c43b335ac", "rental_uris": {"android": "https://dc.lft.to/lastmile_qr_scan", "ios": "https://dc.lft.to/lastmile_qr_scan"}, "name": "eaf02178e19cab227c70b51c43b335ac", "is_reserved": 0}, {"is_disabled": 0, "fusion_lon": 0.0, "fusion_lat": 0.0, "lat": 38.98474683333333, "type": "electric_scooter", "lon": -77.0264995, "bike_id": "33661939955c71f1015c63b9e04bae13", "rental_uris": {"android": "https://dc.lft.to/lastmile_qr_scan", "ios": "https://dc.lft.to/lastmile_qr_scan"}, "name": "33661939955c71f1015c63b9e04bae13", "is_reserved": 0}, {"is_disabled": 0, "fusion_lon": 0.0, "fusion_lat": 0.0, "lat": 38.91341116666667, "type": "electric_scooter", "lon": -77.052167, "bike_id": "e052c6fbeab10fff997aee6f788297d9", "rental_uris": {"android": "https://dc.lft.to/lastmile_qr_scan", "ios": "https://dc.lft.to/lastmile_qr_scan"}, "name": "e052c6fbeab10fff997aee6f788297d9", "is_reserved": 0}, {"is_disabled": 0, "fusion_lon": 0.0, "fusion_lat": 0.0, "lat": 38.893587833333335, "type": "electric_scooter", "lon": -76.93984966666666, "bike_id": "d7e7ad08fc00c63a795a5199bf5c0009", "rental_uris": {"android": "https://dc.lft.to/lastmile_qr_scan", "ios": "https://dc.lft.to/lastmile_qr_scan"}, "name": "d7e7ad08fc00c63a795a5199bf5c0009", "is_reserved": 0}, {"is_disabled": 0, "fusion_lon": 0.0, "fusion_lat": 0.0, "lat": 38.92823933333333, "type": "electric_scooter", "lon": -77.02258716666667, "bike_id": "98dc78a8c10e69d6320780eef6be4f10", "rental_uris": {"android": "https://dc.lft.to/lastmile_qr_scan", "ios": "https://dc.lft.to/lastmile_qr_scan"}, "name": "98dc78a8c10e69d6320780eef6be4f10", "is_reserved": 0}, {"is_disabled": 0, "fusion_lon": 0.0, "fusion_lat": 0.0, "lat": 38.94620366666667, "type": "electric_scooter", "lon": -77.0362615, "bike_id": "ae26800595474f958d36970a4ffd605c", "rental_uris": {"android": "https://dc.lft.to/lastmile_qr_scan", "ios": "https://dc.lft.to/lastmile_qr_scan"}, "name": "ae26800595474f958d36970a4ffd605c", "is_reserved": 0}, {"is_disabled": 0, "fusion_lon": 0.0, "fusion_lat": 0.0, "lat": 38.966222, "type": "electric_scooter", "lon": -77.03535233333334, "bike_id": "1d0269434bf925aa6f0e36d37b7fe26d", "rental_uris": {"android": "https://dc.lft.to/lastmile_qr_scan", "ios": "https://dc.lft.to/lastmile_qr_scan"}, "name": "1d0269434bf925aa6f0e36d37b7fe26d", "is_reserved": 0}, {"is_disabled": 0, "fusion_lon": 0.0, "fusion_lat": 0.0, "lat": 38.913110833333334, "type": "electric_scooter", "lon": -77.0084475, "bike_id": "b19b9fbb8d4b4f074fcf23876c84c0ac", "rental_uris": {"android": "https://dc.lft.to/lastmile_qr_scan", "ios": "https://dc.lft.to/lastmile_qr_scan"}, "name": "b19b9fbb8d4b4f074fcf23876c84c0ac", "is_reserved": 0}, {"is_disabled": 0, "fusion_lon": 0.0, "fusion_lat": 0.0, "lat": 38.93432416666667, "type": "electric_scooter", "lon": -77.02589733333333, "bike_id": "db0bf7eeeff9bd7e5744619a528e9818", "rental_uris": {"android": "https://dc.lft.to/lastmile_qr_scan", "ios": "https://dc.lft.to/lastmile_qr_scan"}, "name": "db0bf7eeeff9bd7e5744619a528e9818", "is_reserved": 0}, {"is_disabled": 0, "fusion_lon": 0.0, "fusion_lat": 0.0, "lat": 38.92964333333333, "type": "electric_scooter", "lon": -77.04203316666667, "bike_id": "23099a594cc971b1dddfb14d9dc04a97", "rental_uris": {"android": "https://dc.lft.to/lastmile_qr_scan", "ios": "https://dc.lft.to/lastmile_qr_scan"}, "name": "23099a594cc971b1dddfb14d9dc04a97", "is_reserved": 0}, {"is_disabled": 0, "fusion_lon": 0.0, "fusion_lat": 0.0, "lat": 38.91264316666667, "type": "electric_scooter", "lon": -77.03367733333333, "bike_id": "d564088306e38b517f024a98cda11460", "rental_uris": {"android": "https://dc.lft.to/lastmile_qr_scan", "ios": "https://dc.lft.to/lastmile_qr_scan"}, "name": "d564088306e38b517f024a98cda11460", "is_reserved": 0}, {"is_disabled": 0, "fusion_lon": 0.0, "fusion_lat": 0.0, "lat": 38.95167333333333, "type": "electric_scooter", "lon": -77.03340166666666, "bike_id": "619a5f0ad236320105534f66d6e7ffb0", "rental_uris": {"android": "https://dc.lft.to/lastmile_qr_scan", "ios": "https://dc.lft.to/lastmile_qr_scan"}, "name": "619a5f0ad236320105534f66d6e7ffb0", "is_reserved": 0}, {"is_disabled": 0, "fusion_lon": 0.0, "fusion_lat": 0.0, "lat": 38.91537616666667, "type": "electric_scooter", "lon": -77.0380005, "bike_id": "fb97660880cf18ceb02adccf680eb5c2", "rental_uris": {"android": "https://dc.lft.to/lastmile_qr_scan", "ios": "https://dc.lft.to/lastmile_qr_scan"}, "name": "fb97660880cf18ceb02adccf680eb5c2", "is_reserved": 0}, {"is_disabled": 0, "fusion_lon": 0.0, "fusion_lat": 0.0, "lat": 38.9275585, "type": "electric_bike", "lon": -76.99082183333333, "bike_id": "a7d2a8d8dbf972f5796fe913a5fce7c1", "rental_uris": {"android": "https://dc.lft.to/lastmile_qr_scan", "ios": "https://dc.lft.to/lastmile_qr_scan"}, "name": "a7d2a8d8dbf972f5796fe913a5fce7c1", "is_reserved": 0}, {"is_disabled": 0, "fusion_lon": 0.0, "fusion_lat": 0.0, "lat": 38.916556166666666, "type": "electric_scooter", "lon": -77.04653733333333, "bike_id": "5cad879a5673febdbe758993e98fb808", "rental_uris": {"android": "https://dc.lft.to/lastmile_qr_scan", "ios": "https://dc.lft.to/lastmile_qr_scan"}, "name": "5cad879a5673febdbe758993e98fb808", "is_reserved": 0}, {"is_disabled": 0, "fusion_lon": 0.0, "fusion_lat": 0.0, "lat": 38.929192666666665, "type": "electric_scooter", "lon": -77.026352, "bike_id": "d6c9d1aece8af857ff73c02fe93eb507", "rental_uris": {"android": "https://dc.lft.to/lastmile_qr_scan", "ios": "https://dc.lft.to/lastmile_qr_scan"}, "name": "d6c9d1aece8af857ff73c02fe93eb507", "is_reserved": 0}, {"is_disabled": 0, "fusion_lon": 0.0, "fusion_lat": 0.0, "lat": 38.90179166666667, "type": "electric_scooter", "lon": -77.04988833333333, "bike_id": "ae406c9f95fd313118ac744bb9d22c1e", "rental_uris": {"android": "https://dc.lft.to/lastmile_qr_scan", "ios": "https://dc.lft.to/lastmile_qr_scan"}, "name": "ae406c9f95fd313118ac744bb9d22c1e", "is_reserved": 0}, {"is_disabled": 0, "fusion_lon": 0.0, "fusion_lat": 0.0, "lat": 38.939024833333335, "type": "electric_scooter", "lon": -77.078023, "bike_id": "cf44dda8e6562151c41241a5121a5af6", "rental_uris": {"android": "https://dc.lft.to/lastmile_qr_scan", "ios": "https://dc.lft.to/lastmile_qr_scan"}, "name": "cf44dda8e6562151c41241a5121a5af6", "is_reserved": 0}, {"is_disabled": 0, "fusion_lon": 0.0, "fusion_lat": 0.0, "lat": 38.886889, "type": "electric_scooter", "lon": -77.01365633333333, "bike_id": "300e9e3916f7cb928db4f74a34e42bca", "rental_uris": {"android": "https://dc.lft.to/lastmile_qr_scan", "ios": "https://dc.lft.to/lastmile_qr_scan"}, "name": "300e9e3916f7cb928db4f74a34e42bca", "is_reserved": 0}, {"is_disabled": 0, "fusion_lon": 0.0, "fusion_lat": 0.0, "lat": 38.886627833333336, "type": "electric_scooter", "lon": -77.00374716666667, "bike_id": "3c6dc8817cc3e08f7af856c1a28cbdee", "rental_uris": {"android": "https://dc.lft.to/lastmile_qr_scan", "ios": "https://dc.lft.to/lastmile_qr_scan"}, "name": "3c6dc8817cc3e08f7af856c1a28cbdee", "is_reserved": 0}, {"is_disabled": 0, "fusion_lon": 0.0, "fusion_lat": 0.0, "lat": 38.92733316666666, "type": "electric_scooter", "lon": -77.027108, "bike_id": "77f0d8a35c6a6835ba0424692883345d", "rental_uris": {"android": "https://dc.lft.to/lastmile_qr_scan", "ios": "https://dc.lft.to/lastmile_qr_scan"}, "name": "77f0d8a35c6a6835ba0424692883345d", "is_reserved": 0}, {"is_disabled": 0, "fusion_lon": 0.0, "fusion_lat": 0.0, "lat": 38.89730766666667, "type": "electric_bike", "lon": -76.90538166666667, "bike_id": "d06a1233a8a466d760dfc9c23ddc8421", "rental_uris": {"android": "https://dc.lft.to/lastmile_qr_scan", "ios": "https://dc.lft.to/lastmile_qr_scan"}, "name": "d06a1233a8a466d760dfc9c23ddc8421", "is_reserved": 0}, {"is_disabled": 0, "fusion_lon": 0.0, "fusion_lat": 0.0, "lat": 39.05204333333333, "type": "electric_bike", "lon": -77.04405733333333, "bike_id": "b3fd75fe2ebf98c64b3b8fd4f42382c7", "rental_uris": {"android": "https://dc.lft.to/lastmile_qr_scan", "ios": "https://dc.lft.to/lastmile_qr_scan"}, "name": "b3fd75fe2ebf98c64b3b8fd4f42382c7", "is_reserved": 0}, {"is_disabled": 0, "fusion_lon": 0.0, "fusion_lat": 0.0, "lat": 38.90310316666667, "type": "electric_scooter", "lon": -76.979934, "bike_id": "1241a4c93f9d73f27c91a0b3f175eaee", "rental_uris": {"android": "https://dc.lft.to/lastmile_qr_scan", "ios": "https://dc.lft.to/lastmile_qr_scan"}, "name": "1241a4c93f9d73f27c91a0b3f175eaee", "is_reserved": 0}, {"is_disabled": 0, "fusion_lon": 0.0, "fusion_lat": 0.0, "lat": 38.9041905, "type": "electric_scooter", "lon": -77.0318245, "bike_id": "b8a52ecd6fc1991787d8f3df101f24ab", "rental_uris": {"android": "https://dc.lft.to/lastmile_qr_scan", "ios": "https://dc.lft.to/lastmile_qr_scan"}, "name": "b8a52ecd6fc1991787d8f3df101f24ab", "is_reserved": 0}, {"is_disabled": 0, "fusion_lon": 0.0, "fusion_lat": 0.0, "lat": 38.968134666666664, "type": "electric_scooter", "lon": -77.008885, "bike_id": "c2fbb1d4d71fe72109c3761b60944d47", "rental_uris": {"android": "https://dc.lft.to/lastmile_qr_scan", "ios": "https://dc.lft.to/lastmile_qr_scan"}, "name": "c2fbb1d4d71fe72109c3761b60944d47", "is_reserved": 0}, {"is_disabled": 0, "fusion_lon": 0.0, "fusion_lat": 0.0, "lat": 38.900236166666666, "type": "electric_scooter", "lon": -76.99160633333334, "bike_id": "6abec3c1b5d75576869255c45ac28dfb", "rental_uris": {"android": "https://dc.lft.to/lastmile_qr_scan", "ios": "https://dc.lft.to/lastmile_qr_scan"}, "name": "6abec3c1b5d75576869255c45ac28dfb", "is_reserved": 0}, {"is_disabled": 0, "fusion_lon": 0.0, "fusion_lat": 0.0, "lat": 38.916950166666666, "type": "electric_scooter", "lon": -77.0064105, "bike_id": "425b1bfd54f8ec988142124d8f85cea3", "rental_uris": {"android": "https://dc.lft.to/lastmile_qr_scan", "ios": "https://dc.lft.to/lastmile_qr_scan"}, "name": "425b1bfd54f8ec988142124d8f85cea3", "is_reserved": 0}, {"is_disabled": 0, "fusion_lon": 0.0, "fusion_lat": 0.0, "lat": 38.91110283333333, "type": "electric_scooter", "lon": -77.045074, "bike_id": "3a952f1adf0e382a135c2d0388536806", "rental_uris": {"android": "https://dc.lft.to/lastmile_qr_scan", "ios": "https://dc.lft.to/lastmile_qr_scan"}, "name": "3a952f1adf0e382a135c2d0388536806", "is_reserved": 0}, {"is_disabled": 0, "fusion_lon": 0.0, "fusion_lat": 0.0, "lat": 38.90802583333333, "type": "electric_bike", "lon": -77.04883033333333, "bike_id": "adf2c3f9b21f94d2b84d8c9ff337b82d", "rental_uris": {"android": "https://dc.lft.to/lastmile_qr_scan", "ios": "https://dc.lft.to/lastmile_qr_scan"}, "name": "adf2c3f9b21f94d2b84d8c9ff337b82d", "is_reserved": 0}, {"is_disabled": 0, "fusion_lon": 0.0, "fusion_lat": 0.0, "lat": 38.8974565, "type": "electric_scooter", "lon": -77.05111383333333, "bike_id": "d975b1a1365eab4f98f6ffadf666a33e", "rental_uris": {"android": "https://dc.lft.to/lastmile_qr_scan", "ios": "https://dc.lft.to/lastmile_qr_scan"}, "name": "d975b1a1365eab4f98f6ffadf666a33e", "is_reserved": 0}, {"is_disabled": 0, "fusion_lon": 0.0, "fusion_lat": 0.0, "lat": 38.9141955, "type": "electric_scooter", "lon": -77.0142625, "bike_id": "2f4a478ffcbf234e85fbe4175fd17c5f", "rental_uris": {"android": "https://dc.lft.to/lastmile_qr_scan", "ios": "https://dc.lft.to/lastmile_qr_scan"}, "name": "2f4a478ffcbf234e85fbe4175fd17c5f", "is_reserved": 0}, {"is_disabled": 0, "fusion_lon": 0.0, "fusion_lat": 0.0, "lat": 38.91133766666667, "type": "electric_scooter", "lon": -77.0419715, "bike_id": "be9656ef52e15758993445fdd50b6cf3", "rental_uris": {"android": "https://dc.lft.to/lastmile_qr_scan", "ios": "https://dc.lft.to/lastmile_qr_scan"}, "name": "be9656ef52e15758993445fdd50b6cf3", "is_reserved": 0}, {"is_disabled": 0, "fusion_lon": 0.0, "fusion_lat": 0.0, "lat": 38.8659695, "type": "electric_bike", "lon": -76.93213, "bike_id": "946e2daae3ea66ddefeaff3eb0cbf83e", "rental_uris": {"android": "https://dc.lft.to/lastmile_qr_scan", "ios": "https://dc.lft.to/lastmile_qr_scan"}, "name": "946e2daae3ea66ddefeaff3eb0cbf83e", "is_reserved": 0}, {"is_disabled": 0, "fusion_lon": 0.0, "fusion_lat": 0.0, "lat": 38.85206433333333, "type": "electric_bike", "lon": -77.127624, "bike_id": "d33bc8056dcfa478c130f4d500090831", "rental_uris": {"android": "https://dc.lft.to/lastmile_qr_scan", "ios": "https://dc.lft.to/lastmile_qr_scan"}, "name": "d33bc8056dcfa478c130f4d500090831", "is_reserved": 0}, {"is_disabled": 0, "fusion_lon": 0.0, "fusion_lat": 0.0, "lat": 38.89249616666667, "type": "electric_scooter", "lon": -76.9984735, "bike_id": "bebd28d512cebec01bb80940fe3966b4", "rental_uris": {"android": "https://dc.lft.to/lastmile_qr_scan", "ios": "https://dc.lft.to/lastmile_qr_scan"}, "name": "bebd28d512cebec01bb80940fe3966b4", "is_reserved": 0}, {"is_disabled": 0, "fusion_lon": 0.0, "fusion_lat": 0.0, "lat": 38.9029315, "type": "electric_scooter", "lon": -77.05068433333334, "bike_id": "e09e1762a8e69970fe6a199a0263391a", "rental_uris": {"android": "https://dc.lft.to/lastmile_qr_scan", "ios": "https://dc.lft.to/lastmile_qr_scan"}, "name": "e09e1762a8e69970fe6a199a0263391a", "is_reserved": 0}, {"is_disabled": 0, "fusion_lon": 0.0, "fusion_lat": 0.0, "lat": 38.93606316666666, "type": "electric_scooter", "lon": -77.05859333333333, "bike_id": "e439a91dfe20c31a832eea0995bb7a9c", "rental_uris": {"android": "https://dc.lft.to/lastmile_qr_scan", "ios": "https://dc.lft.to/lastmile_qr_scan"}, "name": "e439a91dfe20c31a832eea0995bb7a9c", "is_reserved": 0}, {"is_disabled": 0, "fusion_lon": 0.0, "fusion_lat": 0.0, "lat": 38.94939183333334, "type": "electric_bike", "lon": -77.007677, "bike_id": "1d0a02ef1956c4ab1ad3c8d271f74db0", "rental_uris": {"android": "https://dc.lft.to/lastmile_qr_scan", "ios": "https://dc.lft.to/lastmile_qr_scan"}, "name": "1d0a02ef1956c4ab1ad3c8d271f74db0", "is_reserved": 0}, {"is_disabled": 0, "fusion_lon": 0.0, "fusion_lat": 0.0, "lat": 38.986576, "type": "electric_scooter", "lon": -77.02647083333333, "bike_id": "c11f1b98c47c6a6ab3f76efcefa055bf", "rental_uris": {"android": "https://dc.lft.to/lastmile_qr_scan", "ios": "https://dc.lft.to/lastmile_qr_scan"}, "name": "c11f1b98c47c6a6ab3f76efcefa055bf", "is_reserved": 0}, {"is_disabled": 0, "fusion_lon": 0.0, "fusion_lat": 0.0, "lat": 38.89813733333333, "type": "electric_scooter", "lon": -77.031307, "bike_id": "de765ce70be48a3071dc00f35dd75974", "rental_uris": {"android": "https://dc.lft.to/lastmile_qr_scan", "ios": "https://dc.lft.to/lastmile_qr_scan"}, "name": "de765ce70be48a3071dc00f35dd75974", "is_reserved": 0}, {"is_disabled": 0, "fusion_lon": 0.0, "fusion_lat": 0.0, "lat": 38.905536, "type": "electric_scooter", "lon": -77.01999916666666, "bike_id": "1b918c24a255ecd4c5acaf364011d53f", "rental_uris": {"android": "https://dc.lft.to/lastmile_qr_scan", "ios": "https://dc.lft.to/lastmile_qr_scan"}, "name": "1b918c24a255ecd4c5acaf364011d53f", "is_reserved": 0}, {"is_disabled": 0, "fusion_lon": 0.0, "fusion_lat": 0.0, "lat": 38.8887955, "type": "electric_scooter", "lon": -77.02857516666667, "bike_id": "ad501ec1bf908f1eeced15e876d4b117", "rental_uris": {"android": "https://dc.lft.to/lastmile_qr_scan", "ios": "https://dc.lft.to/lastmile_qr_scan"}, "name": "ad501ec1bf908f1eeced15e876d4b117", "is_reserved": 0}, {"is_disabled": 0, "fusion_lon": 0.0, "fusion_lat": 0.0, "lat": 38.912808, "type": "electric_scooter", "lon": -76.986917, "bike_id": "ed3edf8a105538abcfa16032c5dd958e", "rental_uris": {"android": "https://dc.lft.to/lastmile_qr_scan", "ios": "https://dc.lft.to/lastmile_qr_scan"}, "name": "ed3edf8a105538abcfa16032c5dd958e", "is_reserved": 0}, {"is_disabled": 0, "fusion_lon": 0.0, "fusion_lat": 0.0, "lat": 38.916895833333335, "type": "electric_scooter", "lon": -77.02192366666667, "bike_id": "1c8c4b81f63a35d248d70ccb1213a626", "rental_uris": {"android": "https://dc.lft.to/lastmile_qr_scan", "ios": "https://dc.lft.to/lastmile_qr_scan"}, "name": "1c8c4b81f63a35d248d70ccb1213a626", "is_reserved": 0}, {"is_disabled": 0, "fusion_lon": 0.0, "fusion_lat": 0.0, "lat": 38.902769166666666, "type": "electric_scooter", "lon": -77.03443266666666, "bike_id": "c451c6258f824da80c9fdc9ece34ee07", "rental_uris": {"android": "https://dc.lft.to/lastmile_qr_scan", "ios": "https://dc.lft.to/lastmile_qr_scan"}, "name": "c451c6258f824da80c9fdc9ece34ee07", "is_reserved": 0}, {"is_disabled": 0, "fusion_lon": 0.0, "fusion_lat": 0.0, "lat": 38.96894733333333, "type": "electric_bike", "lon": -77.02598083333334, "bike_id": "f7b1405b38c7b194c73adbef884b1335", "rental_uris": {"android": "https://dc.lft.to/lastmile_qr_scan", "ios": "https://dc.lft.to/lastmile_qr_scan"}, "name": "f7b1405b38c7b194c73adbef884b1335", "is_reserved": 0}, {"is_disabled": 0, "fusion_lon": 0.0, "fusion_lat": 0.0, "lat": 38.89907633333333, "type": "electric_scooter", "lon": -76.9338805, "bike_id": "0aed41255577c6758336e2e7b5af04fc", "rental_uris": {"android": "https://dc.lft.to/lastmile_qr_scan", "ios": "https://dc.lft.to/lastmile_qr_scan"}, "name": "0aed41255577c6758336e2e7b5af04fc", "is_reserved": 0}, {"is_disabled": 0, "fusion_lon": 0.0, "fusion_lat": 0.0, "lat": 38.916896, "type": "electric_scooter", "lon": -77.025195, "bike_id": "5152641774cc4497f1c99e1c32838648", "rental_uris": {"android": "https://dc.lft.to/lastmile_qr_scan", "ios": "https://dc.lft.to/lastmile_qr_scan"}, "name": "5152641774cc4497f1c99e1c32838648", "is_reserved": 0}, {"is_disabled": 0, "fusion_lon": 0.0, "fusion_lat": 0.0, "lat": 38.9241775, "type": "electric_scooter", "lon": -77.05611366666666, "bike_id": "c861f01dfa348f63c94b5cb022a29395", "rental_uris": {"android": "https://dc.lft.to/lastmile_qr_scan", "ios": "https://dc.lft.to/lastmile_qr_scan"}, "name": "c861f01dfa348f63c94b5cb022a29395", "is_reserved": 0}, {"is_disabled": 0, "fusion_lon": 0.0, "fusion_lat": 0.0, "lat": 38.918547833333335, "type": "electric_scooter", "lon": -77.029506, "bike_id": "9a5a7685d27debfc5f5b14dee3001db5", "rental_uris": {"android": "https://dc.lft.to/lastmile_qr_scan", "ios": "https://dc.lft.to/lastmile_qr_scan"}, "name": "9a5a7685d27debfc5f5b14dee3001db5", "is_reserved": 0}, {"is_disabled": 0, "fusion_lon": 0.0, "fusion_lat": 0.0, "lat": 38.836059666666664, "type": "electric_bike", "lon": -77.00382366666666, "bike_id": "84e9d6ef9c7f6293c907df84bbe0faf7", "rental_uris": {"android": "https://dc.lft.to/lastmile_qr_scan", "ios": "https://dc.lft.to/lastmile_qr_scan"}, "name": "84e9d6ef9c7f6293c907df84bbe0faf7", "is_reserved": 0}, {"is_disabled": 0, "fusion_lon": 0.0, "fusion_lat": 0.0, "lat": 38.892058166666665, "type": "electric_scooter", "lon": -76.9880325, "bike_id": "20babf18bb39acae058992e86917eb37", "rental_uris": {"android": "https://dc.lft.to/lastmile_qr_scan", "ios": "https://dc.lft.to/lastmile_qr_scan"}, "name": "20babf18bb39acae058992e86917eb37", "is_reserved": 0}, {"is_disabled": 0, "fusion_lon": 0.0, "fusion_lat": 0.0, "lat": 38.914772666666664, "type": "electric_scooter", "lon": -77.0439945, "bike_id": "982298c91e55429bed59fa3d76e886ce", "rental_uris": {"android": "https://dc.lft.to/lastmile_qr_scan", "ios": "https://dc.lft.to/lastmile_qr_scan"}, "name": "982298c91e55429bed59fa3d76e886ce", "is_reserved": 0}, {"is_disabled": 0, "fusion_lon": 0.0, "fusion_lat": 0.0, "lat": 38.911767166666664, "type": "electric_scooter", "lon": -77.03915883333333, "bike_id": "105ec228847c338e2124af215227d1e3", "rental_uris": {"android": "https://dc.lft.to/lastmile_qr_scan", "ios": "https://dc.lft.to/lastmile_qr_scan"}, "name": "105ec228847c338e2124af215227d1e3", "is_reserved": 0}, {"is_disabled": 0, "fusion_lon": 0.0, "fusion_lat": 0.0, "lat": 38.968044666666664, "type": "electric_scooter", "lon": -77.02119366666666, "bike_id": "258aa6e79463d03266ff24c13a71ffb2", "rental_uris": {"android": "https://dc.lft.to/lastmile_qr_scan", "ios": "https://dc.lft.to/lastmile_qr_scan"}, "name": "258aa6e79463d03266ff24c13a71ffb2", "is_reserved": 0}, {"is_disabled": 0, "fusion_lon": 0.0, "fusion_lat": 0.0, "lat": 38.880183, "type": "electric_scooter", "lon": -76.98232966666667, "bike_id": "5396fef96fd8dcd99c50f285b56b6a14", "rental_uris": {"android": "https://dc.lft.to/lastmile_qr_scan", "ios": "https://dc.lft.to/lastmile_qr_scan"}, "name": "5396fef96fd8dcd99c50f285b56b6a14", "is_reserved": 0}, {"is_disabled": 0, "fusion_lon": 0.0, "fusion_lat": 0.0, "lat": 38.883223, "type": "electric_scooter", "lon": -77.01663816666667, "bike_id": "84561a0d2d6f56afc2c6bfaf00128ae9", "rental_uris": {"android": "https://dc.lft.to/lastmile_qr_scan", "ios": "https://dc.lft.to/lastmile_qr_scan"}, "name": "84561a0d2d6f56afc2c6bfaf00128ae9", "is_reserved": 0}, {"is_disabled": 0, "fusion_lon": 0.0, "fusion_lat": 0.0, "lat": 38.97162, "type": "electric_bike", "lon": -76.98019283333333, "bike_id": "fd6385ee5f612dd113581796ffc578a2", "rental_uris": {"android": "https://dc.lft.to/lastmile_qr_scan", "ios": "https://dc.lft.to/lastmile_qr_scan"}, "name": "fd6385ee5f612dd113581796ffc578a2", "is_reserved": 0}, {"is_disabled": 0, "fusion_lon": 0.0, "fusion_lat": 0.0, "lat": 38.94086933333333, "type": "electric_scooter", "lon": -77.03815616666667, "bike_id": "7f9b22801952f43a98273c3c7d0e3184", "rental_uris": {"android": "https://dc.lft.to/lastmile_qr_scan", "ios": "https://dc.lft.to/lastmile_qr_scan"}, "name": "7f9b22801952f43a98273c3c7d0e3184", "is_reserved": 0}, {"is_disabled": 0, "fusion_lon": 0.0, "fusion_lat": 0.0, "lat": 38.901354166666664, "type": "electric_scooter", "lon": -77.017777, "bike_id": "8074da05f2bf104cfee9f42b182696be", "rental_uris": {"android": "https://dc.lft.to/lastmile_qr_scan", "ios": "https://dc.lft.to/lastmile_qr_scan"}, "name": "8074da05f2bf104cfee9f42b182696be", "is_reserved": 0}, {"is_disabled": 0, "fusion_lon": 0.0, "fusion_lat": 0.0, "lat": 38.893519166666664, "type": "electric_scooter", "lon": -76.9846625, "bike_id": "327a23f80db1f2c08c7374b1db46d115", "rental_uris": {"android": "https://dc.lft.to/lastmile_qr_scan", "ios": "https://dc.lft.to/lastmile_qr_scan"}, "name": "327a23f80db1f2c08c7374b1db46d115", "is_reserved": 0}, {"is_disabled": 0, "fusion_lon": 0.0, "fusion_lat": 0.0, "lat": 38.90150233333333, "type": "electric_scooter", "lon": -77.03996133333334, "bike_id": "a2afb51732fe961f40e382ff1bc93835", "rental_uris": {"android": "https://dc.lft.to/lastmile_qr_scan", "ios": "https://dc.lft.to/lastmile_qr_scan"}, "name": "a2afb51732fe961f40e382ff1bc93835", "is_reserved": 0}, {"is_disabled": 0, "fusion_lon": 0.0, "fusion_lat": 0.0, "lat": 38.939622166666666, "type": "electric_scooter", "lon": -77.027493, "bike_id": "fb77b2b861f845a7c28a4cc2b7186d93", "rental_uris": {"android": "https://dc.lft.to/lastmile_qr_scan", "ios": "https://dc.lft.to/lastmile_qr_scan"}, "name": "fb77b2b861f845a7c28a4cc2b7186d93", "is_reserved": 0}, {"is_disabled": 0, "fusion_lon": 0.0, "fusion_lat": 0.0, "lat": 38.9088835, "type": "electric_scooter", "lon": -77.00256883333333, "bike_id": "a05b2a344c1c5bc57213e2e645612080", "rental_uris": {"android": "https://dc.lft.to/lastmile_qr_scan", "ios": "https://dc.lft.to/lastmile_qr_scan"}, "name": "a05b2a344c1c5bc57213e2e645612080", "is_reserved": 0}, {"is_disabled": 0, "fusion_lon": 0.0, "fusion_lat": 0.0, "lat": 39.0387975, "type": "electric_bike", "lon": -77.10907233333333, "bike_id": "8ea389190e8a672c44b2b76bee87fbc9", "rental_uris": {"android": "https://dc.lft.to/lastmile_qr_scan", "ios": "https://dc.lft.to/lastmile_qr_scan"}, "name": "8ea389190e8a672c44b2b76bee87fbc9", "is_reserved": 0}, {"is_disabled": 0, "fusion_lon": 0.0, "fusion_lat": 0.0, "lat": 38.9037095, "type": "electric_scooter", "lon": -77.017574, "bike_id": "2f000a1c39fa6cae88156102d4d91d99", "rental_uris": {"android": "https://dc.lft.to/lastmile_qr_scan", "ios": "https://dc.lft.to/lastmile_qr_scan"}, "name": "2f000a1c39fa6cae88156102d4d91d99", "is_reserved": 0}, {"is_disabled": 0, "fusion_lon": 0.0, "fusion_lat": 0.0, "lat": 38.93416, "type": "electric_scooter", "lon": -77.01967766666667, "bike_id": "bae1fea021f178d8f4adb977f9fc18f4", "rental_uris": {"android": "https://dc.lft.to/lastmile_qr_scan", "ios": "https://dc.lft.to/lastmile_qr_scan"}, "name": "bae1fea021f178d8f4adb977f9fc18f4", "is_reserved": 0}, {"is_disabled": 0, "fusion_lon": 0.0, "fusion_lat": 0.0, "lat": 38.95324933333333, "type": "electric_scooter", "lon": -77.06849666666666, "bike_id": "5b830ba580ed46fd3ca3c861e9727b2b", "rental_uris": {"android": "https://dc.lft.to/lastmile_qr_scan", "ios": "https://dc.lft.to/lastmile_qr_scan"}, "name": "5b830ba580ed46fd3ca3c861e9727b2b", "is_reserved": 0}, {"is_disabled": 0, "fusion_lon": 0.0, "fusion_lat": 0.0, "lat": 38.915139833333335, "type": "electric_scooter", "lon": -77.022894, "bike_id": "ebf28e928c48ebbdcb82eebd928268aa", "rental_uris": {"android": "https://dc.lft.to/lastmile_qr_scan", "ios": "https://dc.lft.to/lastmile_qr_scan"}, "name": "ebf28e928c48ebbdcb82eebd928268aa", "is_reserved": 0}, {"is_disabled": 0, "fusion_lon": 0.0, "fusion_lat": 0.0, "lat": 38.89287866666667, "type": "electric_bike", "lon": -77.00144216666666, "bike_id": "ad25856de59bdc96d489fd4c209a6c38", "rental_uris": {"android": "https://dc.lft.to/lastmile_qr_scan", "ios": "https://dc.lft.to/lastmile_qr_scan"}, "name": "ad25856de59bdc96d489fd4c209a6c38", "is_reserved": 0}, {"is_disabled": 0, "fusion_lon": 0.0, "fusion_lat": 0.0, "lat": 38.862029666666665, "type": "electric_bike", "lon": -77.05652833333333, "bike_id": "84bec3d1966913335dae0f8014d91110", "rental_uris": {"android": "https://dc.lft.to/lastmile_qr_scan", "ios": "https://dc.lft.to/lastmile_qr_scan"}, "name": "84bec3d1966913335dae0f8014d91110", "is_reserved": 0}, {"is_disabled": 0, "fusion_lon": 0.0, "fusion_lat": 0.0, "lat": 38.870628833333335, "type": "electric_bike", "lon": -77.11072666666666, "bike_id": "1653767e7f2f5f2b4f76726cd1efe7af", "rental_uris": {"android": "https://dc.lft.to/lastmile_qr_scan", "ios": "https://dc.lft.to/lastmile_qr_scan"}, "name": "1653767e7f2f5f2b4f76726cd1efe7af", "is_reserved": 0}, {"is_disabled": 0, "fusion_lon": 0.0, "fusion_lat": 0.0, "lat": 38.936683, "type": "electric_bike", "lon": -76.95203383333333, "bike_id": "1e5b55df3d934556296eabe9da633cfd", "rental_uris": {"android": "https://dc.lft.to/lastmile_qr_scan", "ios": "https://dc.lft.to/lastmile_qr_scan"}, "name": "1e5b55df3d934556296eabe9da633cfd", "is_reserved": 0}, {"is_disabled": 0, "fusion_lon": 0.0, "fusion_lat": 0.0, "lat": 38.91661766666667, "type": "electric_scooter", "lon": -77.04156133333333, "bike_id": "38c906787ba5fd075d7f579ce205911c", "rental_uris": {"android": "https://dc.lft.to/lastmile_qr_scan", "ios": "https://dc.lft.to/lastmile_qr_scan"}, "name": "38c906787ba5fd075d7f579ce205911c", "is_reserved": 0}, {"is_disabled": 0, "fusion_lon": 0.0, "fusion_lat": 0.0, "lat": 38.885775, "type": "electric_scooter", "lon": -76.919091, "bike_id": "7149e905cc27115fa42af9ab4c565e4a", "rental_uris": {"android": "https://dc.lft.to/lastmile_qr_scan", "ios": "https://dc.lft.to/lastmile_qr_scan"}, "name": "7149e905cc27115fa42af9ab4c565e4a", "is_reserved": 0}, {"is_disabled": 0, "fusion_lon": 0.0, "fusion_lat": 0.0, "lat": 38.95611316666667, "type": "electric_scooter", "lon": -77.02787966666666, "bike_id": "c70e523e68c71e7ac9ea347e2ed521ef", "rental_uris": {"android": "https://dc.lft.to/lastmile_qr_scan", "ios": "https://dc.lft.to/lastmile_qr_scan"}, "name": "c70e523e68c71e7ac9ea347e2ed521ef", "is_reserved": 0}, {"is_disabled": 0, "fusion_lon": 0.0, "fusion_lat": 0.0, "lat": 38.89664833333333, "type": "electric_scooter", "lon": -77.04352266666666, "bike_id": "55d92195b01241a8610983b94106af27", "rental_uris": {"android": "https://dc.lft.to/lastmile_qr_scan", "ios": "https://dc.lft.to/lastmile_qr_scan"}, "name": "55d92195b01241a8610983b94106af27", "is_reserved": 0}, {"is_disabled": 0, "fusion_lon": 0.0, "fusion_lat": 0.0, "lat": 38.926191833333334, "type": "electric_scooter", "lon": -77.04189783333334, "bike_id": "81bb5ff6b24b2c836db2ecf920518b6e", "rental_uris": {"android": "https://dc.lft.to/lastmile_qr_scan", "ios": "https://dc.lft.to/lastmile_qr_scan"}, "name": "81bb5ff6b24b2c836db2ecf920518b6e", "is_reserved": 0}, {"is_disabled": 0, "fusion_lon": 0.0, "fusion_lat": 0.0, "lat": 38.87520266666667, "type": "electric_scooter", "lon": -77.01383166666666, "bike_id": "6897fad7398fa363ccd2ffe52f71b808", "rental_uris": {"android": "https://dc.lft.to/lastmile_qr_scan", "ios": "https://dc.lft.to/lastmile_qr_scan"}, "name": "6897fad7398fa363ccd2ffe52f71b808", "is_reserved": 0}, {"is_disabled": 0, "fusion_lon": 0.0, "fusion_lat": 0.0, "lat": 38.94456266666667, "type": "electric_scooter", "lon": -77.06021, "bike_id": "e137ace0578738909838c81f178d48e6", "rental_uris": {"android": "https://dc.lft.to/lastmile_qr_scan", "ios": "https://dc.lft.to/lastmile_qr_scan"}, "name": "e137ace0578738909838c81f178d48e6", "is_reserved": 0}, {"is_disabled": 0, "fusion_lon": 0.0, "fusion_lat": 0.0, "lat": 38.905422333333334, "type": "electric_scooter", "lon": -77.02687966666667, "bike_id": "578fd06037bdc6310d003a9e2af0dd91", "rental_uris": {"android": "https://dc.lft.to/lastmile_qr_scan", "ios": "https://dc.lft.to/lastmile_qr_scan"}, "name": "578fd06037bdc6310d003a9e2af0dd91", "is_reserved": 0}, {"is_disabled": 0, "fusion_lon": 0.0, "fusion_lat": 0.0, "lat": 38.996672833333335, "type": "electric_bike", "lon": -76.9914095, "bike_id": "7666f7015cd7db82a4b4ee7c6ff96030", "rental_uris": {"android": "https://dc.lft.to/lastmile_qr_scan", "ios": "https://dc.lft.to/lastmile_qr_scan"}, "name": "7666f7015cd7db82a4b4ee7c6ff96030", "is_reserved": 0}, {"is_disabled": 0, "fusion_lon": 0.0, "fusion_lat": 0.0, "lat": 38.828716, "type": "electric_bike", "lon": -77.11224, "bike_id": "b13ebf1f81765b657b6a1391710152ef", "rental_uris": {"android": "https://dc.lft.to/lastmile_qr_scan", "ios": "https://dc.lft.to/lastmile_qr_scan"}, "name": "b13ebf1f81765b657b6a1391710152ef", "is_reserved": 0}, {"is_disabled": 0, "fusion_lon": 0.0, "fusion_lat": 0.0, "lat": 38.91284666666667, "type": "electric_scooter", "lon": -77.02073783333333, "bike_id": "0bff08f7a1f30cd4b0c01c192c6e0275", "rental_uris": {"android": "https://dc.lft.to/lastmile_qr_scan", "ios": "https://dc.lft.to/lastmile_qr_scan"}, "name": "0bff08f7a1f30cd4b0c01c192c6e0275", "is_reserved": 0}, {"is_disabled": 0, "fusion_lon": 0.0, "fusion_lat": 0.0, "lat": 38.91654416666667, "type": "electric_scooter", "lon": -77.029643, "bike_id": "db6be2372c02aaef6f66abeb2219992f", "rental_uris": {"android": "https://dc.lft.to/lastmile_qr_scan", "ios": "https://dc.lft.to/lastmile_qr_scan"}, "name": "db6be2372c02aaef6f66abeb2219992f", "is_reserved": 0}, {"is_disabled": 0, "fusion_lon": 0.0, "fusion_lat": 0.0, "lat": 38.912702833333334, "type": "electric_scooter", "lon": -77.03148383333334, "bike_id": "ddfb60233a4fcee220f0971898b1a98b", "rental_uris": {"android": "https://dc.lft.to/lastmile_qr_scan", "ios": "https://dc.lft.to/lastmile_qr_scan"}, "name": "ddfb60233a4fcee220f0971898b1a98b", "is_reserved": 0}, {"is_disabled": 0, "fusion_lon": 0.0, "fusion_lat": 0.0, "lat": 39.000141, "type": "electric_bike", "lon": -76.87282566666667, "bike_id": "75db78f8a8b8be98616490fa096d65a3", "rental_uris": {"android": "https://dc.lft.to/lastmile_qr_scan", "ios": "https://dc.lft.to/lastmile_qr_scan"}, "name": "75db78f8a8b8be98616490fa096d65a3", "is_reserved": 0}, {"is_disabled": 0, "fusion_lon": 0.0, "fusion_lat": 0.0, "lat": 38.884821, "type": "electric_scooter", "lon": -76.929961, "bike_id": "da1ea258d7e638f91757bc286512899b", "rental_uris": {"android": "https://dc.lft.to/lastmile_qr_scan", "ios": "https://dc.lft.to/lastmile_qr_scan"}, "name": "da1ea258d7e638f91757bc286512899b", "is_reserved": 0}, {"is_disabled": 0, "fusion_lon": 0.0, "fusion_lat": 0.0, "lat": 38.911251666666665, "type": "electric_scooter", "lon": -77.05934733333333, "bike_id": "b6c80565c37f3a47b03866bac5f06c64", "rental_uris": {"android": "https://dc.lft.to/lastmile_qr_scan", "ios": "https://dc.lft.to/lastmile_qr_scan"}, "name": "b6c80565c37f3a47b03866bac5f06c64", "is_reserved": 0}, {"is_disabled": 0, "fusion_lon": 0.0, "fusion_lat": 0.0, "lat": 38.8729005, "type": "electric_scooter", "lon": -77.0098835, "bike_id": "4a3b576b5b12650e63cdf9540edd5b72", "rental_uris": {"android": "https://dc.lft.to/lastmile_qr_scan", "ios": "https://dc.lft.to/lastmile_qr_scan"}, "name": "4a3b576b5b12650e63cdf9540edd5b72", "is_reserved": 0}, {"is_disabled": 0, "fusion_lon": 0.0, "fusion_lat": 0.0, "lat": 38.89658816666667, "type": "electric_scooter", "lon": -77.01187633333333, "bike_id": "41f16053113df8901efebcaabf955e4a", "rental_uris": {"android": "https://dc.lft.to/lastmile_qr_scan", "ios": "https://dc.lft.to/lastmile_qr_scan"}, "name": "41f16053113df8901efebcaabf955e4a", "is_reserved": 0}, {"is_disabled": 0, "fusion_lon": 0.0, "fusion_lat": 0.0, "lat": 38.91004816666667, "type": "electric_scooter", "lon": -77.037536, "bike_id": "a6d3b6db2166c5c5e44ddc65f78f4e30", "rental_uris": {"android": "https://dc.lft.to/lastmile_qr_scan", "ios": "https://dc.lft.to/lastmile_qr_scan"}, "name": "a6d3b6db2166c5c5e44ddc65f78f4e30", "is_reserved": 0}, {"is_disabled": 0, "fusion_lon": 0.0, "fusion_lat": 0.0, "lat": 38.90410966666666, "type": "electric_scooter", "lon": -77.017201, "bike_id": "5eaf5baab72dbaad3341cc180b8a6359", "rental_uris": {"android": "https://dc.lft.to/lastmile_qr_scan", "ios": "https://dc.lft.to/lastmile_qr_scan"}, "name": "5eaf5baab72dbaad3341cc180b8a6359", "is_reserved": 0}, {"is_disabled": 0, "fusion_lon": 0.0, "fusion_lat": 0.0, "lat": 38.921610666666666, "type": "electric_scooter", "lon": -77.03403483333334, "bike_id": "486494d02adbab92079d44ac8cc7ee4d", "rental_uris": {"android": "https://dc.lft.to/lastmile_qr_scan", "ios": "https://dc.lft.to/lastmile_qr_scan"}, "name": "486494d02adbab92079d44ac8cc7ee4d", "is_reserved": 0}, {"is_disabled": 0, "fusion_lon": 0.0, "fusion_lat": 0.0, "lat": 38.902754, "type": "electric_scooter", "lon": -77.05323033333333, "bike_id": "19c70538e851af912a8a0479279ae660", "rental_uris": {"android": "https://dc.lft.to/lastmile_qr_scan", "ios": "https://dc.lft.to/lastmile_qr_scan"}, "name": "19c70538e851af912a8a0479279ae660", "is_reserved": 0}, {"is_disabled": 0, "fusion_lon": 0.0, "fusion_lat": 0.0, "lat": 38.90685, "type": "electric_scooter", "lon": -77.02692133333333, "bike_id": "9b0c6e428f2346a941341b2e2bc5b214", "rental_uris": {"android": "https://dc.lft.to/lastmile_qr_scan", "ios": "https://dc.lft.to/lastmile_qr_scan"}, "name": "9b0c6e428f2346a941341b2e2bc5b214", "is_reserved": 0}, {"is_disabled": 0, "fusion_lon": 0.0, "fusion_lat": 0.0, "lat": 38.91265516666667, "type": "electric_scooter", "lon": -77.00828316666667, "bike_id": "acf00ffa050b6c57945199e9c427f42b", "rental_uris": {"android": "https://dc.lft.to/lastmile_qr_scan", "ios": "https://dc.lft.to/lastmile_qr_scan"}, "name": "acf00ffa050b6c57945199e9c427f42b", "is_reserved": 0}, {"is_disabled": 0, "fusion_lon": 0.0, "fusion_lat": 0.0, "lat": 38.9083975, "type": "electric_scooter", "lon": -76.99702866666667, "bike_id": "d835f7e313f5168ea161b3f7e9d7b5ad", "rental_uris": {"android": "https://dc.lft.to/lastmile_qr_scan", "ios": "https://dc.lft.to/lastmile_qr_scan"}, "name": "d835f7e313f5168ea161b3f7e9d7b5ad", "is_reserved": 0}, {"is_disabled": 0, "fusion_lon": 0.0, "fusion_lat": 0.0, "lat": 38.916762166666665, "type": "electric_scooter", "lon": -77.0271495, "bike_id": "207bb8f9d1f45cb55904cb74b6ea6e0a", "rental_uris": {"android": "https://dc.lft.to/lastmile_qr_scan", "ios": "https://dc.lft.to/lastmile_qr_scan"}, "name": "207bb8f9d1f45cb55904cb74b6ea6e0a", "is_reserved": 0}, {"is_disabled": 0, "fusion_lon": 0.0, "fusion_lat": 0.0, "lat": 38.86625516666667, "type": "electric_scooter", "lon": -76.987195, "bike_id": "e73bcfd11da6fc460da76e10cdf416a5", "rental_uris": {"android": "https://dc.lft.to/lastmile_qr_scan", "ios": "https://dc.lft.to/lastmile_qr_scan"}, "name": "e73bcfd11da6fc460da76e10cdf416a5", "is_reserved": 0}, {"is_disabled": 0, "fusion_lon": 0.0, "fusion_lat": 0.0, "lat": 38.90192116666667, "type": "electric_scooter", "lon": -77.03911633333334, "bike_id": "ffe23f4a78cb9ac89c95f1952939fc4b", "rental_uris": {"android": "https://dc.lft.to/lastmile_qr_scan", "ios": "https://dc.lft.to/lastmile_qr_scan"}, "name": "ffe23f4a78cb9ac89c95f1952939fc4b", "is_reserved": 0}, {"is_disabled": 0, "fusion_lon": 0.0, "fusion_lat": 0.0, "lat": 38.901733166666666, "type": "electric_scooter", "lon": -77.024892, "bike_id": "c00714a32ac12f1a9675b26d072a54f3", "rental_uris": {"android": "https://dc.lft.to/lastmile_qr_scan", "ios": "https://dc.lft.to/lastmile_qr_scan"}, "name": "c00714a32ac12f1a9675b26d072a54f3", "is_reserved": 0}, {"is_disabled": 0, "fusion_lon": 0.0, "fusion_lat": 0.0, "lat": 38.90538083333333, "type": "electric_scooter", "lon": -77.047155, "bike_id": "de0bf20fa35c149b5238edb64b27fad5", "rental_uris": {"android": "https://dc.lft.to/lastmile_qr_scan", "ios": "https://dc.lft.to/lastmile_qr_scan"}, "name": "de0bf20fa35c149b5238edb64b27fad5", "is_reserved": 0}, {"is_disabled": 0, "fusion_lon": 0.0, "fusion_lat": 0.0, "lat": 38.845143, "type": "electric_bike", "lon": -77.077983, "bike_id": "d15ebde1adf9635f4f47376d7891f6a6", "rental_uris": {"android": "https://dc.lft.to/lastmile_qr_scan", "ios": "https://dc.lft.to/lastmile_qr_scan"}, "name": "d15ebde1adf9635f4f47376d7891f6a6", "is_reserved": 0}, {"is_disabled": 0, "fusion_lon": 0.0, "fusion_lat": 0.0, "lat": 38.913365166666665, "type": "electric_scooter", "lon": -77.048648, "bike_id": "4a24eb9e746853dbdec10254aec2aa6b", "rental_uris": {"android": "https://dc.lft.to/lastmile_qr_scan", "ios": "https://dc.lft.to/lastmile_qr_scan"}, "name": "4a24eb9e746853dbdec10254aec2aa6b", "is_reserved": 0}, {"is_disabled": 0, "fusion_lon": 0.0, "fusion_lat": 0.0, "lat": 38.87630866666667, "type": "electric_scooter", "lon": -77.00945183333333, "bike_id": "01e0cf9901e20a8760207e04b91d6b3d", "rental_uris": {"android": "https://dc.lft.to/lastmile_qr_scan", "ios": "https://dc.lft.to/lastmile_qr_scan"}, "name": "01e0cf9901e20a8760207e04b91d6b3d", "is_reserved": 0}, {"is_disabled": 0, "fusion_lon": 0.0, "fusion_lat": 0.0, "lat": 38.828726333333336, "type": "electric_bike", "lon": -77.11225833333333, "bike_id": "850a15d86ad36a5d8d8e2323a9b31283", "rental_uris": {"android": "https://dc.lft.to/lastmile_qr_scan", "ios": "https://dc.lft.to/lastmile_qr_scan"}, "name": "850a15d86ad36a5d8d8e2323a9b31283", "is_reserved": 0}, {"is_disabled": 0, "fusion_lon": 0.0, "fusion_lat": 0.0, "lat": 38.95171366666667, "type": "electric_scooter", "lon": -77.0565045, "bike_id": "6a34db6fe60aa4c92eb99df696d45918", "rental_uris": {"android": "https://dc.lft.to/lastmile_qr_scan", "ios": "https://dc.lft.to/lastmile_qr_scan"}, "name": "6a34db6fe60aa4c92eb99df696d45918", "is_reserved": 0}, {"is_disabled": 0, "fusion_lon": 0.0, "fusion_lat": 0.0, "lat": 38.95552083333333, "type": "electric_bike", "lon": -76.935341, "bike_id": "4b2ca2a330b3a3160df8f871f631d3cf", "rental_uris": {"android": "https://dc.lft.to/lastmile_qr_scan", "ios": "https://dc.lft.to/lastmile_qr_scan"}, "name": "4b2ca2a330b3a3160df8f871f631d3cf", "is_reserved": 0}, {"is_disabled": 0, "fusion_lon": 0.0, "fusion_lat": 0.0, "lat": 38.9656875, "type": "electric_scooter", "lon": -77.01568366666666, "bike_id": "7ec2e8a7b28a8e303632d0d75f4306a6", "rental_uris": {"android": "https://dc.lft.to/lastmile_qr_scan", "ios": "https://dc.lft.to/lastmile_qr_scan"}, "name": "7ec2e8a7b28a8e303632d0d75f4306a6", "is_reserved": 0}, {"is_disabled": 0, "fusion_lon": 0.0, "fusion_lat": 0.0, "lat": 38.903761833333334, "type": "electric_scooter", "lon": -77.04147483333334, "bike_id": "33d20ae947afc1ffeb83637a8cc0781d", "rental_uris": {"android": "https://dc.lft.to/lastmile_qr_scan", "ios": "https://dc.lft.to/lastmile_qr_scan"}, "name": "33d20ae947afc1ffeb83637a8cc0781d", "is_reserved": 0}, {"is_disabled": 0, "fusion_lon": 0.0, "fusion_lat": 0.0, "lat": 38.831904333333334, "type": "electric_bike", "lon": -77.07680433333333, "bike_id": "c80f707d12e9a5ae548dd73ec0f95fdb", "rental_uris": {"android": "https://dc.lft.to/lastmile_qr_scan", "ios": "https://dc.lft.to/lastmile_qr_scan"}, "name": "c80f707d12e9a5ae548dd73ec0f95fdb", "is_reserved": 0}, {"is_disabled": 0, "fusion_lon": 0.0, "fusion_lat": 0.0, "lat": 38.887651166666664, "type": "electric_bike", "lon": -77.12255466666667, "bike_id": "d64971f49e04d851685eb2210b3b3e32", "rental_uris": {"android": "https://dc.lft.to/lastmile_qr_scan", "ios": "https://dc.lft.to/lastmile_qr_scan"}, "name": "d64971f49e04d851685eb2210b3b3e32", "is_reserved": 0}, {"is_disabled": 0, "fusion_lon": 0.0, "fusion_lat": 0.0, "lat": 38.872477833333335, "type": "electric_scooter", "lon": -76.9771995, "bike_id": "d77b880c4f4440b53f6975ea6680e34c", "rental_uris": {"android": "https://dc.lft.to/lastmile_qr_scan", "ios": "https://dc.lft.to/lastmile_qr_scan"}, "name": "d77b880c4f4440b53f6975ea6680e34c", "is_reserved": 0}, {"is_disabled": 0, "fusion_lon": 0.0, "fusion_lat": 0.0, "lat": 38.882627666666664, "type": "electric_scooter", "lon": -76.9853945, "bike_id": "28d433b849d5a2ca043ac4857cdd34aa", "rental_uris": {"android": "https://dc.lft.to/lastmile_qr_scan", "ios": "https://dc.lft.to/lastmile_qr_scan"}, "name": "28d433b849d5a2ca043ac4857cdd34aa", "is_reserved": 0}, {"is_disabled": 0, "fusion_lon": 0.0, "fusion_lat": 0.0, "lat": 38.91536816666667, "type": "electric_scooter", "lon": -77.03789, "bike_id": "8500cbf880e9fea9981021b5d8c3b567", "rental_uris": {"android": "https://dc.lft.to/lastmile_qr_scan", "ios": "https://dc.lft.to/lastmile_qr_scan"}, "name": "8500cbf880e9fea9981021b5d8c3b567", "is_reserved": 0}, {"is_disabled": 0, "fusion_lon": 0.0, "fusion_lat": 0.0, "lat": 38.92060816666667, "type": "electric_scooter", "lon": -77.02712266666667, "bike_id": "5dee17734350c6eb813a5e91dc0b08ef", "rental_uris": {"android": "https://dc.lft.to/lastmile_qr_scan", "ios": "https://dc.lft.to/lastmile_qr_scan"}, "name": "5dee17734350c6eb813a5e91dc0b08ef", "is_reserved": 0}, {"is_disabled": 0, "fusion_lon": 0.0, "fusion_lat": 0.0, "lat": 38.842910333333336, "type": "electric_scooter", "lon": -76.99945666666666, "bike_id": "a621e98d3045728e3662f61c430a247e", "rental_uris": {"android": "https://dc.lft.to/lastmile_qr_scan", "ios": "https://dc.lft.to/lastmile_qr_scan"}, "name": "a621e98d3045728e3662f61c430a247e", "is_reserved": 0}, {"is_disabled": 0, "fusion_lon": 0.0, "fusion_lat": 0.0, "lat": 38.919770666666665, "type": "electric_scooter", "lon": -77.00013416666667, "bike_id": "9665c851d9c6b7f7a8491ae811e37783", "rental_uris": {"android": "https://dc.lft.to/lastmile_qr_scan", "ios": "https://dc.lft.to/lastmile_qr_scan"}, "name": "9665c851d9c6b7f7a8491ae811e37783", "is_reserved": 0}, {"is_disabled": 0, "fusion_lon": 0.0, "fusion_lat": 0.0, "lat": 38.90146166666667, "type": "electric_scooter", "lon": -77.04002383333334, "bike_id": "b6d4a60dfe42191644c0d9857a51f666", "rental_uris": {"android": "https://dc.lft.to/lastmile_qr_scan", "ios": "https://dc.lft.to/lastmile_qr_scan"}, "name": "b6d4a60dfe42191644c0d9857a51f666", "is_reserved": 0}, {"is_disabled": 0, "fusion_lon": 0.0, "fusion_lat": 0.0, "lat": 38.899996, "type": "electric_scooter", "lon": -76.996675, "bike_id": "a5696b98365ea6a4f883c4d0de2ea7d8", "rental_uris": {"android": "https://dc.lft.to/lastmile_qr_scan", "ios": "https://dc.lft.to/lastmile_qr_scan"}, "name": "a5696b98365ea6a4f883c4d0de2ea7d8", "is_reserved": 0}, {"is_disabled": 0, "fusion_lon": 0.0, "fusion_lat": 0.0, "lat": 38.9005695, "type": "electric_scooter", "lon": -76.986802, "bike_id": "3019a391a84ba0bfb7da57b4e73a9879", "rental_uris": {"android": "https://dc.lft.to/lastmile_qr_scan", "ios": "https://dc.lft.to/lastmile_qr_scan"}, "name": "3019a391a84ba0bfb7da57b4e73a9879", "is_reserved": 0}, {"is_disabled": 0, "fusion_lon": 0.0, "fusion_lat": 0.0, "lat": 38.91380183333333, "type": "electric_scooter", "lon": -77.02968116666666, "bike_id": "0c7e0c964cf4cc6af035b229343ab7b8", "rental_uris": {"android": "https://dc.lft.to/lastmile_qr_scan", "ios": "https://dc.lft.to/lastmile_qr_scan"}, "name": "0c7e0c964cf4cc6af035b229343ab7b8", "is_reserved": 0}, {"is_disabled": 0, "fusion_lon": 0.0, "fusion_lat": 0.0, "lat": 38.916286166666666, "type": "electric_scooter", "lon": -77.04159133333333, "bike_id": "f709c03ff62f15a03ad8767c3a26513c", "rental_uris": {"android": "https://dc.lft.to/lastmile_qr_scan", "ios": "https://dc.lft.to/lastmile_qr_scan"}, "name": "f709c03ff62f15a03ad8767c3a26513c", "is_reserved": 0}, {"is_disabled": 0, "fusion_lon": 0.0, "fusion_lat": 0.0, "lat": 38.886967166666665, "type": "electric_scooter", "lon": -76.953601, "bike_id": "e3317e93586445cf6cd505d5032bfa43", "rental_uris": {"android": "https://dc.lft.to/lastmile_qr_scan", "ios": "https://dc.lft.to/lastmile_qr_scan"}, "name": "e3317e93586445cf6cd505d5032bfa43", "is_reserved": 0}, {"is_disabled": 0, "fusion_lon": 0.0, "fusion_lat": 0.0, "lat": 38.91657416666666, "type": "electric_scooter", "lon": -77.02802516666667, "bike_id": "c7e7d8480149aac57ccbad23c8d729ee", "rental_uris": {"android": "https://dc.lft.to/lastmile_qr_scan", "ios": "https://dc.lft.to/lastmile_qr_scan"}, "name": "c7e7d8480149aac57ccbad23c8d729ee", "is_reserved": 0}, {"is_disabled": 0, "fusion_lon": 0.0, "fusion_lat": 0.0, "lat": 38.907101833333336, "type": "electric_scooter", "lon": -77.02712733333334, "bike_id": "b8274febd9244e44f5a52c4827791f89", "rental_uris": {"android": "https://dc.lft.to/lastmile_qr_scan", "ios": "https://dc.lft.to/lastmile_qr_scan"}, "name": "b8274febd9244e44f5a52c4827791f89", "is_reserved": 0}, {"is_disabled": 0, "fusion_lon": 0.0, "fusion_lat": 0.0, "lat": 38.93629966666666, "type": "electric_scooter", "lon": -77.02439033333333, "bike_id": "214501352f4ca2780fc08fc6717d67d0", "rental_uris": {"android": "https://dc.lft.to/lastmile_qr_scan", "ios": "https://dc.lft.to/lastmile_qr_scan"}, "name": "214501352f4ca2780fc08fc6717d67d0", "is_reserved": 0}, {"is_disabled": 0, "fusion_lon": 0.0, "fusion_lat": 0.0, "lat": 38.845087666666664, "type": "electric_bike", "lon": -76.9720935, "bike_id": "07b40495e2666b7ff73065f87ad5578a", "rental_uris": {"android": "https://dc.lft.to/lastmile_qr_scan", "ios": "https://dc.lft.to/lastmile_qr_scan"}, "name": "07b40495e2666b7ff73065f87ad5578a", "is_reserved": 0}, {"is_disabled": 0, "fusion_lon": 0.0, "fusion_lat": 0.0, "lat": 38.9417125, "type": "electric_scooter", "lon": -77.02389433333333, "bike_id": "d4a87f3cac2e6af759a8710e81fd63e2", "rental_uris": {"android": "https://dc.lft.to/lastmile_qr_scan", "ios": "https://dc.lft.to/lastmile_qr_scan"}, "name": "d4a87f3cac2e6af759a8710e81fd63e2", "is_reserved": 0}, {"is_disabled": 0, "fusion_lon": 0.0, "fusion_lat": 0.0, "lat": 38.900923, "type": "electric_scooter", "lon": -76.98842183333333, "bike_id": "eeaa217ef8450a80f443e1e7d73627ee", "rental_uris": {"android": "https://dc.lft.to/lastmile_qr_scan", "ios": "https://dc.lft.to/lastmile_qr_scan"}, "name": "eeaa217ef8450a80f443e1e7d73627ee", "is_reserved": 0}, {"is_disabled": 0, "fusion_lon": 0.0, "fusion_lat": 0.0, "lat": 38.833759666666666, "type": "electric_scooter", "lon": -76.99282016666666, "bike_id": "b0da69f87741a08c25f631347fc8a74f", "rental_uris": {"android": "https://dc.lft.to/lastmile_qr_scan", "ios": "https://dc.lft.to/lastmile_qr_scan"}, "name": "b0da69f87741a08c25f631347fc8a74f", "is_reserved": 0}, {"is_disabled": 0, "fusion_lon": 0.0, "fusion_lat": 0.0, "lat": 38.91933316666667, "type": "electric_scooter", "lon": -77.017642, "bike_id": "a979694cfd18e8e42975ebd8c4e7f3aa", "rental_uris": {"android": "https://dc.lft.to/lastmile_qr_scan", "ios": "https://dc.lft.to/lastmile_qr_scan"}, "name": "a979694cfd18e8e42975ebd8c4e7f3aa", "is_reserved": 0}, {"is_disabled": 0, "fusion_lon": 0.0, "fusion_lat": 0.0, "lat": 38.91551116666667, "type": "electric_scooter", "lon": -77.03145333333333, "bike_id": "8c9655346877cb25863e140eb182ade2", "rental_uris": {"android": "https://dc.lft.to/lastmile_qr_scan", "ios": "https://dc.lft.to/lastmile_qr_scan"}, "name": "8c9655346877cb25863e140eb182ade2", "is_reserved": 0}, {"is_disabled": 0, "fusion_lon": 0.0, "fusion_lat": 0.0, "lat": 38.9073155, "type": "electric_scooter", "lon": -77.03842716666666, "bike_id": "34b1901468fd4bcc82bf8b53d0463559", "rental_uris": {"android": "https://dc.lft.to/lastmile_qr_scan", "ios": "https://dc.lft.to/lastmile_qr_scan"}, "name": "34b1901468fd4bcc82bf8b53d0463559", "is_reserved": 0}, {"is_disabled": 0, "fusion_lon": 0.0, "fusion_lat": 0.0, "lat": 38.916793166666665, "type": "electric_scooter", "lon": -77.01610183333334, "bike_id": "61a6aac6b1464e488f44a87125b153dd", "rental_uris": {"android": "https://dc.lft.to/lastmile_qr_scan", "ios": "https://dc.lft.to/lastmile_qr_scan"}, "name": "61a6aac6b1464e488f44a87125b153dd", "is_reserved": 0}, {"is_disabled": 0, "fusion_lon": 0.0, "fusion_lat": 0.0, "lat": 38.9162805, "type": "electric_scooter", "lon": -77.04873216666667, "bike_id": "02e844bcb4eea39db2af3b930f027977", "rental_uris": {"android": "https://dc.lft.to/lastmile_qr_scan", "ios": "https://dc.lft.to/lastmile_qr_scan"}, "name": "02e844bcb4eea39db2af3b930f027977", "is_reserved": 0}, {"is_disabled": 0, "fusion_lon": 0.0, "fusion_lat": 0.0, "lat": 38.91424766666667, "type": "electric_scooter", "lon": -77.0345915, "bike_id": "e0e83714a922107929aecf63dd7888e1", "rental_uris": {"android": "https://dc.lft.to/lastmile_qr_scan", "ios": "https://dc.lft.to/lastmile_qr_scan"}, "name": "e0e83714a922107929aecf63dd7888e1", "is_reserved": 0}, {"is_disabled": 0, "fusion_lon": 0.0, "fusion_lat": 0.0, "lat": 38.92040033333333, "type": "electric_scooter", "lon": -77.03393583333333, "bike_id": "499213ab33c3fc8749210383e8e385db", "rental_uris": {"android": "https://dc.lft.to/lastmile_qr_scan", "ios": "https://dc.lft.to/lastmile_qr_scan"}, "name": "499213ab33c3fc8749210383e8e385db", "is_reserved": 0}, {"is_disabled": 0, "fusion_lon": 0.0, "fusion_lat": 0.0, "lat": 38.893075333333336, "type": "electric_scooter", "lon": -77.022048, "bike_id": "410b6de92501d0b7e2e6b914cbc81e22", "rental_uris": {"android": "https://dc.lft.to/lastmile_qr_scan", "ios": "https://dc.lft.to/lastmile_qr_scan"}, "name": "410b6de92501d0b7e2e6b914cbc81e22", "is_reserved": 0}, {"is_disabled": 0, "fusion_lon": 0.0, "fusion_lat": 0.0, "lat": 38.8937035, "type": "electric_scooter", "lon": -76.949996, "bike_id": "2bf4d6cb9b4138e6353e66820efb05df", "rental_uris": {"android": "https://dc.lft.to/lastmile_qr_scan", "ios": "https://dc.lft.to/lastmile_qr_scan"}, "name": "2bf4d6cb9b4138e6353e66820efb05df", "is_reserved": 0}, {"is_disabled": 0, "fusion_lon": 0.0, "fusion_lat": 0.0, "lat": 38.9103495, "type": "electric_scooter", "lon": -77.04051766666667, "bike_id": "5f3a4d170937932f1972e237bc3f7a5f", "rental_uris": {"android": "https://dc.lft.to/lastmile_qr_scan", "ios": "https://dc.lft.to/lastmile_qr_scan"}, "name": "5f3a4d170937932f1972e237bc3f7a5f", "is_reserved": 0}, {"is_disabled": 0, "fusion_lon": 0.0, "fusion_lat": 0.0, "lat": 38.94083716666667, "type": "electric_scooter", "lon": -77.05956133333333, "bike_id": "846f6c2bdee828ef69fb1204a51c7858", "rental_uris": {"android": "https://dc.lft.to/lastmile_qr_scan", "ios": "https://dc.lft.to/lastmile_qr_scan"}, "name": "846f6c2bdee828ef69fb1204a51c7858", "is_reserved": 0}, {"is_disabled": 0, "fusion_lon": 0.0, "fusion_lat": 0.0, "lat": 38.91471083333333, "type": "electric_scooter", "lon": -77.02170633333333, "bike_id": "12dacc427030d0fe7e7dbb014e6f2bbe", "rental_uris": {"android": "https://dc.lft.to/lastmile_qr_scan", "ios": "https://dc.lft.to/lastmile_qr_scan"}, "name": "12dacc427030d0fe7e7dbb014e6f2bbe", "is_reserved": 0}, {"is_disabled": 0, "fusion_lon": 0.0, "fusion_lat": 0.0, "lat": 38.8977005, "type": "electric_bike", "lon": -77.023754, "bike_id": "74ab360089b623f4ceffc12ce3fe257b", "rental_uris": {"android": "https://dc.lft.to/lastmile_qr_scan", "ios": "https://dc.lft.to/lastmile_qr_scan"}, "name": "74ab360089b623f4ceffc12ce3fe257b", "is_reserved": 0}, {"is_disabled": 0, "fusion_lon": 0.0, "fusion_lat": 0.0, "lat": 38.90502633333333, "type": "electric_scooter", "lon": -76.98851283333333, "bike_id": "519f544f00492763354d757aa9dba511", "rental_uris": {"android": "https://dc.lft.to/lastmile_qr_scan", "ios": "https://dc.lft.to/lastmile_qr_scan"}, "name": "519f544f00492763354d757aa9dba511", "is_reserved": 0}, {"is_disabled": 0, "fusion_lon": 0.0, "fusion_lat": 0.0, "lat": 38.905763, "type": "electric_scooter", "lon": -76.98752483333334, "bike_id": "ce98417b694e1e54dfad7b098bddabeb", "rental_uris": {"android": "https://dc.lft.to/lastmile_qr_scan", "ios": "https://dc.lft.to/lastmile_qr_scan"}, "name": "ce98417b694e1e54dfad7b098bddabeb", "is_reserved": 0}, {"is_disabled": 0, "fusion_lon": 0.0, "fusion_lat": 0.0, "lat": 38.8879775, "type": "electric_bike", "lon": -76.92996816666667, "bike_id": "f2648179f00748e1704ff98c25ecb7ca", "rental_uris": {"android": "https://dc.lft.to/lastmile_qr_scan", "ios": "https://dc.lft.to/lastmile_qr_scan"}, "name": "f2648179f00748e1704ff98c25ecb7ca", "is_reserved": 0}, {"is_disabled": 0, "fusion_lon": 0.0, "fusion_lat": 0.0, "lat": 38.9102795, "type": "electric_scooter", "lon": -77.047976, "bike_id": "803a13309d6e971ae50af7abc5440033", "rental_uris": {"android": "https://dc.lft.to/lastmile_qr_scan", "ios": "https://dc.lft.to/lastmile_qr_scan"}, "name": "803a13309d6e971ae50af7abc5440033", "is_reserved": 0}, {"is_disabled": 0, "fusion_lon": 0.0, "fusion_lat": 0.0, "lat": 38.95289416666667, "type": "electric_scooter", "lon": -77.06851183333333, "bike_id": "d2a2127845723c58718c11c046523926", "rental_uris": {"android": "https://dc.lft.to/lastmile_qr_scan", "ios": "https://dc.lft.to/lastmile_qr_scan"}, "name": "d2a2127845723c58718c11c046523926", "is_reserved": 0}, {"is_disabled": 0, "fusion_lon": 0.0, "fusion_lat": 0.0, "lat": 38.94037383333333, "type": "electric_scooter", "lon": -77.02910866666667, "bike_id": "eb633bd72fb211ad6d79e6261f4734e2", "rental_uris": {"android": "https://dc.lft.to/lastmile_qr_scan", "ios": "https://dc.lft.to/lastmile_qr_scan"}, "name": "eb633bd72fb211ad6d79e6261f4734e2", "is_reserved": 0}, {"is_disabled": 0, "fusion_lon": 0.0, "fusion_lat": 0.0, "lat": 38.9161615, "type": "electric_scooter", "lon": -77.04867083333333, "bike_id": "1e0cb9aee9abf5c507d0353b02fcced3", "rental_uris": {"android": "https://dc.lft.to/lastmile_qr_scan", "ios": "https://dc.lft.to/lastmile_qr_scan"}, "name": "1e0cb9aee9abf5c507d0353b02fcced3", "is_reserved": 0}, {"is_disabled": 0, "fusion_lon": 0.0, "fusion_lat": 0.0, "lat": 38.90634566666667, "type": "electric_scooter", "lon": -77.02499883333333, "bike_id": "6752b2fc8dae90716b82d73b12a3ccb2", "rental_uris": {"android": "https://dc.lft.to/lastmile_qr_scan", "ios": "https://dc.lft.to/lastmile_qr_scan"}, "name": "6752b2fc8dae90716b82d73b12a3ccb2", "is_reserved": 0}, {"is_disabled": 0, "fusion_lon": 0.0, "fusion_lat": 0.0, "lat": 38.9993085, "type": "electric_bike", "lon": -77.001205, "bike_id": "36c57fab3af9dbb2973ded168e965f11", "rental_uris": {"android": "https://dc.lft.to/lastmile_qr_scan", "ios": "https://dc.lft.to/lastmile_qr_scan"}, "name": "36c57fab3af9dbb2973ded168e965f11", "is_reserved": 0}, {"is_disabled": 0, "fusion_lon": 0.0, "fusion_lat": 0.0, "lat": 38.89844133333333, "type": "electric_scooter", "lon": -76.94556966666667, "bike_id": "51c261b0be4d42b1cf5c65fdb7868db6", "rental_uris": {"android": "https://dc.lft.to/lastmile_qr_scan", "ios": "https://dc.lft.to/lastmile_qr_scan"}, "name": "51c261b0be4d42b1cf5c65fdb7868db6", "is_reserved": 0}, {"is_disabled": 0, "fusion_lon": 0.0, "fusion_lat": 0.0, "lat": 39.0958985, "type": "electric_bike", "lon": -77.14772316666667, "bike_id": "27548bef861f87bdd33d910272dbf18a", "rental_uris": {"android": "https://dc.lft.to/lastmile_qr_scan", "ios": "https://dc.lft.to/lastmile_qr_scan"}, "name": "27548bef861f87bdd33d910272dbf18a", "is_reserved": 0}, {"is_disabled": 0, "fusion_lon": 0.0, "fusion_lat": 0.0, "lat": 38.8553615, "type": "electric_bike", "lon": -77.1072985, "bike_id": "abe4f7224621499595b63a0189868aaf", "rental_uris": {"android": "https://dc.lft.to/lastmile_qr_scan", "ios": "https://dc.lft.to/lastmile_qr_scan"}, "name": "abe4f7224621499595b63a0189868aaf", "is_reserved": 0}, {"is_disabled": 0, "fusion_lon": 0.0, "fusion_lat": 0.0, "lat": 38.86030816666667, "type": "electric_scooter", "lon": -76.996909, "bike_id": "86fda41fbaaed9ca4354b9f6a8db1f2e", "rental_uris": {"android": "https://dc.lft.to/lastmile_qr_scan", "ios": "https://dc.lft.to/lastmile_qr_scan"}, "name": "86fda41fbaaed9ca4354b9f6a8db1f2e", "is_reserved": 0}, {"is_disabled": 0, "fusion_lon": 0.0, "fusion_lat": 0.0, "lat": 38.9193235, "type": "electric_scooter", "lon": -77.0813075, "bike_id": "63f7323ddbe676523f4ab4c43fbda6b3", "rental_uris": {"android": "https://dc.lft.to/lastmile_qr_scan", "ios": "https://dc.lft.to/lastmile_qr_scan"}, "name": "63f7323ddbe676523f4ab4c43fbda6b3", "is_reserved": 0}, {"is_disabled": 0, "fusion_lon": 0.0, "fusion_lat": 0.0, "lat": 38.895011333333336, "type": "electric_scooter", "lon": -76.94878383333334, "bike_id": "0d72a257472d25384a65e11f80e177d5", "rental_uris": {"android": "https://dc.lft.to/lastmile_qr_scan", "ios": "https://dc.lft.to/lastmile_qr_scan"}, "name": "0d72a257472d25384a65e11f80e177d5", "is_reserved": 0}, {"is_disabled": 0, "fusion_lon": 0.0, "fusion_lat": 0.0, "lat": 38.858063, "type": "electric_scooter", "lon": -76.986545, "bike_id": "da26ccde89224d2e8328db55403cb6ab", "rental_uris": {"android": "https://dc.lft.to/lastmile_qr_scan", "ios": "https://dc.lft.to/lastmile_qr_scan"}, "name": "da26ccde89224d2e8328db55403cb6ab", "is_reserved": 0}, {"is_disabled": 0, "fusion_lon": 0.0, "fusion_lat": 0.0, "lat": 38.915817833333335, "type": "electric_scooter", "lon": -76.9811155, "bike_id": "554a4cbc6f045793ee9dfb2ab80d50bb", "rental_uris": {"android": "https://dc.lft.to/lastmile_qr_scan", "ios": "https://dc.lft.to/lastmile_qr_scan"}, "name": "554a4cbc6f045793ee9dfb2ab80d50bb", "is_reserved": 0}, {"is_disabled": 0, "fusion_lon": 0.0, "fusion_lat": 0.0, "lat": 38.84599983333333, "type": "electric_bike", "lon": -76.96881416666666, "bike_id": "365481da642d147ee2b4e8e4d057e0e6", "rental_uris": {"android": "https://dc.lft.to/lastmile_qr_scan", "ios": "https://dc.lft.to/lastmile_qr_scan"}, "name": "365481da642d147ee2b4e8e4d057e0e6", "is_reserved": 0}, {"is_disabled": 0, "fusion_lon": 0.0, "fusion_lat": 0.0, "lat": 38.928237, "type": "electric_scooter", "lon": -77.01408783333333, "bike_id": "400efd3d3ad38bb0f734725994b74620", "rental_uris": {"android": "https://dc.lft.to/lastmile_qr_scan", "ios": "https://dc.lft.to/lastmile_qr_scan"}, "name": "400efd3d3ad38bb0f734725994b74620", "is_reserved": 0}, {"is_disabled": 0, "fusion_lon": 0.0, "fusion_lat": 0.0, "lat": 38.96761716666666, "type": "electric_bike", "lon": -77.09162616666667, "bike_id": "2b12bf6bcc167f3e51853c91e20e8fee", "rental_uris": {"android": "https://dc.lft.to/lastmile_qr_scan", "ios": "https://dc.lft.to/lastmile_qr_scan"}, "name": "2b12bf6bcc167f3e51853c91e20e8fee", "is_reserved": 0}, {"is_disabled": 0, "fusion_lon": 0.0, "fusion_lat": 0.0, "lat": 38.92374916666667, "type": "electric_scooter", "lon": -77.0410855, "bike_id": "038d7f9c1682a18292b89fdaf5aef0bf", "rental_uris": {"android": "https://dc.lft.to/lastmile_qr_scan", "ios": "https://dc.lft.to/lastmile_qr_scan"}, "name": "038d7f9c1682a18292b89fdaf5aef0bf", "is_reserved": 0}, {"is_disabled": 0, "fusion_lon": 0.0, "fusion_lat": 0.0, "lat": 38.92481183333334, "type": "electric_scooter", "lon": -77.03490033333334, "bike_id": "597bb2c0e224d20bb1090310321d5724", "rental_uris": {"android": "https://dc.lft.to/lastmile_qr_scan", "ios": "https://dc.lft.to/lastmile_qr_scan"}, "name": "597bb2c0e224d20bb1090310321d5724", "is_reserved": 0}, {"is_disabled": 0, "fusion_lon": 0.0, "fusion_lat": 0.0, "lat": 38.84193616666667, "type": "electric_bike", "lon": -77.106834, "bike_id": "a79a96e4a2f467b8e908df7e5df6d5b0", "rental_uris": {"android": "https://dc.lft.to/lastmile_qr_scan", "ios": "https://dc.lft.to/lastmile_qr_scan"}, "name": "a79a96e4a2f467b8e908df7e5df6d5b0", "is_reserved": 0}, {"is_disabled": 0, "fusion_lon": 0.0, "fusion_lat": 0.0, "lat": 38.863198, "type": "electric_scooter", "lon": -76.99032, "bike_id": "9c53a7b365cddf3e2e1361a7e5b08bdf", "rental_uris": {"android": "https://dc.lft.to/lastmile_qr_scan", "ios": "https://dc.lft.to/lastmile_qr_scan"}, "name": "9c53a7b365cddf3e2e1361a7e5b08bdf", "is_reserved": 0}, {"is_disabled": 0, "fusion_lon": 0.0, "fusion_lat": 0.0, "lat": 38.893662, "type": "electric_scooter", "lon": -77.02263216666667, "bike_id": "54603df034a62cbf25e906ae1b416060", "rental_uris": {"android": "https://dc.lft.to/lastmile_qr_scan", "ios": "https://dc.lft.to/lastmile_qr_scan"}, "name": "54603df034a62cbf25e906ae1b416060", "is_reserved": 0}, {"is_disabled": 0, "fusion_lon": 0.0, "fusion_lat": 0.0, "lat": 38.998848833333334, "type": "electric_bike", "lon": -77.02871566666667, "bike_id": "00e54d5a5b54f9955a57d6876c59e92e", "rental_uris": {"android": "https://dc.lft.to/lastmile_qr_scan", "ios": "https://dc.lft.to/lastmile_qr_scan"}, "name": "00e54d5a5b54f9955a57d6876c59e92e", "is_reserved": 0}, {"is_disabled": 0, "fusion_lon": 0.0, "fusion_lat": 0.0, "lat": 38.919543833333336, "type": "electric_scooter", "lon": -77.02362783333334, "bike_id": "cd392acf847229e5812ae502a6342553", "rental_uris": {"android": "https://dc.lft.to/lastmile_qr_scan", "ios": "https://dc.lft.to/lastmile_qr_scan"}, "name": "cd392acf847229e5812ae502a6342553", "is_reserved": 0}, {"is_disabled": 0, "fusion_lon": 0.0, "fusion_lat": 0.0, "lat": 38.90715616666667, "type": "electric_scooter", "lon": -77.0287475, "bike_id": "7f487a86c467e84dec60c32118cfd20d", "rental_uris": {"android": "https://dc.lft.to/lastmile_qr_scan", "ios": "https://dc.lft.to/lastmile_qr_scan"}, "name": "7f487a86c467e84dec60c32118cfd20d", "is_reserved": 0}, {"is_disabled": 0, "fusion_lon": 0.0, "fusion_lat": 0.0, "lat": 38.91086883333333, "type": "electric_bike", "lon": -77.087645, "bike_id": "34cf581ac081b0932eeda93b524f5e87", "rental_uris": {"android": "https://dc.lft.to/lastmile_qr_scan", "ios": "https://dc.lft.to/lastmile_qr_scan"}, "name": "34cf581ac081b0932eeda93b524f5e87", "is_reserved": 0}, {"is_disabled": 0, "fusion_lon": 0.0, "fusion_lat": 0.0, "lat": 38.9397645, "type": "electric_scooter", "lon": -77.03012583333333, "bike_id": "1c6074a3f4d4db2c34efbefd9db7ac99", "rental_uris": {"android": "https://dc.lft.to/lastmile_qr_scan", "ios": "https://dc.lft.to/lastmile_qr_scan"}, "name": "1c6074a3f4d4db2c34efbefd9db7ac99", "is_reserved": 0}, {"is_disabled": 0, "fusion_lon": 0.0, "fusion_lat": 0.0, "lat": 38.92559816666667, "type": "electric_scooter", "lon": -77.05279133333333, "bike_id": "4f486978021d2b97f20cc4722ffa3262", "rental_uris": {"android": "https://dc.lft.to/lastmile_qr_scan", "ios": "https://dc.lft.to/lastmile_qr_scan"}, "name": "4f486978021d2b97f20cc4722ffa3262", "is_reserved": 0}, {"is_disabled": 0, "fusion_lon": 0.0, "fusion_lat": 0.0, "lat": 38.91798033333333, "type": "electric_scooter", "lon": -77.03437933333333, "bike_id": "f6dfb9473552e3d1f1b23977e808215a", "rental_uris": {"android": "https://dc.lft.to/lastmile_qr_scan", "ios": "https://dc.lft.to/lastmile_qr_scan"}, "name": "f6dfb9473552e3d1f1b23977e808215a", "is_reserved": 0}, {"is_disabled": 0, "fusion_lon": 0.0, "fusion_lat": 0.0, "lat": 38.883728833333336, "type": "electric_scooter", "lon": -76.92374866666667, "bike_id": "4b0394be97ed66d35e3e3a022150b451", "rental_uris": {"android": "https://dc.lft.to/lastmile_qr_scan", "ios": "https://dc.lft.to/lastmile_qr_scan"}, "name": "4b0394be97ed66d35e3e3a022150b451", "is_reserved": 0}, {"is_disabled": 0, "fusion_lon": 0.0, "fusion_lat": 0.0, "lat": 38.916275666666664, "type": "electric_scooter", "lon": -77.04078183333333, "bike_id": "cbca34ffc0f82bde62ed7707a5e265ce", "rental_uris": {"android": "https://dc.lft.to/lastmile_qr_scan", "ios": "https://dc.lft.to/lastmile_qr_scan"}, "name": "cbca34ffc0f82bde62ed7707a5e265ce", "is_reserved": 0}, {"is_disabled": 0, "fusion_lon": 0.0, "fusion_lat": 0.0, "lat": 38.93698933333334, "type": "electric_scooter", "lon": -77.05598933333333, "bike_id": "d3b92999e49c729bfc8ef289814ef147", "rental_uris": {"android": "https://dc.lft.to/lastmile_qr_scan", "ios": "https://dc.lft.to/lastmile_qr_scan"}, "name": "d3b92999e49c729bfc8ef289814ef147", "is_reserved": 0}, {"is_disabled": 0, "fusion_lon": 0.0, "fusion_lat": 0.0, "lat": 38.916969333333334, "type": "electric_scooter", "lon": -77.01167983333333, "bike_id": "829b0f1344ab0d8b584cef9935ee7760", "rental_uris": {"android": "https://dc.lft.to/lastmile_qr_scan", "ios": "https://dc.lft.to/lastmile_qr_scan"}, "name": "829b0f1344ab0d8b584cef9935ee7760", "is_reserved": 0}, {"is_disabled": 0, "fusion_lon": 0.0, "fusion_lat": 0.0, "lat": 38.917015166666665, "type": "electric_scooter", "lon": -77.02741716666667, "bike_id": "16d983183936342b5303d8b4d54a064b", "rental_uris": {"android": "https://dc.lft.to/lastmile_qr_scan", "ios": "https://dc.lft.to/lastmile_qr_scan"}, "name": "16d983183936342b5303d8b4d54a064b", "is_reserved": 0}, {"is_disabled": 0, "fusion_lon": 0.0, "fusion_lat": 0.0, "lat": 38.903902333333335, "type": "electric_scooter", "lon": -77.05367566666666, "bike_id": "2345fe64514d80fe4a16600a1274a6d4", "rental_uris": {"android": "https://dc.lft.to/lastmile_qr_scan", "ios": "https://dc.lft.to/lastmile_qr_scan"}, "name": "2345fe64514d80fe4a16600a1274a6d4", "is_reserved": 0}, {"is_disabled": 0, "fusion_lon": 0.0, "fusion_lat": 0.0, "lat": 38.91313733333333, "type": "electric_scooter", "lon": -77.01435, "bike_id": "ab46d071d8ae6644649fa4c627babdc7", "rental_uris": {"android": "https://dc.lft.to/lastmile_qr_scan", "ios": "https://dc.lft.to/lastmile_qr_scan"}, "name": "ab46d071d8ae6644649fa4c627babdc7", "is_reserved": 0}, {"is_disabled": 0, "fusion_lon": 0.0, "fusion_lat": 0.0, "lat": 38.84930883333333, "type": "electric_bike", "lon": -77.100113, "bike_id": "491ab556d9d7bf3ea9b6d2664583aa6b", "rental_uris": {"android": "https://dc.lft.to/lastmile_qr_scan", "ios": "https://dc.lft.to/lastmile_qr_scan"}, "name": "491ab556d9d7bf3ea9b6d2664583aa6b", "is_reserved": 0}, {"is_disabled": 0, "fusion_lon": 0.0, "fusion_lat": 0.0, "lat": 38.87052716666667, "type": "electric_scooter", "lon": -76.980826, "bike_id": "34d4e5c1b318f1a4b35d267ce4e66494", "rental_uris": {"android": "https://dc.lft.to/lastmile_qr_scan", "ios": "https://dc.lft.to/lastmile_qr_scan"}, "name": "34d4e5c1b318f1a4b35d267ce4e66494", "is_reserved": 0}, {"is_disabled": 0, "fusion_lon": 0.0, "fusion_lat": 0.0, "lat": 38.856486833333335, "type": "electric_bike", "lon": -77.08525283333333, "bike_id": "6ad51a79d509e88838ef8d52a1ab43b7", "rental_uris": {"android": "https://dc.lft.to/lastmile_qr_scan", "ios": "https://dc.lft.to/lastmile_qr_scan"}, "name": "6ad51a79d509e88838ef8d52a1ab43b7", "is_reserved": 0}, {"is_disabled": 0, "fusion_lon": 0.0, "fusion_lat": 0.0, "lat": 38.9563745, "type": "electric_scooter", "lon": -77.09099433333333, "bike_id": "b3ba1bec051f4dc239bf1dd0b8520816", "rental_uris": {"android": "https://dc.lft.to/lastmile_qr_scan", "ios": "https://dc.lft.to/lastmile_qr_scan"}, "name": "b3ba1bec051f4dc239bf1dd0b8520816", "is_reserved": 0}, {"is_disabled": 0, "fusion_lon": 0.0, "fusion_lat": 0.0, "lat": 38.90744133333333, "type": "electric_scooter", "lon": -77.00107616666666, "bike_id": "890adad2aa911d51501e78dbabcccce9", "rental_uris": {"android": "https://dc.lft.to/lastmile_qr_scan", "ios": "https://dc.lft.to/lastmile_qr_scan"}, "name": "890adad2aa911d51501e78dbabcccce9", "is_reserved": 0}, {"is_disabled": 0, "fusion_lon": 0.0, "fusion_lat": 0.0, "lat": 38.88612366666667, "type": "electric_scooter", "lon": -77.00578516666667, "bike_id": "47f8a82783232aa8870e605f75a9f862", "rental_uris": {"android": "https://dc.lft.to/lastmile_qr_scan", "ios": "https://dc.lft.to/lastmile_qr_scan"}, "name": "47f8a82783232aa8870e605f75a9f862", "is_reserved": 0}, {"is_disabled": 0, "fusion_lon": 0.0, "fusion_lat": 0.0, "lat": 38.88683916666667, "type": "electric_scooter", "lon": -76.9879305, "bike_id": "e0b807c9382d3158bdcbd33567125a38", "rental_uris": {"android": "https://dc.lft.to/lastmile_qr_scan", "ios": "https://dc.lft.to/lastmile_qr_scan"}, "name": "e0b807c9382d3158bdcbd33567125a38", "is_reserved": 0}, {"is_disabled": 0, "fusion_lon": 0.0, "fusion_lat": 0.0, "lat": 38.918981333333335, "type": "electric_scooter", "lon": -77.0239405, "bike_id": "0ee50d9085f126251101d42a80c1001f", "rental_uris": {"android": "https://dc.lft.to/lastmile_qr_scan", "ios": "https://dc.lft.to/lastmile_qr_scan"}, "name": "0ee50d9085f126251101d42a80c1001f", "is_reserved": 0}, {"is_disabled": 0, "fusion_lon": 0.0, "fusion_lat": 0.0, "lat": 38.80295383333333, "type": "electric_bike", "lon": -77.0398455, "bike_id": "b6f87ffd7972b852ba7a32482c9e6d36", "rental_uris": {"android": "https://dc.lft.to/lastmile_qr_scan", "ios": "https://dc.lft.to/lastmile_qr_scan"}, "name": "b6f87ffd7972b852ba7a32482c9e6d36", "is_reserved": 0}, {"is_disabled": 0, "fusion_lon": 0.0, "fusion_lat": 0.0, "lat": 38.90803066666667, "type": "electric_scooter", "lon": -77.03399166666667, "bike_id": "cb8eee5399a3620ce1a9c78acb540bc3", "rental_uris": {"android": "https://dc.lft.to/lastmile_qr_scan", "ios": "https://dc.lft.to/lastmile_qr_scan"}, "name": "cb8eee5399a3620ce1a9c78acb540bc3", "is_reserved": 0}, {"is_disabled": 0, "fusion_lon": 0.0, "fusion_lat": 0.0, "lat": 38.8549035, "type": "electric_bike", "lon": -77.12033016666666, "bike_id": "08884bde01dd2f3078e16873695bfe06", "rental_uris": {"android": "https://dc.lft.to/lastmile_qr_scan", "ios": "https://dc.lft.to/lastmile_qr_scan"}, "name": "08884bde01dd2f3078e16873695bfe06", "is_reserved": 0}, {"is_disabled": 0, "fusion_lon": 0.0, "fusion_lat": 0.0, "lat": 38.922310833333334, "type": "electric_scooter", "lon": -77.03316566666666, "bike_id": "626d71fdebfedec0dee0cfce1497a926", "rental_uris": {"android": "https://dc.lft.to/lastmile_qr_scan", "ios": "https://dc.lft.to/lastmile_qr_scan"}, "name": "626d71fdebfedec0dee0cfce1497a926", "is_reserved": 0}, {"is_disabled": 0, "fusion_lon": 0.0, "fusion_lat": 0.0, "lat": 38.9365805, "type": "electric_scooter", "lon": -77.0591805, "bike_id": "24690d01e89a0e1b6f610dde0b43ecdb", "rental_uris": {"android": "https://dc.lft.to/lastmile_qr_scan", "ios": "https://dc.lft.to/lastmile_qr_scan"}, "name": "24690d01e89a0e1b6f610dde0b43ecdb", "is_reserved": 0}, {"is_disabled": 0, "fusion_lon": 0.0, "fusion_lat": 0.0, "lat": 38.906730833333334, "type": "electric_scooter", "lon": -77.02406416666666, "bike_id": "4258d3e8ec4a78886dee46cb9a17537a", "rental_uris": {"android": "https://dc.lft.to/lastmile_qr_scan", "ios": "https://dc.lft.to/lastmile_qr_scan"}, "name": "4258d3e8ec4a78886dee46cb9a17537a", "is_reserved": 0}, {"is_disabled": 0, "fusion_lon": 0.0, "fusion_lat": 0.0, "lat": 38.912693, "type": "electric_scooter", "lon": -77.01066916666667, "bike_id": "94c7195e056220ebbc9bdc18247a2bd8", "rental_uris": {"android": "https://dc.lft.to/lastmile_qr_scan", "ios": "https://dc.lft.to/lastmile_qr_scan"}, "name": "94c7195e056220ebbc9bdc18247a2bd8", "is_reserved": 0}, {"is_disabled": 0, "fusion_lon": 0.0, "fusion_lat": 0.0, "lat": 38.88739866666667, "type": "electric_scooter", "lon": -77.015348, "bike_id": "89f18327d753c89a42f521fd798ed648", "rental_uris": {"android": "https://dc.lft.to/lastmile_qr_scan", "ios": "https://dc.lft.to/lastmile_qr_scan"}, "name": "89f18327d753c89a42f521fd798ed648", "is_reserved": 0}, {"is_disabled": 0, "fusion_lon": 0.0, "fusion_lat": 0.0, "lat": 38.919498833333336, "type": "electric_scooter", "lon": -77.01385183333333, "bike_id": "8e145a62d8f641de3fe3ba2ad83ea78b", "rental_uris": {"android": "https://dc.lft.to/lastmile_qr_scan", "ios": "https://dc.lft.to/lastmile_qr_scan"}, "name": "8e145a62d8f641de3fe3ba2ad83ea78b", "is_reserved": 0}, {"is_disabled": 0, "fusion_lon": 0.0, "fusion_lat": 0.0, "lat": 38.88390416666667, "type": "electric_scooter", "lon": -77.024791, "bike_id": "6b96631d0e2988622b22619cc97fc4e1", "rental_uris": {"android": "https://dc.lft.to/lastmile_qr_scan", "ios": "https://dc.lft.to/lastmile_qr_scan"}, "name": "6b96631d0e2988622b22619cc97fc4e1", "is_reserved": 0}, {"is_disabled": 0, "fusion_lon": 0.0, "fusion_lat": 0.0, "lat": 38.895497666666664, "type": "electric_bike", "lon": -76.9836805, "bike_id": "c4c8d5da1a7822d92cbb0e1d5d4a9746", "rental_uris": {"android": "https://dc.lft.to/lastmile_qr_scan", "ios": "https://dc.lft.to/lastmile_qr_scan"}, "name": "c4c8d5da1a7822d92cbb0e1d5d4a9746", "is_reserved": 0}, {"is_disabled": 0, "fusion_lon": 0.0, "fusion_lat": 0.0, "lat": 38.93478916666667, "type": "electric_scooter", "lon": -77.02394816666667, "bike_id": "de40ebba78bacd72d1cbbe787dbac817", "rental_uris": {"android": "https://dc.lft.to/lastmile_qr_scan", "ios": "https://dc.lft.to/lastmile_qr_scan"}, "name": "de40ebba78bacd72d1cbbe787dbac817", "is_reserved": 0}, {"is_disabled": 0, "fusion_lon": 0.0, "fusion_lat": 0.0, "lat": 38.9066895, "type": "electric_scooter", "lon": -77.0343855, "bike_id": "aefc028faa8a9c7ea53955b8a4b08484", "rental_uris": {"android": "https://dc.lft.to/lastmile_qr_scan", "ios": "https://dc.lft.to/lastmile_qr_scan"}, "name": "aefc028faa8a9c7ea53955b8a4b08484", "is_reserved": 0}, {"is_disabled": 0, "fusion_lon": 0.0, "fusion_lat": 0.0, "lat": 38.91689866666667, "type": "electric_scooter", "lon": -77.03064566666667, "bike_id": "b266e7d55f1b171c64e9aa0da9ded521", "rental_uris": {"android": "https://dc.lft.to/lastmile_qr_scan", "ios": "https://dc.lft.to/lastmile_qr_scan"}, "name": "b266e7d55f1b171c64e9aa0da9ded521", "is_reserved": 0}, {"is_disabled": 0, "fusion_lon": 0.0, "fusion_lat": 0.0, "lat": 38.9171415, "type": "electric_scooter", "lon": -77.02889366666666, "bike_id": "346dcafb40ca4f01417690139000ab08", "rental_uris": {"android": "https://dc.lft.to/lastmile_qr_scan", "ios": "https://dc.lft.to/lastmile_qr_scan"}, "name": "346dcafb40ca4f01417690139000ab08", "is_reserved": 0}, {"is_disabled": 0, "fusion_lon": 0.0, "fusion_lat": 0.0, "lat": 38.9360155, "type": "electric_scooter", "lon": -77.0559785, "bike_id": "6713339fec764498cbf2ef6088a7bd92", "rental_uris": {"android": "https://dc.lft.to/lastmile_qr_scan", "ios": "https://dc.lft.to/lastmile_qr_scan"}, "name": "6713339fec764498cbf2ef6088a7bd92", "is_reserved": 0}, {"is_disabled": 0, "fusion_lon": 0.0, "fusion_lat": 0.0, "lat": 38.922101166666664, "type": "electric_scooter", "lon": -77.0423535, "bike_id": "fe992ad46fac5f76d5e1ad0d42cda886", "rental_uris": {"android": "https://dc.lft.to/lastmile_qr_scan", "ios": "https://dc.lft.to/lastmile_qr_scan"}, "name": "fe992ad46fac5f76d5e1ad0d42cda886", "is_reserved": 0}, {"is_disabled": 0, "fusion_lon": 0.0, "fusion_lat": 0.0, "lat": 38.91546533333333, "type": "electric_scooter", "lon": -77.038003, "bike_id": "aebabd39b978cf687d5d83bdf987e093", "rental_uris": {"android": "https://dc.lft.to/lastmile_qr_scan", "ios": "https://dc.lft.to/lastmile_qr_scan"}, "name": "aebabd39b978cf687d5d83bdf987e093", "is_reserved": 0}, {"is_disabled": 0, "fusion_lon": 0.0, "fusion_lat": 0.0, "lat": 38.905239, "type": "electric_scooter", "lon": -77.0678465, "bike_id": "a77e78a86df1f04a8878c96aebb897df", "rental_uris": {"android": "https://dc.lft.to/lastmile_qr_scan", "ios": "https://dc.lft.to/lastmile_qr_scan"}, "name": "a77e78a86df1f04a8878c96aebb897df", "is_reserved": 0}, {"is_disabled": 0, "fusion_lon": 0.0, "fusion_lat": 0.0, "lat": 38.903328333333334, "type": "electric_scooter", "lon": -76.97593633333334, "bike_id": "25c8dc5d6e9ef12ecfc1192c4cc8dcaa", "rental_uris": {"android": "https://dc.lft.to/lastmile_qr_scan", "ios": "https://dc.lft.to/lastmile_qr_scan"},