{"data": {"bikes": [{"lon": -77.01988266666666, "bike_id": "3343ad567f2912502fd69ab92677d680", "lat": 38.89533083333333, "fusion_lon": 0.0, "fusion_lat": 0.0, "type": "electric_scooter", "name": "3343ad567f2912502fd69ab92677d680", "is_disabled": 0, "rental_uris": {"ios": "https://dc.lft.to/lastmile_qr_scan", "android": "https://dc.lft.to/lastmile_qr_scan"}, "is_reserved": 0}, {"lon": -76.98510183333333, "bike_id": "b0fc9acc00fed876420b922a2dfdcd7d", "lat": 38.903433, "fusion_lon": 0.0, "fusion_lat": 0.0, "type": "electric_scooter", "name": "b0fc9acc00fed876420b922a2dfdcd7d", "is_disabled": 0, "rental_uris": {"ios": "https://dc.lft.to/lastmile_qr_scan", "android": "https://dc.lft.to/lastmile_qr_scan"}, "is_reserved": 0}, {"lon": -77.02464983333333, "bike_id": "f520187f530364080ee172a47664a7d3", "lat": 38.9371085, "fusion_lon": 0.0, "fusion_lat": 0.0, "type": "electric_scooter", "name": "f520187f530364080ee172a47664a7d3", "is_disabled": 0, "rental_uris": {"ios": "https://dc.lft.to/lastmile_qr_scan", "android": "https://dc.lft.to/lastmile_qr_scan"}, "is_reserved": 0}, {"lon": -77.02084983333333, "bike_id": "28a93bf1346072e5ef4feb7ba5fe22a9", "lat": 38.88186233333333, "fusion_lon": 0.0, "fusion_lat": 0.0, "type": "electric_scooter", "name": "28a93bf1346072e5ef4feb7ba5fe22a9", "is_disabled": 0, "rental_uris": {"ios": "https://dc.lft.to/lastmile_qr_scan", "android": "https://dc.lft.to/lastmile_qr_scan"}, "is_reserved": 0}, {"lon": -77.02484483333333, "bike_id": "615dae1b1e9dfa093cc3fb6a30496127", "lat": 38.880101, "fusion_lon": 0.0, "fusion_lat": 0.0, "type": "electric_scooter", "name": "615dae1b1e9dfa093cc3fb6a30496127", "is_disabled": 0, "rental_uris": {"ios": "https://dc.lft.to/lastmile_qr_scan", "android": "https://dc.lft.to/lastmile_qr_scan"}, "is_reserved": 0}, {"lon": -77.04041733333334, "bike_id": "35915d50aa686253fd014c69352a90a2", "lat": 38.91268866666667, "fusion_lon": 0.0, "fusion_lat": 0.0, "type": "electric_scooter", "name": "35915d50aa686253fd014c69352a90a2", "is_disabled": 0, "rental_uris": {"ios": "https://dc.lft.to/lastmile_qr_scan", "android": "https://dc.lft.to/lastmile_qr_scan"}, "is_reserved": 0}, {"lon": -77.0346305, "bike_id": "4bae189e62dd43542e94479ad605bd0e", "lat": 38.91664216666667, "fusion_lon": 0.0, "fusion_lat": 0.0, "type": "electric_scooter", "name": "4bae189e62dd43542e94479ad605bd0e", "is_disabled": 0, "rental_uris": {"ios": "https://dc.lft.to/lastmile_qr_scan", "android": "https://dc.lft.to/lastmile_qr_scan"}, "is_reserved": 0}, {"lon": -76.9457845, "bike_id": "c95d6e4ed6ffdb62427230c9c15e2de6", "lat": 38.937471333333335, "fusion_lon": 0.0, "fusion_lat": 0.0, "type": "electric_bike", "name": "c95d6e4ed6ffdb62427230c9c15e2de6", "is_disabled": 0, "rental_uris": {"ios": "https://dc.lft.to/lastmile_qr_scan", "android": "https://dc.lft.to/lastmile_qr_scan"}, "is_reserved": 0}, {"lon": -77.0231605, "bike_id": "277e6949559717e7cd4e557ae8dd5a08", "lat": 38.955231166666664, "fusion_lon": 0.0, "fusion_lat": 0.0, "type": "electric_scooter", "name": "277e6949559717e7cd4e557ae8dd5a08", "is_disabled": 0, "rental_uris": {"ios": "https://dc.lft.to/lastmile_qr_scan", "android": "https://dc.lft.to/lastmile_qr_scan"}, "is_reserved": 0}, {"lon": -77.04324366666667, "bike_id": "19aebe85fdf0bc5f165fe09ca0b1342c", "lat": 38.91879433333333, "fusion_lon": 0.0, "fusion_lat": 0.0, "type": "electric_scooter", "name": "19aebe85fdf0bc5f165fe09ca0b1342c", "is_disabled": 0, "rental_uris": {"ios": "https://dc.lft.to/lastmile_qr_scan", "android": "https://dc.lft.to/lastmile_qr_scan"}, "is_reserved": 0}, {"lon": -77.03889166666667, "bike_id": "3a7151df391ae3a03125709a5e62fb05", "lat": 38.90710766666667, "fusion_lon": 0.0, "fusion_lat": 0.0, "type": "electric_scooter", "name": "3a7151df391ae3a03125709a5e62fb05", "is_disabled": 0, "rental_uris": {"ios": "https://dc.lft.to/lastmile_qr_scan", "android": "https://dc.lft.to/lastmile_qr_scan"}, "is_reserved": 0}, {"lon": -77.0237345, "bike_id": "97fb7738752ac61eff621f158c0c117b", "lat": 38.90630183333333, "fusion_lon": 0.0, "fusion_lat": 0.0, "type": "electric_scooter", "name": "97fb7738752ac61eff621f158c0c117b", "is_disabled": 0, "rental_uris": {"ios": "https://dc.lft.to/lastmile_qr_scan", "android": "https://dc.lft.to/lastmile_qr_scan"}, "is_reserved": 0}, {"lon": -77.032699, "bike_id": "b28d40c2076de656c49484a4011034fc", "lat": 38.919982, "fusion_lon": 0.0, "fusion_lat": 0.0, "type": "electric_scooter", "name": "b28d40c2076de656c49484a4011034fc", "is_disabled": 0, "rental_uris": {"ios": "https://dc.lft.to/lastmile_qr_scan", "android": "https://dc.lft.to/lastmile_qr_scan"}, "is_reserved": 0}, {"lon": -77.02969833333333, "bike_id": "6e44d8590755579a47932926a8cb6243", "lat": 38.922880666666664, "fusion_lon": 0.0, "fusion_lat": 0.0, "type": "electric_scooter", "name": "6e44d8590755579a47932926a8cb6243", "is_disabled": 0, "rental_uris": {"ios": "https://dc.lft.to/lastmile_qr_scan", "android": "https://dc.lft.to/lastmile_qr_scan"}, "is_reserved": 0}, {"lon": -77.02766, "bike_id": "6bde03267c7d5e8bc95b860d15c9d0a2", "lat": 38.95422416666667, "fusion_lon": 0.0, "fusion_lat": 0.0, "type": "electric_scooter", "name": "6bde03267c7d5e8bc95b860d15c9d0a2", "is_disabled": 0, "rental_uris": {"ios": "https://dc.lft.to/lastmile_qr_scan", "android": "https://dc.lft.to/lastmile_qr_scan"}, "is_reserved": 0}, {"lon": -77.04320716666666, "bike_id": "03e953692dc4fd9d0e5151717f76f525", "lat": 38.923677166666664, "fusion_lon": 0.0, "fusion_lat": 0.0, "type": "electric_scooter", "name": "03e953692dc4fd9d0e5151717f76f525", "is_disabled": 0, "rental_uris": {"ios": "https://dc.lft.to/lastmile_qr_scan", "android": "https://dc.lft.to/lastmile_qr_scan"}, "is_reserved": 0}, {"lon": -76.96598966666667, "bike_id": "ae50ea393daf21ded945314932f2efa0", "lat": 38.87111983333333, "fusion_lon": 0.0, "fusion_lat": 0.0, "type": "electric_scooter", "name": "ae50ea393daf21ded945314932f2efa0", "is_disabled": 0, "rental_uris": {"ios": "https://dc.lft.to/lastmile_qr_scan", "android": "https://dc.lft.to/lastmile_qr_scan"}, "is_reserved": 0}, {"lon": -77.0202285, "bike_id": "512a6d91cd7f9b97a7125d93084c2fd3", "lat": 38.905579833333334, "fusion_lon": 0.0, "fusion_lat": 0.0, "type": "electric_scooter", "name": "512a6d91cd7f9b97a7125d93084c2fd3", "is_disabled": 0, "rental_uris": {"ios": "https://dc.lft.to/lastmile_qr_scan", "android": "https://dc.lft.to/lastmile_qr_scan"}, "is_reserved": 0}, {"lon": -77.04015783333334, "bike_id": "501be88b85262be5c0e3085684b717d9", "lat": 38.92169116666667, "fusion_lon": 0.0, "fusion_lat": 0.0, "type": "electric_scooter", "name": "501be88b85262be5c0e3085684b717d9", "is_disabled": 0, "rental_uris": {"ios": "https://dc.lft.to/lastmile_qr_scan", "android": "https://dc.lft.to/lastmile_qr_scan"}, "is_reserved": 0}, {"lon": -77.0263485, "bike_id": "3f137750a674bf3b36f3d84e57d4a8f4", "lat": 38.962109833333336, "fusion_lon": 0.0, "fusion_lat": 0.0, "type": "electric_bike", "name": "3f137750a674bf3b36f3d84e57d4a8f4", "is_disabled": 0, "rental_uris": {"ios": "https://dc.lft.to/lastmile_qr_scan", "android": "https://dc.lft.to/lastmile_qr_scan"}, "is_reserved": 0}, {"lon": -77.0445915, "bike_id": "97dc98ba2bfa716698b4f7aece172ada", "lat": 38.91844416666667, "fusion_lon": 0.0, "fusion_lat": 0.0, "type": "electric_scooter", "name": "97dc98ba2bfa716698b4f7aece172ada", "is_disabled": 0, "rental_uris": {"ios": "https://dc.lft.to/lastmile_qr_scan", "android": "https://dc.lft.to/lastmile_qr_scan"}, "is_reserved": 0}, {"lon": -77.02295916666667, "bike_id": "b7a88faaaec1784563187150fa4d6efa", "lat": 38.92229016666667, "fusion_lon": 0.0, "fusion_lat": 0.0, "type": "electric_scooter", "name": "b7a88faaaec1784563187150fa4d6efa", "is_disabled": 0, "rental_uris": {"ios": "https://dc.lft.to/lastmile_qr_scan", "android": "https://dc.lft.to/lastmile_qr_scan"}, "is_reserved": 0}, {"lon": -77.00839383333333, "bike_id": "19bdb899aa2ca1b1dada8aacb1ea738c", "lat": 38.876385166666665, "fusion_lon": 0.0, "fusion_lat": 0.0, "type": "electric_scooter", "name": "19bdb899aa2ca1b1dada8aacb1ea738c", "is_disabled": 0, "rental_uris": {"ios": "https://dc.lft.to/lastmile_qr_scan", "android": "https://dc.lft.to/lastmile_qr_scan"}, "is_reserved": 0}, {"lon": -77.03462583333334, "bike_id": "117959eef1422805f2306650a911446a", "lat": 38.93430333333333, "fusion_lon": 0.0, "fusion_lat": 0.0, "type": "electric_scooter", "name": "117959eef1422805f2306650a911446a", "is_disabled": 0, "rental_uris": {"ios": "https://dc.lft.to/lastmile_qr_scan", "android": "https://dc.lft.to/lastmile_qr_scan"}, "is_reserved": 0}, {"lon": -77.03128933333333, "bike_id": "0646ffd13de6ed1baab309b5b8a5fee4", "lat": 38.904457666666666, "fusion_lon": 0.0, "fusion_lat": 0.0, "type": "electric_scooter", "name": "0646ffd13de6ed1baab309b5b8a5fee4", "is_disabled": 0, "rental_uris": {"ios": "https://dc.lft.to/lastmile_qr_scan", "android": "https://dc.lft.to/lastmile_qr_scan"}, "is_reserved": 0}, {"lon": -77.139031, "bike_id": "2e2bac5c5549dbc623efcd4ba6135f8b", "lat": 38.89672683333333, "fusion_lon": 0.0, "fusion_lat": 0.0, "type": "electric_bike", "name": "2e2bac5c5549dbc623efcd4ba6135f8b", "is_disabled": 0, "rental_uris": {"ios": "https://dc.lft.to/lastmile_qr_scan", "android": "https://dc.lft.to/lastmile_qr_scan"}, "is_reserved": 0}, {"lon": -77.05913183333334, "bike_id": "522059ebb49c3e229c8655eeb09e5b40", "lat": 38.903832, "fusion_lon": 0.0, "fusion_lat": 0.0, "type": "electric_scooter", "name": "522059ebb49c3e229c8655eeb09e5b40", "is_disabled": 0, "rental_uris": {"ios": "https://dc.lft.to/lastmile_qr_scan", "android": "https://dc.lft.to/lastmile_qr_scan"}, "is_reserved": 0}, {"lon": -77.0442725, "bike_id": "49df30e2222f08f506689807f3587650", "lat": 38.921112666666666, "fusion_lon": 0.0, "fusion_lat": 0.0, "type": "electric_scooter", "name": "49df30e2222f08f506689807f3587650", "is_disabled": 0, "rental_uris": {"ios": "https://dc.lft.to/lastmile_qr_scan", "android": "https://dc.lft.to/lastmile_qr_scan"}, "is_reserved": 0}, {"lon": -77.0184215, "bike_id": "3002ae915bcb0f87c1026cad27887cfc", "lat": 38.912697, "fusion_lon": 0.0, "fusion_lat": 0.0, "type": "electric_scooter", "name": "3002ae915bcb0f87c1026cad27887cfc", "is_disabled": 0, "rental_uris": {"ios": "https://dc.lft.to/lastmile_qr_scan", "android": "https://dc.lft.to/lastmile_qr_scan"}, "is_reserved": 0}, {"lon": -77.0148195, "bike_id": "88df0760c554213758d9c4bd290a785b", "lat": 38.958698, "fusion_lon": 0.0, "fusion_lat": 0.0, "type": "electric_scooter", "name": "88df0760c554213758d9c4bd290a785b", "is_disabled": 0, "rental_uris": {"ios": "https://dc.lft.to/lastmile_qr_scan", "android": "https://dc.lft.to/lastmile_qr_scan"}, "is_reserved": 0}, {"lon": -77.11575416666666, "bike_id": "93c778d169f71f8102e682b64c0accc9", "lat": 38.993447, "fusion_lon": 0.0, "fusion_lat": 0.0, "type": "electric_bike", "name": "93c778d169f71f8102e682b64c0accc9", "is_disabled": 0, "rental_uris": {"ios": "https://dc.lft.to/lastmile_qr_scan", "android": "https://dc.lft.to/lastmile_qr_scan"}, "is_reserved": 0}, {"lon": -77.02610583333333, "bike_id": "edfaac11a3c5296fdb94e12b03396b4c", "lat": 38.929873, "fusion_lon": 0.0, "fusion_lat": 0.0, "type": "electric_scooter", "name": "edfaac11a3c5296fdb94e12b03396b4c", "is_disabled": 0, "rental_uris": {"ios": "https://dc.lft.to/lastmile_qr_scan", "android": "https://dc.lft.to/lastmile_qr_scan"}, "is_reserved": 0}, {"lon": -77.080692, "bike_id": "2fa793c0427172f5d7bf38193b0a753c", "lat": 38.963165000000004, "fusion_lon": 0.0, "fusion_lat": 0.0, "type": "electric_bike", "name": "2fa793c0427172f5d7bf38193b0a753c", "is_disabled": 0, "rental_uris": {"ios": "https://dc.lft.to/lastmile_qr_scan", "android": "https://dc.lft.to/lastmile_qr_scan"}, "is_reserved": 0}, {"lon": -77.014171, "bike_id": "228bd8162766a9c9565c423199101a85", "lat": 38.9065305, "fusion_lon": 0.0, "fusion_lat": 0.0, "type": "electric_scooter", "name": "228bd8162766a9c9565c423199101a85", "is_disabled": 0, "rental_uris": {"ios": "https://dc.lft.to/lastmile_qr_scan", "android": "https://dc.lft.to/lastmile_qr_scan"}, "is_reserved": 0}, {"lon": -77.00344233333334, "bike_id": "19e4c88eb56a1c905211921a12c6572d", "lat": 38.8952595, "fusion_lon": 0.0, "fusion_lat": 0.0, "type": "electric_scooter", "name": "19e4c88eb56a1c905211921a12c6572d", "is_disabled": 0, "rental_uris": {"ios": "https://dc.lft.to/lastmile_qr_scan", "android": "https://dc.lft.to/lastmile_qr_scan"}, "is_reserved": 0}, {"lon": -77.01756683333333, "bike_id": "8212aa2d32a629efae6f2d46113a1056", "lat": 38.90374666666666, "fusion_lon": 0.0, "fusion_lat": 0.0, "type": "electric_scooter", "name": "8212aa2d32a629efae6f2d46113a1056", "is_disabled": 0, "rental_uris": {"ios": "https://dc.lft.to/lastmile_qr_scan", "android": "https://dc.lft.to/lastmile_qr_scan"}, "is_reserved": 0}, {"lon": -76.99376916666667, "bike_id": "20836c4c4749e0aa8ef947365055c1e7", "lat": 38.97184516666667, "fusion_lon": 0.0, "fusion_lat": 0.0, "type": "electric_bike", "name": "20836c4c4749e0aa8ef947365055c1e7", "is_disabled": 0, "rental_uris": {"ios": "https://dc.lft.to/lastmile_qr_scan", "android": "https://dc.lft.to/lastmile_qr_scan"}, "is_reserved": 0}, {"lon": -76.99938133333333, "bike_id": "1faf9f91326c44f3febfe2402d4d033c", "lat": 38.84299733333334, "fusion_lon": 0.0, "fusion_lat": 0.0, "type": "electric_scooter", "name": "1faf9f91326c44f3febfe2402d4d033c", "is_disabled": 0, "rental_uris": {"ios": "https://dc.lft.to/lastmile_qr_scan", "android": "https://dc.lft.to/lastmile_qr_scan"}, "is_reserved": 0}, {"lon": -76.94874333333334, "bike_id": "197f99fdc7e88273ba25bb50f34022f8", "lat": 38.895494, "fusion_lon": 0.0, "fusion_lat": 0.0, "type": "electric_scooter", "name": "197f99fdc7e88273ba25bb50f34022f8", "is_disabled": 0, "rental_uris": {"ios": "https://dc.lft.to/lastmile_qr_scan", "android": "https://dc.lft.to/lastmile_qr_scan"}, "is_reserved": 0}, {"lon": -77.07009316666667, "bike_id": "edd1fb43de5f62a5875d2123ee4248af", "lat": 38.958497333333334, "fusion_lon": 0.0, "fusion_lat": 0.0, "type": "electric_scooter", "name": "edd1fb43de5f62a5875d2123ee4248af", "is_disabled": 0, "rental_uris": {"ios": "https://dc.lft.to/lastmile_qr_scan", "android": "https://dc.lft.to/lastmile_qr_scan"}, "is_reserved": 0}, {"lon": -77.031605, "bike_id": "fde0368d5f2f82391668b4b89241bd89", "lat": 38.93606533333333, "fusion_lon": 0.0, "fusion_lat": 0.0, "type": "electric_scooter", "name": "fde0368d5f2f82391668b4b89241bd89", "is_disabled": 0, "rental_uris": {"ios": "https://dc.lft.to/lastmile_qr_scan", "android": "https://dc.lft.to/lastmile_qr_scan"}, "is_reserved": 0}, {"lon": -77.03130966666667, "bike_id": "943aaf10ee72af387543e6e51e68c90a", "lat": 38.9170625, "fusion_lon": 0.0, "fusion_lat": 0.0, "type": "electric_scooter", "name": "943aaf10ee72af387543e6e51e68c90a", "is_disabled": 0, "rental_uris": {"ios": "https://dc.lft.to/lastmile_qr_scan", "android": "https://dc.lft.to/lastmile_qr_scan"}, "is_reserved": 0}, {"lon": -77.0271895, "bike_id": "037ce7958ae2a28f0b17c631d038bf63", "lat": 38.97233966666667, "fusion_lon": 0.0, "fusion_lat": 0.0, "type": "electric_scooter", "name": "037ce7958ae2a28f0b17c631d038bf63", "is_disabled": 0, "rental_uris": {"ios": "https://dc.lft.to/lastmile_qr_scan", "android": "https://dc.lft.to/lastmile_qr_scan"}, "is_reserved": 0}, {"lon": -77.03779266666666, "bike_id": "6e2c4b4d90bd3c791100497b29264673", "lat": 38.9026775, "fusion_lon": 0.0, "fusion_lat": 0.0, "type": "electric_scooter", "name": "6e2c4b4d90bd3c791100497b29264673", "is_disabled": 0, "rental_uris": {"ios": "https://dc.lft.to/lastmile_qr_scan", "android": "https://dc.lft.to/lastmile_qr_scan"}, "is_reserved": 0}, {"lon": -77.020897, "bike_id": "e364d1a161473d48b31fbccd8f95ade4", "lat": 38.94524583333333, "fusion_lon": 0.0, "fusion_lat": 0.0, "type": "electric_scooter", "name": "e364d1a161473d48b31fbccd8f95ade4", "is_disabled": 0, "rental_uris": {"ios": "https://dc.lft.to/lastmile_qr_scan", "android": "https://dc.lft.to/lastmile_qr_scan"}, "is_reserved": 0}, {"lon": -77.052472, "bike_id": "a26a556053ec92a25f2a6cc3ea874446", "lat": 38.92374083333333, "fusion_lon": 0.0, "fusion_lat": 0.0, "type": "electric_scooter", "name": "a26a556053ec92a25f2a6cc3ea874446", "is_disabled": 0, "rental_uris": {"ios": "https://dc.lft.to/lastmile_qr_scan", "android": "https://dc.lft.to/lastmile_qr_scan"}, "is_reserved": 0}, {"lon": -77.024408, "bike_id": "91017e77aa24ef1bfa4a7f5a5ce0057c", "lat": 38.91691766666667, "fusion_lon": 0.0, "fusion_lat": 0.0, "type": "electric_scooter", "name": "91017e77aa24ef1bfa4a7f5a5ce0057c", "is_disabled": 0, "rental_uris": {"ios": "https://dc.lft.to/lastmile_qr_scan", "android": "https://dc.lft.to/lastmile_qr_scan"}, "is_reserved": 0}, {"lon": -76.9237545, "bike_id": "14b2d6acc12d7b66438f407bebf18cf8", "lat": 38.88376183333333, "fusion_lon": 0.0, "fusion_lat": 0.0, "type": "electric_bike", "name": "14b2d6acc12d7b66438f407bebf18cf8", "is_disabled": 0, "rental_uris": {"ios": "https://dc.lft.to/lastmile_qr_scan", "android": "https://dc.lft.to/lastmile_qr_scan"}, "is_reserved": 0}, {"lon": -77.02303216666667, "bike_id": "51763a3a72eead0b69d770094ec09d0a", "lat": 38.928329833333336, "fusion_lon": 0.0, "fusion_lat": 0.0, "type": "electric_scooter", "name": "51763a3a72eead0b69d770094ec09d0a", "is_disabled": 0, "rental_uris": {"ios": "https://dc.lft.to/lastmile_qr_scan", "android": "https://dc.lft.to/lastmile_qr_scan"}, "is_reserved": 0}, {"lon": -77.04298316666667, "bike_id": "e23b625f0c181dd0daed419d4fb65957", "lat": 38.90550566666667, "fusion_lon": 0.0, "fusion_lat": 0.0, "type": "electric_scooter", "name": "e23b625f0c181dd0daed419d4fb65957", "is_disabled": 0, "rental_uris": {"ios": "https://dc.lft.to/lastmile_qr_scan", "android": "https://dc.lft.to/lastmile_qr_scan"}, "is_reserved": 0}, {"lon": -76.98059933333333, "bike_id": "7df65f984bb2e508cc348f14b486dda9", "lat": 38.884879833333336, "fusion_lon": 0.0, "fusion_lat": 0.0, "type": "electric_scooter", "name": "7df65f984bb2e508cc348f14b486dda9", "is_disabled": 0, "rental_uris": {"ios": "https://dc.lft.to/lastmile_qr_scan", "android": "https://dc.lft.to/lastmile_qr_scan"}, "is_reserved": 0}, {"lon": -77.03537783333333, "bike_id": "b1ff284db4255980f14525a5c1e57341", "lat": 38.923433833333334, "fusion_lon": 0.0, "fusion_lat": 0.0, "type": "electric_scooter", "name": "b1ff284db4255980f14525a5c1e57341", "is_disabled": 0, "rental_uris": {"ios": "https://dc.lft.to/lastmile_qr_scan", "android": "https://dc.lft.to/lastmile_qr_scan"}, "is_reserved": 0}, {"lon": -77.0904385, "bike_id": "042cd0400a98798ca6f0c11dd5ed3bd7", "lat": 38.849715333333336, "fusion_lon": 0.0, "fusion_lat": 0.0, "type": "electric_bike", "name": "042cd0400a98798ca6f0c11dd5ed3bd7", "is_disabled": 0, "rental_uris": {"ios": "https://dc.lft.to/lastmile_qr_scan", "android": "https://dc.lft.to/lastmile_qr_scan"}, "is_reserved": 0}, {"lon": -77.03038783333334, "bike_id": "bdc2dfbab55b21418d9b43e69779b667", "lat": 38.937154, "fusion_lon": 0.0, "fusion_lat": 0.0, "type": "electric_scooter", "name": "bdc2dfbab55b21418d9b43e69779b667", "is_disabled": 0, "rental_uris": {"ios": "https://dc.lft.to/lastmile_qr_scan", "android": "https://dc.lft.to/lastmile_qr_scan"}, "is_reserved": 0}, {"lon": -76.97396283333333, "bike_id": "a8f2b3391c9a9851f6cf4b4f8a57f706", "lat": 38.90295966666667, "fusion_lon": 0.0, "fusion_lat": 0.0, "type": "electric_scooter", "name": "a8f2b3391c9a9851f6cf4b4f8a57f706", "is_disabled": 0, "rental_uris": {"ios": "https://dc.lft.to/lastmile_qr_scan", "android": "https://dc.lft.to/lastmile_qr_scan"}, "is_reserved": 0}, {"lon": -77.02821716666666, "bike_id": "48c997fb645d8ce4f3e9156411b970ad", "lat": 38.90269833333333, "fusion_lon": 0.0, "fusion_lat": 0.0, "type": "electric_scooter", "name": "48c997fb645d8ce4f3e9156411b970ad", "is_disabled": 0, "rental_uris": {"ios": "https://dc.lft.to/lastmile_qr_scan", "android": "https://dc.lft.to/lastmile_qr_scan"}, "is_reserved": 0}, {"lon": -77.088066, "bike_id": "f80247d5778644a8b0bcb350b35c7012", "lat": 38.911785333333334, "fusion_lon": 0.0, "fusion_lat": 0.0, "type": "electric_scooter", "name": "f80247d5778644a8b0bcb350b35c7012", "is_disabled": 0, "rental_uris": {"ios": "https://dc.lft.to/lastmile_qr_scan", "android": "https://dc.lft.to/lastmile_qr_scan"}, "is_reserved": 0}, {"lon": -77.01655783333334, "bike_id": "da7f75110bd7e8f12eb2dc54b6326049", "lat": 38.903844666666664, "fusion_lon": 0.0, "fusion_lat": 0.0, "type": "electric_scooter", "name": "da7f75110bd7e8f12eb2dc54b6326049", "is_disabled": 0, "rental_uris": {"ios": "https://dc.lft.to/lastmile_qr_scan", "android": "https://dc.lft.to/lastmile_qr_scan"}, "is_reserved": 0}, {"lon": -77.02269816666667, "bike_id": "c1c5a55fb91ecce629931f2fc21e29e7", "lat": 38.927358, "fusion_lon": 0.0, "fusion_lat": 0.0, "type": "electric_scooter", "name": "c1c5a55fb91ecce629931f2fc21e29e7", "is_disabled": 0, "rental_uris": {"ios": "https://dc.lft.to/lastmile_qr_scan", "android": "https://dc.lft.to/lastmile_qr_scan"}, "is_reserved": 0}, {"lon": -77.0393905, "bike_id": "0feb16504a542a2e2b3656ea12d8f0ac", "lat": 38.91572016666667, "fusion_lon": 0.0, "fusion_lat": 0.0, "type": "electric_scooter", "name": "0feb16504a542a2e2b3656ea12d8f0ac", "is_disabled": 0, "rental_uris": {"ios": "https://dc.lft.to/lastmile_qr_scan", "android": "https://dc.lft.to/lastmile_qr_scan"}, "is_reserved": 0}, {"lon": -77.02461783333334, "bike_id": "1331eb3b0b635d5df4061af262ab97db", "lat": 38.93711916666667, "fusion_lon": 0.0, "fusion_lat": 0.0, "type": "electric_scooter", "name": "1331eb3b0b635d5df4061af262ab97db", "is_disabled": 0, "rental_uris": {"ios": "https://dc.lft.to/lastmile_qr_scan", "android": "https://dc.lft.to/lastmile_qr_scan"}, "is_reserved": 0}, {"lon": -76.98914983333333, "bike_id": "436e35126d79a4add703d442c83ba533", "lat": 38.8648765, "fusion_lon": 0.0, "fusion_lat": 0.0, "type": "electric_scooter", "name": "436e35126d79a4add703d442c83ba533", "is_disabled": 0, "rental_uris": {"ios": "https://dc.lft.to/lastmile_qr_scan", "android": "https://dc.lft.to/lastmile_qr_scan"}, "is_reserved": 0}, {"lon": -77.04005083333334, "bike_id": "4344611904fca0ba15e1d8b59202c5ad", "lat": 38.934346833333336, "fusion_lon": 0.0, "fusion_lat": 0.0, "type": "electric_scooter", "name": "4344611904fca0ba15e1d8b59202c5ad", "is_disabled": 0, "rental_uris": {"ios": "https://dc.lft.to/lastmile_qr_scan", "android": "https://dc.lft.to/lastmile_qr_scan"}, "is_reserved": 0}, {"lon": -76.94594383333333, "bike_id": "3a8d633746e3e028840f07b05acec01f", "lat": 38.901487833333334, "fusion_lon": 0.0, "fusion_lat": 0.0, "type": "electric_scooter", "name": "3a8d633746e3e028840f07b05acec01f", "is_disabled": 0, "rental_uris": {"ios": "https://dc.lft.to/lastmile_qr_scan", "android": "https://dc.lft.to/lastmile_qr_scan"}, "is_reserved": 0}, {"lon": -77.07414916666667, "bike_id": "5a1246036aeb4e4f836495ac0ab5869d", "lat": 38.928849, "fusion_lon": 0.0, "fusion_lat": 0.0, "type": "electric_scooter", "name": "5a1246036aeb4e4f836495ac0ab5869d", "is_disabled": 0, "rental_uris": {"ios": "https://dc.lft.to/lastmile_qr_scan", "android": "https://dc.lft.to/lastmile_qr_scan"}, "is_reserved": 0}, {"lon": -77.00274616666667, "bike_id": "4715e8d9b2d33992a898ae5672f62dc9", "lat": 38.908668, "fusion_lon": 0.0, "fusion_lat": 0.0, "type": "electric_scooter", "name": "4715e8d9b2d33992a898ae5672f62dc9", "is_disabled": 0, "rental_uris": {"ios": "https://dc.lft.to/lastmile_qr_scan", "android": "https://dc.lft.to/lastmile_qr_scan"}, "is_reserved": 0}, {"lon": -77.01019916666667, "bike_id": "c2f6bc50534feb975c85d0b91f9fe482", "lat": 38.908525833333336, "fusion_lon": 0.0, "fusion_lat": 0.0, "type": "electric_scooter", "name": "c2f6bc50534feb975c85d0b91f9fe482", "is_disabled": 0, "rental_uris": {"ios": "https://dc.lft.to/lastmile_qr_scan", "android": "https://dc.lft.to/lastmile_qr_scan"}, "is_reserved": 0}, {"lon": -77.028098, "bike_id": "29b363ba057e3b8016cb09ff84ea2ca7", "lat": 38.930802, "fusion_lon": 0.0, "fusion_lat": 0.0, "type": "electric_scooter", "name": "29b363ba057e3b8016cb09ff84ea2ca7", "is_disabled": 0, "rental_uris": {"ios": "https://dc.lft.to/lastmile_qr_scan", "android": "https://dc.lft.to/lastmile_qr_scan"}, "is_reserved": 0}, {"lon": -77.02970516666667, "bike_id": "1fbab0348d4c8bc6e443510c34613dff", "lat": 38.90781916666667, "fusion_lon": 0.0, "fusion_lat": 0.0, "type": "electric_scooter", "name": "1fbab0348d4c8bc6e443510c34613dff", "is_disabled": 0, "rental_uris": {"ios": "https://dc.lft.to/lastmile_qr_scan", "android": "https://dc.lft.to/lastmile_qr_scan"}, "is_reserved": 0}, {"lon": -77.05343133333334, "bike_id": "775e39284f7b62b7934373ffc49f9cd1", "lat": 38.903544833333335, "fusion_lon": 0.0, "fusion_lat": 0.0, "type": "electric_scooter", "name": "775e39284f7b62b7934373ffc49f9cd1", "is_disabled": 0, "rental_uris": {"ios": "https://dc.lft.to/lastmile_qr_scan", "android": "https://dc.lft.to/lastmile_qr_scan"}, "is_reserved": 0}, {"lon": -77.00094216666666, "bike_id": "5a98e7caf46f6e8da574cadf258d10ab", "lat": 38.89482316666667, "fusion_lon": 0.0, "fusion_lat": 0.0, "type": "electric_scooter", "name": "5a98e7caf46f6e8da574cadf258d10ab", "is_disabled": 0, "rental_uris": {"ios": "https://dc.lft.to/lastmile_qr_scan", "android": "https://dc.lft.to/lastmile_qr_scan"}, "is_reserved": 0}, {"lon": -77.06522483333333, "bike_id": "db8fd747a47f03b034110d6ae5ebb0d5", "lat": 38.947440666666665, "fusion_lon": 0.0, "fusion_lat": 0.0, "type": "electric_scooter", "name": "db8fd747a47f03b034110d6ae5ebb0d5", "is_disabled": 0, "rental_uris": {"ios": "https://dc.lft.to/lastmile_qr_scan", "android": "https://dc.lft.to/lastmile_qr_scan"}, "is_reserved": 0}, {"lon": -77.0524815, "bike_id": "6954357088725dbcf8eeca2b90c5bd2d", "lat": 38.9001005, "fusion_lon": 0.0, "fusion_lat": 0.0, "type": "electric_scooter", "name": "6954357088725dbcf8eeca2b90c5bd2d", "is_disabled": 0, "rental_uris": {"ios": "https://dc.lft.to/lastmile_qr_scan", "android": "https://dc.lft.to/lastmile_qr_scan"}, "is_reserved": 0}, {"lon": -77.03392116666667, "bike_id": "1b48d7c08d97d3cbeed13506ddefeb62", "lat": 38.960312, "fusion_lon": 0.0, "fusion_lat": 0.0, "type": "electric_bike", "name": "1b48d7c08d97d3cbeed13506ddefeb62", "is_disabled": 0, "rental_uris": {"ios": "https://dc.lft.to/lastmile_qr_scan", "android": "https://dc.lft.to/lastmile_qr_scan"}, "is_reserved": 0}, {"lon": -77.036691, "bike_id": "700185d10c05e8919a468aa7eb76935a", "lat": 38.91291866666667, "fusion_lon": 0.0, "fusion_lat": 0.0, "type": "electric_scooter", "name": "700185d10c05e8919a468aa7eb76935a", "is_disabled": 0, "rental_uris": {"ios": "https://dc.lft.to/lastmile_qr_scan", "android": "https://dc.lft.to/lastmile_qr_scan"}, "is_reserved": 0}, {"lon": -76.99886883333333, "bike_id": "e4aa231fd8276df033b24e20b7fe6f06", "lat": 38.920542, "fusion_lon": 0.0, "fusion_lat": 0.0, "type": "electric_scooter", "name": "e4aa231fd8276df033b24e20b7fe6f06", "is_disabled": 0, "rental_uris": {"ios": "https://dc.lft.to/lastmile_qr_scan", "android": "https://dc.lft.to/lastmile_qr_scan"}, "is_reserved": 0}, {"lon": -76.98486016666666, "bike_id": "56429eaf281a41b6cc2d5aa08937c308", "lat": 38.8989775, "fusion_lon": 0.0, "fusion_lat": 0.0, "type": "electric_scooter", "name": "56429eaf281a41b6cc2d5aa08937c308", "is_disabled": 0, "rental_uris": {"ios": "https://dc.lft.to/lastmile_qr_scan", "android": "https://dc.lft.to/lastmile_qr_scan"}, "is_reserved": 0}, {"lon": -77.0036175, "bike_id": "9501991b785c72df38ad08776a8432cc", "lat": 38.91552566666667, "fusion_lon": 0.0, "fusion_lat": 0.0, "type": "electric_scooter", "name": "9501991b785c72df38ad08776a8432cc", "is_disabled": 0, "rental_uris": {"ios": "https://dc.lft.to/lastmile_qr_scan", "android": "https://dc.lft.to/lastmile_qr_scan"}, "is_reserved": 0}, {"lon": -77.00914633333333, "bike_id": "5b062cf6133d6fb2bcf61bf5ec1f7da6", "lat": 38.8955225, "fusion_lon": 0.0, "fusion_lat": 0.0, "type": "electric_scooter", "name": "5b062cf6133d6fb2bcf61bf5ec1f7da6", "is_disabled": 0, "rental_uris": {"ios": "https://dc.lft.to/lastmile_qr_scan", "android": "https://dc.lft.to/lastmile_qr_scan"}, "is_reserved": 0}, {"lon": -77.0421815, "bike_id": "e2ede4c6778cc754ada18cff80f8412b", "lat": 38.911161, "fusion_lon": 0.0, "fusion_lat": 0.0, "type": "electric_scooter", "name": "e2ede4c6778cc754ada18cff80f8412b", "is_disabled": 0, "rental_uris": {"ios": "https://dc.lft.to/lastmile_qr_scan", "android": "https://dc.lft.to/lastmile_qr_scan"}, "is_reserved": 0}, {"lon": -76.9658625, "bike_id": "9a29a1c90dd7bd37da1db5492aed67e4", "lat": 38.871265, "fusion_lon": 0.0, "fusion_lat": 0.0, "type": "electric_scooter", "name": "9a29a1c90dd7bd37da1db5492aed67e4", "is_disabled": 0, "rental_uris": {"ios": "https://dc.lft.to/lastmile_qr_scan", "android": "https://dc.lft.to/lastmile_qr_scan"}, "is_reserved": 0}, {"lon": -76.99779233333334, "bike_id": "f8f84fbfdaf2f05d89e2645bb6950470", "lat": 38.8442935, "fusion_lon": 0.0, "fusion_lat": 0.0, "type": "electric_scooter", "name": "f8f84fbfdaf2f05d89e2645bb6950470", "is_disabled": 0, "rental_uris": {"ios": "https://dc.lft.to/lastmile_qr_scan", "android": "https://dc.lft.to/lastmile_qr_scan"}, "is_reserved": 0}, {"lon": -77.00289166666667, "bike_id": "ea5d5540ae6e5558af4ad02d87233422", "lat": 38.956965, "fusion_lon": 0.0, "fusion_lat": 0.0, "type": "electric_bike", "name": "ea5d5540ae6e5558af4ad02d87233422", "is_disabled": 0, "rental_uris": {"ios": "https://dc.lft.to/lastmile_qr_scan", "android": "https://dc.lft.to/lastmile_qr_scan"}, "is_reserved": 0}, {"lon": -77.02969133333333, "bike_id": "13d492d8b123bef4570b42e6fe0965d9", "lat": 38.91679333333333, "fusion_lon": 0.0, "fusion_lat": 0.0, "type": "electric_scooter", "name": "13d492d8b123bef4570b42e6fe0965d9", "is_disabled": 0, "rental_uris": {"ios": "https://dc.lft.to/lastmile_qr_scan", "android": "https://dc.lft.to/lastmile_qr_scan"}, "is_reserved": 0}, {"lon": -77.031954, "bike_id": "757fd0c060974bedda4948e613a07f4c", "lat": 38.915083, "fusion_lon": 0.0, "fusion_lat": 0.0, "type": "electric_scooter", "name": "757fd0c060974bedda4948e613a07f4c", "is_disabled": 0, "rental_uris": {"ios": "https://dc.lft.to/lastmile_qr_scan", "android": "https://dc.lft.to/lastmile_qr_scan"}, "is_reserved": 0}, {"lon": -77.02264683333334, "bike_id": "8a5def8e67f7380661a3238370d721db", "lat": 38.927413333333334, "fusion_lon": 0.0, "fusion_lat": 0.0, "type": "electric_scooter", "name": "8a5def8e67f7380661a3238370d721db", "is_disabled": 0, "rental_uris": {"ios": "https://dc.lft.to/lastmile_qr_scan", "android": "https://dc.lft.to/lastmile_qr_scan"}, "is_reserved": 0}, {"lon": -77.0431385, "bike_id": "d1f02a790f300a813ae49e528ec8c0ed", "lat": 38.91877016666667, "fusion_lon": 0.0, "fusion_lat": 0.0, "type": "electric_scooter", "name": "d1f02a790f300a813ae49e528ec8c0ed", "is_disabled": 0, "rental_uris": {"ios": "https://dc.lft.to/lastmile_qr_scan", "android": "https://dc.lft.to/lastmile_qr_scan"}, "is_reserved": 0}, {"lon": -77.02376566666666, "bike_id": "6563d84b41b8f29fb9cb4d91d30e209d", "lat": 38.90199616666666, "fusion_lon": 0.0, "fusion_lat": 0.0, "type": "electric_scooter", "name": "6563d84b41b8f29fb9cb4d91d30e209d", "is_disabled": 0, "rental_uris": {"ios": "https://dc.lft.to/lastmile_qr_scan", "android": "https://dc.lft.to/lastmile_qr_scan"}, "is_reserved": 0}, {"lon": -77.0221175, "bike_id": "596fbc16a61ca321100ea5340258534c", "lat": 38.951003666666665, "fusion_lon": 0.0, "fusion_lat": 0.0, "type": "electric_scooter", "name": "596fbc16a61ca321100ea5340258534c", "is_disabled": 0, "rental_uris": {"ios": "https://dc.lft.to/lastmile_qr_scan", "android": "https://dc.lft.to/lastmile_qr_scan"}, "is_reserved": 0}, {"lon": -77.00562566666666, "bike_id": "374bb6032458d2aa4e69fcf956e2ba6c", "lat": 38.8764725, "fusion_lon": 0.0, "fusion_lat": 0.0, "type": "electric_scooter", "name": "374bb6032458d2aa4e69fcf956e2ba6c", "is_disabled": 0, "rental_uris": {"ios": "https://dc.lft.to/lastmile_qr_scan", "android": "https://dc.lft.to/lastmile_qr_scan"}, "is_reserved": 0}, {"lon": -77.026127, "bike_id": "d0d54ec74b5ac1ac77cf1405464c085b", "lat": 38.91402766666667, "fusion_lon": 0.0, "fusion_lat": 0.0, "type": "electric_scooter", "name": "d0d54ec74b5ac1ac77cf1405464c085b", "is_disabled": 0, "rental_uris": {"ios": "https://dc.lft.to/lastmile_qr_scan", "android": "https://dc.lft.to/lastmile_qr_scan"}, "is_reserved": 0}, {"lon": -77.00177883333333, "bike_id": "cf90c2d08aa58cd8c5149238acd2dfee", "lat": 38.900366166666664, "fusion_lon": 0.0, "fusion_lat": 0.0, "type": "electric_scooter", "name": "cf90c2d08aa58cd8c5149238acd2dfee", "is_disabled": 0, "rental_uris": {"ios": "https://dc.lft.to/lastmile_qr_scan", "android": "https://dc.lft.to/lastmile_qr_scan"}, "is_reserved": 0}, {"lon": -77.02015216666666, "bike_id": "b7d5c1e2989cbe9859ae36d671d0ac81", "lat": 38.92416716666666, "fusion_lon": 0.0, "fusion_lat": 0.0, "type": "electric_scooter", "name": "b7d5c1e2989cbe9859ae36d671d0ac81", "is_disabled": 0, "rental_uris": {"ios": "https://dc.lft.to/lastmile_qr_scan", "android": "https://dc.lft.to/lastmile_qr_scan"}, "is_reserved": 0}, {"lon": -77.045461, "bike_id": "4c97467ddd122df1488d52dfd0a37999", "lat": 38.913163833333336, "fusion_lon": 0.0, "fusion_lat": 0.0, "type": "electric_scooter", "name": "4c97467ddd122df1488d52dfd0a37999", "is_disabled": 0, "rental_uris": {"ios": "https://dc.lft.to/lastmile_qr_scan", "android": "https://dc.lft.to/lastmile_qr_scan"}, "is_reserved": 0}, {"lon": -76.9839275, "bike_id": "83636c78039d25920c81024d787ba16f", "lat": 38.904677166666666, "fusion_lon": 0.0, "fusion_lat": 0.0, "type": "electric_scooter", "name": "83636c78039d25920c81024d787ba16f", "is_disabled": 0, "rental_uris": {"ios": "https://dc.lft.to/lastmile_qr_scan", "android": "https://dc.lft.to/lastmile_qr_scan"}, "is_reserved": 0}, {"lon": -77.047802, "bike_id": "4040e2d9b2b361b2ab88096a468a8c14", "lat": 38.9086275, "fusion_lon": 0.0, "fusion_lat": 0.0, "type": "electric_scooter", "name": "4040e2d9b2b361b2ab88096a468a8c14", "is_disabled": 0, "rental_uris": {"ios": "https://dc.lft.to/lastmile_qr_scan", "android": "https://dc.lft.to/lastmile_qr_scan"}, "is_reserved": 0}, {"lon": -77.101557, "bike_id": "e1a512b33c74544d83b233183f103991", "lat": 38.92528266666667, "fusion_lon": 0.0, "fusion_lat": 0.0, "type": "electric_scooter", "name": "e1a512b33c74544d83b233183f103991", "is_disabled": 0, "rental_uris": {"ios": "https://dc.lft.to/lastmile_qr_scan", "android": "https://dc.lft.to/lastmile_qr_scan"}, "is_reserved": 0}, {"lon": -77.02418666666667, "bike_id": "805cee50da5f3255eedbf6e9ef402a36", "lat": 38.93357366666667, "fusion_lon": 0.0, "fusion_lat": 0.0, "type": "electric_bike", "name": "805cee50da5f3255eedbf6e9ef402a36", "is_disabled": 0, "rental_uris": {"ios": "https://dc.lft.to/lastmile_qr_scan", "android": "https://dc.lft.to/lastmile_qr_scan"}, "is_reserved": 0}, {"lon": -76.98019666666667, "bike_id": "10cb75497c6eb9cbc76f095b2829539a", "lat": 38.853149, "fusion_lon": 0.0, "fusion_lat": 0.0, "type": "electric_bike", "name": "10cb75497c6eb9cbc76f095b2829539a", "is_disabled": 0, "rental_uris": {"ios": "https://dc.lft.to/lastmile_qr_scan", "android": "https://dc.lft.to/lastmile_qr_scan"}, "is_reserved": 0}, {"lon": -77.02658583333333, "bike_id": "6f9cbb6c5054a7dd9b3385cd64403c42", "lat": 38.898166, "fusion_lon": 0.0, "fusion_lat": 0.0, "type": "electric_scooter", "name": "6f9cbb6c5054a7dd9b3385cd64403c42", "is_disabled": 0, "rental_uris": {"ios": "https://dc.lft.to/lastmile_qr_scan", "android": "https://dc.lft.to/lastmile_qr_scan"}, "is_reserved": 0}, {"lon": -76.9387685, "bike_id": "ec3c2c266a68d8367a6a332aea438148", "lat": 38.956311666666664, "fusion_lon": 0.0, "fusion_lat": 0.0, "type": "electric_bike", "name": "ec3c2c266a68d8367a6a332aea438148", "is_disabled": 0, "rental_uris": {"ios": "https://dc.lft.to/lastmile_qr_scan", "android": "https://dc.lft.to/lastmile_qr_scan"}, "is_reserved": 0}, {"lon": -77.01948283333333, "bike_id": "54a45cca88879c4c4f3a01355e132daa", "lat": 38.91301266666667, "fusion_lon": 0.0, "fusion_lat": 0.0, "type": "electric_scooter", "name": "54a45cca88879c4c4f3a01355e132daa", "is_disabled": 0, "rental_uris": {"ios": "https://dc.lft.to/lastmile_qr_scan", "android": "https://dc.lft.to/lastmile_qr_scan"}, "is_reserved": 0}, {"lon": -77.02846616666666, "bike_id": "1f3aa493dd82bde5763f188ae567381d", "lat": 38.93244766666667, "fusion_lon": 0.0, "fusion_lat": 0.0, "type": "electric_scooter", "name": "1f3aa493dd82bde5763f188ae567381d", "is_disabled": 0, "rental_uris": {"ios": "https://dc.lft.to/lastmile_qr_scan", "android": "https://dc.lft.to/lastmile_qr_scan"}, "is_reserved": 0}, {"lon": -77.036247, "bike_id": "ae03836305d66501aa63f3c043b24035", "lat": 38.9367455, "fusion_lon": 0.0, "fusion_lat": 0.0, "type": "electric_scooter", "name": "ae03836305d66501aa63f3c043b24035", "is_disabled": 0, "rental_uris": {"ios": "https://dc.lft.to/lastmile_qr_scan", "android": "https://dc.lft.to/lastmile_qr_scan"}, "is_reserved": 0}, {"lon": -77.0192, "bike_id": "a691af6b713d060cefc5d3a4d464c870", "lat": 38.898573, "fusion_lon": 0.0, "fusion_lat": 0.0, "type": "electric_scooter", "name": "a691af6b713d060cefc5d3a4d464c870", "is_disabled": 0, "rental_uris": {"ios": "https://dc.lft.to/lastmile_qr_scan", "android": "https://dc.lft.to/lastmile_qr_scan"}, "is_reserved": 0}, {"lon": -77.02810616666666, "bike_id": "ec3b3725f7b69991bba1b44b27a02d32", "lat": 38.8817875, "fusion_lon": 0.0, "fusion_lat": 0.0, "type": "electric_scooter", "name": "ec3b3725f7b69991bba1b44b27a02d32", "is_disabled": 0, "rental_uris": {"ios": "https://dc.lft.to/lastmile_qr_scan", "android": "https://dc.lft.to/lastmile_qr_scan"}, "is_reserved": 0}, {"lon": -77.022065, "bike_id": "4927ad56667c26bcb645ad206e9dc4d2", "lat": 38.90537116666667, "fusion_lon": 0.0, "fusion_lat": 0.0, "type": "electric_scooter", "name": "4927ad56667c26bcb645ad206e9dc4d2", "is_disabled": 0, "rental_uris": {"ios": "https://dc.lft.to/lastmile_qr_scan", "android": "https://dc.lft.to/lastmile_qr_scan"}, "is_reserved": 0}, {"lon": -77.02767, "bike_id": "dedb7225d9b34b42dab76c7bd9525113", "lat": 38.95421616666667, "fusion_lon": 0.0, "fusion_lat": 0.0, "type": "electric_scooter", "name": "dedb7225d9b34b42dab76c7bd9525113", "is_disabled": 0, "rental_uris": {"ios": "https://dc.lft.to/lastmile_qr_scan", "android": "https://dc.lft.to/lastmile_qr_scan"}, "is_reserved": 0}, {"lon": -76.99456733333334, "bike_id": "0ef060180e0ba060311f298eca96e300", "lat": 38.8622005, "fusion_lon": 0.0, "fusion_lat": 0.0, "type": "electric_scooter", "name": "0ef060180e0ba060311f298eca96e300", "is_disabled": 0, "rental_uris": {"ios": "https://dc.lft.to/lastmile_qr_scan", "android": "https://dc.lft.to/lastmile_qr_scan"}, "is_reserved": 0}, {"lon": -77.04866183333333, "bike_id": "b2e1913ed9f6135d4d681eb9e07992ce", "lat": 38.8922185, "fusion_lon": 0.0, "fusion_lat": 0.0, "type": "electric_scooter", "name": "b2e1913ed9f6135d4d681eb9e07992ce", "is_disabled": 0, "rental_uris": {"ios": "https://dc.lft.to/lastmile_qr_scan", "android": "https://dc.lft.to/lastmile_qr_scan"}, "is_reserved": 0}, {"lon": -77.01986, "bike_id": "c379a1e020a4a21fb082273fcfd36b06", "lat": 38.901256333333336, "fusion_lon": 0.0, "fusion_lat": 0.0, "type": "electric_scooter", "name": "c379a1e020a4a21fb082273fcfd36b06", "is_disabled": 0, "rental_uris": {"ios": "https://dc.lft.to/lastmile_qr_scan", "android": "https://dc.lft.to/lastmile_qr_scan"}, "is_reserved": 0}, {"lon": -77.05468433333333, "bike_id": "9de16813a437fe46540f71e80c371393", "lat": 38.904341, "fusion_lon": 0.0, "fusion_lat": 0.0, "type": "electric_scooter", "name": "9de16813a437fe46540f71e80c371393", "is_disabled": 0, "rental_uris": {"ios": "https://dc.lft.to/lastmile_qr_scan", "android": "https://dc.lft.to/lastmile_qr_scan"}, "is_reserved": 0}, {"lon": -77.01646233333334, "bike_id": "43804a0dc79b32e529c70f4961e2c4ae", "lat": 38.87706266666667, "fusion_lon": 0.0, "fusion_lat": 0.0, "type": "electric_scooter", "name": "43804a0dc79b32e529c70f4961e2c4ae", "is_disabled": 0, "rental_uris": {"ios": "https://dc.lft.to/lastmile_qr_scan", "android": "https://dc.lft.to/lastmile_qr_scan"}, "is_reserved": 0}, {"lon": -77.0147525, "bike_id": "697cb3f46b7974c85049ee80601c1845", "lat": 38.9269525, "fusion_lon": 0.0, "fusion_lat": 0.0, "type": "electric_scooter", "name": "697cb3f46b7974c85049ee80601c1845", "is_disabled": 0, "rental_uris": {"ios": "https://dc.lft.to/lastmile_qr_scan", "android": "https://dc.lft.to/lastmile_qr_scan"}, "is_reserved": 0}, {"lon": -77.0199625, "bike_id": "8b0086842904b3e62dabec262011f01c", "lat": 38.966269833333335, "fusion_lon": 0.0, "fusion_lat": 0.0, "type": "electric_scooter", "name": "8b0086842904b3e62dabec262011f01c", "is_disabled": 0, "rental_uris": {"ios": "https://dc.lft.to/lastmile_qr_scan", "android": "https://dc.lft.to/lastmile_qr_scan"}, "is_reserved": 0}, {"lon": -77.027151, "bike_id": "b379c0c70a75b1ba225b968ea0ab0c97", "lat": 38.91073133333333, "fusion_lon": 0.0, "fusion_lat": 0.0, "type": "electric_scooter", "name": "b379c0c70a75b1ba225b968ea0ab0c97", "is_disabled": 0, "rental_uris": {"ios": "https://dc.lft.to/lastmile_qr_scan", "android": "https://dc.lft.to/lastmile_qr_scan"}, "is_reserved": 0}, {"lon": -76.98462483333333, "bike_id": "657e004628ac59fac9c709ba3f5d3444", "lat": 38.903954, "fusion_lon": 0.0, "fusion_lat": 0.0, "type": "electric_scooter", "name": "657e004628ac59fac9c709ba3f5d3444", "is_disabled": 0, "rental_uris": {"ios": "https://dc.lft.to/lastmile_qr_scan", "android": "https://dc.lft.to/lastmile_qr_scan"}, "is_reserved": 0}, {"lon": -76.9653635, "bike_id": "83c8b452137aaf8bb685f7d28aa326a9", "lat": 38.8747735, "fusion_lon": 0.0, "fusion_lat": 0.0, "type": "electric_scooter", "name": "83c8b452137aaf8bb685f7d28aa326a9", "is_disabled": 0, "rental_uris": {"ios": "https://dc.lft.to/lastmile_qr_scan", "android": "https://dc.lft.to/lastmile_qr_scan"}, "is_reserved": 0}, {"lon": -77.04242933333333, "bike_id": "3b4152505307948449c178567a6f29f9", "lat": 38.90639816666667, "fusion_lon": 0.0, "fusion_lat": 0.0, "type": "electric_scooter", "name": "3b4152505307948449c178567a6f29f9", "is_disabled": 0, "rental_uris": {"ios": "https://dc.lft.to/lastmile_qr_scan", "android": "https://dc.lft.to/lastmile_qr_scan"}, "is_reserved": 0}, {"lon": -76.9920275, "bike_id": "85e804cba63b3e221f3cb4749fe4de01", "lat": 38.89827066666667, "fusion_lon": 0.0, "fusion_lat": 0.0, "type": "electric_scooter", "name": "85e804cba63b3e221f3cb4749fe4de01", "is_disabled": 0, "rental_uris": {"ios": "https://dc.lft.to/lastmile_qr_scan", "android": "https://dc.lft.to/lastmile_qr_scan"}, "is_reserved": 0}, {"lon": -77.00927283333333, "bike_id": "f369914045b462fe817c6e93131080ad", "lat": 38.89646033333333, "fusion_lon": 0.0, "fusion_lat": 0.0, "type": "electric_scooter", "name": "f369914045b462fe817c6e93131080ad", "is_disabled": 0, "rental_uris": {"ios": "https://dc.lft.to/lastmile_qr_scan", "android": "https://dc.lft.to/lastmile_qr_scan"}, "is_reserved": 0}, {"lon": -77.0455955, "bike_id": "ab59fd798a9e666fd8e114d850e9191e", "lat": 38.9192015, "fusion_lon": 0.0, "fusion_lat": 0.0, "type": "electric_scooter", "name": "ab59fd798a9e666fd8e114d850e9191e", "is_disabled": 0, "rental_uris": {"ios": "https://dc.lft.to/lastmile_qr_scan", "android": "https://dc.lft.to/lastmile_qr_scan"}, "is_reserved": 0}, {"lon": -77.04222466666667, "bike_id": "a11a14c44160bc92b670b6994c795705", "lat": 38.911202333333335, "fusion_lon": 0.0, "fusion_lat": 0.0, "type": "electric_scooter", "name": "a11a14c44160bc92b670b6994c795705", "is_disabled": 0, "rental_uris": {"ios": "https://dc.lft.to/lastmile_qr_scan", "android": "https://dc.lft.to/lastmile_qr_scan"}, "is_reserved": 0}, {"lon": -77.01815, "bike_id": "7e8e4bf9d610d6a4a40f2d99bbf051c7", "lat": 38.9202795, "fusion_lon": 0.0, "fusion_lat": 0.0, "type": "electric_scooter", "name": "7e8e4bf9d610d6a4a40f2d99bbf051c7", "is_disabled": 0, "rental_uris": {"ios": "https://dc.lft.to/lastmile_qr_scan", "android": "https://dc.lft.to/lastmile_qr_scan"}, "is_reserved": 0}, {"lon": -77.02320233333333, "bike_id": "a6db207136cee8227373906eb2be522d", "lat": 38.9073395, "fusion_lon": 0.0, "fusion_lat": 0.0, "type": "electric_scooter", "name": "a6db207136cee8227373906eb2be522d", "is_disabled": 0, "rental_uris": {"ios": "https://dc.lft.to/lastmile_qr_scan", "android": "https://dc.lft.to/lastmile_qr_scan"}, "is_reserved": 0}, {"lon": -77.0047105, "bike_id": "c944954a7760bbfcc24f29918cdcf712", "lat": 38.91178333333333, "fusion_lon": 0.0, "fusion_lat": 0.0, "type": "electric_scooter", "name": "c944954a7760bbfcc24f29918cdcf712", "is_disabled": 0, "rental_uris": {"ios": "https://dc.lft.to/lastmile_qr_scan", "android": "https://dc.lft.to/lastmile_qr_scan"}, "is_reserved": 0}, {"lon": -76.94633116666667, "bike_id": "3829a5aed35d705b336988ad4cab8895", "lat": 38.89830883333333, "fusion_lon": 0.0, "fusion_lat": 0.0, "type": "electric_scooter", "name": "3829a5aed35d705b336988ad4cab8895", "is_disabled": 0, "rental_uris": {"ios": "https://dc.lft.to/lastmile_qr_scan", "android": "https://dc.lft.to/lastmile_qr_scan"}, "is_reserved": 0}, {"lon": -77.02169783333333, "bike_id": "0510905b0e4356cb1cd3af216df8e587", "lat": 38.942903666666666, "fusion_lon": 0.0, "fusion_lat": 0.0, "type": "electric_scooter", "name": "0510905b0e4356cb1cd3af216df8e587", "is_disabled": 0, "rental_uris": {"ios": "https://dc.lft.to/lastmile_qr_scan", "android": "https://dc.lft.to/lastmile_qr_scan"}, "is_reserved": 0}, {"lon": -77.07671633333334, "bike_id": "033018353915e533c6448b1a76b31d30", "lat": 38.9432275, "fusion_lon": 0.0, "fusion_lat": 0.0, "type": "electric_scooter", "name": "033018353915e533c6448b1a76b31d30", "is_disabled": 0, "rental_uris": {"ios": "https://dc.lft.to/lastmile_qr_scan", "android": "https://dc.lft.to/lastmile_qr_scan"}, "is_reserved": 0}, {"lon": -77.0394875, "bike_id": "2186caff555bd1693aa9444073a053dc", "lat": 38.91938016666667, "fusion_lon": 0.0, "fusion_lat": 0.0, "type": "electric_scooter", "name": "2186caff555bd1693aa9444073a053dc", "is_disabled": 0, "rental_uris": {"ios": "https://dc.lft.to/lastmile_qr_scan", "android": "https://dc.lft.to/lastmile_qr_scan"}, "is_reserved": 0}, {"lon": -76.9985425, "bike_id": "9e116fc64ddef59ba284aad90386c032", "lat": 38.90771066666667, "fusion_lon": 0.0, "fusion_lat": 0.0, "type": "electric_scooter", "name": "9e116fc64ddef59ba284aad90386c032", "is_disabled": 0, "rental_uris": {"ios": "https://dc.lft.to/lastmile_qr_scan", "android": "https://dc.lft.to/lastmile_qr_scan"}, "is_reserved": 0}, {"lon": -77.05626433333333, "bike_id": "cc863a1eba5dff0a8802ad6038490465", "lat": 38.923383333333334, "fusion_lon": 0.0, "fusion_lat": 0.0, "type": "electric_scooter", "name": "cc863a1eba5dff0a8802ad6038490465", "is_disabled": 0, "rental_uris": {"ios": "https://dc.lft.to/lastmile_qr_scan", "android": "https://dc.lft.to/lastmile_qr_scan"}, "is_reserved": 0}, {"lon": -77.0234555, "bike_id": "811607a57b350588c64b603e883f122a", "lat": 38.92249966666667, "fusion_lon": 0.0, "fusion_lat": 0.0, "type": "electric_scooter", "name": "811607a57b350588c64b603e883f122a", "is_disabled": 0, "rental_uris": {"ios": "https://dc.lft.to/lastmile_qr_scan", "android": "https://dc.lft.to/lastmile_qr_scan"}, "is_reserved": 0}, {"lon": -77.02976666666666, "bike_id": "4bcdedd1f3b5934096b6c3e23a579212", "lat": 38.921951, "fusion_lon": 0.0, "fusion_lat": 0.0, "type": "electric_scooter", "name": "4bcdedd1f3b5934096b6c3e23a579212", "is_disabled": 0, "rental_uris": {"ios": "https://dc.lft.to/lastmile_qr_scan", "android": "https://dc.lft.to/lastmile_qr_scan"}, "is_reserved": 0}, {"lon": -77.0758195, "bike_id": "83fedb05a231d0abaa91336d4aa278e0", "lat": 38.91267833333333, "fusion_lon": 0.0, "fusion_lat": 0.0, "type": "electric_scooter", "name": "83fedb05a231d0abaa91336d4aa278e0", "is_disabled": 0, "rental_uris": {"ios": "https://dc.lft.to/lastmile_qr_scan", "android": "https://dc.lft.to/lastmile_qr_scan"}, "is_reserved": 0}, {"lon": -77.0125015, "bike_id": "a00a66bfe1da8ad8a8417fc4eca28918", "lat": 38.91576516666667, "fusion_lon": 0.0, "fusion_lat": 0.0, "type": "electric_scooter", "name": "a00a66bfe1da8ad8a8417fc4eca28918", "is_disabled": 0, "rental_uris": {"ios": "https://dc.lft.to/lastmile_qr_scan", "android": "https://dc.lft.to/lastmile_qr_scan"}, "is_reserved": 0}, {"lon": -77.0483875, "bike_id": "0bece95d3541cb2d69387b05b058fc2c", "lat": 38.89734466666667, "fusion_lon": 0.0, "fusion_lat": 0.0, "type": "electric_scooter", "name": "0bece95d3541cb2d69387b05b058fc2c", "is_disabled": 0, "rental_uris": {"ios": "https://dc.lft.to/lastmile_qr_scan", "android": "https://dc.lft.to/lastmile_qr_scan"}, "is_reserved": 0}, {"lon": -77.0220495, "bike_id": "4011942fc928610132b5603e0a84e015", "lat": 38.91049116666667, "fusion_lon": 0.0, "fusion_lat": 0.0, "type": "electric_scooter", "name": "4011942fc928610132b5603e0a84e015", "is_disabled": 0, "rental_uris": {"ios": "https://dc.lft.to/lastmile_qr_scan", "android": "https://dc.lft.to/lastmile_qr_scan"}, "is_reserved": 0}, {"lon": -77.01187716666666, "bike_id": "4d10bffcb710a97172160a94dc4cb607", "lat": 38.900251, "fusion_lon": 0.0, "fusion_lat": 0.0, "type": "electric_scooter", "name": "4d10bffcb710a97172160a94dc4cb607", "is_disabled": 0, "rental_uris": {"ios": "https://dc.lft.to/lastmile_qr_scan", "android": "https://dc.lft.to/lastmile_qr_scan"}, "is_reserved": 0}, {"lon": -77.02381083333333, "bike_id": "9719e2b3091af97e63bf984d360dc15f", "lat": 38.9095955, "fusion_lon": 0.0, "fusion_lat": 0.0, "type": "electric_scooter", "name": "9719e2b3091af97e63bf984d360dc15f", "is_disabled": 0, "rental_uris": {"ios": "https://dc.lft.to/lastmile_qr_scan", "android": "https://dc.lft.to/lastmile_qr_scan"}, "is_reserved": 0}, {"lon": -77.03854166666666, "bike_id": "745155de2caa1bd080b7e1884154bfdb", "lat": 38.91749133333333, "fusion_lon": 0.0, "fusion_lat": 0.0, "type": "electric_scooter", "name": "745155de2caa1bd080b7e1884154bfdb", "is_disabled": 0, "rental_uris": {"ios": "https://dc.lft.to/lastmile_qr_scan", "android": "https://dc.lft.to/lastmile_qr_scan"}, "is_reserved": 0}, {"lon": -77.03460766666667, "bike_id": "b1c4bc619a0e6308273cd7707ee738c7", "lat": 38.9342705, "fusion_lon": 0.0, "fusion_lat": 0.0, "type": "electric_scooter", "name": "b1c4bc619a0e6308273cd7707ee738c7", "is_disabled": 0, "rental_uris": {"ios": "https://dc.lft.to/lastmile_qr_scan", "android": "https://dc.lft.to/lastmile_qr_scan"}, "is_reserved": 0}, {"lon": -77.03449066666667, "bike_id": "2b0d14aa20d1ba02c163037e90e41372", "lat": 38.909504, "fusion_lon": 0.0, "fusion_lat": 0.0, "type": "electric_scooter", "name": "2b0d14aa20d1ba02c163037e90e41372", "is_disabled": 0, "rental_uris": {"ios": "https://dc.lft.to/lastmile_qr_scan", "android": "https://dc.lft.to/lastmile_qr_scan"}, "is_reserved": 0}, {"lon": -76.99679916666666, "bike_id": "ecfc73934e7b7d2cbcf5c9bcc5d7bf93", "lat": 38.881204833333335, "fusion_lon": 0.0, "fusion_lat": 0.0, "type": "electric_scooter", "name": "ecfc73934e7b7d2cbcf5c9bcc5d7bf93", "is_disabled": 0, "rental_uris": {"ios": "https://dc.lft.to/lastmile_qr_scan", "android": "https://dc.lft.to/lastmile_qr_scan"}, "is_reserved": 0}, {"lon": -77.020072, "bike_id": "a4bdc3a2aa474b1ba4fcdf552b4e2786", "lat": 38.911398, "fusion_lon": 0.0, "fusion_lat": 0.0, "type": "electric_scooter", "name": "a4bdc3a2aa474b1ba4fcdf552b4e2786", "is_disabled": 0, "rental_uris": {"ios": "https://dc.lft.to/lastmile_qr_scan", "android": "https://dc.lft.to/lastmile_qr_scan"}, "is_reserved": 0}, {"lon": -77.04746433333334, "bike_id": "1fcd79cbf5d8a0d7ca83292539b3545c", "lat": 38.917724, "fusion_lon": 0.0, "fusion_lat": 0.0, "type": "electric_scooter", "name": "1fcd79cbf5d8a0d7ca83292539b3545c", "is_disabled": 0, "rental_uris": {"ios": "https://dc.lft.to/lastmile_qr_scan", "android": "https://dc.lft.to/lastmile_qr_scan"}, "is_reserved": 0}, {"lon": -76.98525666666667, "bike_id": "8e2597b09a1f5d6ad0d92aacdb077e79", "lat": 38.90452533333333, "fusion_lon": 0.0, "fusion_lat": 0.0, "type": "electric_scooter", "name": "8e2597b09a1f5d6ad0d92aacdb077e79", "is_disabled": 0, "rental_uris": {"ios": "https://dc.lft.to/lastmile_qr_scan", "android": "https://dc.lft.to/lastmile_qr_scan"}, "is_reserved": 0}, {"lon": -77.024697, "bike_id": "b191ffb204eb3ec3a4852f72f14db003", "lat": 38.920896166666665, "fusion_lon": 0.0, "fusion_lat": 0.0, "type": "electric_scooter", "name": "b191ffb204eb3ec3a4852f72f14db003", "is_disabled": 0, "rental_uris": {"ios": "https://dc.lft.to/lastmile_qr_scan", "android": "https://dc.lft.to/lastmile_qr_scan"}, "is_reserved": 0}, {"lon": -77.04819033333334, "bike_id": "0f57a2e915624b085ac6ce7aca2f3081", "lat": 38.907243333333334, "fusion_lon": 0.0, "fusion_lat": 0.0, "type": "electric_scooter", "name": "0f57a2e915624b085ac6ce7aca2f3081", "is_disabled": 0, "rental_uris": {"ios": "https://dc.lft.to/lastmile_qr_scan", "android": "https://dc.lft.to/lastmile_qr_scan"}, "is_reserved": 0}, {"lon": -77.0179225, "bike_id": "49036724be17eccf0a5b2f02b2a4be58", "lat": 38.921208, "fusion_lon": 0.0, "fusion_lat": 0.0, "type": "electric_scooter", "name": "49036724be17eccf0a5b2f02b2a4be58", "is_disabled": 0, "rental_uris": {"ios": "https://dc.lft.to/lastmile_qr_scan", "android": "https://dc.lft.to/lastmile_qr_scan"}, "is_reserved": 0}, {"lon": -77.0897835, "bike_id": "e6f6e4207a9af68e44a5e9247cc06fde", "lat": 38.8747615, "fusion_lon": 0.0, "fusion_lat": 0.0, "type": "electric_bike", "name": "e6f6e4207a9af68e44a5e9247cc06fde", "is_disabled": 0, "rental_uris": {"ios": "https://dc.lft.to/lastmile_qr_scan", "android": "https://dc.lft.to/lastmile_qr_scan"}, "is_reserved": 0}, {"lon": -77.03861, "bike_id": "4edd6c7a4e1e985eeb4578ce255458f7", "lat": 38.906763, "fusion_lon": 0.0, "fusion_lat": 0.0, "type": "electric_scooter", "name": "4edd6c7a4e1e985eeb4578ce255458f7", "is_disabled": 0, "rental_uris": {"ios": "https://dc.lft.to/lastmile_qr_scan", "android": "https://dc.lft.to/lastmile_qr_scan"}, "is_reserved": 0}, {"lon": -77.05523616666666, "bike_id": "7b6d4827ba5f5b084a51743eed5ed28f", "lat": 38.92970366666667, "fusion_lon": 0.0, "fusion_lat": 0.0, "type": "electric_scooter", "name": "7b6d4827ba5f5b084a51743eed5ed28f", "is_disabled": 0, "rental_uris": {"ios": "https://dc.lft.to/lastmile_qr_scan", "android": "https://dc.lft.to/lastmile_qr_scan"}, "is_reserved": 0}, {"lon": -77.02707366666667, "bike_id": "fe893e61a44c54cd0063cb585988e41c", "lat": 38.9066265, "fusion_lon": 0.0, "fusion_lat": 0.0, "type": "electric_scooter", "name": "fe893e61a44c54cd0063cb585988e41c", "is_disabled": 0, "rental_uris": {"ios": "https://dc.lft.to/lastmile_qr_scan", "android": "https://dc.lft.to/lastmile_qr_scan"}, "is_reserved": 0}, {"lon": -77.029954, "bike_id": "86c84ea03706e304253331aa485ca34e", "lat": 38.907410666666664, "fusion_lon": 0.0, "fusion_lat": 0.0, "type": "electric_scooter", "name": "86c84ea03706e304253331aa485ca34e", "is_disabled": 0, "rental_uris": {"ios": "https://dc.lft.to/lastmile_qr_scan", "android": "https://dc.lft.to/lastmile_qr_scan"}, "is_reserved": 0}, {"lon": -77.02981883333334, "bike_id": "6c12bc1a3ff236f3bd06cec3829385f7", "lat": 38.896849833333334, "fusion_lon": 0.0, "fusion_lat": 0.0, "type": "electric_scooter", "name": "6c12bc1a3ff236f3bd06cec3829385f7", "is_disabled": 0, "rental_uris": {"ios": "https://dc.lft.to/lastmile_qr_scan", "android": "https://dc.lft.to/lastmile_qr_scan"}, "is_reserved": 0}, {"lon": -77.0134315, "bike_id": "f7e299109d74e6411a72d8dc0aa98a1f", "lat": 38.87814516666667, "fusion_lon": 0.0, "fusion_lat": 0.0, "type": "electric_scooter", "name": "f7e299109d74e6411a72d8dc0aa98a1f", "is_disabled": 0, "rental_uris": {"ios": "https://dc.lft.to/lastmile_qr_scan", "android": "https://dc.lft.to/lastmile_qr_scan"}, "is_reserved": 0}, {"lon": -77.0009975, "bike_id": "d47adcac5791c03fc183cd84c3cb704e", "lat": 38.9163555, "fusion_lon": 0.0, "fusion_lat": 0.0, "type": "electric_scooter", "name": "d47adcac5791c03fc183cd84c3cb704e", "is_disabled": 0, "rental_uris": {"ios": "https://dc.lft.to/lastmile_qr_scan", "android": "https://dc.lft.to/lastmile_qr_scan"}, "is_reserved": 0}, {"lon": -77.03269766666666, "bike_id": "8e71462db0d2dd0bd970f6dc04ebdbbb", "lat": 38.92840866666667, "fusion_lon": 0.0, "fusion_lat": 0.0, "type": "electric_scooter", "name": "8e71462db0d2dd0bd970f6dc04ebdbbb", "is_disabled": 0, "rental_uris": {"ios": "https://dc.lft.to/lastmile_qr_scan", "android": "https://dc.lft.to/lastmile_qr_scan"}, "is_reserved": 0}, {"lon": -77.11708933333334, "bike_id": "389dadd0b0b360ab7396875da34c8f15", "lat": 38.86747, "fusion_lon": 0.0, "fusion_lat": 0.0, "type": "electric_bike", "name": "389dadd0b0b360ab7396875da34c8f15", "is_disabled": 0, "rental_uris": {"ios": "https://dc.lft.to/lastmile_qr_scan", "android": "https://dc.lft.to/lastmile_qr_scan"}, "is_reserved": 0}, {"lon": -77.04279366666667, "bike_id": "2eaad5bd63e168e0be23d84cef3d1671", "lat": 38.922455166666666, "fusion_lon": 0.0, "fusion_lat": 0.0, "type": "electric_scooter", "name": "2eaad5bd63e168e0be23d84cef3d1671", "is_disabled": 0, "rental_uris": {"ios": "https://dc.lft.to/lastmile_qr_scan", "android": "https://dc.lft.to/lastmile_qr_scan"}, "is_reserved": 0}, {"lon": -76.96779133333334, "bike_id": "8626cdf6f57fd999896d0790b2ac2cf1", "lat": 38.86846633333333, "fusion_lon": 0.0, "fusion_lat": 0.0, "type": "electric_scooter", "name": "8626cdf6f57fd999896d0790b2ac2cf1", "is_disabled": 0, "rental_uris": {"ios": "https://dc.lft.to/lastmile_qr_scan", "android": "https://dc.lft.to/lastmile_qr_scan"}, "is_reserved": 0}, {"lon": -77.002658, "bike_id": "33daa113bad1f0a9d35537250bd23062", "lat": 38.908825, "fusion_lon": 0.0, "fusion_lat": 0.0, "type": "electric_scooter", "name": "33daa113bad1f0a9d35537250bd23062", "is_disabled": 0, "rental_uris": {"ios": "https://dc.lft.to/lastmile_qr_scan", "android": "https://dc.lft.to/lastmile_qr_scan"}, "is_reserved": 0}, {"lon": -76.96152583333334, "bike_id": "7aa33da518aab1f5b63cb3889d578328", "lat": 38.8835635, "fusion_lon": 0.0, "fusion_lat": 0.0, "type": "electric_scooter", "name": "7aa33da518aab1f5b63cb3889d578328", "is_disabled": 0, "rental_uris": {"ios": "https://dc.lft.to/lastmile_qr_scan", "android": "https://dc.lft.to/lastmile_qr_scan"}, "is_reserved": 0}, {"lon": -77.0386375, "bike_id": "14f82506bdca5fea42d2414a410b768c", "lat": 38.945020666666665, "fusion_lon": 0.0, "fusion_lat": 0.0, "type": "electric_scooter", "name": "14f82506bdca5fea42d2414a410b768c", "is_disabled": 0, "rental_uris": {"ios": "https://dc.lft.to/lastmile_qr_scan", "android": "https://dc.lft.to/lastmile_qr_scan"}, "is_reserved": 0}, {"lon": -77.03272033333333, "bike_id": "7b8465b0f698c62649870c72f56f6dd8", "lat": 38.93710733333333, "fusion_lon": 0.0, "fusion_lat": 0.0, "type": "electric_scooter", "name": "7b8465b0f698c62649870c72f56f6dd8", "is_disabled": 0, "rental_uris": {"ios": "https://dc.lft.to/lastmile_qr_scan", "android": "https://dc.lft.to/lastmile_qr_scan"}, "is_reserved": 0}, {"lon": -76.98723283333334, "bike_id": "c7053cde8ba4f28661a15f5d3e4386ac", "lat": 38.86683633333333, "fusion_lon": 0.0, "fusion_lat": 0.0, "type": "electric_scooter", "name": "c7053cde8ba4f28661a15f5d3e4386ac", "is_disabled": 0, "rental_uris": {"ios": "https://dc.lft.to/lastmile_qr_scan", "android": "https://dc.lft.to/lastmile_qr_scan"}, "is_reserved": 0}, {"lon": -76.95368933333333, "bike_id": "16c57496d8d82a3bc1da8c197b65e066", "lat": 38.89204083333333, "fusion_lon": 0.0, "fusion_lat": 0.0, "type": "electric_scooter", "name": "16c57496d8d82a3bc1da8c197b65e066", "is_disabled": 0, "rental_uris": {"ios": "https://dc.lft.to/lastmile_qr_scan", "android": "https://dc.lft.to/lastmile_qr_scan"}, "is_reserved": 0}, {"lon": -77.03891616666667, "bike_id": "1b3346fb19c34bf91be5d6e9975e1dc9", "lat": 38.90993533333334, "fusion_lon": 0.0, "fusion_lat": 0.0, "type": "electric_scooter", "name": "1b3346fb19c34bf91be5d6e9975e1dc9", "is_disabled": 0, "rental_uris": {"ios": "https://dc.lft.to/lastmile_qr_scan", "android": "https://dc.lft.to/lastmile_qr_scan"}, "is_reserved": 0}, {"lon": -76.99849683333333, "bike_id": "8a3992800a97c917718f173bd488c1de", "lat": 38.902121, "fusion_lon": 0.0, "fusion_lat": 0.0, "type": "electric_scooter", "name": "8a3992800a97c917718f173bd488c1de", "is_disabled": 0, "rental_uris": {"ios": "https://dc.lft.to/lastmile_qr_scan", "android": "https://dc.lft.to/lastmile_qr_scan"}, "is_reserved": 0}, {"lon": -77.03482766666667, "bike_id": "98550a24fe5a2928628a12d39a9192b7", "lat": 38.928686166666665, "fusion_lon": 0.0, "fusion_lat": 0.0, "type": "electric_scooter", "name": "98550a24fe5a2928628a12d39a9192b7", "is_disabled": 0, "rental_uris": {"ios": "https://dc.lft.to/lastmile_qr_scan", "android": "https://dc.lft.to/lastmile_qr_scan"}, "is_reserved": 0}, {"lon": -77.00577316666667, "bike_id": "409e1f7a6e4afd5a0f4b0cfa6fd7b005", "lat": 38.88434916666667, "fusion_lon": 0.0, "fusion_lat": 0.0, "type": "electric_scooter", "name": "409e1f7a6e4afd5a0f4b0cfa6fd7b005", "is_disabled": 0, "rental_uris": {"ios": "https://dc.lft.to/lastmile_qr_scan", "android": "https://dc.lft.to/lastmile_qr_scan"}, "is_reserved": 0}, {"lon": -77.037183, "bike_id": "2f73e624fc31bf9c71c9e0a14ddfb1c4", "lat": 38.92635633333333, "fusion_lon": 0.0, "fusion_lat": 0.0, "type": "electric_scooter", "name": "2f73e624fc31bf9c71c9e0a14ddfb1c4", "is_disabled": 0, "rental_uris": {"ios": "https://dc.lft.to/lastmile_qr_scan", "android": "https://dc.lft.to/lastmile_qr_scan"}, "is_reserved": 0}, {"lon": -77.04201183333333, "bike_id": "7b09a10ca8f434442126a7c1bfe2414e", "lat": 38.9208995, "fusion_lon": 0.0, "fusion_lat": 0.0, "type": "electric_scooter", "name": "7b09a10ca8f434442126a7c1bfe2414e", "is_disabled": 0, "rental_uris": {"ios": "https://dc.lft.to/lastmile_qr_scan", "android": "https://dc.lft.to/lastmile_qr_scan"}, "is_reserved": 0}, {"lon": -77.009556, "bike_id": "b4d862f9cc51c06ceb2586aed0c57123", "lat": 38.87631283333333, "fusion_lon": 0.0, "fusion_lat": 0.0, "type": "electric_scooter", "name": "b4d862f9cc51c06ceb2586aed0c57123", "is_disabled": 0, "rental_uris": {"ios": "https://dc.lft.to/lastmile_qr_scan", "android": "https://dc.lft.to/lastmile_qr_scan"}, "is_reserved": 0}, {"lon": -76.99025683333333, "bike_id": "822daeca7c620bf4c544a07e6a5df817", "lat": 38.90154783333333, "fusion_lon": 0.0, "fusion_lat": 0.0, "type": "electric_scooter", "name": "822daeca7c620bf4c544a07e6a5df817", "is_disabled": 0, "rental_uris": {"ios": "https://dc.lft.to/lastmile_qr_scan", "android": "https://dc.lft.to/lastmile_qr_scan"}, "is_reserved": 0}, {"lon": -76.98109716666667, "bike_id": "8bec4c183b0ace9b3e1b8d894a80b6f9", "lat": 38.904000833333335, "fusion_lon": 0.0, "fusion_lat": 0.0, "type": "electric_scooter", "name": "8bec4c183b0ace9b3e1b8d894a80b6f9", "is_disabled": 0, "rental_uris": {"ios": "https://dc.lft.to/lastmile_qr_scan", "android": "https://dc.lft.to/lastmile_qr_scan"}, "is_reserved": 0}, {"lon": -77.05127933333333, "bike_id": "6f8b89c901cc344ea8215089436ab3ff", "lat": 38.92361616666667, "fusion_lon": 0.0, "fusion_lat": 0.0, "type": "electric_scooter", "name": "6f8b89c901cc344ea8215089436ab3ff", "is_disabled": 0, "rental_uris": {"ios": "https://dc.lft.to/lastmile_qr_scan", "android": "https://dc.lft.to/lastmile_qr_scan"}, "is_reserved": 0}, {"lon": -77.00359216666666, "bike_id": "51c590e1e42b5c98f625b0f051a14ace", "lat": 38.899371, "fusion_lon": 0.0, "fusion_lat": 0.0, "type": "electric_scooter", "name": "51c590e1e42b5c98f625b0f051a14ace", "is_disabled": 0, "rental_uris": {"ios": "https://dc.lft.to/lastmile_qr_scan", "android": "https://dc.lft.to/lastmile_qr_scan"}, "is_reserved": 0}, {"lon": -77.03261266666667, "bike_id": "bd6f55c60fa3103a86831322fb19748d", "lat": 38.91995083333333, "fusion_lon": 0.0, "fusion_lat": 0.0, "type": "electric_scooter", "name": "bd6f55c60fa3103a86831322fb19748d", "is_disabled": 0, "rental_uris": {"ios": "https://dc.lft.to/lastmile_qr_scan", "android": "https://dc.lft.to/lastmile_qr_scan"}, "is_reserved": 0}, {"lon": -77.05043383333333, "bike_id": "47458b39aeaa052c151b11e7f09e5616", "lat": 38.92376933333333, "fusion_lon": 0.0, "fusion_lat": 0.0, "type": "electric_scooter", "name": "47458b39aeaa052c151b11e7f09e5616", "is_disabled": 0, "rental_uris": {"ios": "https://dc.lft.to/lastmile_qr_scan", "android": "https://dc.lft.to/lastmile_qr_scan"}, "is_reserved": 0}, {"lon": -77.05508683333333, "bike_id": "8b8e586ddcc4e714df0912849ae39223", "lat": 38.904394, "fusion_lon": 0.0, "fusion_lat": 0.0, "type": "electric_scooter", "name": "8b8e586ddcc4e714df0912849ae39223", "is_disabled": 0, "rental_uris": {"ios": "https://dc.lft.to/lastmile_qr_scan", "android": "https://dc.lft.to/lastmile_qr_scan"}, "is_reserved": 0}, {"lon": -77.029585, "bike_id": "12d40f8ddebef92c020a4736807840ae", "lat": 38.92167883333333, "fusion_lon": 0.0, "fusion_lat": 0.0, "type": "electric_scooter", "name": "12d40f8ddebef92c020a4736807840ae", "is_disabled": 0, "rental_uris": {"ios": "https://dc.lft.to/lastmile_qr_scan", "android": "https://dc.lft.to/lastmile_qr_scan"}, "is_reserved": 0}, {"lon": -77.03265033333334, "bike_id": "0dd41f861fcac96ee234d1bd1665252f", "lat": 38.9415485, "fusion_lon": 0.0, "fusion_lat": 0.0, "type": "electric_scooter", "name": "0dd41f861fcac96ee234d1bd1665252f", "is_disabled": 0, "rental_uris": {"ios": "https://dc.lft.to/lastmile_qr_scan", "android": "https://dc.lft.to/lastmile_qr_scan"}, "is_reserved": 0}, {"lon": -77.03670866666667, "bike_id": "526a0f95b68cd81d914d07093ad78693", "lat": 38.916873333333335, "fusion_lon": 0.0, "fusion_lat": 0.0, "type": "electric_scooter", "name": "526a0f95b68cd81d914d07093ad78693", "is_disabled": 0, "rental_uris": {"ios": "https://dc.lft.to/lastmile_qr_scan", "android": "https://dc.lft.to/lastmile_qr_scan"}, "is_reserved": 0}, {"lon": -77.01118616666666, "bike_id": "677c57cef3af2579dd32e4bc0346abbf", "lat": 38.89588616666666, "fusion_lon": 0.0, "fusion_lat": 0.0, "type": "electric_scooter", "name": "677c57cef3af2579dd32e4bc0346abbf", "is_disabled": 0, "rental_uris": {"ios": "https://dc.lft.to/lastmile_qr_scan", "android": "https://dc.lft.to/lastmile_qr_scan"}, "is_reserved": 0}, {"lon": -77.0443865, "bike_id": "f8a62e74c6069ed2e4715a62b67e2657", "lat": 38.90300033333333, "fusion_lon": 0.0, "fusion_lat": 0.0, "type": "electric_scooter", "name": "f8a62e74c6069ed2e4715a62b67e2657", "is_disabled": 0, "rental_uris": {"ios": "https://dc.lft.to/lastmile_qr_scan", "android": "https://dc.lft.to/lastmile_qr_scan"}, "is_reserved": 0}, {"lon": -77.02189716666666, "bike_id": "6bb245c10b496bff0efc77de4d58744a", "lat": 38.9053575, "fusion_lon": 0.0, "fusion_lat": 0.0, "type": "electric_scooter", "name": "6bb245c10b496bff0efc77de4d58744a", "is_disabled": 0, "rental_uris": {"ios": "https://dc.lft.to/lastmile_qr_scan", "android": "https://dc.lft.to/lastmile_qr_scan"}, "is_reserved": 0}, {"lon": -76.9775465, "bike_id": "9f2bd15076d9cac7c0f33f075224f227", "lat": 38.8650475, "fusion_lon": 0.0, "fusion_lat": 0.0, "type": "electric_scooter", "name": "9f2bd15076d9cac7c0f33f075224f227", "is_disabled": 0, "rental_uris": {"ios": "https://dc.lft.to/lastmile_qr_scan", "android": "https://dc.lft.to/lastmile_qr_scan"}, "is_reserved": 0}, {"lon": -77.02691966666667, "bike_id": "2f20f830e487286685dccd51bc77801a", "lat": 38.90836566666667, "fusion_lon": 0.0, "fusion_lat": 0.0, "type": "electric_scooter", "name": "2f20f830e487286685dccd51bc77801a", "is_disabled": 0, "rental_uris": {"ios": "https://dc.lft.to/lastmile_qr_scan", "android": "https://dc.lft.to/lastmile_qr_scan"}, "is_reserved": 0}, {"lon": -77.02985883333334, "bike_id": "e09322a6b54371c36b1d80afb88eb6cb", "lat": 38.93003483333333, "fusion_lon": 0.0, "fusion_lat": 0.0, "type": "electric_scooter", "name": "e09322a6b54371c36b1d80afb88eb6cb", "is_disabled": 0, "rental_uris": {"ios": "https://dc.lft.to/lastmile_qr_scan", "android": "https://dc.lft.to/lastmile_qr_scan"}, "is_reserved": 0}, {"lon": -77.0113555, "bike_id": "6dec3b16e52275ce73730defb33e9333", "lat": 38.894918833333335, "fusion_lon": 0.0, "fusion_lat": 0.0, "type": "electric_scooter", "name": "6dec3b16e52275ce73730defb33e9333", "is_disabled": 0, "rental_uris": {"ios": "https://dc.lft.to/lastmile_qr_scan", "android": "https://dc.lft.to/lastmile_qr_scan"}, "is_reserved": 0}, {"lon": -77.0211015, "bike_id": "0a25943e2b40877851a1896cf2b8e871", "lat": 38.91770533333333, "fusion_lon": 0.0, "fusion_lat": 0.0, "type": "electric_scooter", "name": "0a25943e2b40877851a1896cf2b8e871", "is_disabled": 0, "rental_uris": {"ios": "https://dc.lft.to/lastmile_qr_scan", "android": "https://dc.lft.to/lastmile_qr_scan"}, "is_reserved": 0}, {"lon": -77.07701533333334, "bike_id": "b4f6f1bb32dcd2cffe3165577e38bfc8", "lat": 38.84089133333333, "fusion_lon": 0.0, "fusion_lat": 0.0, "type": "electric_bike", "name": "b4f6f1bb32dcd2cffe3165577e38bfc8", "is_disabled": 0, "rental_uris": {"ios": "https://dc.lft.to/lastmile_qr_scan", "android": "https://dc.lft.to/lastmile_qr_scan"}, "is_reserved": 0}, {"lon": -77.02691816666666, "bike_id": "1bcdf7eb1c0588067b4e0e03e36ae62a", "lat": 38.90683533333333, "fusion_lon": 0.0, "fusion_lat": 0.0, "type": "electric_scooter", "name": "1bcdf7eb1c0588067b4e0e03e36ae62a", "is_disabled": 0, "rental_uris": {"ios": "https://dc.lft.to/lastmile_qr_scan", "android": "https://dc.lft.to/lastmile_qr_scan"}, "is_reserved": 0}, {"lon": -77.01731366666667, "bike_id": "d9c79bfb89f0e6b77b05b8ffb6b5a2d8", "lat": 38.94314683333333, "fusion_lon": 0.0, "fusion_lat": 0.0, "type": "electric_scooter", "name": "d9c79bfb89f0e6b77b05b8ffb6b5a2d8", "is_disabled": 0, "rental_uris": {"ios": "https://dc.lft.to/lastmile_qr_scan", "android": "https://dc.lft.to/lastmile_qr_scan"}, "is_reserved": 0}, {"lon": -77.04190183333333, "bike_id": "246419efdbb3bd418c1ea8e22d4dc438", "lat": 38.926096666666666, "fusion_lon": 0.0, "fusion_lat": 0.0, "type": "electric_scooter", "name": "246419efdbb3bd418c1ea8e22d4dc438", "is_disabled": 0, "rental_uris": {"ios": "https://dc.lft.to/lastmile_qr_scan", "android": "https://dc.lft.to/lastmile_qr_scan"}, "is_reserved": 0}, {"lon": -77.03812583333334, "bike_id": "d05791877de3aa468599210154e8d246", "lat": 38.9206235, "fusion_lon": 0.0, "fusion_lat": 0.0, "type": "electric_scooter", "name": "d05791877de3aa468599210154e8d246", "is_disabled": 0, "rental_uris": {"ios": "https://dc.lft.to/lastmile_qr_scan", "android": "https://dc.lft.to/lastmile_qr_scan"}, "is_reserved": 0}, {"lon": -77.03232933333334, "bike_id": "56b89948f28a82c484ca7b9abacb1a4e", "lat": 38.92690133333333, "fusion_lon": 0.0, "fusion_lat": 0.0, "type": "electric_scooter", "name": "56b89948f28a82c484ca7b9abacb1a4e", "is_disabled": 0, "rental_uris": {"ios": "https://dc.lft.to/lastmile_qr_scan", "android": "https://dc.lft.to/lastmile_qr_scan"}, "is_reserved": 0}, {"lon": -76.93175666666667, "bike_id": "dda59e36c46a9166b50e6c1d987f33c6", "lat": 38.8988205, "fusion_lon": 0.0, "fusion_lat": 0.0, "type": "electric_scooter", "name": "dda59e36c46a9166b50e6c1d987f33c6", "is_disabled": 0, "rental_uris": {"ios": "https://dc.lft.to/lastmile_qr_scan", "android": "https://dc.lft.to/lastmile_qr_scan"}, "is_reserved": 0}, {"lon": -77.03290466666667, "bike_id": "d8816fd911c03649c78c0b92cb1cea45", "lat": 38.95646883333333, "fusion_lon": 0.0, "fusion_lat": 0.0, "type": "electric_scooter", "name": "d8816fd911c03649c78c0b92cb1cea45", "is_disabled": 0, "rental_uris": {"ios": "https://dc.lft.to/lastmile_qr_scan", "android": "https://dc.lft.to/lastmile_qr_scan"}, "is_reserved": 0}, {"lon": -77.02649866666667, "bike_id": "03738d17b65968cc53d9b689d7de8dd7", "lat": 38.9756315, "fusion_lon": 0.0, "fusion_lat": 0.0, "type": "electric_scooter", "name": "03738d17b65968cc53d9b689d7de8dd7", "is_disabled": 0, "rental_uris": {"ios": "https://dc.lft.to/lastmile_qr_scan", "android": "https://dc.lft.to/lastmile_qr_scan"}, "is_reserved": 0}, {"lon": -77.02816216666666, "bike_id": "0504f6bed2881c5670a4e36ee66528c9", "lat": 38.96505166666667, "fusion_lon": 0.0, "fusion_lat": 0.0, "type": "electric_bike", "name": "0504f6bed2881c5670a4e36ee66528c9", "is_disabled": 0, "rental_uris": {"ios": "https://dc.lft.to/lastmile_qr_scan", "android": "https://dc.lft.to/lastmile_qr_scan"}, "is_reserved": 0}, {"lon": -76.93017633333334, "bike_id": "fc2823b9a5a5dc91cbc1933ce08c1622", "lat": 38.89651466666667, "fusion_lon": 0.0, "fusion_lat": 0.0, "type": "electric_bike", "name": "fc2823b9a5a5dc91cbc1933ce08c1622", "is_disabled": 0, "rental_uris": {"ios": "https://dc.lft.to/lastmile_qr_scan", "android": "https://dc.lft.to/lastmile_qr_scan"}, "is_reserved": 0}, {"lon": -76.9364525, "bike_id": "f38b5c31a6997653b696399797431e2a", "lat": 38.900623333333336, "fusion_lon": 0.0, "fusion_lat": 0.0, "type": "electric_scooter", "name": "f38b5c31a6997653b696399797431e2a", "is_disabled": 0, "rental_uris": {"ios": "https://dc.lft.to/lastmile_qr_scan", "android": "https://dc.lft.to/lastmile_qr_scan"}, "is_reserved": 0}, {"lon": -77.0133025, "bike_id": "cd08d19fa125eb971afedb25d2485391", "lat": 38.900747, "fusion_lon": 0.0, "fusion_lat": 0.0, "type": "electric_scooter", "name": "cd08d19fa125eb971afedb25d2485391", "is_disabled": 0, "rental_uris": {"ios": "https://dc.lft.to/lastmile_qr_scan", "android": "https://dc.lft.to/lastmile_qr_scan"}, "is_reserved": 0}, {"lon": -76.99897783333333, "bike_id": "fc852a8af46b998f38a8405ade360b6d", "lat": 38.90948933333333, "fusion_lon": 0.0, "fusion_lat": 0.0, "type": "electric_scooter", "name": "fc852a8af46b998f38a8405ade360b6d", "is_disabled": 0, "rental_uris": {"ios": "https://dc.lft.to/lastmile_qr_scan", "android": "https://dc.lft.to/lastmile_qr_scan"}, "is_reserved": 0}, {"lon": -77.06732583333333, "bike_id": "c7e16275b459cf6ae31a923da6ed40cc", "lat": 38.9097225, "fusion_lon": 0.0, "fusion_lat": 0.0, "type": "electric_scooter", "name": "c7e16275b459cf6ae31a923da6ed40cc", "is_disabled": 0, "rental_uris": {"ios": "https://dc.lft.to/lastmile_qr_scan", "android": "https://dc.lft.to/lastmile_qr_scan"}, "is_reserved": 0}, {"lon": -77.02809633333334, "bike_id": "e0874bb07866225b7c731b163e424a1d", "lat": 38.88176516666667, "fusion_lon": 0.0, "fusion_lat": 0.0, "type": "electric_scooter", "name": "e0874bb07866225b7c731b163e424a1d", "is_disabled": 0, "rental_uris": {"ios": "https://dc.lft.to/lastmile_qr_scan", "android": "https://dc.lft.to/lastmile_qr_scan"}, "is_reserved": 0}, {"lon": -77.01115883333334, "bike_id": "b492df038ce1557dcc2e98937498fc24", "lat": 38.885504, "fusion_lon": 0.0, "fusion_lat": 0.0, "type": "electric_scooter", "name": "b492df038ce1557dcc2e98937498fc24", "is_disabled": 0, "rental_uris": {"ios": "https://dc.lft.to/lastmile_qr_scan", "android": "https://dc.lft.to/lastmile_qr_scan"}, "is_reserved": 0}, {"lon": -77.08577516666666, "bike_id": "75723f0a6b474c173fd49d6da69ac1a3", "lat": 38.9335395, "fusion_lon": 0.0, "fusion_lat": 0.0, "type": "electric_scooter", "name": "75723f0a6b474c173fd49d6da69ac1a3", "is_disabled": 0, "rental_uris": {"ios": "https://dc.lft.to/lastmile_qr_scan", "android": "https://dc.lft.to/lastmile_qr_scan"}, "is_reserved": 0}, {"lon": -77.09633966666667, "bike_id": "d8f007e6ad582ddc4dbbcbee589f8298", "lat": 38.86760916666667, "fusion_lon": 0.0, "fusion_lat": 0.0, "type": "electric_bike", "name": "d8f007e6ad582ddc4dbbcbee589f8298", "is_disabled": 0, "rental_uris": {"ios": "https://dc.lft.to/lastmile_qr_scan", "android": "https://dc.lft.to/lastmile_qr_scan"}, "is_reserved": 0}, {"lon": -77.0593555, "bike_id": "d2d4b6641fa6e0dd168adfe63c2e51ee", "lat": 38.912384333333335, "fusion_lon": 0.0, "fusion_lat": 0.0, "type": "electric_scooter", "name": "d2d4b6641fa6e0dd168adfe63c2e51ee", "is_disabled": 0, "rental_uris": {"ios": "https://dc.lft.to/lastmile_qr_scan", "android": "https://dc.lft.to/lastmile_qr_scan"}, "is_reserved": 0}, {"lon": -77.01399833333333, "bike_id": "3726cb47d367ac241f9d27810e17b6a7", "lat": 38.92856166666667, "fusion_lon": 0.0, "fusion_lat": 0.0, "type": "electric_scooter", "name": "3726cb47d367ac241f9d27810e17b6a7", "is_disabled": 0, "rental_uris": {"ios": "https://dc.lft.to/lastmile_qr_scan", "android": "https://dc.lft.to/lastmile_qr_scan"}, "is_reserved": 0}, {"lon": -77.109222, "bike_id": "1de3790cba407f4d3bf1b2d8dba4adb3", "lat": 39.05199433333333, "fusion_lon": 0.0, "fusion_lat": 0.0, "type": "electric_bike", "name": "1de3790cba407f4d3bf1b2d8dba4adb3", "is_disabled": 0, "rental_uris": {"ios": "https://dc.lft.to/lastmile_qr_scan", "android": "https://dc.lft.to/lastmile_qr_scan"}, "is_reserved": 0}, {"lon": -77.04030916666666, "bike_id": "1ba3d3442758db896d66f14580b12a83", "lat": 38.911173833333336, "fusion_lon": 0.0, "fusion_lat": 0.0, "type": "electric_scooter", "name": "1ba3d3442758db896d66f14580b12a83", "is_disabled": 0, "rental_uris": {"ios": "https://dc.lft.to/lastmile_qr_scan", "android": "https://dc.lft.to/lastmile_qr_scan"}, "is_reserved": 0}, {"lon": -77.02116933333333, "bike_id": "cd99d43f221a5f6dee4bd15199fdb0c5", "lat": 38.91737633333334, "fusion_lon": 0.0, "fusion_lat": 0.0, "type": "electric_scooter", "name": "cd99d43f221a5f6dee4bd15199fdb0c5", "is_disabled": 0, "rental_uris": {"ios": "https://dc.lft.to/lastmile_qr_scan", "android": "https://dc.lft.to/lastmile_qr_scan"}, "is_reserved": 0}, {"lon": -77.04596116666667, "bike_id": "68bb8c259b5b474599bd16e961979db1", "lat": 38.9037525, "fusion_lon": 0.0, "fusion_lat": 0.0, "type": "electric_scooter", "name": "68bb8c259b5b474599bd16e961979db1", "is_disabled": 0, "rental_uris": {"ios": "https://dc.lft.to/lastmile_qr_scan", "android": "https://dc.lft.to/lastmile_qr_scan"}, "is_reserved": 0}, {"lon": -76.99714116666667, "bike_id": "22a0de8658dc3034203474ba7493769c", "lat": 38.910957833333335, "fusion_lon": 0.0, "fusion_lat": 0.0, "type": "electric_scooter", "name": "22a0de8658dc3034203474ba7493769c", "is_disabled": 0, "rental_uris": {"ios": "https://dc.lft.to/lastmile_qr_scan", "android": "https://dc.lft.to/lastmile_qr_scan"}, "is_reserved": 0}, {"lon": -76.92994116666667, "bike_id": "591ddaeadd20fcb6e298192b1a2da337", "lat": 38.9018535, "fusion_lon": 0.0, "fusion_lat": 0.0, "type": "electric_scooter", "name": "591ddaeadd20fcb6e298192b1a2da337", "is_disabled": 0, "rental_uris": {"ios": "https://dc.lft.to/lastmile_qr_scan", "android": "https://dc.lft.to/lastmile_qr_scan"}, "is_reserved": 0}, {"lon": -77.06493383333333, "bike_id": "f174b1760897b0a32d717937bb93a609", "lat": 38.92905966666667, "fusion_lon": 0.0, "fusion_lat": 0.0, "type": "electric_scooter", "name": "f174b1760897b0a32d717937bb93a609", "is_disabled": 0, "rental_uris": {"ios": "https://dc.lft.to/lastmile_qr_scan", "android": "https://dc.lft.to/lastmile_qr_scan"}, "is_reserved": 0}, {"lon": -77.04809316666666, "bike_id": "bf31f4fcfc789c8e7f282d190665a737", "lat": 38.920256333333334, "fusion_lon": 0.0, "fusion_lat": 0.0, "type": "electric_scooter", "name": "bf31f4fcfc789c8e7f282d190665a737", "is_disabled": 0, "rental_uris": {"ios": "https://dc.lft.to/lastmile_qr_scan", "android": "https://dc.lft.to/lastmile_qr_scan"}, "is_reserved": 0}, {"lon": -77.0378315, "bike_id": "d948a25cb9ee63046351fcf1af873bd9", "lat": 38.92574, "fusion_lon": 0.0, "fusion_lat": 0.0, "type": "electric_scooter", "name": "d948a25cb9ee63046351fcf1af873bd9", "is_disabled": 0, "rental_uris": {"ios": "https://dc.lft.to/lastmile_qr_scan", "android": "https://dc.lft.to/lastmile_qr_scan"}, "is_reserved": 0}, {"lon": -77.00890383333333, "bike_id": "5bb4b163de67d0f9fa65902ce0f0408b", "lat": 38.917113, "fusion_lon": 0.0, "fusion_lat": 0.0, "type": "electric_scooter", "name": "5bb4b163de67d0f9fa65902ce0f0408b", "is_disabled": 0, "rental_uris": {"ios": "https://dc.lft.to/lastmile_qr_scan", "android": "https://dc.lft.to/lastmile_qr_scan"}, "is_reserved": 0}, {"lon": -77.02671916666667, "bike_id": "8c4acbb1dc5fde5dde0729bd03a162fd", "lat": 38.984275833333335, "fusion_lon": 0.0, "fusion_lat": 0.0, "type": "electric_scooter", "name": "8c4acbb1dc5fde5dde0729bd03a162fd", "is_disabled": 0, "rental_uris": {"ios": "https://dc.lft.to/lastmile_qr_scan", "android": "https://dc.lft.to/lastmile_qr_scan"}, "is_reserved": 0}, {"lon": -76.99121716666667, "bike_id": "5a091dabf0443cea4f799809df6a59ef", "lat": 38.862009, "fusion_lon": 0.0, "fusion_lat": 0.0, "type": "electric_scooter", "name": "5a091dabf0443cea4f799809df6a59ef", "is_disabled": 0, "rental_uris": {"ios": "https://dc.lft.to/lastmile_qr_scan", "android": "https://dc.lft.to/lastmile_qr_scan"}, "is_reserved": 0}, {"lon": -76.99466066666666, "bike_id": "ac11962afb7003b145c9e8f6e57e7fcf", "lat": 38.8622125, "fusion_lon": 0.0, "fusion_lat": 0.0, "type": "electric_scooter", "name": "ac11962afb7003b145c9e8f6e57e7fcf", "is_disabled": 0, "rental_uris": {"ios": "https://dc.lft.to/lastmile_qr_scan", "android": "https://dc.lft.to/lastmile_qr_scan"}, "is_reserved": 0}, {"lon": -77.00202366666667, "bike_id": "c026cc0f078e5936bf50b81de50162e1", "lat": 38.900299, "fusion_lon": 0.0, "fusion_lat": 0.0, "type": "electric_scooter", "name": "c026cc0f078e5936bf50b81de50162e1", "is_disabled": 0, "rental_uris": {"ios": "https://dc.lft.to/lastmile_qr_scan", "android": "https://dc.lft.to/lastmile_qr_scan"}, "is_reserved": 0}, {"lon": -77.02586166666667, "bike_id": "ede445dcd85ae6962a8dc8470367eb31", "lat": 38.892318833333334, "fusion_lon": 0.0, "fusion_lat": 0.0, "type": "electric_scooter", "name": "ede445dcd85ae6962a8dc8470367eb31", "is_disabled": 0, "rental_uris": {"ios": "https://dc.lft.to/lastmile_qr_scan", "android": "https://dc.lft.to/lastmile_qr_scan"}, "is_reserved": 0}, {"lon": -76.98244016666666, "bike_id": "c8edf5991b2e764dc4d12f1f00b0782f", "lat": 38.881326, "fusion_lon": 0.0, "fusion_lat": 0.0, "type": "electric_scooter", "name": "c8edf5991b2e764dc4d12f1f00b0782f", "is_disabled": 0, "rental_uris": {"ios": "https://dc.lft.to/lastmile_qr_scan", "android": "https://dc.lft.to/lastmile_qr_scan"}, "is_reserved": 0}, {"lon": -77.048167, "bike_id": "54dec2d055317bc52f82f0d58085605d", "lat": 38.91638483333333, "fusion_lon": 0.0, "fusion_lat": 0.0, "type": "electric_scooter", "name": "54dec2d055317bc52f82f0d58085605d", "is_disabled": 0, "rental_uris": {"ios": "https://dc.lft.to/lastmile_qr_scan", "android": "https://dc.lft.to/lastmile_qr_scan"}, "is_reserved": 0}, {"lon": -77.0339885, "bike_id": "bd51e06f8ce58d4f1b8ea7294e48eee6", "lat": 38.9311565, "fusion_lon": 0.0, "fusion_lat": 0.0, "type": "electric_scooter", "name": "bd51e06f8ce58d4f1b8ea7294e48eee6", "is_disabled": 0, "rental_uris": {"ios": "https://dc.lft.to/lastmile_qr_scan", "android": "https://dc.lft.to/lastmile_qr_scan"}, "is_reserved": 0}, {"lon": -77.02389366666667, "bike_id": "daffbe69c26575b1e0f84a19a717b93a", "lat": 38.908461, "fusion_lon": 0.0, "fusion_lat": 0.0, "type": "electric_scooter", "name": "daffbe69c26575b1e0f84a19a717b93a", "is_disabled": 0, "rental_uris": {"ios": "https://dc.lft.to/lastmile_qr_scan", "android": "https://dc.lft.to/lastmile_qr_scan"}, "is_reserved": 0}, {"lon": -77.009237, "bike_id": "b1bbafee74c577960a18241c8dc4b2f2", "lat": 38.8964565, "fusion_lon": 0.0, "fusion_lat": 0.0, "type": "electric_scooter", "name": "b1bbafee74c577960a18241c8dc4b2f2", "is_disabled": 0, "rental_uris": {"ios": "https://dc.lft.to/lastmile_qr_scan", "android": "https://dc.lft.to/lastmile_qr_scan"}, "is_reserved": 0}, {"lon": -77.00152833333334, "bike_id": "452dd27d7642d7a3e2c889de6c2532f0", "lat": 38.889943333333335, "fusion_lon": 0.0, "fusion_lat": 0.0, "type": "electric_scooter", "name": "452dd27d7642d7a3e2c889de6c2532f0", "is_disabled": 0, "rental_uris": {"ios": "https://dc.lft.to/lastmile_qr_scan", "android": "https://dc.lft.to/lastmile_qr_scan"}, "is_reserved": 0}, {"lon": -77.04628283333334, "bike_id": "bba4bcae9d18c4a63bac4b003923014c", "lat": 38.9056125, "fusion_lon": 0.0, "fusion_lat": 0.0, "type": "electric_scooter", "name": "bba4bcae9d18c4a63bac4b003923014c", "is_disabled": 0, "rental_uris": {"ios": "https://dc.lft.to/lastmile_qr_scan", "android": "https://dc.lft.to/lastmile_qr_scan"}, "is_reserved": 0}, {"lon": -77.0273925, "bike_id": "f5430b1a5ce73997f117a3686bb5c500", "lat": 38.927673, "fusion_lon": 0.0, "fusion_lat": 0.0, "type": "electric_scooter", "name": "f5430b1a5ce73997f117a3686bb5c500", "is_disabled": 0, "rental_uris": {"ios": "https://dc.lft.to/lastmile_qr_scan", "android": "https://dc.lft.to/lastmile_qr_scan"}, "is_reserved": 0}, {"lon": -77.02417616666666, "bike_id": "b04777b2e7227e01ec69c73b12ee73aa", "lat": 38.91779316666667, "fusion_lon": 0.0, "fusion_lat": 0.0, "type": "electric_scooter", "name": "b04777b2e7227e01ec69c73b12ee73aa", "is_disabled": 0, "rental_uris": {"ios": "https://dc.lft.to/lastmile_qr_scan", "android": "https://dc.lft.to/lastmile_qr_scan"}, "is_reserved": 0}, {"lon": -77.02969316666666, "bike_id": "8ccfa63814dd5b3b8d53d0abac5617ac", "lat": 38.91246683333333, "fusion_lon": 0.0, "fusion_lat": 0.0, "type": "electric_scooter", "name": "8ccfa63814dd5b3b8d53d0abac5617ac", "is_disabled": 0, "rental_uris": {"ios": "https://dc.lft.to/lastmile_qr_scan", "android": "https://dc.lft.to/lastmile_qr_scan"}, "is_reserved": 0}, {"lon": -77.036453, "bike_id": "1fb697dfd8cf774ea194bd4339103df1", "lat": 38.902850666666666, "fusion_lon": 0.0, "fusion_lat": 0.0, "type": "electric_scooter", "name": "1fb697dfd8cf774ea194bd4339103df1", "is_disabled": 0, "rental_uris": {"ios": "https://dc.lft.to/lastmile_qr_scan", "android": "https://dc.lft.to/lastmile_qr_scan"}, "is_reserved": 0}, {"lon": -77.02286716666667, "bike_id": "ed677df9903299fc99b3557dd4792819", "lat": 38.91642216666666, "fusion_lon": 0.0, "fusion_lat": 0.0, "type": "electric_scooter", "name": "ed677df9903299fc99b3557dd4792819", "is_disabled": 0, "rental_uris": {"ios": "https://dc.lft.to/lastmile_qr_scan", "android": "https://dc.lft.to/lastmile_qr_scan"}, "is_reserved": 0}, {"lon": -77.04220116666667, "bike_id": "1e5cb55857192c409c86f94460a5af65", "lat": 38.911192666666665, "fusion_lon": 0.0, "fusion_lat": 0.0, "type": "electric_scooter", "name": "1e5cb55857192c409c86f94460a5af65", "is_disabled": 0, "rental_uris": {"ios": "https://dc.lft.to/lastmile_qr_scan", "android": "https://dc.lft.to/lastmile_qr_scan"}, "is_reserved": 0}, {"lon": -76.9884325, "bike_id": "d5a11da000448678f7d090a5969869df", "lat": 38.842780833333336, "fusion_lon": 0.0, "fusion_lat": 0.0, "type": "electric_bike", "name": "d5a11da000448678f7d090a5969869df", "is_disabled": 0, "rental_uris": {"ios": "https://dc.lft.to/lastmile_qr_scan", "android": "https://dc.lft.to/lastmile_qr_scan"}, "is_reserved": 0}, {"lon": -77.02486433333333, "bike_id": "7b7ecf141f0db284562882b10bdf19cb", "lat": 38.901719, "fusion_lon": 0.0, "fusion_lat": 0.0, "type": "electric_scooter", "name": "7b7ecf141f0db284562882b10bdf19cb", "is_disabled": 0, "rental_uris": {"ios": "https://dc.lft.to/lastmile_qr_scan", "android": "https://dc.lft.to/lastmile_qr_scan"}, "is_reserved": 0}, {"lon": -77.02366233333333, "bike_id": "f22b02eda46cb22ebc22bcb66a54de09", "lat": 38.89219083333333, "fusion_lon": 0.0, "fusion_lat": 0.0, "type": "electric_scooter", "name": "f22b02eda46cb22ebc22bcb66a54de09", "is_disabled": 0, "rental_uris": {"ios": "https://dc.lft.to/lastmile_qr_scan", "android": "https://dc.lft.to/lastmile_qr_scan"}, "is_reserved": 0}, {"lon": -76.97052966666666, "bike_id": "9533537769d8d4e05634d462d1406a31", "lat": 38.89772266666667, "fusion_lon": 0.0, "fusion_lat": 0.0, "type": "electric_scooter", "name": "9533537769d8d4e05634d462d1406a31", "is_disabled": 0, "rental_uris": {"ios": "https://dc.lft.to/lastmile_qr_scan", "android": "https://dc.lft.to/lastmile_qr_scan"}, "is_reserved": 0}, {"lon": -77.057309, "bike_id": "93204823ae91a29bd711defbfe79569e", "lat": 38.93359, "fusion_lon": 0.0, "fusion_lat": 0.0, "type": "electric_scooter", "name": "93204823ae91a29bd711defbfe79569e", "is_disabled": 0, "rental_uris": {"ios": "https://dc.lft.to/lastmile_qr_scan", "android": "https://dc.lft.to/lastmile_qr_scan"}, "is_reserved": 0}, {"lon": -77.000492, "bike_id": "1b24e234cb90d267ff971058cb1f262a", "lat": 38.923925, "fusion_lon": 0.0, "fusion_lat": 0.0, "type": "electric_scooter", "name": "1b24e234cb90d267ff971058cb1f262a", "is_disabled": 0, "rental_uris": {"ios": "https://dc.lft.to/lastmile_qr_scan", "android": "https://dc.lft.to/lastmile_qr_scan"}, "is_reserved": 0}, {"lon": -77.00448916666667, "bike_id": "b407c5b9a74f00ea64690b2754e27a7f", "lat": 38.87752666666667, "fusion_lon": 0.0, "fusion_lat": 0.0, "type": "electric_scooter", "name": "b407c5b9a74f00ea64690b2754e27a7f", "is_disabled": 0, "rental_uris": {"ios": "https://dc.lft.to/lastmile_qr_scan", "android": "https://dc.lft.to/lastmile_qr_scan"}, "is_reserved": 0}, {"lon": -77.07598983333334, "bike_id": "34a2136969af34e2723b38149c9721ee", "lat": 38.9121725, "fusion_lon": 0.0, "fusion_lat": 0.0, "type": "electric_scooter", "name": "34a2136969af34e2723b38149c9721ee", "is_disabled": 0, "rental_uris": {"ios": "https://dc.lft.to/lastmile_qr_scan", "android": "https://dc.lft.to/lastmile_qr_scan"}, "is_reserved": 0}, {"lon": -77.031738, "bike_id": "fdbd893eafc5de6673c74521f150dc86", "lat": 38.921056166666666, "fusion_lon": 0.0, "fusion_lat": 0.0, "type": "electric_bike", "name": "fdbd893eafc5de6673c74521f150dc86", "is_disabled": 0, "rental_uris": {"ios": "https://dc.lft.to/lastmile_qr_scan", "android": "https://dc.lft.to/lastmile_qr_scan"}, "is_reserved": 0}, {"lon": -77.01500333333334, "bike_id": "d772681f780bf09a7d87e0839e9dc298", "lat": 38.91767466666667, "fusion_lon": 0.0, "fusion_lat": 0.0, "type": "electric_scooter", "name": "d772681f780bf09a7d87e0839e9dc298", "is_disabled": 0, "rental_uris": {"ios": "https://dc.lft.to/lastmile_qr_scan", "android": "https://dc.lft.to/lastmile_qr_scan"}, "is_reserved": 0}, {"lon": -76.99089333333333, "bike_id": "81ec41ffeba7fa417a5c73072268a628", "lat": 38.8981385, "fusion_lon": 0.0, "fusion_lat": 0.0, "type": "electric_bike", "name": "81ec41ffeba7fa417a5c73072268a628", "is_disabled": 0, "rental_uris": {"ios": "https://dc.lft.to/lastmile_qr_scan", "android": "https://dc.lft.to/lastmile_qr_scan"}, "is_reserved": 0}, {"lon": -77.00582766666666, "bike_id": "e71c0e581590735c6ca656a16c29c140", "lat": 38.90551083333333, "fusion_lon": 0.0, "fusion_lat": 0.0, "type": "electric_scooter", "name": "e71c0e581590735c6ca656a16c29c140", "is_disabled": 0, "rental_uris": {"ios": "https://dc.lft.to/lastmile_qr_scan", "android": "https://dc.lft.to/lastmile_qr_scan"}, "is_reserved": 0}, {"lon": -76.97750633333334, "bike_id": "18f3e6011dc703ef2f0dd2b031da2800", "lat": 38.864887, "fusion_lon": 0.0, "fusion_lat": 0.0, "type": "electric_bike", "name": "18f3e6011dc703ef2f0dd2b031da2800", "is_disabled": 0, "rental_uris": {"ios": "https://dc.lft.to/lastmile_qr_scan", "android": "https://dc.lft.to/lastmile_qr_scan"}, "is_reserved": 0}, {"lon": -77.18564416666666, "bike_id": "4cc2c71983327c2dc5d8ddadab379244", "lat": 39.09975416666666, "fusion_lon": 0.0, "fusion_lat": 0.0, "type": "electric_bike", "name": "4cc2c71983327c2dc5d8ddadab379244", "is_disabled": 0, "rental_uris": {"ios": "https://dc.lft.to/lastmile_qr_scan", "android": "https://dc.lft.to/lastmile_qr_scan"}, "is_reserved": 0}, {"lon": -76.9959965, "bike_id": "1369a0e4710d20983884270bf726b231", "lat": 38.95068366666667, "fusion_lon": 0.0, "fusion_lat": 0.0, "type": "electric_bike", "name": "1369a0e4710d20983884270bf726b231", "is_disabled": 0, "rental_uris": {"ios": "https://dc.lft.to/lastmile_qr_scan", "android": "https://dc.lft.to/lastmile_qr_scan"}, "is_reserved": 0}, {"lon": -77.0329325, "bike_id": "c47516dce732f27acbd2da31a5851001", "lat": 38.934361, "fusion_lon": 0.0, "fusion_lat": 0.0, "type": "electric_scooter", "name": "c47516dce732f27acbd2da31a5851001", "is_disabled": 0, "rental_uris": {"ios": "https://dc.lft.to/lastmile_qr_scan", "android": "https://dc.lft.to/lastmile_qr_scan"}, "is_reserved": 0}, {"lon": -77.01877216666666, "bike_id": "535cbb3d7d4364f444d38c814e2fb224", "lat": 38.914160833333334, "fusion_lon": 0.0, "fusion_lat": 0.0, "type": "electric_scooter", "name": "535cbb3d7d4364f444d38c814e2fb224", "is_disabled": 0, "rental_uris": {"ios": "https://dc.lft.to/lastmile_qr_scan", "android": "https://dc.lft.to/lastmile_qr_scan"}, "is_reserved": 0}, {"lon": -77.03172683333334, "bike_id": "40a699fab855b0a3f16c861ffb9b9206", "lat": 38.936020666666664, "fusion_lon": 0.0, "fusion_lat": 0.0, "type": "electric_scooter", "name": "40a699fab855b0a3f16c861ffb9b9206", "is_disabled": 0, "rental_uris": {"ios": "https://dc.lft.to/lastmile_qr_scan", "android": "https://dc.lft.to/lastmile_qr_scan"}, "is_reserved": 0}, {"lon": -77.035479, "bike_id": "36babae0c3bbd2a5f61eb03fe6a3f7a2", "lat": 38.92411666666667, "fusion_lon": 0.0, "fusion_lat": 0.0, "type": "electric_scooter", "name": "36babae0c3bbd2a5f61eb03fe6a3f7a2", "is_disabled": 0, "rental_uris": {"ios": "https://dc.lft.to/lastmile_qr_scan", "android": "https://dc.lft.to/lastmile_qr_scan"}, "is_reserved": 0}, {"lon": -77.03718383333333, "bike_id": "da58fd95c1a315c0a691039d00e2c008", "lat": 38.926372666666666, "fusion_lon": 0.0, "fusion_lat": 0.0, "type": "electric_scooter", "name": "da58fd95c1a315c0a691039d00e2c008", "is_disabled": 0, "rental_uris": {"ios": "https://dc.lft.to/lastmile_qr_scan", "android": "https://dc.lft.to/lastmile_qr_scan"}, "is_reserved": 0}, {"lon": -76.927366, "bike_id": "d9dc34afc32fc63144295d181c5a2b51", "lat": 38.889642, "fusion_lon": 0.0, "fusion_lat": 0.0, "type": "electric_scooter", "name": "d9dc34afc32fc63144295d181c5a2b51", "is_disabled": 0, "rental_uris": {"ios": "https://dc.lft.to/lastmile_qr_scan", "android": "https://dc.lft.to/lastmile_qr_scan"}, "is_reserved": 0}, {"lon": -77.01896316666667, "bike_id": "53d3d708f18f1b67858618a267b21577", "lat": 38.905058333333336, "fusion_lon": 0.0, "fusion_lat": 0.0, "type": "electric_scooter", "name": "53d3d708f18f1b67858618a267b21577", "is_disabled": 0, "rental_uris": {"ios": "https://dc.lft.to/lastmile_qr_scan", "android": "https://dc.lft.to/lastmile_qr_scan"}, "is_reserved": 0}, {"lon": -77.0142695, "bike_id": "650c52b161266e204b7ba060d5a63ad3", "lat": 38.87648216666667, "fusion_lon": 0.0, "fusion_lat": 0.0, "type": "electric_scooter", "name": "650c52b161266e204b7ba060d5a63ad3", "is_disabled": 0, "rental_uris": {"ios": "https://dc.lft.to/lastmile_qr_scan", "android": "https://dc.lft.to/lastmile_qr_scan"}, "is_reserved": 0}, {"lon": -76.98551233333333, "bike_id": "0204f06db667ae2b9f7d6fb6dfdfcc50", "lat": 38.92006516666667, "fusion_lon": 0.0, "fusion_lat": 0.0, "type": "electric_scooter", "name": "0204f06db667ae2b9f7d6fb6dfdfcc50", "is_disabled": 0, "rental_uris": {"ios": "https://dc.lft.to/lastmile_qr_scan", "android": "https://dc.lft.to/lastmile_qr_scan"}, "is_reserved": 0}, {"lon": -77.02153633333333, "bike_id": "6c3ff6f8da39e81280d328b82b9f92d7", "lat": 38.925990666666664, "fusion_lon": 0.0, "fusion_lat": 0.0, "type": "electric_bike", "name": "6c3ff6f8da39e81280d328b82b9f92d7", "is_disabled": 0, "rental_uris": {"ios": "https://dc.lft.to/lastmile_qr_scan", "android": "https://dc.lft.to/lastmile_qr_scan"}, "is_reserved": 0}, {"lon": -76.933623, "bike_id": "f13c0a4bad5e8d8c990a917d4c23c8af", "lat": 38.899029666666664, "fusion_lon": 0.0, "fusion_lat": 0.0, "type": "electric_scooter", "name": "f13c0a4bad5e8d8c990a917d4c23c8af", "is_disabled": 0, "rental_uris": {"ios": "https://dc.lft.to/lastmile_qr_scan", "android": "https://dc.lft.to/lastmile_qr_scan"}, "is_reserved": 0}, {"lon": -76.98287966666666, "bike_id": "a9bc6211a420cbc9f97790fccbc1be4e", "lat": 38.90045466666667, "fusion_lon": 0.0, "fusion_lat": 0.0, "type": "electric_scooter", "name": "a9bc6211a420cbc9f97790fccbc1be4e", "is_disabled": 0, "rental_uris": {"ios": "https://dc.lft.to/lastmile_qr_scan", "android": "https://dc.lft.to/lastmile_qr_scan"}, "is_reserved": 0}, {"lon": -77.05174433333333, "bike_id": "8271fc836cf0191e0d00a84780b0bbb5", "lat": 38.92341716666667, "fusion_lon": 0.0, "fusion_lat": 0.0, "type": "electric_scooter", "name": "8271fc836cf0191e0d00a84780b0bbb5", "is_disabled": 0, "rental_uris": {"ios": "https://dc.lft.to/lastmile_qr_scan", "android": "https://dc.lft.to/lastmile_qr_scan"}, "is_reserved": 0}, {"lon": -77.05130566666666, "bike_id": "38cc1de31b84f533a6cd459275be5c39", "lat": 38.92361666666667, "fusion_lon": 0.0, "fusion_lat": 0.0, "type": "electric_scooter", "name": "38cc1de31b84f533a6cd459275be5c39", "is_disabled": 0, "rental_uris": {"ios": "https://dc.lft.to/lastmile_qr_scan", "android": "https://dc.lft.to/lastmile_qr_scan"}, "is_reserved": 0}, {"lon": -77.0833055, "bike_id": "b9112abd5fac8bb944c5b8bc06fc5d62", "lat": 38.92971566666667, "fusion_lon": 0.0, "fusion_lat": 0.0, "type": "electric_scooter", "name": "b9112abd5fac8bb944c5b8bc06fc5d62", "is_disabled": 0, "rental_uris": {"ios": "https://dc.lft.to/lastmile_qr_scan", "android": "https://dc.lft.to/lastmile_qr_scan"}, "is_reserved": 0}, {"lon": -77.034539, "bike_id": "b3f6b7e43f10116e782fe3b2a3f45c94", "lat": 38.9089525, "fusion_lon": 0.0, "fusion_lat": 0.0, "type": "electric_scooter", "name": "b3f6b7e43f10116e782fe3b2a3f45c94", "is_disabled": 0, "rental_uris": {"ios": "https://dc.lft.to/lastmile_qr_scan", "android": "https://dc.lft.to/lastmile_qr_scan"}, "is_reserved": 0}, {"lon": -77.03996866666667, "bike_id": "b7f180e25a59983f38abd9c870361ced", "lat": 38.924563, "fusion_lon": 0.0, "fusion_lat": 0.0, "type": "electric_scooter", "name": "b7f180e25a59983f38abd9c870361ced", "is_disabled": 0, "rental_uris": {"ios": "https://dc.lft.to/lastmile_qr_scan", "android": "https://dc.lft.to/lastmile_qr_scan"}, "is_reserved": 0}, {"lon": -77.04470916666666, "bike_id": "a82e8be7a005b4f7282d0c39caeccefc", "lat": 38.915852, "fusion_lon": 0.0, "fusion_lat": 0.0, "type": "electric_scooter", "name": "a82e8be7a005b4f7282d0c39caeccefc", "is_disabled": 0, "rental_uris": {"ios": "https://dc.lft.to/lastmile_qr_scan", "android": "https://dc.lft.to/lastmile_qr_scan"}, "is_reserved": 0}, {"lon": -77.1265055, "bike_id": "e9ee681b1be9c4b4e5307fd2f8def2ad", "lat": 38.815164833333334, "fusion_lon": 0.0, "fusion_lat": 0.0, "type": "electric_bike", "name": "e9ee681b1be9c4b4e5307fd2f8def2ad", "is_disabled": 0, "rental_uris": {"ios": "https://dc.lft.to/lastmile_qr_scan", "android": "https://dc.lft.to/lastmile_qr_scan"}, "is_reserved": 0}, {"lon": -77.03655783333333, "bike_id": "ff1436f075719b3b6dd5820734bc9b0f", "lat": 38.9211925, "fusion_lon": 0.0, "fusion_lat": 0.0, "type": "electric_scooter", "name": "ff1436f075719b3b6dd5820734bc9b0f", "is_disabled": 0, "rental_uris": {"ios": "https://dc.lft.to/lastmile_qr_scan", "android": "https://dc.lft.to/lastmile_qr_scan"}, "is_reserved": 0}, {"lon": -77.02204533333334, "bike_id": "fed29b755ecb7d401beb9247fffc4afd", "lat": 38.91012116666667, "fusion_lon": 0.0, "fusion_lat": 0.0, "type": "electric_scooter", "name": "fed29b755ecb7d401beb9247fffc4afd", "is_disabled": 0, "rental_uris": {"ios": "https://dc.lft.to/lastmile_qr_scan", "android": "https://dc.lft.to/lastmile_qr_scan"}, "is_reserved": 0}, {"lon": -76.92203966666666, "bike_id": "34470d0d2b2a4cd25b6d1baa378d75ee", "lat": 38.894998666666666, "fusion_lon": 0.0, "fusion_lat": 0.0, "type": "electric_bike", "name": "34470d0d2b2a4cd25b6d1baa378d75ee", "is_disabled": 0, "rental_uris": {"ios": "https://dc.lft.to/lastmile_qr_scan", "android": "https://dc.lft.to/lastmile_qr_scan"}, "is_reserved": 0}, {"lon": -77.03185333333333, "bike_id": "709fd1ceeb238e8195c156f710bcf247", "lat": 38.9117225, "fusion_lon": 0.0, "fusion_lat": 0.0, "type": "electric_scooter", "name": "709fd1ceeb238e8195c156f710bcf247", "is_disabled": 0, "rental_uris": {"ios": "https://dc.lft.to/lastmile_qr_scan", "android": "https://dc.lft.to/lastmile_qr_scan"}, "is_reserved": 0}, {"lon": -77.03264, "bike_id": "b846ce03a487a207ca66c5f78316213d", "lat": 38.9344235, "fusion_lon": 0.0, "fusion_lat": 0.0, "type": "electric_scooter", "name": "b846ce03a487a207ca66c5f78316213d", "is_disabled": 0, "rental_uris": {"ios": "https://dc.lft.to/lastmile_qr_scan", "android": "https://dc.lft.to/lastmile_qr_scan"}, "is_reserved": 0}, {"lon": -77.0032815, "bike_id": "3b0f2aeff43205da1caa850f61131918", "lat": 38.90271283333333, "fusion_lon": 0.0, "fusion_lat": 0.0, "type": "electric_scooter", "name": "3b0f2aeff43205da1caa850f61131918", "is_disabled": 0, "rental_uris": {"ios": "https://dc.lft.to/lastmile_qr_scan", "android": "https://dc.lft.to/lastmile_qr_scan"}, "is_reserved": 0},