{"data": {"bikes": [{"type": "electric_scooter", "fusion_lon": 0.0, "bike_id": "b3364d481b751977636a70af53f7a7dd", "is_disabled": 0, "lat": 38.916911, "rental_uris": {"ios": "https://dc.lft.to/lastmile_qr_scan", "android": "https://dc.lft.to/lastmile_qr_scan"}, "is_reserved": 0, "lon": -77.03472716666667, "fusion_lat": 0.0, "name": "b3364d481b751977636a70af53f7a7dd"}, {"type": "electric_scooter", "fusion_lon": 0.0, "bike_id": "f0e68c356df71b12c4858690326ab5ef", "is_disabled": 0, "lat": 38.89701316666667, "rental_uris": {"ios": "https://dc.lft.to/lastmile_qr_scan", "android": "https://dc.lft.to/lastmile_qr_scan"}, "is_reserved": 0, "lon": -77.0314545, "fusion_lat": 0.0, "name": "f0e68c356df71b12c4858690326ab5ef"}, {"type": "electric_scooter", "fusion_lon": 0.0, "bike_id": "9cbbc1b989a2938d92bf0ee6aec1e56d", "is_disabled": 0, "lat": 38.907248, "rental_uris": {"ios": "https://dc.lft.to/lastmile_qr_scan", "android": "https://dc.lft.to/lastmile_qr_scan"}, "is_reserved": 0, "lon": -77.0415645, "fusion_lat": 0.0, "name": "9cbbc1b989a2938d92bf0ee6aec1e56d"}, {"type": "electric_bike", "fusion_lon": 0.0, "bike_id": "5b5e8f592c1c91d77ec19e3f1fdaa47e", "is_disabled": 0, "lat": 38.950875833333335, "rental_uris": {"ios": "https://dc.lft.to/lastmile_qr_scan", "android": "https://dc.lft.to/lastmile_qr_scan"}, "is_reserved": 0, "lon": -77.01238366666666, "fusion_lat": 0.0, "name": "5b5e8f592c1c91d77ec19e3f1fdaa47e"}, {"type": "electric_scooter", "fusion_lon": 0.0, "bike_id": "0d0e26f2f96457833fb7f6993365ebd8", "is_disabled": 0, "lat": 38.899588, "rental_uris": {"ios": "https://dc.lft.to/lastmile_qr_scan", "android": "https://dc.lft.to/lastmile_qr_scan"}, "is_reserved": 0, "lon": -77.01612083333333, "fusion_lat": 0.0, "name": "0d0e26f2f96457833fb7f6993365ebd8"}, {"type": "electric_scooter", "fusion_lon": 0.0, "bike_id": "5dfe3f40a450418a89302753f16a8f1d", "is_disabled": 0, "lat": 38.796016333333334, "rental_uris": {"ios": "https://dc.lft.to/lastmile_qr_scan", "android": "https://dc.lft.to/lastmile_qr_scan"}, "is_reserved": 0, "lon": -77.07494133333333, "fusion_lat": 0.0, "name": "5dfe3f40a450418a89302753f16a8f1d"}, {"type": "electric_scooter", "fusion_lon": 0.0, "bike_id": "4074ddff108b260febeaae93618d1e0b", "is_disabled": 0, "lat": 38.922858833333336, "rental_uris": {"ios": "https://dc.lft.to/lastmile_qr_scan", "android": "https://dc.lft.to/lastmile_qr_scan"}, "is_reserved": 0, "lon": -77.0320195, "fusion_lat": 0.0, "name": "4074ddff108b260febeaae93618d1e0b"}, {"type": "electric_scooter", "fusion_lon": 0.0, "bike_id": "462717d4572fb205526e51af8ab8d86f", "is_disabled": 0, "lat": 38.87717583333333, "rental_uris": {"ios": "https://dc.lft.to/lastmile_qr_scan", "android": "https://dc.lft.to/lastmile_qr_scan"}, "is_reserved": 0, "lon": -77.0069065, "fusion_lat": 0.0, "name": "462717d4572fb205526e51af8ab8d86f"}, {"type": "electric_scooter", "fusion_lon": 0.0, "bike_id": "b3c568c78e1198310323b4adf3cd6faf", "is_disabled": 0, "lat": 38.90219916666667, "rental_uris": {"ios": "https://dc.lft.to/lastmile_qr_scan", "android": "https://dc.lft.to/lastmile_qr_scan"}, "is_reserved": 0, "lon": -77.03735933333333, "fusion_lat": 0.0, "name": "b3c568c78e1198310323b4adf3cd6faf"}, {"type": "electric_bike", "fusion_lon": 0.0, "bike_id": "5b31bea618a93f68587fb08b79804c65", "is_disabled": 0, "lat": 38.85757066666667, "rental_uris": {"ios": "https://dc.lft.to/lastmile_qr_scan", "android": "https://dc.lft.to/lastmile_qr_scan"}, "is_reserved": 0, "lon": -76.98758583333333, "fusion_lat": 0.0, "name": "5b31bea618a93f68587fb08b79804c65"}, {"type": "electric_scooter", "fusion_lon": 0.0, "bike_id": "5e2c1ba34b031eaeee1a9c3f23b466b1", "is_disabled": 0, "lat": 38.918827, "rental_uris": {"ios": "https://dc.lft.to/lastmile_qr_scan", "android": "https://dc.lft.to/lastmile_qr_scan"}, "is_reserved": 0, "lon": -77.024691, "fusion_lat": 0.0, "name": "5e2c1ba34b031eaeee1a9c3f23b466b1"}, {"type": "electric_scooter", "fusion_lon": 0.0, "bike_id": "0146cee96942d4c2278b6a036792daf0", "is_disabled": 0, "lat": 38.88725383333333, "rental_uris": {"ios": "https://dc.lft.to/lastmile_qr_scan", "android": "https://dc.lft.to/lastmile_qr_scan"}, "is_reserved": 0, "lon": -77.02188333333334, "fusion_lat": 0.0, "name": "0146cee96942d4c2278b6a036792daf0"}, {"type": "electric_scooter", "fusion_lon": 0.0, "bike_id": "75919c8f55e2571505c9db76ea96de0f", "is_disabled": 0, "lat": 38.930625666666664, "rental_uris": {"ios": "https://dc.lft.to/lastmile_qr_scan", "android": "https://dc.lft.to/lastmile_qr_scan"}, "is_reserved": 0, "lon": -77.03207833333333, "fusion_lat": 0.0, "name": "75919c8f55e2571505c9db76ea96de0f"}, {"type": "electric_scooter", "fusion_lon": 0.0, "bike_id": "1d8ba1302c3cce2cc6eae5aa458260d5", "is_disabled": 0, "lat": 38.92329266666667, "rental_uris": {"ios": "https://dc.lft.to/lastmile_qr_scan", "android": "https://dc.lft.to/lastmile_qr_scan"}, "is_reserved": 0, "lon": -77.000497, "fusion_lat": 0.0, "name": "1d8ba1302c3cce2cc6eae5aa458260d5"}, {"type": "electric_scooter", "fusion_lon": 0.0, "bike_id": "93f98b56af9d4a53035032d97bd3df47", "is_disabled": 0, "lat": 38.899707166666666, "rental_uris": {"ios": "https://dc.lft.to/lastmile_qr_scan", "android": "https://dc.lft.to/lastmile_qr_scan"}, "is_reserved": 0, "lon": -77.01598566666667, "fusion_lat": 0.0, "name": "93f98b56af9d4a53035032d97bd3df47"}, {"type": "electric_scooter", "fusion_lon": 0.0, "bike_id": "3f683e7ce58c14f0b2cd22fd83476317", "is_disabled": 0, "lat": 38.925737833333336, "rental_uris": {"ios": "https://dc.lft.to/lastmile_qr_scan", "android": "https://dc.lft.to/lastmile_qr_scan"}, "is_reserved": 0, "lon": -77.07885566666667, "fusion_lat": 0.0, "name": "3f683e7ce58c14f0b2cd22fd83476317"}, {"type": "electric_scooter", "fusion_lon": 0.0, "bike_id": "c2d10f395dfb5a76f926cc2dc376619c", "is_disabled": 0, "lat": 38.9192825, "rental_uris": {"ios": "https://dc.lft.to/lastmile_qr_scan", "android": "https://dc.lft.to/lastmile_qr_scan"}, "is_reserved": 0, "lon": -77.02508583333334, "fusion_lat": 0.0, "name": "c2d10f395dfb5a76f926cc2dc376619c"}, {"type": "electric_scooter", "fusion_lon": 0.0, "bike_id": "d01be40d21556b2909cd19e91472ef72", "is_disabled": 0, "lat": 38.92396933333333, "rental_uris": {"ios": "https://dc.lft.to/lastmile_qr_scan", "android": "https://dc.lft.to/lastmile_qr_scan"}, "is_reserved": 0, "lon": -77.0248685, "fusion_lat": 0.0, "name": "d01be40d21556b2909cd19e91472ef72"}, {"type": "electric_scooter", "fusion_lon": 0.0, "bike_id": "53cacabd5c7f2192c9f2f8e8dd5e0946", "is_disabled": 0, "lat": 38.9329855, "rental_uris": {"ios": "https://dc.lft.to/lastmile_qr_scan", "android": "https://dc.lft.to/lastmile_qr_scan"}, "is_reserved": 0, "lon": -77.07239583333333, "fusion_lat": 0.0, "name": "53cacabd5c7f2192c9f2f8e8dd5e0946"}, {"type": "electric_bike", "fusion_lon": 0.0, "bike_id": "88cef0c332b89c365cca391590a5a7c3", "is_disabled": 0, "lat": 38.940377833333336, "rental_uris": {"ios": "https://dc.lft.to/lastmile_qr_scan", "android": "https://dc.lft.to/lastmile_qr_scan"}, "is_reserved": 0, "lon": -76.99472133333333, "fusion_lat": 0.0, "name": "88cef0c332b89c365cca391590a5a7c3"}, {"type": "electric_scooter", "fusion_lon": 0.0, "bike_id": "3fb0f5a9baaf0bffdec83098d9b035b2", "is_disabled": 0, "lat": 38.892223666666666, "rental_uris": {"ios": "https://dc.lft.to/lastmile_qr_scan", "android": "https://dc.lft.to/lastmile_qr_scan"}, "is_reserved": 0, "lon": -77.048066, "fusion_lat": 0.0, "name": "3fb0f5a9baaf0bffdec83098d9b035b2"}, {"type": "electric_scooter", "fusion_lon": 0.0, "bike_id": "32e1b46571719351b9e90df202e7fe56", "is_disabled": 0, "lat": 38.920367666666664, "rental_uris": {"ios": "https://dc.lft.to/lastmile_qr_scan", "android": "https://dc.lft.to/lastmile_qr_scan"}, "is_reserved": 0, "lon": -77.04384733333333, "fusion_lat": 0.0, "name": "32e1b46571719351b9e90df202e7fe56"}, {"type": "electric_scooter", "fusion_lon": 0.0, "bike_id": "33c35674be811e4988e98f505771b0b2", "is_disabled": 0, "lat": 38.899605333333334, "rental_uris": {"ios": "https://dc.lft.to/lastmile_qr_scan", "android": "https://dc.lft.to/lastmile_qr_scan"}, "is_reserved": 0, "lon": -77.04510966666666, "fusion_lat": 0.0, "name": "33c35674be811e4988e98f505771b0b2"}, {"type": "electric_bike", "fusion_lon": 0.0, "bike_id": "d55ba2ff04c6512830423bb23455e9ee", "is_disabled": 0, "lat": 38.96689583333333, "rental_uris": {"ios": "https://dc.lft.to/lastmile_qr_scan", "android": "https://dc.lft.to/lastmile_qr_scan"}, "is_reserved": 0, "lon": -77.02296116666666, "fusion_lat": 0.0, "name": "d55ba2ff04c6512830423bb23455e9ee"}, {"type": "electric_scooter", "fusion_lon": 0.0, "bike_id": "fcb3569f0eb30620b8da9248038bbb37", "is_disabled": 0, "lat": 38.89218966666667, "rental_uris": {"ios": "https://dc.lft.to/lastmile_qr_scan", "android": "https://dc.lft.to/lastmile_qr_scan"}, "is_reserved": 0, "lon": -77.04472433333333, "fusion_lat": 0.0, "name": "fcb3569f0eb30620b8da9248038bbb37"}, {"type": "electric_scooter", "fusion_lon": 0.0, "bike_id": "241fc66562249bcea58eb3816c41d508", "is_disabled": 0, "lat": 38.920727, "rental_uris": {"ios": "https://dc.lft.to/lastmile_qr_scan", "android": "https://dc.lft.to/lastmile_qr_scan"}, "is_reserved": 0, "lon": -77.04256566666666, "fusion_lat": 0.0, "name": "241fc66562249bcea58eb3816c41d508"}, {"type": "electric_bike", "fusion_lon": 0.0, "bike_id": "1f51f4caeffdb721eb892b68769b39fe", "is_disabled": 0, "lat": 38.823, "rental_uris": {"ios": "https://dc.lft.to/lastmile_qr_scan", "android": "https://dc.lft.to/lastmile_qr_scan"}, "is_reserved": 0, "lon": -77.08141533333334, "fusion_lat": 0.0, "name": "1f51f4caeffdb721eb892b68769b39fe"}, {"type": "electric_scooter", "fusion_lon": 0.0, "bike_id": "f053d4fec5491832e3715b62fa2d13e8", "is_disabled": 0, "lat": 38.92381733333333, "rental_uris": {"ios": "https://dc.lft.to/lastmile_qr_scan", "android": "https://dc.lft.to/lastmile_qr_scan"}, "is_reserved": 0, "lon": -77.0366055, "fusion_lat": 0.0, "name": "f053d4fec5491832e3715b62fa2d13e8"}, {"type": "electric_scooter", "fusion_lon": 0.0, "bike_id": "0f8c3403512ddd52775994d12d4c7a84", "is_disabled": 0, "lat": 38.910275166666665, "rental_uris": {"ios": "https://dc.lft.to/lastmile_qr_scan", "android": "https://dc.lft.to/lastmile_qr_scan"}, "is_reserved": 0, "lon": -77.0432925, "fusion_lat": 0.0, "name": "0f8c3403512ddd52775994d12d4c7a84"}, {"type": "electric_scooter", "fusion_lon": 0.0, "bike_id": "54c09b23733a2eb0241149a2665f91c0", "is_disabled": 0, "lat": 38.941778166666666, "rental_uris": {"ios": "https://dc.lft.to/lastmile_qr_scan", "android": "https://dc.lft.to/lastmile_qr_scan"}, "is_reserved": 0, "lon": -76.99439666666666, "fusion_lat": 0.0, "name": "54c09b23733a2eb0241149a2665f91c0"}, {"type": "electric_scooter", "fusion_lon": 0.0, "bike_id": "bea05e9b00985ab876dad794c2706f46", "is_disabled": 0, "lat": 38.894705333333334, "rental_uris": {"ios": "https://dc.lft.to/lastmile_qr_scan", "android": "https://dc.lft.to/lastmile_qr_scan"}, "is_reserved": 0, "lon": -77.02336716666667, "fusion_lat": 0.0, "name": "bea05e9b00985ab876dad794c2706f46"}, {"type": "electric_scooter", "fusion_lon": 0.0, "bike_id": "7b5d007ec82db668bcd8e7e182ac0459", "is_disabled": 0, "lat": 38.924891, "rental_uris": {"ios": "https://dc.lft.to/lastmile_qr_scan", "android": "https://dc.lft.to/lastmile_qr_scan"}, "is_reserved": 0, "lon": -77.0318125, "fusion_lat": 0.0, "name": "7b5d007ec82db668bcd8e7e182ac0459"}, {"type": "electric_scooter", "fusion_lon": 0.0, "bike_id": "a26e5d48c8d703d2a22508b5cb27622c", "is_disabled": 0, "lat": 38.8728805, "rental_uris": {"ios": "https://dc.lft.to/lastmile_qr_scan", "android": "https://dc.lft.to/lastmile_qr_scan"}, "is_reserved": 0, "lon": -77.00990033333333, "fusion_lat": 0.0, "name": "a26e5d48c8d703d2a22508b5cb27622c"}, {"type": "electric_bike", "fusion_lon": 0.0, "bike_id": "5225c70b5e87f314a2c05e7d4f035057", "is_disabled": 0, "lat": 38.85618316666667, "rental_uris": {"ios": "https://dc.lft.to/lastmile_qr_scan", "android": "https://dc.lft.to/lastmile_qr_scan"}, "is_reserved": 0, "lon": -76.9615375, "fusion_lat": 0.0, "name": "5225c70b5e87f314a2c05e7d4f035057"}, {"type": "electric_scooter", "fusion_lon": 0.0, "bike_id": "0134bddc9b230cbaccae611353fbc28b", "is_disabled": 0, "lat": 38.91708116666667, "rental_uris": {"ios": "https://dc.lft.to/lastmile_qr_scan", "android": "https://dc.lft.to/lastmile_qr_scan"}, "is_reserved": 0, "lon": -77.03561366666666, "fusion_lat": 0.0, "name": "0134bddc9b230cbaccae611353fbc28b"}, {"type": "electric_scooter", "fusion_lon": 0.0, "bike_id": "2de7573a6d9aead40951061ae68f8562", "is_disabled": 0, "lat": 38.878723666666666, "rental_uris": {"ios": "https://dc.lft.to/lastmile_qr_scan", "android": "https://dc.lft.to/lastmile_qr_scan"}, "is_reserved": 0, "lon": -77.00642416666666, "fusion_lat": 0.0, "name": "2de7573a6d9aead40951061ae68f8562"}, {"type": "electric_scooter", "fusion_lon": 0.0, "bike_id": "0ceb84e95722087f87204b26f0930d3b", "is_disabled": 0, "lat": 38.92068966666667, "rental_uris": {"ios": "https://dc.lft.to/lastmile_qr_scan", "android": "https://dc.lft.to/lastmile_qr_scan"}, "is_reserved": 0, "lon": -77.0253265, "fusion_lat": 0.0, "name": "0ceb84e95722087f87204b26f0930d3b"}, {"type": "electric_scooter", "fusion_lon": 0.0, "bike_id": "bcff8fdbd5b4f741d2dd03ca5b46f152", "is_disabled": 0, "lat": 38.8621665, "rental_uris": {"ios": "https://dc.lft.to/lastmile_qr_scan", "android": "https://dc.lft.to/lastmile_qr_scan"}, "is_reserved": 0, "lon": -76.994808, "fusion_lat": 0.0, "name": "bcff8fdbd5b4f741d2dd03ca5b46f152"}, {"type": "electric_scooter", "fusion_lon": 0.0, "bike_id": "e103840157542f4f2e5def9541f190b1", "is_disabled": 0, "lat": 38.915703666666666, "rental_uris": {"ios": "https://dc.lft.to/lastmile_qr_scan", "android": "https://dc.lft.to/lastmile_qr_scan"}, "is_reserved": 0, "lon": -77.04176216666667, "fusion_lat": 0.0, "name": "e103840157542f4f2e5def9541f190b1"}, {"type": "electric_scooter", "fusion_lon": 0.0, "bike_id": "8efc29f00894becc71a6b2c04b8cabfa", "is_disabled": 0, "lat": 38.91706416666667, "rental_uris": {"ios": "https://dc.lft.to/lastmile_qr_scan", "android": "https://dc.lft.to/lastmile_qr_scan"}, "is_reserved": 0, "lon": -77.0113475, "fusion_lat": 0.0, "name": "8efc29f00894becc71a6b2c04b8cabfa"}, {"type": "electric_scooter", "fusion_lon": 0.0, "bike_id": "e76b80011e9bfbb702fadede9f5ddb86", "is_disabled": 0, "lat": 38.9026165, "rental_uris": {"ios": "https://dc.lft.to/lastmile_qr_scan", "android": "https://dc.lft.to/lastmile_qr_scan"}, "is_reserved": 0, "lon": -77.05414783333333, "fusion_lat": 0.0, "name": "e76b80011e9bfbb702fadede9f5ddb86"}, {"type": "electric_scooter", "fusion_lon": 0.0, "bike_id": "34437a3124a8408842925558ec8a15ee", "is_disabled": 0, "lat": 38.91680916666667, "rental_uris": {"ios": "https://dc.lft.to/lastmile_qr_scan", "android": "https://dc.lft.to/lastmile_qr_scan"}, "is_reserved": 0, "lon": -76.98039583333333, "fusion_lat": 0.0, "name": "34437a3124a8408842925558ec8a15ee"}, {"type": "electric_scooter", "fusion_lon": 0.0, "bike_id": "093583c307d3f420e650e8475315dbfd", "is_disabled": 0, "lat": 38.922569833333334, "rental_uris": {"ios": "https://dc.lft.to/lastmile_qr_scan", "android": "https://dc.lft.to/lastmile_qr_scan"}, "is_reserved": 0, "lon": -77.03410683333334, "fusion_lat": 0.0, "name": "093583c307d3f420e650e8475315dbfd"}, {"type": "electric_bike", "fusion_lon": 0.0, "bike_id": "329e0bb4e41c09207368b8406d6ff369", "is_disabled": 0, "lat": 38.84103783333333, "rental_uris": {"ios": "https://dc.lft.to/lastmile_qr_scan", "android": "https://dc.lft.to/lastmile_qr_scan"}, "is_reserved": 0, "lon": -77.08945933333334, "fusion_lat": 0.0, "name": "329e0bb4e41c09207368b8406d6ff369"}, {"type": "electric_scooter", "fusion_lon": 0.0, "bike_id": "fd05d05029e04ef0c9bb60f93959e2f9", "is_disabled": 0, "lat": 38.92115183333333, "rental_uris": {"ios": "https://dc.lft.to/lastmile_qr_scan", "android": "https://dc.lft.to/lastmile_qr_scan"}, "is_reserved": 0, "lon": -77.01778466666667, "fusion_lat": 0.0, "name": "fd05d05029e04ef0c9bb60f93959e2f9"}, {"type": "electric_scooter", "fusion_lon": 0.0, "bike_id": "d455bdcf288caf3edc34642adb2d99df", "is_disabled": 0, "lat": 38.934677, "rental_uris": {"ios": "https://dc.lft.to/lastmile_qr_scan", "android": "https://dc.lft.to/lastmile_qr_scan"}, "is_reserved": 0, "lon": -77.0411675, "fusion_lat": 0.0, "name": "d455bdcf288caf3edc34642adb2d99df"}, {"type": "electric_scooter", "fusion_lon": 0.0, "bike_id": "f1935c12e378c1958518eb0fae853ede", "is_disabled": 0, "lat": 38.91765983333333, "rental_uris": {"ios": "https://dc.lft.to/lastmile_qr_scan", "android": "https://dc.lft.to/lastmile_qr_scan"}, "is_reserved": 0, "lon": -77.04768916666667, "fusion_lat": 0.0, "name": "f1935c12e378c1958518eb0fae853ede"}, {"type": "electric_scooter", "fusion_lon": 0.0, "bike_id": "85704123b752f98d3716a265c644fcdf", "is_disabled": 0, "lat": 38.924216666666666, "rental_uris": {"ios": "https://dc.lft.to/lastmile_qr_scan", "android": "https://dc.lft.to/lastmile_qr_scan"}, "is_reserved": 0, "lon": -77.05752683333333, "fusion_lat": 0.0, "name": "85704123b752f98d3716a265c644fcdf"}, {"type": "electric_scooter", "fusion_lon": 0.0, "bike_id": "d88ee1d780cf29fdf32155826cdc8169", "is_disabled": 0, "lat": 38.92290116666667, "rental_uris": {"ios": "https://dc.lft.to/lastmile_qr_scan", "android": "https://dc.lft.to/lastmile_qr_scan"}, "is_reserved": 0, "lon": -77.04205783333333, "fusion_lat": 0.0, "name": "d88ee1d780cf29fdf32155826cdc8169"}, {"type": "electric_bike", "fusion_lon": 0.0, "bike_id": "e051a1736a9f1d975e2faa07914a933a", "is_disabled": 0, "lat": 38.848955333333336, "rental_uris": {"ios": "https://dc.lft.to/lastmile_qr_scan", "android": "https://dc.lft.to/lastmile_qr_scan"}, "is_reserved": 0, "lon": -77.07951833333334, "fusion_lat": 0.0, "name": "e051a1736a9f1d975e2faa07914a933a"}, {"type": "electric_scooter", "fusion_lon": 0.0, "bike_id": "12cb0003f82542817c6bc6862754ff17", "is_disabled": 0, "lat": 38.91947433333333, "rental_uris": {"ios": "https://dc.lft.to/lastmile_qr_scan", "android": "https://dc.lft.to/lastmile_qr_scan"}, "is_reserved": 0, "lon": -77.03197683333333, "fusion_lat": 0.0, "name": "12cb0003f82542817c6bc6862754ff17"}, {"type": "electric_scooter", "fusion_lon": 0.0, "bike_id": "41af580b6030193fe29a8881c773f3fc", "is_disabled": 0, "lat": 38.92741266666667, "rental_uris": {"ios": "https://dc.lft.to/lastmile_qr_scan", "android": "https://dc.lft.to/lastmile_qr_scan"}, "is_reserved": 0, "lon": -76.95559166666666, "fusion_lat": 0.0, "name": "41af580b6030193fe29a8881c773f3fc"}, {"type": "electric_scooter", "fusion_lon": 0.0, "bike_id": "9bb6d2b5c728756d43e3783765dd1d62", "is_disabled": 0, "lat": 38.902711, "rental_uris": {"ios": "https://dc.lft.to/lastmile_qr_scan", "android": "https://dc.lft.to/lastmile_qr_scan"}, "is_reserved": 0, "lon": -77.03872616666666, "fusion_lat": 0.0, "name": "9bb6d2b5c728756d43e3783765dd1d62"}, {"type": "electric_scooter", "fusion_lon": 0.0, "bike_id": "1975c08b09e1b00b586e558adf8d434c", "is_disabled": 0, "lat": 38.86288066666667, "rental_uris": {"ios": "https://dc.lft.to/lastmile_qr_scan", "android": "https://dc.lft.to/lastmile_qr_scan"}, "is_reserved": 0, "lon": -76.99228166666667, "fusion_lat": 0.0, "name": "1975c08b09e1b00b586e558adf8d434c"}, {"type": "electric_scooter", "fusion_lon": 0.0, "bike_id": "7e2c4dc46eaf829a504428c9f3b591a6", "is_disabled": 0, "lat": 38.91552516666667, "rental_uris": {"ios": "https://dc.lft.to/lastmile_qr_scan", "android": "https://dc.lft.to/lastmile_qr_scan"}, "is_reserved": 0, "lon": -77.0445915, "fusion_lat": 0.0, "name": "7e2c4dc46eaf829a504428c9f3b591a6"}, {"type": "electric_scooter", "fusion_lon": 0.0, "bike_id": "beffc5d0b8401f61bbeacdb525a520f2", "is_disabled": 0, "lat": 38.8766935, "rental_uris": {"ios": "https://dc.lft.to/lastmile_qr_scan", "android": "https://dc.lft.to/lastmile_qr_scan"}, "is_reserved": 0, "lon": -77.0025755, "fusion_lat": 0.0, "name": "beffc5d0b8401f61bbeacdb525a520f2"}, {"type": "electric_scooter", "fusion_lon": 0.0, "bike_id": "3457671981919ee507d93067133059ba", "is_disabled": 0, "lat": 38.86693316666667, "rental_uris": {"ios": "https://dc.lft.to/lastmile_qr_scan", "android": "https://dc.lft.to/lastmile_qr_scan"}, "is_reserved": 0, "lon": -76.98088683333333, "fusion_lat": 0.0, "name": "3457671981919ee507d93067133059ba"}, {"type": "electric_scooter", "fusion_lon": 0.0, "bike_id": "e4e55ec4576f97027aa07cf526936b02", "is_disabled": 0, "lat": 38.94891333333333, "rental_uris": {"ios": "https://dc.lft.to/lastmile_qr_scan", "android": "https://dc.lft.to/lastmile_qr_scan"}, "is_reserved": 0, "lon": -77.01861516666666, "fusion_lat": 0.0, "name": "e4e55ec4576f97027aa07cf526936b02"}, {"type": "electric_scooter", "fusion_lon": 0.0, "bike_id": "a0da08bb4d59e12a8d45b256895eccdf", "is_disabled": 0, "lat": 38.926569, "rental_uris": {"ios": "https://dc.lft.to/lastmile_qr_scan", "android": "https://dc.lft.to/lastmile_qr_scan"}, "is_reserved": 0, "lon": -77.02432283333333, "fusion_lat": 0.0, "name": "a0da08bb4d59e12a8d45b256895eccdf"}, {"type": "electric_scooter", "fusion_lon": 0.0, "bike_id": "51c2c4e217973f549c8a47420b3b298b", "is_disabled": 0, "lat": 38.91411766666667, "rental_uris": {"ios": "https://dc.lft.to/lastmile_qr_scan", "android": "https://dc.lft.to/lastmile_qr_scan"}, "is_reserved": 0, "lon": -77.01075816666666, "fusion_lat": 0.0, "name": "51c2c4e217973f549c8a47420b3b298b"}, {"type": "electric_scooter", "fusion_lon": 0.0, "bike_id": "a7ede7dcb4e338bb411d746e1587d7d7", "is_disabled": 0, "lat": 38.90491516666667, "rental_uris": {"ios": "https://dc.lft.to/lastmile_qr_scan", "android": "https://dc.lft.to/lastmile_qr_scan"}, "is_reserved": 0, "lon": -77.05335983333333, "fusion_lat": 0.0, "name": "a7ede7dcb4e338bb411d746e1587d7d7"}, {"type": "electric_scooter", "fusion_lon": 0.0, "bike_id": "b5cd3d4a5f312a1b7362ca8c289145aa", "is_disabled": 0, "lat": 38.8922865, "rental_uris": {"ios": "https://dc.lft.to/lastmile_qr_scan", "android": "https://dc.lft.to/lastmile_qr_scan"}, "is_reserved": 0, "lon": -77.046581, "fusion_lat": 0.0, "name": "b5cd3d4a5f312a1b7362ca8c289145aa"}, {"type": "electric_scooter", "fusion_lon": 0.0, "bike_id": "c0a0bf12f244802a2f2f7b0cb2bb5a23", "is_disabled": 0, "lat": 38.904818666666664, "rental_uris": {"ios": "https://dc.lft.to/lastmile_qr_scan", "android": "https://dc.lft.to/lastmile_qr_scan"}, "is_reserved": 0, "lon": -77.02723816666666, "fusion_lat": 0.0, "name": "c0a0bf12f244802a2f2f7b0cb2bb5a23"}, {"type": "electric_scooter", "fusion_lon": 0.0, "bike_id": "d380eab3d922e353a864af064e1afc0d", "is_disabled": 0, "lat": 38.91958133333333, "rental_uris": {"ios": "https://dc.lft.to/lastmile_qr_scan", "android": "https://dc.lft.to/lastmile_qr_scan"}, "is_reserved": 0, "lon": -77.02593583333334, "fusion_lat": 0.0, "name": "d380eab3d922e353a864af064e1afc0d"}, {"type": "electric_bike", "fusion_lon": 0.0, "bike_id": "b91237edf7a18145bc0cf6bffe63ff7c", "is_disabled": 0, "lat": 38.8358525, "rental_uris": {"ios": "https://dc.lft.to/lastmile_qr_scan", "android": "https://dc.lft.to/lastmile_qr_scan"}, "is_reserved": 0, "lon": -77.00138866666667, "fusion_lat": 0.0, "name": "b91237edf7a18145bc0cf6bffe63ff7c"}, {"type": "electric_scooter", "fusion_lon": 0.0, "bike_id": "a134de0aeb843c488ab66cae41b62669", "is_disabled": 0, "lat": 38.90887933333333, "rental_uris": {"ios": "https://dc.lft.to/lastmile_qr_scan", "android": "https://dc.lft.to/lastmile_qr_scan"}, "is_reserved": 0, "lon": -77.04499216666666, "fusion_lat": 0.0, "name": "a134de0aeb843c488ab66cae41b62669"}, {"type": "electric_scooter", "fusion_lon": 0.0, "bike_id": "fa88bb32678c0421e8f113740cb130f1", "is_disabled": 0, "lat": 38.8924055, "rental_uris": {"ios": "https://dc.lft.to/lastmile_qr_scan", "android": "https://dc.lft.to/lastmile_qr_scan"}, "is_reserved": 0, "lon": -77.03215633333333, "fusion_lat": 0.0, "name": "fa88bb32678c0421e8f113740cb130f1"}, {"type": "electric_scooter", "fusion_lon": 0.0, "bike_id": "961062820939d7956a01e61b4ce45595", "is_disabled": 0, "lat": 38.886596833333336, "rental_uris": {"ios": "https://dc.lft.to/lastmile_qr_scan", "android": "https://dc.lft.to/lastmile_qr_scan"}, "is_reserved": 0, "lon": -77.028463, "fusion_lat": 0.0, "name": "961062820939d7956a01e61b4ce45595"}, {"type": "electric_scooter", "fusion_lon": 0.0, "bike_id": "51d5dae0283adcd6e2afc3b231e4efa0", "is_disabled": 0, "lat": 38.90379133333333, "rental_uris": {"ios": "https://dc.lft.to/lastmile_qr_scan", "android": "https://dc.lft.to/lastmile_qr_scan"}, "is_reserved": 0, "lon": -77.01786633333333, "fusion_lat": 0.0, "name": "51d5dae0283adcd6e2afc3b231e4efa0"}, {"type": "electric_scooter", "fusion_lon": 0.0, "bike_id": "10435b7673739194e21525139f83552e", "is_disabled": 0, "lat": 38.930882833333335, "rental_uris": {"ios": "https://dc.lft.to/lastmile_qr_scan", "android": "https://dc.lft.to/lastmile_qr_scan"}, "is_reserved": 0, "lon": -77.034847, "fusion_lat": 0.0, "name": "10435b7673739194e21525139f83552e"}, {"type": "electric_scooter", "fusion_lon": 0.0, "bike_id": "4fdb65ef687079067b5e69772e408fcc", "is_disabled": 0, "lat": 38.9126685, "rental_uris": {"ios": "https://dc.lft.to/lastmile_qr_scan", "android": "https://dc.lft.to/lastmile_qr_scan"}, "is_reserved": 0, "lon": -77.0471175, "fusion_lat": 0.0, "name": "4fdb65ef687079067b5e69772e408fcc"}, {"type": "electric_scooter", "fusion_lon": 0.0, "bike_id": "048733671acaf6efc626f547676ecc4c", "is_disabled": 0, "lat": 38.948362333333336, "rental_uris": {"ios": "https://dc.lft.to/lastmile_qr_scan", "android": "https://dc.lft.to/lastmile_qr_scan"}, "is_reserved": 0, "lon": -77.02558566666667, "fusion_lat": 0.0, "name": "048733671acaf6efc626f547676ecc4c"}, {"type": "electric_scooter", "fusion_lon": 0.0, "bike_id": "2c0c25fb0db4db8bc60063bc368f79a7", "is_disabled": 0, "lat": 38.866610333333334, "rental_uris": {"ios": "https://dc.lft.to/lastmile_qr_scan", "android": "https://dc.lft.to/lastmile_qr_scan"}, "is_reserved": 0, "lon": -76.9889045, "fusion_lat": 0.0, "name": "2c0c25fb0db4db8bc60063bc368f79a7"}, {"type": "electric_scooter", "fusion_lon": 0.0, "bike_id": "7a280891a94b902b762b66a869793fb4", "is_disabled": 0, "lat": 38.917976, "rental_uris": {"ios": "https://dc.lft.to/lastmile_qr_scan", "android": "https://dc.lft.to/lastmile_qr_scan"}, "is_reserved": 0, "lon": -77.02716, "fusion_lat": 0.0, "name": "7a280891a94b902b762b66a869793fb4"}, {"type": "electric_scooter", "fusion_lon": 0.0, "bike_id": "d50fe00cdf51defcea90ac3863588210", "is_disabled": 0, "lat": 38.928770166666666, "rental_uris": {"ios": "https://dc.lft.to/lastmile_qr_scan", "android": "https://dc.lft.to/lastmile_qr_scan"}, "is_reserved": 0, "lon": -77.02667333333333, "fusion_lat": 0.0, "name": "d50fe00cdf51defcea90ac3863588210"}, {"type": "electric_scooter", "fusion_lon": 0.0, "bike_id": "105295bac0be87c56dd566cb8ac837cf", "is_disabled": 0, "lat": 38.91414316666667, "rental_uris": {"ios": "https://dc.lft.to/lastmile_qr_scan", "android": "https://dc.lft.to/lastmile_qr_scan"}, "is_reserved": 0, "lon": -77.03554633333333, "fusion_lat": 0.0, "name": "105295bac0be87c56dd566cb8ac837cf"}, {"type": "electric_scooter", "fusion_lon": 0.0, "bike_id": "608acaf77265edc8105af2adcd2c5bcb", "is_disabled": 0, "lat": 38.894392, "rental_uris": {"ios": "https://dc.lft.to/lastmile_qr_scan", "android": "https://dc.lft.to/lastmile_qr_scan"}, "is_reserved": 0, "lon": -76.98089766666666, "fusion_lat": 0.0, "name": "608acaf77265edc8105af2adcd2c5bcb"}, {"type": "electric_scooter", "fusion_lon": 0.0, "bike_id": "f7a19584dbafec08f3d60628440726a3", "is_disabled": 0, "lat": 38.9048065, "rental_uris": {"ios": "https://dc.lft.to/lastmile_qr_scan", "android": "https://dc.lft.to/lastmile_qr_scan"}, "is_reserved": 0, "lon": -77.05349966666667, "fusion_lat": 0.0, "name": "f7a19584dbafec08f3d60628440726a3"}, {"type": "electric_scooter", "fusion_lon": 0.0, "bike_id": "f0ab2b6beb2fb8198d37af75e1914301", "is_disabled": 0, "lat": 38.90557916666667, "rental_uris": {"ios": "https://dc.lft.to/lastmile_qr_scan", "android": "https://dc.lft.to/lastmile_qr_scan"}, "is_reserved": 0, "lon": -77.01759516666667, "fusion_lat": 0.0, "name": "f0ab2b6beb2fb8198d37af75e1914301"}, {"type": "electric_scooter", "fusion_lon": 0.0, "bike_id": "32eea475f4483237243dd3d40e9706f9", "is_disabled": 0, "lat": 38.90424083333333, "rental_uris": {"ios": "https://dc.lft.to/lastmile_qr_scan", "android": "https://dc.lft.to/lastmile_qr_scan"}, "is_reserved": 0, "lon": -77.02590833333333, "fusion_lat": 0.0, "name": "32eea475f4483237243dd3d40e9706f9"}, {"type": "electric_scooter", "fusion_lon": 0.0, "bike_id": "fd465c2ce61505e58db80791b62c10fc", "is_disabled": 0, "lat": 38.896185333333335, "rental_uris": {"ios": "https://dc.lft.to/lastmile_qr_scan", "android": "https://dc.lft.to/lastmile_qr_scan"}, "is_reserved": 0, "lon": -77.0318615, "fusion_lat": 0.0, "name": "fd465c2ce61505e58db80791b62c10fc"}, {"type": "electric_scooter", "fusion_lon": 0.0, "bike_id": "2b7df354d92a255c9dfabc9520f05214", "is_disabled": 0, "lat": 38.892219, "rental_uris": {"ios": "https://dc.lft.to/lastmile_qr_scan", "android": "https://dc.lft.to/lastmile_qr_scan"}, "is_reserved": 0, "lon": -77.02627916666667, "fusion_lat": 0.0, "name": "2b7df354d92a255c9dfabc9520f05214"}, {"type": "electric_scooter", "fusion_lon": 0.0, "bike_id": "0fed5cab8803846992cfc583f100c20f", "is_disabled": 0, "lat": 38.90840733333334, "rental_uris": {"ios": "https://dc.lft.to/lastmile_qr_scan", "android": "https://dc.lft.to/lastmile_qr_scan"}, "is_reserved": 0, "lon": -77.02696566666667, "fusion_lat": 0.0, "name": "0fed5cab8803846992cfc583f100c20f"}, {"type": "electric_scooter", "fusion_lon": 0.0, "bike_id": "f7a9884fc0491a56efddd5f9c9f45ea5", "is_disabled": 0, "lat": 38.911069, "rental_uris": {"ios": "https://dc.lft.to/lastmile_qr_scan", "android": "https://dc.lft.to/lastmile_qr_scan"}, "is_reserved": 0, "lon": -77.04473566666667, "fusion_lat": 0.0, "name": "f7a9884fc0491a56efddd5f9c9f45ea5"}, {"type": "electric_scooter", "fusion_lon": 0.0, "bike_id": "3976138caf89dc57777c48813842f2d9", "is_disabled": 0, "lat": 38.908519, "rental_uris": {"ios": "https://dc.lft.to/lastmile_qr_scan", "android": "https://dc.lft.to/lastmile_qr_scan"}, "is_reserved": 0, "lon": -76.996897, "fusion_lat": 0.0, "name": "3976138caf89dc57777c48813842f2d9"}, {"type": "electric_scooter", "fusion_lon": 0.0, "bike_id": "0b208b6c0d8bc27c8f522a964f328db0", "is_disabled": 0, "lat": 38.90023133333333, "rental_uris": {"ios": "https://dc.lft.to/lastmile_qr_scan", "android": "https://dc.lft.to/lastmile_qr_scan"}, "is_reserved": 0, "lon": -77.024158, "fusion_lat": 0.0, "name": "0b208b6c0d8bc27c8f522a964f328db0"}, {"type": "electric_scooter", "fusion_lon": 0.0, "bike_id": "965231ba15cf81c5efbfdd0530a10352", "is_disabled": 0, "lat": 38.917046, "rental_uris": {"ios": "https://dc.lft.to/lastmile_qr_scan", "android": "https://dc.lft.to/lastmile_qr_scan"}, "is_reserved": 0, "lon": -77.0347755, "fusion_lat": 0.0, "name": "965231ba15cf81c5efbfdd0530a10352"}, {"type": "electric_scooter", "fusion_lon": 0.0, "bike_id": "00f700621c9cb20e07e8c50a3bbdd9f7", "is_disabled": 0, "lat": 38.9053315, "rental_uris": {"ios": "https://dc.lft.to/lastmile_qr_scan", "android": "https://dc.lft.to/lastmile_qr_scan"}, "is_reserved": 0, "lon": -77.02979533333334, "fusion_lat": 0.0, "name": "00f700621c9cb20e07e8c50a3bbdd9f7"}, {"type": "electric_bike", "fusion_lon": 0.0, "bike_id": "6dc3df7fa13c7e06f83622848e2ac571", "is_disabled": 0, "lat": 38.856091666666664, "rental_uris": {"ios": "https://dc.lft.to/lastmile_qr_scan", "android": "https://dc.lft.to/lastmile_qr_scan"}, "is_reserved": 0, "lon": -77.11176466666667, "fusion_lat": 0.0, "name": "6dc3df7fa13c7e06f83622848e2ac571"}, {"type": "electric_bike", "fusion_lon": 0.0, "bike_id": "f1654ae9e28b46126ce714a4816ed55e", "is_disabled": 0, "lat": 38.862302, "rental_uris": {"ios": "https://dc.lft.to/lastmile_qr_scan", "android": "https://dc.lft.to/lastmile_qr_scan"}, "is_reserved": 0, "lon": -76.99588566666667, "fusion_lat": 0.0, "name": "f1654ae9e28b46126ce714a4816ed55e"}, {"type": "electric_scooter", "fusion_lon": 0.0, "bike_id": "b84074fbeffc40cc3d4f83f604062418", "is_disabled": 0, "lat": 38.91768366666667, "rental_uris": {"ios": "https://dc.lft.to/lastmile_qr_scan", "android": "https://dc.lft.to/lastmile_qr_scan"}, "is_reserved": 0, "lon": -77.02339883333333, "fusion_lat": 0.0, "name": "b84074fbeffc40cc3d4f83f604062418"}, {"type": "electric_scooter", "fusion_lon": 0.0, "bike_id": "c85f7476edcc72f2a3886210a2a618ea", "is_disabled": 0, "lat": 38.92250583333333, "rental_uris": {"ios": "https://dc.lft.to/lastmile_qr_scan", "android": "https://dc.lft.to/lastmile_qr_scan"}, "is_reserved": 0, "lon": -77.0734995, "fusion_lat": 0.0, "name": "c85f7476edcc72f2a3886210a2a618ea"}, {"type": "electric_scooter", "fusion_lon": 0.0, "bike_id": "ed682eb3ab90034cb2a4bf226ade3f47", "is_disabled": 0, "lat": 38.919629, "rental_uris": {"ios": "https://dc.lft.to/lastmile_qr_scan", "android": "https://dc.lft.to/lastmile_qr_scan"}, "is_reserved": 0, "lon": -77.02407316666667, "fusion_lat": 0.0, "name": "ed682eb3ab90034cb2a4bf226ade3f47"}, {"type": "electric_scooter", "fusion_lon": 0.0, "bike_id": "96275c254d13726ba456487b699c5487", "is_disabled": 0, "lat": 38.876701833333335, "rental_uris": {"ios": "https://dc.lft.to/lastmile_qr_scan", "android": "https://dc.lft.to/lastmile_qr_scan"}, "is_reserved": 0, "lon": -77.009378, "fusion_lat": 0.0, "name": "96275c254d13726ba456487b699c5487"}, {"type": "electric_scooter", "fusion_lon": 0.0, "bike_id": "4d5883e2a873cd1e558f1de94ab302da", "is_disabled": 0, "lat": 38.917064833333335, "rental_uris": {"ios": "https://dc.lft.to/lastmile_qr_scan", "android": "https://dc.lft.to/lastmile_qr_scan"}, "is_reserved": 0, "lon": -77.02392733333333, "fusion_lat": 0.0, "name": "4d5883e2a873cd1e558f1de94ab302da"}, {"type": "electric_bike", "fusion_lon": 0.0, "bike_id": "86b13adf46260f86e4135b7dededb5d3", "is_disabled": 0, "lat": 38.922067, "rental_uris": {"ios": "https://dc.lft.to/lastmile_qr_scan", "android": "https://dc.lft.to/lastmile_qr_scan"}, "is_reserved": 0, "lon": -77.081921, "fusion_lat": 0.0, "name": "86b13adf46260f86e4135b7dededb5d3"}, {"type": "electric_scooter", "fusion_lon": 0.0, "bike_id": "1341513554acf0d1b0987084431f84f5", "is_disabled": 0, "lat": 38.87785083333333, "rental_uris": {"ios": "https://dc.lft.to/lastmile_qr_scan", "android": "https://dc.lft.to/lastmile_qr_scan"}, "is_reserved": 0, "lon": -76.99411616666667, "fusion_lat": 0.0, "name": "1341513554acf0d1b0987084431f84f5"}, {"type": "electric_scooter", "fusion_lon": 0.0, "bike_id": "7d940e1f2418bf56de12505687a5cb35", "is_disabled": 0, "lat": 38.92310716666667, "rental_uris": {"ios": "https://dc.lft.to/lastmile_qr_scan", "android": "https://dc.lft.to/lastmile_qr_scan"}, "is_reserved": 0, "lon": -77.03050183333333, "fusion_lat": 0.0, "name": "7d940e1f2418bf56de12505687a5cb35"}, {"type": "electric_scooter", "fusion_lon": 0.0, "bike_id": "d21995ddd0edd0ebb04f6ceaab240fa6", "is_disabled": 0, "lat": 38.9247335, "rental_uris": {"ios": "https://dc.lft.to/lastmile_qr_scan", "android": "https://dc.lft.to/lastmile_qr_scan"}, "is_reserved": 0, "lon": -77.0255945, "fusion_lat": 0.0, "name": "d21995ddd0edd0ebb04f6ceaab240fa6"}, {"type": "electric_scooter", "fusion_lon": 0.0, "bike_id": "acbe478b70711b00c6dd8f3ade12b296", "is_disabled": 0, "lat": 38.900348, "rental_uris": {"ios": "https://dc.lft.to/lastmile_qr_scan", "android": "https://dc.lft.to/lastmile_qr_scan"}, "is_reserved": 0, "lon": -76.99772416666667, "fusion_lat": 0.0, "name": "acbe478b70711b00c6dd8f3ade12b296"}, {"type": "electric_scooter", "fusion_lon": 0.0, "bike_id": "76a45345b7d5b3cc56e77bfff72daa64", "is_disabled": 0, "lat": 38.89198666666667, "rental_uris": {"ios": "https://dc.lft.to/lastmile_qr_scan", "android": "https://dc.lft.to/lastmile_qr_scan"}, "is_reserved": 0, "lon": -76.957023, "fusion_lat": 0.0, "name": "76a45345b7d5b3cc56e77bfff72daa64"}, {"type": "electric_scooter", "fusion_lon": 0.0, "bike_id": "f983fb74c314c86b23db98b1d6baea05", "is_disabled": 0, "lat": 38.895225, "rental_uris": {"ios": "https://dc.lft.to/lastmile_qr_scan", "android": "https://dc.lft.to/lastmile_qr_scan"}, "is_reserved": 0, "lon": -77.01615833333334, "fusion_lat": 0.0, "name": "f983fb74c314c86b23db98b1d6baea05"}, {"type": "electric_scooter", "fusion_lon": 0.0, "bike_id": "8406e13def8ce8bfa883ad91a938e737", "is_disabled": 0, "lat": 38.89230166666667, "rental_uris": {"ios": "https://dc.lft.to/lastmile_qr_scan", "android": "https://dc.lft.to/lastmile_qr_scan"}, "is_reserved": 0, "lon": -77.0241935, "fusion_lat": 0.0, "name": "8406e13def8ce8bfa883ad91a938e737"}, {"type": "electric_scooter", "fusion_lon": 0.0, "bike_id": "0c1ddb50370f6c092225ea95cdbeb83f", "is_disabled": 0, "lat": 38.926322, "rental_uris": {"ios": "https://dc.lft.to/lastmile_qr_scan", "android": "https://dc.lft.to/lastmile_qr_scan"}, "is_reserved": 0, "lon": -77.022753, "fusion_lat": 0.0, "name": "0c1ddb50370f6c092225ea95cdbeb83f"}, {"type": "electric_scooter", "fusion_lon": 0.0, "bike_id": "0630b3cf531036bf1cf53c8572bea395", "is_disabled": 0, "lat": 38.91354033333333, "rental_uris": {"ios": "https://dc.lft.to/lastmile_qr_scan", "android": "https://dc.lft.to/lastmile_qr_scan"}, "is_reserved": 0, "lon": -77.0205625, "fusion_lat": 0.0, "name": "0630b3cf531036bf1cf53c8572bea395"}, {"type": "electric_scooter", "fusion_lon": 0.0, "bike_id": "eaae854aad247ea6fc6c8fe7b4793c9a", "is_disabled": 0, "lat": 38.874311, "rental_uris": {"ios": "https://dc.lft.to/lastmile_qr_scan", "android": "https://dc.lft.to/lastmile_qr_scan"}, "is_reserved": 0, "lon": -77.00413433333334, "fusion_lat": 0.0, "name": "eaae854aad247ea6fc6c8fe7b4793c9a"}, {"type": "electric_scooter", "fusion_lon": 0.0, "bike_id": "3541fcd21ce51d7f7a9663275ebddcbe", "is_disabled": 0, "lat": 38.91993166666666, "rental_uris": {"ios": "https://dc.lft.to/lastmile_qr_scan", "android": "https://dc.lft.to/lastmile_qr_scan"}, "is_reserved": 0, "lon": -77.02392466666667, "fusion_lat": 0.0, "name": "3541fcd21ce51d7f7a9663275ebddcbe"}, {"type": "electric_scooter", "fusion_lon": 0.0, "bike_id": "16876d29b0197e115b883e37bc1b95bb", "is_disabled": 0, "lat": 38.916503, "rental_uris": {"ios": "https://dc.lft.to/lastmile_qr_scan", "android": "https://dc.lft.to/lastmile_qr_scan"}, "is_reserved": 0, "lon": -77.03685183333333, "fusion_lat": 0.0, "name": "16876d29b0197e115b883e37bc1b95bb"}, {"type": "electric_scooter", "fusion_lon": 0.0, "bike_id": "cbc2bab84c653e746959d801e6e7d9aa", "is_disabled": 0, "lat": 38.92344766666667, "rental_uris": {"ios": "https://dc.lft.to/lastmile_qr_scan", "android": "https://dc.lft.to/lastmile_qr_scan"}, "is_reserved": 0, "lon": -77.0351575, "fusion_lat": 0.0, "name": "cbc2bab84c653e746959d801e6e7d9aa"}, {"type": "electric_scooter", "fusion_lon": 0.0, "bike_id": "751015fc1d546b249d725454b9eb5d18", "is_disabled": 0, "lat": 38.92463033333333, "rental_uris": {"ios": "https://dc.lft.to/lastmile_qr_scan", "android": "https://dc.lft.to/lastmile_qr_scan"}, "is_reserved": 0, "lon": -77.04027316666667, "fusion_lat": 0.0, "name": "751015fc1d546b249d725454b9eb5d18"}, {"type": "electric_scooter", "fusion_lon": 0.0, "bike_id": "0573df40eeef2ab0e83013c160f3ddf8", "is_disabled": 0, "lat": 38.88963116666667, "rental_uris": {"ios": "https://dc.lft.to/lastmile_qr_scan", "android": "https://dc.lft.to/lastmile_qr_scan"}, "is_reserved": 0, "lon": -76.980857, "fusion_lat": 0.0, "name": "0573df40eeef2ab0e83013c160f3ddf8"}, {"type": "electric_scooter", "fusion_lon": 0.0, "bike_id": "f06d711a1a1418257e6e895de4094ef1", "is_disabled": 0, "lat": 38.91915816666667, "rental_uris": {"ios": "https://dc.lft.to/lastmile_qr_scan", "android": "https://dc.lft.to/lastmile_qr_scan"}, "is_reserved": 0, "lon": -77.01902716666666, "fusion_lat": 0.0, "name": "f06d711a1a1418257e6e895de4094ef1"}, {"type": "electric_scooter", "fusion_lon": 0.0, "bike_id": "8305da1f47972012f44b863911da74c9", "is_disabled": 0, "lat": 38.93193633333333, "rental_uris": {"ios": "https://dc.lft.to/lastmile_qr_scan", "android": "https://dc.lft.to/lastmile_qr_scan"}, "is_reserved": 0, "lon": -77.02964216666666, "fusion_lat": 0.0, "name": "8305da1f47972012f44b863911da74c9"}, {"type": "electric_scooter", "fusion_lon": 0.0, "bike_id": "19a692be0985ae50f516fd3986345813", "is_disabled": 0, "lat": 38.91776466666666, "rental_uris": {"ios": "https://dc.lft.to/lastmile_qr_scan", "android": "https://dc.lft.to/lastmile_qr_scan"}, "is_reserved": 0, "lon": -77.02311616666667, "fusion_lat": 0.0, "name": "19a692be0985ae50f516fd3986345813"}, {"type": "electric_scooter", "fusion_lon": 0.0, "bike_id": "fb81b53717d46d8b9a77e3d19e2040ec", "is_disabled": 0, "lat": 38.876585, "rental_uris": {"ios": "https://dc.lft.to/lastmile_qr_scan", "android": "https://dc.lft.to/lastmile_qr_scan"}, "is_reserved": 0, "lon": -77.0046715, "fusion_lat": 0.0, "name": "fb81b53717d46d8b9a77e3d19e2040ec"}, {"type": "electric_scooter", "fusion_lon": 0.0, "bike_id": "3cdbc2d36b380851b1dbcda6f32727f7", "is_disabled": 0, "lat": 38.893400166666666, "rental_uris": {"ios": "https://dc.lft.to/lastmile_qr_scan", "android": "https://dc.lft.to/lastmile_qr_scan"}, "is_reserved": 0, "lon": -76.9938255, "fusion_lat": 0.0, "name": "3cdbc2d36b380851b1dbcda6f32727f7"}, {"type": "electric_scooter", "fusion_lon": 0.0, "bike_id": "b39f55e7e360a09e5756140bbffddb4e", "is_disabled": 0, "lat": 38.902362, "rental_uris": {"ios": "https://dc.lft.to/lastmile_qr_scan", "android": "https://dc.lft.to/lastmile_qr_scan"}, "is_reserved": 0, "lon": -77.00211816666666, "fusion_lat": 0.0, "name": "b39f55e7e360a09e5756140bbffddb4e"}, {"type": "electric_scooter", "fusion_lon": 0.0, "bike_id": "eb34e631d7eec9722385a63c3769c42f", "is_disabled": 0, "lat": 38.92466616666667, "rental_uris": {"ios": "https://dc.lft.to/lastmile_qr_scan", "android": "https://dc.lft.to/lastmile_qr_scan"}, "is_reserved": 0, "lon": -77.02713733333333, "fusion_lat": 0.0, "name": "eb34e631d7eec9722385a63c3769c42f"}, {"type": "electric_scooter", "fusion_lon": 0.0, "bike_id": "228a1d5e2fc1937d4eeed0c3b17b57d1", "is_disabled": 0, "lat": 38.926721, "rental_uris": {"ios": "https://dc.lft.to/lastmile_qr_scan", "android": "https://dc.lft.to/lastmile_qr_scan"}, "is_reserved": 0, "lon": -77.0212405, "fusion_lat": 0.0, "name": "228a1d5e2fc1937d4eeed0c3b17b57d1"}, {"type": "electric_scooter", "fusion_lon": 0.0, "bike_id": "ed1b2b78dab9414910a67af5016975ce", "is_disabled": 0, "lat": 38.93530883333333, "rental_uris": {"ios": "https://dc.lft.to/lastmile_qr_scan", "android": "https://dc.lft.to/lastmile_qr_scan"}, "is_reserved": 0, "lon": -77.02862183333333, "fusion_lat": 0.0, "name": "ed1b2b78dab9414910a67af5016975ce"}, {"type": "electric_scooter", "fusion_lon": 0.0, "bike_id": "0a74c88076e16bc9bee36516574b26a6", "is_disabled": 0, "lat": 38.904428333333335, "rental_uris": {"ios": "https://dc.lft.to/lastmile_qr_scan", "android": "https://dc.lft.to/lastmile_qr_scan"}, "is_reserved": 0, "lon": -77.04854483333334, "fusion_lat": 0.0, "name": "0a74c88076e16bc9bee36516574b26a6"}, {"type": "electric_scooter", "fusion_lon": 0.0, "bike_id": "0a9e0a3533badba3cc44ab59d379d684", "is_disabled": 0, "lat": 38.92578683333333, "rental_uris": {"ios": "https://dc.lft.to/lastmile_qr_scan", "android": "https://dc.lft.to/lastmile_qr_scan"}, "is_reserved": 0, "lon": -77.02610933333334, "fusion_lat": 0.0, "name": "0a9e0a3533badba3cc44ab59d379d684"}, {"type": "electric_scooter", "fusion_lon": 0.0, "bike_id": "8e94ef50db0db5544f8a85dddb6a443f", "is_disabled": 0, "lat": 38.907873333333335, "rental_uris": {"ios": "https://dc.lft.to/lastmile_qr_scan", "android": "https://dc.lft.to/lastmile_qr_scan"}, "is_reserved": 0, "lon": -77.07250433333333, "fusion_lat": 0.0, "name": "8e94ef50db0db5544f8a85dddb6a443f"}, {"type": "electric_scooter", "fusion_lon": 0.0, "bike_id": "06c8359c087b417d48652ffadace3a17", "is_disabled": 0, "lat": 38.943491, "rental_uris": {"ios": "https://dc.lft.to/lastmile_qr_scan", "android": "https://dc.lft.to/lastmile_qr_scan"}, "is_reserved": 0, "lon": -77.061359, "fusion_lat": 0.0, "name": "06c8359c087b417d48652ffadace3a17"}, {"type": "electric_scooter", "fusion_lon": 0.0, "bike_id": "8cc6c967836beda84a05df54c34f1417", "is_disabled": 0, "lat": 38.921106333333334, "rental_uris": {"ios": "https://dc.lft.to/lastmile_qr_scan", "android": "https://dc.lft.to/lastmile_qr_scan"}, "is_reserved": 0, "lon": -77.0252625, "fusion_lat": 0.0, "name": "8cc6c967836beda84a05df54c34f1417"}, {"type": "electric_scooter", "fusion_lon": 0.0, "bike_id": "e3d609fbacc1749c000f506915873646", "is_disabled": 0, "lat": 38.912425999999996, "rental_uris": {"ios": "https://dc.lft.to/lastmile_qr_scan", "android": "https://dc.lft.to/lastmile_qr_scan"}, "is_reserved": 0, "lon": -77.06289516666666, "fusion_lat": 0.0, "name": "e3d609fbacc1749c000f506915873646"}, {"type": "electric_scooter", "fusion_lon": 0.0, "bike_id": "128d41ace5f50421e2121e8461426a90", "is_disabled": 0, "lat": 38.86213933333333, "rental_uris": {"ios": "https://dc.lft.to/lastmile_qr_scan", "android": "https://dc.lft.to/lastmile_qr_scan"}, "is_reserved": 0, "lon": -76.99481183333333, "fusion_lat": 0.0, "name": "128d41ace5f50421e2121e8461426a90"}, {"type": "electric_scooter", "fusion_lon": 0.0, "bike_id": "9c4e4ff6406aa7c011e9f2ed0172ef2a", "is_disabled": 0, "lat": 38.9285865, "rental_uris": {"ios": "https://dc.lft.to/lastmile_qr_scan", "android": "https://dc.lft.to/lastmile_qr_scan"}, "is_reserved": 0, "lon": -77.037461, "fusion_lat": 0.0, "name": "9c4e4ff6406aa7c011e9f2ed0172ef2a"}, {"type": "electric_scooter", "fusion_lon": 0.0, "bike_id": "a414f35219ec5389b75c967b0edccc3c", "is_disabled": 0, "lat": 38.8986595, "rental_uris": {"ios": "https://dc.lft.to/lastmile_qr_scan", "android": "https://dc.lft.to/lastmile_qr_scan"}, "is_reserved": 0, "lon": -77.02589466666667, "fusion_lat": 0.0, "name": "a414f35219ec5389b75c967b0edccc3c"}, {"type": "electric_scooter", "fusion_lon": 0.0, "bike_id": "e1db831986677325c35057a87412fc24", "is_disabled": 0, "lat": 38.87470533333333, "rental_uris": {"ios": "https://dc.lft.to/lastmile_qr_scan", "android": "https://dc.lft.to/lastmile_qr_scan"}, "is_reserved": 0, "lon": -77.00559166666666, "fusion_lat": 0.0, "name": "e1db831986677325c35057a87412fc24"}, {"type": "electric_scooter", "fusion_lon": 0.0, "bike_id": "67e04f4bdef05adaf90042c4b912558f", "is_disabled": 0, "lat": 38.92709083333333, "rental_uris": {"ios": "https://dc.lft.to/lastmile_qr_scan", "android": "https://dc.lft.to/lastmile_qr_scan"}, "is_reserved": 0, "lon": -77.0210455, "fusion_lat": 0.0, "name": "67e04f4bdef05adaf90042c4b912558f"}, {"type": "electric_bike", "fusion_lon": 0.0, "bike_id": "8b2739068582addc5a35f8f9c919a525", "is_disabled": 0, "lat": 38.920027166666664, "rental_uris": {"ios": "https://dc.lft.to/lastmile_qr_scan", "android": "https://dc.lft.to/lastmile_qr_scan"}, "is_reserved": 0, "lon": -76.95822933333334, "fusion_lat": 0.0, "name": "8b2739068582addc5a35f8f9c919a525"}, {"type": "electric_scooter", "fusion_lon": 0.0, "bike_id": "a4fe3cd4de0f55bba53ffdfbcd6ab01f", "is_disabled": 0, "lat": 38.907408333333336, "rental_uris": {"ios": "https://dc.lft.to/lastmile_qr_scan", "android": "https://dc.lft.to/lastmile_qr_scan"}, "is_reserved": 0, "lon": -76.97982266666666, "fusion_lat": 0.0, "name": "a4fe3cd4de0f55bba53ffdfbcd6ab01f"}, {"type": "electric_scooter", "fusion_lon": 0.0, "bike_id": "c93f060d292eb4ef5d97090577862894", "is_disabled": 0, "lat": 38.935165833333336, "rental_uris": {"ios": "https://dc.lft.to/lastmile_qr_scan", "android": "https://dc.lft.to/lastmile_qr_scan"}, "is_reserved": 0, "lon": -77.0241505, "fusion_lat": 0.0, "name": "c93f060d292eb4ef5d97090577862894"}, {"type": "electric_scooter", "fusion_lon": 0.0, "bike_id": "da9a792fd3dd8bb47b8cff0985b8a799", "is_disabled": 0, "lat": 38.909838, "rental_uris": {"ios": "https://dc.lft.to/lastmile_qr_scan", "android": "https://dc.lft.to/lastmile_qr_scan"}, "is_reserved": 0, "lon": -77.03436716666667, "fusion_lat": 0.0, "name": "da9a792fd3dd8bb47b8cff0985b8a799"}, {"type": "electric_scooter", "fusion_lon": 0.0, "bike_id": "6bdcd84662c45870d4223aa4bb068ea8", "is_disabled": 0, "lat": 38.90412, "rental_uris": {"ios": "https://dc.lft.to/lastmile_qr_scan", "android": "https://dc.lft.to/lastmile_qr_scan"}, "is_reserved": 0, "lon": -76.973362, "fusion_lat": 0.0, "name": "6bdcd84662c45870d4223aa4bb068ea8"}, {"type": "electric_bike", "fusion_lon": 0.0, "bike_id": "04ffbfe9fcd5e9df7b8259ecf872b167", "is_disabled": 0, "lat": 38.946350333333335, "rental_uris": {"ios": "https://dc.lft.to/lastmile_qr_scan", "android": "https://dc.lft.to/lastmile_qr_scan"}, "is_reserved": 0, "lon": -76.9931445, "fusion_lat": 0.0, "name": "04ffbfe9fcd5e9df7b8259ecf872b167"}, {"type": "electric_scooter", "fusion_lon": 0.0, "bike_id": "a1b54108a731ea867311db2bb4765c85", "is_disabled": 0, "lat": 38.92501433333334, "rental_uris": {"ios": "https://dc.lft.to/lastmile_qr_scan", "android": "https://dc.lft.to/lastmile_qr_scan"}, "is_reserved": 0, "lon": -77.02405266666666, "fusion_lat": 0.0, "name": "a1b54108a731ea867311db2bb4765c85"}, {"type": "electric_scooter", "fusion_lon": 0.0, "bike_id": "e76e2334269cdfc005c1afd5b7e94cca", "is_disabled": 0, "lat": 38.92069566666667, "rental_uris": {"ios": "https://dc.lft.to/lastmile_qr_scan", "android": "https://dc.lft.to/lastmile_qr_scan"}, "is_reserved": 0, "lon": -77.022999, "fusion_lat": 0.0, "name": "e76e2334269cdfc005c1afd5b7e94cca"}, {"type": "electric_scooter", "fusion_lon": 0.0, "bike_id": "d19cfa7f5e0e3d82c16b5616410e379e", "is_disabled": 0, "lat": 38.908125, "rental_uris": {"ios": "https://dc.lft.to/lastmile_qr_scan", "android": "https://dc.lft.to/lastmile_qr_scan"}, "is_reserved": 0, "lon": -77.034649, "fusion_lat": 0.0, "name": "d19cfa7f5e0e3d82c16b5616410e379e"}, {"type": "electric_scooter", "fusion_lon": 0.0, "bike_id": "14de77390c1b6c0d463a3784734f1d89", "is_disabled": 0, "lat": 38.9138575, "rental_uris": {"ios": "https://dc.lft.to/lastmile_qr_scan", "android": "https://dc.lft.to/lastmile_qr_scan"}, "is_reserved": 0, "lon": -77.0190355, "fusion_lat": 0.0, "name": "14de77390c1b6c0d463a3784734f1d89"}, {"type": "electric_scooter", "fusion_lon": 0.0, "bike_id": "f17d8fbdf4da44c931846474ce0883fd", "is_disabled": 0, "lat": 38.9339245, "rental_uris": {"ios": "https://dc.lft.to/lastmile_qr_scan", "android": "https://dc.lft.to/lastmile_qr_scan"}, "is_reserved": 0, "lon": -77.04551433333333, "fusion_lat": 0.0, "name": "f17d8fbdf4da44c931846474ce0883fd"}, {"type": "electric_scooter", "fusion_lon": 0.0, "bike_id": "c6fbcfbab8a3ae0a2448c4d4a825cdcb", "is_disabled": 0, "lat": 38.9276655, "rental_uris": {"ios": "https://dc.lft.to/lastmile_qr_scan", "android": "https://dc.lft.to/lastmile_qr_scan"}, "is_reserved": 0, "lon": -77.03244166666667, "fusion_lat": 0.0, "name": "c6fbcfbab8a3ae0a2448c4d4a825cdcb"}, {"type": "electric_scooter", "fusion_lon": 0.0, "bike_id": "0950624c1977a838c58ca1a81bb41ac3", "is_disabled": 0, "lat": 38.94451133333333, "rental_uris": {"ios": "https://dc.lft.to/lastmile_qr_scan", "android": "https://dc.lft.to/lastmile_qr_scan"}, "is_reserved": 0, "lon": -77.02809416666666, "fusion_lat": 0.0, "name": "0950624c1977a838c58ca1a81bb41ac3"}, {"type": "electric_scooter", "fusion_lon": 0.0, "bike_id": "3b8b805bd68f0cdadc83ac994865aa34", "is_disabled": 0, "lat": 38.91109266666667, "rental_uris": {"ios": "https://dc.lft.to/lastmile_qr_scan", "android": "https://dc.lft.to/lastmile_qr_scan"}, "is_reserved": 0, "lon": -77.03832883333334, "fusion_lat": 0.0, "name": "3b8b805bd68f0cdadc83ac994865aa34"}, {"type": "electric_scooter", "fusion_lon": 0.0, "bike_id": "072d3f162a98d1ea4eb3e403bb203a1b", "is_disabled": 0, "lat": 38.86365266666667, "rental_uris": {"ios": "https://dc.lft.to/lastmile_qr_scan", "android": "https://dc.lft.to/lastmile_qr_scan"}, "is_reserved": 0, "lon": -76.9904365, "fusion_lat": 0.0, "name": "072d3f162a98d1ea4eb3e403bb203a1b"}, {"type": "electric_scooter", "fusion_lon": 0.0, "bike_id": "c1a1db01b591c3328ef1bbbb507577b2", "is_disabled": 0, "lat": 38.8919825, "rental_uris": {"ios": "https://dc.lft.to/lastmile_qr_scan", "android": "https://dc.lft.to/lastmile_qr_scan"}, "is_reserved": 0, "lon": -77.02378816666666, "fusion_lat": 0.0, "name": "c1a1db01b591c3328ef1bbbb507577b2"}, {"type": "electric_scooter", "fusion_lon": 0.0, "bike_id": "d18d823fa969c5d9ab4e0760524c5c6c", "is_disabled": 0, "lat": 38.919486166666665, "rental_uris": {"ios": "https://dc.lft.to/lastmile_qr_scan", "android": "https://dc.lft.to/lastmile_qr_scan"}, "is_reserved": 0, "lon": -77.01783516666667, "fusion_lat": 0.0, "name": "d18d823fa969c5d9ab4e0760524c5c6c"}, {"type": "electric_scooter", "fusion_lon": 0.0, "bike_id": "485e73b84fcbd7e1c2bff03be3208ee9", "is_disabled": 0, "lat": 38.924173333333336, "rental_uris": {"ios": "https://dc.lft.to/lastmile_qr_scan", "android": "https://dc.lft.to/lastmile_qr_scan"}, "is_reserved": 0, "lon": -77.01982533333333, "fusion_lat": 0.0, "name": "485e73b84fcbd7e1c2bff03be3208ee9"}, {"type": "electric_scooter", "fusion_lon": 0.0, "bike_id": "7129b67fba8db2074b3b982250c0664d", "is_disabled": 0, "lat": 38.89889933333333, "rental_uris": {"ios": "https://dc.lft.to/lastmile_qr_scan", "android": "https://dc.lft.to/lastmile_qr_scan"}, "is_reserved": 0, "lon": -76.93177783333333, "fusion_lat": 0.0, "name": "7129b67fba8db2074b3b982250c0664d"}, {"type": "electric_scooter", "fusion_lon": 0.0, "bike_id": "e9e1e5e7d810a8fdb18363366b6f36fc", "is_disabled": 0, "lat": 38.91989916666667, "rental_uris": {"ios": "https://dc.lft.to/lastmile_qr_scan", "android": "https://dc.lft.to/lastmile_qr_scan"}, "is_reserved": 0, "lon": -77.03975716666666, "fusion_lat": 0.0, "name": "e9e1e5e7d810a8fdb18363366b6f36fc"}, {"type": "electric_scooter", "fusion_lon": 0.0, "bike_id": "923ae9e96c713a90cdef602928a6f765", "is_disabled": 0, "lat": 38.90309033333333, "rental_uris": {"ios": "https://dc.lft.to/lastmile_qr_scan", "android": "https://dc.lft.to/lastmile_qr_scan"}, "is_reserved": 0, "lon": -76.97803733333333, "fusion_lat": 0.0, "name": "923ae9e96c713a90cdef602928a6f765"}, {"type": "electric_scooter", "fusion_lon": 0.0, "bike_id": "0de562bf9615ef269d404731b0c58ae5", "is_disabled": 0, "lat": 38.92655933333333, "rental_uris": {"ios": "https://dc.lft.to/lastmile_qr_scan", "android": "https://dc.lft.to/lastmile_qr_scan"}, "is_reserved": 0, "lon": -77.05334483333333, "fusion_lat": 0.0, "name": "0de562bf9615ef269d404731b0c58ae5"}, {"type": "electric_scooter", "fusion_lon": 0.0, "bike_id": "9ec5f3054c177d5a0e4a1d4548e11cf2", "is_disabled": 0, "lat": 38.92388733333333, "rental_uris": {"ios": "https://dc.lft.to/lastmile_qr_scan", "android": "https://dc.lft.to/lastmile_qr_scan"}, "is_reserved": 0, "lon": -77.0365885, "fusion_lat": 0.0, "name": "9ec5f3054c177d5a0e4a1d4548e11cf2"}, {"type": "electric_scooter", "fusion_lon": 0.0, "bike_id": "fcb15ba53b7cb8e994b78e89bf4bfde3", "is_disabled": 0, "lat": 38.874574333333335, "rental_uris": {"ios": "https://dc.lft.to/lastmile_qr_scan", "android": "https://dc.lft.to/lastmile_qr_scan"}, "is_reserved": 0, "lon": -77.0057125, "fusion_lat": 0.0, "name": "fcb15ba53b7cb8e994b78e89bf4bfde3"}, {"type": "electric_scooter", "fusion_lon": 0.0, "bike_id": "95c8f521f006c21e8d02c59546952b88", "is_disabled": 0, "lat": 38.8922165, "rental_uris": {"ios": "https://dc.lft.to/lastmile_qr_scan", "android": "https://dc.lft.to/lastmile_qr_scan"}, "is_reserved": 0, "lon": -77.04472933333334, "fusion_lat": 0.0, "name": "95c8f521f006c21e8d02c59546952b88"}, {"type": "electric_scooter", "fusion_lon": 0.0, "bike_id": "71c48d9a92ab95767e68166cd2ede641", "is_disabled": 0, "lat": 38.92331183333334, "rental_uris": {"ios": "https://dc.lft.to/lastmile_qr_scan", "android": "https://dc.lft.to/lastmile_qr_scan"}, "is_reserved": 0, "lon": -77.020477, "fusion_lat": 0.0, "name": "71c48d9a92ab95767e68166cd2ede641"}, {"type": "electric_scooter", "fusion_lon": 0.0, "bike_id": "e5b841bc086b931888e6c45bb4cd1d5d", "is_disabled": 0, "lat": 38.92658016666667, "rental_uris": {"ios": "https://dc.lft.to/lastmile_qr_scan", "android": "https://dc.lft.to/lastmile_qr_scan"}, "is_reserved": 0, "lon": -77.03719783333334, "fusion_lat": 0.0, "name": "e5b841bc086b931888e6c45bb4cd1d5d"}, {"type": "electric_scooter", "fusion_lon": 0.0, "bike_id": "70bed6a16e53a7e72a1452638e8909a4", "is_disabled": 0, "lat": 38.917091666666664, "rental_uris": {"ios": "https://dc.lft.to/lastmile_qr_scan", "android": "https://dc.lft.to/lastmile_qr_scan"}, "is_reserved": 0, "lon": -77.038683, "fusion_lat": 0.0, "name": "70bed6a16e53a7e72a1452638e8909a4"}, {"type": "electric_bike", "fusion_lon": 0.0, "bike_id": "3086f81010ae3b4e9d3c02af674331e2", "is_disabled": 0, "lat": 38.883013166666665, "rental_uris": {"ios": "https://dc.lft.to/lastmile_qr_scan", "android": "https://dc.lft.to/lastmile_qr_scan"}, "is_reserved": 0, "lon": -76.94977933333334, "fusion_lat": 0.0, "name": "3086f81010ae3b4e9d3c02af674331e2"}, {"type": "electric_scooter", "fusion_lon": 0.0, "bike_id": "1b06d0d0d1a6d4c2f870557580ce2128", "is_disabled": 0, "lat": 38.910582833333336, "rental_uris": {"ios": "https://dc.lft.to/lastmile_qr_scan", "android": "https://dc.lft.to/lastmile_qr_scan"}, "is_reserved": 0, "lon": -77.02657633333334, "fusion_lat": 0.0, "name": "1b06d0d0d1a6d4c2f870557580ce2128"}, {"type": "electric_scooter", "fusion_lon": 0.0, "bike_id": "ebc77bec66dbd942fdfbcbd94bb469b4", "is_disabled": 0, "lat": 38.8594675, "rental_uris": {"ios": "https://dc.lft.to/lastmile_qr_scan", "android": "https://dc.lft.to/lastmile_qr_scan"}, "is_reserved": 0, "lon": -76.95880583333333, "fusion_lat": 0.0, "name": "ebc77bec66dbd942fdfbcbd94bb469b4"}, {"type": "electric_scooter", "fusion_lon": 0.0, "bike_id": "6e18ed1cfabc6a2ebe13f6493321691f", "is_disabled": 0, "lat": 38.92082466666667, "rental_uris": {"ios": "https://dc.lft.to/lastmile_qr_scan", "android": "https://dc.lft.to/lastmile_qr_scan"}, "is_reserved": 0, "lon": -77.02304816666667, "fusion_lat": 0.0, "name": "6e18ed1cfabc6a2ebe13f6493321691f"}, {"type": "electric_bike", "fusion_lon": 0.0, "bike_id": "9d1558a05b84d2fe141d70e9c5bf95ed", "is_disabled": 0, "lat": 38.9135075, "rental_uris": {"ios": "https://dc.lft.to/lastmile_qr_scan", "android": "https://dc.lft.to/lastmile_qr_scan"}, "is_reserved": 0, "lon": -77.03644316666667, "fusion_lat": 0.0, "name": "9d1558a05b84d2fe141d70e9c5bf95ed"}, {"type": "electric_scooter", "fusion_lon": 0.0, "bike_id": "1ea7fd5ff165d286f03d7b717918f9d0", "is_disabled": 0, "lat": 38.921048166666665, "rental_uris": {"ios": "https://dc.lft.to/lastmile_qr_scan", "android": "https://dc.lft.to/lastmile_qr_scan"}, "is_reserved": 0, "lon": -77.0483045, "fusion_lat": 0.0, "name": "1ea7fd5ff165d286f03d7b717918f9d0"}, {"type": "electric_scooter", "fusion_lon": 0.0, "bike_id": "d637f195708d4f5edf06d598bdd6f55f", "is_disabled": 0, "lat": 38.9250005, "rental_uris": {"ios": "https://dc.lft.to/lastmile_qr_scan", "android": "https://dc.lft.to/lastmile_qr_scan"}, "is_reserved": 0, "lon": -77.02164516666667, "fusion_lat": 0.0, "name": "d637f195708d4f5edf06d598bdd6f55f"}, {"type": "electric_scooter", "fusion_lon": 0.0, "bike_id": "644d6462a09aa14edb9d3393a80aaa4d", "is_disabled": 0, "lat": 38.93217833333333, "rental_uris": {"ios": "https://dc.lft.to/lastmile_qr_scan", "android": "https://dc.lft.to/lastmile_qr_scan"}, "is_reserved": 0, "lon": -77.02390316666667, "fusion_lat": 0.0, "name": "644d6462a09aa14edb9d3393a80aaa4d"}, {"type": "electric_scooter", "fusion_lon": 0.0, "bike_id": "8d6b38b239a07715f405fb4b1219391e", "is_disabled": 0, "lat": 38.90640533333333, "rental_uris": {"ios": "https://dc.lft.to/lastmile_qr_scan", "android": "https://dc.lft.to/lastmile_qr_scan"}, "is_reserved": 0, "lon": -77.0113975, "fusion_lat": 0.0, "name": "8d6b38b239a07715f405fb4b1219391e"}, {"type": "electric_scooter", "fusion_lon": 0.0, "bike_id": "4060e72810adbb83a991c71dd171ea24", "is_disabled": 0, "lat": 38.914635833333335, "rental_uris": {"ios": "https://dc.lft.to/lastmile_qr_scan", "android": "https://dc.lft.to/lastmile_qr_scan"}, "is_reserved": 0, "lon": -77.01491883333334, "fusion_lat": 0.0, "name": "4060e72810adbb83a991c71dd171ea24"}, {"type": "electric_scooter", "fusion_lon": 0.0, "bike_id": "3f8ba487e2afde57afdc1d5c41a6feab", "is_disabled": 0, "lat": 38.94410716666667, "rental_uris": {"ios": "https://dc.lft.to/lastmile_qr_scan", "android": "https://dc.lft.to/lastmile_qr_scan"}, "is_reserved": 0, "lon": -77.005031, "fusion_lat": 0.0, "name": "3f8ba487e2afde57afdc1d5c41a6feab"}, {"type": "electric_scooter", "fusion_lon": 0.0, "bike_id": "ff00cf75aabda5f7ddfec37f8160a1e6", "is_disabled": 0, "lat": 38.936604333333335, "rental_uris": {"ios": "https://dc.lft.to/lastmile_qr_scan", "android": "https://dc.lft.to/lastmile_qr_scan"}, "is_reserved": 0, "lon": -77.03395633333334, "fusion_lat": 0.0, "name": "ff00cf75aabda5f7ddfec37f8160a1e6"}, {"type": "electric_scooter", "fusion_lon": 0.0, "bike_id": "4fd2baf51b684aebeeb05312c554576f", "is_disabled": 0, "lat": 38.89709583333333, "rental_uris": {"ios": "https://dc.lft.to/lastmile_qr_scan", "android": "https://dc.lft.to/lastmile_qr_scan"}, "is_reserved": 0, "lon": -77.00732666666667, "fusion_lat": 0.0, "name": "4fd2baf51b684aebeeb05312c554576f"}, {"type": "electric_scooter", "fusion_lon": 0.0, "bike_id": "37a88e30796e503cbc69f0954974b9af", "is_disabled": 0, "lat": 38.87769433333333, "rental_uris": {"ios": "https://dc.lft.to/lastmile_qr_scan", "android": "https://dc.lft.to/lastmile_qr_scan"}, "is_reserved": 0, "lon": -77.00740566666667, "fusion_lat": 0.0, "name": "37a88e30796e503cbc69f0954974b9af"}, {"type": "electric_scooter", "fusion_lon": 0.0, "bike_id": "3c628f7e1471d02a9d22d24ffe315f15", "is_disabled": 0, "lat": 38.90321133333333, "rental_uris": {"ios": "https://dc.lft.to/lastmile_qr_scan", "android": "https://dc.lft.to/lastmile_qr_scan"}, "is_reserved": 0, "lon": -77.02654966666667, "fusion_lat": 0.0, "name": "3c628f7e1471d02a9d22d24ffe315f15"}, {"type": "electric_scooter", "fusion_lon": 0.0, "bike_id": "f8b2e622278324b6e0ab70dafe7352c0", "is_disabled": 0, "lat": 38.928783333333335, "rental_uris": {"ios": "https://dc.lft.to/lastmile_qr_scan", "android": "https://dc.lft.to/lastmile_qr_scan"}, "is_reserved": 0, "lon": -77.03263, "fusion_lat": 0.0, "name": "f8b2e622278324b6e0ab70dafe7352c0"}, {"type": "electric_scooter", "fusion_lon": 0.0, "bike_id": "0115756bf2ae58afaff2b79c4a9e7b6b", "is_disabled": 0, "lat": 38.956365166666664, "rental_uris": {"ios": "https://dc.lft.to/lastmile_qr_scan", "android": "https://dc.lft.to/lastmile_qr_scan"}, "is_reserved": 0, "lon": -77.0702135, "fusion_lat": 0.0, "name": "0115756bf2ae58afaff2b79c4a9e7b6b"}, {"type": "electric_scooter", "fusion_lon": 0.0, "bike_id": "ff43fc60d3f0a1640a7a33d6a58aa2ab", "is_disabled": 0, "lat": 38.91609233333333, "rental_uris": {"ios": "https://dc.lft.to/lastmile_qr_scan", "android": "https://dc.lft.to/lastmile_qr_scan"}, "is_reserved": 0, "lon": -77.032115, "fusion_lat": 0.0, "name": "ff43fc60d3f0a1640a7a33d6a58aa2ab"}, {"type": "electric_bike", "fusion_lon": 0.0, "bike_id": "c75d5c03072f7f3cc55a01f979caf7a9", "is_disabled": 0, "lat": 38.931725666666665, "rental_uris": {"ios": "https://dc.lft.to/lastmile_qr_scan", "android": "https://dc.lft.to/lastmile_qr_scan"}, "is_reserved": 0, "lon": -77.03535216666667, "fusion_lat": 0.0, "name": "c75d5c03072f7f3cc55a01f979caf7a9"}, {"type": "electric_scooter", "fusion_lon": 0.0, "bike_id": "2b516bb1f76c4a90dc413fe7941230ae", "is_disabled": 0, "lat": 38.876411166666664, "rental_uris": {"ios": "https://dc.lft.to/lastmile_qr_scan", "android": "https://dc.lft.to/lastmile_qr_scan"}, "is_reserved": 0, "lon": -76.99799866666666, "fusion_lat": 0.0, "name": "2b516bb1f76c4a90dc413fe7941230ae"}, {"type": "electric_scooter", "fusion_lon": 0.0, "bike_id": "01745f0cb0fbdb578eeee2143c7ecc8c", "is_disabled": 0, "lat": 38.96114633333333, "rental_uris": {"ios": "https://dc.lft.to/lastmile_qr_scan", "android": "https://dc.lft.to/lastmile_qr_scan"}, "is_reserved": 0, "lon": -77.028312, "fusion_lat": 0.0, "name": "01745f0cb0fbdb578eeee2143c7ecc8c"}, {"type": "electric_scooter", "fusion_lon": 0.0, "bike_id": "ff031a8ed50c27a8144115a53785a008", "is_disabled": 0, "lat": 38.922667, "rental_uris": {"ios": "https://dc.lft.to/lastmile_qr_scan", "android": "https://dc.lft.to/lastmile_qr_scan"}, "is_reserved": 0, "lon": -77.02244533333334, "fusion_lat": 0.0, "name": "ff031a8ed50c27a8144115a53785a008"}, {"type": "electric_scooter", "fusion_lon": 0.0, "bike_id": "0dafbef2b2531063e8cf41b9200791c5", "is_disabled": 0, "lat": 38.918127, "rental_uris": {"ios": "https://dc.lft.to/lastmile_qr_scan", "android": "https://dc.lft.to/lastmile_qr_scan"}, "is_reserved": 0, "lon": -77.04554, "fusion_lat": 0.0, "name": "0dafbef2b2531063e8cf41b9200791c5"}, {"type": "electric_scooter", "fusion_lon": 0.0, "bike_id": "cc993b590aca87aaf59f98d20356a5d8", "is_disabled": 0, "lat": 38.9419635, "rental_uris": {"ios": "https://dc.lft.to/lastmile_qr_scan", "android": "https://dc.lft.to/lastmile_qr_scan"}, "is_reserved": 0, "lon": -77.02521416666667, "fusion_lat": 0.0, "name": "cc993b590aca87aaf59f98d20356a5d8"}, {"type": "electric_bike", "fusion_lon": 0.0, "bike_id": "cfd09af9d9ab9e6553e92e3d68e39afc", "is_disabled": 0, "lat": 38.98046033333333, "rental_uris": {"ios": "https://dc.lft.to/lastmile_qr_scan", "android": "https://dc.lft.to/lastmile_qr_scan"}, "is_reserved": 0, "lon": -76.9579355, "fusion_lat": 0.0, "name": "cfd09af9d9ab9e6553e92e3d68e39afc"}, {"type": "electric_scooter", "fusion_lon": 0.0, "bike_id": "3eda7782593cf7971fff70b56b0f43ee", "is_disabled": 0, "lat": 38.87366033333333, "rental_uris": {"ios": "https://dc.lft.to/lastmile_qr_scan", "android": "https://dc.lft.to/lastmile_qr_scan"}, "is_reserved": 0, "lon": -77.0013515, "fusion_lat": 0.0, "name": "3eda7782593cf7971fff70b56b0f43ee"}, {"type": "electric_scooter", "fusion_lon": 0.0, "bike_id": "239044a291c8e44a03eaba1e2ef836ba", "is_disabled": 0, "lat": 38.903768166666666, "rental_uris": {"ios": "https://dc.lft.to/lastmile_qr_scan", "android": "https://dc.lft.to/lastmile_qr_scan"}, "is_reserved": 0, "lon": -77.0019635, "fusion_lat": 0.0, "name": "239044a291c8e44a03eaba1e2ef836ba"}, {"type": "electric_scooter", "fusion_lon": 0.0, "bike_id": "9009091b13968197af2c42d8ae3f20e0", "is_disabled": 0, "lat": 38.963924666666664, "rental_uris": {"ios": "https://dc.lft.to/lastmile_qr_scan", "android": "https://dc.lft.to/lastmile_qr_scan"}, "is_reserved": 0, "lon": -77.02594716666667, "fusion_lat": 0.0, "name": "9009091b13968197af2c42d8ae3f20e0"}, {"type": "electric_scooter", "fusion_lon": 0.0, "bike_id": "070fa28252e90f7b214020a51b2b03a3", "is_disabled": 0, "lat": 38.910323166666664, "rental_uris": {"ios": "https://dc.lft.to/lastmile_qr_scan", "android": "https://dc.lft.to/lastmile_qr_scan"}, "is_reserved": 0, "lon": -77.07546883333333, "fusion_lat": 0.0, "name": "070fa28252e90f7b214020a51b2b03a3"}, {"type": "electric_scooter", "fusion_lon": 0.0, "bike_id": "f381463adb8ef857292c320f9861e382", "is_disabled": 0, "lat": 38.8794215, "rental_uris": {"ios": "https://dc.lft.to/lastmile_qr_scan", "android": "https://dc.lft.to/lastmile_qr_scan"}, "is_reserved": 0, "lon": -77.01465683333333, "fusion_lat": 0.0, "name": "f381463adb8ef857292c320f9861e382"}, {"type": "electric_scooter", "fusion_lon": 0.0, "bike_id": "7de4fdd349f2297be6468309d1c7d8b2", "is_disabled": 0, "lat": 38.932201, "rental_uris": {"ios": "https://dc.lft.to/lastmile_qr_scan", "android": "https://dc.lft.to/lastmile_qr_scan"}, "is_reserved": 0, "lon": -77.03519116666666, "fusion_lat": 0.0, "name": "7de4fdd349f2297be6468309d1c7d8b2"}, {"type": "electric_scooter", "fusion_lon": 0.0, "bike_id": "2c1dceb12e8b627257d62e608bea235c", "is_disabled": 0, "lat": 38.86217633333333, "rental_uris": {"ios": "https://dc.lft.to/lastmile_qr_scan", "android": "https://dc.lft.to/lastmile_qr_scan"}, "is_reserved": 0, "lon": -76.9948375, "fusion_lat": 0.0, "name": "2c1dceb12e8b627257d62e608bea235c"}, {"type": "electric_scooter", "fusion_lon": 0.0, "bike_id": "4003afb3854654c5eb38dfa793b800d7", "is_disabled": 0, "lat": 38.92544133333333, "rental_uris": {"ios": "https://dc.lft.to/lastmile_qr_scan", "android": "https://dc.lft.to/lastmile_qr_scan"}, "is_reserved": 0, "lon": -77.00071533333333, "fusion_lat": 0.0, "name": "4003afb3854654c5eb38dfa793b800d7"}, {"type": "electric_scooter", "fusion_lon": 0.0, "bike_id": "3e297b05fa5245af3bb63eaf1c7fac55", "is_disabled": 0, "lat": 38.919752833333334, "rental_uris": {"ios": "https://dc.lft.to/lastmile_qr_scan", "android": "https://dc.lft.to/lastmile_qr_scan"}, "is_reserved": 0, "lon": -77.0250825, "fusion_lat": 0.0, "name": "3e297b05fa5245af3bb63eaf1c7fac55"}, {"type": "electric_scooter", "fusion_lon": 0.0, "bike_id": "5f949344a06b3da553dbcc43cec84092", "is_disabled": 0, "lat": 38.899472833333334, "rental_uris": {"ios": "https://dc.lft.to/lastmile_qr_scan", "android": "https://dc.lft.to/lastmile_qr_scan"}, "is_reserved": 0, "lon": -77.02000716666667, "fusion_lat": 0.0, "name": "5f949344a06b3da553dbcc43cec84092"}, {"type": "electric_bike", "fusion_lon": 0.0, "bike_id": "901c75845e207eae735313043905b588", "is_disabled": 0, "lat": 38.92658683333333, "rental_uris": {"ios": "https://dc.lft.to/lastmile_qr_scan", "android": "https://dc.lft.to/lastmile_qr_scan"}, "is_reserved": 0, "lon": -77.09013233333333, "fusion_lat": 0.0, "name": "901c75845e207eae735313043905b588"}, {"type": "electric_bike", "fusion_lon": 0.0, "bike_id": "9ba17f3e9e55f613bdca2bd006ce3630", "is_disabled": 0, "lat": 38.980964166666666, "rental_uris": {"ios": "https://dc.lft.to/lastmile_qr_scan", "android": "https://dc.lft.to/lastmile_qr_scan"}, "is_reserved": 0, "lon": -77.007507, "fusion_lat": 0.0, "name": "9ba17f3e9e55f613bdca2bd006ce3630"}, {"type": "electric_scooter", "fusion_lon": 0.0, "bike_id": "2e88eeee6f245f5e544180fcf54bb670", "is_disabled": 0, "lat": 38.9644505, "rental_uris": {"ios": "https://dc.lft.to/lastmile_qr_scan", "android": "https://dc.lft.to/lastmile_qr_scan"}, "is_reserved": 0, "lon": -77.02004983333333, "fusion_lat": 0.0, "name": "2e88eeee6f245f5e544180fcf54bb670"}, {"type": "electric_scooter", "fusion_lon": 0.0, "bike_id": "9496aa252fe58ef96dc7ce8f0e95202c", "is_disabled": 0, "lat": 38.91818133333334, "rental_uris": {"ios": "https://dc.lft.to/lastmile_qr_scan", "android": "https://dc.lft.to/lastmile_qr_scan"}, "is_reserved": 0, "lon": -77.0253315, "fusion_lat": 0.0, "name": "9496aa252fe58ef96dc7ce8f0e95202c"}, {"type": "electric_scooter", "fusion_lon": 0.0, "bike_id": "9084ae83b782fbb5ebceaa014ec61e03", "is_disabled": 0, "lat": 38.886398, "rental_uris": {"ios": "https://dc.lft.to/lastmile_qr_scan", "android": "https://dc.lft.to/lastmile_qr_scan"}, "is_reserved": 0, "lon": -77.0213715, "fusion_lat": 0.0, "name": "9084ae83b782fbb5ebceaa014ec61e03"}, {"type": "electric_scooter", "fusion_lon": 0.0, "bike_id": "731bdb12133592b50f8dfd5ad580fb69", "is_disabled": 0, "lat": 38.91647583333334, "rental_uris": {"ios": "https://dc.lft.to/lastmile_qr_scan", "android": "https://dc.lft.to/lastmile_qr_scan"}, "is_reserved": 0, "lon": -77.03209566666666, "fusion_lat": 0.0, "name": "731bdb12133592b50f8dfd5ad580fb69"}, {"type": "electric_scooter", "fusion_lon": 0.0, "bike_id": "a9534d944d53955060c8211c26e74a62", "is_disabled": 0, "lat": 38.911185333333336, "rental_uris": {"ios": "https://dc.lft.to/lastmile_qr_scan", "android": "https://dc.lft.to/lastmile_qr_scan"}, "is_reserved": 0, "lon": -77.020918, "fusion_lat": 0.0, "name": "a9534d944d53955060c8211c26e74a62"}, {"type": "electric_bike", "fusion_lon": 0.0, "bike_id": "539635400ac20e211c923382fc70d1e5", "is_disabled": 0, "lat": 38.85086416666667, "rental_uris": {"ios": "https://dc.lft.to/lastmile_qr_scan", "android": "https://dc.lft.to/lastmile_qr_scan"}, "is_reserved": 0, "lon": -76.95702666666666, "fusion_lat": 0.0, "name": "539635400ac20e211c923382fc70d1e5"}, {"type": "electric_scooter", "fusion_lon": 0.0, "bike_id": "2e5f984d3dd253c58fca64e77023d31e", "is_disabled": 0, "lat": 38.92320566666667, "rental_uris": {"ios": "https://dc.lft.to/lastmile_qr_scan", "android": "https://dc.lft.to/lastmile_qr_scan"}, "is_reserved": 0, "lon": -77.01953716666667, "fusion_lat": 0.0, "name": "2e5f984d3dd253c58fca64e77023d31e"}, {"type": "electric_scooter", "fusion_lon": 0.0, "bike_id": "71785f1da27e67bf25d7d86bb8ceabee", "is_disabled": 0, "lat": 38.972117, "rental_uris": {"ios": "https://dc.lft.to/lastmile_qr_scan", "android": "https://dc.lft.to/lastmile_qr_scan"}, "is_reserved": 0, "lon": -77.0333445, "fusion_lat": 0.0, "name": "71785f1da27e67bf25d7d86bb8ceabee"}, {"type": "electric_scooter", "fusion_lon": 0.0, "bike_id": "ed7b1cda4217216bc97bab847385e2dd", "is_disabled": 0, "lat": 38.876617, "rental_uris": {"ios": "https://dc.lft.to/lastmile_qr_scan", "android": "https://dc.lft.to/lastmile_qr_scan"}, "is_reserved": 0, "lon": -76.996284, "fusion_lat": 0.0, "name": "ed7b1cda4217216bc97bab847385e2dd"}, {"type": "electric_bike", "fusion_lon": 0.0, "bike_id": "d122b2e000fcfcbea1aada0ea98d95f5", "is_disabled": 0, "lat": 38.93565916666667, "rental_uris": {"ios": "https://dc.lft.to/lastmile_qr_scan", "android": "https://dc.lft.to/lastmile_qr_scan"}, "is_reserved": 0, "lon": -77.10610333333334, "fusion_lat": 0.0, "name": "d122b2e000fcfcbea1aada0ea98d95f5"}, {"type": "electric_scooter", "fusion_lon": 0.0, "bike_id": "4e5c4db2a94a32297761d4fcacfb671a", "is_disabled": 0, "lat": 38.879963833333335, "rental_uris": {"ios": "https://dc.lft.to/lastmile_qr_scan", "android": "https://dc.lft.to/lastmile_qr_scan"}, "is_reserved": 0, "lon": -76.98681416666666, "fusion_lat": 0.0, "name": "4e5c4db2a94a32297761d4fcacfb671a"}, {"type": "electric_scooter", "fusion_lon": 0.0, "bike_id": "74f79bdbb22b9525f5525bab856926ed", "is_disabled": 0, "lat": 38.899704166666666, "rental_uris": {"ios": "https://dc.lft.to/lastmile_qr_scan", "android": "https://dc.lft.to/lastmile_qr_scan"}, "is_reserved": 0, "lon": -77.01928333333333, "fusion_lat": 0.0, "name": "74f79bdbb22b9525f5525bab856926ed"}, {"type": "electric_scooter", "fusion_lon": 0.0, "bike_id": "2aed2beee032ecf2f6bc7779beab3d9b", "is_disabled": 0, "lat": 38.904543833333335, "rental_uris": {"ios": "https://dc.lft.to/lastmile_qr_scan", "android": "https://dc.lft.to/lastmile_qr_scan"}, "is_reserved": 0, "lon": -77.05802, "fusion_lat": 0.0, "name": "2aed2beee032ecf2f6bc7779beab3d9b"}, {"type": "electric_scooter", "fusion_lon": 0.0, "bike_id": "1300727f7ecb6acaf554be0f92bbe96a", "is_disabled": 0, "lat": 38.893518666666665, "rental_uris": {"ios": "https://dc.lft.to/lastmile_qr_scan", "android": "https://dc.lft.to/lastmile_qr_scan"}, "is_reserved": 0, "lon": -76.95233733333333, "fusion_lat": 0.0, "name": "1300727f7ecb6acaf554be0f92bbe96a"}, {"type": "electric_bike", "fusion_lon": 0.0, "bike_id": "f013989b50331737b372f3fa7cf344a9", "is_disabled": 0, "lat": 38.8468115, "rental_uris": {"ios": "https://dc.lft.to/lastmile_qr_scan", "android": "https://dc.lft.to/lastmile_qr_scan"}, "is_reserved": 0, "lon": -76.98285533333333, "fusion_lat": 0.0, "name": "f013989b50331737b372f3fa7cf344a9"}, {"type": "electric_scooter", "fusion_lon": 0.0, "bike_id": "65eacd65ed6c08d34a90df3101cb1f1a", "is_disabled": 0, "lat": 38.908133666666664, "rental_uris": {"ios": "https://dc.lft.to/lastmile_qr_scan", "android": "https://dc.lft.to/lastmile_qr_scan"}, "is_reserved": 0, "lon": -77.033652, "fusion_lat": 0.0, "name": "65eacd65ed6c08d34a90df3101cb1f1a"}, {"type": "electric_scooter", "fusion_lon": 0.0, "bike_id": "5a2523b87bcea748721fa091748322e7", "is_disabled": 0, "lat": 38.900315166666665, "rental_uris": {"ios": "https://dc.lft.to/lastmile_qr_scan", "android": "https://dc.lft.to/lastmile_qr_scan"}, "is_reserved": 0, "lon": -77.00223416666667, "fusion_lat": 0.0, "name": "5a2523b87bcea748721fa091748322e7"}, {"type": "electric_scooter", "fusion_lon": 0.0, "bike_id": "c7227534c92fce942d9543a2c689d2f8", "is_disabled": 0, "lat": 38.913439333333336, "rental_uris": {"ios": "https://dc.lft.to/lastmile_qr_scan", "android": "https://dc.lft.to/lastmile_qr_scan"}, "is_reserved": 0, "lon": -77.032086, "fusion_lat": 0.0, "name": "c7227534c92fce942d9543a2c689d2f8"}, {"type": "electric_scooter", "fusion_lon": 0.0, "bike_id": "14d12a5f3f01d6606b4f14b1be84387b", "is_disabled": 0, "lat": 38.947900833333335, "rental_uris": {"ios": "https://dc.lft.to/lastmile_qr_scan", "android": "https://dc.lft.to/lastmile_qr_scan"}, "is_reserved": 0, "lon": -77.040864, "fusion_lat": 0.0, "name": "14d12a5f3f01d6606b4f14b1be84387b"}, {"type": "electric_scooter", "fusion_lon": 0.0, "bike_id": "e681248cd8e6e100d2775e6cb3d8f55e", "is_disabled": 0, "lat": 38.930722333333335, "rental_uris": {"ios": "https://dc.lft.to/lastmile_qr_scan", "android": "https://dc.lft.to/lastmile_qr_scan"}, "is_reserved": 0, "lon": -77.029189, "fusion_lat": 0.0, "name": "e681248cd8e6e100d2775e6cb3d8f55e"}, {"type": "electric_bike", "fusion_lon": 0.0, "bike_id": "1b661adca66aef1b5cb6b01886478ac6", "is_disabled": 0, "lat": 38.957579833333334, "rental_uris": {"ios": "https://dc.lft.to/lastmile_qr_scan", "android": "https://dc.lft.to/lastmile_qr_scan"}, "is_reserved": 0, "lon": -76.99925783333333, "fusion_lat": 0.0, "name": "1b661adca66aef1b5cb6b01886478ac6"}, {"type": "electric_scooter", "fusion_lon": 0.0, "bike_id": "a5eeb5e278110f88563cd76b3ef41097", "is_disabled": 0, "lat": 38.88421616666667, "rental_uris": {"ios": "https://dc.lft.to/lastmile_qr_scan", "android": "https://dc.lft.to/lastmile_qr_scan"}, "is_reserved": 0, "lon": -77.02630433333333, "fusion_lat": 0.0, "name": "a5eeb5e278110f88563cd76b3ef41097"}, {"type": "electric_scooter", "fusion_lon": 0.0, "bike_id": "699dd9783ba6ecc14b96b77fb749960b", "is_disabled": 0, "lat": 38.935145166666665, "rental_uris": {"ios": "https://dc.lft.to/lastmile_qr_scan", "android": "https://dc.lft.to/lastmile_qr_scan"}, "is_reserved": 0, "lon": -77.032917, "fusion_lat": 0.0, "name": "699dd9783ba6ecc14b96b77fb749960b"}, {"type": "electric_scooter", "fusion_lon": 0.0, "bike_id": "ff2754f9ad2089a44dd0fa1e0ea1f3ca", "is_disabled": 0, "lat": 38.92361183333333, "rental_uris": {"ios": "https://dc.lft.to/lastmile_qr_scan", "android": "https://dc.lft.to/lastmile_qr_scan"}, "is_reserved": 0, "lon": -77.01916733333333, "fusion_lat": 0.0, "name": "ff2754f9ad2089a44dd0fa1e0ea1f3ca"}, {"type": "electric_scooter", "fusion_lon": 0.0, "bike_id": "bf98afa611c51bc377f6651cfa8bf8c3", "is_disabled": 0, "lat": 38.926865, "rental_uris": {"ios": "https://dc.lft.to/lastmile_qr_scan", "android": "https://dc.lft.to/lastmile_qr_scan"}, "is_reserved": 0, "lon": -77.02793166666666, "fusion_lat": 0.0, "name": "bf98afa611c51bc377f6651cfa8bf8c3"}, {"type": "electric_scooter", "fusion_lon": 0.0, "bike_id": "ad96f4520337b4b7342f9b9d8264475c", "is_disabled": 0, "lat": 38.89401683333333, "rental_uris": {"ios": "https://dc.lft.to/lastmile_qr_scan", "android": "https://dc.lft.to/lastmile_qr_scan"}, "is_reserved": 0, "lon": -77.01084883333333, "fusion_lat": 0.0, "name": "ad96f4520337b4b7342f9b9d8264475c"}, {"type": "electric_bike", "fusion_lon": 0.0, "bike_id": "d857b167531e456d2b24f156ded712e7", "is_disabled": 0, "lat": 38.853202833333334, "rental_uris": {"ios": "https://dc.lft.to/lastmile_qr_scan", "android": "https://dc.lft.to/lastmile_qr_scan"}, "is_reserved": 0, "lon": -76.98018866666666, "fusion_lat": 0.0, "name": "d857b167531e456d2b24f156ded712e7"}, {"type": "electric_scooter", "fusion_lon": 0.0, "bike_id": "ee8e1345d999f97567c4580bb331d79e", "is_disabled": 0, "lat": 38.91707816666667, "rental_uris": {"ios": "https://dc.lft.to/lastmile_qr_scan", "android": "https://dc.lft.to/lastmile_qr_scan"}, "is_reserved": 0, "lon": -77.02399066666666, "fusion_lat": 0.0, "name": "ee8e1345d999f97567c4580bb331d79e"}, {"type": "electric_scooter", "fusion_lon": 0.0, "bike_id": "ad18b43af958b404ae6b8bc205a85a6a", "is_disabled": 0, "lat": 38.87723016666666, "rental_uris": {"ios": "https://dc.lft.to/lastmile_qr_scan", "android": "https://dc.lft.to/lastmile_qr_scan"}, "is_reserved": 0, "lon": -77.00935066666666, "fusion_lat": 0.0, "name": "ad18b43af958b404ae6b8bc205a85a6a"}, {"type": "electric_scooter", "fusion_lon": 0.0, "bike_id": "83b92a6255bea617a62cd41b2d98f6d3", "is_disabled": 0, "lat": 38.92795066666667, "rental_uris": {"ios": "https://dc.lft.to/lastmile_qr_scan", "android": "https://dc.lft.to/lastmile_qr_scan"}, "is_reserved": 0, "lon": -77.0272625, "fusion_lat": 0.0, "name": "83b92a6255bea617a62cd41b2d98f6d3"}, {"type": "electric_scooter", "fusion_lon": 0.0, "bike_id": "395cb942122d9f45215ab98a258dcb62", "is_disabled": 0, "lat": 38.89232033333333, "rental_uris": {"ios": "https://dc.lft.to/lastmile_qr_scan", "android": "https://dc.lft.to/lastmile_qr_scan"}, "is_reserved": 0, "lon": -77.02420333333333, "fusion_lat": 0.0, "name": "395cb942122d9f45215ab98a258dcb62"}, {"type": "electric_scooter", "fusion_lon": 0.0, "bike_id": "6cd7277f22c52039894a0f19b5fe7ebd", "is_disabled": 0, "lat": 38.917977666666665, "rental_uris": {"ios": "https://dc.lft.to/lastmile_qr_scan", "android": "https://dc.lft.to/lastmile_qr_scan"}, "is_reserved": 0, "lon": -77.041598, "fusion_lat": 0.0, "name": "6cd7277f22c52039894a0f19b5fe7ebd"}, {"type": "electric_scooter", "fusion_lon": 0.0, "bike_id": "a3735f603bc239bb12a922798c735c89", "is_disabled": 0, "lat": 38.908627333333335, "rental_uris": {"ios": "https://dc.lft.to/lastmile_qr_scan", "android": "https://dc.lft.to/lastmile_qr_scan"}, "is_reserved": 0, "lon": -77.00385983333334, "fusion_lat": 0.0, "name": "a3735f603bc239bb12a922798c735c89"}, {"type": "electric_scooter", "fusion_lon": 0.0, "bike_id": "1ecf3e14a1f75f59eb178d606ebee221", "is_disabled": 0, "lat": 38.94082233333334, "rental_uris": {"ios": "https://dc.lft.to/lastmile_qr_scan", "android": "https://dc.lft.to/lastmile_qr_scan"}, "is_reserved": 0, "lon": -77.0254495, "fusion_lat": 0.0, "name": "1ecf3e14a1f75f59eb178d606ebee221"}, {"type": "electric_scooter", "fusion_lon": 0.0, "bike_id": "617af09af78391a4468213c58f9b804c", "is_disabled": 0, "lat": 38.92773483333333, "rental_uris": {"ios": "https://dc.lft.to/lastmile_qr_scan", "android": "https://dc.lft.to/lastmile_qr_scan"}, "is_reserved": 0, "lon": -77.02858516666667, "fusion_lat": 0.0, "name": "617af09af78391a4468213c58f9b804c"}, {"type": "electric_scooter", "fusion_lon": 0.0, "bike_id": "f4df3e18d4252964aa1d322feed7a467", "is_disabled": 0, "lat": 38.9037935, "rental_uris": {"ios": "https://dc.lft.to/lastmile_qr_scan", "android": "https://dc.lft.to/lastmile_qr_scan"}, "is_reserved": 0, "lon": -77.04365733333333, "fusion_lat": 0.0, "name": "f4df3e18d4252964aa1d322feed7a467"}, {"type": "electric_scooter", "fusion_lon": 0.0, "bike_id": "4735688b4985f2358b013883a57d96de", "is_disabled": 0, "lat": 38.863702, "rental_uris": {"ios": "https://dc.lft.to/lastmile_qr_scan", "android": "https://dc.lft.to/lastmile_qr_scan"}, "is_reserved": 0, "lon": -76.9904795, "fusion_lat": 0.0, "name": "4735688b4985f2358b013883a57d96de"}, {"type": "electric_scooter", "fusion_lon": 0.0, "bike_id": "aad63a0605cc7cf6c354fd534fc36656", "is_disabled": 0, "lat": 38.87866966666667, "rental_uris": {"ios": "https://dc.lft.to/lastmile_qr_scan", "android": "https://dc.lft.to/lastmile_qr_scan"}, "is_reserved": 0, "lon": -76.98934416666667, "fusion_lat": 0.0, "name": "aad63a0605cc7cf6c354fd534fc36656"}, {"type": "electric_scooter", "fusion_lon": 0.0, "bike_id": "01cfc2cac223404ade95cbe7720874c6", "is_disabled": 0, "lat": 38.926588333333335, "rental_uris": {"ios": "https://dc.lft.to/lastmile_qr_scan", "android": "https://dc.lft.to/lastmile_qr_scan"}, "is_reserved": 0, "lon": -77.03716533333333, "fusion_lat": 0.0, "name": "01cfc2cac223404ade95cbe7720874c6"}, {"type": "electric_scooter", "fusion_lon": 0.0, "bike_id": "91c20449c35e1448a14aeaee5f62ea19", "is_disabled": 0, "lat": 38.923964166666664, "rental_uris": {"ios": "https://dc.lft.to/lastmile_qr_scan", "android": "https://dc.lft.to/lastmile_qr_scan"}, "is_reserved": 0, "lon": -77.02976933333333, "fusion_lat": 0.0, "name": "91c20449c35e1448a14aeaee5f62ea19"}, {"type": "electric_scooter", "fusion_lon": 0.0, "bike_id": "97ea54adc603d62d5679b2b22751f56c", "is_disabled": 0, "lat": 38.90672333333333, "rental_uris": {"ios": "https://dc.lft.to/lastmile_qr_scan", "android": "https://dc.lft.to/lastmile_qr_scan"}, "is_reserved": 0, "lon": -77.021996, "fusion_lat": 0.0, "name": "97ea54adc603d62d5679b2b22751f56c"}, {"type": "electric_scooter", "fusion_lon": 0.0, "bike_id": "97591e48fd2ea5887273512ae6484ad0", "is_disabled": 0, "lat": 38.90797383333334, "rental_uris": {"ios": "https://dc.lft.to/lastmile_qr_scan", "android": "https://dc.lft.to/lastmile_qr_scan"}, "is_reserved": 0, "lon": -77.000332, "fusion_lat": 0.0, "name": "97591e48fd2ea5887273512ae6484ad0"}, {"type": "electric_scooter", "fusion_lon": 0.0, "bike_id": "8779d359e508bc0a346fb699d20ed9ee", "is_disabled": 0, "lat": 38.892278, "rental_uris": {"ios": "https://dc.lft.to/lastmile_qr_scan", "android": "https://dc.lft.to/lastmile_qr_scan"}, "is_reserved": 0, "lon": -77.04505183333333, "fusion_lat": 0.0, "name": "8779d359e508bc0a346fb699d20ed9ee"}, {"type": "electric_scooter", "fusion_lon": 0.0, "bike_id": "898fdd51f332e69e9f0a49176998e426", "is_disabled": 0, "lat": 38.899243166666665, "rental_uris": {"ios": "https://dc.lft.to/lastmile_qr_scan", "android": "https://dc.lft.to/lastmile_qr_scan"}, "is_reserved": 0, "lon": -77.02805216666667, "fusion_lat": 0.0, "name": "898fdd51f332e69e9f0a49176998e426"}, {"type": "electric_scooter", "fusion_lon": 0.0, "bike_id": "9f665039bcc72c4361c75b9699ef8a6c", "is_disabled": 0, "lat": 38.89963866666667, "rental_uris": {"ios": "https://dc.lft.to/lastmile_qr_scan", "android": "https://dc.lft.to/lastmile_qr_scan"}, "is_reserved": 0, "lon": -77.0450145, "fusion_lat": 0.0, "name": "9f665039bcc72c4361c75b9699ef8a6c"}, {"type": "electric_scooter", "fusion_lon": 0.0, "bike_id": "c2dcfd46a4289477cf6aa23e7e65a52e", "is_disabled": 0, "lat": 38.92050066666667, "rental_uris": {"ios": "https://dc.lft.to/lastmile_qr_scan", "android": "https://dc.lft.to/lastmile_qr_scan"}, "is_reserved": 0, "lon": -77.0418325, "fusion_lat": 0.0, "name": "c2dcfd46a4289477cf6aa23e7e65a52e"}, {"type": "electric_scooter", "fusion_lon": 0.0, "bike_id": "3e7004d5e680abcd113cdd5643598ab7", "is_disabled": 0, "lat": 38.94317366666667, "rental_uris": {"ios": "https://dc.lft.to/lastmile_qr_scan", "android": "https://dc.lft.to/lastmile_qr_scan"}, "is_reserved": 0, "lon": -77.06171333333333, "fusion_lat": 0.0, "name": "3e7004d5e680abcd113cdd5643598ab7"}, {"type": "electric_scooter", "fusion_lon": 0.0, "bike_id": "ad3c92435ac1ffcd03ddfbb903b0371d", "is_disabled": 0, "lat": 38.92371266666667, "rental_uris": {"ios": "https://dc.lft.to/lastmile_qr_scan", "android": "https://dc.lft.to/lastmile_qr_scan"}, "is_reserved": 0, "lon": -77.0198915, "fusion_lat": 0.0, "name": "ad3c92435ac1ffcd03ddfbb903b0371d"}, {"type": "electric_scooter", "fusion_lon": 0.0, "bike_id": "0a0bdb3198b0a54d6175952cc32eb1ba", "is_disabled": 0, "lat": 38.8619895, "rental_uris": {"ios": "https://dc.lft.to/lastmile_qr_scan", "android": "https://dc.lft.to/lastmile_qr_scan"}, "is_reserved": 0, "lon": -76.995082, "fusion_lat": 0.0, "name": "0a0bdb3198b0a54d6175952cc32eb1ba"}, {"type": "electric_scooter", "fusion_lon": 0.0, "bike_id": "a663d00dcddd7718d3a21bf9fb7c5d40", "is_disabled": 0, "lat": 38.915448166666664, "rental_uris": {"ios": "https://dc.lft.to/lastmile_qr_scan", "android": "https://dc.lft.to/lastmile_qr_scan"}, "is_reserved": 0, "lon": -77.03856466666667, "fusion_lat": 0.0, "name": "a663d00dcddd7718d3a21bf9fb7c5d40"}, {"type": "electric_scooter", "fusion_lon": 0.0, "bike_id": "425cc002a4a00005877cf23830e5b01b", "is_disabled": 0, "lat": 38.924601, "rental_uris": {"ios": "https://dc.lft.to/lastmile_qr_scan", "android": "https://dc.lft.to/lastmile_qr_scan"}, "is_reserved": 0, "lon": -77.05755933333333, "fusion_lat": 0.0, "name": "425cc002a4a00005877cf23830e5b01b"}, {"type": "electric_scooter", "fusion_lon": 0.0, "bike_id": "1b1bb225090a47f7357b2dc3a11e3bab", "is_disabled": 0, "lat": 38.920655833333335, "rental_uris": {"ios": "https://dc.lft.to/lastmile_qr_scan", "android": "https://dc.lft.to/lastmile_qr_scan"}, "is_reserved": 0, "lon": -77.02498266666667, "fusion_lat": 0.0, "name": "1b1bb225090a47f7357b2dc3a11e3bab"}, {"type": "electric_scooter", "fusion_lon": 0.0, "bike_id": "89cdee7a227ebf0bfe741763b95ff677", "is_disabled": 0, "lat": 38.95922983333333, "rental_uris": {"ios": "https://dc.lft.to/lastmile_qr_scan", "android": "https://dc.lft.to/lastmile_qr_scan"}, "is_reserved": 0, "lon": -76.99440316666667, "fusion_lat": 0.0, "name": "89cdee7a227ebf0bfe741763b95ff677"}, {"type": "electric_scooter", "fusion_lon": 0.0, "bike_id": "526b8a0920562022c87011f1c00b5611", "is_disabled": 0, "lat": 38.9205165, "rental_uris": {"ios": "https://dc.lft.to/lastmile_qr_scan", "android": "https://dc.lft.to/lastmile_qr_scan"}, "is_reserved": 0, "lon": -77.03391283333333, "fusion_lat": 0.0, "name": "526b8a0920562022c87011f1c00b5611"}, {"type": "electric_scooter", "fusion_lon": 0.0, "bike_id": "73d50a8999e853ce3a49c5ebaa9726d1", "is_disabled": 0, "lat": 38.922376, "rental_uris": {"ios": "https://dc.lft.to/lastmile_qr_scan", "android": "https://dc.lft.to/lastmile_qr_scan"}, "is_reserved": 0, "lon": -77.04268633333334, "fusion_lat": 0.0, "name": "73d50a8999e853ce3a49c5ebaa9726d1"}, {"type": "electric_scooter", "fusion_lon": 0.0, "bike_id": "bb4f912448fe1646fa41770e9ecfe50d", "is_disabled": 0, "lat": 38.90867016666667, "rental_uris": {"ios": "https://dc.lft.to/lastmile_qr_scan", "android": "https://dc.lft.to/lastmile_qr_scan"}, "is_reserved": 0, "lon": -76.98497916666666, "fusion_lat": 0.0, "name": "bb4f912448fe1646fa41770e9ecfe50d"}, {"type": "electric_scooter", "fusion_lon": 0.0, "bike_id": "0441c8acdc69e7aa615620f681af3b89", "is_disabled": 0, "lat": 38.92487783333333, "rental_uris": {"ios": "https://dc.lft.to/lastmile_qr_scan", "android": "https://dc.lft.to/lastmile_qr_scan"}, "is_reserved": 0, "lon": -77.02558516666667, "fusion_lat": 0.0, "name": "0441c8acdc69e7aa615620f681af3b89"}, {"type": "electric_scooter", "fusion_lon": 0.0, "bike_id": "148d1742a1fac2c39296a1b311cca7c3", "is_disabled": 0, "lat": 38.9247365, "rental_uris": {"ios": "https://dc.lft.to/lastmile_qr_scan", "android": "https://dc.lft.to/lastmile_qr_scan"}, "is_reserved": 0, "lon": -77.02912683333334, "fusion_lat": 0.0, "name": "148d1742a1fac2c39296a1b311cca7c3"}, {"type": "electric_scooter", "fusion_lon": 0.0, "bike_id": "721919bd7365f86c91b4664a45c06ec9", "is_disabled": 0, "lat": 38.92602933333333, "rental_uris": {"ios": "https://dc.lft.to/lastmile_qr_scan", "android": "https://dc.lft.to/lastmile_qr_scan"}, "is_reserved": 0, "lon": -77.0321495, "fusion_lat": 0.0, "name": "721919bd7365f86c91b4664a45c06ec9"}, {"type": "electric_bike", "fusion_lon": 0.0, "bike_id": "1b7bd7e2076e84be93a054105f73ead8", "is_disabled": 0, "lat": 38.84509033333333, "rental_uris": {"ios": "https://dc.lft.to/lastmile_qr_scan", "android": "https://dc.lft.to/lastmile_qr_scan"}, "is_reserved": 0, "lon": -76.988142, "fusion_lat": 0.0, "name": "1b7bd7e2076e84be93a054105f73ead8"}, {"type": "electric_scooter", "fusion_lon": 0.0, "bike_id": "25edaaa31b2406c960353dc95aac8a9c", "is_disabled": 0, "lat": 38.927073, "rental_uris": {"ios": "https://dc.lft.to/lastmile_qr_scan", "android": "https://dc.lft.to/lastmile_qr_scan"}, "is_reserved": 0, "lon": -77.02091833333333, "fusion_lat": 0.0, "name": "25edaaa31b2406c960353dc95aac8a9c"}, {"type": "electric_scooter", "fusion_lon": 0.0, "bike_id": "bef17d878d7529dba041a49afe559747", "is_disabled": 0, "lat": 38.92765283333333, "rental_uris": {"ios": "https://dc.lft.to/lastmile_qr_scan", "android": "https://dc.lft.to/lastmile_qr_scan"}, "is_reserved": 0, "lon": -77.03244566666666, "fusion_lat": 0.0, "name": "bef17d878d7529dba041a49afe559747"}, {"type": "electric_scooter", "fusion_lon": 0.0, "bike_id": "683a542fb00c6c265cc871ce20d01987", "is_disabled": 0, "lat": 38.88558, "rental_uris": {"ios": "https://dc.lft.to/lastmile_qr_scan", "android": "https://dc.lft.to/lastmile_qr_scan"}, "is_reserved": 0, "lon": -76.9979645, "fusion_lat": 0.0, "name": "683a542fb00c6c265cc871ce20d01987"}, {"type": "electric_scooter", "fusion_lon": 0.0, "bike_id": "5167d93a2d790c141b0e72dd8782c23b", "is_disabled": 0, "lat": 38.913928166666665, "rental_uris": {"ios": "https://dc.lft.to/lastmile_qr_scan", "android": "https://dc.lft.to/lastmile_qr_scan"}, "is_reserved": 0, "lon": -77.03445916666666, "fusion_lat": 0.0, "name": "5167d93a2d790c141b0e72dd8782c23b"}, {"type": "electric_scooter", "fusion_lon": 0.0, "bike_id": "a37a819b87256766b362b559199927c0", "is_disabled": 0, "lat": 38.8997375, "rental_uris": {"ios": "https://dc.lft.to/lastmile_qr_scan", "android": "https://dc.lft.to/lastmile_qr_scan"}, "is_reserved": 0, "lon": -76.99259466666666, "fusion_lat": 0.0, "name": "a37a819b87256766b362b559199927c0"}, {"type": "electric_scooter", "fusion_lon": 0.0, "bike_id": "5abb8e5b74a90e7fe501dbee8ae13ebe", "is_disabled": 0, "lat": 38.89232633333334, "rental_uris": {"ios": "https://dc.lft.to/lastmile_qr_scan", "android": "https://dc.lft.to/lastmile_qr_scan"}, "is_reserved": 0, "lon": -77.04162716666667, "fusion_lat": 0.0, "name": "5abb8e5b74a90e7fe501dbee8ae13ebe"}, {"type": "electric_scooter", "fusion_lon": 0.0, "bike_id": "85fccd91d7057ed3928489f09a8b0c77", "is_disabled": 0, "lat": 38.871705, "rental_uris": {"ios": "https://dc.lft.to/lastmile_qr_scan", "android": "https://dc.lft.to/lastmile_qr_scan"}, "is_reserved": 0, "lon": -77.00626716666666, "fusion_lat": 0.0, "name": "85fccd91d7057ed3928489f09a8b0c77"}, {"type": "electric_scooter", "fusion_lon": 0.0, "bike_id": "8b3b65a89e61a7ffbaa2a9620d8beaa7", "is_disabled": 0, "lat": 38.927180166666666, "rental_uris": {"ios": "https://dc.lft.to/lastmile_qr_scan", "android": "https://dc.lft.to/lastmile_qr_scan"}, "is_reserved": 0, "lon": -77.02106016666667, "fusion_lat": 0.0, "name": "8b3b65a89e61a7ffbaa2a9620d8beaa7"}, {"type": "electric_scooter", "fusion_lon": 0.0, "bike_id": "46d508baa2e048fd7b1abbbd1dcead2f", "is_disabled": 0, "lat": 38.898228333333336, "rental_uris": {"ios": "https://dc.lft.to/lastmile_qr_scan", "android": "https://dc.lft.to/lastmile_qr_scan"}, "is_reserved": 0, "lon": -77.0278395, "fusion_lat": 0.0, "name": "46d508baa2e048fd7b1abbbd1dcead2f"}, {"type": "electric_scooter", "fusion_lon": 0.0, "bike_id": "67384216a066269dda0ca400e8dde6fb", "is_disabled": 0, "lat": 38.9191145, "rental_uris": {"ios": "https://dc.lft.to/lastmile_qr_scan", "android": "https://dc.lft.to/lastmile_qr_scan"}, "is_reserved": 0, "lon": -77.02507983333334, "fusion_lat": 0.0, "name": "67384216a066269dda0ca400e8dde6fb"}, {"type": "electric_bike", "fusion_lon": 0.0, "bike_id": "3a09c5c876de4ca5bd36ef1724330cea", "is_disabled": 0, "lat": 38.83155433333334, "rental_uris": {"ios": "https://dc.lft.to/lastmile_qr_scan", "android": "https://dc.lft.to/lastmile_qr_scan"}, "is_reserved": 0, "lon": -76.99578116666666, "fusion_lat": 0.0, "name": "3a09c5c876de4ca5bd36ef1724330cea"}, {"type": "electric_scooter", "fusion_lon": 0.0, "bike_id": "3c2fcb8b7a900cb1bb698abe1be66d9c", "is_disabled": 0, "lat": 38.9063085, "rental_uris": {"ios": "https://dc.lft.to/lastmile_qr_scan", "android": "https://dc.lft.to/lastmile_qr_scan"}, "is_reserved": 0, "lon": -77.04639933333333, "fusion_lat": 0.0, "name": "3c2fcb8b7a900cb1bb698abe1be66d9c"}, {"type": "electric_scooter", "fusion_lon": 0.0, "bike_id": "3a5458daae939e9b5c29f9dd1995ab03", "is_disabled": 0, "lat": 38.900092666666666, "rental_uris": {"ios": "https://dc.lft.to/lastmile_qr_scan", "android": "https://dc.lft.to/lastmile_qr_scan"}, "is_reserved": 0, "lon": -77.012607, "fusion_lat": 0.0, "name": "3a5458daae939e9b5c29f9dd1995ab03"}, {"type": "electric_scooter", "fusion_lon": 0.0, "bike_id": "67b77988a08f72d40183ce70e153dbd4", "is_disabled": 0, "lat": 38.907092, "rental_uris": {"ios": "https://dc.lft.to/lastmile_qr_scan", "android": "https://dc.lft.to/lastmile_qr_scan"}, "is_reserved": 0, "lon": -77.02384816666667, "fusion_lat": 0.0, "name": "67b77988a08f72d40183ce70e153dbd4"}, {"type": "electric_bike", "fusion_lon": 0.0, "bike_id": "e3d34a6a1cc943a992db135a0cc7516f", "is_disabled": 0, "lat": 38.89250416666667, "rental_uris": {"ios": "https://dc.lft.to/lastmile_qr_scan", "android": "https://dc.lft.to/lastmile_qr_scan"}, "is_reserved": 0, "lon": -76.985439, "fusion_lat": 0.0, "name": "e3d34a6a1cc943a992db135a0cc7516f"}, {"type": "electric_scooter", "fusion_lon": 0.0, "bike_id": "c3599efd719529c9374f5772c2dbbbb8", "is_disabled": 0, "lat": 38.935626666666664, "rental_uris": {"ios": "https://dc.lft.to/lastmile_qr_scan", "android": "https://dc.lft.to/lastmile_qr_scan"}, "is_reserved": 0, "lon": -77.06376366666667, "fusion_lat": 0.0, "name": "c3599efd719529c9374f5772c2dbbbb8"}, {"type": "electric_scooter", "fusion_lon": 0.0, "bike_id": "749c6f6dadcc23dba6edf668098b072d", "is_disabled": 0, "lat": 38.89556566666667, "rental_uris": {"ios": "https://dc.lft.to/lastmile_qr_scan", "android": "https://dc.lft.to/lastmile_qr_scan"}, "is_reserved": 0, "lon": -76.94877283333334, "fusion_lat": 0.0, "name": "749c6f6dadcc23dba6edf668098b072d"}, {"type": "electric_bike", "fusion_lon": 0.0, "bike_id": "69f23a15743dd1fb2f7f3ee8493c1101", "is_disabled": 0, "lat": 38.81912416666667, "rental_uris": {"ios": "https://dc.lft.to/lastmile_qr_scan", "android": "https://dc.lft.to/lastmile_qr_scan"}, "is_reserved": 0, "lon": -77.1265415, "fusion_lat": 0.0, "name": "69f23a15743dd1fb2f7f3ee8493c1101"}, {"type": "electric_scooter", "fusion_lon": 0.0, "bike_id": "d01369268b7f4f22804aeab054fd4dc3", "is_disabled": 0, "lat": 38.90176233333333, "rental_uris": {"ios": "https://dc.lft.to/lastmile_qr_scan", "android": "https://dc.lft.to/lastmile_qr_scan"}, "is_reserved": 0, "lon": -76.928301, "fusion_lat": 0.0, "name": "d01369268b7f4f22804aeab054fd4dc3"}, {"type": "electric_scooter", "fusion_lon": 0.0, "bike_id": "a46223e2cd37614afe7f43090a19e4c9", "is_disabled": 0, "lat": 38.91415033333333, "rental_uris": {"ios": "https://dc.lft.to/lastmile_qr_scan", "android": "https://dc.lft.to/lastmile_qr_scan"}, "is_reserved": 0, "lon": -77.04149933333333, "fusion_lat": 0.0, "name": "a46223e2cd37614afe7f43090a19e4c9"}, {"type": "electric_scooter", "fusion_lon": 0.0, "bike_id": "bf61a6bb94d760148f5bfb3c9793508a", "is_disabled": 0, "lat": 38.904106166666665, "rental_uris": {"ios": "https://dc.lft.to/lastmile_qr_scan", "android": "https://dc.lft.to/lastmile_qr_scan"}, "is_reserved": 0, "lon": -77.0404685, "fusion_lat": 0.0, "name": "bf61a6bb94d760148f5bfb3c9793508a"}, {"type": "electric_scooter", "fusion_lon": 0.0, "bike_id": "d34b7b3a8d4571be1812b1eb90a1469e", "is_disabled": 0, "lat": 38.899779833333334, "rental_uris": {"ios": "https://dc.lft.to/lastmile_qr_scan", "android": "https://dc.lft.to/lastmile_qr_scan"}, "is_reserved": 0, "lon": -77.02015183333333, "fusion_lat": 0.0, "name": "d34b7b3a8d4571be1812b1eb90a1469e"}, {"type": "electric_scooter", "fusion_lon": 0.0, "bike_id": "d5b472d2d82ef1237a7ce10f33a2e374", "is_disabled": 0, "lat": 38.89232616666666, "rental_uris": {"ios": "https://dc.lft.to/lastmile_qr_scan", "android": "https://dc.lft.to/lastmile_qr_scan"}, "is_reserved": 0, "lon": -77.04162416666667, "fusion_lat": 0.0, "name": "d5b472d2d82ef1237a7ce10f33a2e374"}, {"type": "electric_scooter", "fusion_lon": 0.0, "bike_id": "874495e493a525b14ae12319ac45c3ff", "is_disabled": 0, "lat": 38.952988166666664, "rental_uris": {"ios": "https://dc.lft.to/lastmile_qr_scan", "android": "https://dc.lft.to/lastmile_qr_scan"}, "is_reserved": 0, "lon": -77.06982666666667, "fusion_lat": 0.0, "name": "874495e493a525b14ae12319ac45c3ff"}, {"type": "electric_scooter", "fusion_lon": 0.0, "bike_id": "dcb71417fde45d0f83636612dad88b39", "is_disabled": 0, "lat": 38.909780833333336, "rental_uris": {"ios": "https://dc.lft.to/lastmile_qr_scan", "android": "https://dc.lft.to/lastmile_qr_scan"}, "is_reserved": 0, "lon": -77.034414, "fusion_lat": 0.0, "name": "dcb71417fde45d0f83636612dad88b39"}, {"type": "electric_scooter", "fusion_lon": 0.0, "bike_id": "e281ffa2d48943db6d437307be462016", "is_disabled": 0, "lat": 38.937011166666665, "rental_uris": {"ios": "https://dc.lft.to/lastmile_qr_scan", "android": "https://dc.lft.to/lastmile_qr_scan"}, "is_reserved": 0, "lon": -77.05604416666667, "fusion_lat": 0.0, "name": "e281ffa2d48943db6d437307be462016"},