{"data": {"bikes": [{"lat": 38.93765533333333, "is_disabled": 0, "type": "electric_scooter", "lon": -77.021403, "bike_id": "4b7962eaa4f2c767851f7b03a58f7a73", "fusion_lat": 0.0, "name": "4b7962eaa4f2c767851f7b03a58f7a73", "is_reserved": 0, "rental_uris": {"android": "https://dc.lft.to/lastmile_qr_scan", "ios": "https://dc.lft.to/lastmile_qr_scan"}, "fusion_lon": 0.0}, {"lat": 38.90851633333333, "is_disabled": 0, "type": "electric_scooter", "lon": -77.00627583333333, "bike_id": "295e2a30501debc00ed567ad8a888f2d", "fusion_lat": 0.0, "name": "295e2a30501debc00ed567ad8a888f2d", "is_reserved": 0, "rental_uris": {"android": "https://dc.lft.to/lastmile_qr_scan", "ios": "https://dc.lft.to/lastmile_qr_scan"}, "fusion_lon": 0.0}, {"lat": 38.896897, "is_disabled": 0, "type": "electric_scooter", "lon": -77.0513015, "bike_id": "436fd602db842f8ea6562940d58432cd", "fusion_lat": 0.0, "name": "436fd602db842f8ea6562940d58432cd", "is_reserved": 0, "rental_uris": {"android": "https://dc.lft.to/lastmile_qr_scan", "ios": "https://dc.lft.to/lastmile_qr_scan"}, "fusion_lon": 0.0}, {"lat": 38.929028833333334, "is_disabled": 0, "type": "electric_bike", "lon": -77.057768, "bike_id": "fc40eb7d010d862f1f53b544a383c121", "fusion_lat": 0.0, "name": "fc40eb7d010d862f1f53b544a383c121", "is_reserved": 0, "rental_uris": {"android": "https://dc.lft.to/lastmile_qr_scan", "ios": "https://dc.lft.to/lastmile_qr_scan"}, "fusion_lon": 0.0}, {"lat": 38.930325, "is_disabled": 0, "type": "electric_scooter", "lon": -77.0296005, "bike_id": "f37db744c1cbe3f4f27036d24138432e", "fusion_lat": 0.0, "name": "f37db744c1cbe3f4f27036d24138432e", "is_reserved": 0, "rental_uris": {"android": "https://dc.lft.to/lastmile_qr_scan", "ios": "https://dc.lft.to/lastmile_qr_scan"}, "fusion_lon": 0.0}, {"lat": 38.918123, "is_disabled": 0, "type": "electric_bike", "lon": -77.22344016666666, "bike_id": "b00ef169b037d33c1c47a81c51b91d1c", "fusion_lat": 0.0, "name": "b00ef169b037d33c1c47a81c51b91d1c", "is_reserved": 0, "rental_uris": {"android": "https://dc.lft.to/lastmile_qr_scan", "ios": "https://dc.lft.to/lastmile_qr_scan"}, "fusion_lon": 0.0}, {"lat": 38.926454666666665, "is_disabled": 0, "type": "electric_scooter", "lon": -77.04312383333334, "bike_id": "7a7ae5f5238fcc9036f75cb34cbac9a5", "fusion_lat": 0.0, "name": "7a7ae5f5238fcc9036f75cb34cbac9a5", "is_reserved": 0, "rental_uris": {"android": "https://dc.lft.to/lastmile_qr_scan", "ios": "https://dc.lft.to/lastmile_qr_scan"}, "fusion_lon": 0.0}, {"lat": 38.926233, "is_disabled": 0, "type": "electric_scooter", "lon": -77.04188816666667, "bike_id": "6769e812b8a1f42a176d9cce5d9583b5", "fusion_lat": 0.0, "name": "6769e812b8a1f42a176d9cce5d9583b5", "is_reserved": 0, "rental_uris": {"android": "https://dc.lft.to/lastmile_qr_scan", "ios": "https://dc.lft.to/lastmile_qr_scan"}, "fusion_lon": 0.0}, {"lat": 38.936028, "is_disabled": 0, "type": "electric_scooter", "lon": -77.03172683333334, "bike_id": "fc41353913df7894e3ea879e78dd090a", "fusion_lat": 0.0, "name": "fc41353913df7894e3ea879e78dd090a", "is_reserved": 0, "rental_uris": {"android": "https://dc.lft.to/lastmile_qr_scan", "ios": "https://dc.lft.to/lastmile_qr_scan"}, "fusion_lon": 0.0}, {"lat": 38.907029333333334, "is_disabled": 0, "type": "electric_scooter", "lon": -77.029463, "bike_id": "19e9d4ab82ae0887a2967faf3b976b11", "fusion_lat": 0.0, "name": "19e9d4ab82ae0887a2967faf3b976b11", "is_reserved": 0, "rental_uris": {"android": "https://dc.lft.to/lastmile_qr_scan", "ios": "https://dc.lft.to/lastmile_qr_scan"}, "fusion_lon": 0.0}, {"lat": 38.8965315, "is_disabled": 0, "type": "electric_scooter", "lon": -77.02414616666667, "bike_id": "c352a8187f3c277bf00c60ddddd22871", "fusion_lat": 0.0, "name": "c352a8187f3c277bf00c60ddddd22871", "is_reserved": 0, "rental_uris": {"android": "https://dc.lft.to/lastmile_qr_scan", "ios": "https://dc.lft.to/lastmile_qr_scan"}, "fusion_lon": 0.0}, {"lat": 38.90845216666666, "is_disabled": 0, "type": "electric_scooter", "lon": -77.034805, "bike_id": "fe89a1e1e50139b62a98d467fb24d546", "fusion_lat": 0.0, "name": "fe89a1e1e50139b62a98d467fb24d546", "is_reserved": 0, "rental_uris": {"android": "https://dc.lft.to/lastmile_qr_scan", "ios": "https://dc.lft.to/lastmile_qr_scan"}, "fusion_lon": 0.0}, {"lat": 38.9444095, "is_disabled": 0, "type": "electric_scooter", "lon": -77.06283616666667, "bike_id": "9a5a4a9efcdb78786b2618b0f36dc614", "fusion_lat": 0.0, "name": "9a5a4a9efcdb78786b2618b0f36dc614", "is_reserved": 0, "rental_uris": {"android": "https://dc.lft.to/lastmile_qr_scan", "ios": "https://dc.lft.to/lastmile_qr_scan"}, "fusion_lon": 0.0}, {"lat": 38.920353, "is_disabled": 0, "type": "electric_scooter", "lon": -77.01325516666667, "bike_id": "7ecb79750cfb75de28cc21caa0fdbf78", "fusion_lat": 0.0, "name": "7ecb79750cfb75de28cc21caa0fdbf78", "is_reserved": 0, "rental_uris": {"android": "https://dc.lft.to/lastmile_qr_scan", "ios": "https://dc.lft.to/lastmile_qr_scan"}, "fusion_lon": 0.0}, {"lat": 38.901863, "is_disabled": 0, "type": "electric_scooter", "lon": -77.02501433333333, "bike_id": "594004baebcbce106505765f5f9b60ae", "fusion_lat": 0.0, "name": "594004baebcbce106505765f5f9b60ae", "is_reserved": 0, "rental_uris": {"android": "https://dc.lft.to/lastmile_qr_scan", "ios": "https://dc.lft.to/lastmile_qr_scan"}, "fusion_lon": 0.0}, {"lat": 38.89504066666667, "is_disabled": 0, "type": "electric_scooter", "lon": -77.0021545, "bike_id": "1405c62322b544e168b8dc070ace702f", "fusion_lat": 0.0, "name": "1405c62322b544e168b8dc070ace702f", "is_reserved": 0, "rental_uris": {"android": "https://dc.lft.to/lastmile_qr_scan", "ios": "https://dc.lft.to/lastmile_qr_scan"}, "fusion_lon": 0.0}, {"lat": 38.87589116666667, "is_disabled": 0, "type": "electric_bike", "lon": -77.10558483333334, "bike_id": "3613f664a5e39e1726951f76192db3dc", "fusion_lat": 0.0, "name": "3613f664a5e39e1726951f76192db3dc", "is_reserved": 0, "rental_uris": {"android": "https://dc.lft.to/lastmile_qr_scan", "ios": "https://dc.lft.to/lastmile_qr_scan"}, "fusion_lon": 0.0}, {"lat": 38.8429575, "is_disabled": 0, "type": "electric_scooter", "lon": -76.99939666666667, "bike_id": "ba80c038a90a2fdcd95b7fec38486fe5", "fusion_lat": 0.0, "name": "ba80c038a90a2fdcd95b7fec38486fe5", "is_reserved": 0, "rental_uris": {"android": "https://dc.lft.to/lastmile_qr_scan", "ios": "https://dc.lft.to/lastmile_qr_scan"}, "fusion_lon": 0.0}, {"lat": 38.9429235, "is_disabled": 0, "type": "electric_scooter", "lon": -77.021733, "bike_id": "55da9f2b07b9ba46bb31357d0432b36f", "fusion_lat": 0.0, "name": "55da9f2b07b9ba46bb31357d0432b36f", "is_reserved": 0, "rental_uris": {"android": "https://dc.lft.to/lastmile_qr_scan", "ios": "https://dc.lft.to/lastmile_qr_scan"}, "fusion_lon": 0.0}, {"lat": 38.90118416666667, "is_disabled": 0, "type": "electric_scooter", "lon": -77.05003166666667, "bike_id": "48c7e6151842a55ff338658b04cc3fbd", "fusion_lat": 0.0, "name": "48c7e6151842a55ff338658b04cc3fbd", "is_reserved": 0, "rental_uris": {"android": "https://dc.lft.to/lastmile_qr_scan", "ios": "https://dc.lft.to/lastmile_qr_scan"}, "fusion_lon": 0.0}, {"lat": 38.9120565, "is_disabled": 0, "type": "electric_scooter", "lon": -77.00214733333334, "bike_id": "ec0602190473c200b4a02e9d23bd052b", "fusion_lat": 0.0, "name": "ec0602190473c200b4a02e9d23bd052b", "is_reserved": 0, "rental_uris": {"android": "https://dc.lft.to/lastmile_qr_scan", "ios": "https://dc.lft.to/lastmile_qr_scan"}, "fusion_lon": 0.0}, {"lat": 38.842773666666666, "is_disabled": 0, "type": "electric_bike", "lon": -76.98844416666667, "bike_id": "df1d7dbaa7b9164e7e5b0ff1947176de", "fusion_lat": 0.0, "name": "df1d7dbaa7b9164e7e5b0ff1947176de", "is_reserved": 0, "rental_uris": {"android": "https://dc.lft.to/lastmile_qr_scan", "ios": "https://dc.lft.to/lastmile_qr_scan"}, "fusion_lon": 0.0}, {"lat": 38.887668, "is_disabled": 0, "type": "electric_scooter", "lon": -76.95598983333333, "bike_id": "a3608fac82ff4fb4da74d03ffee1f264", "fusion_lat": 0.0, "name": "a3608fac82ff4fb4da74d03ffee1f264", "is_reserved": 0, "rental_uris": {"android": "https://dc.lft.to/lastmile_qr_scan", "ios": "https://dc.lft.to/lastmile_qr_scan"}, "fusion_lon": 0.0}, {"lat": 38.86632216666667, "is_disabled": 0, "type": "electric_scooter", "lon": -76.98698233333333, "bike_id": "d45af0e6bfed0bcaa14312a7258afa26", "fusion_lat": 0.0, "name": "d45af0e6bfed0bcaa14312a7258afa26", "is_reserved": 0, "rental_uris": {"android": "https://dc.lft.to/lastmile_qr_scan", "ios": "https://dc.lft.to/lastmile_qr_scan"}, "fusion_lon": 0.0}, {"lat": 38.9015105, "is_disabled": 0, "type": "electric_bike", "lon": -77.02297, "bike_id": "e4b4d7f76aac53e9e13e3b20afbc3728", "fusion_lat": 0.0, "name": "e4b4d7f76aac53e9e13e3b20afbc3728", "is_reserved": 0, "rental_uris": {"android": "https://dc.lft.to/lastmile_qr_scan", "ios": "https://dc.lft.to/lastmile_qr_scan"}, "fusion_lon": 0.0}, {"lat": 38.88492633333333, "is_disabled": 0, "type": "electric_scooter", "lon": -77.00717083333333, "bike_id": "7bd0e327ef4185077de5709599b23b5b", "fusion_lat": 0.0, "name": "7bd0e327ef4185077de5709599b23b5b", "is_reserved": 0, "rental_uris": {"android": "https://dc.lft.to/lastmile_qr_scan", "ios": "https://dc.lft.to/lastmile_qr_scan"}, "fusion_lon": 0.0}, {"lat": 38.934776, "is_disabled": 0, "type": "electric_scooter", "lon": -77.03579716666667, "bike_id": "785acff8f8a2228e88ea0b4d7d85d71c", "fusion_lat": 0.0, "name": "785acff8f8a2228e88ea0b4d7d85d71c", "is_reserved": 0, "rental_uris": {"android": "https://dc.lft.to/lastmile_qr_scan", "ios": "https://dc.lft.to/lastmile_qr_scan"}, "fusion_lon": 0.0}, {"lat": 38.9323525, "is_disabled": 0, "type": "electric_scooter", "lon": -76.99603516666667, "bike_id": "1bddde0e503b6c278dd98f5940322c29", "fusion_lat": 0.0, "name": "1bddde0e503b6c278dd98f5940322c29", "is_reserved": 0, "rental_uris": {"android": "https://dc.lft.to/lastmile_qr_scan", "ios": "https://dc.lft.to/lastmile_qr_scan"}, "fusion_lon": 0.0}, {"lat": 38.91261983333333, "is_disabled": 0, "type": "electric_scooter", "lon": -77.0386415, "bike_id": "7f2aca21524542ee0b308e7af1cb6705", "fusion_lat": 0.0, "name": "7f2aca21524542ee0b308e7af1cb6705", "is_reserved": 0, "rental_uris": {"android": "https://dc.lft.to/lastmile_qr_scan", "ios": "https://dc.lft.to/lastmile_qr_scan"}, "fusion_lon": 0.0}, {"lat": 38.90043583333333, "is_disabled": 0, "type": "electric_scooter", "lon": -76.99493983333333, "bike_id": "348f43b747c637eb2b8b82b0ef7e3649", "fusion_lat": 0.0, "name": "348f43b747c637eb2b8b82b0ef7e3649", "is_reserved": 0, "rental_uris": {"android": "https://dc.lft.to/lastmile_qr_scan", "ios": "https://dc.lft.to/lastmile_qr_scan"}, "fusion_lon": 0.0}, {"lat": 38.90954583333333, "is_disabled": 0, "type": "electric_scooter", "lon": -77.041722, "bike_id": "21e44bdb24b7b039e552d087260ae6fb", "fusion_lat": 0.0, "name": "21e44bdb24b7b039e552d087260ae6fb", "is_reserved": 0, "rental_uris": {"android": "https://dc.lft.to/lastmile_qr_scan", "ios": "https://dc.lft.to/lastmile_qr_scan"}, "fusion_lon": 0.0}, {"lat": 38.90992933333333, "is_disabled": 0, "type": "electric_scooter", "lon": -76.98463883333334, "bike_id": "751aa500fe9b56dd0d71cff3b7706e7a", "fusion_lat": 0.0, "name": "751aa500fe9b56dd0d71cff3b7706e7a", "is_reserved": 0, "rental_uris": {"android": "https://dc.lft.to/lastmile_qr_scan", "ios": "https://dc.lft.to/lastmile_qr_scan"}, "fusion_lon": 0.0}, {"lat": 38.8801485, "is_disabled": 0, "type": "electric_scooter", "lon": -77.02480533333333, "bike_id": "750aac07dedb58e98518dfd1a054ffdb", "fusion_lat": 0.0, "name": "750aac07dedb58e98518dfd1a054ffdb", "is_reserved": 0, "rental_uris": {"android": "https://dc.lft.to/lastmile_qr_scan", "ios": "https://dc.lft.to/lastmile_qr_scan"}, "fusion_lon": 0.0}, {"lat": 38.930480333333335, "is_disabled": 0, "type": "electric_scooter", "lon": -77.03221416666666, "bike_id": "92aadb7746d58a1e97693bd0f9622ea8", "fusion_lat": 0.0, "name": "92aadb7746d58a1e97693bd0f9622ea8", "is_reserved": 0, "rental_uris": {"android": "https://dc.lft.to/lastmile_qr_scan", "ios": "https://dc.lft.to/lastmile_qr_scan"}, "fusion_lon": 0.0}, {"lat": 38.839925666666666, "is_disabled": 0, "type": "electric_bike", "lon": -77.0057425, "bike_id": "3648b78e47929543bcf7dd8ef30eeeb0", "fusion_lat": 0.0, "name": "3648b78e47929543bcf7dd8ef30eeeb0", "is_reserved": 0, "rental_uris": {"android": "https://dc.lft.to/lastmile_qr_scan", "ios": "https://dc.lft.to/lastmile_qr_scan"}, "fusion_lon": 0.0}, {"lat": 38.873152, "is_disabled": 0, "type": "electric_bike", "lon": -77.01099016666667, "bike_id": "6ff0d600aaa2419b85bfae9c02ede28e", "fusion_lat": 0.0, "name": "6ff0d600aaa2419b85bfae9c02ede28e", "is_reserved": 0, "rental_uris": {"android": "https://dc.lft.to/lastmile_qr_scan", "ios": "https://dc.lft.to/lastmile_qr_scan"}, "fusion_lon": 0.0}, {"lat": 38.92404666666667, "is_disabled": 0, "type": "electric_scooter", "lon": -77.0526995, "bike_id": "5bf22b8040d414ef20a56781f0a5ecea", "fusion_lat": 0.0, "name": "5bf22b8040d414ef20a56781f0a5ecea", "is_reserved": 0, "rental_uris": {"android": "https://dc.lft.to/lastmile_qr_scan", "ios": "https://dc.lft.to/lastmile_qr_scan"}, "fusion_lon": 0.0}, {"lat": 38.9358865, "is_disabled": 0, "type": "electric_scooter", "lon": -77.03755833333334, "bike_id": "44aedee5e9822d9681e4882b54052321", "fusion_lat": 0.0, "name": "44aedee5e9822d9681e4882b54052321", "is_reserved": 0, "rental_uris": {"android": "https://dc.lft.to/lastmile_qr_scan", "ios": "https://dc.lft.to/lastmile_qr_scan"}, "fusion_lon": 0.0}, {"lat": 38.894305, "is_disabled": 0, "type": "electric_scooter", "lon": -77.02094416666667, "bike_id": "6632f3f06337baef4c8ac89a8dd2d7b0", "fusion_lat": 0.0, "name": "6632f3f06337baef4c8ac89a8dd2d7b0", "is_reserved": 0, "rental_uris": {"android": "https://dc.lft.to/lastmile_qr_scan", "ios": "https://dc.lft.to/lastmile_qr_scan"}, "fusion_lon": 0.0}, {"lat": 38.90146216666667, "is_disabled": 0, "type": "electric_scooter", "lon": -77.051001, "bike_id": "6037baeaee2147917dfb42db9622d9df", "fusion_lat": 0.0, "name": "6037baeaee2147917dfb42db9622d9df", "is_reserved": 0, "rental_uris": {"android": "https://dc.lft.to/lastmile_qr_scan", "ios": "https://dc.lft.to/lastmile_qr_scan"}, "fusion_lon": 0.0}, {"lat": 38.9508175, "is_disabled": 0, "type": "electric_bike", "lon": -77.01195733333333, "bike_id": "ecaaeb8f2d710acf3dbecac101bc89a5", "fusion_lat": 0.0, "name": "ecaaeb8f2d710acf3dbecac101bc89a5", "is_reserved": 0, "rental_uris": {"android": "https://dc.lft.to/lastmile_qr_scan", "ios": "https://dc.lft.to/lastmile_qr_scan"}, "fusion_lon": 0.0}, {"lat": 38.919335333333336, "is_disabled": 0, "type": "electric_scooter", "lon": -77.02479233333334, "bike_id": "c511d41a1c585dda2064687fb21e286d", "fusion_lat": 0.0, "name": "c511d41a1c585dda2064687fb21e286d", "is_reserved": 0, "rental_uris": {"android": "https://dc.lft.to/lastmile_qr_scan", "ios": "https://dc.lft.to/lastmile_qr_scan"}, "fusion_lon": 0.0}, {"lat": 38.90190833333333, "is_disabled": 0, "type": "electric_scooter", "lon": -77.0218235, "bike_id": "5c665dadd7ed564fe5331050309cd5be", "fusion_lat": 0.0, "name": "5c665dadd7ed564fe5331050309cd5be", "is_reserved": 0, "rental_uris": {"android": "https://dc.lft.to/lastmile_qr_scan", "ios": "https://dc.lft.to/lastmile_qr_scan"}, "fusion_lon": 0.0}, {"lat": 38.9075695, "is_disabled": 0, "type": "electric_scooter", "lon": -77.041567, "bike_id": "29169b3c9b562d893cb136268d5eddab", "fusion_lat": 0.0, "name": "29169b3c9b562d893cb136268d5eddab", "is_reserved": 0, "rental_uris": {"android": "https://dc.lft.to/lastmile_qr_scan", "ios": "https://dc.lft.to/lastmile_qr_scan"}, "fusion_lon": 0.0}, {"lat": 38.89974433333333, "is_disabled": 0, "type": "electric_scooter", "lon": -77.0528125, "bike_id": "8c1350f5c641f1eb04dfe35cf970bbdb", "fusion_lat": 0.0, "name": "8c1350f5c641f1eb04dfe35cf970bbdb", "is_reserved": 0, "rental_uris": {"android": "https://dc.lft.to/lastmile_qr_scan", "ios": "https://dc.lft.to/lastmile_qr_scan"}, "fusion_lon": 0.0}, {"lat": 38.88278416666667, "is_disabled": 0, "type": "electric_bike", "lon": -76.93236933333333, "bike_id": "41ba430f85b4e94de3847b58bfb44ef4", "fusion_lat": 0.0, "name": "41ba430f85b4e94de3847b58bfb44ef4", "is_reserved": 0, "rental_uris": {"android": "https://dc.lft.to/lastmile_qr_scan", "ios": "https://dc.lft.to/lastmile_qr_scan"}, "fusion_lon": 0.0}, {"lat": 38.903440333333336, "is_disabled": 0, "type": "electric_scooter", "lon": -76.970545, "bike_id": "ead22a1bc70fe8dff02568ac04cde5b4", "fusion_lat": 0.0, "name": "ead22a1bc70fe8dff02568ac04cde5b4", "is_reserved": 0, "rental_uris": {"android": "https://dc.lft.to/lastmile_qr_scan", "ios": "https://dc.lft.to/lastmile_qr_scan"}, "fusion_lon": 0.0}, {"lat": 38.906504166666664, "is_disabled": 0, "type": "electric_scooter", "lon": -77.006173, "bike_id": "992cc74eb6184ef1f4532c2349f1faa3", "fusion_lat": 0.0, "name": "992cc74eb6184ef1f4532c2349f1faa3", "is_reserved": 0, "rental_uris": {"android": "https://dc.lft.to/lastmile_qr_scan", "ios": "https://dc.lft.to/lastmile_qr_scan"}, "fusion_lon": 0.0}, {"lat": 38.91502933333334, "is_disabled": 0, "type": "electric_scooter", "lon": -76.98359516666666, "bike_id": "b6603feccee81615de21b1e54e9463bf", "fusion_lat": 0.0, "name": "b6603feccee81615de21b1e54e9463bf", "is_reserved": 0, "rental_uris": {"android": "https://dc.lft.to/lastmile_qr_scan", "ios": "https://dc.lft.to/lastmile_qr_scan"}, "fusion_lon": 0.0}, {"lat": 38.957365833333334, "is_disabled": 0, "type": "electric_scooter", "lon": -77.02384783333333, "bike_id": "1ecd26309518b170a3852e587d8826b1", "fusion_lat": 0.0, "name": "1ecd26309518b170a3852e587d8826b1", "is_reserved": 0, "rental_uris": {"android": "https://dc.lft.to/lastmile_qr_scan", "ios": "https://dc.lft.to/lastmile_qr_scan"}, "fusion_lon": 0.0}, {"lat": 38.90889883333333, "is_disabled": 0, "type": "electric_scooter", "lon": -77.0366625, "bike_id": "3b596b4af22f2f76962705cb5267ee30", "fusion_lat": 0.0, "name": "3b596b4af22f2f76962705cb5267ee30", "is_reserved": 0, "rental_uris": {"android": "https://dc.lft.to/lastmile_qr_scan", "ios": "https://dc.lft.to/lastmile_qr_scan"}, "fusion_lon": 0.0}, {"lat": 38.91200833333333, "is_disabled": 0, "type": "electric_scooter", "lon": -77.04494516666666, "bike_id": "47e71afd6ae1a383e9234d1089706a39", "fusion_lat": 0.0, "name": "47e71afd6ae1a383e9234d1089706a39", "is_reserved": 0, "rental_uris": {"android": "https://dc.lft.to/lastmile_qr_scan", "ios": "https://dc.lft.to/lastmile_qr_scan"}, "fusion_lon": 0.0}, {"lat": 38.86619666666667, "is_disabled": 0, "type": "electric_scooter", "lon": -76.986642, "bike_id": "e1cea0bb3cf11b8ab03349512d2dbbc4", "fusion_lat": 0.0, "name": "e1cea0bb3cf11b8ab03349512d2dbbc4", "is_reserved": 0, "rental_uris": {"android": "https://dc.lft.to/lastmile_qr_scan", "ios": "https://dc.lft.to/lastmile_qr_scan"}, "fusion_lon": 0.0}, {"lat": 38.8928295, "is_disabled": 0, "type": "electric_scooter", "lon": -76.958507, "bike_id": "402204103a3359adec2135bb0ec24356", "fusion_lat": 0.0, "name": "402204103a3359adec2135bb0ec24356", "is_reserved": 0, "rental_uris": {"android": "https://dc.lft.to/lastmile_qr_scan", "ios": "https://dc.lft.to/lastmile_qr_scan"}, "fusion_lon": 0.0}, {"lat": 38.89994983333333, "is_disabled": 0, "type": "electric_scooter", "lon": -76.999562, "bike_id": "2567727850ba8cca4dea62b6b0eaabee", "fusion_lat": 0.0, "name": "2567727850ba8cca4dea62b6b0eaabee", "is_reserved": 0, "rental_uris": {"android": "https://dc.lft.to/lastmile_qr_scan", "ios": "https://dc.lft.to/lastmile_qr_scan"}, "fusion_lon": 0.0}, {"lat": 38.916819, "is_disabled": 0, "type": "electric_scooter", "lon": -77.0295065, "bike_id": "492d5fc48550c7351669a4f54337eb1d", "fusion_lat": 0.0, "name": "492d5fc48550c7351669a4f54337eb1d", "is_reserved": 0, "rental_uris": {"android": "https://dc.lft.to/lastmile_qr_scan", "ios": "https://dc.lft.to/lastmile_qr_scan"}, "fusion_lon": 0.0}, {"lat": 38.8927615, "is_disabled": 0, "type": "electric_scooter", "lon": -77.02021883333333, "bike_id": "979d28ea500a36155f3cb8d150ae7d1d", "fusion_lat": 0.0, "name": "979d28ea500a36155f3cb8d150ae7d1d", "is_reserved": 0, "rental_uris": {"android": "https://dc.lft.to/lastmile_qr_scan", "ios": "https://dc.lft.to/lastmile_qr_scan"}, "fusion_lon": 0.0}, {"lat": 38.881070333333334, "is_disabled": 0, "type": "electric_scooter", "lon": -76.99499466666667, "bike_id": "c39a8e66e39a047ec8ea7b7e058a5408", "fusion_lat": 0.0, "name": "c39a8e66e39a047ec8ea7b7e058a5408", "is_reserved": 0, "rental_uris": {"android": "https://dc.lft.to/lastmile_qr_scan", "ios": "https://dc.lft.to/lastmile_qr_scan"}, "fusion_lon": 0.0}, {"lat": 38.91551366666667, "is_disabled": 0, "type": "electric_scooter", "lon": -77.07416266666667, "bike_id": "7aefcd94640c44fdad123d840df7eac3", "fusion_lat": 0.0, "name": "7aefcd94640c44fdad123d840df7eac3", "is_reserved": 0, "rental_uris": {"android": "https://dc.lft.to/lastmile_qr_scan", "ios": "https://dc.lft.to/lastmile_qr_scan"}, "fusion_lon": 0.0}, {"lat": 38.929551333333336, "is_disabled": 0, "type": "electric_scooter", "lon": -76.99090033333333, "bike_id": "5225c79931047cf06ba574b09548ad94", "fusion_lat": 0.0, "name": "5225c79931047cf06ba574b09548ad94", "is_reserved": 0, "rental_uris": {"android": "https://dc.lft.to/lastmile_qr_scan", "ios": "https://dc.lft.to/lastmile_qr_scan"}, "fusion_lon": 0.0}, {"lat": 38.917954, "is_disabled": 0, "type": "electric_scooter", "lon": -77.023175, "bike_id": "9e5bcc5dd01c44c73db897b6f03c1ca7", "fusion_lat": 0.0, "name": "9e5bcc5dd01c44c73db897b6f03c1ca7", "is_reserved": 0, "rental_uris": {"android": "https://dc.lft.to/lastmile_qr_scan", "ios": "https://dc.lft.to/lastmile_qr_scan"}, "fusion_lon": 0.0}, {"lat": 38.91528566666667, "is_disabled": 0, "type": "electric_scooter", "lon": -77.038518, "bike_id": "a1416eb7e33f1b8d9244ab8d241074af", "fusion_lat": 0.0, "name": "a1416eb7e33f1b8d9244ab8d241074af", "is_reserved": 0, "rental_uris": {"android": "https://dc.lft.to/lastmile_qr_scan", "ios": "https://dc.lft.to/lastmile_qr_scan"}, "fusion_lon": 0.0}, {"lat": 38.9573925, "is_disabled": 0, "type": "electric_scooter", "lon": -77.02406683333334, "bike_id": "4c170d4f211d11da178c8180f74d9456", "fusion_lat": 0.0, "name": "4c170d4f211d11da178c8180f74d9456", "is_reserved": 0, "rental_uris": {"android": "https://dc.lft.to/lastmile_qr_scan", "ios": "https://dc.lft.to/lastmile_qr_scan"}, "fusion_lon": 0.0}, {"lat": 38.902597, "is_disabled": 0, "type": "electric_scooter", "lon": -77.03949166666666, "bike_id": "68a33f8579f53e4cabcd6cb679cda537", "fusion_lat": 0.0, "name": "68a33f8579f53e4cabcd6cb679cda537", "is_reserved": 0, "rental_uris": {"android": "https://dc.lft.to/lastmile_qr_scan", "ios": "https://dc.lft.to/lastmile_qr_scan"}, "fusion_lon": 0.0}, {"lat": 38.901931166666664, "is_disabled": 0, "type": "electric_scooter", "lon": -77.02321116666667, "bike_id": "3097dbb3f650d47849336ba5e5be643b", "fusion_lat": 0.0, "name": "3097dbb3f650d47849336ba5e5be643b", "is_reserved": 0, "rental_uris": {"android": "https://dc.lft.to/lastmile_qr_scan", "ios": "https://dc.lft.to/lastmile_qr_scan"}, "fusion_lon": 0.0}, {"lat": 38.900871, "is_disabled": 0, "type": "electric_scooter", "lon": -77.047846, "bike_id": "9f8a3198611965343a5fab9f89631d14", "fusion_lat": 0.0, "name": "9f8a3198611965343a5fab9f89631d14", "is_reserved": 0, "rental_uris": {"android": "https://dc.lft.to/lastmile_qr_scan", "ios": "https://dc.lft.to/lastmile_qr_scan"}, "fusion_lon": 0.0}, {"lat": 38.907841, "is_disabled": 0, "type": "electric_scooter", "lon": -77.03857133333334, "bike_id": "f7355cdf05d38218a5ffd1844eb7e4f4", "fusion_lat": 0.0, "name": "f7355cdf05d38218a5ffd1844eb7e4f4", "is_reserved": 0, "rental_uris": {"android": "https://dc.lft.to/lastmile_qr_scan", "ios": "https://dc.lft.to/lastmile_qr_scan"}, "fusion_lon": 0.0}, {"lat": 38.89611683333333, "is_disabled": 0, "type": "electric_scooter", "lon": -77.05468766666667, "bike_id": "bbe6d57eb4845f935a94a3be57ff19d1", "fusion_lat": 0.0, "name": "bbe6d57eb4845f935a94a3be57ff19d1", "is_reserved": 0, "rental_uris": {"android": "https://dc.lft.to/lastmile_qr_scan", "ios": "https://dc.lft.to/lastmile_qr_scan"}, "fusion_lon": 0.0}, {"lat": 38.912678666666665, "is_disabled": 0, "type": "electric_scooter", "lon": -77.0287635, "bike_id": "b169be700c7ef4ce8fcf379b44a37994", "fusion_lat": 0.0, "name": "b169be700c7ef4ce8fcf379b44a37994", "is_reserved": 0, "rental_uris": {"android": "https://dc.lft.to/lastmile_qr_scan", "ios": "https://dc.lft.to/lastmile_qr_scan"}, "fusion_lon": 0.0}, {"lat": 38.917495333333335, "is_disabled": 0, "type": "electric_scooter", "lon": -77.0359545, "bike_id": "17e86492a4fe73b27b9fbfb6c46ac254", "fusion_lat": 0.0, "name": "17e86492a4fe73b27b9fbfb6c46ac254", "is_reserved": 0, "rental_uris": {"android": "https://dc.lft.to/lastmile_qr_scan", "ios": "https://dc.lft.to/lastmile_qr_scan"}, "fusion_lon": 0.0}, {"lat": 38.9015035, "is_disabled": 0, "type": "electric_scooter", "lon": -77.00072083333333, "bike_id": "ffc96883ce917434bf8de2741fc9e1da", "fusion_lat": 0.0, "name": "ffc96883ce917434bf8de2741fc9e1da", "is_reserved": 0, "rental_uris": {"android": "https://dc.lft.to/lastmile_qr_scan", "ios": "https://dc.lft.to/lastmile_qr_scan"}, "fusion_lon": 0.0}, {"lat": 38.946357166666665, "is_disabled": 0, "type": "electric_scooter", "lon": -77.025196, "bike_id": "28f246a84a8de8b9f2ead3959718f5b7", "fusion_lat": 0.0, "name": "28f246a84a8de8b9f2ead3959718f5b7", "is_reserved": 0, "rental_uris": {"android": "https://dc.lft.to/lastmile_qr_scan", "ios": "https://dc.lft.to/lastmile_qr_scan"}, "fusion_lon": 0.0}, {"lat": 38.9118665, "is_disabled": 0, "type": "electric_scooter", "lon": -77.04446383333334, "bike_id": "83687881f17f2d9f78e96d589f869f46", "fusion_lat": 0.0, "name": "83687881f17f2d9f78e96d589f869f46", "is_reserved": 0, "rental_uris": {"android": "https://dc.lft.to/lastmile_qr_scan", "ios": "https://dc.lft.to/lastmile_qr_scan"}, "fusion_lon": 0.0}, {"lat": 38.923599833333334, "is_disabled": 0, "type": "electric_bike", "lon": -76.97140533333334, "bike_id": "685a5f0524298e2086912fe62de03d93", "fusion_lat": 0.0, "name": "685a5f0524298e2086912fe62de03d93", "is_reserved": 0, "rental_uris": {"android": "https://dc.lft.to/lastmile_qr_scan", "ios": "https://dc.lft.to/lastmile_qr_scan"}, "fusion_lon": 0.0}, {"lat": 38.9298055, "is_disabled": 0, "type": "electric_scooter", "lon": -77.013039, "bike_id": "cc64e3d256bdecf3b3d1827a8b1e50a1", "fusion_lat": 0.0, "name": "cc64e3d256bdecf3b3d1827a8b1e50a1", "is_reserved": 0, "rental_uris": {"android": "https://dc.lft.to/lastmile_qr_scan", "ios": "https://dc.lft.to/lastmile_qr_scan"}, "fusion_lon": 0.0}, {"lat": 38.912941000000004, "is_disabled": 0, "type": "electric_scooter", "lon": -77.03858283333334, "bike_id": "da3197b6fe7d84a974ee8b53222f9641", "fusion_lat": 0.0, "name": "da3197b6fe7d84a974ee8b53222f9641", "is_reserved": 0, "rental_uris": {"android": "https://dc.lft.to/lastmile_qr_scan", "ios": "https://dc.lft.to/lastmile_qr_scan"}, "fusion_lon": 0.0}, {"lat": 38.91821083333333, "is_disabled": 0, "type": "electric_scooter", "lon": -77.038632, "bike_id": "ea03e7e760a76f81daa87b97c08afd07", "fusion_lat": 0.0, "name": "ea03e7e760a76f81daa87b97c08afd07", "is_reserved": 0, "rental_uris": {"android": "https://dc.lft.to/lastmile_qr_scan", "ios": "https://dc.lft.to/lastmile_qr_scan"}, "fusion_lon": 0.0}, {"lat": 38.906742666666666, "is_disabled": 0, "type": "electric_scooter", "lon": -77.03864933333334, "bike_id": "b7b20f876b820c069fc4e4a60d741fa6", "fusion_lat": 0.0, "name": "b7b20f876b820c069fc4e4a60d741fa6", "is_reserved": 0, "rental_uris": {"android": "https://dc.lft.to/lastmile_qr_scan", "ios": "https://dc.lft.to/lastmile_qr_scan"}, "fusion_lon": 0.0}, {"lat": 38.910258666666664, "is_disabled": 0, "type": "electric_scooter", "lon": -77.0487995, "bike_id": "967c8bef5928c8985b28003fa4b9237c", "fusion_lat": 0.0, "name": "967c8bef5928c8985b28003fa4b9237c", "is_reserved": 0, "rental_uris": {"android": "https://dc.lft.to/lastmile_qr_scan", "ios": "https://dc.lft.to/lastmile_qr_scan"}, "fusion_lon": 0.0}, {"lat": 38.871495833333334, "is_disabled": 0, "type": "electric_bike", "lon": -76.93702066666667, "bike_id": "5701eae733726ca896e3883e970c1e9c", "fusion_lat": 0.0, "name": "5701eae733726ca896e3883e970c1e9c", "is_reserved": 0, "rental_uris": {"android": "https://dc.lft.to/lastmile_qr_scan", "ios": "https://dc.lft.to/lastmile_qr_scan"}, "fusion_lon": 0.0}, {"lat": 38.857124166666665, "is_disabled": 0, "type": "electric_bike", "lon": -76.970905, "bike_id": "00e12a488147457b9a667019a3c0a7ca", "fusion_lat": 0.0, "name": "00e12a488147457b9a667019a3c0a7ca", "is_reserved": 0, "rental_uris": {"android": "https://dc.lft.to/lastmile_qr_scan", "ios": "https://dc.lft.to/lastmile_qr_scan"}, "fusion_lon": 0.0}, {"lat": 38.905590333333336, "is_disabled": 0, "type": "electric_scooter", "lon": -77.04661583333333, "bike_id": "7b9c89c81e3884ced595223a4a8dee10", "fusion_lat": 0.0, "name": "7b9c89c81e3884ced595223a4a8dee10", "is_reserved": 0, "rental_uris": {"android": "https://dc.lft.to/lastmile_qr_scan", "ios": "https://dc.lft.to/lastmile_qr_scan"}, "fusion_lon": 0.0}, {"lat": 38.923742833333336, "is_disabled": 0, "type": "electric_scooter", "lon": -77.031702, "bike_id": "a8d3d6f01827f9ede84e9b2c171ddcb6", "fusion_lat": 0.0, "name": "a8d3d6f01827f9ede84e9b2c171ddcb6", "is_reserved": 0, "rental_uris": {"android": "https://dc.lft.to/lastmile_qr_scan", "ios": "https://dc.lft.to/lastmile_qr_scan"}, "fusion_lon": 0.0}, {"lat": 38.961357, "is_disabled": 0, "type": "electric_scooter", "lon": -77.02240183333333, "bike_id": "342eff35431faed0bcd43859cc91636e", "fusion_lat": 0.0, "name": "342eff35431faed0bcd43859cc91636e", "is_reserved": 0, "rental_uris": {"android": "https://dc.lft.to/lastmile_qr_scan", "ios": "https://dc.lft.to/lastmile_qr_scan"}, "fusion_lon": 0.0}, {"lat": 38.9026195, "is_disabled": 0, "type": "electric_scooter", "lon": -77.03931183333333, "bike_id": "9f143d61b136ee39f398acdf50a6106d", "fusion_lat": 0.0, "name": "9f143d61b136ee39f398acdf50a6106d", "is_reserved": 0, "rental_uris": {"android": "https://dc.lft.to/lastmile_qr_scan", "ios": "https://dc.lft.to/lastmile_qr_scan"}, "fusion_lon": 0.0}, {"lat": 38.934312, "is_disabled": 0, "type": "electric_scooter", "lon": -77.02857416666667, "bike_id": "8f6158227e790c7b10a1edbb5accd5f1", "fusion_lat": 0.0, "name": "8f6158227e790c7b10a1edbb5accd5f1", "is_reserved": 0, "rental_uris": {"android": "https://dc.lft.to/lastmile_qr_scan", "ios": "https://dc.lft.to/lastmile_qr_scan"}, "fusion_lon": 0.0}, {"lat": 38.945998, "is_disabled": 0, "type": "electric_scooter", "lon": -77.07035666666667, "bike_id": "825967fffb3381691d19811f40e9a76d", "fusion_lat": 0.0, "name": "825967fffb3381691d19811f40e9a76d", "is_reserved": 0, "rental_uris": {"android": "https://dc.lft.to/lastmile_qr_scan", "ios": "https://dc.lft.to/lastmile_qr_scan"}, "fusion_lon": 0.0}, {"lat": 38.934258, "is_disabled": 0, "type": "electric_scooter", "lon": -77.02843133333333, "bike_id": "adc115bf0ab1dac383fa311881aaf68f", "fusion_lat": 0.0, "name": "adc115bf0ab1dac383fa311881aaf68f", "is_reserved": 0, "rental_uris": {"android": "https://dc.lft.to/lastmile_qr_scan", "ios": "https://dc.lft.to/lastmile_qr_scan"}, "fusion_lon": 0.0}, {"lat": 38.810525, "is_disabled": 0, "type": "electric_bike", "lon": -77.08510133333333, "bike_id": "271e00a284415bccfe82b94aa192205e", "fusion_lat": 0.0, "name": "271e00a284415bccfe82b94aa192205e", "is_reserved": 0, "rental_uris": {"android": "https://dc.lft.to/lastmile_qr_scan", "ios": "https://dc.lft.to/lastmile_qr_scan"}, "fusion_lon": 0.0}, {"lat": 38.8443165, "is_disabled": 0, "type": "electric_scooter", "lon": -76.99813266666666, "bike_id": "e93cdce99b998d33a684b5c945cf76a9", "fusion_lat": 0.0, "name": "e93cdce99b998d33a684b5c945cf76a9", "is_reserved": 0, "rental_uris": {"android": "https://dc.lft.to/lastmile_qr_scan", "ios": "https://dc.lft.to/lastmile_qr_scan"}, "fusion_lon": 0.0}, {"lat": 38.854394666666664, "is_disabled": 0, "type": "electric_bike", "lon": -76.90974116666666, "bike_id": "9666fe2611d786993e70a6e5598bd895", "fusion_lat": 0.0, "name": "9666fe2611d786993e70a6e5598bd895", "is_reserved": 0, "rental_uris": {"android": "https://dc.lft.to/lastmile_qr_scan", "ios": "https://dc.lft.to/lastmile_qr_scan"}, "fusion_lon": 0.0}, {"lat": 38.92243783333333, "is_disabled": 0, "type": "electric_scooter", "lon": -77.02990733333333, "bike_id": "96a49a5e85bc2f67f0b4795c39412e86", "fusion_lat": 0.0, "name": "96a49a5e85bc2f67f0b4795c39412e86", "is_reserved": 0, "rental_uris": {"android": "https://dc.lft.to/lastmile_qr_scan", "ios": "https://dc.lft.to/lastmile_qr_scan"}, "fusion_lon": 0.0}, {"lat": 38.8993095, "is_disabled": 0, "type": "electric_scooter", "lon": -77.03234916666666, "bike_id": "48189a713428229a532fab52d92da808", "fusion_lat": 0.0, "name": "48189a713428229a532fab52d92da808", "is_reserved": 0, "rental_uris": {"android": "https://dc.lft.to/lastmile_qr_scan", "ios": "https://dc.lft.to/lastmile_qr_scan"}, "fusion_lon": 0.0}, {"lat": 38.9319495, "is_disabled": 0, "type": "electric_scooter", "lon": -77.03866533333333, "bike_id": "10a94fd3c7475d8f3a748ee5cc45aaea", "fusion_lat": 0.0, "name": "10a94fd3c7475d8f3a748ee5cc45aaea", "is_reserved": 0, "rental_uris": {"android": "https://dc.lft.to/lastmile_qr_scan", "ios": "https://dc.lft.to/lastmile_qr_scan"}, "fusion_lon": 0.0}, {"lat": 38.9039395, "is_disabled": 0, "type": "electric_scooter", "lon": -76.9849235, "bike_id": "9055740729c8910a63a617b9f891fc93", "fusion_lat": 0.0, "name": "9055740729c8910a63a617b9f891fc93", "is_reserved": 0, "rental_uris": {"android": "https://dc.lft.to/lastmile_qr_scan", "ios": "https://dc.lft.to/lastmile_qr_scan"}, "fusion_lon": 0.0}, {"lat": 38.938633333333335, "is_disabled": 0, "type": "electric_scooter", "lon": -77.02594883333333, "bike_id": "d582f4daca6da26947a011f8d9d4b256", "fusion_lat": 0.0, "name": "d582f4daca6da26947a011f8d9d4b256", "is_reserved": 0, "rental_uris": {"android": "https://dc.lft.to/lastmile_qr_scan", "ios": "https://dc.lft.to/lastmile_qr_scan"}, "fusion_lon": 0.0}, {"lat": 38.9126565, "is_disabled": 0, "type": "electric_scooter", "lon": -77.0302795, "bike_id": "daa61009594b905e5612f6d38be4d41a", "fusion_lat": 0.0, "name": "daa61009594b905e5612f6d38be4d41a", "is_reserved": 0, "rental_uris": {"android": "https://dc.lft.to/lastmile_qr_scan", "ios": "https://dc.lft.to/lastmile_qr_scan"}, "fusion_lon": 0.0}, {"lat": 38.9211455, "is_disabled": 0, "type": "electric_scooter", "lon": -77.04225483333333, "bike_id": "af1979c88f46668ff29ed65d9119cd3c", "fusion_lat": 0.0, "name": "af1979c88f46668ff29ed65d9119cd3c", "is_reserved": 0, "rental_uris": {"android": "https://dc.lft.to/lastmile_qr_scan", "ios": "https://dc.lft.to/lastmile_qr_scan"}, "fusion_lon": 0.0}, {"lat": 38.905868, "is_disabled": 0, "type": "electric_scooter", "lon": -77.02211083333333, "bike_id": "3dc29fff028d28a97eb5095102d8b313", "fusion_lat": 0.0, "name": "3dc29fff028d28a97eb5095102d8b313", "is_reserved": 0, "rental_uris": {"android": "https://dc.lft.to/lastmile_qr_scan", "ios": "https://dc.lft.to/lastmile_qr_scan"}, "fusion_lon": 0.0}, {"lat": 38.92063016666667, "is_disabled": 0, "type": "electric_scooter", "lon": -77.043739, "bike_id": "1e45f4972520b3a487c80a711c73d9dc", "fusion_lat": 0.0, "name": "1e45f4972520b3a487c80a711c73d9dc", "is_reserved": 0, "rental_uris": {"android": "https://dc.lft.to/lastmile_qr_scan", "ios": "https://dc.lft.to/lastmile_qr_scan"}, "fusion_lon": 0.0}, {"lat": 38.897847666666664, "is_disabled": 0, "type": "electric_scooter", "lon": -77.009229, "bike_id": "b6185a15655790d26ff15812c06a9d0d", "fusion_lat": 0.0, "name": "b6185a15655790d26ff15812c06a9d0d", "is_reserved": 0, "rental_uris": {"android": "https://dc.lft.to/lastmile_qr_scan", "ios": "https://dc.lft.to/lastmile_qr_scan"}, "fusion_lon": 0.0}, {"lat": 38.887681, "is_disabled": 0, "type": "electric_scooter", "lon": -76.95605183333333, "bike_id": "6b0be065b159f44b633c7e5c17c8e895", "fusion_lat": 0.0, "name": "6b0be065b159f44b633c7e5c17c8e895", "is_reserved": 0, "rental_uris": {"android": "https://dc.lft.to/lastmile_qr_scan", "ios": "https://dc.lft.to/lastmile_qr_scan"}, "fusion_lon": 0.0}, {"lat": 38.86657066666667, "is_disabled": 0, "type": "electric_scooter", "lon": -76.98884233333334, "bike_id": "c04d476f23a36fef6aacfdf76c2436c6", "fusion_lat": 0.0, "name": "c04d476f23a36fef6aacfdf76c2436c6", "is_reserved": 0, "rental_uris": {"android": "https://dc.lft.to/lastmile_qr_scan", "ios": "https://dc.lft.to/lastmile_qr_scan"}, "fusion_lon": 0.0}, {"lat": 38.952999166666665, "is_disabled": 0, "type": "electric_scooter", "lon": -77.08157316666667, "bike_id": "bccd0854067fc3178a27c9b2ed911702", "fusion_lat": 0.0, "name": "bccd0854067fc3178a27c9b2ed911702", "is_reserved": 0, "rental_uris": {"android": "https://dc.lft.to/lastmile_qr_scan", "ios": "https://dc.lft.to/lastmile_qr_scan"}, "fusion_lon": 0.0}, {"lat": 38.910354166666664, "is_disabled": 0, "type": "electric_scooter", "lon": -77.04258133333333, "bike_id": "c34a28fe08016997be9353b89118b2a0", "fusion_lat": 0.0, "name": "c34a28fe08016997be9353b89118b2a0", "is_reserved": 0, "rental_uris": {"android": "https://dc.lft.to/lastmile_qr_scan", "ios": "https://dc.lft.to/lastmile_qr_scan"}, "fusion_lon": 0.0}, {"lat": 38.9388185, "is_disabled": 0, "type": "electric_scooter", "lon": -77.03128333333333, "bike_id": "51b35e4840a69bbe1606b17d00d5e4fb", "fusion_lat": 0.0, "name": "51b35e4840a69bbe1606b17d00d5e4fb", "is_reserved": 0, "rental_uris": {"android": "https://dc.lft.to/lastmile_qr_scan", "ios": "https://dc.lft.to/lastmile_qr_scan"}, "fusion_lon": 0.0}, {"lat": 38.938629166666665, "is_disabled": 0, "type": "electric_scooter", "lon": -77.02652933333333, "bike_id": "ea703acae87f8006d597cdb9656d96c8", "fusion_lat": 0.0, "name": "ea703acae87f8006d597cdb9656d96c8", "is_reserved": 0, "rental_uris": {"android": "https://dc.lft.to/lastmile_qr_scan", "ios": "https://dc.lft.to/lastmile_qr_scan"}, "fusion_lon": 0.0}, {"lat": 38.91928866666667, "is_disabled": 0, "type": "electric_scooter", "lon": -77.0248265, "bike_id": "9b7f3a69b6bc960c8dec67bfc00ce706", "fusion_lat": 0.0, "name": "9b7f3a69b6bc960c8dec67bfc00ce706", "is_reserved": 0, "rental_uris": {"android": "https://dc.lft.to/lastmile_qr_scan", "ios": "https://dc.lft.to/lastmile_qr_scan"}, "fusion_lon": 0.0}, {"lat": 38.926896, "is_disabled": 0, "type": "electric_scooter", "lon": -77.01572733333333, "bike_id": "b528f87473cab560c22b9b00f799c113", "fusion_lat": 0.0, "name": "b528f87473cab560c22b9b00f799c113", "is_reserved": 0, "rental_uris": {"android": "https://dc.lft.to/lastmile_qr_scan", "ios": "https://dc.lft.to/lastmile_qr_scan"}, "fusion_lon": 0.0}, {"lat": 38.94909666666667, "is_disabled": 0, "type": "electric_bike", "lon": -76.97242883333334, "bike_id": "a9cfe350c95c24d30b81cb194ec167d1", "fusion_lat": 0.0, "name": "a9cfe350c95c24d30b81cb194ec167d1", "is_reserved": 0, "rental_uris": {"android": "https://dc.lft.to/lastmile_qr_scan", "ios": "https://dc.lft.to/lastmile_qr_scan"}, "fusion_lon": 0.0}, {"lat": 38.88339216666667, "is_disabled": 0, "type": "electric_scooter", "lon": -77.00934783333334, "bike_id": "0b99149066328aa96c27ce6afc10b0f9", "fusion_lat": 0.0, "name": "0b99149066328aa96c27ce6afc10b0f9", "is_reserved": 0, "rental_uris": {"android": "https://dc.lft.to/lastmile_qr_scan", "ios": "https://dc.lft.to/lastmile_qr_scan"}, "fusion_lon": 0.0}, {"lat": 38.92191, "is_disabled": 0, "type": "electric_scooter", "lon": -77.043467, "bike_id": "59b7980ed7c97b65841facdd8af967b7", "fusion_lat": 0.0, "name": "59b7980ed7c97b65841facdd8af967b7", "is_reserved": 0, "rental_uris": {"android": "https://dc.lft.to/lastmile_qr_scan", "ios": "https://dc.lft.to/lastmile_qr_scan"}, "fusion_lon": 0.0}, {"lat": 38.939898166666666, "is_disabled": 0, "type": "electric_scooter", "lon": -77.02891716666667, "bike_id": "a9eb7553c8c8752e00c38b086df7c6ba", "fusion_lat": 0.0, "name": "a9eb7553c8c8752e00c38b086df7c6ba", "is_reserved": 0, "rental_uris": {"android": "https://dc.lft.to/lastmile_qr_scan", "ios": "https://dc.lft.to/lastmile_qr_scan"}, "fusion_lon": 0.0}, {"lat": 38.79333366666667, "is_disabled": 0, "type": "electric_bike", "lon": -77.0401945, "bike_id": "f5c055614624afb4a7e6a21591e000ea", "fusion_lat": 0.0, "name": "f5c055614624afb4a7e6a21591e000ea", "is_reserved": 0, "rental_uris": {"android": "https://dc.lft.to/lastmile_qr_scan", "ios": "https://dc.lft.to/lastmile_qr_scan"}, "fusion_lon": 0.0}, {"lat": 38.89825716666667, "is_disabled": 0, "type": "electric_scooter", "lon": -77.05023533333333, "bike_id": "3f7e1b70a020dc36d4b4173abc838be4", "fusion_lat": 0.0, "name": "3f7e1b70a020dc36d4b4173abc838be4", "is_reserved": 0, "rental_uris": {"android": "https://dc.lft.to/lastmile_qr_scan", "ios": "https://dc.lft.to/lastmile_qr_scan"}, "fusion_lon": 0.0}, {"lat": 38.906032, "is_disabled": 0, "type": "electric_scooter", "lon": -77.033932, "bike_id": "5a6cedcb80445041fbf96d754e8c0d38", "fusion_lat": 0.0, "name": "5a6cedcb80445041fbf96d754e8c0d38", "is_reserved": 0, "rental_uris": {"android": "https://dc.lft.to/lastmile_qr_scan", "ios": "https://dc.lft.to/lastmile_qr_scan"}, "fusion_lon": 0.0}, {"lat": 38.908631666666665, "is_disabled": 0, "type": "electric_scooter", "lon": -77.00375783333334, "bike_id": "ea0b51dc9be47b898f9194b3834f7e1b", "fusion_lat": 0.0, "name": "ea0b51dc9be47b898f9194b3834f7e1b", "is_reserved": 0, "rental_uris": {"android": "https://dc.lft.to/lastmile_qr_scan", "ios": "https://dc.lft.to/lastmile_qr_scan"}, "fusion_lon": 0.0}, {"lat": 38.917242, "is_disabled": 0, "type": "electric_scooter", "lon": -77.0458855, "bike_id": "06aabc5bc6e970b08652b1a625de9928", "fusion_lat": 0.0, "name": "06aabc5bc6e970b08652b1a625de9928", "is_reserved": 0, "rental_uris": {"android": "https://dc.lft.to/lastmile_qr_scan", "ios": "https://dc.lft.to/lastmile_qr_scan"}, "fusion_lon": 0.0}, {"lat": 38.919574, "is_disabled": 0, "type": "electric_scooter", "lon": -76.98078533333333, "bike_id": "982bedce7bd9044fe06d1c9bce12eb4c", "fusion_lat": 0.0, "name": "982bedce7bd9044fe06d1c9bce12eb4c", "is_reserved": 0, "rental_uris": {"android": "https://dc.lft.to/lastmile_qr_scan", "ios": "https://dc.lft.to/lastmile_qr_scan"}, "fusion_lon": 0.0}, {"lat": 38.902461833333334, "is_disabled": 0, "type": "electric_scooter", "lon": -77.0281355, "bike_id": "86533a2e945ad67eed1477e575615057", "fusion_lat": 0.0, "name": "86533a2e945ad67eed1477e575615057", "is_reserved": 0, "rental_uris": {"android": "https://dc.lft.to/lastmile_qr_scan", "ios": "https://dc.lft.to/lastmile_qr_scan"}, "fusion_lon": 0.0}, {"lat": 38.855715833333335, "is_disabled": 0, "type": "electric_bike", "lon": -77.11142816666667, "bike_id": "6cfb15ab028d0b48ce25e9c96a474ce6", "fusion_lat": 0.0, "name": "6cfb15ab028d0b48ce25e9c96a474ce6", "is_reserved": 0, "rental_uris": {"android": "https://dc.lft.to/lastmile_qr_scan", "ios": "https://dc.lft.to/lastmile_qr_scan"}, "fusion_lon": 0.0}, {"lat": 38.93331716666667, "is_disabled": 0, "type": "electric_scooter", "lon": -77.043682, "bike_id": "21bcce3200cd2184118c4eb2a7bcc746", "fusion_lat": 0.0, "name": "21bcce3200cd2184118c4eb2a7bcc746", "is_reserved": 0, "rental_uris": {"android": "https://dc.lft.to/lastmile_qr_scan", "ios": "https://dc.lft.to/lastmile_qr_scan"}, "fusion_lon": 0.0}, {"lat": 38.91693716666666, "is_disabled": 0, "type": "electric_scooter", "lon": -77.02971066666667, "bike_id": "1b8bea02456bf79cf11869e1d2167d1e", "fusion_lat": 0.0, "name": "1b8bea02456bf79cf11869e1d2167d1e", "is_reserved": 0, "rental_uris": {"android": "https://dc.lft.to/lastmile_qr_scan", "ios": "https://dc.lft.to/lastmile_qr_scan"}, "fusion_lon": 0.0}, {"lat": 38.91691983333333, "is_disabled": 0, "type": "electric_scooter", "lon": -77.02903533333334, "bike_id": "f4cb2b7451ed90cfc4d582dab2ba3948", "fusion_lat": 0.0, "name": "f4cb2b7451ed90cfc4d582dab2ba3948", "is_reserved": 0, "rental_uris": {"android": "https://dc.lft.to/lastmile_qr_scan", "ios": "https://dc.lft.to/lastmile_qr_scan"}, "fusion_lon": 0.0}, {"lat": 38.907962833333336, "is_disabled": 0, "type": "electric_scooter", "lon": -76.99695483333333, "bike_id": "004d1a05f3759ebb141e2aeee0e3f303", "fusion_lat": 0.0, "name": "004d1a05f3759ebb141e2aeee0e3f303", "is_reserved": 0, "rental_uris": {"android": "https://dc.lft.to/lastmile_qr_scan", "ios": "https://dc.lft.to/lastmile_qr_scan"}, "fusion_lon": 0.0}, {"lat": 38.918682, "is_disabled": 0, "type": "electric_scooter", "lon": -77.04030683333333, "bike_id": "5da9bf09cc6fa8b55fe52a91d1cbb1e7", "fusion_lat": 0.0, "name": "5da9bf09cc6fa8b55fe52a91d1cbb1e7", "is_reserved": 0, "rental_uris": {"android": "https://dc.lft.to/lastmile_qr_scan", "ios": "https://dc.lft.to/lastmile_qr_scan"}, "fusion_lon": 0.0}, {"lat": 38.91752, "is_disabled": 0, "type": "electric_scooter", "lon": -77.03660533333333, "bike_id": "5247163124304ccb53b93a1b931ec5fc", "fusion_lat": 0.0, "name": "5247163124304ccb53b93a1b931ec5fc", "is_reserved": 0, "rental_uris": {"android": "https://dc.lft.to/lastmile_qr_scan", "ios": "https://dc.lft.to/lastmile_qr_scan"}, "fusion_lon": 0.0}, {"lat": 38.915419166666666, "is_disabled": 0, "type": "electric_scooter", "lon": -77.038454, "bike_id": "6b0043195846515a07da3fcce2ea582b", "fusion_lat": 0.0, "name": "6b0043195846515a07da3fcce2ea582b", "is_reserved": 0, "rental_uris": {"android": "https://dc.lft.to/lastmile_qr_scan", "ios": "https://dc.lft.to/lastmile_qr_scan"}, "fusion_lon": 0.0}, {"lat": 38.912564333333336, "is_disabled": 0, "type": "electric_scooter", "lon": -77.03807183333333, "bike_id": "a48f262f005cf0057cea4f28d326f55e", "fusion_lat": 0.0, "name": "a48f262f005cf0057cea4f28d326f55e", "is_reserved": 0, "rental_uris": {"android": "https://dc.lft.to/lastmile_qr_scan", "ios": "https://dc.lft.to/lastmile_qr_scan"}, "fusion_lon": 0.0}, {"lat": 38.887421333333336, "is_disabled": 0, "type": "electric_scooter", "lon": -77.015287, "bike_id": "67231dc8a98a3b34dbec0f3823ac241c", "fusion_lat": 0.0, "name": "67231dc8a98a3b34dbec0f3823ac241c", "is_reserved": 0, "rental_uris": {"android": "https://dc.lft.to/lastmile_qr_scan", "ios": "https://dc.lft.to/lastmile_qr_scan"}, "fusion_lon": 0.0}, {"lat": 39.05640433333333, "is_disabled": 0, "type": "electric_bike", "lon": -77.12531433333334, "bike_id": "dd28bc4f1c3426e063d94014278faa62", "fusion_lat": 0.0, "name": "dd28bc4f1c3426e063d94014278faa62", "is_reserved": 0, "rental_uris": {"android": "https://dc.lft.to/lastmile_qr_scan", "ios": "https://dc.lft.to/lastmile_qr_scan"}, "fusion_lon": 0.0}, {"lat": 38.8841135, "is_disabled": 0, "type": "electric_bike", "lon": -76.9541805, "bike_id": "624f77e174fdcd97d6a6506c1c889cf1", "fusion_lat": 0.0, "name": "624f77e174fdcd97d6a6506c1c889cf1", "is_reserved": 0, "rental_uris": {"android": "https://dc.lft.to/lastmile_qr_scan", "ios": "https://dc.lft.to/lastmile_qr_scan"}, "fusion_lon": 0.0}, {"lat": 38.9614495, "is_disabled": 0, "type": "electric_scooter", "lon": -77.02802516666667, "bike_id": "3921b531d0603ad72aead702b7a5ece2", "fusion_lat": 0.0, "name": "3921b531d0603ad72aead702b7a5ece2", "is_reserved": 0, "rental_uris": {"android": "https://dc.lft.to/lastmile_qr_scan", "ios": "https://dc.lft.to/lastmile_qr_scan"}, "fusion_lon": 0.0}, {"lat": 38.888926833333336, "is_disabled": 0, "type": "electric_scooter", "lon": -76.93155233333333, "bike_id": "a2a2c534c2fe2a00ae3b20de76775014", "fusion_lat": 0.0, "name": "a2a2c534c2fe2a00ae3b20de76775014", "is_reserved": 0, "rental_uris": {"android": "https://dc.lft.to/lastmile_qr_scan", "ios": "https://dc.lft.to/lastmile_qr_scan"}, "fusion_lon": 0.0}, {"lat": 38.910113833333334, "is_disabled": 0, "type": "electric_scooter", "lon": -77.044253, "bike_id": "b963c05e84eec4cad433c3bb75f82369", "fusion_lat": 0.0, "name": "b963c05e84eec4cad433c3bb75f82369", "is_reserved": 0, "rental_uris": {"android": "https://dc.lft.to/lastmile_qr_scan", "ios": "https://dc.lft.to/lastmile_qr_scan"}, "fusion_lon": 0.0}, {"lat": 38.911174, "is_disabled": 0, "type": "electric_scooter", "lon": -77.0383565, "bike_id": "400335671e65aec22bf285cd1508f9c3", "fusion_lat": 0.0, "name": "400335671e65aec22bf285cd1508f9c3", "is_reserved": 0, "rental_uris": {"android": "https://dc.lft.to/lastmile_qr_scan", "ios": "https://dc.lft.to/lastmile_qr_scan"}, "fusion_lon": 0.0}, {"lat": 38.89044466666667, "is_disabled": 0, "type": "electric_scooter", "lon": -76.95247616666667, "bike_id": "5d77f3babfc03972a32701b4cf2efc76", "fusion_lat": 0.0, "name": "5d77f3babfc03972a32701b4cf2efc76", "is_reserved": 0, "rental_uris": {"android": "https://dc.lft.to/lastmile_qr_scan", "ios": "https://dc.lft.to/lastmile_qr_scan"}, "fusion_lon": 0.0}, {"lat": 38.9119845, "is_disabled": 0, "type": "electric_scooter", "lon": -77.04308916666666, "bike_id": "03ada87be454cceea8dde88783328252", "fusion_lat": 0.0, "name": "03ada87be454cceea8dde88783328252", "is_reserved": 0, "rental_uris": {"android": "https://dc.lft.to/lastmile_qr_scan", "ios": "https://dc.lft.to/lastmile_qr_scan"}, "fusion_lon": 0.0}, {"lat": 38.902918666666665, "is_disabled": 0, "type": "electric_scooter", "lon": -77.04392866666667, "bike_id": "c53896b36223872be9b3ac7d0c51bada", "fusion_lat": 0.0, "name": "c53896b36223872be9b3ac7d0c51bada", "is_reserved": 0, "rental_uris": {"android": "https://dc.lft.to/lastmile_qr_scan", "ios": "https://dc.lft.to/lastmile_qr_scan"}, "fusion_lon": 0.0}, {"lat": 38.932096333333334, "is_disabled": 0, "type": "electric_scooter", "lon": -77.022443, "bike_id": "6f645b254a4c836ac62ba25c6883eef3", "fusion_lat": 0.0, "name": "6f645b254a4c836ac62ba25c6883eef3", "is_reserved": 0, "rental_uris": {"android": "https://dc.lft.to/lastmile_qr_scan", "ios": "https://dc.lft.to/lastmile_qr_scan"}, "fusion_lon": 0.0}, {"lat": 38.89819716666667, "is_disabled": 0, "type": "electric_scooter", "lon": -76.9969505, "bike_id": "cf9d2176e5ce37b8cdeb6e947ec3a512", "fusion_lat": 0.0, "name": "cf9d2176e5ce37b8cdeb6e947ec3a512", "is_reserved": 0, "rental_uris": {"android": "https://dc.lft.to/lastmile_qr_scan", "ios": "https://dc.lft.to/lastmile_qr_scan"}, "fusion_lon": 0.0}, {"lat": 38.90838866666667, "is_disabled": 0, "type": "electric_scooter", "lon": -77.00225283333333, "bike_id": "52bd74d030fca0e7c6cb52318996a91a", "fusion_lat": 0.0, "name": "52bd74d030fca0e7c6cb52318996a91a", "is_reserved": 0, "rental_uris": {"android": "https://dc.lft.to/lastmile_qr_scan", "ios": "https://dc.lft.to/lastmile_qr_scan"}, "fusion_lon": 0.0}, {"lat": 38.965618, "is_disabled": 0, "type": "electric_bike", "lon": -77.02041883333334, "bike_id": "d92b4a492770de5c1670d2022f7c8256", "fusion_lat": 0.0, "name": "d92b4a492770de5c1670d2022f7c8256", "is_reserved": 0, "rental_uris": {"android": "https://dc.lft.to/lastmile_qr_scan", "ios": "https://dc.lft.to/lastmile_qr_scan"}, "fusion_lon": 0.0}, {"lat": 38.922059, "is_disabled": 0, "type": "electric_scooter", "lon": -76.95659933333333, "bike_id": "6bef717d49618a8a768e2f3e5d3cfc81", "fusion_lat": 0.0, "name": "6bef717d49618a8a768e2f3e5d3cfc81", "is_reserved": 0, "rental_uris": {"android": "https://dc.lft.to/lastmile_qr_scan", "ios": "https://dc.lft.to/lastmile_qr_scan"}, "fusion_lon": 0.0}, {"lat": 38.90231933333333, "is_disabled": 0, "type": "electric_scooter", "lon": -77.04358233333333, "bike_id": "71a3db95726e0070237b2267a1db58e7", "fusion_lat": 0.0, "name": "71a3db95726e0070237b2267a1db58e7", "is_reserved": 0, "rental_uris": {"android": "https://dc.lft.to/lastmile_qr_scan", "ios": "https://dc.lft.to/lastmile_qr_scan"}, "fusion_lon": 0.0}, {"lat": 38.90348983333333, "is_disabled": 0, "type": "electric_scooter", "lon": -77.0290185, "bike_id": "075569231f76b1e287cfdeaacba37eb4", "fusion_lat": 0.0, "name": "075569231f76b1e287cfdeaacba37eb4", "is_reserved": 0, "rental_uris": {"android": "https://dc.lft.to/lastmile_qr_scan", "ios": "https://dc.lft.to/lastmile_qr_scan"}, "fusion_lon": 0.0}, {"lat": 38.90182333333333, "is_disabled": 0, "type": "electric_scooter", "lon": -77.05002716666667, "bike_id": "1b081f164ed3800d4c86f6354b7f2bd7", "fusion_lat": 0.0, "name": "1b081f164ed3800d4c86f6354b7f2bd7", "is_reserved": 0, "rental_uris": {"android": "https://dc.lft.to/lastmile_qr_scan", "ios": "https://dc.lft.to/lastmile_qr_scan"}, "fusion_lon": 0.0}, {"lat": 38.922670833333335, "is_disabled": 0, "type": "electric_scooter", "lon": -77.04294283333333, "bike_id": "0206d4bb1811a29148dffd21b750fc51", "fusion_lat": 0.0, "name": "0206d4bb1811a29148dffd21b750fc51", "is_reserved": 0, "rental_uris": {"android": "https://dc.lft.to/lastmile_qr_scan", "ios": "https://dc.lft.to/lastmile_qr_scan"}, "fusion_lon": 0.0}, {"lat": 38.87235966666667, "is_disabled": 0, "type": "electric_bike", "lon": -77.011693, "bike_id": "c13c04d65b78de62037d7ae97d4ce46f", "fusion_lat": 0.0, "name": "c13c04d65b78de62037d7ae97d4ce46f", "is_reserved": 0, "rental_uris": {"android": "https://dc.lft.to/lastmile_qr_scan", "ios": "https://dc.lft.to/lastmile_qr_scan"}, "fusion_lon": 0.0}, {"lat": 38.928585166666664, "is_disabled": 0, "type": "electric_bike", "lon": -77.222097, "bike_id": "4f022ca178b9706031c3a32366a57cca", "fusion_lat": 0.0, "name": "4f022ca178b9706031c3a32366a57cca", "is_reserved": 0, "rental_uris": {"android": "https://dc.lft.to/lastmile_qr_scan", "ios": "https://dc.lft.to/lastmile_qr_scan"}, "fusion_lon": 0.0}, {"lat": 38.917742, "is_disabled": 0, "type": "electric_scooter", "lon": -77.02898216666667, "bike_id": "49da52aebd8c39c29f507f999e79ceb9", "fusion_lat": 0.0, "name": "49da52aebd8c39c29f507f999e79ceb9", "is_reserved": 0, "rental_uris": {"android": "https://dc.lft.to/lastmile_qr_scan", "ios": "https://dc.lft.to/lastmile_qr_scan"}, "fusion_lon": 0.0}, {"lat": 39.088593833333334, "is_disabled": 0, "type": "electric_bike", "lon": -77.17842633333333, "bike_id": "d49c38df573b17a45b291d9ee9817921", "fusion_lat": 0.0, "name": "d49c38df573b17a45b291d9ee9817921", "is_reserved": 0, "rental_uris": {"android": "https://dc.lft.to/lastmile_qr_scan", "ios": "https://dc.lft.to/lastmile_qr_scan"}, "fusion_lon": 0.0}, {"lat": 38.91261316666667, "is_disabled": 0, "type": "electric_scooter", "lon": -77.03866066666667, "bike_id": "5f44b38765a52ee27ac3c2f3a8f72146", "fusion_lat": 0.0, "name": "5f44b38765a52ee27ac3c2f3a8f72146", "is_reserved": 0, "rental_uris": {"android": "https://dc.lft.to/lastmile_qr_scan", "ios": "https://dc.lft.to/lastmile_qr_scan"}, "fusion_lon": 0.0}, {"lat": 38.90445966666667, "is_disabled": 0, "type": "electric_scooter", "lon": -77.02969416666667, "bike_id": "adacddc7070826f605d3cd29b5c1772f", "fusion_lat": 0.0, "name": "adacddc7070826f605d3cd29b5c1772f", "is_reserved": 0, "rental_uris": {"android": "https://dc.lft.to/lastmile_qr_scan", "ios": "https://dc.lft.to/lastmile_qr_scan"}, "fusion_lon": 0.0}, {"lat": 38.91060383333333, "is_disabled": 0, "type": "electric_scooter", "lon": -77.05249516666667, "bike_id": "2d7db41f50dfc4a5bba7c289887c276c", "fusion_lat": 0.0, "name": "2d7db41f50dfc4a5bba7c289887c276c", "is_reserved": 0, "rental_uris": {"android": "https://dc.lft.to/lastmile_qr_scan", "ios": "https://dc.lft.to/lastmile_qr_scan"}, "fusion_lon": 0.0}, {"lat": 38.881323, "is_disabled": 0, "type": "electric_bike", "lon": -77.00211916666666, "bike_id": "a412dfdc8e5e7ec8753eaf7b2a993f5e", "fusion_lat": 0.0, "name": "a412dfdc8e5e7ec8753eaf7b2a993f5e", "is_reserved": 0, "rental_uris": {"android": "https://dc.lft.to/lastmile_qr_scan", "ios": "https://dc.lft.to/lastmile_qr_scan"}, "fusion_lon": 0.0}, {"lat": 38.902779833333334, "is_disabled": 0, "type": "electric_scooter", "lon": -77.04381916666667, "bike_id": "f057f0f94469f85f52520b82f3dee82d", "fusion_lat": 0.0, "name": "f057f0f94469f85f52520b82f3dee82d", "is_reserved": 0, "rental_uris": {"android": "https://dc.lft.to/lastmile_qr_scan", "ios": "https://dc.lft.to/lastmile_qr_scan"}, "fusion_lon": 0.0}, {"lat": 38.9055495, "is_disabled": 0, "type": "electric_scooter", "lon": -77.04326483333334, "bike_id": "4d7af5ff1e2a48751d74dcfc5e4e85f8", "fusion_lat": 0.0, "name": "4d7af5ff1e2a48751d74dcfc5e4e85f8", "is_reserved": 0, "rental_uris": {"android": "https://dc.lft.to/lastmile_qr_scan", "ios": "https://dc.lft.to/lastmile_qr_scan"}, "fusion_lon": 0.0}, {"lat": 38.91747933333333, "is_disabled": 0, "type": "electric_scooter", "lon": -77.03594316666667, "bike_id": "3f38fc7bbcef664abe17c662fc9a50f3", "fusion_lat": 0.0, "name": "3f38fc7bbcef664abe17c662fc9a50f3", "is_reserved": 0, "rental_uris": {"android": "https://dc.lft.to/lastmile_qr_scan", "ios": "https://dc.lft.to/lastmile_qr_scan"}, "fusion_lon": 0.0}, {"lat": 38.920565833333335, "is_disabled": 0, "type": "electric_scooter", "lon": -77.02880116666667, "bike_id": "59b7223ab8164613d1429118f1c22578", "fusion_lat": 0.0, "name": "59b7223ab8164613d1429118f1c22578", "is_reserved": 0, "rental_uris": {"android": "https://dc.lft.to/lastmile_qr_scan", "ios": "https://dc.lft.to/lastmile_qr_scan"}, "fusion_lon": 0.0}, {"lat": 38.93071666666667, "is_disabled": 0, "type": "electric_scooter", "lon": -77.02821716666666, "bike_id": "3045199e797a5ccc6d7f23e4e046ed02", "fusion_lat": 0.0, "name": "3045199e797a5ccc6d7f23e4e046ed02", "is_reserved": 0, "rental_uris": {"android": "https://dc.lft.to/lastmile_qr_scan", "ios": "https://dc.lft.to/lastmile_qr_scan"}, "fusion_lon": 0.0}, {"lat": 38.927364, "is_disabled": 0, "type": "electric_scooter", "lon": -77.022492, "bike_id": "380edb5e600f0570bac4e7e1e731b346", "fusion_lat": 0.0, "name": "380edb5e600f0570bac4e7e1e731b346", "is_reserved": 0, "rental_uris": {"android": "https://dc.lft.to/lastmile_qr_scan", "ios": "https://dc.lft.to/lastmile_qr_scan"}, "fusion_lon": 0.0}, {"lat": 38.9183445, "is_disabled": 0, "type": "electric_scooter", "lon": -77.039419, "bike_id": "85b420297ff8717436cdb28aff09c584", "fusion_lat": 0.0, "name": "85b420297ff8717436cdb28aff09c584", "is_reserved": 0, "rental_uris": {"android": "https://dc.lft.to/lastmile_qr_scan", "ios": "https://dc.lft.to/lastmile_qr_scan"}, "fusion_lon": 0.0}, {"lat": 38.913236166666664, "is_disabled": 0, "type": "electric_scooter", "lon": -77.04489016666666, "bike_id": "3a428f5db2368bf904ed1e523d0a1925", "fusion_lat": 0.0, "name": "3a428f5db2368bf904ed1e523d0a1925", "is_reserved": 0, "rental_uris": {"android": "https://dc.lft.to/lastmile_qr_scan", "ios": "https://dc.lft.to/lastmile_qr_scan"}, "fusion_lon": 0.0}, {"lat": 38.904341, "is_disabled": 0, "type": "electric_scooter", "lon": -77.053179, "bike_id": "20d2b408ab0bc0c513bbc9645bb2d2c9", "fusion_lat": 0.0, "name": "20d2b408ab0bc0c513bbc9645bb2d2c9", "is_reserved": 0, "rental_uris": {"android": "https://dc.lft.to/lastmile_qr_scan", "ios": "https://dc.lft.to/lastmile_qr_scan"}, "fusion_lon": 0.0}, {"lat": 38.93237216666667, "is_disabled": 0, "type": "electric_scooter", "lon": -76.995982, "bike_id": "129e7a37e979c05a88755afa3e2c277d", "fusion_lat": 0.0, "name": "129e7a37e979c05a88755afa3e2c277d", "is_reserved": 0, "rental_uris": {"android": "https://dc.lft.to/lastmile_qr_scan", "ios": "https://dc.lft.to/lastmile_qr_scan"}, "fusion_lon": 0.0}, {"lat": 38.885965666666664, "is_disabled": 0, "type": "electric_scooter", "lon": -77.02190466666667, "bike_id": "e0f976d63c6b149e764ba6563947de49", "fusion_lat": 0.0, "name": "e0f976d63c6b149e764ba6563947de49", "is_reserved": 0, "rental_uris": {"android": "https://dc.lft.to/lastmile_qr_scan", "ios": "https://dc.lft.to/lastmile_qr_scan"}, "fusion_lon": 0.0}, {"lat": 38.906778333333335, "is_disabled": 0, "type": "electric_scooter", "lon": -77.02385466666667, "bike_id": "2fcdd401d633948c7d74c1eaa2ae43de", "fusion_lat": 0.0, "name": "2fcdd401d633948c7d74c1eaa2ae43de", "is_reserved": 0, "rental_uris": {"android": "https://dc.lft.to/lastmile_qr_scan", "ios": "https://dc.lft.to/lastmile_qr_scan"}, "fusion_lon": 0.0}, {"lat": 38.900384, "is_disabled": 0, "type": "electric_scooter", "lon": -77.00590783333334, "bike_id": "eacac428d374e05f001fa34fec57aa9d", "fusion_lat": 0.0, "name": "eacac428d374e05f001fa34fec57aa9d", "is_reserved": 0, "rental_uris": {"android": "https://dc.lft.to/lastmile_qr_scan", "ios": "https://dc.lft.to/lastmile_qr_scan"}, "fusion_lon": 0.0}, {"lat": 38.9111875, "is_disabled": 0, "type": "electric_scooter", "lon": -77.0384245, "bike_id": "41f33a7c87ffc3e04c69772f0d3720b1", "fusion_lat": 0.0, "name": "41f33a7c87ffc3e04c69772f0d3720b1", "is_reserved": 0, "rental_uris": {"android": "https://dc.lft.to/lastmile_qr_scan", "ios": "https://dc.lft.to/lastmile_qr_scan"}, "fusion_lon": 0.0}, {"lat": 38.936044833333334, "is_disabled": 0, "type": "electric_scooter", "lon": -77.035309, "bike_id": "11eff51256c7778204ef45ed00f25ad9", "fusion_lat": 0.0, "name": "11eff51256c7778204ef45ed00f25ad9", "is_reserved": 0, "rental_uris": {"android": "https://dc.lft.to/lastmile_qr_scan", "ios": "https://dc.lft.to/lastmile_qr_scan"}, "fusion_lon": 0.0}, {"lat": 38.8975375, "is_disabled": 0, "type": "electric_scooter", "lon": -77.04800716666666, "bike_id": "bd0d5a2ddde10962cc425cac111dd895", "fusion_lat": 0.0, "name": "bd0d5a2ddde10962cc425cac111dd895", "is_reserved": 0, "rental_uris": {"android": "https://dc.lft.to/lastmile_qr_scan", "ios": "https://dc.lft.to/lastmile_qr_scan"}, "fusion_lon": 0.0}, {"lat": 38.92464583333334, "is_disabled": 0, "type": "electric_bike", "lon": -77.20838383333333, "bike_id": "c9d0f6d75adf5e837fd2a2633653ebc7", "fusion_lat": 0.0, "name": "c9d0f6d75adf5e837fd2a2633653ebc7", "is_reserved": 0, "rental_uris": {"android": "https://dc.lft.to/lastmile_qr_scan", "ios": "https://dc.lft.to/lastmile_qr_scan"}, "fusion_lon": 0.0}, {"lat": 38.84260333333334, "is_disabled": 0, "type": "electric_bike", "lon": -77.0583255, "bike_id": "98f3809cc9469facdce5be23136e66a0", "fusion_lat": 0.0, "name": "98f3809cc9469facdce5be23136e66a0", "is_reserved": 0, "rental_uris": {"android": "https://dc.lft.to/lastmile_qr_scan", "ios": "https://dc.lft.to/lastmile_qr_scan"}, "fusion_lon": 0.0}, {"lat": 38.911240666666664, "is_disabled": 0, "type": "electric_scooter", "lon": -77.00330416666667, "bike_id": "867f8141c14092436beac5178e0c66e0", "fusion_lat": 0.0, "name": "867f8141c14092436beac5178e0c66e0", "is_reserved": 0, "rental_uris": {"android": "https://dc.lft.to/lastmile_qr_scan", "ios": "https://dc.lft.to/lastmile_qr_scan"}, "fusion_lon": 0.0}, {"lat": 38.917732666666666, "is_disabled": 0, "type": "electric_scooter", "lon": -77.00362366666667, "bike_id": "e9eeb0af6255b3622cc5f696bf00b99c", "fusion_lat": 0.0, "name": "e9eeb0af6255b3622cc5f696bf00b99c", "is_reserved": 0, "rental_uris": {"android": "https://dc.lft.to/lastmile_qr_scan", "ios": "https://dc.lft.to/lastmile_qr_scan"}, "fusion_lon": 0.0}, {"lat": 38.917132, "is_disabled": 0, "type": "electric_scooter", "lon": -77.03867016666666, "bike_id": "80fadead47a25443175dfd0cdf70b118", "fusion_lat": 0.0, "name": "80fadead47a25443175dfd0cdf70b118", "is_reserved": 0, "rental_uris": {"android": "https://dc.lft.to/lastmile_qr_scan", "ios": "https://dc.lft.to/lastmile_qr_scan"}, "fusion_lon": 0.0}, {"lat": 38.909835666666666, "is_disabled": 0, "type": "electric_scooter", "lon": -77.03443216666666, "bike_id": "907619a0770c27210ccb88b0854c1068", "fusion_lat": 0.0, "name": "907619a0770c27210ccb88b0854c1068", "is_reserved": 0, "rental_uris": {"android": "https://dc.lft.to/lastmile_qr_scan", "ios": "https://dc.lft.to/lastmile_qr_scan"}, "fusion_lon": 0.0}, {"lat": 38.917054666666665, "is_disabled": 0, "type": "electric_scooter", "lon": -77.04271383333334, "bike_id": "f7c86c4c5765d436e661c7940ecf789b", "fusion_lat": 0.0, "name": "f7c86c4c5765d436e661c7940ecf789b", "is_reserved": 0, "rental_uris": {"android": "https://dc.lft.to/lastmile_qr_scan", "ios": "https://dc.lft.to/lastmile_qr_scan"}, "fusion_lon": 0.0}, {"lat": 38.88460116666667, "is_disabled": 0, "type": "electric_bike", "lon": -77.09662716666666, "bike_id": "7f9f08048ae13a43bb3c2f4e2c0e90d1", "fusion_lat": 0.0, "name": "7f9f08048ae13a43bb3c2f4e2c0e90d1", "is_reserved": 0, "rental_uris": {"android": "https://dc.lft.to/lastmile_qr_scan", "ios": "https://dc.lft.to/lastmile_qr_scan"}, "fusion_lon": 0.0}, {"lat": 38.916962, "is_disabled": 0, "type": "electric_scooter", "lon": -77.03759583333333, "bike_id": "068e932d1ac78525baa5ca079d63fd5d", "fusion_lat": 0.0, "name": "068e932d1ac78525baa5ca079d63fd5d", "is_reserved": 0, "rental_uris": {"android": "https://dc.lft.to/lastmile_qr_scan", "ios": "https://dc.lft.to/lastmile_qr_scan"}, "fusion_lon": 0.0}, {"lat": 38.961991166666664, "is_disabled": 0, "type": "electric_bike", "lon": -77.01886416666666, "bike_id": "b654a067b690f2ff67a3da6780318739", "fusion_lat": 0.0, "name": "b654a067b690f2ff67a3da6780318739", "is_reserved": 0, "rental_uris": {"android": "https://dc.lft.to/lastmile_qr_scan", "ios": "https://dc.lft.to/lastmile_qr_scan"}, "fusion_lon": 0.0}, {"lat": 38.902723333333334, "is_disabled": 0, "type": "electric_scooter", "lon": -77.0190415, "bike_id": "f041e2b031ec8922d3cd09e5d2756c6b", "fusion_lat": 0.0, "name": "f041e2b031ec8922d3cd09e5d2756c6b", "is_reserved": 0, "rental_uris": {"android": "https://dc.lft.to/lastmile_qr_scan", "ios": "https://dc.lft.to/lastmile_qr_scan"}, "fusion_lon": 0.0}, {"lat": 38.907869, "is_disabled": 0, "type": "electric_scooter", "lon": -77.038566, "bike_id": "904554128bb69ff1eeb2ab5762f7dd30", "fusion_lat": 0.0, "name": "904554128bb69ff1eeb2ab5762f7dd30", "is_reserved": 0, "rental_uris": {"android": "https://dc.lft.to/lastmile_qr_scan", "ios": "https://dc.lft.to/lastmile_qr_scan"}, "fusion_lon": 0.0}, {"lat": 38.868943333333334, "is_disabled": 0, "type": "electric_scooter", "lon": -76.9831465, "bike_id": "da0530bdd31f5d373d7855b7cbc77afa", "fusion_lat": 0.0, "name": "da0530bdd31f5d373d7855b7cbc77afa", "is_reserved": 0, "rental_uris": {"android": "https://dc.lft.to/lastmile_qr_scan", "ios": "https://dc.lft.to/lastmile_qr_scan"}, "fusion_lon": 0.0}, {"lat": 38.882578, "is_disabled": 0, "type": "electric_scooter", "lon": -77.00435783333333, "bike_id": "5364eb608fc5a20072de075af97060d1", "fusion_lat": 0.0, "name": "5364eb608fc5a20072de075af97060d1", "is_reserved": 0, "rental_uris": {"android": "https://dc.lft.to/lastmile_qr_scan", "ios": "https://dc.lft.to/lastmile_qr_scan"}, "fusion_lon": 0.0}, {"lat": 38.8990105, "is_disabled": 0, "type": "electric_scooter", "lon": -76.99735383333334, "bike_id": "498217ed512f5df384c87031f19682f6", "fusion_lat": 0.0, "name": "498217ed512f5df384c87031f19682f6", "is_reserved": 0, "rental_uris": {"android": "https://dc.lft.to/lastmile_qr_scan", "ios": "https://dc.lft.to/lastmile_qr_scan"}, "fusion_lon": 0.0}, {"lat": 38.9059185, "is_disabled": 0, "type": "electric_scooter", "lon": -77.008559, "bike_id": "598a4578c98c1bc880b43efe049ca692", "fusion_lat": 0.0, "name": "598a4578c98c1bc880b43efe049ca692", "is_reserved": 0, "rental_uris": {"android": "https://dc.lft.to/lastmile_qr_scan", "ios": "https://dc.lft.to/lastmile_qr_scan"}, "fusion_lon": 0.0}, {"lat": 38.89736966666667, "is_disabled": 0, "type": "electric_scooter", "lon": -77.0232975, "bike_id": "4c92f63a8bdff35dc81ead1e89032293", "fusion_lat": 0.0, "name": "4c92f63a8bdff35dc81ead1e89032293", "is_reserved": 0, "rental_uris": {"android": "https://dc.lft.to/lastmile_qr_scan", "ios": "https://dc.lft.to/lastmile_qr_scan"}, "fusion_lon": 0.0}, {"lat": 38.900413666666665, "is_disabled": 0, "type": "electric_scooter", "lon": -77.013123, "bike_id": "67dab0de8b0c36e566b21d2e8c947c5b", "fusion_lat": 0.0, "name": "67dab0de8b0c36e566b21d2e8c947c5b", "is_reserved": 0, "rental_uris": {"android": "https://dc.lft.to/lastmile_qr_scan", "ios": "https://dc.lft.to/lastmile_qr_scan"}, "fusion_lon": 0.0}, {"lat": 38.90301216666667, "is_disabled": 0, "type": "electric_scooter", "lon": -77.00215316666667, "bike_id": "cbe22cd898e9f07d2b0bdc6dbd46de17", "fusion_lat": 0.0, "name": "cbe22cd898e9f07d2b0bdc6dbd46de17", "is_reserved": 0, "rental_uris": {"android": "https://dc.lft.to/lastmile_qr_scan", "ios": "https://dc.lft.to/lastmile_qr_scan"}, "fusion_lon": 0.0}, {"lat": 38.9055065, "is_disabled": 0, "type": "electric_scooter", "lon": -77.04182883333333, "bike_id": "2f271195f85a73190fb0492ce070ce32", "fusion_lat": 0.0, "name": "2f271195f85a73190fb0492ce070ce32", "is_reserved": 0, "rental_uris": {"android": "https://dc.lft.to/lastmile_qr_scan", "ios": "https://dc.lft.to/lastmile_qr_scan"}, "fusion_lon": 0.0}, {"lat": 38.90981933333333, "is_disabled": 0, "type": "electric_scooter", "lon": -77.03195683333334, "bike_id": "c059c546ff3ee9ad5a5abee63f0ce00f", "fusion_lat": 0.0, "name": "c059c546ff3ee9ad5a5abee63f0ce00f", "is_reserved": 0, "rental_uris": {"android": "https://dc.lft.to/lastmile_qr_scan", "ios": "https://dc.lft.to/lastmile_qr_scan"}, "fusion_lon": 0.0}, {"lat": 38.90145116666667, "is_disabled": 0, "type": "electric_bike", "lon": -76.986504, "bike_id": "b250f417cfd58d3871e98b917c549aa1", "fusion_lat": 0.0, "name": "b250f417cfd58d3871e98b917c549aa1", "is_reserved": 0, "rental_uris": {"android": "https://dc.lft.to/lastmile_qr_scan", "ios": "https://dc.lft.to/lastmile_qr_scan"}, "fusion_lon": 0.0}, {"lat": 38.909843333333335, "is_disabled": 0, "type": "electric_scooter", "lon": -77.03441216666667, "bike_id": "33bcf1250b6d1273592aa4bdfd8ee655", "fusion_lat": 0.0, "name": "33bcf1250b6d1273592aa4bdfd8ee655", "is_reserved": 0, "rental_uris": {"android": "https://dc.lft.to/lastmile_qr_scan", "ios": "https://dc.lft.to/lastmile_qr_scan"}, "fusion_lon": 0.0}, {"lat": 38.897855166666666, "is_disabled": 0, "type": "electric_scooter", "lon": -77.04358466666666, "bike_id": "94aa905e1c156b98b55e19548da2c6b8", "fusion_lat": 0.0, "name": "94aa905e1c156b98b55e19548da2c6b8", "is_reserved": 0, "rental_uris": {"android": "https://dc.lft.to/lastmile_qr_scan", "ios": "https://dc.lft.to/lastmile_qr_scan"}, "fusion_lon": 0.0}, {"lat": 38.93378716666667, "is_disabled": 0, "type": "electric_scooter", "lon": -77.03800566666666, "bike_id": "2a49b2d70e791be366d50fd3a6a238dc", "fusion_lat": 0.0, "name": "2a49b2d70e791be366d50fd3a6a238dc", "is_reserved": 0, "rental_uris": {"android": "https://dc.lft.to/lastmile_qr_scan", "ios": "https://dc.lft.to/lastmile_qr_scan"}, "fusion_lon": 0.0}, {"lat": 38.922521333333336, "is_disabled": 0, "type": "electric_scooter", "lon": -77.03067866666666, "bike_id": "6980e1988b703a1f0468e6a36d2e8c9c", "fusion_lat": 0.0, "name": "6980e1988b703a1f0468e6a36d2e8c9c", "is_reserved": 0, "rental_uris": {"android": "https://dc.lft.to/lastmile_qr_scan", "ios": "https://dc.lft.to/lastmile_qr_scan"}, "fusion_lon": 0.0}, {"lat": 38.930121, "is_disabled": 0, "type": "electric_bike", "lon": -77.21648733333333, "bike_id": "2bcf492d8e43cc0a945c64e48f3d1ef4", "fusion_lat": 0.0, "name": "2bcf492d8e43cc0a945c64e48f3d1ef4", "is_reserved": 0, "rental_uris": {"android": "https://dc.lft.to/lastmile_qr_scan", "ios": "https://dc.lft.to/lastmile_qr_scan"}, "fusion_lon": 0.0}, {"lat": 38.919663166666666, "is_disabled": 0, "type": "electric_bike", "lon": -76.97261366666666, "bike_id": "eb73708dadfc0801f97218e252dcba07", "fusion_lat": 0.0, "name": "eb73708dadfc0801f97218e252dcba07", "is_reserved": 0, "rental_uris": {"android": "https://dc.lft.to/lastmile_qr_scan", "ios": "https://dc.lft.to/lastmile_qr_scan"}, "fusion_lon": 0.0}, {"lat": 38.92857716666666, "is_disabled": 0, "type": "electric_scooter", "lon": -77.05435183333333, "bike_id": "ce9580b73ec54477250cddb165e1af1e", "fusion_lat": 0.0, "name": "ce9580b73ec54477250cddb165e1af1e", "is_reserved": 0, "rental_uris": {"android": "https://dc.lft.to/lastmile_qr_scan", "ios": "https://dc.lft.to/lastmile_qr_scan"}, "fusion_lon": 0.0}, {"lat": 38.90218766666667, "is_disabled": 0, "type": "electric_scooter", "lon": -76.945897, "bike_id": "81934305c93acb7b3babb34ef5aa1b06", "fusion_lat": 0.0, "name": "81934305c93acb7b3babb34ef5aa1b06", "is_reserved": 0, "rental_uris": {"android": "https://dc.lft.to/lastmile_qr_scan", "ios": "https://dc.lft.to/lastmile_qr_scan"}, "fusion_lon": 0.0}, {"lat": 38.906546166666665, "is_disabled": 0, "type": "electric_scooter", "lon": -77.00820683333333, "bike_id": "c8bc976f09506a522bb4b992d86fde19", "fusion_lat": 0.0, "name": "c8bc976f09506a522bb4b992d86fde19", "is_reserved": 0, "rental_uris": {"android": "https://dc.lft.to/lastmile_qr_scan", "ios": "https://dc.lft.to/lastmile_qr_scan"}, "fusion_lon": 0.0}, {"lat": 38.91602533333333, "is_disabled": 0, "type": "electric_scooter", "lon": -77.03848633333334, "bike_id": "223d0dfb50b11888ef564d7b321f897d", "fusion_lat": 0.0, "name": "223d0dfb50b11888ef564d7b321f897d", "is_reserved": 0, "rental_uris": {"android": "https://dc.lft.to/lastmile_qr_scan", "ios": "https://dc.lft.to/lastmile_qr_scan"}, "fusion_lon": 0.0}, {"lat": 38.929046666666665, "is_disabled": 0, "type": "electric_scooter", "lon": -77.016465, "bike_id": "f3c8466f3be296e2bd1be354f67c1278", "fusion_lat": 0.0, "name": "f3c8466f3be296e2bd1be354f67c1278", "is_reserved": 0, "rental_uris": {"android": "https://dc.lft.to/lastmile_qr_scan", "ios": "https://dc.lft.to/lastmile_qr_scan"}, "fusion_lon": 0.0}, {"lat": 38.933864666666665, "is_disabled": 0, "type": "electric_scooter", "lon": -77.03555966666667, "bike_id": "e11ec35e8f179d0c02b4a78b6fff5bc4", "fusion_lat": 0.0, "name": "e11ec35e8f179d0c02b4a78b6fff5bc4", "is_reserved": 0, "rental_uris": {"android": "https://dc.lft.to/lastmile_qr_scan", "ios": "https://dc.lft.to/lastmile_qr_scan"}, "fusion_lon": 0.0}, {"lat": 38.88553816666666, "is_disabled": 0, "type": "electric_bike", "lon": -77.11787633333333, "bike_id": "c45e890fdfa1ec87eeaff03e9481b17a", "fusion_lat": 0.0, "name": "c45e890fdfa1ec87eeaff03e9481b17a", "is_reserved": 0, "rental_uris": {"android": "https://dc.lft.to/lastmile_qr_scan", "ios": "https://dc.lft.to/lastmile_qr_scan"}, "fusion_lon": 0.0}, {"lat": 38.88603466666667, "is_disabled": 0, "type": "electric_scooter", "lon": -77.01896216666667, "bike_id": "9b3e34aae44412586e74df5658e83da1", "fusion_lat": 0.0, "name": "9b3e34aae44412586e74df5658e83da1", "is_reserved": 0, "rental_uris": {"android": "https://dc.lft.to/lastmile_qr_scan", "ios": "https://dc.lft.to/lastmile_qr_scan"}, "fusion_lon": 0.0}, {"lat": 38.903922, "is_disabled": 0, "type": "electric_scooter", "lon": -76.990066, "bike_id": "329395c2e263204883ea3b08678b53f8", "fusion_lat": 0.0, "name": "329395c2e263204883ea3b08678b53f8", "is_reserved": 0, "rental_uris": {"android": "https://dc.lft.to/lastmile_qr_scan", "ios": "https://dc.lft.to/lastmile_qr_scan"}, "fusion_lon": 0.0}, {"lat": 38.957107, "is_disabled": 0, "type": "electric_scooter", "lon": -77.02413666666666, "bike_id": "646e18fe682d6e883eb2041bbe5cd746", "fusion_lat": 0.0, "name": "646e18fe682d6e883eb2041bbe5cd746", "is_reserved": 0, "rental_uris": {"android": "https://dc.lft.to/lastmile_qr_scan", "ios": "https://dc.lft.to/lastmile_qr_scan"}, "fusion_lon": 0.0}, {"lat": 38.899933833333336, "is_disabled": 0, "type": "electric_scooter", "lon": -77.04228866666666, "bike_id": "4c6a1f4fc1e61d7423ed02a54f53ed53", "fusion_lat": 0.0, "name": "4c6a1f4fc1e61d7423ed02a54f53ed53", "is_reserved": 0, "rental_uris": {"android": "https://dc.lft.to/lastmile_qr_scan", "ios": "https://dc.lft.to/lastmile_qr_scan"}, "fusion_lon": 0.0}, {"lat": 38.9482445, "is_disabled": 0, "type": "electric_scooter", "lon": -76.99903666666667, "bike_id": "bbfa9597e52880d83b4e40cfe6e824b9", "fusion_lat": 0.0, "name": "bbfa9597e52880d83b4e40cfe6e824b9", "is_reserved": 0, "rental_uris": {"android": "https://dc.lft.to/lastmile_qr_scan", "ios": "https://dc.lft.to/lastmile_qr_scan"}, "fusion_lon": 0.0}, {"lat": 38.88686233333333, "is_disabled": 0, "type": "electric_bike", "lon": -77.162557, "bike_id": "14428b03e236d2396bdab9f3aa8c2ae4", "fusion_lat": 0.0, "name": "14428b03e236d2396bdab9f3aa8c2ae4", "is_reserved": 0, "rental_uris": {"android": "https://dc.lft.to/lastmile_qr_scan", "ios": "https://dc.lft.to/lastmile_qr_scan"}, "fusion_lon": 0.0}, {"lat": 38.908338, "is_disabled": 0, "type": "electric_scooter", "lon": -77.02012533333334, "bike_id": "783db571dec9854136aed4793487965c", "fusion_lat": 0.0, "name": "783db571dec9854136aed4793487965c", "is_reserved": 0, "rental_uris": {"android": "https://dc.lft.to/lastmile_qr_scan", "ios": "https://dc.lft.to/lastmile_qr_scan"}, "fusion_lon": 0.0}, {"lat": 38.90388433333333, "is_disabled": 0, "type": "electric_scooter", "lon": -77.0384525, "bike_id": "c0f370489ceaa231776970aff301af53", "fusion_lat": 0.0, "name": "c0f370489ceaa231776970aff301af53", "is_reserved": 0, "rental_uris": {"android": "https://dc.lft.to/lastmile_qr_scan", "ios": "https://dc.lft.to/lastmile_qr_scan"}, "fusion_lon": 0.0}, {"lat": 38.928578, "is_disabled": 0, "type": "electric_bike", "lon": -77.10681383333333, "bike_id": "92f4b7906abb5c70c859cb4ec9e86cc9", "fusion_lat": 0.0, "name": "92f4b7906abb5c70c859cb4ec9e86cc9", "is_reserved": 0, "rental_uris": {"android": "https://dc.lft.to/lastmile_qr_scan", "ios": "https://dc.lft.to/lastmile_qr_scan"}, "fusion_lon": 0.0}, {"lat": 38.922057833333334, "is_disabled": 0, "type": "electric_scooter", "lon": -77.04131666666666, "bike_id": "041fa2a4f967f4f913fee7012c3a347d", "fusion_lat": 0.0, "name": "041fa2a4f967f4f913fee7012c3a347d", "is_reserved": 0, "rental_uris": {"android": "https://dc.lft.to/lastmile_qr_scan", "ios": "https://dc.lft.to/lastmile_qr_scan"}, "fusion_lon": 0.0}, {"lat": 38.9027405, "is_disabled": 0, "type": "electric_scooter", "lon": -77.002122, "bike_id": "55da4ba119b3ecb95d7f43da24932538", "fusion_lat": 0.0, "name": "55da4ba119b3ecb95d7f43da24932538", "is_reserved": 0, "rental_uris": {"android": "https://dc.lft.to/lastmile_qr_scan", "ios": "https://dc.lft.to/lastmile_qr_scan"}, "fusion_lon": 0.0}, {"lat": 38.93643616666667, "is_disabled": 0, "type": "electric_scooter", "lon": -77.02500516666667, "bike_id": "cd57fed615fcc1e005adf4e53c017fed", "fusion_lat": 0.0, "name": "cd57fed615fcc1e005adf4e53c017fed", "is_reserved": 0, "rental_uris": {"android": "https://dc.lft.to/lastmile_qr_scan", "ios": "https://dc.lft.to/lastmile_qr_scan"}, "fusion_lon": 0.0}, {"lat": 38.908038833333336, "is_disabled": 0, "type": "electric_scooter", "lon": -77.06357383333334, "bike_id": "494b896efa0577e88efe1a1e0cbe967c", "fusion_lat": 0.0, "name": "494b896efa0577e88efe1a1e0cbe967c", "is_reserved": 0, "rental_uris": {"android": "https://dc.lft.to/lastmile_qr_scan", "ios": "https://dc.lft.to/lastmile_qr_scan"}, "fusion_lon": 0.0}, {"lat": 38.9295875, "is_disabled": 0, "type": "electric_scooter", "lon": -77.03629666666667, "bike_id": "2e7c68ed0b1e3061f908015afb7a27b3", "fusion_lat": 0.0, "name": "2e7c68ed0b1e3061f908015afb7a27b3", "is_reserved": 0, "rental_uris": {"android": "https://dc.lft.to/lastmile_qr_scan", "ios": "https://dc.lft.to/lastmile_qr_scan"}, "fusion_lon": 0.0}, {"lat": 38.91494433333333, "is_disabled": 0, "type": "electric_scooter", "lon": -77.03267916666667, "bike_id": "821fe1078f32dfa593b17efdff7c7e22", "fusion_lat": 0.0, "name": "821fe1078f32dfa593b17efdff7c7e22", "is_reserved": 0, "rental_uris": {"android": "https://dc.lft.to/lastmile_qr_scan", "ios": "https://dc.lft.to/lastmile_qr_scan"}, "fusion_lon": 0.0}, {"lat": 38.88490933333333, "is_disabled": 0, "type": "electric_scooter", "lon": -77.03476783333333, "bike_id": "d567a5c50b184f6dfc93a1e423a30ac1", "fusion_lat": 0.0, "name": "d567a5c50b184f6dfc93a1e423a30ac1", "is_reserved": 0, "rental_uris": {"android": "https://dc.lft.to/lastmile_qr_scan", "ios": "https://dc.lft.to/lastmile_qr_scan"}, "fusion_lon": 0.0}, {"lat": 38.92530983333333, "is_disabled": 0, "type": "electric_scooter", "lon": -77.04428966666667, "bike_id": "56cd098b6901f767ca32e806b8b5636a", "fusion_lat": 0.0, "name": "56cd098b6901f767ca32e806b8b5636a", "is_reserved": 0, "rental_uris": {"android": "https://dc.lft.to/lastmile_qr_scan", "ios": "https://dc.lft.to/lastmile_qr_scan"}, "fusion_lon": 0.0}, {"lat": 38.900347, "is_disabled": 0, "type": "electric_scooter", "lon": -76.993744, "bike_id": "94c67ab4e6ac74d9de1183eb81e3c92b", "fusion_lat": 0.0, "name": "94c67ab4e6ac74d9de1183eb81e3c92b", "is_reserved": 0, "rental_uris": {"android": "https://dc.lft.to/lastmile_qr_scan", "ios": "https://dc.lft.to/lastmile_qr_scan"}, "fusion_lon": 0.0}, {"lat": 38.92258983333333, "is_disabled": 0, "type": "electric_scooter", "lon": -77.042994, "bike_id": "8732f10b01764c394fa78e287e3e904f", "fusion_lat": 0.0, "name": "8732f10b01764c394fa78e287e3e904f", "is_reserved": 0, "rental_uris": {"android": "https://dc.lft.to/lastmile_qr_scan", "ios": "https://dc.lft.to/lastmile_qr_scan"}, "fusion_lon": 0.0}, {"lat": 38.93979216666666, "is_disabled": 0, "type": "electric_scooter", "lon": -77.03589816666667, "bike_id": "a56516730ecc797986f1e99f34013006", "fusion_lat": 0.0, "name": "a56516730ecc797986f1e99f34013006", "is_reserved": 0, "rental_uris": {"android": "https://dc.lft.to/lastmile_qr_scan", "ios": "https://dc.lft.to/lastmile_qr_scan"}, "fusion_lon": 0.0}, {"lat": 38.93291116666666, "is_disabled": 0, "type": "electric_scooter", "lon": -77.03555716666666, "bike_id": "155b19f263eaab17195036092c6d1ec6", "fusion_lat": 0.0, "name": "155b19f263eaab17195036092c6d1ec6", "is_reserved": 0, "rental_uris": {"android": "https://dc.lft.to/lastmile_qr_scan", "ios": "https://dc.lft.to/lastmile_qr_scan"}, "fusion_lon": 0.0}, {"lat": 38.90081716666667, "is_disabled": 0, "type": "electric_scooter", "lon": -77.04909733333334, "bike_id": "5ce872917bea68d5324d5281cc5c605c", "fusion_lat": 0.0, "name": "5ce872917bea68d5324d5281cc5c605c", "is_reserved": 0, "rental_uris": {"android": "https://dc.lft.to/lastmile_qr_scan", "ios": "https://dc.lft.to/lastmile_qr_scan"}, "fusion_lon": 0.0}, {"lat": 38.956514, "is_disabled": 0, "type": "electric_scooter", "lon": -77.02397166666667, "bike_id": "0f4af5aaf22f44cc3b0a63729c5842f4", "fusion_lat": 0.0, "name": "0f4af5aaf22f44cc3b0a63729c5842f4", "is_reserved": 0, "rental_uris": {"android": "https://dc.lft.to/lastmile_qr_scan", "ios": "https://dc.lft.to/lastmile_qr_scan"}, "fusion_lon": 0.0}, {"lat": 38.91127683333333, "is_disabled": 0, "type": "electric_scooter", "lon": -77.044286, "bike_id": "5f5ab3f3096a53e74d8f82d8e46e41e6", "fusion_lat": 0.0, "name": "5f5ab3f3096a53e74d8f82d8e46e41e6", "is_reserved": 0, "rental_uris": {"android": "https://dc.lft.to/lastmile_qr_scan", "ios": "https://dc.lft.to/lastmile_qr_scan"}, "fusion_lon": 0.0}, {"lat": 38.957851833333336, "is_disabled": 0, "type": "electric_scooter", "lon": -77.02757233333334, "bike_id": "838ed0ed47d3bd4bbb0ff187e7f0eb45", "fusion_lat": 0.0, "name": "838ed0ed47d3bd4bbb0ff187e7f0eb45", "is_reserved": 0, "rental_uris": {"android": "https://dc.lft.to/lastmile_qr_scan", "ios": "https://dc.lft.to/lastmile_qr_scan"}, "fusion_lon": 0.0}, {"lat": 38.90875916666667, "is_disabled": 0, "type": "electric_scooter", "lon": -77.036755, "bike_id": "7afd312c6f031759e7cbb6dbe0420372", "fusion_lat": 0.0, "name": "7afd312c6f031759e7cbb6dbe0420372", "is_reserved": 0, "rental_uris": {"android": "https://dc.lft.to/lastmile_qr_scan", "ios": "https://dc.lft.to/lastmile_qr_scan"}, "fusion_lon": 0.0}, {"lat": 38.9102535, "is_disabled": 0, "type": "electric_scooter", "lon": -77.03447366666667, "bike_id": "85bbe5f8b117c68a04e5c5d3b0d49f11", "fusion_lat": 0.0, "name": "85bbe5f8b117c68a04e5c5d3b0d49f11", "is_reserved": 0, "rental_uris": {"android": "https://dc.lft.to/lastmile_qr_scan", "ios": "https://dc.lft.to/lastmile_qr_scan"}, "fusion_lon": 0.0}, {"lat": 38.92597033333333, "is_disabled": 0, "type": "electric_scooter", "lon": -77.0228715, "bike_id": "01bb2a9e5c732781d94622c265445361", "fusion_lat": 0.0, "name": "01bb2a9e5c732781d94622c265445361", "is_reserved": 0, "rental_uris": {"android": "https://dc.lft.to/lastmile_qr_scan", "ios": "https://dc.lft.to/lastmile_qr_scan"}, "fusion_lon": 0.0}, {"lat": 38.851901, "is_disabled": 0, "type": "electric_scooter", "lon": -76.97621816666667, "bike_id": "23cc4e86ac30917a6379628a6147051e", "fusion_lat": 0.0, "name": "23cc4e86ac30917a6379628a6147051e", "is_reserved": 0, "rental_uris": {"android": "https://dc.lft.to/lastmile_qr_scan", "ios": "https://dc.lft.to/lastmile_qr_scan"}, "fusion_lon": 0.0}, {"lat": 38.84435783333333, "is_disabled": 0, "type": "electric_scooter", "lon": -76.99662016666667, "bike_id": "da3a5d7e6f2882bf7ccc1b4cf9192b54", "fusion_lat": 0.0, "name": "da3a5d7e6f2882bf7ccc1b4cf9192b54", "is_reserved": 0, "rental_uris": {"android": "https://dc.lft.to/lastmile_qr_scan", "ios": "https://dc.lft.to/lastmile_qr_scan"}, "fusion_lon": 0.0}, {"lat": 38.9259305, "is_disabled": 0, "type": "electric_scooter", "lon": -77.0441, "bike_id": "80c211526e25259b5fcf73c9a289fc95", "fusion_lat": 0.0, "name": "80c211526e25259b5fcf73c9a289fc95", "is_reserved": 0, "rental_uris": {"android": "https://dc.lft.to/lastmile_qr_scan", "ios": "https://dc.lft.to/lastmile_qr_scan"}, "fusion_lon": 0.0}, {"lat": 38.90251966666666, "is_disabled": 0, "type": "electric_scooter", "lon": -77.01759033333333, "bike_id": "602f3d172c4c2811299e677a044b886b", "fusion_lat": 0.0, "name": "602f3d172c4c2811299e677a044b886b", "is_reserved": 0, "rental_uris": {"android": "https://dc.lft.to/lastmile_qr_scan", "ios": "https://dc.lft.to/lastmile_qr_scan"}, "fusion_lon": 0.0}, {"lat": 38.89734583333333, "is_disabled": 0, "type": "electric_scooter", "lon": -77.04989416666666, "bike_id": "617aab9c5172ebcf6ff675c592c48377", "fusion_lat": 0.0, "name": "617aab9c5172ebcf6ff675c592c48377", "is_reserved": 0, "rental_uris": {"android": "https://dc.lft.to/lastmile_qr_scan", "ios": "https://dc.lft.to/lastmile_qr_scan"}, "fusion_lon": 0.0}, {"lat": 38.900689666666665, "is_disabled": 0, "type": "electric_scooter", "lon": -77.0489895, "bike_id": "f0de164470d48cd8dad1ebe94920667b", "fusion_lat": 0.0, "name": "f0de164470d48cd8dad1ebe94920667b", "is_reserved": 0, "rental_uris": {"android": "https://dc.lft.to/lastmile_qr_scan", "ios": "https://dc.lft.to/lastmile_qr_scan"}, "fusion_lon": 0.0}, {"lat": 38.99266316666667, "is_disabled": 0, "type": "electric_scooter", "lon": -77.03655166666667, "bike_id": "56d82d0abf441c92297efe41867e411f", "fusion_lat": 0.0, "name": "56d82d0abf441c92297efe41867e411f", "is_reserved": 0, "rental_uris": {"android": "https://dc.lft.to/lastmile_qr_scan", "ios": "https://dc.lft.to/lastmile_qr_scan"}, "fusion_lon": 0.0}, {"lat": 38.905392666666664, "is_disabled": 0, "type": "electric_scooter", "lon": -77.0631485, "bike_id": "d7a0f4635333d6e3a721e7cfdbce2d9c", "fusion_lat": 0.0, "name": "d7a0f4635333d6e3a721e7cfdbce2d9c", "is_reserved": 0, "rental_uris": {"android": "https://dc.lft.to/lastmile_qr_scan", "ios": "https://dc.lft.to/lastmile_qr_scan"}, "fusion_lon": 0.0}, {"lat": 38.91050216666667, "is_disabled": 0, "type": "electric_scooter", "lon": -77.04373583333333, "bike_id": "99d8bc6b7144d14d59fba39c4d084f45", "fusion_lat": 0.0, "name": "99d8bc6b7144d14d59fba39c4d084f45", "is_reserved": 0, "rental_uris": {"android": "https://dc.lft.to/lastmile_qr_scan", "ios": "https://dc.lft.to/lastmile_qr_scan"}, "fusion_lon": 0.0}, {"lat": 38.945557, "is_disabled": 0, "type": "electric_bike", "lon": -76.89543333333333, "bike_id": "b349e3ea82a2904a0e09debb1a09084d", "fusion_lat": 0.0, "name": "b349e3ea82a2904a0e09debb1a09084d", "is_reserved": 0, "rental_uris": {"android": "https://dc.lft.to/lastmile_qr_scan", "ios": "https://dc.lft.to/lastmile_qr_scan"}, "fusion_lon": 0.0}, {"lat": 38.862573166666664, "is_disabled": 0, "type": "electric_scooter", "lon": -76.995173, "bike_id": "621e1c0ac77b8c36e2f445e9f8b69da2", "fusion_lat": 0.0, "name": "621e1c0ac77b8c36e2f445e9f8b69da2", "is_reserved": 0, "rental_uris": {"android": "https://dc.lft.to/lastmile_qr_scan", "ios": "https://dc.lft.to/lastmile_qr_scan"}, "fusion_lon": 0.0}, {"lat": 38.936617, "is_disabled": 0, "type": "electric_bike", "lon": -76.95223233333333, "bike_id": "46fced26dddda593c2d5589593ea8e93", "fusion_lat": 0.0, "name": "46fced26dddda593c2d5589593ea8e93", "is_reserved": 0, "rental_uris": {"android": "https://dc.lft.to/lastmile_qr_scan", "ios": "https://dc.lft.to/lastmile_qr_scan"}, "fusion_lon": 0.0}, {"lat": 38.903777, "is_disabled": 0, "type": "electric_scooter", "lon": -77.038732, "bike_id": "a9e34f83809d03eed9829d7eb7d62de3", "fusion_lat": 0.0, "name": "a9e34f83809d03eed9829d7eb7d62de3", "is_reserved": 0, "rental_uris": {"android": "https://dc.lft.to/lastmile_qr_scan", "ios": "https://dc.lft.to/lastmile_qr_scan"}, "fusion_lon": 0.0}, {"lat": 38.909915833333336, "is_disabled": 0, "type": "electric_scooter", "lon": -77.03194933333333, "bike_id": "9c9deb63abe9c9541dfce409ab1843ef", "fusion_lat": 0.0, "name": "9c9deb63abe9c9541dfce409ab1843ef", "is_reserved": 0, "rental_uris": {"android": "https://dc.lft.to/lastmile_qr_scan", "ios": "https://dc.lft.to/lastmile_qr_scan"}, "fusion_lon": 0.0}, {"lat": 39.0342945, "is_disabled": 0, "type": "electric_bike", "lon": -77.0430105, "bike_id": "925734079de838604ab98fb962e8391f", "fusion_lat": 0.0, "name": "925734079de838604ab98fb962e8391f", "is_reserved": 0, "rental_uris": {"android": "https://dc.lft.to/lastmile_qr_scan", "ios": "https://dc.lft.to/lastmile_qr_scan"}, "fusion_lon": 0.0}, {"lat": 38.937445333333336, "is_disabled": 0, "type": "electric_scooter", "lon": -77.03621516666666, "bike_id": "62893500204fc2b35a2048e0161b2231", "fusion_lat": 0.0, "name": "62893500204fc2b35a2048e0161b2231", "is_reserved": 0, "rental_uris": {"android": "https://dc.lft.to/lastmile_qr_scan", "ios": "https://dc.lft.to/lastmile_qr_scan"}, "fusion_lon": 0.0}, {"lat": 38.858104, "is_disabled": 0, "type": "electric_scooter", "lon": -76.98654166666667, "bike_id": "c37913907a79479034485437b73aaac5", "fusion_lat": 0.0, "name": "c37913907a79479034485437b73aaac5", "is_reserved": 0, "rental_uris": {"android": "https://dc.lft.to/lastmile_qr_scan", "ios": "https://dc.lft.to/lastmile_qr_scan"}, "fusion_lon": 0.0}, {"lat": 38.9661025, "is_disabled": 0, "type": "electric_scooter", "lon": -77.0206685, "bike_id": "655e5cd0cf5a169ecb6d0746576dfe95", "fusion_lat": 0.0, "name": "655e5cd0cf5a169ecb6d0746576dfe95", "is_reserved": 0, "rental_uris": {"android": "https://dc.lft.to/lastmile_qr_scan", "ios": "https://dc.lft.to/lastmile_qr_scan"}, "fusion_lon": 0.0}, {"lat": 38.91557533333334, "is_disabled": 0, "type": "electric_scooter", "lon": -77.02429533333333, "bike_id": "ad66897b824cbd2aa83d393b030cee24", "fusion_lat": 0.0, "name": "ad66897b824cbd2aa83d393b030cee24", "is_reserved": 0, "rental_uris": {"android": "https://dc.lft.to/lastmile_qr_scan", "ios": "https://dc.lft.to/lastmile_qr_scan"}, "fusion_lon": 0.0}, {"lat": 38.933419, "is_disabled": 0, "type": "electric_scooter", "lon": -76.99309650000001, "bike_id": "b007bd0950e6ab89f037b90ac8a5289b", "fusion_lat": 0.0, "name": "b007bd0950e6ab89f037b90ac8a5289b", "is_reserved": 0, "rental_uris": {"android": "https://dc.lft.to/lastmile_qr_scan", "ios": "https://dc.lft.to/lastmile_qr_scan"}, "fusion_lon": 0.0}, {"lat": 38.90014266666667, "is_disabled": 0, "type": "electric_scooter", "lon": -76.922308, "bike_id": "d2424487297431ab648334decd12069a", "fusion_lat": 0.0, "name": "d2424487297431ab648334decd12069a", "is_reserved": 0, "rental_uris": {"android": "https://dc.lft.to/lastmile_qr_scan", "ios": "https://dc.lft.to/lastmile_qr_scan"}, "fusion_lon": 0.0}, {"lat": 38.9315575, "is_disabled": 0, "type": "electric_scooter", "lon": -77.02156433333333, "bike_id": "61b64bae545106cee7c7dfc100a26006", "fusion_lat": 0.0, "name": "61b64bae545106cee7c7dfc100a26006", "is_reserved": 0, "rental_uris": {"android": "https://dc.lft.to/lastmile_qr_scan", "ios": "https://dc.lft.to/lastmile_qr_scan"}, "fusion_lon": 0.0}, {"lat": 38.900681666666664, "is_disabled": 0, "type": "electric_scooter", "lon": -77.02610783333333, "bike_id": "4f0bcb59c637bcdb30e9cd8bd423d181", "fusion_lat": 0.0, "name": "4f0bcb59c637bcdb30e9cd8bd423d181", "is_reserved": 0, "rental_uris": {"android": "https://dc.lft.to/lastmile_qr_scan", "ios": "https://dc.lft.to/lastmile_qr_scan"}, "fusion_lon": 0.0}, {"lat": 38.901222833333335, "is_disabled": 0, "type": "electric_scooter", "lon": -76.9863425, "bike_id": "17522190d77080483df54621b24ad9eb", "fusion_lat": 0.0, "name": "17522190d77080483df54621b24ad9eb", "is_reserved": 0, "rental_uris": {"android": "https://dc.lft.to/lastmile_qr_scan", "ios": "https://dc.lft.to/lastmile_qr_scan"}, "fusion_lon": 0.0}, {"lat": 38.91452783333333, "is_disabled": 0, "type": "electric_scooter", "lon": -77.029722, "bike_id": "12abacf56cfd271ef4fcd6132a8c4cf2", "fusion_lat": 0.0, "name": "12abacf56cfd271ef4fcd6132a8c4cf2", "is_reserved": 0, "rental_uris": {"android": "https://dc.lft.to/lastmile_qr_scan", "ios": "https://dc.lft.to/lastmile_qr_scan"}, "fusion_lon": 0.0}, {"lat": 38.922482, "is_disabled": 0, "type": "electric_scooter", "lon": -77.04255866666666, "bike_id": "d97cb659e9333252f6a2a78041e659df", "fusion_lat": 0.0, "name": "d97cb659e9333252f6a2a78041e659df", "is_reserved": 0, "rental_uris": {"android": "https://dc.lft.to/lastmile_qr_scan", "ios": "https://dc.lft.to/lastmile_qr_scan"}, "fusion_lon": 0.0}, {"lat": 38.88501333333333, "is_disabled": 0, "type": "electric_scooter", "lon": -77.007279, "bike_id": "a0308e36273deff58c47b0ea11f62f7d", "fusion_lat": 0.0, "name": "a0308e36273deff58c47b0ea11f62f7d", "is_reserved": 0, "rental_uris": {"android": "https://dc.lft.to/lastmile_qr_scan", "ios": "https://dc.lft.to/lastmile_qr_scan"}, "fusion_lon": 0.0}, {"lat": 38.866251, "is_disabled": 0, "type": "electric_bike", "lon": -76.9457345, "bike_id": "dfa3fa1e09eeea58882e81e60ee52c59", "fusion_lat": 0.0, "name": "dfa3fa1e09eeea58882e81e60ee52c59", "is_reserved": 0, "rental_uris": {"android": "https://dc.lft.to/lastmile_qr_scan", "ios": "https://dc.lft.to/lastmile_qr_scan"}, "fusion_lon": 0.0}, {"lat": 38.91954833333333, "is_disabled": 0, "type": "electric_scooter", "lon": -77.03204183333334, "bike_id": "b49113ba9a931e1adecbbcab6590f145", "fusion_lat": 0.0, "name": "b49113ba9a931e1adecbbcab6590f145", "is_reserved": 0, "rental_uris": {"android": "https://dc.lft.to/lastmile_qr_scan", "ios": "https://dc.lft.to/lastmile_qr_scan"}, "fusion_lon": 0.0}, {"lat": 38.89684466666667, "is_disabled": 0, "type": "electric_scooter", "lon": -76.93540833333333, "bike_id": "e539c933f42e46809e532cd7521c6c65", "fusion_lat": 0.0, "name": "e539c933f42e46809e532cd7521c6c65", "is_reserved": 0, "rental_uris": {"android": "https://dc.lft.to/lastmile_qr_scan", "ios": "https://dc.lft.to/lastmile_qr_scan"}, "fusion_lon": 0.0}, {"lat": 38.914855, "is_disabled": 0, "type": "electric_scooter", "lon": -77.03261283333333, "bike_id": "37cbd969dcf5a97145341bc014cbac55", "fusion_lat": 0.0, "name": "37cbd969dcf5a97145341bc014cbac55", "is_reserved": 0, "rental_uris": {"android": "https://dc.lft.to/lastmile_qr_scan", "ios": "https://dc.lft.to/lastmile_qr_scan"}, "fusion_lon": 0.0}, {"lat": 38.95964133333333, "is_disabled": 0, "type": "electric_bike", "lon": -77.10092366666667, "bike_id": "ad02e7fd410b4da55ce363b3f3f4b1f8", "fusion_lat": 0.0, "name": "ad02e7fd410b4da55ce363b3f3f4b1f8", "is_reserved": 0, "rental_uris": {"android": "https://dc.lft.to/lastmile_qr_scan", "ios": "https://dc.lft.to/lastmile_qr_scan"}, "fusion_lon": 0.0}, {"lat": 38.898577333333336, "is_disabled": 0, "type": "electric_scooter", "lon": -77.02909183333334, "bike_id": "2413eaf5e142980b5b29af0572fe9739", "fusion_lat": 0.0, "name": "2413eaf5e142980b5b29af0572fe9739", "is_reserved": 0, "rental_uris": {"android": "https://dc.lft.to/lastmile_qr_scan", "ios": "https://dc.lft.to/lastmile_qr_scan"}, "fusion_lon": 0.0}, {"lat": 38.90073483333333, "is_disabled": 0, "type": "electric_scooter", "lon": -77.00225083333333, "bike_id": "76b65aeaaaf60e51fde580b339951158", "fusion_lat": 0.0, "name": "76b65aeaaaf60e51fde580b339951158", "is_reserved": 0, "rental_uris": {"android": "https://dc.lft.to/lastmile_qr_scan", "ios": "https://dc.lft.to/lastmile_qr_scan"}, "fusion_lon": 0.0}, {"lat": 38.95960316666667, "is_disabled": 0, "type": "electric_scooter", "lon": -77.033117, "bike_id": "f8743c34a86de43e182f660e1c73a37c", "fusion_lat": 0.0, "name": "f8743c34a86de43e182f660e1c73a37c", "is_reserved": 0, "rental_uris": {"android": "https://dc.lft.to/lastmile_qr_scan", "ios": "https://dc.lft.to/lastmile_qr_scan"}, "fusion_lon": 0.0}, {"lat": 38.961428166666664, "is_disabled": 0, "type": "electric_scooter", "lon": -77.02808783333333, "bike_id": "8a897f054b8d66f7a9a8bccd3c9fb9bb", "fusion_lat": 0.0, "name": "8a897f054b8d66f7a9a8bccd3c9fb9bb", "is_reserved": 0, "rental_uris": {"android": "https://dc.lft.to/lastmile_qr_scan", "ios": "https://dc.lft.to/lastmile_qr_scan"}, "fusion_lon": 0.0}, {"lat": 38.90892483333333, "is_disabled": 0, "type": "electric_scooter", "lon": -77.04413616666666, "bike_id": "fd7634498a3fff065f3bc87f6eb85934", "fusion_lat": 0.0, "name": "fd7634498a3fff065f3bc87f6eb85934", "is_reserved": 0, "rental_uris": {"android": "https://dc.lft.to/lastmile_qr_scan", "ios": "https://dc.lft.to/lastmile_qr_scan"}, "fusion_lon": 0.0}, {"lat": 38.91329666666667, "is_disabled": 0, "type": "electric_scooter", "lon": -77.03262366666667, "bike_id": "2aafb80fae6beadd068d04957ddbf342", "fusion_lat": 0.0, "name": "2aafb80fae6beadd068d04957ddbf342", "is_reserved": 0, "rental_uris": {"android": "https://dc.lft.to/lastmile_qr_scan", "ios": "https://dc.lft.to/lastmile_qr_scan"}, "fusion_lon": 0.0}, {"lat": 38.92064533333333, "is_disabled": 0, "type": "electric_scooter", "lon": -77.04338033333333, "bike_id": "23d09e378e64c63a347ff6ec3ec713e6", "fusion_lat": 0.0, "name": "23d09e378e64c63a347ff6ec3ec713e6", "is_reserved": 0, "rental_uris": {"android": "https://dc.lft.to/lastmile_qr_scan", "ios": "https://dc.lft.to/lastmile_qr_scan"}, "fusion_lon": 0.0}, {"lat": 38.8933615, "is_disabled": 0, "type": "electric_scooter", "lon": -77.03183133333333, "bike_id": "efdc5ce04e3aaa0dbb114c454a598cd4", "fusion_lat": 0.0, "name": "efdc5ce04e3aaa0dbb114c454a598cd4", "is_reserved": 0, "rental_uris": {"android": "https://dc.lft.to/lastmile_qr_scan", "ios": "https://dc.lft.to/lastmile_qr_scan"}, "fusion_lon": 0.0}, {"lat": 38.89228166666667, "is_disabled": 0, "type": "electric_scooter", "lon": -77.04877233333333, "bike_id": "1fcf8bd89e24a3a94e4de36419a95328", "fusion_lat": 0.0, "name": "1fcf8bd89e24a3a94e4de36419a95328", "is_reserved": 0, "rental_uris": {"android": "https://dc.lft.to/lastmile_qr_scan", "ios": "https://dc.lft.to/lastmile_qr_scan"}, "fusion_lon": 0.0}, {"lat": 38.9166985, "is_disabled": 0, "type": "electric_scooter", "lon": -77.0333785, "bike_id": "1572cf5e14ad61833c17e7d02c1f18e2", "fusion_lat": 0.0, "name": "1572cf5e14ad61833c17e7d02c1f18e2", "is_reserved": 0, "rental_uris": {"android": "https://dc.lft.to/lastmile_qr_scan", "ios": "https://dc.lft.to/lastmile_qr_scan"}, "fusion_lon": 0.0}, {"lat": 38.919178, "is_disabled": 0, "type": "electric_scooter", "lon": -77.04808483333333, "bike_id": "a25cf8de21a2bdd9731e697aef55c648", "fusion_lat": 0.0, "name": "a25cf8de21a2bdd9731e697aef55c648", "is_reserved": 0, "rental_uris": {"android": "https://dc.lft.to/lastmile_qr_scan", "ios": "https://dc.lft.to/lastmile_qr_scan"}, "fusion_lon": 0.0}, {"lat": 39.02936616666667, "is_disabled": 0, "type": "electric_bike", "lon": -77.04928816666667, "bike_id": "f0ddb372dfe1c91dff3bb2ae7b72404c", "fusion_lat": 0.0, "name": "f0ddb372dfe1c91dff3bb2ae7b72404c", "is_reserved": 0, "rental_uris": {"android": "https://dc.lft.to/lastmile_qr_scan", "ios": "https://dc.lft.to/lastmile_qr_scan"}, "fusion_lon": 0.0}, {"lat": 38.93437183333333, "is_disabled": 0, "type": "electric_scooter", "lon": -77.03446816666667, "bike_id": "4c47bfc1661b9a6bf698e645e16bce9c", "fusion_lat": 0.0, "name": "4c47bfc1661b9a6bf698e645e16bce9c", "is_reserved": 0, "rental_uris": {"android": "https://dc.lft.to/lastmile_qr_scan", "ios": "https://dc.lft.to/lastmile_qr_scan"}, "fusion_lon": 0.0}, {"lat": 38.91489716666667, "is_disabled": 0, "type": "electric_scooter", "lon": -77.0218575, "bike_id": "33a746872a6c72dc6f9c67dc295fcfc9", "fusion_lat": 0.0, "name": "33a746872a6c72dc6f9c67dc295fcfc9", "is_reserved": 0, "rental_uris": {"android": "https://dc.lft.to/lastmile_qr_scan", "ios": "https://dc.lft.to/lastmile_qr_scan"}, "fusion_lon": 0.0}, {"lat": 38.953299333333334, "is_disabled": 0, "type": "electric_scooter", "lon": -77.02754766666666, "bike_id": "72457065cdcdf76d55104c47cd88356f", "fusion_lat": 0.0, "name": "72457065cdcdf76d55104c47cd88356f", "is_reserved": 0, "rental_uris": {"android": "https://dc.lft.to/lastmile_qr_scan", "ios": "https://dc.lft.to/lastmile_qr_scan"}, "fusion_lon": 0.0},