{"data": {"bikes": [{"is_disabled": 0, "fusion_lon": 0.0, "fusion_lat": 0.0, "lat": 38.920375666666665, "type": "electric_scooter", "lon": -77.0258285, "bike_id": "3519c952690fd8abf12cbe9107dc8bf2", "rental_uris": {"android": "https://dc.lft.to/lastmile_qr_scan", "ios": "https://dc.lft.to/lastmile_qr_scan"}, "name": "3519c952690fd8abf12cbe9107dc8bf2", "is_reserved": 0}, {"is_disabled": 0, "fusion_lon": 0.0, "fusion_lat": 0.0, "lat": 38.896173166666664, "type": "electric_scooter", "lon": -77.02154983333334, "bike_id": "50492d57ac076024f016c8d160d2c768", "rental_uris": {"android": "https://dc.lft.to/lastmile_qr_scan", "ios": "https://dc.lft.to/lastmile_qr_scan"}, "name": "50492d57ac076024f016c8d160d2c768", "is_reserved": 0}, {"is_disabled": 0, "fusion_lon": 0.0, "fusion_lat": 0.0, "lat": 38.89528516666667, "type": "electric_scooter", "lon": -77.02838866666667, "bike_id": "ad24202cf180e40517ed7ee7e2ab0b97", "rental_uris": {"android": "https://dc.lft.to/lastmile_qr_scan", "ios": "https://dc.lft.to/lastmile_qr_scan"}, "name": "ad24202cf180e40517ed7ee7e2ab0b97", "is_reserved": 0}, {"is_disabled": 0, "fusion_lon": 0.0, "fusion_lat": 0.0, "lat": 38.952137666666665, "type": "electric_scooter", "lon": -77.03631483333334, "bike_id": "b621a5ea638e252d66924fd033145cc8", "rental_uris": {"android": "https://dc.lft.to/lastmile_qr_scan", "ios": "https://dc.lft.to/lastmile_qr_scan"}, "name": "b621a5ea638e252d66924fd033145cc8", "is_reserved": 0}, {"is_disabled": 0, "fusion_lon": 0.0, "fusion_lat": 0.0, "lat": 38.8851785, "type": "electric_scooter", "lon": -76.99846866666667, "bike_id": "e1085f7c0eff83e96147bb5502287363", "rental_uris": {"android": "https://dc.lft.to/lastmile_qr_scan", "ios": "https://dc.lft.to/lastmile_qr_scan"}, "name": "e1085f7c0eff83e96147bb5502287363", "is_reserved": 0}, {"is_disabled": 0, "fusion_lon": 0.0, "fusion_lat": 0.0, "lat": 38.988303, "type": "electric_bike", "lon": -76.987544, "bike_id": "b7fa710d1d72ea5cbf8302155af2cba0", "rental_uris": {"android": "https://dc.lft.to/lastmile_qr_scan", "ios": "https://dc.lft.to/lastmile_qr_scan"}, "name": "b7fa710d1d72ea5cbf8302155af2cba0", "is_reserved": 0}, {"is_disabled": 0, "fusion_lon": 0.0, "fusion_lat": 0.0, "lat": 38.889911166666664, "type": "electric_scooter", "lon": -76.99513, "bike_id": "d62733be5952a369d79286a8621a91c3", "rental_uris": {"android": "https://dc.lft.to/lastmile_qr_scan", "ios": "https://dc.lft.to/lastmile_qr_scan"}, "name": "d62733be5952a369d79286a8621a91c3", "is_reserved": 0}, {"is_disabled": 0, "fusion_lon": 0.0, "fusion_lat": 0.0, "lat": 38.91544916666667, "type": "electric_scooter", "lon": -77.03199833333333, "bike_id": "cc7aad40501d9d623c88f2ef69ea6944", "rental_uris": {"android": "https://dc.lft.to/lastmile_qr_scan", "ios": "https://dc.lft.to/lastmile_qr_scan"}, "name": "cc7aad40501d9d623c88f2ef69ea6944", "is_reserved": 0}, {"is_disabled": 0, "fusion_lon": 0.0, "fusion_lat": 0.0, "lat": 38.89858433333333, "type": "electric_scooter", "lon": -77.03204016666666, "bike_id": "51358738df9bc8edeb64799ff6d0cb56", "rental_uris": {"android": "https://dc.lft.to/lastmile_qr_scan", "ios": "https://dc.lft.to/lastmile_qr_scan"}, "name": "51358738df9bc8edeb64799ff6d0cb56", "is_reserved": 0}, {"is_disabled": 0, "fusion_lon": 0.0, "fusion_lat": 0.0, "lat": 38.9096655, "type": "electric_scooter", "lon": -77.01564083333334, "bike_id": "687e225d69900434343d97097d489d3a", "rental_uris": {"android": "https://dc.lft.to/lastmile_qr_scan", "ios": "https://dc.lft.to/lastmile_qr_scan"}, "name": "687e225d69900434343d97097d489d3a", "is_reserved": 0}, {"is_disabled": 0, "fusion_lon": 0.0, "fusion_lat": 0.0, "lat": 38.88512516666667, "type": "electric_scooter", "lon": -76.99647733333333, "bike_id": "2d2291799ad942d8fb3783255a048dad", "rental_uris": {"android": "https://dc.lft.to/lastmile_qr_scan", "ios": "https://dc.lft.to/lastmile_qr_scan"}, "name": "2d2291799ad942d8fb3783255a048dad", "is_reserved": 0}, {"is_disabled": 0, "fusion_lon": 0.0, "fusion_lat": 0.0, "lat": 38.90632683333333, "type": "electric_scooter", "lon": -77.041582, "bike_id": "b20135ca8964178d3c96240bdf01feb3", "rental_uris": {"android": "https://dc.lft.to/lastmile_qr_scan", "ios": "https://dc.lft.to/lastmile_qr_scan"}, "name": "b20135ca8964178d3c96240bdf01feb3", "is_reserved": 0}, {"is_disabled": 0, "fusion_lon": 0.0, "fusion_lat": 0.0, "lat": 38.85517216666667, "type": "electric_bike", "lon": -76.95835733333334, "bike_id": "7cf35ccd1d246cf33f41332cb6464d46", "rental_uris": {"android": "https://dc.lft.to/lastmile_qr_scan", "ios": "https://dc.lft.to/lastmile_qr_scan"}, "name": "7cf35ccd1d246cf33f41332cb6464d46", "is_reserved": 0}, {"is_disabled": 0, "fusion_lon": 0.0, "fusion_lat": 0.0, "lat": 38.915689666666665, "type": "electric_scooter", "lon": -77.032698, "bike_id": "7d869ccfb715f7034027dad2596d812f", "rental_uris": {"android": "https://dc.lft.to/lastmile_qr_scan", "ios": "https://dc.lft.to/lastmile_qr_scan"}, "name": "7d869ccfb715f7034027dad2596d812f", "is_reserved": 0}, {"is_disabled": 0, "fusion_lon": 0.0, "fusion_lat": 0.0, "lat": 38.92761616666667, "type": "electric_scooter", "lon": -77.00589883333333, "bike_id": "a2f4caf0b0149c1b69757e71cb472268", "rental_uris": {"android": "https://dc.lft.to/lastmile_qr_scan", "ios": "https://dc.lft.to/lastmile_qr_scan"}, "name": "a2f4caf0b0149c1b69757e71cb472268", "is_reserved": 0}, {"is_disabled": 0, "fusion_lon": 0.0, "fusion_lat": 0.0, "lat": 38.9039535, "type": "electric_scooter", "lon": -76.99005, "bike_id": "a9fa2a1439628555b94eb6fd29be46bd", "rental_uris": {"android": "https://dc.lft.to/lastmile_qr_scan", "ios": "https://dc.lft.to/lastmile_qr_scan"}, "name": "a9fa2a1439628555b94eb6fd29be46bd", "is_reserved": 0}, {"is_disabled": 0, "fusion_lon": 0.0, "fusion_lat": 0.0, "lat": 38.91935433333333, "type": "electric_scooter", "lon": -76.98072933333333, "bike_id": "5b4aceecf43b1494c17435a59ee540f7", "rental_uris": {"android": "https://dc.lft.to/lastmile_qr_scan", "ios": "https://dc.lft.to/lastmile_qr_scan"}, "name": "5b4aceecf43b1494c17435a59ee540f7", "is_reserved": 0}, {"is_disabled": 0, "fusion_lon": 0.0, "fusion_lat": 0.0, "lat": 38.98137533333333, "type": "electric_bike", "lon": -77.00764333333333, "bike_id": "97f8ca63361b8e10d1c9c8442d604915", "rental_uris": {"android": "https://dc.lft.to/lastmile_qr_scan", "ios": "https://dc.lft.to/lastmile_qr_scan"}, "name": "97f8ca63361b8e10d1c9c8442d604915", "is_reserved": 0}, {"is_disabled": 0, "fusion_lon": 0.0, "fusion_lat": 0.0, "lat": 38.905972166666665, "type": "electric_scooter", "lon": -77.05145966666667, "bike_id": "4342c84bc511cc0f40a01ccd06acd6e0", "rental_uris": {"android": "https://dc.lft.to/lastmile_qr_scan", "ios": "https://dc.lft.to/lastmile_qr_scan"}, "name": "4342c84bc511cc0f40a01ccd06acd6e0", "is_reserved": 0}, {"is_disabled": 0, "fusion_lon": 0.0, "fusion_lat": 0.0, "lat": 38.906278, "type": "electric_scooter", "lon": -77.02409633333333, "bike_id": "4ec53f9ac12f0ca3f2e6eb2f5216c235", "rental_uris": {"android": "https://dc.lft.to/lastmile_qr_scan", "ios": "https://dc.lft.to/lastmile_qr_scan"}, "name": "4ec53f9ac12f0ca3f2e6eb2f5216c235", "is_reserved": 0}, {"is_disabled": 0, "fusion_lon": 0.0, "fusion_lat": 0.0, "lat": 38.87778083333333, "type": "electric_scooter", "lon": -77.0143355, "bike_id": "432028336706844313efce5ed74cbc67", "rental_uris": {"android": "https://dc.lft.to/lastmile_qr_scan", "ios": "https://dc.lft.to/lastmile_qr_scan"}, "name": "432028336706844313efce5ed74cbc67", "is_reserved": 0}, {"is_disabled": 0, "fusion_lon": 0.0, "fusion_lat": 0.0, "lat": 38.84893566666667, "type": "electric_scooter", "lon": -77.00518633333333, "bike_id": "4808482b17162f87b5599acfe4d9dc3e", "rental_uris": {"android": "https://dc.lft.to/lastmile_qr_scan", "ios": "https://dc.lft.to/lastmile_qr_scan"}, "name": "4808482b17162f87b5599acfe4d9dc3e", "is_reserved": 0}, {"is_disabled": 0, "fusion_lon": 0.0, "fusion_lat": 0.0, "lat": 38.90054533333333, "type": "electric_scooter", "lon": -77.007588, "bike_id": "dfd05e92e8c9a5cff3e4528278c9af61", "rental_uris": {"android": "https://dc.lft.to/lastmile_qr_scan", "ios": "https://dc.lft.to/lastmile_qr_scan"}, "name": "dfd05e92e8c9a5cff3e4528278c9af61", "is_reserved": 0}, {"is_disabled": 0, "fusion_lon": 0.0, "fusion_lat": 0.0, "lat": 38.91185983333333, "type": "electric_scooter", "lon": -77.041782, "bike_id": "265bb8b050ef8243ce350cc4195d9d51", "rental_uris": {"android": "https://dc.lft.to/lastmile_qr_scan", "ios": "https://dc.lft.to/lastmile_qr_scan"}, "name": "265bb8b050ef8243ce350cc4195d9d51", "is_reserved": 0}, {"is_disabled": 0, "fusion_lon": 0.0, "fusion_lat": 0.0, "lat": 38.863567, "type": "electric_scooter", "lon": -76.99065983333334, "bike_id": "64875d0c0a97406f84f4c4f7b0045708", "rental_uris": {"android": "https://dc.lft.to/lastmile_qr_scan", "ios": "https://dc.lft.to/lastmile_qr_scan"}, "name": "64875d0c0a97406f84f4c4f7b0045708", "is_reserved": 0}, {"is_disabled": 0, "fusion_lon": 0.0, "fusion_lat": 0.0, "lat": 38.937075, "type": "electric_scooter", "lon": -77.06099483333334, "bike_id": "4725f966dd7493bd296422d430a34daa", "rental_uris": {"android": "https://dc.lft.to/lastmile_qr_scan", "ios": "https://dc.lft.to/lastmile_qr_scan"}, "name": "4725f966dd7493bd296422d430a34daa", "is_reserved": 0}, {"is_disabled": 0, "fusion_lon": 0.0, "fusion_lat": 0.0, "lat": 38.918258, "type": "electric_scooter", "lon": -77.01207566666666, "bike_id": "be25b837d1a3d0585d7dcc76f68e2aae", "rental_uris": {"android": "https://dc.lft.to/lastmile_qr_scan", "ios": "https://dc.lft.to/lastmile_qr_scan"}, "name": "be25b837d1a3d0585d7dcc76f68e2aae", "is_reserved": 0}, {"is_disabled": 0, "fusion_lon": 0.0, "fusion_lat": 0.0, "lat": 38.885961, "type": "electric_scooter", "lon": -77.0316485, "bike_id": "3aeea0d2bb2e412c604bd5b5c6c070da", "rental_uris": {"android": "https://dc.lft.to/lastmile_qr_scan", "ios": "https://dc.lft.to/lastmile_qr_scan"}, "name": "3aeea0d2bb2e412c604bd5b5c6c070da", "is_reserved": 0}, {"is_disabled": 0, "fusion_lon": 0.0, "fusion_lat": 0.0, "lat": 38.888371, "type": "electric_scooter", "lon": -76.91773166666667, "bike_id": "9fe8000bf07b956dba87eaf992cb8a23", "rental_uris": {"android": "https://dc.lft.to/lastmile_qr_scan", "ios": "https://dc.lft.to/lastmile_qr_scan"}, "name": "9fe8000bf07b956dba87eaf992cb8a23", "is_reserved": 0}, {"is_disabled": 0, "fusion_lon": 0.0, "fusion_lat": 0.0, "lat": 38.912622999999996, "type": "electric_scooter", "lon": -77.037497, "bike_id": "135545fafab79643fcb530c23ad436b4", "rental_uris": {"android": "https://dc.lft.to/lastmile_qr_scan", "ios": "https://dc.lft.to/lastmile_qr_scan"}, "name": "135545fafab79643fcb530c23ad436b4", "is_reserved": 0}, {"is_disabled": 0, "fusion_lon": 0.0, "fusion_lat": 0.0, "lat": 38.90721216666667, "type": "electric_scooter", "lon": -77.0240185, "bike_id": "40a90b2999db84871a6312a31717d183", "rental_uris": {"android": "https://dc.lft.to/lastmile_qr_scan", "ios": "https://dc.lft.to/lastmile_qr_scan"}, "name": "40a90b2999db84871a6312a31717d183", "is_reserved": 0}, {"is_disabled": 0, "fusion_lon": 0.0, "fusion_lat": 0.0, "lat": 38.943147833333335, "type": "electric_scooter", "lon": -77.02188716666667, "bike_id": "6cda678ae357c77ce5c24f3c96766162", "rental_uris": {"android": "https://dc.lft.to/lastmile_qr_scan", "ios": "https://dc.lft.to/lastmile_qr_scan"}, "name": "6cda678ae357c77ce5c24f3c96766162", "is_reserved": 0}, {"is_disabled": 0, "fusion_lon": 0.0, "fusion_lat": 0.0, "lat": 38.936786833333336, "type": "electric_scooter", "lon": -77.0357305, "bike_id": "28dc0233c42d86bfbe19dee3df7845ac", "rental_uris": {"android": "https://dc.lft.to/lastmile_qr_scan", "ios": "https://dc.lft.to/lastmile_qr_scan"}, "name": "28dc0233c42d86bfbe19dee3df7845ac", "is_reserved": 0}, {"is_disabled": 0, "fusion_lon": 0.0, "fusion_lat": 0.0, "lat": 38.9126755, "type": "electric_scooter", "lon": -77.031435, "bike_id": "e1475e1d69cee73aded509ac3905c13c", "rental_uris": {"android": "https://dc.lft.to/lastmile_qr_scan", "ios": "https://dc.lft.to/lastmile_qr_scan"}, "name": "e1475e1d69cee73aded509ac3905c13c", "is_reserved": 0}, {"is_disabled": 0, "fusion_lon": 0.0, "fusion_lat": 0.0, "lat": 38.910678833333336, "type": "electric_scooter", "lon": -77.0458745, "bike_id": "ce31569c1109e4ac5607ccb0953d92e4", "rental_uris": {"android": "https://dc.lft.to/lastmile_qr_scan", "ios": "https://dc.lft.to/lastmile_qr_scan"}, "name": "ce31569c1109e4ac5607ccb0953d92e4", "is_reserved": 0}, {"is_disabled": 0, "fusion_lon": 0.0, "fusion_lat": 0.0, "lat": 38.91710883333333, "type": "electric_scooter", "lon": -77.03671883333334, "bike_id": "ec780d0d1667da8a6edd081f34955732", "rental_uris": {"android": "https://dc.lft.to/lastmile_qr_scan", "ios": "https://dc.lft.to/lastmile_qr_scan"}, "name": "ec780d0d1667da8a6edd081f34955732", "is_reserved": 0}, {"is_disabled": 0, "fusion_lon": 0.0, "fusion_lat": 0.0, "lat": 38.901279833333334, "type": "electric_bike", "lon": -77.015863, "bike_id": "324eabd4da26282188c39aaa6aac5583", "rental_uris": {"android": "https://dc.lft.to/lastmile_qr_scan", "ios": "https://dc.lft.to/lastmile_qr_scan"}, "name": "324eabd4da26282188c39aaa6aac5583", "is_reserved": 0}, {"is_disabled": 0, "fusion_lon": 0.0, "fusion_lat": 0.0, "lat": 38.932346833333334, "type": "electric_scooter", "lon": -76.9993405, "bike_id": "bc8770ef68f6b4a51ddb9a97d1b7f54a", "rental_uris": {"android": "https://dc.lft.to/lastmile_qr_scan", "ios": "https://dc.lft.to/lastmile_qr_scan"}, "name": "bc8770ef68f6b4a51ddb9a97d1b7f54a", "is_reserved": 0}, {"is_disabled": 0, "fusion_lon": 0.0, "fusion_lat": 0.0, "lat": 38.831055166666665, "type": "electric_bike", "lon": -77.04258733333333, "bike_id": "991700c29744df9b79efd69dd9e96bfc", "rental_uris": {"android": "https://dc.lft.to/lastmile_qr_scan", "ios": "https://dc.lft.to/lastmile_qr_scan"}, "name": "991700c29744df9b79efd69dd9e96bfc", "is_reserved": 0}, {"is_disabled": 0, "fusion_lon": 0.0, "fusion_lat": 0.0, "lat": 38.92024083333333, "type": "electric_scooter", "lon": -77.03205016666666, "bike_id": "8bb8409379564df10548b9b3e67e2432", "rental_uris": {"android": "https://dc.lft.to/lastmile_qr_scan", "ios": "https://dc.lft.to/lastmile_qr_scan"}, "name": "8bb8409379564df10548b9b3e67e2432", "is_reserved": 0}, {"is_disabled": 0, "fusion_lon": 0.0, "fusion_lat": 0.0, "lat": 38.907784166666666, "type": "electric_scooter", "lon": -77.03193383333333, "bike_id": "5476d070ffd8da0b921cbe8b31934524", "rental_uris": {"android": "https://dc.lft.to/lastmile_qr_scan", "ios": "https://dc.lft.to/lastmile_qr_scan"}, "name": "5476d070ffd8da0b921cbe8b31934524", "is_reserved": 0}, {"is_disabled": 0, "fusion_lon": 0.0, "fusion_lat": 0.0, "lat": 38.9782935, "type": "electric_bike", "lon": -76.92881266666667, "bike_id": "1b3845b270e5cf5e9d0eb1b7634b0fe7", "rental_uris": {"android": "https://dc.lft.to/lastmile_qr_scan", "ios": "https://dc.lft.to/lastmile_qr_scan"}, "name": "1b3845b270e5cf5e9d0eb1b7634b0fe7", "is_reserved": 0}, {"is_disabled": 0, "fusion_lon": 0.0, "fusion_lat": 0.0, "lat": 38.858832166666666, "type": "electric_scooter", "lon": -76.99030983333333, "bike_id": "56147f841981a38c2aee48e093b13bb6", "rental_uris": {"android": "https://dc.lft.to/lastmile_qr_scan", "ios": "https://dc.lft.to/lastmile_qr_scan"}, "name": "56147f841981a38c2aee48e093b13bb6", "is_reserved": 0}, {"is_disabled": 0, "fusion_lon": 0.0, "fusion_lat": 0.0, "lat": 38.90960183333333, "type": "electric_scooter", "lon": -77.0464565, "bike_id": "6855b3bef066f74b3ce4bf0019a16544", "rental_uris": {"android": "https://dc.lft.to/lastmile_qr_scan", "ios": "https://dc.lft.to/lastmile_qr_scan"}, "name": "6855b3bef066f74b3ce4bf0019a16544", "is_reserved": 0}, {"is_disabled": 0, "fusion_lon": 0.0, "fusion_lat": 0.0, "lat": 38.8937635, "type": "electric_scooter", "lon": -76.97815366666667, "bike_id": "844ad9aeb48aea8e4b7cd2867f5a7b78", "rental_uris": {"android": "https://dc.lft.to/lastmile_qr_scan", "ios": "https://dc.lft.to/lastmile_qr_scan"}, "name": "844ad9aeb48aea8e4b7cd2867f5a7b78", "is_reserved": 0}, {"is_disabled": 0, "fusion_lon": 0.0, "fusion_lat": 0.0, "lat": 38.893154, "type": "electric_scooter", "lon": -77.0220375, "bike_id": "b992a71640614b4da8c6e2f428357fd3", "rental_uris": {"android": "https://dc.lft.to/lastmile_qr_scan", "ios": "https://dc.lft.to/lastmile_qr_scan"}, "name": "b992a71640614b4da8c6e2f428357fd3", "is_reserved": 0}, {"is_disabled": 0, "fusion_lon": 0.0, "fusion_lat": 0.0, "lat": 38.91705266666666, "type": "electric_scooter", "lon": -77.0374635, "bike_id": "5c41013fefc7ae9fbdefb686c73af381", "rental_uris": {"android": "https://dc.lft.to/lastmile_qr_scan", "ios": "https://dc.lft.to/lastmile_qr_scan"}, "name": "5c41013fefc7ae9fbdefb686c73af381", "is_reserved": 0}, {"is_disabled": 0, "fusion_lon": 0.0, "fusion_lat": 0.0, "lat": 38.8973415, "type": "electric_scooter", "lon": -77.02497, "bike_id": "6ba095f9e2e0ed7d359b9f2fe1d179f6", "rental_uris": {"android": "https://dc.lft.to/lastmile_qr_scan", "ios": "https://dc.lft.to/lastmile_qr_scan"}, "name": "6ba095f9e2e0ed7d359b9f2fe1d179f6", "is_reserved": 0}, {"is_disabled": 0, "fusion_lon": 0.0, "fusion_lat": 0.0, "lat": 38.88530183333334, "type": "electric_scooter", "lon": -76.99799883333333, "bike_id": "ad3f82cd1e31274ee41bf5c913e67bd7", "rental_uris": {"android": "https://dc.lft.to/lastmile_qr_scan", "ios": "https://dc.lft.to/lastmile_qr_scan"}, "name": "ad3f82cd1e31274ee41bf5c913e67bd7", "is_reserved": 0}, {"is_disabled": 0, "fusion_lon": 0.0, "fusion_lat": 0.0, "lat": 38.91698266666667, "type": "electric_scooter", "lon": -77.0259795, "bike_id": "3a1b24012b4092e8a69d810b8ecc7213", "rental_uris": {"android": "https://dc.lft.to/lastmile_qr_scan", "ios": "https://dc.lft.to/lastmile_qr_scan"}, "name": "3a1b24012b4092e8a69d810b8ecc7213", "is_reserved": 0}, {"is_disabled": 0, "fusion_lon": 0.0, "fusion_lat": 0.0, "lat": 38.907095, "type": "electric_scooter", "lon": -77.063124, "bike_id": "241462eaead5304c0fddd443f592e5ec", "rental_uris": {"android": "https://dc.lft.to/lastmile_qr_scan", "ios": "https://dc.lft.to/lastmile_qr_scan"}, "name": "241462eaead5304c0fddd443f592e5ec", "is_reserved": 0}, {"is_disabled": 0, "fusion_lon": 0.0, "fusion_lat": 0.0, "lat": 38.9314705, "type": "electric_scooter", "lon": -77.07853716666666, "bike_id": "ea4c2d1bcf284e4ee8673f41c1039ee4", "rental_uris": {"android": "https://dc.lft.to/lastmile_qr_scan", "ios": "https://dc.lft.to/lastmile_qr_scan"}, "name": "ea4c2d1bcf284e4ee8673f41c1039ee4", "is_reserved": 0}, {"is_disabled": 0, "fusion_lon": 0.0, "fusion_lat": 0.0, "lat": 38.90931233333333, "type": "electric_scooter", "lon": -77.0571135, "bike_id": "c7ebb09210e7b5e2245dfa2bb9d0503c", "rental_uris": {"android": "https://dc.lft.to/lastmile_qr_scan", "ios": "https://dc.lft.to/lastmile_qr_scan"}, "name": "c7ebb09210e7b5e2245dfa2bb9d0503c", "is_reserved": 0}, {"is_disabled": 0, "fusion_lon": 0.0, "fusion_lat": 0.0, "lat": 38.945120833333334, "type": "electric_bike", "lon": -77.00675233333334, "bike_id": "1ee046007cf04a2afb1a767df1d9efff", "rental_uris": {"android": "https://dc.lft.to/lastmile_qr_scan", "ios": "https://dc.lft.to/lastmile_qr_scan"}, "name": "1ee046007cf04a2afb1a767df1d9efff", "is_reserved": 0}, {"is_disabled": 0, "fusion_lon": 0.0, "fusion_lat": 0.0, "lat": 38.91387683333333, "type": "electric_scooter", "lon": -77.01698, "bike_id": "da39300d7575080969d972115212c539", "rental_uris": {"android": "https://dc.lft.to/lastmile_qr_scan", "ios": "https://dc.lft.to/lastmile_qr_scan"}, "name": "da39300d7575080969d972115212c539", "is_reserved": 0}, {"is_disabled": 0, "fusion_lon": 0.0, "fusion_lat": 0.0, "lat": 38.89727116666667, "type": "electric_scooter", "lon": -77.02167416666667, "bike_id": "fc123573f4d8652c7c030fb128f53d1a", "rental_uris": {"android": "https://dc.lft.to/lastmile_qr_scan", "ios": "https://dc.lft.to/lastmile_qr_scan"}, "name": "fc123573f4d8652c7c030fb128f53d1a", "is_reserved": 0}, {"is_disabled": 0, "fusion_lon": 0.0, "fusion_lat": 0.0, "lat": 38.90027166666667, "type": "electric_scooter", "lon": -77.03324883333333, "bike_id": "ab92d9096612ae257fff1f77ec6f5366", "rental_uris": {"android": "https://dc.lft.to/lastmile_qr_scan", "ios": "https://dc.lft.to/lastmile_qr_scan"}, "name": "ab92d9096612ae257fff1f77ec6f5366", "is_reserved": 0}, {"is_disabled": 0, "fusion_lon": 0.0, "fusion_lat": 0.0, "lat": 38.910929833333334, "type": "electric_scooter", "lon": -77.0222105, "bike_id": "1101849bd21cc36cd3768e7150af616e", "rental_uris": {"android": "https://dc.lft.to/lastmile_qr_scan", "ios": "https://dc.lft.to/lastmile_qr_scan"}, "name": "1101849bd21cc36cd3768e7150af616e", "is_reserved": 0}, {"is_disabled": 0, "fusion_lon": 0.0, "fusion_lat": 0.0, "lat": 38.8753965, "type": "electric_scooter", "lon": -77.00064283333333, "bike_id": "b0cf1a5374426bc2491fc14abc857f37", "rental_uris": {"android": "https://dc.lft.to/lastmile_qr_scan", "ios": "https://dc.lft.to/lastmile_qr_scan"}, "name": "b0cf1a5374426bc2491fc14abc857f37", "is_reserved": 0}, {"is_disabled": 0, "fusion_lon": 0.0, "fusion_lat": 0.0, "lat": 38.915215, "type": "electric_scooter", "lon": -77.0198035, "bike_id": "3bc42117ebe0aebfd92f6f19c01ac6a6", "rental_uris": {"android": "https://dc.lft.to/lastmile_qr_scan", "ios": "https://dc.lft.to/lastmile_qr_scan"}, "name": "3bc42117ebe0aebfd92f6f19c01ac6a6", "is_reserved": 0}, {"is_disabled": 0, "fusion_lon": 0.0, "fusion_lat": 0.0, "lat": 38.92986766666667, "type": "electric_scooter", "lon": -77.02318166666667, "bike_id": "63f56311e06ad5a4dceb633a4be21383", "rental_uris": {"android": "https://dc.lft.to/lastmile_qr_scan", "ios": "https://dc.lft.to/lastmile_qr_scan"}, "name": "63f56311e06ad5a4dceb633a4be21383", "is_reserved": 0}, {"is_disabled": 0, "fusion_lon": 0.0, "fusion_lat": 0.0, "lat": 38.842979666666665, "type": "electric_scooter", "lon": -76.99947733333333, "bike_id": "671b104a6986f16f04f4bbe5a32027df", "rental_uris": {"android": "https://dc.lft.to/lastmile_qr_scan", "ios": "https://dc.lft.to/lastmile_qr_scan"}, "name": "671b104a6986f16f04f4bbe5a32027df", "is_reserved": 0}, {"is_disabled": 0, "fusion_lon": 0.0, "fusion_lat": 0.0, "lat": 38.964512666666664, "type": "electric_bike", "lon": -76.9772385, "bike_id": "444fc8b5a3b1abef3c9765f8b090b769", "rental_uris": {"android": "https://dc.lft.to/lastmile_qr_scan", "ios": "https://dc.lft.to/lastmile_qr_scan"}, "name": "444fc8b5a3b1abef3c9765f8b090b769", "is_reserved": 0}, {"is_disabled": 0, "fusion_lon": 0.0, "fusion_lat": 0.0, "lat": 38.9405765, "type": "electric_scooter", "lon": -77.02490383333334, "bike_id": "ad5e8f40aeb7ba2da860129fd42cc839", "rental_uris": {"android": "https://dc.lft.to/lastmile_qr_scan", "ios": "https://dc.lft.to/lastmile_qr_scan"}, "name": "ad5e8f40aeb7ba2da860129fd42cc839", "is_reserved": 0}, {"is_disabled": 0, "fusion_lon": 0.0, "fusion_lat": 0.0, "lat": 39.030016833333335, "type": "electric_bike", "lon": -77.10652466666667, "bike_id": "de53c85661f068aeab29ac6fc81a2f5b", "rental_uris": {"android": "https://dc.lft.to/lastmile_qr_scan", "ios": "https://dc.lft.to/lastmile_qr_scan"}, "name": "de53c85661f068aeab29ac6fc81a2f5b", "is_reserved": 0}, {"is_disabled": 0, "fusion_lon": 0.0, "fusion_lat": 0.0, "lat": 38.88748866666667, "type": "electric_scooter", "lon": -77.0160215, "bike_id": "07f24a5f413c4e1006696beb2d17441b", "rental_uris": {"android": "https://dc.lft.to/lastmile_qr_scan", "ios": "https://dc.lft.to/lastmile_qr_scan"}, "name": "07f24a5f413c4e1006696beb2d17441b", "is_reserved": 0}, {"is_disabled": 0, "fusion_lon": 0.0, "fusion_lat": 0.0, "lat": 38.9118705, "type": "electric_scooter", "lon": -77.01877333333333, "bike_id": "8cc69cb5bcebbc0ac6ff34e200096224", "rental_uris": {"android": "https://dc.lft.to/lastmile_qr_scan", "ios": "https://dc.lft.to/lastmile_qr_scan"}, "name": "8cc69cb5bcebbc0ac6ff34e200096224", "is_reserved": 0}, {"is_disabled": 0, "fusion_lon": 0.0, "fusion_lat": 0.0, "lat": 38.8995705, "type": "electric_scooter", "lon": -77.05221983333334, "bike_id": "b9e2000e91768bf71c8f59b6b1706e7d", "rental_uris": {"android": "https://dc.lft.to/lastmile_qr_scan", "ios": "https://dc.lft.to/lastmile_qr_scan"}, "name": "b9e2000e91768bf71c8f59b6b1706e7d", "is_reserved": 0}, {"is_disabled": 0, "fusion_lon": 0.0, "fusion_lat": 0.0, "lat": 38.918283333333335, "type": "electric_scooter", "lon": -77.0365575, "bike_id": "7f611d8d843c00a2c0354f2ca0b3dc3d", "rental_uris": {"android": "https://dc.lft.to/lastmile_qr_scan", "ios": "https://dc.lft.to/lastmile_qr_scan"}, "name": "7f611d8d843c00a2c0354f2ca0b3dc3d", "is_reserved": 0}, {"is_disabled": 0, "fusion_lon": 0.0, "fusion_lat": 0.0, "lat": 38.9430235, "type": "electric_scooter", "lon": -77.03351766666667, "bike_id": "1e838a55bd835c5c027732f68be8fd23", "rental_uris": {"android": "https://dc.lft.to/lastmile_qr_scan", "ios": "https://dc.lft.to/lastmile_qr_scan"}, "name": "1e838a55bd835c5c027732f68be8fd23", "is_reserved": 0}, {"is_disabled": 0, "fusion_lon": 0.0, "fusion_lat": 0.0, "lat": 38.88682433333334, "type": "electric_scooter", "lon": -77.0036385, "bike_id": "6d9a1c3fc7c3c97953b3e97137597963", "rental_uris": {"android": "https://dc.lft.to/lastmile_qr_scan", "ios": "https://dc.lft.to/lastmile_qr_scan"}, "name": "6d9a1c3fc7c3c97953b3e97137597963", "is_reserved": 0}, {"is_disabled": 0, "fusion_lon": 0.0, "fusion_lat": 0.0, "lat": 38.968186833333334, "type": "electric_scooter", "lon": -77.008867, "bike_id": "b9b5dbdccff4370aac181b2fa79b13ab", "rental_uris": {"android": "https://dc.lft.to/lastmile_qr_scan", "ios": "https://dc.lft.to/lastmile_qr_scan"}, "name": "b9b5dbdccff4370aac181b2fa79b13ab", "is_reserved": 0}, {"is_disabled": 0, "fusion_lon": 0.0, "fusion_lat": 0.0, "lat": 39.052092, "type": "electric_bike", "lon": -77.044098, "bike_id": "d29d2e7e1c0c18775ad9def10030ec62", "rental_uris": {"android": "https://dc.lft.to/lastmile_qr_scan", "ios": "https://dc.lft.to/lastmile_qr_scan"}, "name": "d29d2e7e1c0c18775ad9def10030ec62", "is_reserved": 0}, {"is_disabled": 0, "fusion_lon": 0.0, "fusion_lat": 0.0, "lat": 38.903618333333334, "type": "electric_scooter", "lon": -77.0344005, "bike_id": "17c51da673e35b86fb2528668abb5881", "rental_uris": {"android": "https://dc.lft.to/lastmile_qr_scan", "ios": "https://dc.lft.to/lastmile_qr_scan"}, "name": "17c51da673e35b86fb2528668abb5881", "is_reserved": 0}, {"is_disabled": 0, "fusion_lon": 0.0, "fusion_lat": 0.0, "lat": 38.9169845, "type": "electric_scooter", "lon": -77.042786, "bike_id": "2d1f3c6398e7903cd96b11b8e29ca4b5", "rental_uris": {"android": "https://dc.lft.to/lastmile_qr_scan", "ios": "https://dc.lft.to/lastmile_qr_scan"}, "name": "2d1f3c6398e7903cd96b11b8e29ca4b5", "is_reserved": 0}, {"is_disabled": 0, "fusion_lon": 0.0, "fusion_lat": 0.0, "lat": 38.91765633333333, "type": "electric_scooter", "lon": -77.01599433333334, "bike_id": "31505db0b70b31cdc5aae261e60db840", "rental_uris": {"android": "https://dc.lft.to/lastmile_qr_scan", "ios": "https://dc.lft.to/lastmile_qr_scan"}, "name": "31505db0b70b31cdc5aae261e60db840", "is_reserved": 0}, {"is_disabled": 0, "fusion_lon": 0.0, "fusion_lat": 0.0, "lat": 38.91117666666667, "type": "electric_scooter", "lon": -77.040917, "bike_id": "56504daba3cabb8c254ad4a256bd7f3b", "rental_uris": {"android": "https://dc.lft.to/lastmile_qr_scan", "ios": "https://dc.lft.to/lastmile_qr_scan"}, "name": "56504daba3cabb8c254ad4a256bd7f3b", "is_reserved": 0}, {"is_disabled": 0, "fusion_lon": 0.0, "fusion_lat": 0.0, "lat": 38.9166035, "type": "electric_scooter", "lon": -77.0465045, "bike_id": "748181f8218ee747f5b9145ba9f8b94f", "rental_uris": {"android": "https://dc.lft.to/lastmile_qr_scan", "ios": "https://dc.lft.to/lastmile_qr_scan"}, "name": "748181f8218ee747f5b9145ba9f8b94f", "is_reserved": 0}, {"is_disabled": 0, "fusion_lon": 0.0, "fusion_lat": 0.0, "lat": 38.89731666666667, "type": "electric_bike", "lon": -76.9053805, "bike_id": "a266a0bb33cfcda292bf826f1859b877", "rental_uris": {"android": "https://dc.lft.to/lastmile_qr_scan", "ios": "https://dc.lft.to/lastmile_qr_scan"}, "name": "a266a0bb33cfcda292bf826f1859b877", "is_reserved": 0}, {"is_disabled": 0, "fusion_lon": 0.0, "fusion_lat": 0.0, "lat": 38.91368883333333, "type": "electric_scooter", "lon": -77.04158816666667, "bike_id": "1eee4cb8af03ebb7dd99aeebf77723ea", "rental_uris": {"android": "https://dc.lft.to/lastmile_qr_scan", "ios": "https://dc.lft.to/lastmile_qr_scan"}, "name": "1eee4cb8af03ebb7dd99aeebf77723ea", "is_reserved": 0}, {"is_disabled": 0, "fusion_lon": 0.0, "fusion_lat": 0.0, "lat": 38.913281166666664, "type": "electric_scooter", "lon": -77.02189266666667, "bike_id": "77d1a9a8f78198c6b57feabca7c4f2b1", "rental_uris": {"android": "https://dc.lft.to/lastmile_qr_scan", "ios": "https://dc.lft.to/lastmile_qr_scan"}, "name": "77d1a9a8f78198c6b57feabca7c4f2b1", "is_reserved": 0}, {"is_disabled": 0, "fusion_lon": 0.0, "fusion_lat": 0.0, "lat": 38.89546883333333, "type": "electric_scooter", "lon": -77.01530283333334, "bike_id": "6fa6931390601c7d6561b37822a4869b", "rental_uris": {"android": "https://dc.lft.to/lastmile_qr_scan", "ios": "https://dc.lft.to/lastmile_qr_scan"}, "name": "6fa6931390601c7d6561b37822a4869b", "is_reserved": 0}, {"is_disabled": 0, "fusion_lon": 0.0, "fusion_lat": 0.0, "lat": 38.9079445, "type": "electric_scooter", "lon": -77.02383466666667, "bike_id": "578430f3193dee48a60d7341092c781a", "rental_uris": {"android": "https://dc.lft.to/lastmile_qr_scan", "ios": "https://dc.lft.to/lastmile_qr_scan"}, "name": "578430f3193dee48a60d7341092c781a", "is_reserved": 0}, {"is_disabled": 0, "fusion_lon": 0.0, "fusion_lat": 0.0, "lat": 38.91811333333333, "type": "electric_scooter", "lon": -76.9996075, "bike_id": "2cbd115563b0741b228d6a2fce4c13e3", "rental_uris": {"android": "https://dc.lft.to/lastmile_qr_scan", "ios": "https://dc.lft.to/lastmile_qr_scan"}, "name": "2cbd115563b0741b228d6a2fce4c13e3", "is_reserved": 0}, {"is_disabled": 0, "fusion_lon": 0.0, "fusion_lat": 0.0, "lat": 38.85289216666666, "type": "electric_bike", "lon": -76.98155316666667, "bike_id": "0ae6b1ac1e0897ab565ac69d2c8ac283", "rental_uris": {"android": "https://dc.lft.to/lastmile_qr_scan", "ios": "https://dc.lft.to/lastmile_qr_scan"}, "name": "0ae6b1ac1e0897ab565ac69d2c8ac283", "is_reserved": 0}, {"is_disabled": 0, "fusion_lon": 0.0, "fusion_lat": 0.0, "lat": 38.8578925, "type": "electric_bike", "lon": -76.9875235, "bike_id": "41d6e8d7be0b6c2319e3e8b45b727e6f", "rental_uris": {"android": "https://dc.lft.to/lastmile_qr_scan", "ios": "https://dc.lft.to/lastmile_qr_scan"}, "name": "41d6e8d7be0b6c2319e3e8b45b727e6f", "is_reserved": 0}, {"is_disabled": 0, "fusion_lon": 0.0, "fusion_lat": 0.0, "lat": 38.91624216666666, "type": "electric_scooter", "lon": -77.03202566666667, "bike_id": "3ab69baa39953ee4144beb4d8b3ba471", "rental_uris": {"android": "https://dc.lft.to/lastmile_qr_scan", "ios": "https://dc.lft.to/lastmile_qr_scan"}, "name": "3ab69baa39953ee4144beb4d8b3ba471", "is_reserved": 0}, {"is_disabled": 0, "fusion_lon": 0.0, "fusion_lat": 0.0, "lat": 38.900127833333336, "type": "electric_scooter", "lon": -77.033614, "bike_id": "ec22bddcf82eb1d8fd418ded64443b3d", "rental_uris": {"android": "https://dc.lft.to/lastmile_qr_scan", "ios": "https://dc.lft.to/lastmile_qr_scan"}, "name": "ec22bddcf82eb1d8fd418ded64443b3d", "is_reserved": 0}, {"is_disabled": 0, "fusion_lon": 0.0, "fusion_lat": 0.0, "lat": 38.905662, "type": "electric_scooter", "lon": -77.036772, "bike_id": "147be91ed67aac81b6314c2b03a434cd", "rental_uris": {"android": "https://dc.lft.to/lastmile_qr_scan", "ios": "https://dc.lft.to/lastmile_qr_scan"}, "name": "147be91ed67aac81b6314c2b03a434cd", "is_reserved": 0}, {"is_disabled": 0, "fusion_lon": 0.0, "fusion_lat": 0.0, "lat": 38.90534533333334, "type": "electric_bike", "lon": -77.05685766666667, "bike_id": "c179af4f988d5ffc1c63ca22bf5ff2f8", "rental_uris": {"android": "https://dc.lft.to/lastmile_qr_scan", "ios": "https://dc.lft.to/lastmile_qr_scan"}, "name": "c179af4f988d5ffc1c63ca22bf5ff2f8", "is_reserved": 0}, {"is_disabled": 0, "fusion_lon": 0.0, "fusion_lat": 0.0, "lat": 38.91407516666666, "type": "electric_scooter", "lon": -77.0316775, "bike_id": "df48cfb2e897e38ff94f3a3d629fcd2a", "rental_uris": {"android": "https://dc.lft.to/lastmile_qr_scan", "ios": "https://dc.lft.to/lastmile_qr_scan"}, "name": "df48cfb2e897e38ff94f3a3d629fcd2a", "is_reserved": 0}, {"is_disabled": 0, "fusion_lon": 0.0, "fusion_lat": 0.0, "lat": 38.94335483333333, "type": "electric_bike", "lon": -77.014759, "bike_id": "f067f010ff0535f71f8fcc5f2663a9a9", "rental_uris": {"android": "https://dc.lft.to/lastmile_qr_scan", "ios": "https://dc.lft.to/lastmile_qr_scan"}, "name": "f067f010ff0535f71f8fcc5f2663a9a9", "is_reserved": 0}, {"is_disabled": 0, "fusion_lon": 0.0, "fusion_lat": 0.0, "lat": 38.92132466666666, "type": "electric_scooter", "lon": -77.04428333333334, "bike_id": "44dcb72a6fee450256be1f1d111cfefd", "rental_uris": {"android": "https://dc.lft.to/lastmile_qr_scan", "ios": "https://dc.lft.to/lastmile_qr_scan"}, "name": "44dcb72a6fee450256be1f1d111cfefd", "is_reserved": 0}, {"is_disabled": 0, "fusion_lon": 0.0, "fusion_lat": 0.0, "lat": 38.89909883333333, "type": "electric_scooter", "lon": -77.03328066666667, "bike_id": "3ac827fad9803e4db9a0cf287fe0fabd", "rental_uris": {"android": "https://dc.lft.to/lastmile_qr_scan", "ios": "https://dc.lft.to/lastmile_qr_scan"}, "name": "3ac827fad9803e4db9a0cf287fe0fabd", "is_reserved": 0}, {"is_disabled": 0, "fusion_lon": 0.0, "fusion_lat": 0.0, "lat": 38.930604, "type": "electric_scooter", "lon": -77.02963366666667, "bike_id": "485bb02f903e1edb066b378f4c03a6c8", "rental_uris": {"android": "https://dc.lft.to/lastmile_qr_scan", "ios": "https://dc.lft.to/lastmile_qr_scan"}, "name": "485bb02f903e1edb066b378f4c03a6c8", "is_reserved": 0}, {"is_disabled": 0, "fusion_lon": 0.0, "fusion_lat": 0.0, "lat": 38.930812, "type": "electric_scooter", "lon": -77.036303, "bike_id": "e9592682351dc5afdeb15ac7897efd8d", "rental_uris": {"android": "https://dc.lft.to/lastmile_qr_scan", "ios": "https://dc.lft.to/lastmile_qr_scan"}, "name": "e9592682351dc5afdeb15ac7897efd8d", "is_reserved": 0}, {"is_disabled": 0, "fusion_lon": 0.0, "fusion_lat": 0.0, "lat": 38.943148, "type": "electric_scooter", "lon": -77.06165966666667, "bike_id": "f01a7a46a9743c77ae51d87bdffd5919", "rental_uris": {"android": "https://dc.lft.to/lastmile_qr_scan", "ios": "https://dc.lft.to/lastmile_qr_scan"}, "name": "f01a7a46a9743c77ae51d87bdffd5919", "is_reserved": 0}, {"is_disabled": 0, "fusion_lon": 0.0, "fusion_lat": 0.0, "lat": 39.02689066666667, "type": "electric_bike", "lon": -77.12595166666667, "bike_id": "d5baa5cb8014f9870136c93ef65a9eae", "rental_uris": {"android": "https://dc.lft.to/lastmile_qr_scan", "ios": "https://dc.lft.to/lastmile_qr_scan"}, "name": "d5baa5cb8014f9870136c93ef65a9eae", "is_reserved": 0}, {"is_disabled": 0, "fusion_lon": 0.0, "fusion_lat": 0.0, "lat": 38.919076833333335, "type": "electric_scooter", "lon": -77.02595133333334, "bike_id": "e9522c9db7aed931dad2e26fa3317d3e", "rental_uris": {"android": "https://dc.lft.to/lastmile_qr_scan", "ios": "https://dc.lft.to/lastmile_qr_scan"}, "name": "e9522c9db7aed931dad2e26fa3317d3e", "is_reserved": 0}, {"is_disabled": 0, "fusion_lon": 0.0, "fusion_lat": 0.0, "lat": 38.909648, "type": "electric_scooter", "lon": -77.02743133333334, "bike_id": "2b832991bb5fa31fece61930f08d60f4", "rental_uris": {"android": "https://dc.lft.to/lastmile_qr_scan", "ios": "https://dc.lft.to/lastmile_qr_scan"}, "name": "2b832991bb5fa31fece61930f08d60f4", "is_reserved": 0}, {"is_disabled": 0, "fusion_lon": 0.0, "fusion_lat": 0.0, "lat": 38.923203, "type": "electric_scooter", "lon": -77.04002866666667, "bike_id": "3591f11c5422feb08a6dd65e7e90aebe", "rental_uris": {"android": "https://dc.lft.to/lastmile_qr_scan", "ios": "https://dc.lft.to/lastmile_qr_scan"}, "name": "3591f11c5422feb08a6dd65e7e90aebe", "is_reserved": 0}, {"is_disabled": 0, "fusion_lon": 0.0, "fusion_lat": 0.0, "lat": 38.91112866666667, "type": "electric_scooter", "lon": -77.06523316666667, "bike_id": "4ca96eb5b5af68977a0fdc4435f2fb3b", "rental_uris": {"android": "https://dc.lft.to/lastmile_qr_scan", "ios": "https://dc.lft.to/lastmile_qr_scan"}, "name": "4ca96eb5b5af68977a0fdc4435f2fb3b", "is_reserved": 0}, {"is_disabled": 0, "fusion_lon": 0.0, "fusion_lat": 0.0, "lat": 39.05270483333334, "type": "electric_bike", "lon": -77.04384616666667, "bike_id": "9e1fff5815a49978fdbfc9a2a2c307ca", "rental_uris": {"android": "https://dc.lft.to/lastmile_qr_scan", "ios": "https://dc.lft.to/lastmile_qr_scan"}, "name": "9e1fff5815a49978fdbfc9a2a2c307ca", "is_reserved": 0}, {"is_disabled": 0, "fusion_lon": 0.0, "fusion_lat": 0.0, "lat": 38.94900716666667, "type": "electric_bike", "lon": -76.96369283333334, "bike_id": "7812e241de61b6ce32dfee484a5999ea", "rental_uris": {"android": "https://dc.lft.to/lastmile_qr_scan", "ios": "https://dc.lft.to/lastmile_qr_scan"}, "name": "7812e241de61b6ce32dfee484a5999ea", "is_reserved": 0}, {"is_disabled": 0, "fusion_lon": 0.0, "fusion_lat": 0.0, "lat": 38.90959866666667, "type": "electric_scooter", "lon": -77.03948966666667, "bike_id": "ee8b8d3f73b5fb1880f3f180ccca54db", "rental_uris": {"android": "https://dc.lft.to/lastmile_qr_scan", "ios": "https://dc.lft.to/lastmile_qr_scan"}, "name": "ee8b8d3f73b5fb1880f3f180ccca54db", "is_reserved": 0}, {"is_disabled": 0, "fusion_lon": 0.0, "fusion_lat": 0.0, "lat": 38.915995333333335, "type": "electric_scooter", "lon": -77.07277383333333, "bike_id": "dd44b41fa539585b2b8109f3142468ed", "rental_uris": {"android": "https://dc.lft.to/lastmile_qr_scan", "ios": "https://dc.lft.to/lastmile_qr_scan"}, "name": "dd44b41fa539585b2b8109f3142468ed", "is_reserved": 0}, {"is_disabled": 0, "fusion_lon": 0.0, "fusion_lat": 0.0, "lat": 38.91708083333333, "type": "electric_scooter", "lon": -77.00113183333333, "bike_id": "4ee1cd84a0de211972900650730e21ef", "rental_uris": {"android": "https://dc.lft.to/lastmile_qr_scan", "ios": "https://dc.lft.to/lastmile_qr_scan"}, "name": "4ee1cd84a0de211972900650730e21ef", "is_reserved": 0}, {"is_disabled": 0, "fusion_lon": 0.0, "fusion_lat": 0.0, "lat": 38.917076333333334, "type": "electric_bike", "lon": -77.095626, "bike_id": "9f5cf0d0d6d39081fe2e29337b046d02", "rental_uris": {"android": "https://dc.lft.to/lastmile_qr_scan", "ios": "https://dc.lft.to/lastmile_qr_scan"}, "name": "9f5cf0d0d6d39081fe2e29337b046d02", "is_reserved": 0}, {"is_disabled": 0, "fusion_lon": 0.0, "fusion_lat": 0.0, "lat": 38.923246, "type": "electric_scooter", "lon": -77.03809583333333, "bike_id": "d025293c452bf931a84c9e2e359a98a2", "rental_uris": {"android": "https://dc.lft.to/lastmile_qr_scan", "ios": "https://dc.lft.to/lastmile_qr_scan"}, "name": "d025293c452bf931a84c9e2e359a98a2", "is_reserved": 0}, {"is_disabled": 0, "fusion_lon": 0.0, "fusion_lat": 0.0, "lat": 38.916452666666665, "type": "electric_scooter", "lon": -77.02288566666667, "bike_id": "1396d88ac7b4b75e64bb76ebf052a366", "rental_uris": {"android": "https://dc.lft.to/lastmile_qr_scan", "ios": "https://dc.lft.to/lastmile_qr_scan"}, "name": "1396d88ac7b4b75e64bb76ebf052a366", "is_reserved": 0}, {"is_disabled": 0, "fusion_lon": 0.0, "fusion_lat": 0.0, "lat": 38.86608666666667, "type": "electric_scooter", "lon": -77.01070383333334, "bike_id": "9d33ff9bd6ffc482a4659d572bed77e8", "rental_uris": {"android": "https://dc.lft.to/lastmile_qr_scan", "ios": "https://dc.lft.to/lastmile_qr_scan"}, "name": "9d33ff9bd6ffc482a4659d572bed77e8", "is_reserved": 0}, {"is_disabled": 0, "fusion_lon": 0.0, "fusion_lat": 0.0, "lat": 38.89653233333333, "type": "electric_scooter", "lon": -77.0271395, "bike_id": "36014e800cf72eff793ddc500a4a624e", "rental_uris": {"android": "https://dc.lft.to/lastmile_qr_scan", "ios": "https://dc.lft.to/lastmile_qr_scan"}, "name": "36014e800cf72eff793ddc500a4a624e", "is_reserved": 0}, {"is_disabled": 0, "fusion_lon": 0.0, "fusion_lat": 0.0, "lat": 38.936426, "type": "electric_scooter", "lon": -77.02691466666667, "bike_id": "48a80f883388e4e4baba7090cb2b2299", "rental_uris": {"android": "https://dc.lft.to/lastmile_qr_scan", "ios": "https://dc.lft.to/lastmile_qr_scan"}, "name": "48a80f883388e4e4baba7090cb2b2299", "is_reserved": 0}, {"is_disabled": 0, "fusion_lon": 0.0, "fusion_lat": 0.0, "lat": 38.892266166666666, "type": "electric_scooter", "lon": -77.0318015, "bike_id": "091adccad74a6e3a617d64196ca449e2", "rental_uris": {"android": "https://dc.lft.to/lastmile_qr_scan", "ios": "https://dc.lft.to/lastmile_qr_scan"}, "name": "091adccad74a6e3a617d64196ca449e2", "is_reserved": 0}, {"is_disabled": 0, "fusion_lon": 0.0, "fusion_lat": 0.0, "lat": 38.897535500000004, "type": "electric_scooter", "lon": -77.05154316666666, "bike_id": "0554c5ee60f8d3c4a38af9f223ed93db", "rental_uris": {"android": "https://dc.lft.to/lastmile_qr_scan", "ios": "https://dc.lft.to/lastmile_qr_scan"}, "name": "0554c5ee60f8d3c4a38af9f223ed93db", "is_reserved": 0}, {"is_disabled": 0, "fusion_lon": 0.0, "fusion_lat": 0.0, "lat": 38.935246, "type": "electric_scooter", "lon": -77.06638516666666, "bike_id": "fca3c9f78d495053d885df584419f9db", "rental_uris": {"android": "https://dc.lft.to/lastmile_qr_scan", "ios": "https://dc.lft.to/lastmile_qr_scan"}, "name": "fca3c9f78d495053d885df584419f9db", "is_reserved": 0}, {"is_disabled": 0, "fusion_lon": 0.0, "fusion_lat": 0.0, "lat": 38.93084983333333, "type": "electric_scooter", "lon": -77.03628983333333, "bike_id": "64f4f8c08e4b89ce490cd951492bc04d", "rental_uris": {"android": "https://dc.lft.to/lastmile_qr_scan", "ios": "https://dc.lft.to/lastmile_qr_scan"}, "name": "64f4f8c08e4b89ce490cd951492bc04d", "is_reserved": 0}, {"is_disabled": 0, "fusion_lon": 0.0, "fusion_lat": 0.0, "lat": 38.89843366666667, "type": "electric_scooter", "lon": -77.026535, "bike_id": "1ae0da6cfca788cc4bc095c713e94297", "rental_uris": {"android": "https://dc.lft.to/lastmile_qr_scan", "ios": "https://dc.lft.to/lastmile_qr_scan"}, "name": "1ae0da6cfca788cc4bc095c713e94297", "is_reserved": 0}, {"is_disabled": 0, "fusion_lon": 0.0, "fusion_lat": 0.0, "lat": 38.92429516666667, "type": "electric_scooter", "lon": -77.04476883333334, "bike_id": "06e417cf633f71f586bf9be98f87d3d1", "rental_uris": {"android": "https://dc.lft.to/lastmile_qr_scan", "ios": "https://dc.lft.to/lastmile_qr_scan"}, "name": "06e417cf633f71f586bf9be98f87d3d1", "is_reserved": 0}, {"is_disabled": 0, "fusion_lon": 0.0, "fusion_lat": 0.0, "lat": 38.90853083333333, "type": "electric_scooter", "lon": -77.06079083333333, "bike_id": "ac64d68c3b3c1bd5e8222df620cdd29d", "rental_uris": {"android": "https://dc.lft.to/lastmile_qr_scan", "ios": "https://dc.lft.to/lastmile_qr_scan"}, "name": "ac64d68c3b3c1bd5e8222df620cdd29d", "is_reserved": 0}, {"is_disabled": 0, "fusion_lon": 0.0, "fusion_lat": 0.0, "lat": 38.903022166666666, "type": "electric_scooter", "lon": -77.03856066666667, "bike_id": "5845b98819c3a11c2d87106aa8ba49b1", "rental_uris": {"android": "https://dc.lft.to/lastmile_qr_scan", "ios": "https://dc.lft.to/lastmile_qr_scan"}, "name": "5845b98819c3a11c2d87106aa8ba49b1", "is_reserved": 0}, {"is_disabled": 0, "fusion_lon": 0.0, "fusion_lat": 0.0, "lat": 38.916332833333335, "type": "electric_scooter", "lon": -77.04019733333334, "bike_id": "bcf26c34a47182d1cc52adc15760c8d2", "rental_uris": {"android": "https://dc.lft.to/lastmile_qr_scan", "ios": "https://dc.lft.to/lastmile_qr_scan"}, "name": "bcf26c34a47182d1cc52adc15760c8d2", "is_reserved": 0}, {"is_disabled": 0, "fusion_lon": 0.0, "fusion_lat": 0.0, "lat": 38.90283633333333, "type": "electric_scooter", "lon": -77.05324866666666, "bike_id": "8ecaa0edc44641322c2e7ffee403eec3", "rental_uris": {"android": "https://dc.lft.to/lastmile_qr_scan", "ios": "https://dc.lft.to/lastmile_qr_scan"}, "name": "8ecaa0edc44641322c2e7ffee403eec3", "is_reserved": 0}, {"is_disabled": 0, "fusion_lon": 0.0, "fusion_lat": 0.0, "lat": 38.907803, "type": "electric_scooter", "lon": -77.0321355, "bike_id": "840d5a616c98b0e4bb93934810c6ba16", "rental_uris": {"android": "https://dc.lft.to/lastmile_qr_scan", "ios": "https://dc.lft.to/lastmile_qr_scan"}, "name": "840d5a616c98b0e4bb93934810c6ba16", "is_reserved": 0}, {"is_disabled": 0, "fusion_lon": 0.0, "fusion_lat": 0.0, "lat": 38.895455166666665, "type": "electric_scooter", "lon": -77.03296383333333, "bike_id": "fbdccd1dec1d1ca7773cc09b8ba30b86", "rental_uris": {"android": "https://dc.lft.to/lastmile_qr_scan", "ios": "https://dc.lft.to/lastmile_qr_scan"}, "name": "fbdccd1dec1d1ca7773cc09b8ba30b86", "is_reserved": 0}, {"is_disabled": 0, "fusion_lon": 0.0, "fusion_lat": 0.0, "lat": 38.897308833333334, "type": "electric_scooter", "lon": -77.02166633333333, "bike_id": "ce7cb024c48bf97ae97f44d7e59d548e", "rental_uris": {"android": "https://dc.lft.to/lastmile_qr_scan", "ios": "https://dc.lft.to/lastmile_qr_scan"}, "name": "ce7cb024c48bf97ae97f44d7e59d548e", "is_reserved": 0}, {"is_disabled": 0, "fusion_lon": 0.0, "fusion_lat": 0.0, "lat": 38.884864666666665, "type": "electric_scooter", "lon": -76.92966283333334, "bike_id": "a4f69a7a79dd8ee74df2111691569030", "rental_uris": {"android": "https://dc.lft.to/lastmile_qr_scan", "ios": "https://dc.lft.to/lastmile_qr_scan"}, "name": "a4f69a7a79dd8ee74df2111691569030", "is_reserved": 0}, {"is_disabled": 0, "fusion_lon": 0.0, "fusion_lat": 0.0, "lat": 38.925329833333336, "type": "electric_scooter", "lon": -77.04415766666666, "bike_id": "7dbde61f234a192707dd126ba5cad586", "rental_uris": {"android": "https://dc.lft.to/lastmile_qr_scan", "ios": "https://dc.lft.to/lastmile_qr_scan"}, "name": "7dbde61f234a192707dd126ba5cad586", "is_reserved": 0}, {"is_disabled": 0, "fusion_lon": 0.0, "fusion_lat": 0.0, "lat": 38.9192235, "type": "electric_scooter", "lon": -77.04171466666666, "bike_id": "7e957145403919ff4137d666254d6457", "rental_uris": {"android": "https://dc.lft.to/lastmile_qr_scan", "ios": "https://dc.lft.to/lastmile_qr_scan"}, "name": "7e957145403919ff4137d666254d6457", "is_reserved": 0}, {"is_disabled": 0, "fusion_lon": 0.0, "fusion_lat": 0.0, "lat": 38.897997, "type": "electric_scooter", "lon": -77.00356783333334, "bike_id": "30b28a8cec5a614b500f0ad12d45ecb3", "rental_uris": {"android": "https://dc.lft.to/lastmile_qr_scan", "ios": "https://dc.lft.to/lastmile_qr_scan"}, "name": "30b28a8cec5a614b500f0ad12d45ecb3", "is_reserved": 0}, {"is_disabled": 0, "fusion_lon": 0.0, "fusion_lat": 0.0, "lat": 38.88966466666667, "type": "electric_scooter", "lon": -76.99138, "bike_id": "fa8b14c9858ccd78b1be36d5d81887ed", "rental_uris": {"android": "https://dc.lft.to/lastmile_qr_scan", "ios": "https://dc.lft.to/lastmile_qr_scan"}, "name": "fa8b14c9858ccd78b1be36d5d81887ed", "is_reserved": 0}, {"is_disabled": 0, "fusion_lon": 0.0, "fusion_lat": 0.0, "lat": 38.89392566666667, "type": "electric_scooter", "lon": -76.95000366666666, "bike_id": "10acfd09e0e92c514cd10b2082ff0e58", "rental_uris": {"android": "https://dc.lft.to/lastmile_qr_scan", "ios": "https://dc.lft.to/lastmile_qr_scan"}, "name": "10acfd09e0e92c514cd10b2082ff0e58", "is_reserved": 0}, {"is_disabled": 0, "fusion_lon": 0.0, "fusion_lat": 0.0, "lat": 38.9213335, "type": "electric_scooter", "lon": -77.03664116666667, "bike_id": "fffe51e3b8290177eb14649060597650", "rental_uris": {"android": "https://dc.lft.to/lastmile_qr_scan", "ios": "https://dc.lft.to/lastmile_qr_scan"}, "name": "fffe51e3b8290177eb14649060597650", "is_reserved": 0}, {"is_disabled": 0, "fusion_lon": 0.0, "fusion_lat": 0.0, "lat": 38.888547, "type": "electric_bike", "lon": -76.97704933333333, "bike_id": "a315bb70792a62e9d3af98e625e0b61e", "rental_uris": {"android": "https://dc.lft.to/lastmile_qr_scan", "ios": "https://dc.lft.to/lastmile_qr_scan"}, "name": "a315bb70792a62e9d3af98e625e0b61e", "is_reserved": 0}, {"is_disabled": 0, "fusion_lon": 0.0, "fusion_lat": 0.0, "lat": 38.896102, "type": "electric_scooter", "lon": -77.009198, "bike_id": "ed8a11b1cc372159f09132d6226bf07c", "rental_uris": {"android": "https://dc.lft.to/lastmile_qr_scan", "ios": "https://dc.lft.to/lastmile_qr_scan"}, "name": "ed8a11b1cc372159f09132d6226bf07c", "is_reserved": 0}, {"is_disabled": 0, "fusion_lon": 0.0, "fusion_lat": 0.0, "lat": 38.91039983333334, "type": "electric_scooter", "lon": -77.03796116666666, "bike_id": "7914e7044013dd514c1c5056add5d71b", "rental_uris": {"android": "https://dc.lft.to/lastmile_qr_scan", "ios": "https://dc.lft.to/lastmile_qr_scan"}, "name": "7914e7044013dd514c1c5056add5d71b", "is_reserved": 0}, {"is_disabled": 0, "fusion_lon": 0.0, "fusion_lat": 0.0, "lat": 38.928443666666666, "type": "electric_scooter", "lon": -77.055486, "bike_id": "088580ac7f71a74d5f52660bd7aba640", "rental_uris": {"android": "https://dc.lft.to/lastmile_qr_scan", "ios": "https://dc.lft.to/lastmile_qr_scan"}, "name": "088580ac7f71a74d5f52660bd7aba640", "is_reserved": 0}, {"is_disabled": 0, "fusion_lon": 0.0, "fusion_lat": 0.0, "lat": 39.054589666666665, "type": "electric_bike", "lon": -77.143249, "bike_id": "154677dc2ebe8892b729beddab8620ff", "rental_uris": {"android": "https://dc.lft.to/lastmile_qr_scan", "ios": "https://dc.lft.to/lastmile_qr_scan"}, "name": "154677dc2ebe8892b729beddab8620ff", "is_reserved": 0}, {"is_disabled": 0, "fusion_lon": 0.0, "fusion_lat": 0.0, "lat": 38.77622866666667, "type": "electric_bike", "lon": -77.08354716666666, "bike_id": "814d8514d28bbcc382f0dd5119507cd4", "rental_uris": {"android": "https://dc.lft.to/lastmile_qr_scan", "ios": "https://dc.lft.to/lastmile_qr_scan"}, "name": "814d8514d28bbcc382f0dd5119507cd4", "is_reserved": 0}, {"is_disabled": 0, "fusion_lon": 0.0, "fusion_lat": 0.0, "lat": 38.90858733333334, "type": "electric_scooter", "lon": -77.05503533333334, "bike_id": "bc75ff21e424fcae2859e8e052ff51e4", "rental_uris": {"android": "https://dc.lft.to/lastmile_qr_scan", "ios": "https://dc.lft.to/lastmile_qr_scan"}, "name": "bc75ff21e424fcae2859e8e052ff51e4", "is_reserved": 0}, {"is_disabled": 0, "fusion_lon": 0.0, "fusion_lat": 0.0, "lat": 38.9075775, "type": "electric_bike", "lon": -77.0414685, "bike_id": "a24e31ebc6468801cd1cfb53f868277f", "rental_uris": {"android": "https://dc.lft.to/lastmile_qr_scan", "ios": "https://dc.lft.to/lastmile_qr_scan"}, "name": "a24e31ebc6468801cd1cfb53f868277f", "is_reserved": 0}, {"is_disabled": 0, "fusion_lon": 0.0, "fusion_lat": 0.0, "lat": 38.88491783333333, "type": "electric_scooter", "lon": -77.020808, "bike_id": "6b211e358bc6a8995f9d759a34ac66c9", "rental_uris": {"android": "https://dc.lft.to/lastmile_qr_scan", "ios": "https://dc.lft.to/lastmile_qr_scan"}, "name": "6b211e358bc6a8995f9d759a34ac66c9", "is_reserved": 0}, {"is_disabled": 0, "fusion_lon": 0.0, "fusion_lat": 0.0, "lat": 38.90512433333333, "type": "electric_scooter", "lon": -76.98239066666666, "bike_id": "3113c77798fd2f7a79fc908df2dd72cc", "rental_uris": {"android": "https://dc.lft.to/lastmile_qr_scan", "ios": "https://dc.lft.to/lastmile_qr_scan"}, "name": "3113c77798fd2f7a79fc908df2dd72cc", "is_reserved": 0}, {"is_disabled": 0, "fusion_lon": 0.0, "fusion_lat": 0.0, "lat": 38.887451666666664, "type": "electric_scooter", "lon": -77.0143255, "bike_id": "d4ded912a59776674174bad112f917dc", "rental_uris": {"android": "https://dc.lft.to/lastmile_qr_scan", "ios": "https://dc.lft.to/lastmile_qr_scan"}, "name": "d4ded912a59776674174bad112f917dc", "is_reserved": 0}, {"is_disabled": 0, "fusion_lon": 0.0, "fusion_lat": 0.0, "lat": 38.876731166666666, "type": "electric_scooter", "lon": -76.93193016666666, "bike_id": "5a0cdc22673e7f6d5d78a2a4521ed9b4", "rental_uris": {"android": "https://dc.lft.to/lastmile_qr_scan", "ios": "https://dc.lft.to/lastmile_qr_scan"}, "name": "5a0cdc22673e7f6d5d78a2a4521ed9b4", "is_reserved": 0}, {"is_disabled": 0, "fusion_lon": 0.0, "fusion_lat": 0.0, "lat": 38.90527983333333, "type": "electric_scooter", "lon": -77.06201983333334, "bike_id": "ee0cf232a0ec9b04b4b369e08f8256ff", "rental_uris": {"android": "https://dc.lft.to/lastmile_qr_scan", "ios": "https://dc.lft.to/lastmile_qr_scan"}, "name": "ee0cf232a0ec9b04b4b369e08f8256ff", "is_reserved": 0}, {"is_disabled": 0, "fusion_lon": 0.0, "fusion_lat": 0.0, "lat": 38.89490416666666, "type": "electric_scooter", "lon": -77.02203783333333, "bike_id": "3ad2c38e2024bdde3f7ac0494cfb470b", "rental_uris": {"android": "https://dc.lft.to/lastmile_qr_scan", "ios": "https://dc.lft.to/lastmile_qr_scan"}, "name": "3ad2c38e2024bdde3f7ac0494cfb470b", "is_reserved": 0}, {"is_disabled": 0, "fusion_lon": 0.0, "fusion_lat": 0.0, "lat": 38.950026333333334, "type": "electric_bike", "lon": -77.3530555, "bike_id": "9a095b8587442d6c27f89448af77c9aa", "rental_uris": {"android": "https://dc.lft.to/lastmile_qr_scan", "ios": "https://dc.lft.to/lastmile_qr_scan"}, "name": "9a095b8587442d6c27f89448af77c9aa", "is_reserved": 0}, {"is_disabled": 0, "fusion_lon": 0.0, "fusion_lat": 0.0, "lat": 38.8975025, "type": "electric_scooter", "lon": -77.04803566666666, "bike_id": "5f124afef1589c40a15d54e18d4fb413", "rental_uris": {"android": "https://dc.lft.to/lastmile_qr_scan", "ios": "https://dc.lft.to/lastmile_qr_scan"}, "name": "5f124afef1589c40a15d54e18d4fb413", "is_reserved": 0}, {"is_disabled": 0, "fusion_lon": 0.0, "fusion_lat": 0.0, "lat": 38.8782675, "type": "electric_scooter", "lon": -76.96316266666666, "bike_id": "040ebe0a5de4a6929ea8d3092d053333", "rental_uris": {"android": "https://dc.lft.to/lastmile_qr_scan", "ios": "https://dc.lft.to/lastmile_qr_scan"}, "name": "040ebe0a5de4a6929ea8d3092d053333", "is_reserved": 0}, {"is_disabled": 0, "fusion_lon": 0.0, "fusion_lat": 0.0, "lat": 38.903718166666664, "type": "electric_scooter", "lon": -77.02191916666666, "bike_id": "9da3dee85ef10b2946f0ea4ce6d739e1", "rental_uris": {"android": "https://dc.lft.to/lastmile_qr_scan", "ios": "https://dc.lft.to/lastmile_qr_scan"}, "name": "9da3dee85ef10b2946f0ea4ce6d739e1", "is_reserved": 0}, {"is_disabled": 0, "fusion_lon": 0.0, "fusion_lat": 0.0, "lat": 38.884183166666666, "type": "electric_scooter", "lon": -77.032993, "bike_id": "0cd4000e4710d681911dd1b9b1a06ce6", "rental_uris": {"android": "https://dc.lft.to/lastmile_qr_scan", "ios": "https://dc.lft.to/lastmile_qr_scan"}, "name": "0cd4000e4710d681911dd1b9b1a06ce6", "is_reserved": 0}, {"is_disabled": 0, "fusion_lon": 0.0, "fusion_lat": 0.0, "lat": 38.917941666666664, "type": "electric_scooter", "lon": -77.043575, "bike_id": "ce5dc0ec64abe0eb76a3de4c84c036b6", "rental_uris": {"android": "https://dc.lft.to/lastmile_qr_scan", "ios": "https://dc.lft.to/lastmile_qr_scan"}, "name": "ce5dc0ec64abe0eb76a3de4c84c036b6", "is_reserved": 0}, {"is_disabled": 0, "fusion_lon": 0.0, "fusion_lat": 0.0, "lat": 38.91143366666667, "type": "electric_bike", "lon": -77.01154533333333, "bike_id": "d28acfb23b50a84ce5d51890d48778df", "rental_uris": {"android": "https://dc.lft.to/lastmile_qr_scan", "ios": "https://dc.lft.to/lastmile_qr_scan"}, "name": "d28acfb23b50a84ce5d51890d48778df", "is_reserved": 0}, {"is_disabled": 0, "fusion_lon": 0.0, "fusion_lat": 0.0, "lat": 38.881296166666665, "type": "electric_scooter", "lon": -77.0207485, "bike_id": "6fc4fbe5a986b3047bf1751dc9edd87a", "rental_uris": {"android": "https://dc.lft.to/lastmile_qr_scan", "ios": "https://dc.lft.to/lastmile_qr_scan"}, "name": "6fc4fbe5a986b3047bf1751dc9edd87a", "is_reserved": 0}, {"is_disabled": 0, "fusion_lon": 0.0, "fusion_lat": 0.0, "lat": 38.9377655, "type": "electric_scooter", "lon": -77.02438133333334, "bike_id": "31b3297cce4981d3ec581be2c370bfbe", "rental_uris": {"android": "https://dc.lft.to/lastmile_qr_scan", "ios": "https://dc.lft.to/lastmile_qr_scan"}, "name": "31b3297cce4981d3ec581be2c370bfbe", "is_reserved": 0}, {"is_disabled": 0, "fusion_lon": 0.0, "fusion_lat": 0.0, "lat": 38.92354733333333, "type": "electric_bike", "lon": -76.99245883333333, "bike_id": "c95b27626ac0143a845f30bcc3166ae5", "rental_uris": {"android": "https://dc.lft.to/lastmile_qr_scan", "ios": "https://dc.lft.to/lastmile_qr_scan"}, "name": "c95b27626ac0143a845f30bcc3166ae5", "is_reserved": 0}, {"is_disabled": 0, "fusion_lon": 0.0, "fusion_lat": 0.0, "lat": 38.90688633333333, "type": "electric_scooter", "lon": -77.02690416666667, "bike_id": "c1e9da984f233661cb66831b202c9733", "rental_uris": {"android": "https://dc.lft.to/lastmile_qr_scan", "ios": "https://dc.lft.to/lastmile_qr_scan"}, "name": "c1e9da984f233661cb66831b202c9733", "is_reserved": 0}, {"is_disabled": 0, "fusion_lon": 0.0, "fusion_lat": 0.0, "lat": 38.83686683333333, "type": "electric_bike", "lon": -77.049907, "bike_id": "fe60c2d214438883c2fe37fb002d91fc", "rental_uris": {"android": "https://dc.lft.to/lastmile_qr_scan", "ios": "https://dc.lft.to/lastmile_qr_scan"}, "name": "fe60c2d214438883c2fe37fb002d91fc", "is_reserved": 0}, {"is_disabled": 0, "fusion_lon": 0.0, "fusion_lat": 0.0, "lat": 38.909472, "type": "electric_scooter", "lon": -77.04662916666666, "bike_id": "8ad7ec6056eef3969dca6ec54eccb0a3", "rental_uris": {"android": "https://dc.lft.to/lastmile_qr_scan", "ios": "https://dc.lft.to/lastmile_qr_scan"}, "name": "8ad7ec6056eef3969dca6ec54eccb0a3", "is_reserved": 0}, {"is_disabled": 0, "fusion_lon": 0.0, "fusion_lat": 0.0, "lat": 38.896802666666666, "type": "electric_scooter", "lon": -77.01154083333333, "bike_id": "a2b58cbc655b04bc16200d16d7839df1", "rental_uris": {"android": "https://dc.lft.to/lastmile_qr_scan", "ios": "https://dc.lft.to/lastmile_qr_scan"}, "name": "a2b58cbc655b04bc16200d16d7839df1", "is_reserved": 0}, {"is_disabled": 0, "fusion_lon": 0.0, "fusion_lat": 0.0, "lat": 38.99075666666667, "type": "electric_bike", "lon": -77.02379833333333, "bike_id": "7cacd69757d5944104778ece800360e9", "rental_uris": {"android": "https://dc.lft.to/lastmile_qr_scan", "ios": "https://dc.lft.to/lastmile_qr_scan"}, "name": "7cacd69757d5944104778ece800360e9", "is_reserved": 0}, {"is_disabled": 0, "fusion_lon": 0.0, "fusion_lat": 0.0, "lat": 38.92116433333333, "type": "electric_scooter", "lon": -77.01766116666667, "bike_id": "e97dcb08901096e5eb1152714d51279e", "rental_uris": {"android": "https://dc.lft.to/lastmile_qr_scan", "ios": "https://dc.lft.to/lastmile_qr_scan"}, "name": "e97dcb08901096e5eb1152714d51279e", "is_reserved": 0}, {"is_disabled": 0, "fusion_lon": 0.0, "fusion_lat": 0.0, "lat": 38.89532533333333, "type": "electric_scooter", "lon": -77.0484735, "bike_id": "c5f7265a441b93dd5779a21f016a815b", "rental_uris": {"android": "https://dc.lft.to/lastmile_qr_scan", "ios": "https://dc.lft.to/lastmile_qr_scan"}, "name": "c5f7265a441b93dd5779a21f016a815b", "is_reserved": 0}, {"is_disabled": 0, "fusion_lon": 0.0, "fusion_lat": 0.0, "lat": 38.93967816666667, "type": "electric_bike", "lon": -77.3609245, "bike_id": "3394475cd619618e53f4052020059f74", "rental_uris": {"android": "https://dc.lft.to/lastmile_qr_scan", "ios": "https://dc.lft.to/lastmile_qr_scan"}, "name": "3394475cd619618e53f4052020059f74", "is_reserved": 0}, {"is_disabled": 0, "fusion_lon": 0.0, "fusion_lat": 0.0, "lat": 38.90573766666667, "type": "electric_scooter", "lon": -77.0559215, "bike_id": "d7dae6b3eef914dc9e18638ab38cd338", "rental_uris": {"android": "https://dc.lft.to/lastmile_qr_scan", "ios": "https://dc.lft.to/lastmile_qr_scan"}, "name": "d7dae6b3eef914dc9e18638ab38cd338", "is_reserved": 0}, {"is_disabled": 0, "fusion_lon": 0.0, "fusion_lat": 0.0, "lat": 38.929785833333334, "type": "electric_scooter", "lon": -77.02793233333334, "bike_id": "f64942a8024c4e80cdabbd925709f655", "rental_uris": {"android": "https://dc.lft.to/lastmile_qr_scan", "ios": "https://dc.lft.to/lastmile_qr_scan"}, "name": "f64942a8024c4e80cdabbd925709f655", "is_reserved": 0}, {"is_disabled": 0, "fusion_lon": 0.0, "fusion_lat": 0.0, "lat": 38.924641333333334, "type": "electric_scooter", "lon": -77.07861933333334, "bike_id": "fc3ad123d74df2811e029c2f4095fda4", "rental_uris": {"android": "https://dc.lft.to/lastmile_qr_scan", "ios": "https://dc.lft.to/lastmile_qr_scan"}, "name": "fc3ad123d74df2811e029c2f4095fda4", "is_reserved": 0}, {"is_disabled": 0, "fusion_lon": 0.0, "fusion_lat": 0.0, "lat": 38.940772, "type": "electric_scooter", "lon": -77.02909083333333, "bike_id": "fa09576f47f96e80a3bcc239e543f2b7", "rental_uris": {"android": "https://dc.lft.to/lastmile_qr_scan", "ios": "https://dc.lft.to/lastmile_qr_scan"}, "name": "fa09576f47f96e80a3bcc239e543f2b7", "is_reserved": 0}, {"is_disabled": 0, "fusion_lon": 0.0, "fusion_lat": 0.0, "lat": 38.89855566666667, "type": "electric_scooter", "lon": -77.0319855, "bike_id": "07660ac95700d1b6f28e6e82affd1ef7", "rental_uris": {"android": "https://dc.lft.to/lastmile_qr_scan", "ios": "https://dc.lft.to/lastmile_qr_scan"}, "name": "07660ac95700d1b6f28e6e82affd1ef7", "is_reserved": 0}, {"is_disabled": 0, "fusion_lon": 0.0, "fusion_lat": 0.0, "lat": 38.905362333333336, "type": "electric_scooter", "lon": -77.049994, "bike_id": "9a476076a99493a6425b0ff68e1c7803", "rental_uris": {"android": "https://dc.lft.to/lastmile_qr_scan", "ios": "https://dc.lft.to/lastmile_qr_scan"}, "name": "9a476076a99493a6425b0ff68e1c7803", "is_reserved": 0}, {"is_disabled": 0, "fusion_lon": 0.0, "fusion_lat": 0.0, "lat": 38.899538, "type": "electric_scooter", "lon": -77.0391845, "bike_id": "6629344ffffe30ef903423e7d55bf5f0", "rental_uris": {"android": "https://dc.lft.to/lastmile_qr_scan", "ios": "https://dc.lft.to/lastmile_qr_scan"}, "name": "6629344ffffe30ef903423e7d55bf5f0", "is_reserved": 0}, {"is_disabled": 0, "fusion_lon": 0.0, "fusion_lat": 0.0, "lat": 38.91466366666667, "type": "electric_scooter", "lon": -76.98450283333334, "bike_id": "af606137bc3f95878db09fef8e0943e5", "rental_uris": {"android": "https://dc.lft.to/lastmile_qr_scan", "ios": "https://dc.lft.to/lastmile_qr_scan"}, "name": "af606137bc3f95878db09fef8e0943e5", "is_reserved": 0}, {"is_disabled": 0, "fusion_lon": 0.0, "fusion_lat": 0.0, "lat": 38.87756666666667, "type": "electric_bike", "lon": -76.97995233333333, "bike_id": "dab41e855448de2df2f1ed77e0125620", "rental_uris": {"android": "https://dc.lft.to/lastmile_qr_scan", "ios": "https://dc.lft.to/lastmile_qr_scan"}, "name": "dab41e855448de2df2f1ed77e0125620", "is_reserved": 0}, {"is_disabled": 0, "fusion_lon": 0.0, "fusion_lat": 0.0, "lat": 38.925785, "type": "electric_scooter", "lon": -77.0805255, "bike_id": "d54a389f8c52b40b98aa4bb736f6164a", "rental_uris": {"android": "https://dc.lft.to/lastmile_qr_scan", "ios": "https://dc.lft.to/lastmile_qr_scan"}, "name": "d54a389f8c52b40b98aa4bb736f6164a", "is_reserved": 0}, {"is_disabled": 0, "fusion_lon": 0.0, "fusion_lat": 0.0, "lat": 38.91569533333333, "type": "electric_scooter", "lon": -77.032089, "bike_id": "3e859c73477c67e3be579cf13c658b70", "rental_uris": {"android": "https://dc.lft.to/lastmile_qr_scan", "ios": "https://dc.lft.to/lastmile_qr_scan"}, "name": "3e859c73477c67e3be579cf13c658b70", "is_reserved": 0}, {"is_disabled": 0, "fusion_lon": 0.0, "fusion_lat": 0.0, "lat": 38.90601366666667, "type": "electric_scooter", "lon": -77.06297516666666, "bike_id": "89a6734fc28f9f66a9987f6396cee489", "rental_uris": {"android": "https://dc.lft.to/lastmile_qr_scan", "ios": "https://dc.lft.to/lastmile_qr_scan"}, "name": "89a6734fc28f9f66a9987f6396cee489", "is_reserved": 0}, {"is_disabled": 0, "fusion_lon": 0.0, "fusion_lat": 0.0, "lat": 38.94753866666667, "type": "electric_scooter", "lon": -77.029799, "bike_id": "75423472d9ad26b16f79e7002b1b8db1", "rental_uris": {"android": "https://dc.lft.to/lastmile_qr_scan", "ios": "https://dc.lft.to/lastmile_qr_scan"}, "name": "75423472d9ad26b16f79e7002b1b8db1", "is_reserved": 0}, {"is_disabled": 0, "fusion_lon": 0.0, "fusion_lat": 0.0, "lat": 38.898349333333336, "type": "electric_scooter", "lon": -77.0317415, "bike_id": "b68be6ee88acc59bec5630952b66f6d3", "rental_uris": {"android": "https://dc.lft.to/lastmile_qr_scan", "ios": "https://dc.lft.to/lastmile_qr_scan"}, "name": "b68be6ee88acc59bec5630952b66f6d3", "is_reserved": 0}, {"is_disabled": 0, "fusion_lon": 0.0, "fusion_lat": 0.0, "lat": 38.9311345, "type": "electric_scooter", "lon": -77.0124555, "bike_id": "2b706d5bbd2850e000b13ae2f31c87dc", "rental_uris": {"android": "https://dc.lft.to/lastmile_qr_scan", "ios": "https://dc.lft.to/lastmile_qr_scan"}, "name": "2b706d5bbd2850e000b13ae2f31c87dc", "is_reserved": 0}, {"is_disabled": 0, "fusion_lon": 0.0, "fusion_lat": 0.0, "lat": 38.927497, "type": "electric_scooter", "lon": -77.02484066666666, "bike_id": "9472725ab9905e5d1ae3b70d36056b34", "rental_uris": {"android": "https://dc.lft.to/lastmile_qr_scan", "ios": "https://dc.lft.to/lastmile_qr_scan"}, "name": "9472725ab9905e5d1ae3b70d36056b34", "is_reserved": 0}, {"is_disabled": 0, "fusion_lon": 0.0, "fusion_lat": 0.0, "lat": 38.909730333333336, "type": "electric_scooter", "lon": -77.04053266666666, "bike_id": "21c518e6257cd2990753c4d50c696ca1", "rental_uris": {"android": "https://dc.lft.to/lastmile_qr_scan", "ios": "https://dc.lft.to/lastmile_qr_scan"}, "name": "21c518e6257cd2990753c4d50c696ca1", "is_reserved": 0}, {"is_disabled": 0, "fusion_lon": 0.0, "fusion_lat": 0.0, "lat": 39.000211166666666, "type": "electric_bike", "lon": -76.8728175, "bike_id": "7e6dbb038d078412c6e9d57f114a41ff", "rental_uris": {"android": "https://dc.lft.to/lastmile_qr_scan", "ios": "https://dc.lft.to/lastmile_qr_scan"}, "name": "7e6dbb038d078412c6e9d57f114a41ff", "is_reserved": 0}, {"is_disabled": 0, "fusion_lon": 0.0, "fusion_lat": 0.0, "lat": 38.828776833333336, "type": "electric_bike", "lon": -77.11219066666666, "bike_id": "8547189cf454e0cf86dff23903f5dfbe", "rental_uris": {"android": "https://dc.lft.to/lastmile_qr_scan", "ios": "https://dc.lft.to/lastmile_qr_scan"}, "name": "8547189cf454e0cf86dff23903f5dfbe", "is_reserved": 0}, {"is_disabled": 0, "fusion_lon": 0.0, "fusion_lat": 0.0, "lat": 38.905953333333336, "type": "electric_scooter", "lon": -77.07314816666667, "bike_id": "d75491b00d10d0959851aa03827bc17e", "rental_uris": {"android": "https://dc.lft.to/lastmile_qr_scan", "ios": "https://dc.lft.to/lastmile_qr_scan"}, "name": "d75491b00d10d0959851aa03827bc17e", "is_reserved": 0}, {"is_disabled": 0, "fusion_lon": 0.0, "fusion_lat": 0.0, "lat": 38.918232, "type": "electric_scooter", "lon": -77.04172666666666, "bike_id": "693d2387e497fef566e1952dc0fc336a", "rental_uris": {"android": "https://dc.lft.to/lastmile_qr_scan", "ios": "https://dc.lft.to/lastmile_qr_scan"}, "name": "693d2387e497fef566e1952dc0fc336a", "is_reserved": 0}, {"is_disabled": 0, "fusion_lon": 0.0, "fusion_lat": 0.0, "lat": 38.91337883333333, "type": "electric_scooter", "lon": -77.04328966666667, "bike_id": "7ed467504cf5fd37307486ede7976036", "rental_uris": {"android": "https://dc.lft.to/lastmile_qr_scan", "ios": "https://dc.lft.to/lastmile_qr_scan"}, "name": "7ed467504cf5fd37307486ede7976036", "is_reserved": 0}, {"is_disabled": 0, "fusion_lon": 0.0, "fusion_lat": 0.0, "lat": 38.91625283333333, "type": "electric_scooter", "lon": -77.04357966666667, "bike_id": "03e9edf8111df999809d5a725748072f", "rental_uris": {"android": "https://dc.lft.to/lastmile_qr_scan", "ios": "https://dc.lft.to/lastmile_qr_scan"}, "name": "03e9edf8111df999809d5a725748072f", "is_reserved": 0}, {"is_disabled": 0, "fusion_lon": 0.0, "fusion_lat": 0.0, "lat": 38.91702016666667, "type": "electric_scooter", "lon": -77.0284485, "bike_id": "a3760ebb9bab108108f6b79fa7ca4365", "rental_uris": {"android": "https://dc.lft.to/lastmile_qr_scan", "ios": "https://dc.lft.to/lastmile_qr_scan"}, "name": "a3760ebb9bab108108f6b79fa7ca4365", "is_reserved": 0}, {"is_disabled": 0, "fusion_lon": 0.0, "fusion_lat": 0.0, "lat": 38.932151, "type": "electric_scooter", "lon": -77.023861, "bike_id": "66690c88b3941333d3b4bc9091520dca", "rental_uris": {"android": "https://dc.lft.to/lastmile_qr_scan", "ios": "https://dc.lft.to/lastmile_qr_scan"}, "name": "66690c88b3941333d3b4bc9091520dca", "is_reserved": 0}, {"is_disabled": 0, "fusion_lon": 0.0, "fusion_lat": 0.0, "lat": 38.915639166666665, "type": "electric_scooter", "lon": -77.0323545, "bike_id": "3836da93b98bbdcada0c75692b97ef27", "rental_uris": {"android": "https://dc.lft.to/lastmile_qr_scan", "ios": "https://dc.lft.to/lastmile_qr_scan"}, "name": "3836da93b98bbdcada0c75692b97ef27", "is_reserved": 0}, {"is_disabled": 0, "fusion_lon": 0.0, "fusion_lat": 0.0, "lat": 38.899029, "type": "electric_scooter", "lon": -77.04167616666666, "bike_id": "6381cdee3ae77291539ab926cd63ed77", "rental_uris": {"android": "https://dc.lft.to/lastmile_qr_scan", "ios": "https://dc.lft.to/lastmile_qr_scan"}, "name": "6381cdee3ae77291539ab926cd63ed77", "is_reserved": 0}, {"is_disabled": 0, "fusion_lon": 0.0, "fusion_lat": 0.0, "lat": 39.003846, "type": "electric_bike", "lon": -77.01281716666666, "bike_id": "b1f3dc1454fe3d00162ad5f4e6c29f5f", "rental_uris": {"android": "https://dc.lft.to/lastmile_qr_scan", "ios": "https://dc.lft.to/lastmile_qr_scan"}, "name": "b1f3dc1454fe3d00162ad5f4e6c29f5f", "is_reserved": 0}, {"is_disabled": 0, "fusion_lon": 0.0, "fusion_lat": 0.0, "lat": 38.913923, "type": "electric_scooter", "lon": -77.016998, "bike_id": "5aac8594acbfd6f693211b817e93acb3", "rental_uris": {"android": "https://dc.lft.to/lastmile_qr_scan", "ios": "https://dc.lft.to/lastmile_qr_scan"}, "name": "5aac8594acbfd6f693211b817e93acb3", "is_reserved": 0}, {"is_disabled": 0, "fusion_lon": 0.0, "fusion_lat": 0.0, "lat": 38.917116, "type": "electric_scooter", "lon": -77.02616316666666, "bike_id": "216454d03e1f57e2bea3509c67eb8354", "rental_uris": {"android": "https://dc.lft.to/lastmile_qr_scan", "ios": "https://dc.lft.to/lastmile_qr_scan"}, "name": "216454d03e1f57e2bea3509c67eb8354", "is_reserved": 0}, {"is_disabled": 0, "fusion_lon": 0.0, "fusion_lat": 0.0, "lat": 38.93938816666667, "type": "electric_scooter", "lon": -77.02487533333333, "bike_id": "4fdd51ada0601e5353bed03448a2133a", "rental_uris": {"android": "https://dc.lft.to/lastmile_qr_scan", "ios": "https://dc.lft.to/lastmile_qr_scan"}, "name": "4fdd51ada0601e5353bed03448a2133a", "is_reserved": 0}, {"is_disabled": 0, "fusion_lon": 0.0, "fusion_lat": 0.0, "lat": 38.901020333333335, "type": "electric_bike", "lon": -77.02459683333333, "bike_id": "e22ab1d6360c3fc5d882ce4421264956", "rental_uris": {"android": "https://dc.lft.to/lastmile_qr_scan", "ios": "https://dc.lft.to/lastmile_qr_scan"}, "name": "e22ab1d6360c3fc5d882ce4421264956", "is_reserved": 0}, {"is_disabled": 0, "fusion_lon": 0.0, "fusion_lat": 0.0, "lat": 38.90147366666667, "type": "electric_scooter", "lon": -77.01501883333333, "bike_id": "5afef60fe4b7d625ec39b4b901877d1e", "rental_uris": {"android": "https://dc.lft.to/lastmile_qr_scan", "ios": "https://dc.lft.to/lastmile_qr_scan"}, "name": "5afef60fe4b7d625ec39b4b901877d1e", "is_reserved": 0}, {"is_disabled": 0, "fusion_lon": 0.0, "fusion_lat": 0.0, "lat": 38.9656305, "type": "electric_bike", "lon": -77.023003, "bike_id": "0d1553144c929647b7a8e8305ca87484", "rental_uris": {"android": "https://dc.lft.to/lastmile_qr_scan", "ios": "https://dc.lft.to/lastmile_qr_scan"}, "name": "0d1553144c929647b7a8e8305ca87484", "is_reserved": 0}, {"is_disabled": 0, "fusion_lon": 0.0, "fusion_lat": 0.0, "lat": 38.90715516666667, "type": "electric_scooter", "lon": -77.02715883333333, "bike_id": "902bfcf0e5f0cd5d3f9628176862db84", "rental_uris": {"android": "https://dc.lft.to/lastmile_qr_scan", "ios": "https://dc.lft.to/lastmile_qr_scan"}, "name": "902bfcf0e5f0cd5d3f9628176862db84", "is_reserved": 0}, {"is_disabled": 0, "fusion_lon": 0.0, "fusion_lat": 0.0, "lat": 38.91753766666667, "type": "electric_scooter", "lon": -77.041565, "bike_id": "d5f56b7730d69d1c7baf0b5bc9a729bf", "rental_uris": {"android": "https://dc.lft.to/lastmile_qr_scan", "ios": "https://dc.lft.to/lastmile_qr_scan"}, "name": "d5f56b7730d69d1c7baf0b5bc9a729bf", "is_reserved": 0}, {"is_disabled": 0, "fusion_lon": 0.0, "fusion_lat": 0.0, "lat": 38.9208095, "type": "electric_scooter", "lon": -77.04198616666666, "bike_id": "18f03e2b95e74cf1d836f826f6369178", "rental_uris": {"android": "https://dc.lft.to/lastmile_qr_scan", "ios": "https://dc.lft.to/lastmile_qr_scan"}, "name": "18f03e2b95e74cf1d836f826f6369178", "is_reserved": 0}, {"is_disabled": 0, "fusion_lon": 0.0, "fusion_lat": 0.0, "lat": 38.91173766666667, "type": "electric_scooter", "lon": -77.0269505, "bike_id": "3c23793f83b1145be27f4e853912e56b", "rental_uris": {"android": "https://dc.lft.to/lastmile_qr_scan", "ios": "https://dc.lft.to/lastmile_qr_scan"}, "name": "3c23793f83b1145be27f4e853912e56b", "is_reserved": 0}, {"is_disabled": 0, "fusion_lon": 0.0, "fusion_lat": 0.0, "lat": 38.89365333333333, "type": "electric_scooter", "lon": -77.02184316666667, "bike_id": "04a3cc9a6377852d725ed8ccd2481c21", "rental_uris": {"android": "https://dc.lft.to/lastmile_qr_scan", "ios": "https://dc.lft.to/lastmile_qr_scan"}, "name": "04a3cc9a6377852d725ed8ccd2481c21", "is_reserved": 0}, {"is_disabled": 0, "fusion_lon": 0.0, "fusion_lat": 0.0, "lat": 38.91431866666667, "type": "electric_scooter", "lon": -77.03180216666667, "bike_id": "03534976a7552e7b73665c1aab249145", "rental_uris": {"android": "https://dc.lft.to/lastmile_qr_scan", "ios": "https://dc.lft.to/lastmile_qr_scan"}, "name": "03534976a7552e7b73665c1aab249145", "is_reserved": 0}, {"is_disabled": 0, "fusion_lon": 0.0, "fusion_lat": 0.0, "lat": 38.9461325, "type": "electric_scooter", "lon": -77.03465966666667, "bike_id": "fcdc936f52c915d08901ed641362df65", "rental_uris": {"android": "https://dc.lft.to/lastmile_qr_scan", "ios": "https://dc.lft.to/lastmile_qr_scan"}, "name": "fcdc936f52c915d08901ed641362df65", "is_reserved": 0}, {"is_disabled": 0, "fusion_lon": 0.0, "fusion_lat": 0.0, "lat": 38.916438, "type": "electric_scooter", "lon": -77.02241366666667, "bike_id": "392a3aedf6b01ea44774de3f810de0ff", "rental_uris": {"android": "https://dc.lft.to/lastmile_qr_scan", "ios": "https://dc.lft.to/lastmile_qr_scan"}, "name": "392a3aedf6b01ea44774de3f810de0ff", "is_reserved": 0}, {"is_disabled": 0, "fusion_lon": 0.0, "fusion_lat": 0.0, "lat": 38.92060433333333, "type": "electric_scooter", "lon": -77.04186316666667, "bike_id": "b4dd491f27b28d64f0073f5dfc1be73a", "rental_uris": {"android": "https://dc.lft.to/lastmile_qr_scan", "ios": "https://dc.lft.to/lastmile_qr_scan"}, "name": "b4dd491f27b28d64f0073f5dfc1be73a", "is_reserved": 0}, {"is_disabled": 0, "fusion_lon": 0.0, "fusion_lat": 0.0, "lat": 38.9067425, "type": "electric_scooter", "lon": -77.027101, "bike_id": "492baf01a70d5534b5f02ed94fa00cc1", "rental_uris": {"android": "https://dc.lft.to/lastmile_qr_scan", "ios": "https://dc.lft.to/lastmile_qr_scan"}, "name": "492baf01a70d5534b5f02ed94fa00cc1", "is_reserved": 0}, {"is_disabled": 0, "fusion_lon": 0.0, "fusion_lat": 0.0, "lat": 38.8950985, "type": "electric_scooter", "lon": -76.9487765, "bike_id": "3563e41eec1b20ed714c766f11ea4df9", "rental_uris": {"android": "https://dc.lft.to/lastmile_qr_scan", "ios": "https://dc.lft.to/lastmile_qr_scan"}, "name": "3563e41eec1b20ed714c766f11ea4df9", "is_reserved": 0}, {"is_disabled": 0, "fusion_lon": 0.0, "fusion_lat": 0.0, "lat": 38.909422166666666, "type": "electric_scooter", "lon": -77.03203333333333, "bike_id": "02b6e1d9cda126e15e673a9513c42977", "rental_uris": {"android": "https://dc.lft.to/lastmile_qr_scan", "ios": "https://dc.lft.to/lastmile_qr_scan"}, "name": "02b6e1d9cda126e15e673a9513c42977", "is_reserved": 0}, {"is_disabled": 0, "fusion_lon": 0.0, "fusion_lat": 0.0, "lat": 38.863574, "type": "electric_scooter", "lon": -76.99068216666667, "bike_id": "8e037c12d58af86fb71a4c1a0082111f", "rental_uris": {"android": "https://dc.lft.to/lastmile_qr_scan", "ios": "https://dc.lft.to/lastmile_qr_scan"}, "name": "8e037c12d58af86fb71a4c1a0082111f", "is_reserved": 0}, {"is_disabled": 0, "fusion_lon": 0.0, "fusion_lat": 0.0, "lat": 38.93460616666667, "type": "electric_scooter", "lon": -77.07293483333333, "bike_id": "597e511b9c3efa7b8b1191cc8a48f863", "rental_uris": {"android": "https://dc.lft.to/lastmile_qr_scan", "ios": "https://dc.lft.to/lastmile_qr_scan"}, "name": "597e511b9c3efa7b8b1191cc8a48f863", "is_reserved": 0}, {"is_disabled": 0, "fusion_lon": 0.0, "fusion_lat": 0.0, "lat": 38.87447733333333, "type": "electric_bike", "lon": -77.00889716666667, "bike_id": "fa6b26c5f7c9b6d19bc1cac8872abd1a", "rental_uris": {"android": "https://dc.lft.to/lastmile_qr_scan", "ios": "https://dc.lft.to/lastmile_qr_scan"}, "name": "fa6b26c5f7c9b6d19bc1cac8872abd1a", "is_reserved": 0}, {"is_disabled": 0, "fusion_lon": 0.0, "fusion_lat": 0.0, "lat": 38.90861683333333, "type": "electric_scooter", "lon": -77.03210916666667, "bike_id": "36387e51620f173e0bbfc6e78fbf972a", "rental_uris": {"android": "https://dc.lft.to/lastmile_qr_scan", "ios": "https://dc.lft.to/lastmile_qr_scan"}, "name": "36387e51620f173e0bbfc6e78fbf972a", "is_reserved": 0}, {"is_disabled": 0, "fusion_lon": 0.0, "fusion_lat": 0.0, "lat": 38.92030883333334, "type": "electric_scooter", "lon": -77.01867566666667, "bike_id": "26c9ff710333542a677b87fe2ed637c3", "rental_uris": {"android": "https://dc.lft.to/lastmile_qr_scan", "ios": "https://dc.lft.to/lastmile_qr_scan"}, "name": "26c9ff710333542a677b87fe2ed637c3", "is_reserved": 0}, {"is_disabled": 0, "fusion_lon": 0.0, "fusion_lat": 0.0, "lat": 38.84622783333333, "type": "electric_scooter", "lon": -76.99628366666667, "bike_id": "e793328199e9ab794db03c7c8f3a7e37", "rental_uris": {"android": "https://dc.lft.to/lastmile_qr_scan", "ios": "https://dc.lft.to/lastmile_qr_scan"}, "name": "e793328199e9ab794db03c7c8f3a7e37", "is_reserved": 0}, {"is_disabled": 0, "fusion_lon": 0.0, "fusion_lat": 0.0, "lat": 38.9061735, "type": "electric_scooter", "lon": -77.0417185, "bike_id": "60b2f25fad4bc39de98430e3d8d7f49a", "rental_uris": {"android": "https://dc.lft.to/lastmile_qr_scan", "ios": "https://dc.lft.to/lastmile_qr_scan"}, "name": "60b2f25fad4bc39de98430e3d8d7f49a", "is_reserved": 0}, {"is_disabled": 0, "fusion_lon": 0.0, "fusion_lat": 0.0, "lat": 38.91813616666666, "type": "electric_scooter", "lon": -77.03438416666667, "bike_id": "7354818bbbcdec7ec5d13148efe09340", "rental_uris": {"android": "https://dc.lft.to/lastmile_qr_scan", "ios": "https://dc.lft.to/lastmile_qr_scan"}, "name": "7354818bbbcdec7ec5d13148efe09340", "is_reserved": 0}, {"is_disabled": 0, "fusion_lon": 0.0, "fusion_lat": 0.0, "lat": 38.9181295, "type": "electric_scooter", "lon": -77.03138883333334, "bike_id": "25e379bfbc3ace8bf3e4e76e4534827b", "rental_uris": {"android": "https://dc.lft.to/lastmile_qr_scan", "ios": "https://dc.lft.to/lastmile_qr_scan"}, "name": "25e379bfbc3ace8bf3e4e76e4534827b", "is_reserved": 0}, {"is_disabled": 0, "fusion_lon": 0.0, "fusion_lat": 0.0, "lat": 38.9244575, "type": "electric_scooter", "lon": -77.02608233333333, "bike_id": "30e343ba7f48a13634a79ba91e27bb3a", "rental_uris": {"android": "https://dc.lft.to/lastmile_qr_scan", "ios": "https://dc.lft.to/lastmile_qr_scan"}, "name": "30e343ba7f48a13634a79ba91e27bb3a", "is_reserved": 0}, {"is_disabled": 0, "fusion_lon": 0.0, "fusion_lat": 0.0, "lat": 38.86249933333333, "type": "electric_scooter", "lon": -76.994873, "bike_id": "ce818a714bbee4a3f172dde663ef3ef8", "rental_uris": {"android": "https://dc.lft.to/lastmile_qr_scan", "ios": "https://dc.lft.to/lastmile_qr_scan"}, "name": "ce818a714bbee4a3f172dde663ef3ef8", "is_reserved": 0}, {"is_disabled": 0, "fusion_lon": 0.0, "fusion_lat": 0.0, "lat": 38.909588166666666, "type": "electric_scooter", "lon": -77.021818, "bike_id": "c0b33f4a4daa6afb3c1f27d165ea2f21", "rental_uris": {"android": "https://dc.lft.to/lastmile_qr_scan", "ios": "https://dc.lft.to/lastmile_qr_scan"}, "name": "c0b33f4a4daa6afb3c1f27d165ea2f21", "is_reserved": 0}, {"is_disabled": 0, "fusion_lon": 0.0, "fusion_lat": 0.0, "lat": 38.9673365, "type": "electric_scooter", "lon": -77.02762816666667, "bike_id": "21b4aa677f361ec94efc0f04834c6b40", "rental_uris": {"android": "https://dc.lft.to/lastmile_qr_scan", "ios": "https://dc.lft.to/lastmile_qr_scan"}, "name": "21b4aa677f361ec94efc0f04834c6b40", "is_reserved": 0}, {"is_disabled": 0, "fusion_lon": 0.0, "fusion_lat": 0.0, "lat": 38.883548166666664, "type": "electric_scooter", "lon": -77.02478833333333, "bike_id": "bedf76962e5a2c36b752eb11a093392c", "rental_uris": {"android": "https://dc.lft.to/lastmile_qr_scan", "ios": "https://dc.lft.to/lastmile_qr_scan"}, "name": "bedf76962e5a2c36b752eb11a093392c", "is_reserved": 0}, {"is_disabled": 0, "fusion_lon": 0.0, "fusion_lat": 0.0, "lat": 38.92374683333333, "type": "electric_scooter", "lon": -77.02800183333333, "bike_id": "91948fe568a8397d01cd15a02e0f4c37", "rental_uris": {"android": "https://dc.lft.to/lastmile_qr_scan", "ios": "https://dc.lft.to/lastmile_qr_scan"}, "name": "91948fe568a8397d01cd15a02e0f4c37", "is_reserved": 0}, {"is_disabled": 0, "fusion_lon": 0.0, "fusion_lat": 0.0, "lat": 38.892093333333335, "type": "electric_scooter", "lon": -76.9880825, "bike_id": "340401d63d42b6ec070a1e6874b46289", "rental_uris": {"android": "https://dc.lft.to/lastmile_qr_scan", "ios": "https://dc.lft.to/lastmile_qr_scan"}, "name": "340401d63d42b6ec070a1e6874b46289", "is_reserved": 0}, {"is_disabled": 0, "fusion_lon": 0.0, "fusion_lat": 0.0, "lat": 38.91127733333333, "type": "electric_scooter", "lon": -77.0418545, "bike_id": "ca953f3104f62d6254ad759132e53ee3", "rental_uris": {"android": "https://dc.lft.to/lastmile_qr_scan", "ios": "https://dc.lft.to/lastmile_qr_scan"}, "name": "ca953f3104f62d6254ad759132e53ee3", "is_reserved": 0}, {"is_disabled": 0, "fusion_lon": 0.0, "fusion_lat": 0.0, "lat": 38.884298, "type": "electric_scooter", "lon": -76.95416866666666, "bike_id": "4c8e13684b23193c777a60af503684ec", "rental_uris": {"android": "https://dc.lft.to/lastmile_qr_scan", "ios": "https://dc.lft.to/lastmile_qr_scan"}, "name": "4c8e13684b23193c777a60af503684ec", "is_reserved": 0}, {"is_disabled": 0, "fusion_lon": 0.0, "fusion_lat": 0.0, "lat": 38.89857583333333, "type": "electric_scooter", "lon": -77.03221616666667, "bike_id": "35e99f4d7a84fd93c8b5f047885ddc40", "rental_uris": {"android": "https://dc.lft.to/lastmile_qr_scan", "ios": "https://dc.lft.to/lastmile_qr_scan"}, "name": "35e99f4d7a84fd93c8b5f047885ddc40", "is_reserved": 0}, {"is_disabled": 0, "fusion_lon": 0.0, "fusion_lat": 0.0, "lat": 38.90360733333333, "type": "electric_scooter", "lon": -77.04226266666667, "bike_id": "884f808dd798e007f1e3f256767920b7", "rental_uris": {"android": "https://dc.lft.to/lastmile_qr_scan", "ios": "https://dc.lft.to/lastmile_qr_scan"}, "name": "884f808dd798e007f1e3f256767920b7", "is_reserved": 0}, {"is_disabled": 0, "fusion_lon": 0.0, "fusion_lat": 0.0, "lat": 38.913343166666664, "type": "electric_scooter", "lon": -77.03269233333333, "bike_id": "540541342d12c388e30e41d6be2ed9a1", "rental_uris": {"android": "https://dc.lft.to/lastmile_qr_scan", "ios": "https://dc.lft.to/lastmile_qr_scan"}, "name": "540541342d12c388e30e41d6be2ed9a1", "is_reserved": 0}, {"is_disabled": 0, "fusion_lon": 0.0, "fusion_lat": 0.0, "lat": 39.08845566666667, "type": "electric_bike", "lon": -77.17798716666667, "bike_id": "d3990e9aff48149a0dd42bc29881fd6e", "rental_uris": {"android": "https://dc.lft.to/lastmile_qr_scan", "ios": "https://dc.lft.to/lastmile_qr_scan"}, "name": "d3990e9aff48149a0dd42bc29881fd6e", "is_reserved": 0}, {"is_disabled": 0, "fusion_lon": 0.0, "fusion_lat": 0.0, "lat": 38.91482083333333, "type": "electric_scooter", "lon": -77.03469083333333, "bike_id": "54eb610c226da8f5e354401717068d8e", "rental_uris": {"android": "https://dc.lft.to/lastmile_qr_scan", "ios": "https://dc.lft.to/lastmile_qr_scan"}, "name": "54eb610c226da8f5e354401717068d8e", "is_reserved": 0}, {"is_disabled": 0, "fusion_lon": 0.0, "fusion_lat": 0.0, "lat": 38.924300333333335, "type": "electric_scooter", "lon": -77.03557766666667, "bike_id": "83eaa3c0851c5845236edc38a14864d7", "rental_uris": {"android": "https://dc.lft.to/lastmile_qr_scan", "ios": "https://dc.lft.to/lastmile_qr_scan"}, "name": "83eaa3c0851c5845236edc38a14864d7", "is_reserved": 0}, {"is_disabled": 0, "fusion_lon": 0.0, "fusion_lat": 0.0, "lat": 38.877978, "type": "electric_scooter", "lon": -77.01369083333333, "bike_id": "9974a0fa3c6d691382cc9c2e58a4381b", "rental_uris": {"android": "https://dc.lft.to/lastmile_qr_scan", "ios": "https://dc.lft.to/lastmile_qr_scan"}, "name": "9974a0fa3c6d691382cc9c2e58a4381b", "is_reserved": 0}, {"is_disabled": 0, "fusion_lon": 0.0, "fusion_lat": 0.0, "lat": 38.91628333333333, "type": "electric_scooter", "lon": -77.021536, "bike_id": "0f4997df6abd97360bd831b53d5b62ae", "rental_uris": {"android": "https://dc.lft.to/lastmile_qr_scan", "ios": "https://dc.lft.to/lastmile_qr_scan"}, "name": "0f4997df6abd97360bd831b53d5b62ae", "is_reserved": 0}, {"is_disabled": 0, "fusion_lon": 0.0, "fusion_lat": 0.0, "lat": 38.924121, "type": "electric_bike", "lon": -77.05042683333333, "bike_id": "5f521333cab19e6a6f8d870e0ea4f5f2", "rental_uris": {"android": "https://dc.lft.to/lastmile_qr_scan", "ios": "https://dc.lft.to/lastmile_qr_scan"}, "name": "5f521333cab19e6a6f8d870e0ea4f5f2", "is_reserved": 0}, {"is_disabled": 0, "fusion_lon": 0.0, "fusion_lat": 0.0, "lat": 38.88536533333333, "type": "electric_scooter", "lon": -76.92712233333333, "bike_id": "d4527c253182b47c484a20b404231f36", "rental_uris": {"android": "https://dc.lft.to/lastmile_qr_scan", "ios": "https://dc.lft.to/lastmile_qr_scan"}, "name": "d4527c253182b47c484a20b404231f36", "is_reserved": 0}, {"is_disabled": 0, "fusion_lon": 0.0, "fusion_lat": 0.0, "lat": 38.93345166666667, "type": "electric_scooter", "lon": -77.041304, "bike_id": "57c851fb2f6bf68e063f25651a5095bc", "rental_uris": {"android": "https://dc.lft.to/lastmile_qr_scan", "ios": "https://dc.lft.to/lastmile_qr_scan"}, "name": "57c851fb2f6bf68e063f25651a5095bc", "is_reserved": 0}, {"is_disabled": 0, "fusion_lon": 0.0, "fusion_lat": 0.0, "lat": 38.934124, "type": "electric_scooter", "lon": -77.02447283333333, "bike_id": "43563131b378fe528591c31e42fae15d", "rental_uris": {"android": "https://dc.lft.to/lastmile_qr_scan", "ios": "https://dc.lft.to/lastmile_qr_scan"}, "name": "43563131b378fe528591c31e42fae15d", "is_reserved": 0}, {"is_disabled": 0, "fusion_lon": 0.0, "fusion_lat": 0.0, "lat": 38.8673815, "type": "electric_scooter", "lon": -76.97939633333333, "bike_id": "f1251e0bbde26ebf30af1baa945db7ae", "rental_uris": {"android": "https://dc.lft.to/lastmile_qr_scan", "ios": "https://dc.lft.to/lastmile_qr_scan"}, "name": "f1251e0bbde26ebf30af1baa945db7ae", "is_reserved": 0}, {"is_disabled": 0, "fusion_lon": 0.0, "fusion_lat": 0.0, "lat": 38.92318366666667, "type": "electric_scooter", "lon": -77.04621583333333, "bike_id": "47bdcd42c7d51d9d607129e2f2c21c90", "rental_uris": {"android": "https://dc.lft.to/lastmile_qr_scan", "ios": "https://dc.lft.to/lastmile_qr_scan"}, "name": "47bdcd42c7d51d9d607129e2f2c21c90", "is_reserved": 0}, {"is_disabled": 0, "fusion_lon": 0.0, "fusion_lat": 0.0, "lat": 38.901850333333336, "type": "electric_scooter", "lon": -76.92823933333334, "bike_id": "881fbd055ac20e2a7717df25883bf301", "rental_uris": {"android": "https://dc.lft.to/lastmile_qr_scan", "ios": "https://dc.lft.to/lastmile_qr_scan"}, "name": "881fbd055ac20e2a7717df25883bf301", "is_reserved": 0}, {"is_disabled": 0, "fusion_lon": 0.0, "fusion_lat": 0.0, "lat": 38.91483566666667, "type": "electric_scooter", "lon": -77.03217716666667, "bike_id": "ca67522d66adde37b2d8ea7b74c956e7", "rental_uris": {"android": "https://dc.lft.to/lastmile_qr_scan", "ios": "https://dc.lft.to/lastmile_qr_scan"}, "name": "ca67522d66adde37b2d8ea7b74c956e7", "is_reserved": 0}, {"is_disabled": 0, "fusion_lon": 0.0, "fusion_lat": 0.0, "lat": 38.910989666666666, "type": "electric_scooter", "lon": -77.03856583333334, "bike_id": "70875b549d4e26b4e898dc9a5114edd1", "rental_uris": {"android": "https://dc.lft.to/lastmile_qr_scan", "ios": "https://dc.lft.to/lastmile_qr_scan"}, "name": "70875b549d4e26b4e898dc9a5114edd1", "is_reserved": 0}, {"is_disabled": 0, "fusion_lon": 0.0, "fusion_lat": 0.0, "lat": 38.915660833333334, "type": "electric_scooter", "lon": -77.03273216666666, "bike_id": "9aa042b3145675774202cb596c72f9e1", "rental_uris": {"android": "https://dc.lft.to/lastmile_qr_scan", "ios": "https://dc.lft.to/lastmile_qr_scan"}, "name": "9aa042b3145675774202cb596c72f9e1", "is_reserved": 0}, {"is_disabled": 0, "fusion_lon": 0.0, "fusion_lat": 0.0, "lat": 38.91625716666667, "type": "electric_scooter", "lon": -77.022951, "bike_id": "023f329d6625c7f2077f328875455e14", "rental_uris": {"android": "https://dc.lft.to/lastmile_qr_scan", "ios": "https://dc.lft.to/lastmile_qr_scan"}, "name": "023f329d6625c7f2077f328875455e14", "is_reserved": 0}, {"is_disabled": 0, "fusion_lon": 0.0, "fusion_lat": 0.0, "lat": 38.92256916666667, "type": "electric_scooter", "lon": -77.030729, "bike_id": "7b1481b2b91b61d034f5ddecb57d0cc3", "rental_uris": {"android": "https://dc.lft.to/lastmile_qr_scan", "ios": "https://dc.lft.to/lastmile_qr_scan"}, "name": "7b1481b2b91b61d034f5ddecb57d0cc3", "is_reserved": 0}, {"is_disabled": 0, "fusion_lon": 0.0, "fusion_lat": 0.0, "lat": 38.94789216666667, "type": "electric_scooter", "lon": -77.0927525, "bike_id": "b5b5053e6fc8d6cbab0866b4f1bd886f", "rental_uris": {"android": "https://dc.lft.to/lastmile_qr_scan", "ios": "https://dc.lft.to/lastmile_qr_scan"}, "name": "b5b5053e6fc8d6cbab0866b4f1bd886f", "is_reserved": 0}, {"is_disabled": 0, "fusion_lon": 0.0, "fusion_lat": 0.0, "lat": 38.8658285, "type": "electric_scooter", "lon": -76.99038766666666, "bike_id": "4c01db17f77d28ca9ffc64b3927e035a", "rental_uris": {"android": "https://dc.lft.to/lastmile_qr_scan", "ios": "https://dc.lft.to/lastmile_qr_scan"}, "name": "4c01db17f77d28ca9ffc64b3927e035a", "is_reserved": 0}, {"is_disabled": 0, "fusion_lon": 0.0, "fusion_lat": 0.0, "lat": 38.88725433333333, "type": "electric_scooter", "lon": -77.02835966666666, "bike_id": "82eafe1cf664a065a845f4d260279778", "rental_uris": {"android": "https://dc.lft.to/lastmile_qr_scan", "ios": "https://dc.lft.to/lastmile_qr_scan"}, "name": "82eafe1cf664a065a845f4d260279778", "is_reserved": 0}, {"is_disabled": 0, "fusion_lon": 0.0, "fusion_lat": 0.0, "lat": 38.9187555, "type": "electric_bike", "lon": -76.96124766666667, "bike_id": "e3360879475a317c2f0a5785579b758c", "rental_uris": {"android": "https://dc.lft.to/lastmile_qr_scan", "ios": "https://dc.lft.to/lastmile_qr_scan"}, "name": "e3360879475a317c2f0a5785579b758c", "is_reserved": 0}, {"is_disabled": 0, "fusion_lon": 0.0, "fusion_lat": 0.0, "lat": 38.9208135, "type": "electric_scooter", "lon": -77.01807383333333, "bike_id": "4252cab683452c1bc038649d212af0bc", "rental_uris": {"android": "https://dc.lft.to/lastmile_qr_scan", "ios": "https://dc.lft.to/lastmile_qr_scan"}, "name": "4252cab683452c1bc038649d212af0bc", "is_reserved": 0}, {"is_disabled": 0, "fusion_lon": 0.0, "fusion_lat": 0.0, "lat": 38.931118, "type": "electric_scooter", "lon": -77.0348175, "bike_id": "682ed65cb169ef9ef061ef1e48ae3e98", "rental_uris": {"android": "https://dc.lft.to/lastmile_qr_scan", "ios": "https://dc.lft.to/lastmile_qr_scan"}, "name": "682ed65cb169ef9ef061ef1e48ae3e98", "is_reserved": 0}, {"is_disabled": 0, "fusion_lon": 0.0, "fusion_lat": 0.0, "lat": 38.89618016666667, "type": "electric_scooter", "lon": -76.99637383333334, "bike_id": "238410784bb3e20e735fd28c748e9775", "rental_uris": {"android": "https://dc.lft.to/lastmile_qr_scan", "ios": "https://dc.lft.to/lastmile_qr_scan"}, "name": "238410784bb3e20e735fd28c748e9775", "is_reserved": 0}, {"is_disabled": 0, "fusion_lon": 0.0, "fusion_lat": 0.0, "lat": 38.869817833333336, "type": "electric_scooter", "lon": -77.01227316666666, "bike_id": "be318319ce4d56d23d9e298ecc9d2a40", "rental_uris": {"android": "https://dc.lft.to/lastmile_qr_scan", "ios": "https://dc.lft.to/lastmile_qr_scan"}, "name": "be318319ce4d56d23d9e298ecc9d2a40", "is_reserved": 0}, {"is_disabled": 0, "fusion_lon": 0.0, "fusion_lat": 0.0, "lat": 38.9003185, "type": "electric_bike", "lon": -76.98902866666667, "bike_id": "00361001ccac42d097ea9d1a3a65770f", "rental_uris": {"android": "https://dc.lft.to/lastmile_qr_scan", "ios": "https://dc.lft.to/lastmile_qr_scan"}, "name": "00361001ccac42d097ea9d1a3a65770f", "is_reserved": 0}, {"is_disabled": 0, "fusion_lon": 0.0, "fusion_lat": 0.0, "lat": 38.9328395, "type": "electric_scooter", "lon": -76.97421316666667, "bike_id": "96aa4861f667b6b25ed1530d9b892434", "rental_uris": {"android": "https://dc.lft.to/lastmile_qr_scan", "ios": "https://dc.lft.to/lastmile_qr_scan"}, "name": "96aa4861f667b6b25ed1530d9b892434", "is_reserved": 0}, {"is_disabled": 0, "fusion_lon": 0.0, "fusion_lat": 0.0, "lat": 38.90522883333333, "type": "electric_scooter", "lon": -77.04989883333333, "bike_id": "9e6c097a105c98241ff0cb1bc6cf6ee0", "rental_uris": {"android": "https://dc.lft.to/lastmile_qr_scan", "ios": "https://dc.lft.to/lastmile_qr_scan"}, "name": "9e6c097a105c98241ff0cb1bc6cf6ee0", "is_reserved": 0}, {"is_disabled": 0, "fusion_lon": 0.0, "fusion_lat": 0.0, "lat": 38.93200383333333, "type": "electric_scooter", "lon": -77.02349033333333, "bike_id": "034493a6226dcac78171ea8c0a293906", "rental_uris": {"android": "https://dc.lft.to/lastmile_qr_scan", "ios": "https://dc.lft.to/lastmile_qr_scan"}, "name": "034493a6226dcac78171ea8c0a293906", "is_reserved": 0}, {"is_disabled": 0, "fusion_lon": 0.0, "fusion_lat": 0.0, "lat": 38.9354855, "type": "electric_scooter", "lon": -77.05811083333333, "bike_id": "7adc29056e422ac428657e97a4c63ef2", "rental_uris": {"android": "https://dc.lft.to/lastmile_qr_scan", "ios": "https://dc.lft.to/lastmile_qr_scan"}, "name": "7adc29056e422ac428657e97a4c63ef2", "is_reserved": 0}, {"is_disabled": 0, "fusion_lon": 0.0, "fusion_lat": 0.0, "lat": 38.91407566666667, "type": "electric_scooter", "lon": -77.0033045, "bike_id": "9f21f629492142c0ee07db71838151da", "rental_uris": {"android": "https://dc.lft.to/lastmile_qr_scan", "ios": "https://dc.lft.to/lastmile_qr_scan"}, "name": "9f21f629492142c0ee07db71838151da", "is_reserved": 0}, {"is_disabled": 0, "fusion_lon": 0.0, "fusion_lat": 0.0, "lat": 38.92557883333333, "type": "electric_scooter", "lon": -77.032936, "bike_id": "17fbf5637d41780f3e3def2c84046776", "rental_uris": {"android": "https://dc.lft.to/lastmile_qr_scan", "ios": "https://dc.lft.to/lastmile_qr_scan"}, "name": "17fbf5637d41780f3e3def2c84046776", "is_reserved": 0}, {"is_disabled": 0, "fusion_lon": 0.0, "fusion_lat": 0.0, "lat": 38.894966833333335, "type": "electric_scooter", "lon": -77.02284766666666, "bike_id": "467cb3fc1e6109254fd58e9c348eb858", "rental_uris": {"android": "https://dc.lft.to/lastmile_qr_scan", "ios": "https://dc.lft.to/lastmile_qr_scan"}, "name": "467cb3fc1e6109254fd58e9c348eb858", "is_reserved": 0}, {"is_disabled": 0, "fusion_lon": 0.0, "fusion_lat": 0.0, "lat": 38.919287833333335, "type": "electric_scooter", "lon": -77.025122, "bike_id": "3a01590c725b517e78299d3cddff23d3", "rental_uris": {"android": "https://dc.lft.to/lastmile_qr_scan", "ios": "https://dc.lft.to/lastmile_qr_scan"}, "name": "3a01590c725b517e78299d3cddff23d3", "is_reserved": 0}, {"is_disabled": 0, "fusion_lon": 0.0, "fusion_lat": 0.0, "lat": 38.9243335, "type": "electric_scooter", "lon": -77.04480083333333, "bike_id": "d78af2c900b71030cf83fc84186256b2", "rental_uris": {"android": "https://dc.lft.to/lastmile_qr_scan", "ios": "https://dc.lft.to/lastmile_qr_scan"}, "name": "d78af2c900b71030cf83fc84186256b2", "is_reserved": 0}, {"is_disabled": 0, "fusion_lon": 0.0, "fusion_lat": 0.0, "lat": 38.89583, "type": "electric_scooter", "lon": -77.02302483333334, "bike_id": "1866d95af781be82539994ebf6e79987", "rental_uris": {"android": "https://dc.lft.to/lastmile_qr_scan", "ios": "https://dc.lft.to/lastmile_qr_scan"}, "name": "1866d95af781be82539994ebf6e79987", "is_reserved": 0}, {"is_disabled": 0, "fusion_lon": 0.0, "fusion_lat": 0.0, "lat": 38.944933166666665, "type": "electric_bike", "lon": -76.98659183333334, "bike_id": "d2a26dcf72a948abb369bcd54d0e7b3f", "rental_uris": {"android": "https://dc.lft.to/lastmile_qr_scan", "ios": "https://dc.lft.to/lastmile_qr_scan"}, "name": "d2a26dcf72a948abb369bcd54d0e7b3f", "is_reserved": 0}, {"is_disabled": 0, "fusion_lon": 0.0, "fusion_lat": 0.0, "lat": 38.92398133333333, "type": "electric_scooter", "lon": -77.04092916666667, "bike_id": "26890faef53b1760bef0236dfe51522b", "rental_uris": {"android": "https://dc.lft.to/lastmile_qr_scan", "ios": "https://dc.lft.to/lastmile_qr_scan"}, "name": "26890faef53b1760bef0236dfe51522b", "is_reserved": 0}, {"is_disabled": 0, "fusion_lon": 0.0, "fusion_lat": 0.0, "lat": 38.9147125, "type": "electric_scooter", "lon": -77.02796933333333, "bike_id": "88fbb99e852ee5233314491bd15be131", "rental_uris": {"android": "https://dc.lft.to/lastmile_qr_scan", "ios": "https://dc.lft.to/lastmile_qr_scan"}, "name": "88fbb99e852ee5233314491bd15be131", "is_reserved": 0}, {"is_disabled": 0, "fusion_lon": 0.0, "fusion_lat": 0.0, "lat": 38.8901155, "type": "electric_scooter", "lon": -77.03320916666667, "bike_id": "df5031921378cf765c572b289b71112f", "rental_uris": {"android": "https://dc.lft.to/lastmile_qr_scan", "ios": "https://dc.lft.to/lastmile_qr_scan"}, "name": "df5031921378cf765c572b289b71112f", "is_reserved": 0}, {"is_disabled": 0, "fusion_lon": 0.0, "fusion_lat": 0.0, "lat": 38.868934833333334, "type": "electric_scooter", "lon": -76.98315316666667, "bike_id": "e1dae55beff4c4a109db16b989334291", "rental_uris": {"android": "https://dc.lft.to/lastmile_qr_scan", "ios": "https://dc.lft.to/lastmile_qr_scan"}, "name": "e1dae55beff4c4a109db16b989334291", "is_reserved": 0}, {"is_disabled": 0, "fusion_lon": 0.0, "fusion_lat": 0.0, "lat": 38.859885166666665, "type": "electric_bike", "lon": -76.97052383333333, "bike_id": "52a41536d5bfdeb1c04f26f004b60c27", "rental_uris": {"android": "https://dc.lft.to/lastmile_qr_scan", "ios": "https://dc.lft.to/lastmile_qr_scan"}, "name": "52a41536d5bfdeb1c04f26f004b60c27", "is_reserved": 0}, {"is_disabled": 0, "fusion_lon": 0.0, "fusion_lat": 0.0, "lat": 38.902175166666666, "type": "electric_scooter", "lon": -77.024379, "bike_id": "a6c3bcd6c27b0d887250cbf7db18acb3", "rental_uris": {"android": "https://dc.lft.to/lastmile_qr_scan", "ios": "https://dc.lft.to/lastmile_qr_scan"}, "name": "a6c3bcd6c27b0d887250cbf7db18acb3", "is_reserved": 0}, {"is_disabled": 0, "fusion_lon": 0.0, "fusion_lat": 0.0, "lat": 38.99454383333333, "type": "electric_bike", "lon": -76.90817316666667, "bike_id": "195538b6c41f38f34a8d55c8159035c0", "rental_uris": {"android": "https://dc.lft.to/lastmile_qr_scan", "ios": "https://dc.lft.to/lastmile_qr_scan"}, "name": "195538b6c41f38f34a8d55c8159035c0", "is_reserved": 0}, {"is_disabled": 0, "fusion_lon": 0.0, "fusion_lat": 0.0, "lat": 38.8801215, "type": "electric_bike", "lon": -76.915961, "bike_id": "64ace7e0dd44a79323d0de9742f81451", "rental_uris": {"android": "https://dc.lft.to/lastmile_qr_scan", "ios": "https://dc.lft.to/lastmile_qr_scan"}, "name": "64ace7e0dd44a79323d0de9742f81451", "is_reserved": 0}, {"is_disabled": 0, "fusion_lon": 0.0, "fusion_lat": 0.0, "lat": 38.885951166666665, "type": "electric_scooter", "lon": -77.005788, "bike_id": "269c8d06c9a703b1c50b148c12a36cbe", "rental_uris": {"android": "https://dc.lft.to/lastmile_qr_scan", "ios": "https://dc.lft.to/lastmile_qr_scan"}, "name": "269c8d06c9a703b1c50b148c12a36cbe", "is_reserved": 0}, {"is_disabled": 0, "fusion_lon": 0.0, "fusion_lat": 0.0, "lat": 38.9029945, "type": "electric_scooter", "lon": -77.03632366666666, "bike_id": "e98baaf85ff5a08fc1d4a650cc6892e5", "rental_uris": {"android": "https://dc.lft.to/lastmile_qr_scan", "ios": "https://dc.lft.to/lastmile_qr_scan"}, "name": "e98baaf85ff5a08fc1d4a650cc6892e5", "is_reserved": 0}, {"is_disabled": 0, "fusion_lon": 0.0, "fusion_lat": 0.0, "lat": 38.892615666666664, "type": "electric_scooter", "lon": -76.94157366666667, "bike_id": "28970016c0b5dbae925120e00cafa775", "rental_uris": {"android": "https://dc.lft.to/lastmile_qr_scan", "ios": "https://dc.lft.to/lastmile_qr_scan"}, "name": "28970016c0b5dbae925120e00cafa775", "is_reserved": 0}, {"is_disabled": 0, "fusion_lon": 0.0, "fusion_lat": 0.0, "lat": 38.91877366666667, "type": "electric_scooter", "lon": -77.04189416666667, "bike_id": "918da64d450558bc28994109c54f7f74", "rental_uris": {"android": "https://dc.lft.to/lastmile_qr_scan", "ios": "https://dc.lft.to/lastmile_qr_scan"}, "name": "918da64d450558bc28994109c54f7f74", "is_reserved": 0}, {"is_disabled": 0, "fusion_lon": 0.0, "fusion_lat": 0.0, "lat": 38.909503, "type": "electric_scooter", "lon": -77.0152615, "bike_id": "d2d9a5ba64eb642722380c48ad58df05", "rental_uris": {"android": "https://dc.lft.to/lastmile_qr_scan", "ios": "https://dc.lft.to/lastmile_qr_scan"}, "name": "d2d9a5ba64eb642722380c48ad58df05", "is_reserved": 0},