{"data": {"bikes": [{"bike_id": "2a2b775504269683c7f4706af712d115", "lat": 38.89972316666667, "is_reserved": 0, "fusion_lat": 0.0, "rental_uris": {"android": "https://dc.lft.to/lastmile_qr_scan", "ios": "https://dc.lft.to/lastmile_qr_scan"}, "fusion_lon": 0.0, "name": "2a2b775504269683c7f4706af712d115", "lon": -77.020014, "is_disabled": 0, "type": "electric_scooter"}, {"bike_id": "7b388719bd2e08cfd02dddb9b320165d", "lat": 38.9140215, "is_reserved": 0, "fusion_lat": 0.0, "rental_uris": {"android": "https://dc.lft.to/lastmile_qr_scan", "ios": "https://dc.lft.to/lastmile_qr_scan"}, "fusion_lon": 0.0, "name": "7b388719bd2e08cfd02dddb9b320165d", "lon": -77.03169883333334, "is_disabled": 0, "type": "electric_scooter"}, {"bike_id": "7ee991b0521180e2a8d53d049b3288fb", "lat": 38.900343666666664, "is_reserved": 0, "fusion_lat": 0.0, "rental_uris": {"android": "https://dc.lft.to/lastmile_qr_scan", "ios": "https://dc.lft.to/lastmile_qr_scan"}, "fusion_lon": 0.0, "name": "7ee991b0521180e2a8d53d049b3288fb", "lon": -77.00219516666667, "is_disabled": 0, "type": "electric_scooter"}, {"bike_id": "269d72bc11cbe7bc5bf899e4c2a8759b", "lat": 38.881245, "is_reserved": 0, "fusion_lat": 0.0, "rental_uris": {"android": "https://dc.lft.to/lastmile_qr_scan", "ios": "https://dc.lft.to/lastmile_qr_scan"}, "fusion_lon": 0.0, "name": "269d72bc11cbe7bc5bf899e4c2a8759b", "lon": -77.01651466666667, "is_disabled": 0, "type": "electric_scooter"}, {"bike_id": "41e0f53d91d4535f226e0577828196bd", "lat": 38.905834666666664, "is_reserved": 0, "fusion_lat": 0.0, "rental_uris": {"android": "https://dc.lft.to/lastmile_qr_scan", "ios": "https://dc.lft.to/lastmile_qr_scan"}, "fusion_lon": 0.0, "name": "41e0f53d91d4535f226e0577828196bd", "lon": -77.02184366666667, "is_disabled": 0, "type": "electric_scooter"}, {"bike_id": "396aa27115213eb402c3b31dfa189d4e", "lat": 38.87381366666666, "is_reserved": 0, "fusion_lat": 0.0, "rental_uris": {"android": "https://dc.lft.to/lastmile_qr_scan", "ios": "https://dc.lft.to/lastmile_qr_scan"}, "fusion_lon": 0.0, "name": "396aa27115213eb402c3b31dfa189d4e", "lon": -77.00061983333333, "is_disabled": 0, "type": "electric_scooter"}, {"bike_id": "dfc5292cbddf8703ac59c4fd999fb468", "lat": 38.89227116666667, "is_reserved": 0, "fusion_lat": 0.0, "rental_uris": {"android": "https://dc.lft.to/lastmile_qr_scan", "ios": "https://dc.lft.to/lastmile_qr_scan"}, "fusion_lon": 0.0, "name": "dfc5292cbddf8703ac59c4fd999fb468", "lon": -77.04508733333333, "is_disabled": 0, "type": "electric_scooter"}, {"bike_id": "b3d95bc2454da90c0c19c6baa699cc70", "lat": 38.929454666666665, "is_reserved": 0, "fusion_lat": 0.0, "rental_uris": {"android": "https://dc.lft.to/lastmile_qr_scan", "ios": "https://dc.lft.to/lastmile_qr_scan"}, "fusion_lon": 0.0, "name": "b3d95bc2454da90c0c19c6baa699cc70", "lon": -77.03472966666666, "is_disabled": 0, "type": "electric_scooter"}, {"bike_id": "c14a9a454a991236241183eefb8086c1", "lat": 39.04076883333333, "is_reserved": 0, "fusion_lat": 0.0, "rental_uris": {"android": "https://dc.lft.to/lastmile_qr_scan", "ios": "https://dc.lft.to/lastmile_qr_scan"}, "fusion_lon": 0.0, "name": "c14a9a454a991236241183eefb8086c1", "lon": -77.05339533333333, "is_disabled": 0, "type": "electric_bike"}, {"bike_id": "a4e525444beeb840611e80a7f711c5db", "lat": 38.92357666666667, "is_reserved": 0, "fusion_lat": 0.0, "rental_uris": {"android": "https://dc.lft.to/lastmile_qr_scan", "ios": "https://dc.lft.to/lastmile_qr_scan"}, "fusion_lon": 0.0, "name": "a4e525444beeb840611e80a7f711c5db", "lon": -77.0326055, "is_disabled": 0, "type": "electric_scooter"}, {"bike_id": "1faa6e040f4366e623c335b2954d684d", "lat": 38.89799083333333, "is_reserved": 0, "fusion_lat": 0.0, "rental_uris": {"android": "https://dc.lft.to/lastmile_qr_scan", "ios": "https://dc.lft.to/lastmile_qr_scan"}, "fusion_lon": 0.0, "name": "1faa6e040f4366e623c335b2954d684d", "lon": -77.0035115, "is_disabled": 0, "type": "electric_scooter"}, {"bike_id": "ae643ac857b6a02e542f29866da145ab", "lat": 38.92859966666666, "is_reserved": 0, "fusion_lat": 0.0, "rental_uris": {"android": "https://dc.lft.to/lastmile_qr_scan", "ios": "https://dc.lft.to/lastmile_qr_scan"}, "fusion_lon": 0.0, "name": "ae643ac857b6a02e542f29866da145ab", "lon": -77.03281066666666, "is_disabled": 0, "type": "electric_scooter"}, {"bike_id": "fd239673a6ac9aa46f39248ad9e59acc", "lat": 38.91867466666667, "is_reserved": 0, "fusion_lat": 0.0, "rental_uris": {"android": "https://dc.lft.to/lastmile_qr_scan", "ios": "https://dc.lft.to/lastmile_qr_scan"}, "fusion_lon": 0.0, "name": "fd239673a6ac9aa46f39248ad9e59acc", "lon": -77.041987, "is_disabled": 0, "type": "electric_scooter"}, {"bike_id": "e25093ff366766fc9fdabb4abfbb9f9d", "lat": 38.8922045, "is_reserved": 0, "fusion_lat": 0.0, "rental_uris": {"android": "https://dc.lft.to/lastmile_qr_scan", "ios": "https://dc.lft.to/lastmile_qr_scan"}, "fusion_lon": 0.0, "name": "e25093ff366766fc9fdabb4abfbb9f9d", "lon": -77.04371033333334, "is_disabled": 0, "type": "electric_scooter"}, {"bike_id": "def73be8d50f0241c15a1e7eaf1f7c6d", "lat": 38.92298566666667, "is_reserved": 0, "fusion_lat": 0.0, "rental_uris": {"android": "https://dc.lft.to/lastmile_qr_scan", "ios": "https://dc.lft.to/lastmile_qr_scan"}, "fusion_lon": 0.0, "name": "def73be8d50f0241c15a1e7eaf1f7c6d", "lon": -77.04181366666667, "is_disabled": 0, "type": "electric_scooter"}, {"bike_id": "5a0068836a6f6c4c7f92652640646d21", "lat": 38.96554316666667, "is_reserved": 0, "fusion_lat": 0.0, "rental_uris": {"android": "https://dc.lft.to/lastmile_qr_scan", "ios": "https://dc.lft.to/lastmile_qr_scan"}, "fusion_lon": 0.0, "name": "5a0068836a6f6c4c7f92652640646d21", "lon": -77.0020955, "is_disabled": 0, "type": "electric_scooter"}, {"bike_id": "f74c4fbe72ff56bf584d7c42473184a9", "lat": 38.921475, "is_reserved": 0, "fusion_lat": 0.0, "rental_uris": {"android": "https://dc.lft.to/lastmile_qr_scan", "ios": "https://dc.lft.to/lastmile_qr_scan"}, "fusion_lon": 0.0, "name": "f74c4fbe72ff56bf584d7c42473184a9", "lon": -77.03506533333334, "is_disabled": 0, "type": "electric_scooter"}, {"bike_id": "69eea27f1a7f2a706ea4066c527d091a", "lat": 38.91102033333333, "is_reserved": 0, "fusion_lat": 0.0, "rental_uris": {"android": "https://dc.lft.to/lastmile_qr_scan", "ios": "https://dc.lft.to/lastmile_qr_scan"}, "fusion_lon": 0.0, "name": "69eea27f1a7f2a706ea4066c527d091a", "lon": -77.0440055, "is_disabled": 0, "type": "electric_scooter"}, {"bike_id": "ea32143402e84394134644be0aaf5a2f", "lat": 38.9360695, "is_reserved": 0, "fusion_lat": 0.0, "rental_uris": {"android": "https://dc.lft.to/lastmile_qr_scan", "ios": "https://dc.lft.to/lastmile_qr_scan"}, "fusion_lon": 0.0, "name": "ea32143402e84394134644be0aaf5a2f", "lon": -77.05896466666667, "is_disabled": 0, "type": "electric_scooter"}, {"bike_id": "3f7271839c7ff2294fa531348783f06d", "lat": 38.91597316666667, "is_reserved": 0, "fusion_lat": 0.0, "rental_uris": {"android": "https://dc.lft.to/lastmile_qr_scan", "ios": "https://dc.lft.to/lastmile_qr_scan"}, "fusion_lon": 0.0, "name": "3f7271839c7ff2294fa531348783f06d", "lon": -77.00200766666667, "is_disabled": 0, "type": "electric_scooter"}, {"bike_id": "90107bcb401291525ce954092f34d76e", "lat": 38.89222566666667, "is_reserved": 0, "fusion_lat": 0.0, "rental_uris": {"android": "https://dc.lft.to/lastmile_qr_scan", "ios": "https://dc.lft.to/lastmile_qr_scan"}, "fusion_lon": 0.0, "name": "90107bcb401291525ce954092f34d76e", "lon": -77.04870116666666, "is_disabled": 0, "type": "electric_scooter"}, {"bike_id": "c35e9aff57db03d7cfa25f2632805915", "lat": 38.909699, "is_reserved": 0, "fusion_lat": 0.0, "rental_uris": {"android": "https://dc.lft.to/lastmile_qr_scan", "ios": "https://dc.lft.to/lastmile_qr_scan"}, "fusion_lon": 0.0, "name": "c35e9aff57db03d7cfa25f2632805915", "lon": -77.0171745, "is_disabled": 0, "type": "electric_scooter"}, {"bike_id": "a4eb0ef188266af2a9f80938d979fca3", "lat": 38.90388683333333, "is_reserved": 0, "fusion_lat": 0.0, "rental_uris": {"android": "https://dc.lft.to/lastmile_qr_scan", "ios": "https://dc.lft.to/lastmile_qr_scan"}, "fusion_lon": 0.0, "name": "a4eb0ef188266af2a9f80938d979fca3", "lon": -77.04675266666666, "is_disabled": 0, "type": "electric_scooter"}, {"bike_id": "be53f990a08f1270f49be4722de12c00", "lat": 38.941082, "is_reserved": 0, "fusion_lat": 0.0, "rental_uris": {"android": "https://dc.lft.to/lastmile_qr_scan", "ios": "https://dc.lft.to/lastmile_qr_scan"}, "fusion_lon": 0.0, "name": "be53f990a08f1270f49be4722de12c00", "lon": -77.02527316666666, "is_disabled": 0, "type": "electric_scooter"}, {"bike_id": "b4d3e9f763e4501d776eb2d3f6d7cb37", "lat": 38.902323333333335, "is_reserved": 0, "fusion_lat": 0.0, "rental_uris": {"android": "https://dc.lft.to/lastmile_qr_scan", "ios": "https://dc.lft.to/lastmile_qr_scan"}, "fusion_lon": 0.0, "name": "b4d3e9f763e4501d776eb2d3f6d7cb37", "lon": -77.0479725, "is_disabled": 0, "type": "electric_scooter"}, {"bike_id": "82536b8017a254202e0c3ca5a7b7b512", "lat": 38.923223, "is_reserved": 0, "fusion_lat": 0.0, "rental_uris": {"android": "https://dc.lft.to/lastmile_qr_scan", "ios": "https://dc.lft.to/lastmile_qr_scan"}, "fusion_lon": 0.0, "name": "82536b8017a254202e0c3ca5a7b7b512", "lon": -77.02973666666666, "is_disabled": 0, "type": "electric_scooter"}, {"bike_id": "1a41ee85a7baa61fc93d30daa2b62017", "lat": 38.915543666666665, "is_reserved": 0, "fusion_lat": 0.0, "rental_uris": {"android": "https://dc.lft.to/lastmile_qr_scan", "ios": "https://dc.lft.to/lastmile_qr_scan"}, "fusion_lon": 0.0, "name": "1a41ee85a7baa61fc93d30daa2b62017", "lon": -77.033236, "is_disabled": 0, "type": "electric_scooter"}, {"bike_id": "57f8d0228633fc5ad7b3a7fdfc8bec27", "lat": 38.9270055, "is_reserved": 0, "fusion_lat": 0.0, "rental_uris": {"android": "https://dc.lft.to/lastmile_qr_scan", "ios": "https://dc.lft.to/lastmile_qr_scan"}, "fusion_lon": 0.0, "name": "57f8d0228633fc5ad7b3a7fdfc8bec27", "lon": -77.03643383333333, "is_disabled": 0, "type": "electric_scooter"}, {"bike_id": "9e6d675e5ec761819ead07e020259e1c", "lat": 38.883015666666665, "is_reserved": 0, "fusion_lat": 0.0, "rental_uris": {"android": "https://dc.lft.to/lastmile_qr_scan", "ios": "https://dc.lft.to/lastmile_qr_scan"}, "fusion_lon": 0.0, "name": "9e6d675e5ec761819ead07e020259e1c", "lon": -76.942052, "is_disabled": 0, "type": "electric_scooter"}, {"bike_id": "168cee9c36b7ac2e672d4e68350f7a01", "lat": 38.94993233333334, "is_reserved": 0, "fusion_lat": 0.0, "rental_uris": {"android": "https://dc.lft.to/lastmile_qr_scan", "ios": "https://dc.lft.to/lastmile_qr_scan"}, "fusion_lon": 0.0, "name": "168cee9c36b7ac2e672d4e68350f7a01", "lon": -77.01836866666666, "is_disabled": 0, "type": "electric_scooter"}, {"bike_id": "34d7a4c4a54c20fbe600aa543c2c4ba7", "lat": 38.886588, "is_reserved": 0, "fusion_lat": 0.0, "rental_uris": {"android": "https://dc.lft.to/lastmile_qr_scan", "ios": "https://dc.lft.to/lastmile_qr_scan"}, "fusion_lon": 0.0, "name": "34d7a4c4a54c20fbe600aa543c2c4ba7", "lon": -77.162424, "is_disabled": 0, "type": "electric_bike"}, {"bike_id": "47d4919c1d94c298f28782cca621c919", "lat": 38.931574, "is_reserved": 0, "fusion_lat": 0.0, "rental_uris": {"android": "https://dc.lft.to/lastmile_qr_scan", "ios": "https://dc.lft.to/lastmile_qr_scan"}, "fusion_lon": 0.0, "name": "47d4919c1d94c298f28782cca621c919", "lon": -77.02881333333333, "is_disabled": 0, "type": "electric_scooter"}, {"bike_id": "9bdc5c35d55c6f9d9d65a45f6c4b1d17", "lat": 38.87623516666667, "is_reserved": 0, "fusion_lat": 0.0, "rental_uris": {"android": "https://dc.lft.to/lastmile_qr_scan", "ios": "https://dc.lft.to/lastmile_qr_scan"}, "fusion_lon": 0.0, "name": "9bdc5c35d55c6f9d9d65a45f6c4b1d17", "lon": -76.96530516666667, "is_disabled": 0, "type": "electric_scooter"}, {"bike_id": "b023d9db4479f1d4ce4b5347e9b5aa9e", "lat": 38.88334416666667, "is_reserved": 0, "fusion_lat": 0.0, "rental_uris": {"android": "https://dc.lft.to/lastmile_qr_scan", "ios": "https://dc.lft.to/lastmile_qr_scan"}, "fusion_lon": 0.0, "name": "b023d9db4479f1d4ce4b5347e9b5aa9e", "lon": -76.99492666666667, "is_disabled": 0, "type": "electric_scooter"}, {"bike_id": "7100f70c892d8a04076580db02ec486a", "lat": 38.9005815, "is_reserved": 0, "fusion_lat": 0.0, "rental_uris": {"android": "https://dc.lft.to/lastmile_qr_scan", "ios": "https://dc.lft.to/lastmile_qr_scan"}, "fusion_lon": 0.0, "name": "7100f70c892d8a04076580db02ec486a", "lon": -76.92742116666666, "is_disabled": 0, "type": "electric_scooter"}, {"bike_id": "2cd45bd9675dc5f41bbefbcc2a0e91e9", "lat": 38.927156, "is_reserved": 0, "fusion_lat": 0.0, "rental_uris": {"android": "https://dc.lft.to/lastmile_qr_scan", "ios": "https://dc.lft.to/lastmile_qr_scan"}, "fusion_lon": 0.0, "name": "2cd45bd9675dc5f41bbefbcc2a0e91e9", "lon": -77.01472683333333, "is_disabled": 0, "type": "electric_scooter"}, {"bike_id": "131f8b3c29d38b85fec740cfa430d4f0", "lat": 38.90976416666667, "is_reserved": 0, "fusion_lat": 0.0, "rental_uris": {"android": "https://dc.lft.to/lastmile_qr_scan", "ios": "https://dc.lft.to/lastmile_qr_scan"}, "fusion_lon": 0.0, "name": "131f8b3c29d38b85fec740cfa430d4f0", "lon": -76.99512416666667, "is_disabled": 0, "type": "electric_scooter"}, {"bike_id": "5f08c9e04e2a4ec790885145012a9f4a", "lat": 38.876554166666665, "is_reserved": 0, "fusion_lat": 0.0, "rental_uris": {"android": "https://dc.lft.to/lastmile_qr_scan", "ios": "https://dc.lft.to/lastmile_qr_scan"}, "fusion_lon": 0.0, "name": "5f08c9e04e2a4ec790885145012a9f4a", "lon": -77.004411, "is_disabled": 0, "type": "electric_scooter"}, {"bike_id": "9bc67733a5a17b3ee8c08e875781ad85", "lat": 38.90612516666667, "is_reserved": 0, "fusion_lat": 0.0, "rental_uris": {"android": "https://dc.lft.to/lastmile_qr_scan", "ios": "https://dc.lft.to/lastmile_qr_scan"}, "fusion_lon": 0.0, "name": "9bc67733a5a17b3ee8c08e875781ad85", "lon": -77.07639816666666, "is_disabled": 0, "type": "electric_bike"}, {"bike_id": "357246c1a53b19f29def4c00445eefdd", "lat": 38.90172483333333, "is_reserved": 0, "fusion_lat": 0.0, "rental_uris": {"android": "https://dc.lft.to/lastmile_qr_scan", "ios": "https://dc.lft.to/lastmile_qr_scan"}, "fusion_lon": 0.0, "name": "357246c1a53b19f29def4c00445eefdd", "lon": -77.02032, "is_disabled": 0, "type": "electric_scooter"}, {"bike_id": "c9c13856bcb4dd099111b3d40463b1ee", "lat": 38.8818635, "is_reserved": 0, "fusion_lat": 0.0, "rental_uris": {"android": "https://dc.lft.to/lastmile_qr_scan", "ios": "https://dc.lft.to/lastmile_qr_scan"}, "fusion_lon": 0.0, "name": "c9c13856bcb4dd099111b3d40463b1ee", "lon": -77.0208805, "is_disabled": 0, "type": "electric_scooter"}, {"bike_id": "57e1bba05adb4b1fc5e4d6004a7a2285", "lat": 38.92319, "is_reserved": 0, "fusion_lat": 0.0, "rental_uris": {"android": "https://dc.lft.to/lastmile_qr_scan", "ios": "https://dc.lft.to/lastmile_qr_scan"}, "fusion_lon": 0.0, "name": "57e1bba05adb4b1fc5e4d6004a7a2285", "lon": -77.04443666666667, "is_disabled": 0, "type": "electric_scooter"}, {"bike_id": "1eb5d1d38104e640e1874ce56f469196", "lat": 38.93190766666667, "is_reserved": 0, "fusion_lat": 0.0, "rental_uris": {"android": "https://dc.lft.to/lastmile_qr_scan", "ios": "https://dc.lft.to/lastmile_qr_scan"}, "fusion_lon": 0.0, "name": "1eb5d1d38104e640e1874ce56f469196", "lon": -77.02403633333333, "is_disabled": 0, "type": "electric_scooter"}, {"bike_id": "0ff9b602f3f39700057ded76ecb948bb", "lat": 38.928988, "is_reserved": 0, "fusion_lat": 0.0, "rental_uris": {"android": "https://dc.lft.to/lastmile_qr_scan", "ios": "https://dc.lft.to/lastmile_qr_scan"}, "fusion_lon": 0.0, "name": "0ff9b602f3f39700057ded76ecb948bb", "lon": -77.01664083333333, "is_disabled": 0, "type": "electric_scooter"}, {"bike_id": "ef625ca77bda4ac7914f274b9260800b", "lat": 38.91117933333334, "is_reserved": 0, "fusion_lat": 0.0, "rental_uris": {"android": "https://dc.lft.to/lastmile_qr_scan", "ios": "https://dc.lft.to/lastmile_qr_scan"}, "fusion_lon": 0.0, "name": "ef625ca77bda4ac7914f274b9260800b", "lon": -77.04466866666667, "is_disabled": 0, "type": "electric_scooter"}, {"bike_id": "1eaf31b79b9efab59d23e07fe46fa831", "lat": 39.01479416666667, "is_reserved": 0, "fusion_lat": 0.0, "rental_uris": {"android": "https://dc.lft.to/lastmile_qr_scan", "ios": "https://dc.lft.to/lastmile_qr_scan"}, "fusion_lon": 0.0, "name": "1eaf31b79b9efab59d23e07fe46fa831", "lon": -77.05498516666667, "is_disabled": 0, "type": "electric_bike"}, {"bike_id": "8579528694ebbe3607965594a9553be7", "lat": 38.89222633333333, "is_reserved": 0, "fusion_lat": 0.0, "rental_uris": {"android": "https://dc.lft.to/lastmile_qr_scan", "ios": "https://dc.lft.to/lastmile_qr_scan"}, "fusion_lon": 0.0, "name": "8579528694ebbe3607965594a9553be7", "lon": -77.02788416666667, "is_disabled": 0, "type": "electric_scooter"}, {"bike_id": "a8444e2225b640d91b20fcee1a347d8b", "lat": 38.91481116666667, "is_reserved": 0, "fusion_lat": 0.0, "rental_uris": {"android": "https://dc.lft.to/lastmile_qr_scan", "ios": "https://dc.lft.to/lastmile_qr_scan"}, "fusion_lon": 0.0, "name": "a8444e2225b640d91b20fcee1a347d8b", "lon": -77.04557866666667, "is_disabled": 0, "type": "electric_scooter"}, {"bike_id": "eecb45c8cd1b27c08b314d1ce783b54e", "lat": 38.91680066666667, "is_reserved": 0, "fusion_lat": 0.0, "rental_uris": {"android": "https://dc.lft.to/lastmile_qr_scan", "ios": "https://dc.lft.to/lastmile_qr_scan"}, "fusion_lon": 0.0, "name": "eecb45c8cd1b27c08b314d1ce783b54e", "lon": -77.02327466666667, "is_disabled": 0, "type": "electric_scooter"}, {"bike_id": "93dcb45c1bc2359b533584cc01f04728", "lat": 38.89540916666667, "is_reserved": 0, "fusion_lat": 0.0, "rental_uris": {"android": "https://dc.lft.to/lastmile_qr_scan", "ios": "https://dc.lft.to/lastmile_qr_scan"}, "fusion_lon": 0.0, "name": "93dcb45c1bc2359b533584cc01f04728", "lon": -77.00385733333333, "is_disabled": 0, "type": "electric_scooter"}, {"bike_id": "f57e5c614d90e691787ef6e66c7962f0", "lat": 38.8874315, "is_reserved": 0, "fusion_lat": 0.0, "rental_uris": {"android": "https://dc.lft.to/lastmile_qr_scan", "ios": "https://dc.lft.to/lastmile_qr_scan"}, "fusion_lon": 0.0, "name": "f57e5c614d90e691787ef6e66c7962f0", "lon": -77.02572883333333, "is_disabled": 0, "type": "electric_scooter"}, {"bike_id": "5bb07a454d14a85aa955e37befedd548", "lat": 38.957753333333336, "is_reserved": 0, "fusion_lat": 0.0, "rental_uris": {"android": "https://dc.lft.to/lastmile_qr_scan", "ios": "https://dc.lft.to/lastmile_qr_scan"}, "fusion_lon": 0.0, "name": "5bb07a454d14a85aa955e37befedd548", "lon": -77.0246825, "is_disabled": 0, "type": "electric_scooter"}, {"bike_id": "d783d660136ef06154624dd0f9d16b91", "lat": 38.89869066666667, "is_reserved": 0, "fusion_lat": 0.0, "rental_uris": {"android": "https://dc.lft.to/lastmile_qr_scan", "ios": "https://dc.lft.to/lastmile_qr_scan"}, "fusion_lon": 0.0, "name": "d783d660136ef06154624dd0f9d16b91", "lon": -76.946446, "is_disabled": 0, "type": "electric_scooter"}, {"bike_id": "0928e745accd1fa1c7e06cb997c61579", "lat": 38.908645666666665, "is_reserved": 0, "fusion_lat": 0.0, "rental_uris": {"android": "https://dc.lft.to/lastmile_qr_scan", "ios": "https://dc.lft.to/lastmile_qr_scan"}, "fusion_lon": 0.0, "name": "0928e745accd1fa1c7e06cb997c61579", "lon": -77.07649283333333, "is_disabled": 0, "type": "electric_bike"}, {"bike_id": "d298087098733d0e6332027057a4cada", "lat": 38.89588766666667, "is_reserved": 0, "fusion_lat": 0.0, "rental_uris": {"android": "https://dc.lft.to/lastmile_qr_scan", "ios": "https://dc.lft.to/lastmile_qr_scan"}, "fusion_lon": 0.0, "name": "d298087098733d0e6332027057a4cada", "lon": -77.02208583333334, "is_disabled": 0, "type": "electric_scooter"}, {"bike_id": "fd7e4882bc774b5d161ecf5cd617277b", "lat": 38.8839055, "is_reserved": 0, "fusion_lat": 0.0, "rental_uris": {"android": "https://dc.lft.to/lastmile_qr_scan", "ios": "https://dc.lft.to/lastmile_qr_scan"}, "fusion_lon": 0.0, "name": "fd7e4882bc774b5d161ecf5cd617277b", "lon": -77.01559233333333, "is_disabled": 0, "type": "electric_scooter"}, {"bike_id": "2fd826758008caadd32cf76e04b8c018", "lat": 38.910583833333334, "is_reserved": 0, "fusion_lat": 0.0, "rental_uris": {"android": "https://dc.lft.to/lastmile_qr_scan", "ios": "https://dc.lft.to/lastmile_qr_scan"}, "fusion_lon": 0.0, "name": "2fd826758008caadd32cf76e04b8c018", "lon": -77.021956, "is_disabled": 0, "type": "electric_scooter"}, {"bike_id": "f96f3d319d95abe369750d4860b94957", "lat": 38.8443035, "is_reserved": 0, "fusion_lat": 0.0, "rental_uris": {"android": "https://dc.lft.to/lastmile_qr_scan", "ios": "https://dc.lft.to/lastmile_qr_scan"}, "fusion_lon": 0.0, "name": "f96f3d319d95abe369750d4860b94957", "lon": -76.99878083333333, "is_disabled": 0, "type": "electric_scooter"}, {"bike_id": "cb2907fc28fb8f118cbfb643d3e9926b", "lat": 38.90727, "is_reserved": 0, "fusion_lat": 0.0, "rental_uris": {"android": "https://dc.lft.to/lastmile_qr_scan", "ios": "https://dc.lft.to/lastmile_qr_scan"}, "fusion_lon": 0.0, "name": "cb2907fc28fb8f118cbfb643d3e9926b", "lon": -77.02380733333334, "is_disabled": 0, "type": "electric_scooter"}, {"bike_id": "4992fdfd37fe7577473527c019f1bc47", "lat": 38.902332666666666, "is_reserved": 0, "fusion_lat": 0.0, "rental_uris": {"android": "https://dc.lft.to/lastmile_qr_scan", "ios": "https://dc.lft.to/lastmile_qr_scan"}, "fusion_lon": 0.0, "name": "4992fdfd37fe7577473527c019f1bc47", "lon": -77.00203483333334, "is_disabled": 0, "type": "electric_scooter"}, {"bike_id": "d5f497efc6c78e503766a3dc4d35eb46", "lat": 38.91471383333333, "is_reserved": 0, "fusion_lat": 0.0, "rental_uris": {"android": "https://dc.lft.to/lastmile_qr_scan", "ios": "https://dc.lft.to/lastmile_qr_scan"}, "fusion_lon": 0.0, "name": "d5f497efc6c78e503766a3dc4d35eb46", "lon": -77.04587683333334, "is_disabled": 0, "type": "electric_scooter"}, {"bike_id": "92ac1960a3ddb5d0cdd5892c397fd6d5", "lat": 38.914783166666666, "is_reserved": 0, "fusion_lat": 0.0, "rental_uris": {"android": "https://dc.lft.to/lastmile_qr_scan", "ios": "https://dc.lft.to/lastmile_qr_scan"}, "fusion_lon": 0.0, "name": "92ac1960a3ddb5d0cdd5892c397fd6d5", "lon": -77.0456515, "is_disabled": 0, "type": "electric_scooter"}, {"bike_id": "4115caf060cd6117253253831983496f", "lat": 38.96500266666666, "is_reserved": 0, "fusion_lat": 0.0, "rental_uris": {"android": "https://dc.lft.to/lastmile_qr_scan", "ios": "https://dc.lft.to/lastmile_qr_scan"}, "fusion_lon": 0.0, "name": "4115caf060cd6117253253831983496f", "lon": -77.00202516666667, "is_disabled": 0, "type": "electric_scooter"}, {"bike_id": "ff81a94c17a714870ba9246dfb65c0bb", "lat": 38.902617, "is_reserved": 0, "fusion_lat": 0.0, "rental_uris": {"android": "https://dc.lft.to/lastmile_qr_scan", "ios": "https://dc.lft.to/lastmile_qr_scan"}, "fusion_lon": 0.0, "name": "ff81a94c17a714870ba9246dfb65c0bb", "lon": -77.0395995, "is_disabled": 0, "type": "electric_scooter"}, {"bike_id": "dc849514596b0fcce1fcc813f0785bdc", "lat": 38.90249133333333, "is_reserved": 0, "fusion_lat": 0.0, "rental_uris": {"android": "https://dc.lft.to/lastmile_qr_scan", "ios": "https://dc.lft.to/lastmile_qr_scan"}, "fusion_lon": 0.0, "name": "dc849514596b0fcce1fcc813f0785bdc", "lon": -77.03929066666667, "is_disabled": 0, "type": "electric_scooter"}, {"bike_id": "81f857f5c64c5796bd29640c3a520632", "lat": 38.91804883333333, "is_reserved": 0, "fusion_lat": 0.0, "rental_uris": {"android": "https://dc.lft.to/lastmile_qr_scan", "ios": "https://dc.lft.to/lastmile_qr_scan"}, "fusion_lon": 0.0, "name": "81f857f5c64c5796bd29640c3a520632", "lon": -77.02699516666667, "is_disabled": 0, "type": "electric_scooter"}, {"bike_id": "ac7d1935bca3f59e350e4711c05fb798", "lat": 38.902224333333336, "is_reserved": 0, "fusion_lat": 0.0, "rental_uris": {"android": "https://dc.lft.to/lastmile_qr_scan", "ios": "https://dc.lft.to/lastmile_qr_scan"}, "fusion_lon": 0.0, "name": "ac7d1935bca3f59e350e4711c05fb798", "lon": -77.02215283333334, "is_disabled": 0, "type": "electric_scooter"}, {"bike_id": "e3396d9d9edf030928151dbd72ada33a", "lat": 38.89942766666667, "is_reserved": 0, "fusion_lat": 0.0, "rental_uris": {"android": "https://dc.lft.to/lastmile_qr_scan", "ios": "https://dc.lft.to/lastmile_qr_scan"}, "fusion_lon": 0.0, "name": "e3396d9d9edf030928151dbd72ada33a", "lon": -77.04504433333334, "is_disabled": 0, "type": "electric_scooter"}, {"bike_id": "6ff63e5cb858318ca52d4433ac321ced", "lat": 38.93896, "is_reserved": 0, "fusion_lat": 0.0, "rental_uris": {"android": "https://dc.lft.to/lastmile_qr_scan", "ios": "https://dc.lft.to/lastmile_qr_scan"}, "fusion_lon": 0.0, "name": "6ff63e5cb858318ca52d4433ac321ced", "lon": -77.06358316666666, "is_disabled": 0, "type": "electric_bike"}, {"bike_id": "e55e85d5859d90e0e355cbc9b0ed89db", "lat": 38.907389, "is_reserved": 0, "fusion_lat": 0.0, "rental_uris": {"android": "https://dc.lft.to/lastmile_qr_scan", "ios": "https://dc.lft.to/lastmile_qr_scan"}, "fusion_lon": 0.0, "name": "e55e85d5859d90e0e355cbc9b0ed89db", "lon": -77.04291733333334, "is_disabled": 0, "type": "electric_scooter"}, {"bike_id": "35224cf8c6e37c36ff7195b772caa920", "lat": 38.88534583333333, "is_reserved": 0, "fusion_lat": 0.0, "rental_uris": {"android": "https://dc.lft.to/lastmile_qr_scan", "ios": "https://dc.lft.to/lastmile_qr_scan"}, "fusion_lon": 0.0, "name": "35224cf8c6e37c36ff7195b772caa920", "lon": -77.0058015, "is_disabled": 0, "type": "electric_scooter"}, {"bike_id": "260176cbc465aca008eedbecbfed84a7", "lat": 39.050982166666664, "is_reserved": 0, "fusion_lat": 0.0, "rental_uris": {"android": "https://dc.lft.to/lastmile_qr_scan", "ios": "https://dc.lft.to/lastmile_qr_scan"}, "fusion_lon": 0.0, "name": "260176cbc465aca008eedbecbfed84a7", "lon": -77.1175495, "is_disabled": 0, "type": "electric_bike"}, {"bike_id": "4041a24d3f7102f1576d85ea5c0497f1", "lat": 38.89510716666667, "is_reserved": 0, "fusion_lat": 0.0, "rental_uris": {"android": "https://dc.lft.to/lastmile_qr_scan", "ios": "https://dc.lft.to/lastmile_qr_scan"}, "fusion_lon": 0.0, "name": "4041a24d3f7102f1576d85ea5c0497f1", "lon": -77.04348433333334, "is_disabled": 0, "type": "electric_scooter"}, {"bike_id": "a005f7bd74f657e193a414cd2aac37a1", "lat": 38.956362166666665, "is_reserved": 0, "fusion_lat": 0.0, "rental_uris": {"android": "https://dc.lft.to/lastmile_qr_scan", "ios": "https://dc.lft.to/lastmile_qr_scan"}, "fusion_lon": 0.0, "name": "a005f7bd74f657e193a414cd2aac37a1", "lon": -77.03628683333334, "is_disabled": 0, "type": "electric_scooter"}, {"bike_id": "6c1f7727f36ae55f51c0f78b9609a518", "lat": 38.88398983333333, "is_reserved": 0, "fusion_lat": 0.0, "rental_uris": {"android": "https://dc.lft.to/lastmile_qr_scan", "ios": "https://dc.lft.to/lastmile_qr_scan"}, "fusion_lon": 0.0, "name": "6c1f7727f36ae55f51c0f78b9609a518", "lon": -76.96065516666667, "is_disabled": 0, "type": "electric_bike"}, {"bike_id": "2939a35e28da295fdb0e27c67bf68255", "lat": 38.90793016666667, "is_reserved": 0, "fusion_lat": 0.0, "rental_uris": {"android": "https://dc.lft.to/lastmile_qr_scan", "ios": "https://dc.lft.to/lastmile_qr_scan"}, "fusion_lon": 0.0, "name": "2939a35e28da295fdb0e27c67bf68255", "lon": -77.02695983333334, "is_disabled": 0, "type": "electric_scooter"}, {"bike_id": "d9bd7f2f33e6c33e95703d88f750c24e", "lat": 38.903476, "is_reserved": 0, "fusion_lat": 0.0, "rental_uris": {"android": "https://dc.lft.to/lastmile_qr_scan", "ios": "https://dc.lft.to/lastmile_qr_scan"}, "fusion_lon": 0.0, "name": "d9bd7f2f33e6c33e95703d88f750c24e", "lon": -76.99226833333333, "is_disabled": 0, "type": "electric_scooter"}, {"bike_id": "0a7e51424c5f42f3a319be76c45ddd4b", "lat": 38.88709516666667, "is_reserved": 0, "fusion_lat": 0.0, "rental_uris": {"android": "https://dc.lft.to/lastmile_qr_scan", "ios": "https://dc.lft.to/lastmile_qr_scan"}, "fusion_lon": 0.0, "name": "0a7e51424c5f42f3a319be76c45ddd4b", "lon": -77.021904, "is_disabled": 0, "type": "electric_scooter"}, {"bike_id": "17be973614b5ccb25f9ede33b5134e21", "lat": 38.915613, "is_reserved": 0, "fusion_lat": 0.0, "rental_uris": {"android": "https://dc.lft.to/lastmile_qr_scan", "ios": "https://dc.lft.to/lastmile_qr_scan"}, "fusion_lon": 0.0, "name": "17be973614b5ccb25f9ede33b5134e21", "lon": -77.03052316666667, "is_disabled": 0, "type": "electric_scooter"}, {"bike_id": "bb8927274fb0a15ff78423e06c3357ed", "lat": 38.9097005, "is_reserved": 0, "fusion_lat": 0.0, "rental_uris": {"android": "https://dc.lft.to/lastmile_qr_scan", "ios": "https://dc.lft.to/lastmile_qr_scan"}, "fusion_lon": 0.0, "name": "bb8927274fb0a15ff78423e06c3357ed", "lon": -77.0345215, "is_disabled": 0, "type": "electric_scooter"}, {"bike_id": "1e6f41ff846fcc21e9442b9a408f88ad", "lat": 38.838103333333336, "is_reserved": 0, "fusion_lat": 0.0, "rental_uris": {"android": "https://dc.lft.to/lastmile_qr_scan", "ios": "https://dc.lft.to/lastmile_qr_scan"}, "fusion_lon": 0.0, "name": "1e6f41ff846fcc21e9442b9a408f88ad", "lon": -77.095241, "is_disabled": 0, "type": "electric_bike"}, {"bike_id": "31e82e159955521db0798e7c80c793f1", "lat": 38.88140333333333, "is_reserved": 0, "fusion_lat": 0.0, "rental_uris": {"android": "https://dc.lft.to/lastmile_qr_scan", "ios": "https://dc.lft.to/lastmile_qr_scan"}, "fusion_lon": 0.0, "name": "31e82e159955521db0798e7c80c793f1", "lon": -77.01649783333333, "is_disabled": 0, "type": "electric_bike"}, {"bike_id": "7257ef2b6f0c95e013d52fe92d44cd61", "lat": 38.89979066666667, "is_reserved": 0, "fusion_lat": 0.0, "rental_uris": {"android": "https://dc.lft.to/lastmile_qr_scan", "ios": "https://dc.lft.to/lastmile_qr_scan"}, "fusion_lon": 0.0, "name": "7257ef2b6f0c95e013d52fe92d44cd61", "lon": -76.99617833333333, "is_disabled": 0, "type": "electric_scooter"}, {"bike_id": "2651f3241be7ac8a1914960ccbd98982", "lat": 38.92882383333333, "is_reserved": 0, "fusion_lat": 0.0, "rental_uris": {"android": "https://dc.lft.to/lastmile_qr_scan", "ios": "https://dc.lft.to/lastmile_qr_scan"}, "fusion_lon": 0.0, "name": "2651f3241be7ac8a1914960ccbd98982", "lon": -77.0373125, "is_disabled": 0, "type": "electric_scooter"}, {"bike_id": "0d3bd05b8ecd5ec9a5032fdc6a05c114", "lat": 38.9086705, "is_reserved": 0, "fusion_lat": 0.0, "rental_uris": {"android": "https://dc.lft.to/lastmile_qr_scan", "ios": "https://dc.lft.to/lastmile_qr_scan"}, "fusion_lon": 0.0, "name": "0d3bd05b8ecd5ec9a5032fdc6a05c114", "lon": -76.997953, "is_disabled": 0, "type": "electric_scooter"}, {"bike_id": "2481156def0f4bcb8d72da2ae23ca5b2", "lat": 38.905337833333334, "is_reserved": 0, "fusion_lat": 0.0, "rental_uris": {"android": "https://dc.lft.to/lastmile_qr_scan", "ios": "https://dc.lft.to/lastmile_qr_scan"}, "fusion_lon": 0.0, "name": "2481156def0f4bcb8d72da2ae23ca5b2", "lon": -77.04483116666667, "is_disabled": 0, "type": "electric_scooter"}, {"bike_id": "428d7caa88d8924523549af41623467b", "lat": 38.965466666666664, "is_reserved": 0, "fusion_lat": 0.0, "rental_uris": {"android": "https://dc.lft.to/lastmile_qr_scan", "ios": "https://dc.lft.to/lastmile_qr_scan"}, "fusion_lon": 0.0, "name": "428d7caa88d8924523549af41623467b", "lon": -77.03628083333334, "is_disabled": 0, "type": "electric_scooter"}, {"bike_id": "0a7383380594f4ce78dd1445358d836d", "lat": 38.88519516666667, "is_reserved": 0, "fusion_lat": 0.0, "rental_uris": {"android": "https://dc.lft.to/lastmile_qr_scan", "ios": "https://dc.lft.to/lastmile_qr_scan"}, "fusion_lon": 0.0, "name": "0a7383380594f4ce78dd1445358d836d", "lon": -76.99095466666667, "is_disabled": 0, "type": "electric_scooter"}, {"bike_id": "527092acf8bf8bbc89b18e3167502b20", "lat": 38.89886533333333, "is_reserved": 0, "fusion_lat": 0.0, "rental_uris": {"android": "https://dc.lft.to/lastmile_qr_scan", "ios": "https://dc.lft.to/lastmile_qr_scan"}, "fusion_lon": 0.0, "name": "527092acf8bf8bbc89b18e3167502b20", "lon": -77.032791, "is_disabled": 0, "type": "electric_scooter"}, {"bike_id": "d5dbfd1c1503e3211598e95f9bdcc061", "lat": 38.91678066666667, "is_reserved": 0, "fusion_lat": 0.0, "rental_uris": {"android": "https://dc.lft.to/lastmile_qr_scan", "ios": "https://dc.lft.to/lastmile_qr_scan"}, "fusion_lon": 0.0, "name": "d5dbfd1c1503e3211598e95f9bdcc061", "lon": -77.02978766666666, "is_disabled": 0, "type": "electric_scooter"}, {"bike_id": "ab83a3abdae14e52e1303416e93df05b", "lat": 38.92033766666667, "is_reserved": 0, "fusion_lat": 0.0, "rental_uris": {"android": "https://dc.lft.to/lastmile_qr_scan", "ios": "https://dc.lft.to/lastmile_qr_scan"}, "fusion_lon": 0.0, "name": "ab83a3abdae14e52e1303416e93df05b", "lon": -77.01778933333334, "is_disabled": 0, "type": "electric_scooter"}, {"bike_id": "2130af651e18395c85f9cd1ca95a6e23", "lat": 38.902432, "is_reserved": 0, "fusion_lat": 0.0, "rental_uris": {"android": "https://dc.lft.to/lastmile_qr_scan", "ios": "https://dc.lft.to/lastmile_qr_scan"}, "fusion_lon": 0.0, "name": "2130af651e18395c85f9cd1ca95a6e23", "lon": -77.03919833333333, "is_disabled": 0, "type": "electric_scooter"}, {"bike_id": "7e1d6a1aed19a5bf47bd7af8656d5a08", "lat": 38.92859033333333, "is_reserved": 0, "fusion_lat": 0.0, "rental_uris": {"android": "https://dc.lft.to/lastmile_qr_scan", "ios": "https://dc.lft.to/lastmile_qr_scan"}, "fusion_lon": 0.0, "name": "7e1d6a1aed19a5bf47bd7af8656d5a08", "lon": -77.03021283333334, "is_disabled": 0, "type": "electric_scooter"}, {"bike_id": "c49469efe0517a6491a201924f994b8b", "lat": 38.939969833333336, "is_reserved": 0, "fusion_lat": 0.0, "rental_uris": {"android": "https://dc.lft.to/lastmile_qr_scan", "ios": "https://dc.lft.to/lastmile_qr_scan"}, "fusion_lon": 0.0, "name": "c49469efe0517a6491a201924f994b8b", "lon": -77.03810833333333, "is_disabled": 0, "type": "electric_scooter"}, {"bike_id": "f1d87fc64f5bcec3f8a252221814e2ac", "lat": 38.89655616666667, "is_reserved": 0, "fusion_lat": 0.0, "rental_uris": {"android": "https://dc.lft.to/lastmile_qr_scan", "ios": "https://dc.lft.to/lastmile_qr_scan"}, "fusion_lon": 0.0, "name": "f1d87fc64f5bcec3f8a252221814e2ac", "lon": -77.05035166666667, "is_disabled": 0, "type": "electric_scooter"}, {"bike_id": "eaef5861f198cc79cfd11ed686205ed4", "lat": 38.92228083333333, "is_reserved": 0, "fusion_lat": 0.0, "rental_uris": {"android": "https://dc.lft.to/lastmile_qr_scan", "ios": "https://dc.lft.to/lastmile_qr_scan"}, "fusion_lon": 0.0, "name": "eaef5861f198cc79cfd11ed686205ed4", "lon": -77.0438105, "is_disabled": 0, "type": "electric_scooter"}, {"bike_id": "bed43b026135c712f33ab12405508cce", "lat": 38.8846245, "is_reserved": 0, "fusion_lat": 0.0, "rental_uris": {"android": "https://dc.lft.to/lastmile_qr_scan", "ios": "https://dc.lft.to/lastmile_qr_scan"}, "fusion_lon": 0.0, "name": "bed43b026135c712f33ab12405508cce", "lon": -77.0005755, "is_disabled": 0, "type": "electric_scooter"}, {"bike_id": "7f09e9bba7957d4201aaa7f04775b1f1", "lat": 38.895034, "is_reserved": 0, "fusion_lat": 0.0, "rental_uris": {"android": "https://dc.lft.to/lastmile_qr_scan", "ios": "https://dc.lft.to/lastmile_qr_scan"}, "fusion_lon": 0.0, "name": "7f09e9bba7957d4201aaa7f04775b1f1", "lon": -77.0034375, "is_disabled": 0, "type": "electric_scooter"}, {"bike_id": "4a02c7366e08bfec9b14ae452ab87b10", "lat": 38.90006966666667, "is_reserved": 0, "fusion_lat": 0.0, "rental_uris": {"android": "https://dc.lft.to/lastmile_qr_scan", "ios": "https://dc.lft.to/lastmile_qr_scan"}, "fusion_lon": 0.0, "name": "4a02c7366e08bfec9b14ae452ab87b10", "lon": -77.02714933333333, "is_disabled": 0, "type": "electric_scooter"}, {"bike_id": "535214c5b010934550c55159213bcab1", "lat": 38.8986455, "is_reserved": 0, "fusion_lat": 0.0, "rental_uris": {"android": "https://dc.lft.to/lastmile_qr_scan", "ios": "https://dc.lft.to/lastmile_qr_scan"}, "fusion_lon": 0.0, "name": "535214c5b010934550c55159213bcab1", "lon": -77.0125235, "is_disabled": 0, "type": "electric_scooter"}, {"bike_id": "35f853b3a0d3da25a98fe3a9c8fa1cb4", "lat": 38.906212333333336, "is_reserved": 0, "fusion_lat": 0.0, "rental_uris": {"android": "https://dc.lft.to/lastmile_qr_scan", "ios": "https://dc.lft.to/lastmile_qr_scan"}, "fusion_lon": 0.0, "name": "35f853b3a0d3da25a98fe3a9c8fa1cb4", "lon": -77.0488595, "is_disabled": 0, "type": "electric_scooter"}, {"bike_id": "62284463648ddf7f66f5c59e8d850695", "lat": 38.9180285, "is_reserved": 0, "fusion_lat": 0.0, "rental_uris": {"android": "https://dc.lft.to/lastmile_qr_scan", "ios": "https://dc.lft.to/lastmile_qr_scan"}, "fusion_lon": 0.0, "name": "62284463648ddf7f66f5c59e8d850695", "lon": -77.0308095, "is_disabled": 0, "type": "electric_scooter"}, {"bike_id": "dd041e82c4b511a243a549a9b4b216fe", "lat": 38.903038, "is_reserved": 0, "fusion_lat": 0.0, "rental_uris": {"android": "https://dc.lft.to/lastmile_qr_scan", "ios": "https://dc.lft.to/lastmile_qr_scan"}, "fusion_lon": 0.0, "name": "dd041e82c4b511a243a549a9b4b216fe", "lon": -77.04698766666667, "is_disabled": 0, "type": "electric_scooter"}, {"bike_id": "bfe0f7876a801702fa562df9b16d6a65", "lat": 38.89660033333333, "is_reserved": 0, "fusion_lat": 0.0, "rental_uris": {"android": "https://dc.lft.to/lastmile_qr_scan", "ios": "https://dc.lft.to/lastmile_qr_scan"}, "fusion_lon": 0.0, "name": "bfe0f7876a801702fa562df9b16d6a65", "lon": -77.027364, "is_disabled": 0, "type": "electric_scooter"}, {"bike_id": "5a96106ac87020e252c3b29b1378df53", "lat": 38.866247, "is_reserved": 0, "fusion_lat": 0.0, "rental_uris": {"android": "https://dc.lft.to/lastmile_qr_scan", "ios": "https://dc.lft.to/lastmile_qr_scan"}, "fusion_lon": 0.0, "name": "5a96106ac87020e252c3b29b1378df53", "lon": -76.98719416666667, "is_disabled": 0, "type": "electric_scooter"}, {"bike_id": "77fabaa0b24235d36213b4a80171be0b", "lat": 38.88772016666667, "is_reserved": 0, "fusion_lat": 0.0, "rental_uris": {"android": "https://dc.lft.to/lastmile_qr_scan", "ios": "https://dc.lft.to/lastmile_qr_scan"}, "fusion_lon": 0.0, "name": "77fabaa0b24235d36213b4a80171be0b", "lon": -76.95527883333334, "is_disabled": 0, "type": "electric_scooter"}, {"bike_id": "cae31ea8b9178325905a702d7462ab2f", "lat": 38.918045666666664, "is_reserved": 0, "fusion_lat": 0.0, "rental_uris": {"android": "https://dc.lft.to/lastmile_qr_scan", "ios": "https://dc.lft.to/lastmile_qr_scan"}, "fusion_lon": 0.0, "name": "cae31ea8b9178325905a702d7462ab2f", "lon": -77.03440683333334, "is_disabled": 0, "type": "electric_scooter"}, {"bike_id": "f55547942afaa1fbfd2640dcc29eb7a1", "lat": 38.89649883333333, "is_reserved": 0, "fusion_lat": 0.0, "rental_uris": {"android": "https://dc.lft.to/lastmile_qr_scan", "ios": "https://dc.lft.to/lastmile_qr_scan"}, "fusion_lon": 0.0, "name": "f55547942afaa1fbfd2640dcc29eb7a1", "lon": -77.070661, "is_disabled": 0, "type": "electric_scooter"}, {"bike_id": "f546e092bf507cf8c8878080a68a4c2e", "lat": 38.91485016666667, "is_reserved": 0, "fusion_lat": 0.0, "rental_uris": {"android": "https://dc.lft.to/lastmile_qr_scan", "ios": "https://dc.lft.to/lastmile_qr_scan"}, "fusion_lon": 0.0, "name": "f546e092bf507cf8c8878080a68a4c2e", "lon": -77.03578016666667, "is_disabled": 0, "type": "electric_scooter"}, {"bike_id": "cbba524e40778081e9576182a58532df", "lat": 38.92876066666667, "is_reserved": 0, "fusion_lat": 0.0, "rental_uris": {"android": "https://dc.lft.to/lastmile_qr_scan", "ios": "https://dc.lft.to/lastmile_qr_scan"}, "fusion_lon": 0.0, "name": "cbba524e40778081e9576182a58532df", "lon": -77.03928883333333, "is_disabled": 0, "type": "electric_scooter"}, {"bike_id": "b0a6c6f7dfb53fac227fdb5eb4b64830", "lat": 38.89712516666667, "is_reserved": 0, "fusion_lat": 0.0, "rental_uris": {"android": "https://dc.lft.to/lastmile_qr_scan", "ios": "https://dc.lft.to/lastmile_qr_scan"}, "fusion_lon": 0.0, "name": "b0a6c6f7dfb53fac227fdb5eb4b64830", "lon": -77.02713416666667, "is_disabled": 0, "type": "electric_scooter"}, {"bike_id": "33bb9b03bf62dfa5b8e605d9c67d2b19", "lat": 38.92390233333333, "is_reserved": 0, "fusion_lat": 0.0, "rental_uris": {"android": "https://dc.lft.to/lastmile_qr_scan", "ios": "https://dc.lft.to/lastmile_qr_scan"}, "fusion_lon": 0.0, "name": "33bb9b03bf62dfa5b8e605d9c67d2b19", "lon": -77.031355, "is_disabled": 0, "type": "electric_scooter"}, {"bike_id": "dd11cf0041bdffabd92b97ea71471a45", "lat": 38.90727416666667, "is_reserved": 0, "fusion_lat": 0.0, "rental_uris": {"android": "https://dc.lft.to/lastmile_qr_scan", "ios": "https://dc.lft.to/lastmile_qr_scan"}, "fusion_lon": 0.0, "name": "dd11cf0041bdffabd92b97ea71471a45", "lon": -77.00058433333334, "is_disabled": 0, "type": "electric_scooter"}, {"bike_id": "8b52ac307824f72c748f82614d31ae34", "lat": 38.920687, "is_reserved": 0, "fusion_lat": 0.0, "rental_uris": {"android": "https://dc.lft.to/lastmile_qr_scan", "ios": "https://dc.lft.to/lastmile_qr_scan"}, "fusion_lon": 0.0, "name": "8b52ac307824f72c748f82614d31ae34", "lon": -77.023204, "is_disabled": 0, "type": "electric_scooter"}, {"bike_id": "96e1dd86a78b5280a6c749aeac59eabf", "lat": 38.909339333333335, "is_reserved": 0, "fusion_lat": 0.0, "rental_uris": {"android": "https://dc.lft.to/lastmile_qr_scan", "ios": "https://dc.lft.to/lastmile_qr_scan"}, "fusion_lon": 0.0, "name": "96e1dd86a78b5280a6c749aeac59eabf", "lon": -77.03179516666667, "is_disabled": 0, "type": "electric_scooter"}, {"bike_id": "ac7e959302466865c486fa3762408165", "lat": 38.9224325, "is_reserved": 0, "fusion_lat": 0.0, "rental_uris": {"android": "https://dc.lft.to/lastmile_qr_scan", "ios": "https://dc.lft.to/lastmile_qr_scan"}, "fusion_lon": 0.0, "name": "ac7e959302466865c486fa3762408165", "lon": -77.01954683333334, "is_disabled": 0, "type": "electric_scooter"}, {"bike_id": "a9990f89d3169257f45ca3340a871acb", "lat": 38.8996495, "is_reserved": 0, "fusion_lat": 0.0, "rental_uris": {"android": "https://dc.lft.to/lastmile_qr_scan", "ios": "https://dc.lft.to/lastmile_qr_scan"}, "fusion_lon": 0.0, "name": "a9990f89d3169257f45ca3340a871acb", "lon": -77.01988366666667, "is_disabled": 0, "type": "electric_scooter"}, {"bike_id": "8ba1381c1c1f1b3db51b020fb4a2b76d", "lat": 38.89885066666667, "is_reserved": 0, "fusion_lat": 0.0, "rental_uris": {"android": "https://dc.lft.to/lastmile_qr_scan", "ios": "https://dc.lft.to/lastmile_qr_scan"}, "fusion_lon": 0.0, "name": "8ba1381c1c1f1b3db51b020fb4a2b76d", "lon": -76.9317655, "is_disabled": 0, "type": "electric_scooter"}, {"bike_id": "3e9c577cafd9eee0a6f2c3a90f035269", "lat": 38.923191, "is_reserved": 0, "fusion_lat": 0.0, "rental_uris": {"android": "https://dc.lft.to/lastmile_qr_scan", "ios": "https://dc.lft.to/lastmile_qr_scan"}, "fusion_lon": 0.0, "name": "3e9c577cafd9eee0a6f2c3a90f035269", "lon": -77.05574383333334, "is_disabled": 0, "type": "electric_scooter"}, {"bike_id": "8a83a336900709f3b137a4b2266e9291", "lat": 38.9316825, "is_reserved": 0, "fusion_lat": 0.0, "rental_uris": {"android": "https://dc.lft.to/lastmile_qr_scan", "ios": "https://dc.lft.to/lastmile_qr_scan"}, "fusion_lon": 0.0, "name": "8a83a336900709f3b137a4b2266e9291", "lon": -77.031603, "is_disabled": 0, "type": "electric_scooter"}, {"bike_id": "3e694dd7e96ca4fffc3a0324951a8cad", "lat": 38.91871416666667, "is_reserved": 0, "fusion_lat": 0.0, "rental_uris": {"android": "https://dc.lft.to/lastmile_qr_scan", "ios": "https://dc.lft.to/lastmile_qr_scan"}, "fusion_lon": 0.0, "name": "3e694dd7e96ca4fffc3a0324951a8cad", "lon": -77.01478583333333, "is_disabled": 0, "type": "electric_scooter"}, {"bike_id": "1d33432e1aec0e26d4e6ddd4beef85e8", "lat": 38.900511333333334, "is_reserved": 0, "fusion_lat": 0.0, "rental_uris": {"android": "https://dc.lft.to/lastmile_qr_scan", "ios": "https://dc.lft.to/lastmile_qr_scan"}, "fusion_lon": 0.0, "name": "1d33432e1aec0e26d4e6ddd4beef85e8", "lon": -77.00073383333333, "is_disabled": 0, "type": "electric_scooter"}, {"bike_id": "874dc3922d9f144582a6e0328782c74d", "lat": 38.905581, "is_reserved": 0, "fusion_lat": 0.0, "rental_uris": {"android": "https://dc.lft.to/lastmile_qr_scan", "ios": "https://dc.lft.to/lastmile_qr_scan"}, "fusion_lon": 0.0, "name": "874dc3922d9f144582a6e0328782c74d", "lon": -77.02179, "is_disabled": 0, "type": "electric_scooter"}, {"bike_id": "281552e1b93cd42110713e737b1cb44c", "lat": 38.92334966666667, "is_reserved": 0, "fusion_lat": 0.0, "rental_uris": {"android": "https://dc.lft.to/lastmile_qr_scan", "ios": "https://dc.lft.to/lastmile_qr_scan"}, "fusion_lon": 0.0, "name": "281552e1b93cd42110713e737b1cb44c", "lon": -77.0533775, "is_disabled": 0, "type": "electric_scooter"}, {"bike_id": "322bf12b89971770752c60e71c2bdaa0", "lat": 38.90664366666667, "is_reserved": 0, "fusion_lat": 0.0, "rental_uris": {"android": "https://dc.lft.to/lastmile_qr_scan", "ios": "https://dc.lft.to/lastmile_qr_scan"}, "fusion_lon": 0.0, "name": "322bf12b89971770752c60e71c2bdaa0", "lon": -77.0379745, "is_disabled": 0, "type": "electric_scooter"}, {"bike_id": "dfc1c470b7a3f90ebfe1863f9aa7949c", "lat": 38.897359333333334, "is_reserved": 0, "fusion_lat": 0.0, "rental_uris": {"android": "https://dc.lft.to/lastmile_qr_scan", "ios": "https://dc.lft.to/lastmile_qr_scan"}, "fusion_lon": 0.0, "name": "dfc1c470b7a3f90ebfe1863f9aa7949c", "lon": -76.9472605, "is_disabled": 0, "type": "electric_scooter"}, {"bike_id": "0e1d56c3d830a55151622598d6e313aa", "lat": 38.929729, "is_reserved": 0, "fusion_lat": 0.0, "rental_uris": {"android": "https://dc.lft.to/lastmile_qr_scan", "ios": "https://dc.lft.to/lastmile_qr_scan"}, "fusion_lon": 0.0, "name": "0e1d56c3d830a55151622598d6e313aa", "lon": -77.013055, "is_disabled": 0, "type": "electric_scooter"}, {"bike_id": "c4124e2d77e09f80936ceb3fb96202fe", "lat": 38.88519866666667, "is_reserved": 0, "fusion_lat": 0.0, "rental_uris": {"android": "https://dc.lft.to/lastmile_qr_scan", "ios": "https://dc.lft.to/lastmile_qr_scan"}, "fusion_lon": 0.0, "name": "c4124e2d77e09f80936ceb3fb96202fe", "lon": -77.0292885, "is_disabled": 0, "type": "electric_scooter"}, {"bike_id": "d75e21fb5485b4c96c607fb3999c56ce", "lat": 38.899740333333334, "is_reserved": 0, "fusion_lat": 0.0, "rental_uris": {"android": "https://dc.lft.to/lastmile_qr_scan", "ios": "https://dc.lft.to/lastmile_qr_scan"}, "fusion_lon": 0.0, "name": "d75e21fb5485b4c96c607fb3999c56ce", "lon": -76.93771433333333, "is_disabled": 0, "type": "electric_scooter"}, {"bike_id": "0da921ec26e962c635231b50f9ce188d", "lat": 38.88513733333333, "is_reserved": 0, "fusion_lat": 0.0, "rental_uris": {"android": "https://dc.lft.to/lastmile_qr_scan", "ios": "https://dc.lft.to/lastmile_qr_scan"}, "fusion_lon": 0.0, "name": "0da921ec26e962c635231b50f9ce188d", "lon": -76.9563555, "is_disabled": 0, "type": "electric_bike"}, {"bike_id": "3d0d3a197cd685953c1a6ec885690a88", "lat": 38.932263, "is_reserved": 0, "fusion_lat": 0.0, "rental_uris": {"android": "https://dc.lft.to/lastmile_qr_scan", "ios": "https://dc.lft.to/lastmile_qr_scan"}, "fusion_lon": 0.0, "name": "3d0d3a197cd685953c1a6ec885690a88", "lon": -77.1812665, "is_disabled": 0, "type": "electric_bike"}, {"bike_id": "11941ab23867bdeda80b7d2e76712f51", "lat": 38.9316185, "is_reserved": 0, "fusion_lat": 0.0, "rental_uris": {"android": "https://dc.lft.to/lastmile_qr_scan", "ios": "https://dc.lft.to/lastmile_qr_scan"}, "fusion_lon": 0.0, "name": "11941ab23867bdeda80b7d2e76712f51", "lon": -77.045442, "is_disabled": 0, "type": "electric_scooter"}, {"bike_id": "3ec73871d68913f78bd13e3777a624bf", "lat": 38.874483166666664, "is_reserved": 0, "fusion_lat": 0.0, "rental_uris": {"android": "https://dc.lft.to/lastmile_qr_scan", "ios": "https://dc.lft.to/lastmile_qr_scan"}, "fusion_lon": 0.0, "name": "3ec73871d68913f78bd13e3777a624bf", "lon": -77.00926216666667, "is_disabled": 0, "type": "electric_scooter"}, {"bike_id": "ce03be67f272a53e89fee490109f4411", "lat": 38.92464483333333, "is_reserved": 0, "fusion_lat": 0.0, "rental_uris": {"android": "https://dc.lft.to/lastmile_qr_scan", "ios": "https://dc.lft.to/lastmile_qr_scan"}, "fusion_lon": 0.0, "name": "ce03be67f272a53e89fee490109f4411", "lon": -77.022072, "is_disabled": 0, "type": "electric_scooter"}, {"bike_id": "464760d783483e16767ae1ab105d2da4", "lat": 38.903492166666666, "is_reserved": 0, "fusion_lat": 0.0, "rental_uris": {"android": "https://dc.lft.to/lastmile_qr_scan", "ios": "https://dc.lft.to/lastmile_qr_scan"}, "fusion_lon": 0.0, "name": "464760d783483e16767ae1ab105d2da4", "lon": -76.97484966666667, "is_disabled": 0, "type": "electric_scooter"}, {"bike_id": "919997530d4e0867ca479130837e71a0", "lat": 38.904653333333336, "is_reserved": 0, "fusion_lat": 0.0, "rental_uris": {"android": "https://dc.lft.to/lastmile_qr_scan", "ios": "https://dc.lft.to/lastmile_qr_scan"}, "fusion_lon": 0.0, "name": "919997530d4e0867ca479130837e71a0", "lon": -76.97611833333333, "is_disabled": 0, "type": "electric_scooter"}, {"bike_id": "9fbe96df4f7c15bb71f687e1e9b7fdcd", "lat": 38.91606083333333, "is_reserved": 0, "fusion_lat": 0.0, "rental_uris": {"android": "https://dc.lft.to/lastmile_qr_scan", "ios": "https://dc.lft.to/lastmile_qr_scan"}, "fusion_lon": 0.0, "name": "9fbe96df4f7c15bb71f687e1e9b7fdcd", "lon": -77.0488725, "is_disabled": 0, "type": "electric_scooter"}, {"bike_id": "7d70b74a6bc37d8e91b1f500f079674e", "lat": 38.90677816666667, "is_reserved": 0, "fusion_lat": 0.0, "rental_uris": {"android": "https://dc.lft.to/lastmile_qr_scan", "ios": "https://dc.lft.to/lastmile_qr_scan"}, "fusion_lon": 0.0, "name": "7d70b74a6bc37d8e91b1f500f079674e", "lon": -76.98006216666667, "is_disabled": 0, "type": "electric_scooter"}, {"bike_id": "a51ea392cb015d179ba218380e2b1e61", "lat": 38.9169045, "is_reserved": 0, "fusion_lat": 0.0, "rental_uris": {"android": "https://dc.lft.to/lastmile_qr_scan", "ios": "https://dc.lft.to/lastmile_qr_scan"}, "fusion_lon": 0.0, "name": "a51ea392cb015d179ba218380e2b1e61", "lon": -77.02377266666667, "is_disabled": 0, "type": "electric_scooter"}, {"bike_id": "9ef6a7ca19bf939f7e6ddea3c1e753ec", "lat": 38.8848975, "is_reserved": 0, "fusion_lat": 0.0, "rental_uris": {"android": "https://dc.lft.to/lastmile_qr_scan", "ios": "https://dc.lft.to/lastmile_qr_scan"}, "fusion_lon": 0.0, "name": "9ef6a7ca19bf939f7e6ddea3c1e753ec", "lon": -77.00716166666666, "is_disabled": 0, "type": "electric_scooter"}, {"bike_id": "4c41731c95ea40ea35e3bb6a0134074a", "lat": 38.911955666666664, "is_reserved": 0, "fusion_lat": 0.0, "rental_uris": {"android": "https://dc.lft.to/lastmile_qr_scan", "ios": "https://dc.lft.to/lastmile_qr_scan"}, "fusion_lon": 0.0, "name": "4c41731c95ea40ea35e3bb6a0134074a", "lon": -77.04495516666667, "is_disabled": 0, "type": "electric_scooter"}, {"bike_id": "add0a929f0c3dde8c4773697d03cb580", "lat": 38.90474666666667, "is_reserved": 0, "fusion_lat": 0.0, "rental_uris": {"android": "https://dc.lft.to/lastmile_qr_scan", "ios": "https://dc.lft.to/lastmile_qr_scan"}, "fusion_lon": 0.0, "name": "add0a929f0c3dde8c4773697d03cb580", "lon": -77.04361983333334, "is_disabled": 0, "type": "electric_scooter"}, {"bike_id": "f569814356f60f2a67466502952814b3", "lat": 38.87370083333333, "is_reserved": 0, "fusion_lat": 0.0, "rental_uris": {"android": "https://dc.lft.to/lastmile_qr_scan", "ios": "https://dc.lft.to/lastmile_qr_scan"}, "fusion_lon": 0.0, "name": "f569814356f60f2a67466502952814b3", "lon": -77.00117516666667, "is_disabled": 0, "type": "electric_scooter"}, {"bike_id": "0789e3094488be2a7f60b6cb46ccc9d3", "lat": 38.90520566666667, "is_reserved": 0, "fusion_lat": 0.0, "rental_uris": {"android": "https://dc.lft.to/lastmile_qr_scan", "ios": "https://dc.lft.to/lastmile_qr_scan"}, "fusion_lon": 0.0, "name": "0789e3094488be2a7f60b6cb46ccc9d3", "lon": -77.05818933333333, "is_disabled": 0, "type": "electric_scooter"}, {"bike_id": "9146d349be24e18232e0e3e91506ba30", "lat": 38.91403416666667, "is_reserved": 0, "fusion_lat": 0.0, "rental_uris": {"android": "https://dc.lft.to/lastmile_qr_scan", "ios": "https://dc.lft.to/lastmile_qr_scan"}, "fusion_lon": 0.0, "name": "9146d349be24e18232e0e3e91506ba30", "lon": -77.03225533333334, "is_disabled": 0, "type": "electric_scooter"}, {"bike_id": "cfc21859603bfa7406322262e4ee7d3f", "lat": 38.88113633333333, "is_reserved": 0, "fusion_lat": 0.0, "rental_uris": {"android": "https://dc.lft.to/lastmile_qr_scan", "ios": "https://dc.lft.to/lastmile_qr_scan"}, "fusion_lon": 0.0, "name": "cfc21859603bfa7406322262e4ee7d3f", "lon": -77.0165035, "is_disabled": 0, "type": "electric_scooter"}, {"bike_id": "c23a32df4d509c4d9eacc938f31a3a99", "lat": 38.928724, "is_reserved": 0, "fusion_lat": 0.0, "rental_uris": {"android": "https://dc.lft.to/lastmile_qr_scan", "ios": "https://dc.lft.to/lastmile_qr_scan"}, "fusion_lon": 0.0, "name": "c23a32df4d509c4d9eacc938f31a3a99", "lon": -77.02773833333333, "is_disabled": 0, "type": "electric_scooter"}, {"bike_id": "6b8840f3f12ac7041b075b8252f0516b", "lat": 38.916791333333336, "is_reserved": 0, "fusion_lat": 0.0, "rental_uris": {"android": "https://dc.lft.to/lastmile_qr_scan", "ios": "https://dc.lft.to/lastmile_qr_scan"}, "fusion_lon": 0.0, "name": "6b8840f3f12ac7041b075b8252f0516b", "lon": -77.03695033333334, "is_disabled": 0, "type": "electric_scooter"}, {"bike_id": "e37baa265c2ce67cdeadb86d59bd3a8f", "lat": 38.89833983333333, "is_reserved": 0, "fusion_lat": 0.0, "rental_uris": {"android": "https://dc.lft.to/lastmile_qr_scan", "ios": "https://dc.lft.to/lastmile_qr_scan"}, "fusion_lon": 0.0, "name": "e37baa265c2ce67cdeadb86d59bd3a8f", "lon": -77.0483225, "is_disabled": 0, "type": "electric_scooter"}, {"bike_id": "99a2f8e4435cab24b1fb98252c2c2303", "lat": 38.92827616666667, "is_reserved": 0, "fusion_lat": 0.0, "rental_uris": {"android": "https://dc.lft.to/lastmile_qr_scan", "ios": "https://dc.lft.to/lastmile_qr_scan"}, "fusion_lon": 0.0, "name": "99a2f8e4435cab24b1fb98252c2c2303", "lon": -77.03291233333333, "is_disabled": 0, "type": "electric_scooter"}, {"bike_id": "227dbf340abbfa2baaba8ec5318c114c", "lat": 38.895968333333336, "is_reserved": 0, "fusion_lat": 0.0, "rental_uris": {"android": "https://dc.lft.to/lastmile_qr_scan", "ios": "https://dc.lft.to/lastmile_qr_scan"}, "fusion_lon": 0.0, "name": "227dbf340abbfa2baaba8ec5318c114c", "lon": -77.022174, "is_disabled": 0, "type": "electric_scooter"}, {"bike_id": "e167d9a08fec2cb44e59eccb7cf32c5b", "lat": 38.91766466666667, "is_reserved": 0, "fusion_lat": 0.0, "rental_uris": {"android": "https://dc.lft.to/lastmile_qr_scan", "ios": "https://dc.lft.to/lastmile_qr_scan"}, "fusion_lon": 0.0, "name": "e167d9a08fec2cb44e59eccb7cf32c5b", "lon": -77.0231385, "is_disabled": 0, "type": "electric_scooter"}, {"bike_id": "c640c8784dc79e9851fdd27bf9671611", "lat": 38.9315835, "is_reserved": 0, "fusion_lat": 0.0, "rental_uris": {"android": "https://dc.lft.to/lastmile_qr_scan", "ios": "https://dc.lft.to/lastmile_qr_scan"}, "fusion_lon": 0.0, "name": "c640c8784dc79e9851fdd27bf9671611", "lon": -77.00119083333334, "is_disabled": 0, "type": "electric_bike"}, {"bike_id": "733221128bd93bb8c088811782e018cb", "lat": 38.928691, "is_reserved": 0, "fusion_lat": 0.0, "rental_uris": {"android": "https://dc.lft.to/lastmile_qr_scan", "ios": "https://dc.lft.to/lastmile_qr_scan"}, "fusion_lon": 0.0, "name": "733221128bd93bb8c088811782e018cb", "lon": -77.03219483333334, "is_disabled": 0, "type": "electric_scooter"}, {"bike_id": "9c0f3cd631841b2c762fde2787a41b1b", "lat": 38.884002333333335, "is_reserved": 0, "fusion_lat": 0.0, "rental_uris": {"android": "https://dc.lft.to/lastmile_qr_scan", "ios": "https://dc.lft.to/lastmile_qr_scan"}, "fusion_lon": 0.0, "name": "9c0f3cd631841b2c762fde2787a41b1b", "lon": -77.0178475, "is_disabled": 0, "type": "electric_scooter"}, {"bike_id": "0ad94432917a958bec67b52d02b2557a", "lat": 38.89975316666667, "is_reserved": 0, "fusion_lat": 0.0, "rental_uris": {"android": "https://dc.lft.to/lastmile_qr_scan", "ios": "https://dc.lft.to/lastmile_qr_scan"}, "fusion_lon": 0.0, "name": "0ad94432917a958bec67b52d02b2557a", "lon": -76.99621833333333, "is_disabled": 0, "type": "electric_scooter"}, {"bike_id": "561c85093f091626318d63a2f4fbdffa", "lat": 38.91412016666666, "is_reserved": 0, "fusion_lat": 0.0, "rental_uris": {"android": "https://dc.lft.to/lastmile_qr_scan", "ios": "https://dc.lft.to/lastmile_qr_scan"}, "fusion_lon": 0.0, "name": "561c85093f091626318d63a2f4fbdffa", "lon": -77.04135566666666, "is_disabled": 0, "type": "electric_scooter"}, {"bike_id": "341e22958c99480b09066224c30820c6", "lat": 38.911407833333335, "is_reserved": 0, "fusion_lat": 0.0, "rental_uris": {"android": "https://dc.lft.to/lastmile_qr_scan", "ios": "https://dc.lft.to/lastmile_qr_scan"}, "fusion_lon": 0.0, "name": "341e22958c99480b09066224c30820c6", "lon": -76.99013833333333, "is_disabled": 0, "type": "electric_scooter"}, {"bike_id": "3a2dfd3f7a04ae97281d47f63732c846", "lat": 38.87293583333334, "is_reserved": 0, "fusion_lat": 0.0, "rental_uris": {"android": "https://dc.lft.to/lastmile_qr_scan", "ios": "https://dc.lft.to/lastmile_qr_scan"}, "fusion_lon": 0.0, "name": "3a2dfd3f7a04ae97281d47f63732c846", "lon": -77.13934633333334, "is_disabled": 0, "type": "electric_bike"}, {"bike_id": "c5ebd6c301968be8604d96b6c17ac197", "lat": 38.899811666666665, "is_reserved": 0, "fusion_lat": 0.0, "rental_uris": {"android": "https://dc.lft.to/lastmile_qr_scan", "ios": "https://dc.lft.to/lastmile_qr_scan"}, "fusion_lon": 0.0, "name": "c5ebd6c301968be8604d96b6c17ac197", "lon": -77.05571466666666, "is_disabled": 0, "type": "electric_scooter"}, {"bike_id": "3b880f9b93ea1bf2fd7f132816ae0e94", "lat": 38.871716666666664, "is_reserved": 0, "fusion_lat": 0.0, "rental_uris": {"android": "https://dc.lft.to/lastmile_qr_scan", "ios": "https://dc.lft.to/lastmile_qr_scan"}, "fusion_lon": 0.0, "name": "3b880f9b93ea1bf2fd7f132816ae0e94", "lon": -77.00628383333333, "is_disabled": 0, "type": "electric_scooter"}, {"bike_id": "50eabd1fd518b17fed4523693acf689d", "lat": 38.88312066666667, "is_reserved": 0, "fusion_lat": 0.0, "rental_uris": {"android": "https://dc.lft.to/lastmile_qr_scan", "ios": "https://dc.lft.to/lastmile_qr_scan"}, "fusion_lon": 0.0, "name": "50eabd1fd518b17fed4523693acf689d", "lon": -77.0034315, "is_disabled": 0, "type": "electric_scooter"}, {"bike_id": "3305d0616309de61224a48769f38b4d8", "lat": 38.892244166666664, "is_reserved": 0, "fusion_lat": 0.0, "rental_uris": {"android": "https://dc.lft.to/lastmile_qr_scan", "ios": "https://dc.lft.to/lastmile_qr_scan"}, "fusion_lon": 0.0, "name": "3305d0616309de61224a48769f38b4d8", "lon": -77.04865333333333, "is_disabled": 0, "type": "electric_scooter"}, {"bike_id": "e2f336c0ca4e9faf93f0abc7a72b8687", "lat": 38.884965333333334, "is_reserved": 0, "fusion_lat": 0.0, "rental_uris": {"android": "https://dc.lft.to/lastmile_qr_scan", "ios": "https://dc.lft.to/lastmile_qr_scan"}, "fusion_lon": 0.0, "name": "e2f336c0ca4e9faf93f0abc7a72b8687", "lon": -77.0073245, "is_disabled": 0, "type": "electric_scooter"}, {"bike_id": "e4357a2d711eb5b21d915743b1dfdafd", "lat": 38.90018516666667, "is_reserved": 0, "fusion_lat": 0.0, "rental_uris": {"android": "https://dc.lft.to/lastmile_qr_scan", "ios": "https://dc.lft.to/lastmile_qr_scan"}, "fusion_lon": 0.0, "name": "e4357a2d711eb5b21d915743b1dfdafd", "lon": -77.02188733333334, "is_disabled": 0, "type": "electric_scooter"}, {"bike_id": "db5318e583d861d5a0cac10322d3e3d3", "lat": 38.90767133333333, "is_reserved": 0, "fusion_lat": 0.0, "rental_uris": {"android": "https://dc.lft.to/lastmile_qr_scan", "ios": "https://dc.lft.to/lastmile_qr_scan"}, "fusion_lon": 0.0, "name": "db5318e583d861d5a0cac10322d3e3d3", "lon": -77.005925, "is_disabled": 0, "type": "electric_bike"}, {"bike_id": "95a9e0a144b749bc3b58c325f30387a1", "lat": 38.91664516666667, "is_reserved": 0, "fusion_lat": 0.0, "rental_uris": {"android": "https://dc.lft.to/lastmile_qr_scan", "ios": "https://dc.lft.to/lastmile_qr_scan"}, "fusion_lon": 0.0, "name": "95a9e0a144b749bc3b58c325f30387a1", "lon": -76.98179533333334, "is_disabled": 0, "type": "electric_scooter"}, {"bike_id": "e71988e6a1ad6a6cceb2b444976651ea", "lat": 38.908888833333336, "is_reserved": 0, "fusion_lat": 0.0, "rental_uris": {"android": "https://dc.lft.to/lastmile_qr_scan", "ios": "https://dc.lft.to/lastmile_qr_scan"}, "fusion_lon": 0.0, "name": "e71988e6a1ad6a6cceb2b444976651ea", "lon": -77.03207033333334, "is_disabled": 0, "type": "electric_scooter"}, {"bike_id": "df6a5c4578bc9504cc74967ee83d5b4d", "lat": 38.907437, "is_reserved": 0, "fusion_lat": 0.0, "rental_uris": {"android": "https://dc.lft.to/lastmile_qr_scan", "ios": "https://dc.lft.to/lastmile_qr_scan"}, "fusion_lon": 0.0, "name": "df6a5c4578bc9504cc74967ee83d5b4d", "lon": -77.00233716666666, "is_disabled": 0, "type": "electric_scooter"}, {"bike_id": "e24819358ca91932e3b4bc6d003329ab", "lat": 38.892358, "is_reserved": 0, "fusion_lat": 0.0, "rental_uris": {"android": "https://dc.lft.to/lastmile_qr_scan", "ios": "https://dc.lft.to/lastmile_qr_scan"}, "fusion_lon": 0.0, "name": "e24819358ca91932e3b4bc6d003329ab", "lon": -77.04507766666667, "is_disabled": 0, "type": "electric_scooter"}, {"bike_id": "97658669f5f4894c422df79decac089a", "lat": 38.85898783333333, "is_reserved": 0, "fusion_lat": 0.0, "rental_uris": {"android": "https://dc.lft.to/lastmile_qr_scan", "ios": "https://dc.lft.to/lastmile_qr_scan"}, "fusion_lon": 0.0, "name": "97658669f5f4894c422df79decac089a", "lon": -76.99728466666667, "is_disabled": 0, "type": "electric_scooter"}, {"bike_id": "c44fb099ab4eb7f2e6bc5a0d9a6d3cc6", "lat": 38.990953833333336, "is_reserved": 0, "fusion_lat": 0.0, "rental_uris": {"android": "https://dc.lft.to/lastmile_qr_scan", "ios": "https://dc.lft.to/lastmile_qr_scan"}, "fusion_lon": 0.0, "name": "c44fb099ab4eb7f2e6bc5a0d9a6d3cc6", "lon": -76.9937755, "is_disabled": 0, "type": "electric_bike"}, {"bike_id": "bcdc8dae2980e287cd516b8455d0198f", "lat": 38.9262405, "is_reserved": 0, "fusion_lat": 0.0, "rental_uris": {"android": "https://dc.lft.to/lastmile_qr_scan", "ios": "https://dc.lft.to/lastmile_qr_scan"}, "fusion_lon": 0.0, "name": "bcdc8dae2980e287cd516b8455d0198f", "lon": -77.03790783333334, "is_disabled": 0, "type": "electric_scooter"}, {"bike_id": "00d739cde1c7aa56d293b92fb3520269", "lat": 38.878123333333335, "is_reserved": 0, "fusion_lat": 0.0, "rental_uris": {"android": "https://dc.lft.to/lastmile_qr_scan", "ios": "https://dc.lft.to/lastmile_qr_scan"}, "fusion_lon": 0.0, "name": "00d739cde1c7aa56d293b92fb3520269", "lon": -76.97178816666667, "is_disabled": 0, "type": "electric_scooter"}, {"bike_id": "f9c1259588ee1b1f16b3fbb21b50ba89", "lat": 38.915592333333336, "is_reserved": 0, "fusion_lat": 0.0, "rental_uris": {"android": "https://dc.lft.to/lastmile_qr_scan", "ios": "https://dc.lft.to/lastmile_qr_scan"}, "fusion_lon": 0.0, "name": "f9c1259588ee1b1f16b3fbb21b50ba89", "lon": -77.03148666666667, "is_disabled": 0, "type": "electric_scooter"}, {"bike_id": "c78f2b6fce23eb139305f82d3d0dca80", "lat": 38.87706633333333, "is_reserved": 0, "fusion_lat": 0.0, "rental_uris": {"android": "https://dc.lft.to/lastmile_qr_scan", "ios": "https://dc.lft.to/lastmile_qr_scan"}, "fusion_lon": 0.0, "name": "c78f2b6fce23eb139305f82d3d0dca80", "lon": -77.00331133333333, "is_disabled": 0, "type": "electric_scooter"}, {"bike_id": "f87430cf80b9fff769e6570190e6d04a", "lat": 38.926429166666665, "is_reserved": 0, "fusion_lat": 0.0, "rental_uris": {"android": "https://dc.lft.to/lastmile_qr_scan", "ios": "https://dc.lft.to/lastmile_qr_scan"}, "fusion_lon": 0.0, "name": "f87430cf80b9fff769e6570190e6d04a", "lon": -77.03553633333334, "is_disabled": 0, "type": "electric_scooter"}, {"bike_id": "83d370d358aaac4c9e52042e45d829bc", "lat": 38.8869725, "is_reserved": 0, "fusion_lat": 0.0, "rental_uris": {"android": "https://dc.lft.to/lastmile_qr_scan", "ios": "https://dc.lft.to/lastmile_qr_scan"}, "fusion_lon": 0.0, "name": "83d370d358aaac4c9e52042e45d829bc", "lon": -77.01377283333333, "is_disabled": 0, "type": "electric_scooter"}, {"bike_id": "6c11de5a5806b8ffbffc5b77fb3360eb", "lat": 38.90569, "is_reserved": 0, "fusion_lat": 0.0, "rental_uris": {"android": "https://dc.lft.to/lastmile_qr_scan", "ios": "https://dc.lft.to/lastmile_qr_scan"}, "fusion_lon": 0.0, "name": "6c11de5a5806b8ffbffc5b77fb3360eb", "lon": -76.9763215, "is_disabled": 0, "type": "electric_scooter"}, {"bike_id": "fed22c36911ad51d6ee2cce7fd0c8453", "lat": 38.918672666666666, "is_reserved": 0, "fusion_lat": 0.0, "rental_uris": {"android": "https://dc.lft.to/lastmile_qr_scan", "ios": "https://dc.lft.to/lastmile_qr_scan"}, "fusion_lon": 0.0, "name": "fed22c36911ad51d6ee2cce7fd0c8453", "lon": -77.04066366666666, "is_disabled": 0, "type": "electric_scooter"}, {"bike_id": "d17b643b3aa21510e05bbc2467336de4", "lat": 38.897323, "is_reserved": 0, "fusion_lat": 0.0, "rental_uris": {"android": "https://dc.lft.to/lastmile_qr_scan", "ios": "https://dc.lft.to/lastmile_qr_scan"}, "fusion_lon": 0.0, "name": "d17b643b3aa21510e05bbc2467336de4", "lon": -77.02179516666666, "is_disabled": 0, "type": "electric_scooter"}, {"bike_id": "3bd7916e7f15a704a176c5b58be01341", "lat": 38.8624775, "is_reserved": 0, "fusion_lat": 0.0, "rental_uris": {"android": "https://dc.lft.to/lastmile_qr_scan", "ios": "https://dc.lft.to/lastmile_qr_scan"}, "fusion_lon": 0.0, "name": "3bd7916e7f15a704a176c5b58be01341", "lon": -76.99561233333333, "is_disabled": 0, "type": "electric_scooter"}, {"bike_id": "05a932a5ca08f097e3309f56069e7ee2", "lat": 38.902372, "is_reserved": 0, "fusion_lat": 0.0, "rental_uris": {"android": "https://dc.lft.to/lastmile_qr_scan", "ios": "https://dc.lft.to/lastmile_qr_scan"}, "fusion_lon": 0.0, "name": "05a932a5ca08f097e3309f56069e7ee2", "lon": -77.00206066666667, "is_disabled": 0, "type": "electric_scooter"}, {"bike_id": "d28eb5be1aaa7be5610792f8149b6915", "lat": 38.90443, "is_reserved": 0, "fusion_lat": 0.0, "rental_uris": {"android": "https://dc.lft.to/lastmile_qr_scan", "ios": "https://dc.lft.to/lastmile_qr_scan"}, "fusion_lon": 0.0, "name": "d28eb5be1aaa7be5610792f8149b6915", "lon": -77.0533025, "is_disabled": 0, "type": "electric_scooter"}, {"bike_id": "05c28b707a22c73a4fda2874a237e94c", "lat": 38.92160166666667, "is_reserved": 0, "fusion_lat": 0.0, "rental_uris": {"android": "https://dc.lft.to/lastmile_qr_scan", "ios": "https://dc.lft.to/lastmile_qr_scan"}, "fusion_lon": 0.0, "name": "05c28b707a22c73a4fda2874a237e94c", "lon": -77.0333905, "is_disabled": 0, "type": "electric_scooter"}, {"bike_id": "299977e29d460bf4afbb4ff9049e6e1b", "lat": 38.909870166666664, "is_reserved": 0, "fusion_lat": 0.0, "rental_uris": {"android": "https://dc.lft.to/lastmile_qr_scan", "ios": "https://dc.lft.to/lastmile_qr_scan"}, "fusion_lon": 0.0, "name": "299977e29d460bf4afbb4ff9049e6e1b", "lon": -77.0219115, "is_disabled": 0, "type": "electric_scooter"}, {"bike_id": "f2d049b777d4d76947d8afa808624b29", "lat": 38.923176833333336, "is_reserved": 0, "fusion_lat": 0.0, "rental_uris": {"android": "https://dc.lft.to/lastmile_qr_scan", "ios": "https://dc.lft.to/lastmile_qr_scan"}, "fusion_lon": 0.0, "name": "f2d049b777d4d76947d8afa808624b29", "lon": -77.02142316666666, "is_disabled": 0, "type": "electric_scooter"}, {"bike_id": "38c3257faf7199e5d3714ba56aa8e2c9", "lat": 38.921896, "is_reserved": 0, "fusion_lat": 0.0, "rental_uris": {"android": "https://dc.lft.to/lastmile_qr_scan", "ios": "https://dc.lft.to/lastmile_qr_scan"}, "fusion_lon": 0.0, "name": "38c3257faf7199e5d3714ba56aa8e2c9", "lon": -77.040281, "is_disabled": 0, "type": "electric_scooter"}, {"bike_id": "d54a57459d2073d35b1e8b29d3af25dd", "lat": 38.962989666666665, "is_reserved": 0, "fusion_lat": 0.0, "rental_uris": {"android": "https://dc.lft.to/lastmile_qr_scan", "ios": "https://dc.lft.to/lastmile_qr_scan"}, "fusion_lon": 0.0, "name": "d54a57459d2073d35b1e8b29d3af25dd", "lon": -77.01119933333334, "is_disabled": 0, "type": "electric_bike"}, {"bike_id": "d9d333155c5e242c541c45b4366fa624", "lat": 38.90325, "is_reserved": 0, "fusion_lat": 0.0, "rental_uris": {"android": "https://dc.lft.to/lastmile_qr_scan", "ios": "https://dc.lft.to/lastmile_qr_scan"}, "fusion_lon": 0.0, "name": "d9d333155c5e242c541c45b4366fa624", "lon": -77.01636216666667, "is_disabled": 0, "type": "electric_scooter"}, {"bike_id": "c52d5f3e0d7cf657977b06e193458950", "lat": 38.918204833333334, "is_reserved": 0, "fusion_lat": 0.0, "rental_uris": {"android": "https://dc.lft.to/lastmile_qr_scan", "ios": "https://dc.lft.to/lastmile_qr_scan"}, "fusion_lon": 0.0, "name": "c52d5f3e0d7cf657977b06e193458950", "lon": -77.03217883333333, "is_disabled": 0, "type": "electric_scooter"}, {"bike_id": "6d83f826570af8e3a6e999853f34f157", "lat": 38.862478, "is_reserved": 0, "fusion_lat": 0.0, "rental_uris": {"android": "https://dc.lft.to/lastmile_qr_scan", "ios": "https://dc.lft.to/lastmile_qr_scan"}, "fusion_lon": 0.0, "name": "6d83f826570af8e3a6e999853f34f157", "lon": -76.9950205, "is_disabled": 0, "type": "electric_scooter"}, {"bike_id": "4758f371dbc1ace3bc0681505ca2534a", "lat": 38.90265766666667, "is_reserved": 0, "fusion_lat": 0.0, "rental_uris": {"android": "https://dc.lft.to/lastmile_qr_scan", "ios": "https://dc.lft.to/lastmile_qr_scan"}, "fusion_lon": 0.0, "name": "4758f371dbc1ace3bc0681505ca2534a", "lon": -77.02005183333333, "is_disabled": 0, "type": "electric_scooter"}, {"bike_id": "90f017be1ad44806927ebd4d78f8384a", "lat": 38.899548333333335, "is_reserved": 0, "fusion_lat": 0.0, "rental_uris": {"android": "https://dc.lft.to/lastmile_qr_scan", "ios": "https://dc.lft.to/lastmile_qr_scan"}, "fusion_lon": 0.0, "name": "90f017be1ad44806927ebd4d78f8384a", "lon": -77.04993316666666, "is_disabled": 0, "type": "electric_scooter"}, {"bike_id": "d455378731839fbe5bc106c808081a3b", "lat": 38.93905733333333, "is_reserved": 0, "fusion_lat": 0.0, "rental_uris": {"android": "https://dc.lft.to/lastmile_qr_scan", "ios": "https://dc.lft.to/lastmile_qr_scan"}, "fusion_lon": 0.0, "name": "d455378731839fbe5bc106c808081a3b", "lon": -77.0605725, "is_disabled": 0, "type": "electric_scooter"}, {"bike_id": "f17663e5b542010a3834ae0c67e0a153", "lat": 38.91573, "is_reserved": 0, "fusion_lat": 0.0, "rental_uris": {"android": "https://dc.lft.to/lastmile_qr_scan", "ios": "https://dc.lft.to/lastmile_qr_scan"}, "fusion_lon": 0.0, "name": "f17663e5b542010a3834ae0c67e0a153", "lon": -77.0320335, "is_disabled": 0, "type": "electric_scooter"}, {"bike_id": "dacb43030b726e896c2e2be0419c334d", "lat": 38.900081, "is_reserved": 0, "fusion_lat": 0.0, "rental_uris": {"android": "https://dc.lft.to/lastmile_qr_scan", "ios": "https://dc.lft.to/lastmile_qr_scan"}, "fusion_lon": 0.0, "name": "dacb43030b726e896c2e2be0419c334d", "lon": -77.011997, "is_disabled": 0, "type": "electric_scooter"}, {"bike_id": "3b4c30bb967b2f72e4aacc62cdec87b3", "lat": 38.865046, "is_reserved": 0, "fusion_lat": 0.0, "rental_uris": {"android": "https://dc.lft.to/lastmile_qr_scan", "ios": "https://dc.lft.to/lastmile_qr_scan"}, "fusion_lon": 0.0, "name": "3b4c30bb967b2f72e4aacc62cdec87b3", "lon": -76.99005816666667, "is_disabled": 0, "type": "electric_scooter"}, {"bike_id": "826f7ce37572ca025136b022878c1abf", "lat": 38.887438833333334, "is_reserved": 0, "fusion_lat": 0.0, "rental_uris": {"android": "https://dc.lft.to/lastmile_qr_scan", "ios": "https://dc.lft.to/lastmile_qr_scan"}, "fusion_lon": 0.0, "name": "826f7ce37572ca025136b022878c1abf", "lon": -76.900836, "is_disabled": 0, "type": "electric_bike"}, {"bike_id": "381bae4d060f1e77c121c16d0f7a626e", "lat": 38.938856, "is_reserved": 0, "fusion_lat": 0.0, "rental_uris": {"android": "https://dc.lft.to/lastmile_qr_scan", "ios": "https://dc.lft.to/lastmile_qr_scan"}, "fusion_lon": 0.0, "name": "381bae4d060f1e77c121c16d0f7a626e", "lon": -77.03330016666666, "is_disabled": 0, "type": "electric_scooter"}, {"bike_id": "3846f3b04c4d8549182671487f19f6f4", "lat": 38.901456, "is_reserved": 0, "fusion_lat": 0.0, "rental_uris": {"android": "https://dc.lft.to/lastmile_qr_scan", "ios": "https://dc.lft.to/lastmile_qr_scan"}, "fusion_lon": 0.0, "name": "3846f3b04c4d8549182671487f19f6f4", "lon": -77.02934583333334, "is_disabled": 0, "type": "electric_scooter"}, {"bike_id": "742dfeb00f26003cda974d83954a6958", "lat": 38.8873805, "is_reserved": 0, "fusion_lat": 0.0, "rental_uris": {"android": "https://dc.lft.to/lastmile_qr_scan", "ios": "https://dc.lft.to/lastmile_qr_scan"}, "fusion_lon": 0.0, "name": "742dfeb00f26003cda974d83954a6958", "lon": -77.03165333333334, "is_disabled": 0, "type": "electric_scooter"}, {"bike_id": "d9cc65e46e8381ea1a9ac7c9f479adcc", "lat": 38.9372315, "is_reserved": 0, "fusion_lat": 0.0, "rental_uris": {"android": "https://dc.lft.to/lastmile_qr_scan", "ios": "https://dc.lft.to/lastmile_qr_scan"}, "fusion_lon": 0.0, "name": "d9cc65e46e8381ea1a9ac7c9f479adcc", "lon": -77.03265816666666, "is_disabled": 0, "type": "electric_scooter"}, {"bike_id": "6e0b3be2d23356397efea37ad14e4950", "lat": 38.929108, "is_reserved": 0, "fusion_lat": 0.0, "rental_uris": {"android": "https://dc.lft.to/lastmile_qr_scan", "ios": "https://dc.lft.to/lastmile_qr_scan"}, "fusion_lon": 0.0, "name": "6e0b3be2d23356397efea37ad14e4950", "lon": -77.02091883333334, "is_disabled": 0, "type": "electric_scooter"}, {"bike_id": "4514459e3245d57b9be4f2ea6fed35a7", "lat": 38.90865566666667, "is_reserved": 0, "fusion_lat": 0.0, "rental_uris": {"android": "https://dc.lft.to/lastmile_qr_scan", "ios": "https://dc.lft.to/lastmile_qr_scan"}, "fusion_lon": 0.0, "name": "4514459e3245d57b9be4f2ea6fed35a7", "lon": -76.9979565, "is_disabled": 0, "type": "electric_scooter"}, {"bike_id": "152abd8dae6a2b5491ae0a72126704c6", "lat": 38.9277215, "is_reserved": 0, "fusion_lat": 0.0, "rental_uris": {"android": "https://dc.lft.to/lastmile_qr_scan", "ios": "https://dc.lft.to/lastmile_qr_scan"}, "fusion_lon": 0.0, "name": "152abd8dae6a2b5491ae0a72126704c6", "lon": -77.02780133333333, "is_disabled": 0, "type": "electric_scooter"}, {"bike_id": "3af891eb1cf39faefd43e02cda880476", "lat": 38.924672666666666, "is_reserved": 0, "fusion_lat": 0.0, "rental_uris": {"android": "https://dc.lft.to/lastmile_qr_scan", "ios": "https://dc.lft.to/lastmile_qr_scan"}, "fusion_lon": 0.0, "name": "3af891eb1cf39faefd43e02cda880476", "lon": -77.052408, "is_disabled": 0, "type": "electric_scooter"}, {"bike_id": "f959643aec82b3161d8b3f84e4f1682c", "lat": 38.86751316666667, "is_reserved": 0, "fusion_lat": 0.0, "rental_uris": {"android": "https://dc.lft.to/lastmile_qr_scan", "ios": "https://dc.lft.to/lastmile_qr_scan"}, "fusion_lon": 0.0, "name": "f959643aec82b3161d8b3f84e4f1682c", "lon": -76.945389, "is_disabled": 0, "type": "electric_bike"}, {"bike_id": "1980dc7bc5e6f6f4e00ff4597f60adae", "lat": 38.903357166666666, "is_reserved": 0, "fusion_lat": 0.0, "rental_uris": {"android": "https://dc.lft.to/lastmile_qr_scan", "ios": "https://dc.lft.to/lastmile_qr_scan"}, "fusion_lon": 0.0, "name": "1980dc7bc5e6f6f4e00ff4597f60adae", "lon": -77.06193583333334, "is_disabled": 0, "type": "electric_scooter"}, {"bike_id": "c7fe78bfecdda0042abf1c4bef61d3e6", "lat": 38.8988365, "is_reserved": 0, "fusion_lat": 0.0, "rental_uris": {"android": "https://dc.lft.to/lastmile_qr_scan", "ios": "https://dc.lft.to/lastmile_qr_scan"}, "fusion_lon": 0.0, "name": "c7fe78bfecdda0042abf1c4bef61d3e6", "lon": -76.9318125, "is_disabled": 0, "type": "electric_scooter"}, {"bike_id": "9d21c49b6130ce815eda3de76ff1c907", "lat": 38.882623833333334, "is_reserved": 0, "fusion_lat": 0.0, "rental_uris": {"android": "https://dc.lft.to/lastmile_qr_scan", "ios": "https://dc.lft.to/lastmile_qr_scan"}, "fusion_lon": 0.0, "name": "9d21c49b6130ce815eda3de76ff1c907", "lon": -77.005225, "is_disabled": 0, "type": "electric_scooter"}, {"bike_id": "8b7e3a3a1f10175321e19b76f52bfc5f", "lat": 38.85885316666667, "is_reserved": 0, "fusion_lat": 0.0, "rental_uris": {"android": "https://dc.lft.to/lastmile_qr_scan", "ios": "https://dc.lft.to/lastmile_qr_scan"}, "fusion_lon": 0.0, "name": "8b7e3a3a1f10175321e19b76f52bfc5f", "lon": -76.995585, "is_disabled": 0, "type": "electric_scooter"}, {"bike_id": "f850e64f777d4d1ad460bbc494f6fe1b", "lat": 38.878817833333336, "is_reserved": 0, "fusion_lat": 0.0, "rental_uris": {"android": "https://dc.lft.to/lastmile_qr_scan", "ios": "https://dc.lft.to/lastmile_qr_scan"}, "fusion_lon": 0.0, "name": "f850e64f777d4d1ad460bbc494f6fe1b", "lon": -77.0961065, "is_disabled": 0, "type": "electric_bike"}, {"bike_id": "dca042f03430ee802385fc81fe3681e9", "lat": 38.907471, "is_reserved": 0, "fusion_lat": 0.0, "rental_uris": {"android": "https://dc.lft.to/lastmile_qr_scan", "ios": "https://dc.lft.to/lastmile_qr_scan"}, "fusion_lon": 0.0, "name": "dca042f03430ee802385fc81fe3681e9", "lon": -77.0321335, "is_disabled": 0, "type": "electric_scooter"}, {"bike_id": "2dc336bd7c6fd320b93f19de0a000faa", "lat": 38.89881883333334, "is_reserved": 0, "fusion_lat": 0.0, "rental_uris": {"android": "https://dc.lft.to/lastmile_qr_scan", "ios": "https://dc.lft.to/lastmile_qr_scan"}, "fusion_lon": 0.0, "name": "2dc336bd7c6fd320b93f19de0a000faa", "lon": -76.9317855, "is_disabled": 0, "type": "electric_scooter"}, {"bike_id": "e5980273808e861dbfaf3a541266ae84", "lat": 38.911092, "is_reserved": 0, "fusion_lat": 0.0, "rental_uris": {"android": "https://dc.lft.to/lastmile_qr_scan", "ios": "https://dc.lft.to/lastmile_qr_scan"}, "fusion_lon": 0.0, "name": "e5980273808e861dbfaf3a541266ae84", "lon": -77.04086466666666, "is_disabled": 0, "type": "electric_scooter"}, {"bike_id": "4ecef761e9cc125e076db9dcf534eb91", "lat": 38.874765833333335, "is_reserved": 0, "fusion_lat": 0.0, "rental_uris": {"android": "https://dc.lft.to/lastmile_qr_scan", "ios": "https://dc.lft.to/lastmile_qr_scan"}, "fusion_lon": 0.0, "name": "4ecef761e9cc125e076db9dcf534eb91", "lon": -77.01077283333333, "is_disabled": 0, "type": "electric_scooter"}, {"bike_id": "0e33357e508d6bb107b717f1518da9a7", "lat": 38.918470166666665, "is_reserved": 0, "fusion_lat": 0.0, "rental_uris": {"android": "https://dc.lft.to/lastmile_qr_scan", "ios": "https://dc.lft.to/lastmile_qr_scan"}, "fusion_lon": 0.0, "name": "0e33357e508d6bb107b717f1518da9a7", "lon": -77.0319205, "is_disabled": 0, "type": "electric_scooter"}, {"bike_id": "1a1cb37b31227de1a99255e202a9edfb", "lat": 38.93855833333333, "is_reserved": 0, "fusion_lat": 0.0, "rental_uris": {"android": "https://dc.lft.to/lastmile_qr_scan", "ios": "https://dc.lft.to/lastmile_qr_scan"}, "fusion_lon": 0.0, "name": "1a1cb37b31227de1a99255e202a9edfb", "lon": -77.02597483333334, "is_disabled": 0, "type": "electric_scooter"}, {"bike_id": "c12aed149e130d86b1fc45898dacc654", "lat": 38.933196333333335, "is_reserved": 0, "fusion_lat": 0.0, "rental_uris": {"android": "https://dc.lft.to/lastmile_qr_scan", "ios": "https://dc.lft.to/lastmile_qr_scan"}, "fusion_lon": 0.0, "name": "c12aed149e130d86b1fc45898dacc654", "lon": -77.02934566666667, "is_disabled": 0, "type": "electric_scooter"}, {"bike_id": "ee4a50255ed06d4936f62df2b129a185", "lat": 38.90950766666667, "is_reserved": 0, "fusion_lat": 0.0, "rental_uris": {"android": "https://dc.lft.to/lastmile_qr_scan", "ios": "https://dc.lft.to/lastmile_qr_scan"}, "fusion_lon": 0.0, "name": "ee4a50255ed06d4936f62df2b129a185", "lon": -77.0478865, "is_disabled": 0, "type": "electric_scooter"}, {"bike_id": "6631aa970768be973c5225b463bff0d2", "lat": 38.9031605, "is_reserved": 0, "fusion_lat": 0.0, "rental_uris": {"android": "https://dc.lft.to/lastmile_qr_scan", "ios": "https://dc.lft.to/lastmile_qr_scan"}, "fusion_lon": 0.0, "name": "6631aa970768be973c5225b463bff0d2", "lon": -77.02877733333334, "is_disabled": 0, "type": "electric_scooter"}, {"bike_id": "3f173488f03740de62fd0759bccd5592", "lat": 38.9208925, "is_reserved": 0, "fusion_lat": 0.0, "rental_uris": {"android": "https://dc.lft.to/lastmile_qr_scan", "ios": "https://dc.lft.to/lastmile_qr_scan"}, "fusion_lon": 0.0, "name": "3f173488f03740de62fd0759bccd5592", "lon": -77.0204535, "is_disabled": 0, "type": "electric_scooter"}, {"bike_id": "5743fc26eec204cc7c174553d28ecf90", "lat": 38.876998, "is_reserved": 0, "fusion_lat": 0.0, "rental_uris": {"android": "https://dc.lft.to/lastmile_qr_scan", "ios": "https://dc.lft.to/lastmile_qr_scan"}, "fusion_lon": 0.0, "name": "5743fc26eec204cc7c174553d28ecf90", "lon": -77.0036315, "is_disabled": 0, "type": "electric_scooter"}, {"bike_id": "8171cbb8143af87e8ef8f0c2ca20afee", "lat": 38.893279166666666, "is_reserved": 0, "fusion_lat": 0.0, "rental_uris": {"android": "https://dc.lft.to/lastmile_qr_scan", "ios": "https://dc.lft.to/lastmile_qr_scan"}, "fusion_lon": 0.0, "name": "8171cbb8143af87e8ef8f0c2ca20afee", "lon": -76.950541, "is_disabled": 0, "type": "electric_scooter"}, {"bike_id": "8cad66b8ce2d9408b9b2a019bd65cff8", "lat": 38.9012845, "is_reserved": 0, "fusion_lat": 0.0, "rental_uris": {"android": "https://dc.lft.to/lastmile_qr_scan", "ios": "https://dc.lft.to/lastmile_qr_scan"}, "fusion_lon": 0.0, "name": "8cad66b8ce2d9408b9b2a019bd65cff8", "lon": -77.04368516666666, "is_disabled": 0, "type": "electric_scooter"}, {"bike_id": "b54d8bc75c80e2c822d5b790b6f426d4", "lat": 38.906101666666665, "is_reserved": 0, "fusion_lat": 0.0, "rental_uris": {"android": "https://dc.lft.to/lastmile_qr_scan", "ios": "https://dc.lft.to/lastmile_qr_scan"}, "fusion_lon": 0.0, "name": "b54d8bc75c80e2c822d5b790b6f426d4", "lon": -77.02570266666666, "is_disabled": 0, "type": "electric_scooter"}, {"bike_id": "2dd138cd40cb6bf0e22c79b87c8c06d6", "lat": 38.88740266666667, "is_reserved": 0, "fusion_lat": 0.0, "rental_uris": {"android": "https://dc.lft.to/lastmile_qr_scan", "ios": "https://dc.lft.to/lastmile_qr_scan"}, "fusion_lon": 0.0, "name": "2dd138cd40cb6bf0e22c79b87c8c06d6", "lon": -77.02856366666667, "is_disabled": 0, "type": "electric_scooter"}, {"bike_id": "63e3188a9b59c142400d3d35efeac68f", "lat": 38.926563333333334, "is_reserved": 0, "fusion_lat": 0.0, "rental_uris": {"android": "https://dc.lft.to/lastmile_qr_scan", "ios": "https://dc.lft.to/lastmile_qr_scan"}, "fusion_lon": 0.0, "name": "63e3188a9b59c142400d3d35efeac68f", "lon": -77.0233185, "is_disabled": 0, "type": "electric_scooter"}, {"bike_id": "9e7008ccf584e9bcc821639b9ea5ae13", "lat": 38.92325433333333, "is_reserved": 0, "fusion_lat": 0.0, "rental_uris": {"android": "https://dc.lft.to/lastmile_qr_scan", "ios": "https://dc.lft.to/lastmile_qr_scan"}, "fusion_lon": 0.0, "name": "9e7008ccf584e9bcc821639b9ea5ae13", "lon": -77.0243755, "is_disabled": 0, "type": "electric_scooter"}, {"bike_id": "0f9b415e037bbfb7b1761cf9693456eb", "lat": 38.90185233333333, "is_reserved": 0, "fusion_lat": 0.0, "rental_uris": {"android": "https://dc.lft.to/lastmile_qr_scan", "ios": "https://dc.lft.to/lastmile_qr_scan"}, "fusion_lon": 0.0, "name": "0f9b415e037bbfb7b1761cf9693456eb", "lon": -77.02170383333333, "is_disabled": 0, "type": "electric_scooter"}, {"bike_id": "c46ef8de6fb83aec0d63267b5d57e91f", "lat": 38.87387533333333, "is_reserved": 0, "fusion_lat": 0.0, "rental_uris": {"android": "https://dc.lft.to/lastmile_qr_scan", "ios": "https://dc.lft.to/lastmile_qr_scan"}, "fusion_lon": 0.0, "name": "c46ef8de6fb83aec0d63267b5d57e91f", "lon": -77.04356333333334, "is_disabled": 0, "type": "electric_scooter"}, {"bike_id": "1755cb5ff236341c323e101ff7b9412e", "lat": 38.922442333333336, "is_reserved": 0, "fusion_lat": 0.0, "rental_uris": {"android": "https://dc.lft.to/lastmile_qr_scan", "ios": "https://dc.lft.to/lastmile_qr_scan"}, "fusion_lon": 0.0, "name": "1755cb5ff236341c323e101ff7b9412e", "lon": -77.01952416666667, "is_disabled": 0, "type": "electric_scooter"}, {"bike_id": "aa79078c283107da95bbac6f1f984b04", "lat": 38.887134, "is_reserved": 0, "fusion_lat": 0.0, "rental_uris": {"android": "https://dc.lft.to/lastmile_qr_scan", "ios": "https://dc.lft.to/lastmile_qr_scan"}, "fusion_lon": 0.0, "name": "aa79078c283107da95bbac6f1f984b04", "lon": -77.02212916666667, "is_disabled": 0, "type": "electric_scooter"}, {"bike_id": "77b0e2f91c98f854dcbd2ca5b09d917a", "lat": 38.92320266666667, "is_reserved": 0, "fusion_lat": 0.0, "rental_uris": {"android": "https://dc.lft.to/lastmile_qr_scan", "ios": "https://dc.lft.to/lastmile_qr_scan"}, "fusion_lon": 0.0, "name": "77b0e2f91c98f854dcbd2ca5b09d917a", "lon": -77.03676716666666, "is_disabled": 0, "type": "electric_scooter"}, {"bike_id": "3205ff94972c7843a6640b14bfa7c2da", "lat": 38.921954166666666, "is_reserved": 0, "fusion_lat": 0.0, "rental_uris": {"android": "https://dc.lft.to/lastmile_qr_scan", "ios": "https://dc.lft.to/lastmile_qr_scan"}, "fusion_lon": 0.0, "name": "3205ff94972c7843a6640b14bfa7c2da", "lon": -77.0393255, "is_disabled": 0, "type": "electric_scooter"}, {"bike_id": "17a3112897a8197133e355f5d46f5e00", "lat": 38.873099, "is_reserved": 0, "fusion_lat": 0.0, "rental_uris": {"android": "https://dc.lft.to/lastmile_qr_scan", "ios": "https://dc.lft.to/lastmile_qr_scan"}, "fusion_lon": 0.0, "name": "17a3112897a8197133e355f5d46f5e00", "lon": -77.00149083333334, "is_disabled": 0, "type": "electric_scooter"}, {"bike_id": "5952df20fe5d2efb4dae9e4c90459a44", "lat": 38.905287333333334, "is_reserved": 0, "fusion_lat": 0.0, "rental_uris": {"android": "https://dc.lft.to/lastmile_qr_scan", "ios": "https://dc.lft.to/lastmile_qr_scan"}, "fusion_lon": 0.0, "name": "5952df20fe5d2efb4dae9e4c90459a44", "lon": -77.07029433333334, "is_disabled": 0, "type": "electric_scooter"}, {"bike_id": "4c8faf39e4de4788b191ab783273a7cb", "lat": 38.898875833333335, "is_reserved": 0, "fusion_lat": 0.0, "rental_uris": {"android": "https://dc.lft.to/lastmile_qr_scan", "ios": "https://dc.lft.to/lastmile_qr_scan"}, "fusion_lon": 0.0, "name": "4c8faf39e4de4788b191ab783273a7cb", "lon": -76.932263, "is_disabled": 0, "type": "electric_scooter"}, {"bike_id": "44e2465ec568ac35fabf42d2cf225401", "lat": 38.91627416666667, "is_reserved": 0, "fusion_lat": 0.0, "rental_uris": {"android": "https://dc.lft.to/lastmile_qr_scan", "ios": "https://dc.lft.to/lastmile_qr_scan"}, "fusion_lon": 0.0, "name": "44e2465ec568ac35fabf42d2cf225401", "lon": -77.032172, "is_disabled": 0, "type": "electric_scooter"}, {"bike_id": "c58b1828857ea89c4f431e9e8d8aa3ab", "lat": 38.95523466666667, "is_reserved": 0, "fusion_lat": 0.0, "rental_uris": {"android": "https://dc.lft.to/lastmile_qr_scan", "ios": "https://dc.lft.to/lastmile_qr_scan"}, "fusion_lon": 0.0, "name": "c58b1828857ea89c4f431e9e8d8aa3ab", "lon": -77.02314616666666, "is_disabled": 0, "type": "electric_scooter"}, {"bike_id": "ec3c6463eee83bf5b67ff7c3a4ec4b81", "lat": 38.963161666666664, "is_reserved": 0, "fusion_lat": 0.0, "rental_uris": {"android": "https://dc.lft.to/lastmile_qr_scan", "ios": "https://dc.lft.to/lastmile_qr_scan"}, "fusion_lon": 0.0, "name": "ec3c6463eee83bf5b67ff7c3a4ec4b81", "lon": -76.97373966666666, "is_disabled": 0, "type": "electric_bike"}, {"bike_id": "3d8b905b027fc805e3e20ebb75a290e9", "lat": 38.9037165, "is_reserved": 0, "fusion_lat": 0.0, "rental_uris": {"android": "https://dc.lft.to/lastmile_qr_scan", "ios": "https://dc.lft.to/lastmile_qr_scan"}, "fusion_lon": 0.0, "name": "3d8b905b027fc805e3e20ebb75a290e9", "lon": -77.03479283333333, "is_disabled": 0, "type": "electric_scooter"}, {"bike_id": "c4e053b0416bca87857e5e4aeb843e24", "lat": 38.892205833333335, "is_reserved": 0, "fusion_lat": 0.0, "rental_uris": {"android": "https://dc.lft.to/lastmile_qr_scan", "ios": "https://dc.lft.to/lastmile_qr_scan"}, "fusion_lon": 0.0, "name": "c4e053b0416bca87857e5e4aeb843e24", "lon": -77.00343616666666, "is_disabled": 0, "type": "electric_scooter"}, {"bike_id": "298b506fa5f04efb123f422c78a9d3e7", "lat": 38.94481183333333, "is_reserved": 0, "fusion_lat": 0.0, "rental_uris": {"android": "https://dc.lft.to/lastmile_qr_scan", "ios": "https://dc.lft.to/lastmile_qr_scan"}, "fusion_lon": 0.0, "name": "298b506fa5f04efb123f422c78a9d3e7", "lon": -77.09432383333333, "is_disabled": 0, "type": "electric_scooter"}, {"bike_id": "3e51f6ecacd85801507487aa8a10fe31", "lat": 38.90803783333333, "is_reserved": 0, "fusion_lat": 0.0, "rental_uris": {"android": "https://dc.lft.to/lastmile_qr_scan", "ios": "https://dc.lft.to/lastmile_qr_scan"}, "fusion_lon": 0.0, "name": "3e51f6ecacd85801507487aa8a10fe31", "lon": -77.03454533333333, "is_disabled": 0, "type": "electric_scooter"}, {"bike_id": "e86da83ceff3bd1ea6d2c3c9e2bc35ea", "lat": 38.966647, "is_reserved": 0, "fusion_lat": 0.0, "rental_uris": {"android": "https://dc.lft.to/lastmile_qr_scan", "ios": "https://dc.lft.to/lastmile_qr_scan"}, "fusion_lon": 0.0, "name": "e86da83ceff3bd1ea6d2c3c9e2bc35ea", "lon": -76.97452916666667, "is_disabled": 0, "type": "electric_bike"}, {"bike_id": "6c52d5cc98cc22e5375cd02b0b8ef371", "lat": 38.924128, "is_reserved": 0, "fusion_lat": 0.0, "rental_uris": {"android": "https://dc.lft.to/lastmile_qr_scan", "ios": "https://dc.lft.to/lastmile_qr_scan"}, "fusion_lon": 0.0, "name": "6c52d5cc98cc22e5375cd02b0b8ef371", "lon": -77.03909433333334, "is_disabled": 0, "type": "electric_scooter"}, {"bike_id": "600aeb260daab1597a4b351bbd444cee", "lat": 38.916195333333334, "is_reserved": 0, "fusion_lat": 0.0, "rental_uris": {"android": "https://dc.lft.to/lastmile_qr_scan", "ios": "https://dc.lft.to/lastmile_qr_scan"}, "fusion_lon": 0.0, "name": "600aeb260daab1597a4b351bbd444cee", "lon": -77.02294316666666, "is_disabled": 0, "type": "electric_scooter"}, {"bike_id": "c6d0fe5e8a1bd7d2be023e0a25129470", "lat": 38.884265666666664, "is_reserved": 0, "fusion_lat": 0.0, "rental_uris": {"android": "https://dc.lft.to/lastmile_qr_scan", "ios": "https://dc.lft.to/lastmile_qr_scan"}, "fusion_lon": 0.0, "name": "c6d0fe5e8a1bd7d2be023e0a25129470", "lon": -76.957607, "is_disabled": 0, "type": "electric_scooter"}, {"bike_id": "f1de6d45b0be8971b7967f0f16c9f51e", "lat": 38.8972025, "is_reserved": 0, "fusion_lat": 0.0, "rental_uris": {"android": "https://dc.lft.to/lastmile_qr_scan", "ios": "https://dc.lft.to/lastmile_qr_scan"}, "fusion_lon": 0.0, "name": "f1de6d45b0be8971b7967f0f16c9f51e", "lon": -77.024717, "is_disabled": 0, "type": "electric_scooter"}, {"bike_id": "b1141b564afddc070efa2bd2c58d6a1a", "lat": 38.92151833333333, "is_reserved": 0, "fusion_lat": 0.0, "rental_uris": {"android": "https://dc.lft.to/lastmile_qr_scan", "ios": "https://dc.lft.to/lastmile_qr_scan"}, "fusion_lon": 0.0, "name": "b1141b564afddc070efa2bd2c58d6a1a", "lon": -77.03872566666666, "is_disabled": 0, "type": "electric_scooter"}, {"bike_id": "eafb3f1e6855cdb871429445fe248e27", "lat": 38.942404833333335, "is_reserved": 0, "fusion_lat": 0.0, "rental_uris": {"android": "https://dc.lft.to/lastmile_qr_scan", "ios": "https://dc.lft.to/lastmile_qr_scan"}, "fusion_lon": 0.0, "name": "eafb3f1e6855cdb871429445fe248e27", "lon": -77.0358215, "is_disabled": 0, "type": "electric_scooter"}, {"bike_id": "808305c40d47d0d9c3ec1bb5303fc94f", "lat": 38.905663833333335, "is_reserved": 0, "fusion_lat": 0.0, "rental_uris": {"android": "https://dc.lft.to/lastmile_qr_scan", "ios": "https://dc.lft.to/lastmile_qr_scan"}, "fusion_lon": 0.0, "name": "808305c40d47d0d9c3ec1bb5303fc94f", "lon": -77.00287866666666, "is_disabled": 0, "type": "electric_scooter"}, {"bike_id": "34d37fe41ae8305b3beca5f8bfe27672", "lat": 38.903667, "is_reserved": 0, "fusion_lat": 0.0, "rental_uris": {"android": "https://dc.lft.to/lastmile_qr_scan", "ios": "https://dc.lft.to/lastmile_qr_scan"}, "fusion_lon": 0.0, "name": "34d37fe41ae8305b3beca5f8bfe27672", "lon": -77.02686066666666, "is_disabled": 0, "type": "electric_scooter"}, {"bike_id": "674dc0cce1a1b38377a3ccfce12e0142", "lat": 38.89757783333334, "is_reserved": 0, "fusion_lat": 0.0, "rental_uris": {"android": "https://dc.lft.to/lastmile_qr_scan", "ios": "https://dc.lft.to/lastmile_qr_scan"}, "fusion_lon": 0.0, "name": "674dc0cce1a1b38377a3ccfce12e0142", "lon": -76.9471115, "is_disabled": 0, "type": "electric_scooter"}, {"bike_id": "f815107385882f31ca02c9e449eb577a", "lat": 38.909852, "is_reserved": 0, "fusion_lat": 0.0, "rental_uris": {"android": "https://dc.lft.to/lastmile_qr_scan", "ios": "https://dc.lft.to/lastmile_qr_scan"}, "fusion_lon": 0.0, "name": "f815107385882f31ca02c9e449eb577a", "lon": -77.0346765, "is_disabled": 0, "type": "electric_scooter"}, {"bike_id": "0031f70d7cbd1e3b2d17d00101b73a70", "lat": 38.900322833333334, "is_reserved": 0, "fusion_lat": 0.0, "rental_uris": {"android": "https://dc.lft.to/lastmile_qr_scan", "ios": "https://dc.lft.to/lastmile_qr_scan"}, "fusion_lon": 0.0, "name": "0031f70d7cbd1e3b2d17d00101b73a70", "lon": -77.02835966666666, "is_disabled": 0, "type": "electric_scooter"}, {"bike_id": "20ad41d0bf87120692093931e106fa64", "lat": 38.914430333333335, "is_reserved": 0, "fusion_lat": 0.0, "rental_uris": {"android": "https://dc.lft.to/lastmile_qr_scan", "ios": "https://dc.lft.to/lastmile_qr_scan"}, "fusion_lon": 0.0, "name": "20ad41d0bf87120692093931e106fa64", "lon": -77.02596683333333, "is_disabled": 0, "type": "electric_scooter"}, {"bike_id": "b0b46e3851e9dfb7f4db49cd9954a274", "lat": 38.933863833333334, "is_reserved": 0, "fusion_lat": 0.0, "rental_uris": {"android": "https://dc.lft.to/lastmile_qr_scan", "ios": "https://dc.lft.to/lastmile_qr_scan"}, "fusion_lon": 0.0, "name": "b0b46e3851e9dfb7f4db49cd9954a274", "lon": -77.05743216666667, "is_disabled": 0, "type": "electric_scooter"}, {"bike_id": "40543254ec4b4b3ef4b87b182899b2f0", "lat": 38.9142395, "is_reserved": 0, "fusion_lat": 0.0, "rental_uris": {"android": "https://dc.lft.to/lastmile_qr_scan", "ios": "https://dc.lft.to/lastmile_qr_scan"}, "fusion_lon": 0.0, "name": "40543254ec4b4b3ef4b87b182899b2f0", "lon": -77.01989933333333, "is_disabled": 0, "type": "electric_scooter"}, {"bike_id": "3ffcc8fe02ad51f3f382cc4c1f65e50a", "lat": 38.94085483333333, "is_reserved": 0, "fusion_lat": 0.0, "rental_uris": {"android": "https://dc.lft.to/lastmile_qr_scan", "ios": "https://dc.lft.to/lastmile_qr_scan"}, "fusion_lon": 0.0, "name": "3ffcc8fe02ad51f3f382cc4c1f65e50a", "lon": -77.0272945, "is_disabled": 0, "type": "electric_scooter"}, {"bike_id": "dadb63610783920ad967ff60031ad1fc", "lat": 38.9058615, "is_reserved": 0, "fusion_lat": 0.0, "rental_uris": {"android": "https://dc.lft.to/lastmile_qr_scan", "ios": "https://dc.lft.to/lastmile_qr_scan"}, "fusion_lon": 0.0, "name": "dadb63610783920ad967ff60031ad1fc", "lon": -77.02186383333333, "is_disabled": 0, "type": "electric_scooter"}, {"bike_id": "9077dbd2460e64d581729d7c1d317f8f", "lat": 38.906484166666665, "is_reserved": 0, "fusion_lat": 0.0, "rental_uris": {"android": "https://dc.lft.to/lastmile_qr_scan", "ios": "https://dc.lft.to/lastmile_qr_scan"}, "fusion_lon": 0.0, "name": "9077dbd2460e64d581729d7c1d317f8f", "lon": -77.005954, "is_disabled": 0, "type": "electric_scooter"}, {"bike_id": "c10783246ce941e7b001a8723f767f8e", "lat": 38.91691016666667, "is_reserved": 0, "fusion_lat": 0.0, "rental_uris": {"android": "https://dc.lft.to/lastmile_qr_scan", "ios": "https://dc.lft.to/lastmile_qr_scan"}, "fusion_lon": 0.0, "name": "c10783246ce941e7b001a8723f767f8e", "lon": -77.03774566666667, "is_disabled": 0, "type": "electric_scooter"}, {"bike_id": "f9e1ddeef6e324608a2afa5663486f6a", "lat": 38.88539733333333, "is_reserved": 0, "fusion_lat": 0.0, "rental_uris": {"android": "https://dc.lft.to/lastmile_qr_scan", "ios": "https://dc.lft.to/lastmile_qr_scan"}, "fusion_lon": 0.0, "name": "f9e1ddeef6e324608a2afa5663486f6a", "lon": -77.00584966666666, "is_disabled": 0, "type": "electric_scooter"}, {"bike_id": "47ab9b596180957a136e80a9c21cee39", "lat": 38.908186666666666, "is_reserved": 0, "fusion_lat": 0.0, "rental_uris": {"android": "https://dc.lft.to/lastmile_qr_scan", "ios": "https://dc.lft.to/lastmile_qr_scan"}, "fusion_lon": 0.0, "name": "47ab9b596180957a136e80a9c21cee39", "lon": -76.99711316666667, "is_disabled": 0, "type": "electric_scooter"}, {"bike_id": "92356ede5a2becb2cce3a1b9fe1ba42f", "lat": 38.90312983333333, "is_reserved": 0, "fusion_lat": 0.0, "rental_uris": {"android": "https://dc.lft.to/lastmile_qr_scan", "ios": "https://dc.lft.to/lastmile_qr_scan"}, "fusion_lon": 0.0, "name": "92356ede5a2becb2cce3a1b9fe1ba42f", "lon": -77.04854766666666, "is_disabled": 0, "type": "electric_scooter"}, {"bike_id": "e41b93e4b6625be668ebabe144de6a23", "lat": 38.917699666666664, "is_reserved": 0, "fusion_lat": 0.0, "rental_uris": {"android": "https://dc.lft.to/lastmile_qr_scan", "ios": "https://dc.lft.to/lastmile_qr_scan"}, "fusion_lon": 0.0, "name": "e41b93e4b6625be668ebabe144de6a23", "lon": -77.02950216666666, "is_disabled": 0, "type": "electric_scooter"}, {"bike_id": "846a74a888ede2e68edd39ea7980c284", "lat": 38.918265833333336, "is_reserved": 0, "fusion_lat": 0.0, "rental_uris": {"android": "https://dc.lft.to/lastmile_qr_scan", "ios": "https://dc.lft.to/lastmile_qr_scan"}, "fusion_lon": 0.0, "name": "846a74a888ede2e68edd39ea7980c284", "lon": -77.04158783333334, "is_disabled": 0, "type": "electric_scooter"}, {"bike_id": "3f96268369b2b2c7ed68a372afedd194", "lat": 38.89777733333333, "is_reserved": 0, "fusion_lat": 0.0, "rental_uris": {"android": "https://dc.lft.to/lastmile_qr_scan", "ios": "https://dc.lft.to/lastmile_qr_scan"}, "fusion_lon": 0.0, "name": "3f96268369b2b2c7ed68a372afedd194", "lon": -77.0338005, "is_disabled": 0, "type": "electric_scooter"}, {"bike_id": "419a1bf677bc285174e29c074df39d4b", "lat": 38.92869666666667, "is_reserved": 0, "fusion_lat": 0.0, "rental_uris": {"android": "https://dc.lft.to/lastmile_qr_scan", "ios": "https://dc.lft.to/lastmile_qr_scan"}, "fusion_lon": 0.0, "name": "419a1bf677bc285174e29c074df39d4b", "lon": -76.99035166666667, "is_disabled": 0, "type": "electric_scooter"}, {"bike_id": "a77d92651c82f4d401514d0c4c8ad123", "lat": 38.92417566666666, "is_reserved": 0, "fusion_lat": 0.0, "rental_uris": {"android": "https://dc.lft.to/lastmile_qr_scan", "ios": "https://dc.lft.to/lastmile_qr_scan"}, "fusion_lon": 0.0, "name": "a77d92651c82f4d401514d0c4c8ad123", "lon": -77.019514, "is_disabled": 0, "type": "electric_scooter"}, {"bike_id": "047b390417ea18d0da76d1ba0e9d2330", "lat": 39.01366616666667, "is_reserved": 0, "fusion_lat": 0.0, "rental_uris": {"android": "https://dc.lft.to/lastmile_qr_scan", "ios": "https://dc.lft.to/lastmile_qr_scan"}, "fusion_lon": 0.0, "name": "047b390417ea18d0da76d1ba0e9d2330", "lon": -76.92138266666667, "is_disabled": 0, "type": "electric_bike"}, {"bike_id": "65d50a1cef16feeb4339edba98ae7ed5", "lat": 38.8870805, "is_reserved": 0, "fusion_lat": 0.0, "rental_uris": {"android": "https://dc.lft.to/lastmile_qr_scan", "ios": "https://dc.lft.to/lastmile_qr_scan"}, "fusion_lon": 0.0, "name": "65d50a1cef16feeb4339edba98ae7ed5", "lon": -77.01778733333333, "is_disabled": 0, "type": "electric_scooter"}, {"bike_id": "33087a56a5544b4aa418e82400ef8cdc", "lat": 39.0398715, "is_reserved": 0, "fusion_lat": 0.0, "rental_uris": {"android": "https://dc.lft.to/lastmile_qr_scan", "ios": "https://dc.lft.to/lastmile_qr_scan"}, "fusion_lon": 0.0, "name": "33087a56a5544b4aa418e82400ef8cdc", "lon": -76.99930633333334, "is_disabled": 0, "type": "electric_bike"}, {"bike_id": "a1c17407bac7f780e9291499196b3197", "lat": 38.92337216666667, "is_reserved": 0, "fusion_lat": 0.0, "rental_uris": {"android": "https://dc.lft.to/lastmile_qr_scan", "ios": "https://dc.lft.to/lastmile_qr_scan"}, "fusion_lon": 0.0, "name": "a1c17407bac7f780e9291499196b3197", "lon": -77.03507033333334, "is_disabled": 0, "type": "electric_scooter"}, {"bike_id": "f1af6cafee35f1fed0d5bf42de6b11c6", "lat": 38.89224216666667, "is_reserved": 0, "fusion_lat": 0.0, "rental_uris": {"android": "https://dc.lft.to/lastmile_qr_scan", "ios": "https://dc.lft.to/lastmile_qr_scan"}, "fusion_lon": 0.0, "name": "f1af6cafee35f1fed0d5bf42de6b11c6", "lon": -77.03173633333333, "is_disabled": 0, "type": "electric_scooter"}, {"bike_id": "f667319b39c5eb0246ceab751c96c970", "lat": 38.88819016666667, "is_reserved": 0, "fusion_lat": 0.0, "rental_uris": {"android": "https://dc.lft.to/lastmile_qr_scan", "ios": "https://dc.lft.to/lastmile_qr_scan"}, "fusion_lon": 0.0, "name": "f667319b39c5eb0246ceab751c96c970", "lon": -76.930154, "is_disabled": 0, "type": "electric_scooter"}, {"bike_id": "ef497fc4069665eee66252674a059e55", "lat": 38.907212666666666, "is_reserved": 0, "fusion_lat": 0.0, "rental_uris": {"android": "https://dc.lft.to/lastmile_qr_scan", "ios": "https://dc.lft.to/lastmile_qr_scan"}, "fusion_lon": 0.0, "name": "ef497fc4069665eee66252674a059e55", "lon": -77.02274, "is_disabled": 0, "type": "electric_scooter"}, {"bike_id": "f62d978b3216cd72867c5e93724ec565", "lat": 38.9211895, "is_reserved": 0, "fusion_lat": 0.0, "rental_uris": {"android": "https://dc.lft.to/lastmile_qr_scan", "ios": "https://dc.lft.to/lastmile_qr_scan"}, "fusion_lon": 0.0, "name": "f62d978b3216cd72867c5e93724ec565", "lon": -77.036623, "is_disabled": 0, "type": "electric_scooter"}, {"bike_id": "50a8e2a875d7a165901c43ff94b80376", "lat": 38.932432166666665, "is_reserved": 0, "fusion_lat": 0.0, "rental_uris": {"android": "https://dc.lft.to/lastmile_qr_scan", "ios": "https://dc.lft.to/lastmile_qr_scan"}, "fusion_lon": 0.0, "name": "50a8e2a875d7a165901c43ff94b80376", "lon": -76.995129, "is_disabled": 0, "type": "electric_scooter"},